{"data": {"bikes": [{"lon": -77.001808, "name": "de193e0ae16238d4abebbedaf8e4f5ea", "is_disabled": 0, "type": "electric_scooter", "is_reserved": 0, "fusion_lon": 0.0, "lat": 38.8885795, "rental_uris": {"ios": "https://dc.lft.to/lastmile_qr_scan", "android": "https://dc.lft.to/lastmile_qr_scan"}, "bike_id": "de193e0ae16238d4abebbedaf8e4f5ea", "fusion_lat": 0.0}, {"lon": -77.05880766666667, "name": "ebde9cb26f21b9972c1b6241f71b8b71", "is_disabled": 0, "type": "electric_scooter", "is_reserved": 0, "fusion_lon": 0.0, "lat": 38.935589, "rental_uris": {"ios": "https://dc.lft.to/lastmile_qr_scan", "android": "https://dc.lft.to/lastmile_qr_scan"}, "bike_id": "ebde9cb26f21b9972c1b6241f71b8b71", "fusion_lat": 0.0}, {"lon": -77.02202283333334, "name": "7c8234a333681832083fe7701ca97acb", "is_disabled": 0, "type": "electric_scooter", "is_reserved": 0, "fusion_lon": 0.0, "lat": 38.88705783333333, "rental_uris": {"ios": "https://dc.lft.to/lastmile_qr_scan", "android": "https://dc.lft.to/lastmile_qr_scan"}, "bike_id": "7c8234a333681832083fe7701ca97acb", "fusion_lat": 0.0}, {"lon": -77.02948433333333, "name": "9562a63d80d6d51af0c53b7d9ec4f707", "is_disabled": 0, "type": "electric_scooter", "is_reserved": 0, "fusion_lon": 0.0, "lat": 38.92761683333333, "rental_uris": {"ios": "https://dc.lft.to/lastmile_qr_scan", "android": "https://dc.lft.to/lastmile_qr_scan"}, "bike_id": "9562a63d80d6d51af0c53b7d9ec4f707", "fusion_lat": 0.0}, {"lon": -77.0295465, "name": "045b5a31530413d813e8a23bd51106bc", "is_disabled": 0, "type": "electric_scooter", "is_reserved": 0, "fusion_lon": 0.0, "lat": 38.916842, "rental_uris": {"ios": "https://dc.lft.to/lastmile_qr_scan", "android": "https://dc.lft.to/lastmile_qr_scan"}, "bike_id": "045b5a31530413d813e8a23bd51106bc", "fusion_lat": 0.0}, {"lon": -76.98538916666666, "name": "f70bafe004e5d7b16a36a19a342a0cf0", "is_disabled": 0, "type": "electric_scooter", "is_reserved": 0, "fusion_lon": 0.0, "lat": 38.91485733333333, "rental_uris": {"ios": "https://dc.lft.to/lastmile_qr_scan", "android": "https://dc.lft.to/lastmile_qr_scan"}, "bike_id": "f70bafe004e5d7b16a36a19a342a0cf0", "fusion_lat": 0.0}, {"lon": -77.02637733333333, "name": "08b60ba0523af1532fbe26d4b8e78322", "is_disabled": 0, "type": "electric_scooter", "is_reserved": 0, "fusion_lon": 0.0, "lat": 38.91102716666666, "rental_uris": {"ios": "https://dc.lft.to/lastmile_qr_scan", "android": "https://dc.lft.to/lastmile_qr_scan"}, "bike_id": "08b60ba0523af1532fbe26d4b8e78322", "fusion_lat": 0.0}, {"lon": -77.02228366666667, "name": "6be3f96627c880693911d09ae46ed870", "is_disabled": 0, "type": "electric_scooter", "is_reserved": 0, "fusion_lon": 0.0, "lat": 38.924786166666664, "rental_uris": {"ios": "https://dc.lft.to/lastmile_qr_scan", "android": "https://dc.lft.to/lastmile_qr_scan"}, "bike_id": "6be3f96627c880693911d09ae46ed870", "fusion_lat": 0.0}, {"lon": -77.00577166666666, "name": "d5891006547adb39ab6c829a4ff9cd0c", "is_disabled": 0, "type": "electric_scooter", "is_reserved": 0, "fusion_lon": 0.0, "lat": 38.872095333333334, "rental_uris": {"ios": "https://dc.lft.to/lastmile_qr_scan", "android": "https://dc.lft.to/lastmile_qr_scan"}, "bike_id": "d5891006547adb39ab6c829a4ff9cd0c", "fusion_lat": 0.0}, {"lon": -77.0499915, "name": "ff5c72012298195fa8fcd5c3f5c32f5a", "is_disabled": 0, "type": "electric_scooter", "is_reserved": 0, "fusion_lon": 0.0, "lat": 38.8922765, "rental_uris": {"ios": "https://dc.lft.to/lastmile_qr_scan", "android": "https://dc.lft.to/lastmile_qr_scan"}, "bike_id": "ff5c72012298195fa8fcd5c3f5c32f5a", "fusion_lat": 0.0}, {"lon": -77.00282433333334, "name": "14af05cc940bc2f49d8c07647f8bfd30", "is_disabled": 0, "type": "electric_scooter", "is_reserved": 0, "fusion_lon": 0.0, "lat": 38.891967, "rental_uris": {"ios": "https://dc.lft.to/lastmile_qr_scan", "android": "https://dc.lft.to/lastmile_qr_scan"}, "bike_id": "14af05cc940bc2f49d8c07647f8bfd30", "fusion_lat": 0.0}, {"lon": -77.00334166666667, "name": "3daf525456e49d51e7524e0dec0281ae", "is_disabled": 0, "type": "electric_scooter", "is_reserved": 0, "fusion_lon": 0.0, "lat": 38.893510166666665, "rental_uris": {"ios": "https://dc.lft.to/lastmile_qr_scan", "android": "https://dc.lft.to/lastmile_qr_scan"}, "bike_id": "3daf525456e49d51e7524e0dec0281ae", "fusion_lat": 0.0}, {"lon": -77.04699533333333, "name": "0fb8a68f765ad4cc13ebb0c3c4ea11fd", "is_disabled": 0, "type": "electric_scooter", "is_reserved": 0, "fusion_lon": 0.0, "lat": 38.921522833333334, "rental_uris": {"ios": "https://dc.lft.to/lastmile_qr_scan", "android": "https://dc.lft.to/lastmile_qr_scan"}, "bike_id": "0fb8a68f765ad4cc13ebb0c3c4ea11fd", "fusion_lat": 0.0}, {"lon": -77.02366183333334, "name": "eca48cd0c9ba89b26e5cae628aa2de71", "is_disabled": 0, "type": "electric_scooter", "is_reserved": 0, "fusion_lon": 0.0, "lat": 38.9204245, "rental_uris": {"ios": "https://dc.lft.to/lastmile_qr_scan", "android": "https://dc.lft.to/lastmile_qr_scan"}, "bike_id": "eca48cd0c9ba89b26e5cae628aa2de71", "fusion_lat": 0.0}, {"lon": -77.04018233333333, "name": "ef6903dcf4d5f6fbb1f31aa8c2710576", "is_disabled": 0, "type": "electric_scooter", "is_reserved": 0, "fusion_lon": 0.0, "lat": 38.89823783333333, "rental_uris": {"ios": "https://dc.lft.to/lastmile_qr_scan", "android": "https://dc.lft.to/lastmile_qr_scan"}, "bike_id": "ef6903dcf4d5f6fbb1f31aa8c2710576", "fusion_lat": 0.0}, {"lon": -77.035895, "name": "f481b5a788b64827341f03ad689972ff", "is_disabled": 0, "type": "electric_scooter", "is_reserved": 0, "fusion_lon": 0.0, "lat": 38.916968833333335, "rental_uris": {"ios": "https://dc.lft.to/lastmile_qr_scan", "android": "https://dc.lft.to/lastmile_qr_scan"}, "bike_id": "f481b5a788b64827341f03ad689972ff", "fusion_lat": 0.0}, {"lon": -77.03500483333333, "name": "58de9bd9662c169aaea04e63ba6f145d", "is_disabled": 0, "type": "electric_scooter", "is_reserved": 0, "fusion_lon": 0.0, "lat": 38.916304, "rental_uris": {"ios": "https://dc.lft.to/lastmile_qr_scan", "android": "https://dc.lft.to/lastmile_qr_scan"}, "bike_id": "58de9bd9662c169aaea04e63ba6f145d", "fusion_lat": 0.0}, {"lon": -77.02044766666667, "name": "ba6bc88c4fd09ec9b94c9c9ed274482c", "is_disabled": 0, "type": "electric_scooter", "is_reserved": 0, "fusion_lon": 0.0, "lat": 38.901129833333336, "rental_uris": {"ios": "https://dc.lft.to/lastmile_qr_scan", "android": "https://dc.lft.to/lastmile_qr_scan"}, "bike_id": "ba6bc88c4fd09ec9b94c9c9ed274482c", "fusion_lat": 0.0}, {"lon": -77.00769033333333, "name": "b96327b94bb25be42d07c95db0135317", "is_disabled": 0, "type": "electric_bike", "is_reserved": 0, "fusion_lon": 0.0, "lat": 38.98138433333333, "rental_uris": {"ios": "https://dc.lft.to/lastmile_qr_scan", "android": "https://dc.lft.to/lastmile_qr_scan"}, "bike_id": "b96327b94bb25be42d07c95db0135317", "fusion_lat": 0.0}, {"lon": -77.04585116666667, "name": "29e4cd4a19e11321be3d6e59c1def4cf", "is_disabled": 0, "type": "electric_scooter", "is_reserved": 0, "fusion_lon": 0.0, "lat": 38.908581, "rental_uris": {"ios": "https://dc.lft.to/lastmile_qr_scan", "android": "https://dc.lft.to/lastmile_qr_scan"}, "bike_id": "29e4cd4a19e11321be3d6e59c1def4cf", "fusion_lat": 0.0}, {"lon": -77.039426, "name": "e529e932d853e225ec7d3242998fed34", "is_disabled": 0, "type": "electric_scooter", "is_reserved": 0, "fusion_lon": 0.0, "lat": 38.93058383333333, "rental_uris": {"ios": "https://dc.lft.to/lastmile_qr_scan", "android": "https://dc.lft.to/lastmile_qr_scan"}, "bike_id": "e529e932d853e225ec7d3242998fed34", "fusion_lat": 0.0}, {"lon": -77.02606083333333, "name": "e39659d1d7777b06564e0a49c38be714", "is_disabled": 0, "type": "electric_scooter", "is_reserved": 0, "fusion_lon": 0.0, "lat": 38.898689166666664, "rental_uris": {"ios": "https://dc.lft.to/lastmile_qr_scan", "android": "https://dc.lft.to/lastmile_qr_scan"}, "bike_id": "e39659d1d7777b06564e0a49c38be714", "fusion_lat": 0.0}, {"lon": -76.98373683333334, "name": "9e70e954592bc543d2880c28bf788a2a", "is_disabled": 0, "type": "electric_scooter", "is_reserved": 0, "fusion_lon": 0.0, "lat": 38.89266816666667, "rental_uris": {"ios": "https://dc.lft.to/lastmile_qr_scan", "android": "https://dc.lft.to/lastmile_qr_scan"}, "bike_id": "9e70e954592bc543d2880c28bf788a2a", "fusion_lat": 0.0}, {"lon": -77.01311883333334, "name": "6098ed1ecaf248b9e3c8d99eeb590842", "is_disabled": 0, "type": "electric_scooter", "is_reserved": 0, "fusion_lon": 0.0, "lat": 38.943231833333336, "rental_uris": {"ios": "https://dc.lft.to/lastmile_qr_scan", "android": "https://dc.lft.to/lastmile_qr_scan"}, "bike_id": "6098ed1ecaf248b9e3c8d99eeb590842", "fusion_lat": 0.0}, {"lon": -77.0219055, "name": "97e0711357c348cebe01b1b1a85ac7f7", "is_disabled": 0, "type": "electric_scooter", "is_reserved": 0, "fusion_lon": 0.0, "lat": 38.8859715, "rental_uris": {"ios": "https://dc.lft.to/lastmile_qr_scan", "android": "https://dc.lft.to/lastmile_qr_scan"}, "bike_id": "97e0711357c348cebe01b1b1a85ac7f7", "fusion_lat": 0.0}, {"lon": -77.0333335, "name": "c04558bd978339cf3fa5c7593eea1822", "is_disabled": 0, "type": "electric_scooter", "is_reserved": 0, "fusion_lon": 0.0, "lat": 38.928766833333334, "rental_uris": {"ios": "https://dc.lft.to/lastmile_qr_scan", "android": "https://dc.lft.to/lastmile_qr_scan"}, "bike_id": "c04558bd978339cf3fa5c7593eea1822", "fusion_lat": 0.0}, {"lon": -77.02945583333333, "name": "a88110e3d103d7c8038dc5e12c0ea162", "is_disabled": 0, "type": "electric_scooter", "is_reserved": 0, "fusion_lon": 0.0, "lat": 38.93964783333333, "rental_uris": {"ios": "https://dc.lft.to/lastmile_qr_scan", "android": "https://dc.lft.to/lastmile_qr_scan"}, "bike_id": "a88110e3d103d7c8038dc5e12c0ea162", "fusion_lat": 0.0}, {"lon": -77.050008, "name": "c40c48768a830ff49f45c924255f0f1f", "is_disabled": 0, "type": "electric_scooter", "is_reserved": 0, "fusion_lon": 0.0, "lat": 38.89929033333333, "rental_uris": {"ios": "https://dc.lft.to/lastmile_qr_scan", "android": "https://dc.lft.to/lastmile_qr_scan"}, "bike_id": "c40c48768a830ff49f45c924255f0f1f", "fusion_lat": 0.0}, {"lon": -77.0489455, "name": "2f0be1346704d87c8eb3485f5db88a45", "is_disabled": 0, "type": "electric_scooter", "is_reserved": 0, "fusion_lon": 0.0, "lat": 38.9005645, "rental_uris": {"ios": "https://dc.lft.to/lastmile_qr_scan", "android": "https://dc.lft.to/lastmile_qr_scan"}, "bike_id": "2f0be1346704d87c8eb3485f5db88a45", "fusion_lat": 0.0}, {"lon": -77.0218965, "name": "34535f028035f5aeeb37b00e0e69b888", "is_disabled": 0, "type": "electric_scooter", "is_reserved": 0, "fusion_lon": 0.0, "lat": 38.91967233333333, "rental_uris": {"ios": "https://dc.lft.to/lastmile_qr_scan", "android": "https://dc.lft.to/lastmile_qr_scan"}, "bike_id": "34535f028035f5aeeb37b00e0e69b888", "fusion_lat": 0.0}, {"lon": -77.044643, "name": "c52aedf7be2f8337f613a776c6b1d37a", "is_disabled": 0, "type": "electric_scooter", "is_reserved": 0, "fusion_lon": 0.0, "lat": 38.92309183333333, "rental_uris": {"ios": "https://dc.lft.to/lastmile_qr_scan", "android": "https://dc.lft.to/lastmile_qr_scan"}, "bike_id": "c52aedf7be2f8337f613a776c6b1d37a", "fusion_lat": 0.0}, {"lon": -77.01605466666666, "name": "c0c2e595a8e3107ddded5e22af7a8bc8", "is_disabled": 0, "type": "electric_scooter", "is_reserved": 0, "fusion_lon": 0.0, "lat": 38.9194255, "rental_uris": {"ios": "https://dc.lft.to/lastmile_qr_scan", "android": "https://dc.lft.to/lastmile_qr_scan"}, "bike_id": "c0c2e595a8e3107ddded5e22af7a8bc8", "fusion_lat": 0.0}, {"lon": -77.03128533333333, "name": "a110a25d305730dc85ee169f1a4aa733", "is_disabled": 0, "type": "electric_scooter", "is_reserved": 0, "fusion_lon": 0.0, "lat": 38.920232, "rental_uris": {"ios": "https://dc.lft.to/lastmile_qr_scan", "android": "https://dc.lft.to/lastmile_qr_scan"}, "bike_id": "a110a25d305730dc85ee169f1a4aa733", "fusion_lat": 0.0}, {"lon": -77.04503933333334, "name": "762de5c98fd7756f4dc52fed2ddd9352", "is_disabled": 0, "type": "electric_scooter", "is_reserved": 0, "fusion_lon": 0.0, "lat": 38.89593333333333, "rental_uris": {"ios": "https://dc.lft.to/lastmile_qr_scan", "android": "https://dc.lft.to/lastmile_qr_scan"}, "bike_id": "762de5c98fd7756f4dc52fed2ddd9352", "fusion_lat": 0.0}, {"lon": -77.023762, "name": "3dbfe980db49f98b85a7b6025bc2ecac", "is_disabled": 0, "type": "electric_scooter", "is_reserved": 0, "fusion_lon": 0.0, "lat": 38.92055533333333, "rental_uris": {"ios": "https://dc.lft.to/lastmile_qr_scan", "android": "https://dc.lft.to/lastmile_qr_scan"}, "bike_id": "3dbfe980db49f98b85a7b6025bc2ecac", "fusion_lat": 0.0}, {"lon": -77.01227416666667, "name": "ba0b9d41e5f2883b14a489360c35a6d1", "is_disabled": 0, "type": "electric_scooter", "is_reserved": 0, "fusion_lon": 0.0, "lat": 38.9160025, "rental_uris": {"ios": "https://dc.lft.to/lastmile_qr_scan", "android": "https://dc.lft.to/lastmile_qr_scan"}, "bike_id": "ba0b9d41e5f2883b14a489360c35a6d1", "fusion_lat": 0.0}, {"lon": -77.029556, "name": "887231b38a5bf6f7c60e2cbbc8521f35", "is_disabled": 0, "type": "electric_scooter", "is_reserved": 0, "fusion_lon": 0.0, "lat": 38.943018333333335, "rental_uris": {"ios": "https://dc.lft.to/lastmile_qr_scan", "android": "https://dc.lft.to/lastmile_qr_scan"}, "bike_id": "887231b38a5bf6f7c60e2cbbc8521f35", "fusion_lat": 0.0}, {"lon": -77.09017783333333, "name": "a06de3caded4dc761dab017f5819cd57", "is_disabled": 0, "type": "electric_bike", "is_reserved": 0, "fusion_lon": 0.0, "lat": 38.926511, "rental_uris": {"ios": "https://dc.lft.to/lastmile_qr_scan", "android": "https://dc.lft.to/lastmile_qr_scan"}, "bike_id": "a06de3caded4dc761dab017f5819cd57", "fusion_lat": 0.0}, {"lon": -77.07232533333334, "name": "1cd075724b412cef06b65be0d9f2d3c9", "is_disabled": 0, "type": "electric_scooter", "is_reserved": 0, "fusion_lon": 0.0, "lat": 38.916316333333334, "rental_uris": {"ios": "https://dc.lft.to/lastmile_qr_scan", "android": "https://dc.lft.to/lastmile_qr_scan"}, "bike_id": "1cd075724b412cef06b65be0d9f2d3c9", "fusion_lat": 0.0}, {"lon": -77.06302983333333, "name": "d912690ab210f8c542ce90d2da237596", "is_disabled": 0, "type": "electric_scooter", "is_reserved": 0, "fusion_lon": 0.0, "lat": 38.907745, "rental_uris": {"ios": "https://dc.lft.to/lastmile_qr_scan", "android": "https://dc.lft.to/lastmile_qr_scan"}, "bike_id": "d912690ab210f8c542ce90d2da237596", "fusion_lat": 0.0}, {"lon": -77.03960283333333, "name": "bf7fe3139336013dc323ffd2fca463a2", "is_disabled": 0, "type": "electric_scooter", "is_reserved": 0, "fusion_lon": 0.0, "lat": 38.90238516666667, "rental_uris": {"ios": "https://dc.lft.to/lastmile_qr_scan", "android": "https://dc.lft.to/lastmile_qr_scan"}, "bike_id": "bf7fe3139336013dc323ffd2fca463a2", "fusion_lat": 0.0}, {"lon": -77.00136, "name": "4038f38096b8b755087cc331cc950462", "is_disabled": 0, "type": "electric_bike", "is_reserved": 0, "fusion_lon": 0.0, "lat": 38.994974, "rental_uris": {"ios": "https://dc.lft.to/lastmile_qr_scan", "android": "https://dc.lft.to/lastmile_qr_scan"}, "bike_id": "4038f38096b8b755087cc331cc950462", "fusion_lat": 0.0}, {"lon": -76.94855683333333, "name": "dba46a408446484c023cbf9b7681b14e", "is_disabled": 0, "type": "electric_scooter", "is_reserved": 0, "fusion_lon": 0.0, "lat": 38.896064333333335, "rental_uris": {"ios": "https://dc.lft.to/lastmile_qr_scan", "android": "https://dc.lft.to/lastmile_qr_scan"}, "bike_id": "dba46a408446484c023cbf9b7681b14e", "fusion_lat": 0.0}, {"lon": -76.9730425, "name": "35175350404399e1086eba5e9ad5b2b6", "is_disabled": 0, "type": "electric_scooter", "is_reserved": 0, "fusion_lon": 0.0, "lat": 38.919846, "rental_uris": {"ios": "https://dc.lft.to/lastmile_qr_scan", "android": "https://dc.lft.to/lastmile_qr_scan"}, "bike_id": "35175350404399e1086eba5e9ad5b2b6", "fusion_lat": 0.0}, {"lon": -77.0053405, "name": "ab40828ae9ea5fc83a5cfd277332e215", "is_disabled": 0, "type": "electric_scooter", "is_reserved": 0, "fusion_lon": 0.0, "lat": 38.8754275, "rental_uris": {"ios": "https://dc.lft.to/lastmile_qr_scan", "android": "https://dc.lft.to/lastmile_qr_scan"}, "bike_id": "ab40828ae9ea5fc83a5cfd277332e215", "fusion_lat": 0.0}, {"lon": -77.008646, "name": "ee6602fd15913ef3bbdacbbef61579ea", "is_disabled": 0, "type": "electric_scooter", "is_reserved": 0, "fusion_lon": 0.0, "lat": 38.8973915, "rental_uris": {"ios": "https://dc.lft.to/lastmile_qr_scan", "android": "https://dc.lft.to/lastmile_qr_scan"}, "bike_id": "ee6602fd15913ef3bbdacbbef61579ea", "fusion_lat": 0.0}, {"lon": -77.03138966666667, "name": "af02a468fe6063867570114167eab7f1", "is_disabled": 0, "type": "electric_scooter", "is_reserved": 0, "fusion_lon": 0.0, "lat": 38.9419435, "rental_uris": {"ios": "https://dc.lft.to/lastmile_qr_scan", "android": "https://dc.lft.to/lastmile_qr_scan"}, "bike_id": "af02a468fe6063867570114167eab7f1", "fusion_lat": 0.0}, {"lon": -77.04502166666667, "name": "32986911dce32567014cc8661c8b6473", "is_disabled": 0, "type": "electric_scooter", "is_reserved": 0, "fusion_lon": 0.0, "lat": 38.91929483333333, "rental_uris": {"ios": "https://dc.lft.to/lastmile_qr_scan", "android": "https://dc.lft.to/lastmile_qr_scan"}, "bike_id": "32986911dce32567014cc8661c8b6473", "fusion_lat": 0.0}, {"lon": -77.0095525, "name": "20dee6ba9cba06578ae778d6f3f30297", "is_disabled": 0, "type": "electric_scooter", "is_reserved": 0, "fusion_lon": 0.0, "lat": 38.90727066666667, "rental_uris": {"ios": "https://dc.lft.to/lastmile_qr_scan", "android": "https://dc.lft.to/lastmile_qr_scan"}, "bike_id": "20dee6ba9cba06578ae778d6f3f30297", "fusion_lat": 0.0}, {"lon": -76.98375216666666, "name": "f924d4a80ba03444587186bda5a826ff", "is_disabled": 0, "type": "electric_scooter", "is_reserved": 0, "fusion_lon": 0.0, "lat": 38.88725066666667, "rental_uris": {"ios": "https://dc.lft.to/lastmile_qr_scan", "android": "https://dc.lft.to/lastmile_qr_scan"}, "bike_id": "f924d4a80ba03444587186bda5a826ff", "fusion_lat": 0.0}, {"lon": -76.99144883333334, "name": "771b7c773e17a6c989c6f5afe39cc959", "is_disabled": 0, "type": "electric_scooter", "is_reserved": 0, "fusion_lon": 0.0, "lat": 38.900329, "rental_uris": {"ios": "https://dc.lft.to/lastmile_qr_scan", "android": "https://dc.lft.to/lastmile_qr_scan"}, "bike_id": "771b7c773e17a6c989c6f5afe39cc959", "fusion_lat": 0.0}, {"lon": -77.02115083333334, "name": "76d3e6cab9b51b1a450568c463b7dd67", "is_disabled": 0, "type": "electric_scooter", "is_reserved": 0, "fusion_lon": 0.0, "lat": 38.921643833333334, "rental_uris": {"ios": "https://dc.lft.to/lastmile_qr_scan", "android": "https://dc.lft.to/lastmile_qr_scan"}, "bike_id": "76d3e6cab9b51b1a450568c463b7dd67", "fusion_lat": 0.0}, {"lon": -77.06654116666667, "name": "a1405ac089288ec5b44436aa300121cd", "is_disabled": 0, "type": "electric_scooter", "is_reserved": 0, "fusion_lon": 0.0, "lat": 38.906787666666666, "rental_uris": {"ios": "https://dc.lft.to/lastmile_qr_scan", "android": "https://dc.lft.to/lastmile_qr_scan"}, "bike_id": "a1405ac089288ec5b44436aa300121cd", "fusion_lat": 0.0}, {"lon": -77.057503, "name": "84f3d93d567eee8e537f73c8a6722d48", "is_disabled": 0, "type": "electric_scooter", "is_reserved": 0, "fusion_lon": 0.0, "lat": 38.92869366666667, "rental_uris": {"ios": "https://dc.lft.to/lastmile_qr_scan", "android": "https://dc.lft.to/lastmile_qr_scan"}, "bike_id": "84f3d93d567eee8e537f73c8a6722d48", "fusion_lat": 0.0}, {"lon": -77.02239316666666, "name": "345d3fece90e0927a320716f84fb2721", "is_disabled": 0, "type": "electric_scooter", "is_reserved": 0, "fusion_lon": 0.0, "lat": 38.8976445, "rental_uris": {"ios": "https://dc.lft.to/lastmile_qr_scan", "android": "https://dc.lft.to/lastmile_qr_scan"}, "bike_id": "345d3fece90e0927a320716f84fb2721", "fusion_lat": 0.0}, {"lon": -77.0269565, "name": "e71629ac5be72143bf0ab906fc6c19a8", "is_disabled": 0, "type": "electric_scooter", "is_reserved": 0, "fusion_lon": 0.0, "lat": 38.90841066666667, "rental_uris": {"ios": "https://dc.lft.to/lastmile_qr_scan", "android": "https://dc.lft.to/lastmile_qr_scan"}, "bike_id": "e71629ac5be72143bf0ab906fc6c19a8", "fusion_lat": 0.0}, {"lon": -77.04893866666667, "name": "5f3060e929af9117ac6f2a6bdf8e4115", "is_disabled": 0, "type": "electric_scooter", "is_reserved": 0, "fusion_lon": 0.0, "lat": 38.90064316666667, "rental_uris": {"ios": "https://dc.lft.to/lastmile_qr_scan", "android": "https://dc.lft.to/lastmile_qr_scan"}, "bike_id": "5f3060e929af9117ac6f2a6bdf8e4115", "fusion_lat": 0.0}, {"lon": -77.14870483333333, "name": "25bd1a6d388376bc0a61d53cd815a5d2", "is_disabled": 0, "type": "electric_bike", "is_reserved": 0, "fusion_lon": 0.0, "lat": 38.877379833333336, "rental_uris": {"ios": "https://dc.lft.to/lastmile_qr_scan", "android": "https://dc.lft.to/lastmile_qr_scan"}, "bike_id": "25bd1a6d388376bc0a61d53cd815a5d2", "fusion_lat": 0.0}, {"lon": -76.973411, "name": "7e5f9d4749027d04c2b20a79c4b0c114", "is_disabled": 0, "type": "electric_bike", "is_reserved": 0, "fusion_lon": 0.0, "lat": 38.865181666666665, "rental_uris": {"ios": "https://dc.lft.to/lastmile_qr_scan", "android": "https://dc.lft.to/lastmile_qr_scan"}, "bike_id": "7e5f9d4749027d04c2b20a79c4b0c114", "fusion_lat": 0.0}, {"lon": -77.03451183333334, "name": "e078a2b2e7f26ff949a6a59d1fd1f80d", "is_disabled": 0, "type": "electric_scooter", "is_reserved": 0, "fusion_lon": 0.0, "lat": 38.900892666666664, "rental_uris": {"ios": "https://dc.lft.to/lastmile_qr_scan", "android": "https://dc.lft.to/lastmile_qr_scan"}, "bike_id": "e078a2b2e7f26ff949a6a59d1fd1f80d", "fusion_lat": 0.0}, {"lon": -76.94885916666667, "name": "c3ed1326cb641b70b791c26ac4fad93d", "is_disabled": 0, "type": "electric_scooter", "is_reserved": 0, "fusion_lon": 0.0, "lat": 38.89510116666666, "rental_uris": {"ios": "https://dc.lft.to/lastmile_qr_scan", "android": "https://dc.lft.to/lastmile_qr_scan"}, "bike_id": "c3ed1326cb641b70b791c26ac4fad93d", "fusion_lat": 0.0}, {"lon": -77.00332766666666, "name": "a52ff77ce310b5aa2a5f75e9d2b0532f", "is_disabled": 0, "type": "electric_scooter", "is_reserved": 0, "fusion_lon": 0.0, "lat": 38.893645666666664, "rental_uris": {"ios": "https://dc.lft.to/lastmile_qr_scan", "android": "https://dc.lft.to/lastmile_qr_scan"}, "bike_id": "a52ff77ce310b5aa2a5f75e9d2b0532f", "fusion_lat": 0.0}, {"lon": -77.01697616666667, "name": "b9e1a10d9d5b7303d86ece192f134885", "is_disabled": 0, "type": "electric_scooter", "is_reserved": 0, "fusion_lon": 0.0, "lat": 38.90759383333334, "rental_uris": {"ios": "https://dc.lft.to/lastmile_qr_scan", "android": "https://dc.lft.to/lastmile_qr_scan"}, "bike_id": "b9e1a10d9d5b7303d86ece192f134885", "fusion_lat": 0.0}, {"lon": -77.02408466666667, "name": "af31e7a7123f26624fe615a11caab464", "is_disabled": 0, "type": "electric_scooter", "is_reserved": 0, "fusion_lon": 0.0, "lat": 38.94181433333333, "rental_uris": {"ios": "https://dc.lft.to/lastmile_qr_scan", "android": "https://dc.lft.to/lastmile_qr_scan"}, "bike_id": "af31e7a7123f26624fe615a11caab464", "fusion_lat": 0.0}, {"lon": -77.074961, "name": "03e7214a1ce6f4952aeea13b3e32d703", "is_disabled": 0, "type": "electric_scooter", "is_reserved": 0, "fusion_lon": 0.0, "lat": 38.912048666666664, "rental_uris": {"ios": "https://dc.lft.to/lastmile_qr_scan", "android": "https://dc.lft.to/lastmile_qr_scan"}, "bike_id": "03e7214a1ce6f4952aeea13b3e32d703", "fusion_lat": 0.0}, {"lon": -77.01940633333334, "name": "c508945f793375c9f568d2f99911f37e", "is_disabled": 0, "type": "electric_scooter", "is_reserved": 0, "fusion_lon": 0.0, "lat": 38.956383, "rental_uris": {"ios": "https://dc.lft.to/lastmile_qr_scan", "android": "https://dc.lft.to/lastmile_qr_scan"}, "bike_id": "c508945f793375c9f568d2f99911f37e", "fusion_lat": 0.0}, {"lon": -77.04123, "name": "9cbd66a48a8c6fe8b71919f400309036", "is_disabled": 0, "type": "electric_scooter", "is_reserved": 0, "fusion_lon": 0.0, "lat": 38.90013, "rental_uris": {"ios": "https://dc.lft.to/lastmile_qr_scan", "android": "https://dc.lft.to/lastmile_qr_scan"}, "bike_id": "9cbd66a48a8c6fe8b71919f400309036", "fusion_lat": 0.0}, {"lon": -77.018969, "name": "0b3b5113ede9466281c5cb610b30280a", "is_disabled": 0, "type": "electric_scooter", "is_reserved": 0, "fusion_lon": 0.0, "lat": 38.9233245, "rental_uris": {"ios": "https://dc.lft.to/lastmile_qr_scan", "android": "https://dc.lft.to/lastmile_qr_scan"}, "bike_id": "0b3b5113ede9466281c5cb610b30280a", "fusion_lat": 0.0}, {"lon": -76.92580516666666, "name": "f4597501cc55018784bf958d619dac12", "is_disabled": 0, "type": "electric_scooter", "is_reserved": 0, "fusion_lon": 0.0, "lat": 38.89741, "rental_uris": {"ios": "https://dc.lft.to/lastmile_qr_scan", "android": "https://dc.lft.to/lastmile_qr_scan"}, "bike_id": "f4597501cc55018784bf958d619dac12", "fusion_lat": 0.0}, {"lon": -77.04480116666667, "name": "1b6855c9b8517fbc95b356ced4190db9", "is_disabled": 0, "type": "electric_scooter", "is_reserved": 0, "fusion_lon": 0.0, "lat": 38.90229933333333, "rental_uris": {"ios": "https://dc.lft.to/lastmile_qr_scan", "android": "https://dc.lft.to/lastmile_qr_scan"}, "bike_id": "1b6855c9b8517fbc95b356ced4190db9", "fusion_lat": 0.0}, {"lon": -77.02687966666667, "name": "8cbcaa250e307cf679e376f4dde155a1", "is_disabled": 0, "type": "electric_scooter", "is_reserved": 0, "fusion_lon": 0.0, "lat": 38.89772116666666, "rental_uris": {"ios": "https://dc.lft.to/lastmile_qr_scan", "android": "https://dc.lft.to/lastmile_qr_scan"}, "bike_id": "8cbcaa250e307cf679e376f4dde155a1", "fusion_lat": 0.0}, {"lon": -76.99012083333334, "name": "27c1635d8a30d1e8bad56b82e2334ead", "is_disabled": 0, "type": "electric_scooter", "is_reserved": 0, "fusion_lon": 0.0, "lat": 38.899868833333336, "rental_uris": {"ios": "https://dc.lft.to/lastmile_qr_scan", "android": "https://dc.lft.to/lastmile_qr_scan"}, "bike_id": "27c1635d8a30d1e8bad56b82e2334ead", "fusion_lat": 0.0}, {"lon": -77.0332535, "name": "4a8914d35c19018674bb7a995cf66bf5", "is_disabled": 0, "type": "electric_scooter", "is_reserved": 0, "fusion_lon": 0.0, "lat": 38.90319616666667, "rental_uris": {"ios": "https://dc.lft.to/lastmile_qr_scan", "android": "https://dc.lft.to/lastmile_qr_scan"}, "bike_id": "4a8914d35c19018674bb7a995cf66bf5", "fusion_lat": 0.0}, {"lon": -77.03562366666667, "name": "4c765e93b0d859b0f35e60d52d8c7670", "is_disabled": 0, "type": "electric_scooter", "is_reserved": 0, "fusion_lon": 0.0, "lat": 38.9048, "rental_uris": {"ios": "https://dc.lft.to/lastmile_qr_scan", "android": "https://dc.lft.to/lastmile_qr_scan"}, "bike_id": "4c765e93b0d859b0f35e60d52d8c7670", "fusion_lat": 0.0}, {"lon": -77.04177033333333, "name": "1f4065cdd7db4aa03c4d457fbd685723", "is_disabled": 0, "type": "electric_scooter", "is_reserved": 0, "fusion_lon": 0.0, "lat": 38.91603516666667, "rental_uris": {"ios": "https://dc.lft.to/lastmile_qr_scan", "android": "https://dc.lft.to/lastmile_qr_scan"}, "bike_id": "1f4065cdd7db4aa03c4d457fbd685723", "fusion_lat": 0.0}, {"lon": -77.02448916666667, "name": "60323f3004343471b13d9f8afbb634bd", "is_disabled": 0, "type": "electric_scooter", "is_reserved": 0, "fusion_lon": 0.0, "lat": 38.913269, "rental_uris": {"ios": "https://dc.lft.to/lastmile_qr_scan", "android": "https://dc.lft.to/lastmile_qr_scan"}, "bike_id": "60323f3004343471b13d9f8afbb634bd", "fusion_lat": 0.0}, {"lon": -77.05098416666667, "name": "be8cadb8c6a42a0ea7c41a216566b95f", "is_disabled": 0, "type": "electric_scooter", "is_reserved": 0, "fusion_lon": 0.0, "lat": 38.901774833333334, "rental_uris": {"ios": "https://dc.lft.to/lastmile_qr_scan", "android": "https://dc.lft.to/lastmile_qr_scan"}, "bike_id": "be8cadb8c6a42a0ea7c41a216566b95f", "fusion_lat": 0.0}, {"lon": -77.041723, "name": "53a9227f469258ed2224fc608c454ed6", "is_disabled": 0, "type": "electric_scooter", "is_reserved": 0, "fusion_lon": 0.0, "lat": 38.917031, "rental_uris": {"ios": "https://dc.lft.to/lastmile_qr_scan", "android": "https://dc.lft.to/lastmile_qr_scan"}, "bike_id": "53a9227f469258ed2224fc608c454ed6", "fusion_lat": 0.0}, {"lon": -77.011006, "name": "eb7dbad55fb7c33df6fe9b9e7c13b1df", "is_disabled": 0, "type": "electric_scooter", "is_reserved": 0, "fusion_lon": 0.0, "lat": 38.903557166666666, "rental_uris": {"ios": "https://dc.lft.to/lastmile_qr_scan", "android": "https://dc.lft.to/lastmile_qr_scan"}, "bike_id": "eb7dbad55fb7c33df6fe9b9e7c13b1df", "fusion_lat": 0.0}, {"lon": -77.02112233333334, "name": "0c281298cdc69a576943a33da416649f", "is_disabled": 0, "type": "electric_scooter", "is_reserved": 0, "fusion_lon": 0.0, "lat": 38.901686166666664, "rental_uris": {"ios": "https://dc.lft.to/lastmile_qr_scan", "android": "https://dc.lft.to/lastmile_qr_scan"}, "bike_id": "0c281298cdc69a576943a33da416649f", "fusion_lat": 0.0}, {"lon": -76.93738383333333, "name": "94059c3b412131b8afe4b516de89b43f", "is_disabled": 0, "type": "electric_scooter", "is_reserved": 0, "fusion_lon": 0.0, "lat": 38.89016983333333, "rental_uris": {"ios": "https://dc.lft.to/lastmile_qr_scan", "android": "https://dc.lft.to/lastmile_qr_scan"}, "bike_id": "94059c3b412131b8afe4b516de89b43f", "fusion_lat": 0.0}, {"lon": -77.000741, "name": "56e1313ddaf3c04d25074d304005e74f", "is_disabled": 0, "type": "electric_scooter", "is_reserved": 0, "fusion_lon": 0.0, "lat": 38.90140983333333, "rental_uris": {"ios": "https://dc.lft.to/lastmile_qr_scan", "android": "https://dc.lft.to/lastmile_qr_scan"}, "bike_id": "56e1313ddaf3c04d25074d304005e74f", "fusion_lat": 0.0}, {"lon": -77.0440505, "name": "a1835f84d0249def9d7199b5ed2f0a31", "is_disabled": 0, "type": "electric_scooter", "is_reserved": 0, "fusion_lon": 0.0, "lat": 38.92584266666667, "rental_uris": {"ios": "https://dc.lft.to/lastmile_qr_scan", "android": "https://dc.lft.to/lastmile_qr_scan"}, "bike_id": "a1835f84d0249def9d7199b5ed2f0a31", "fusion_lat": 0.0}, {"lon": -77.01363733333334, "name": "fd3f32680fa977bd94dd37c169979a81", "is_disabled": 0, "type": "electric_scooter", "is_reserved": 0, "fusion_lon": 0.0, "lat": 38.928818666666665, "rental_uris": {"ios": "https://dc.lft.to/lastmile_qr_scan", "android": "https://dc.lft.to/lastmile_qr_scan"}, "bike_id": "fd3f32680fa977bd94dd37c169979a81", "fusion_lat": 0.0}, {"lon": -77.02192033333333, "name": "cb5af294dfbc7bc063734435ba8d9091", "is_disabled": 0, "type": "electric_scooter", "is_reserved": 0, "fusion_lon": 0.0, "lat": 38.89403383333333, "rental_uris": {"ios": "https://dc.lft.to/lastmile_qr_scan", "android": "https://dc.lft.to/lastmile_qr_scan"}, "bike_id": "cb5af294dfbc7bc063734435ba8d9091", "fusion_lat": 0.0}, {"lon": -76.988613, "name": "9faa84acb718e0d862ae3f64d96ed3f1", "is_disabled": 0, "type": "electric_scooter", "is_reserved": 0, "fusion_lon": 0.0, "lat": 38.9002445, "rental_uris": {"ios": "https://dc.lft.to/lastmile_qr_scan", "android": "https://dc.lft.to/lastmile_qr_scan"}, "bike_id": "9faa84acb718e0d862ae3f64d96ed3f1", "fusion_lat": 0.0}, {"lon": -77.02744233333334, "name": "400d48ab3ab385173d0cd696d390d076", "is_disabled": 0, "type": "electric_scooter", "is_reserved": 0, "fusion_lon": 0.0, "lat": 38.9240455, "rental_uris": {"ios": "https://dc.lft.to/lastmile_qr_scan", "android": "https://dc.lft.to/lastmile_qr_scan"}, "bike_id": "400d48ab3ab385173d0cd696d390d076", "fusion_lat": 0.0}, {"lon": -77.06940883333333, "name": "ecb5721ed45bbbe43b8ea97e06305f54", "is_disabled": 0, "type": "electric_bike", "is_reserved": 0, "fusion_lon": 0.0, "lat": 38.847619333333334, "rental_uris": {"ios": "https://dc.lft.to/lastmile_qr_scan", "android": "https://dc.lft.to/lastmile_qr_scan"}, "bike_id": "ecb5721ed45bbbe43b8ea97e06305f54", "fusion_lat": 0.0}, {"lon": -77.01179116666667, "name": "18a806b064ff900317d7c1e0dd8ebd17", "is_disabled": 0, "type": "electric_scooter", "is_reserved": 0, "fusion_lon": 0.0, "lat": 38.885924, "rental_uris": {"ios": "https://dc.lft.to/lastmile_qr_scan", "android": "https://dc.lft.to/lastmile_qr_scan"}, "bike_id": "18a806b064ff900317d7c1e0dd8ebd17", "fusion_lat": 0.0}, {"lon": -76.97351883333333, "name": "56c0b7c242c979065f633fe15d4596c2", "is_disabled": 0, "type": "electric_bike", "is_reserved": 0, "fusion_lon": 0.0, "lat": 38.865640666666664, "rental_uris": {"ios": "https://dc.lft.to/lastmile_qr_scan", "android": "https://dc.lft.to/lastmile_qr_scan"}, "bike_id": "56c0b7c242c979065f633fe15d4596c2", "fusion_lat": 0.0}, {"lon": -77.0203315, "name": "b05a1e5658ca1d9f805d08814ae72072", "is_disabled": 0, "type": "electric_scooter", "is_reserved": 0, "fusion_lon": 0.0, "lat": 38.9244455, "rental_uris": {"ios": "https://dc.lft.to/lastmile_qr_scan", "android": "https://dc.lft.to/lastmile_qr_scan"}, "bike_id": "b05a1e5658ca1d9f805d08814ae72072", "fusion_lat": 0.0}, {"lon": -77.0322075, "name": "74d34409057713f674b2239676691e0a", "is_disabled": 0, "type": "electric_scooter", "is_reserved": 0, "fusion_lon": 0.0, "lat": 38.89222483333333, "rental_uris": {"ios": "https://dc.lft.to/lastmile_qr_scan", "android": "https://dc.lft.to/lastmile_qr_scan"}, "bike_id": "74d34409057713f674b2239676691e0a", "fusion_lat": 0.0}, {"lon": -77.0328365, "name": "f0b66cfd0269d2d7d1664f2bf20d823f", "is_disabled": 0, "type": "electric_scooter", "is_reserved": 0, "fusion_lon": 0.0, "lat": 38.897180166666665, "rental_uris": {"ios": "https://dc.lft.to/lastmile_qr_scan", "android": "https://dc.lft.to/lastmile_qr_scan"}, "bike_id": "f0b66cfd0269d2d7d1664f2bf20d823f", "fusion_lat": 0.0}, {"lon": -77.01929, "name": "19d21a5f663866ba568ac28fc574af1c", "is_disabled": 0, "type": "electric_scooter", "is_reserved": 0, "fusion_lon": 0.0, "lat": 38.9225545, "rental_uris": {"ios": "https://dc.lft.to/lastmile_qr_scan", "android": "https://dc.lft.to/lastmile_qr_scan"}, "bike_id": "19d21a5f663866ba568ac28fc574af1c", "fusion_lat": 0.0}, {"lon": -77.03580066666666, "name": "6a91972f68fa2b846279362437788fdc", "is_disabled": 0, "type": "electric_scooter", "is_reserved": 0, "fusion_lon": 0.0, "lat": 38.908050333333335, "rental_uris": {"ios": "https://dc.lft.to/lastmile_qr_scan", "android": "https://dc.lft.to/lastmile_qr_scan"}, "bike_id": "6a91972f68fa2b846279362437788fdc", "fusion_lat": 0.0}, {"lon": -76.9914235, "name": "26132d14117d7be8700d71bf02e0f2c2", "is_disabled": 0, "type": "electric_scooter", "is_reserved": 0, "fusion_lon": 0.0, "lat": 38.89973166666667, "rental_uris": {"ios": "https://dc.lft.to/lastmile_qr_scan", "android": "https://dc.lft.to/lastmile_qr_scan"}, "bike_id": "26132d14117d7be8700d71bf02e0f2c2", "fusion_lat": 0.0}, {"lon": -77.07228633333334, "name": "f131dee539e4281e1bf82cc589b39bbc", "is_disabled": 0, "type": "electric_scooter", "is_reserved": 0, "fusion_lon": 0.0, "lat": 38.923613, "rental_uris": {"ios": "https://dc.lft.to/lastmile_qr_scan", "android": "https://dc.lft.to/lastmile_qr_scan"}, "bike_id": "f131dee539e4281e1bf82cc589b39bbc", "fusion_lat": 0.0}, {"lon": -77.02688383333333, "name": "484e7bb31e799e4026a777aad9e2974b", "is_disabled": 0, "type": "electric_scooter", "is_reserved": 0, "fusion_lon": 0.0, "lat": 38.91129883333333, "rental_uris": {"ios": "https://dc.lft.to/lastmile_qr_scan", "android": "https://dc.lft.to/lastmile_qr_scan"}, "bike_id": "484e7bb31e799e4026a777aad9e2974b", "fusion_lat": 0.0}, {"lon": -76.98538783333333, "name": "8112f969ca9c57f03edc985bdf5e872e", "is_disabled": 0, "type": "electric_scooter", "is_reserved": 0, "fusion_lon": 0.0, "lat": 38.90582933333334, "rental_uris": {"ios": "https://dc.lft.to/lastmile_qr_scan", "android": "https://dc.lft.to/lastmile_qr_scan"}, "bike_id": "8112f969ca9c57f03edc985bdf5e872e", "fusion_lat": 0.0}, {"lon": -77.03915716666667, "name": "1befa014ee8dfaa5b669550c61095f51", "is_disabled": 0, "type": "electric_scooter", "is_reserved": 0, "fusion_lon": 0.0, "lat": 38.914219833333334, "rental_uris": {"ios": "https://dc.lft.to/lastmile_qr_scan", "android": "https://dc.lft.to/lastmile_qr_scan"}, "bike_id": "1befa014ee8dfaa5b669550c61095f51", "fusion_lat": 0.0}, {"lon": -77.02270516666667, "name": "7844b70b88f68c958a41d2855b1f059b", "is_disabled": 0, "type": "electric_scooter", "is_reserved": 0, "fusion_lon": 0.0, "lat": 38.88134433333333, "rental_uris": {"ios": "https://dc.lft.to/lastmile_qr_scan", "android": "https://dc.lft.to/lastmile_qr_scan"}, "bike_id": "7844b70b88f68c958a41d2855b1f059b", "fusion_lat": 0.0}, {"lon": -77.03477616666666, "name": "9332091ea03bfcf39928ff2d47ebd4a7", "is_disabled": 0, "type": "electric_scooter", "is_reserved": 0, "fusion_lon": 0.0, "lat": 38.9291555, "rental_uris": {"ios": "https://dc.lft.to/lastmile_qr_scan", "android": "https://dc.lft.to/lastmile_qr_scan"}, "bike_id": "9332091ea03bfcf39928ff2d47ebd4a7", "fusion_lat": 0.0}, {"lon": -76.935253, "name": "4a43477f08e5d8e1a3ff6c9a7738d2dd", "is_disabled": 0, "type": "electric_scooter", "is_reserved": 0, "fusion_lon": 0.0, "lat": 38.878948333333334, "rental_uris": {"ios": "https://dc.lft.to/lastmile_qr_scan", "android": "https://dc.lft.to/lastmile_qr_scan"}, "bike_id": "4a43477f08e5d8e1a3ff6c9a7738d2dd", "fusion_lat": 0.0}, {"lon": -77.025272, "name": "99af96706cee68388c1c881a69d9bd35", "is_disabled": 0, "type": "electric_scooter", "is_reserved": 0, "fusion_lon": 0.0, "lat": 38.96731666666667, "rental_uris": {"ios": "https://dc.lft.to/lastmile_qr_scan", "android": "https://dc.lft.to/lastmile_qr_scan"}, "bike_id": "99af96706cee68388c1c881a69d9bd35", "fusion_lat": 0.0}, {"lon": -77.005151, "name": "aa4f286950ad1dc53fbd99ebdab9a1aa", "is_disabled": 0, "type": "electric_scooter", "is_reserved": 0, "fusion_lon": 0.0, "lat": 38.874704, "rental_uris": {"ios": "https://dc.lft.to/lastmile_qr_scan", "android": "https://dc.lft.to/lastmile_qr_scan"}, "bike_id": "aa4f286950ad1dc53fbd99ebdab9a1aa", "fusion_lat": 0.0}, {"lon": -77.00309016666667, "name": "024fcae471fb291e0fcb02c41a3629b5", "is_disabled": 0, "type": "electric_scooter", "is_reserved": 0, "fusion_lon": 0.0, "lat": 38.906985, "rental_uris": {"ios": "https://dc.lft.to/lastmile_qr_scan", "android": "https://dc.lft.to/lastmile_qr_scan"}, "bike_id": "024fcae471fb291e0fcb02c41a3629b5", "fusion_lat": 0.0}, {"lon": -77.02180166666666, "name": "c74e6fafb10acae5061eba9076af33bf", "is_disabled": 0, "type": "electric_scooter", "is_reserved": 0, "fusion_lon": 0.0, "lat": 38.901056, "rental_uris": {"ios": "https://dc.lft.to/lastmile_qr_scan", "android": "https://dc.lft.to/lastmile_qr_scan"}, "bike_id": "c74e6fafb10acae5061eba9076af33bf", "fusion_lat": 0.0}, {"lon": -77.03996316666667, "name": "d533feddfab1700ee8711e3a32b3a5ca", "is_disabled": 0, "type": "electric_scooter", "is_reserved": 0, "fusion_lon": 0.0, "lat": 38.90264616666666, "rental_uris": {"ios": "https://dc.lft.to/lastmile_qr_scan", "android": "https://dc.lft.to/lastmile_qr_scan"}, "bike_id": "d533feddfab1700ee8711e3a32b3a5ca", "fusion_lat": 0.0}, {"lon": -77.04350283333333, "name": "0473271787f7fa6718014975b7cd6f50", "is_disabled": 0, "type": "electric_scooter", "is_reserved": 0, "fusion_lon": 0.0, "lat": 38.92165033333333, "rental_uris": {"ios": "https://dc.lft.to/lastmile_qr_scan", "android": "https://dc.lft.to/lastmile_qr_scan"}, "bike_id": "0473271787f7fa6718014975b7cd6f50", "fusion_lat": 0.0}, {"lon": -77.021369, "name": "0e334d1b74e6890ef92b661565e358db", "is_disabled": 0, "type": "electric_scooter", "is_reserved": 0, "fusion_lon": 0.0, "lat": 38.926435833333336, "rental_uris": {"ios": "https://dc.lft.to/lastmile_qr_scan", "android": "https://dc.lft.to/lastmile_qr_scan"}, "bike_id": "0e334d1b74e6890ef92b661565e358db", "fusion_lat": 0.0}, {"lon": -77.01626983333334, "name": "f4f84377ffb1bd769f08bc550a45ae1c", "is_disabled": 0, "type": "electric_scooter", "is_reserved": 0, "fusion_lon": 0.0, "lat": 38.899706333333334, "rental_uris": {"ios": "https://dc.lft.to/lastmile_qr_scan", "android": "https://dc.lft.to/lastmile_qr_scan"}, "bike_id": "f4f84377ffb1bd769f08bc550a45ae1c", "fusion_lat": 0.0}, {"lon": -76.99054766666667, "name": "a4e5379b8ae7cd2968787e9b5a087c86", "is_disabled": 0, "type": "electric_scooter", "is_reserved": 0, "fusion_lon": 0.0, "lat": 38.86367516666667, "rental_uris": {"ios": "https://dc.lft.to/lastmile_qr_scan", "android": "https://dc.lft.to/lastmile_qr_scan"}, "bike_id": "a4e5379b8ae7cd2968787e9b5a087c86", "fusion_lat": 0.0}, {"lon": -77.00322433333334, "name": "25d6ac9e77da677fd24f7d105dca78dc", "is_disabled": 0, "type": "electric_scooter", "is_reserved": 0, "fusion_lon": 0.0, "lat": 38.90123483333333, "rental_uris": {"ios": "https://dc.lft.to/lastmile_qr_scan", "android": "https://dc.lft.to/lastmile_qr_scan"}, "bike_id": "25d6ac9e77da677fd24f7d105dca78dc", "fusion_lat": 0.0}, {"lon": -77.02160633333334, "name": "f1555b62ecbe08dcae06f42174eedc95", "is_disabled": 0, "type": "electric_scooter", "is_reserved": 0, "fusion_lon": 0.0, "lat": 38.9260945, "rental_uris": {"ios": "https://dc.lft.to/lastmile_qr_scan", "android": "https://dc.lft.to/lastmile_qr_scan"}, "bike_id": "f1555b62ecbe08dcae06f42174eedc95", "fusion_lat": 0.0}, {"lon": -76.958236, "name": "72cde6d4bc7294c45335e9fc411e8b45", "is_disabled": 0, "type": "electric_bike", "is_reserved": 0, "fusion_lon": 0.0, "lat": 38.85059433333333, "rental_uris": {"ios": "https://dc.lft.to/lastmile_qr_scan", "android": "https://dc.lft.to/lastmile_qr_scan"}, "bike_id": "72cde6d4bc7294c45335e9fc411e8b45", "fusion_lat": 0.0}, {"lon": -77.0193455, "name": "268c38f6ef4a0edcab66d33d38d8f6d3", "is_disabled": 0, "type": "electric_scooter", "is_reserved": 0, "fusion_lon": 0.0, "lat": 38.922514166666666, "rental_uris": {"ios": "https://dc.lft.to/lastmile_qr_scan", "android": "https://dc.lft.to/lastmile_qr_scan"}, "bike_id": "268c38f6ef4a0edcab66d33d38d8f6d3", "fusion_lat": 0.0}, {"lon": -77.01995666666667, "name": "240e5d938228d0ef7b77acb92b5c9d1e", "is_disabled": 0, "type": "electric_scooter", "is_reserved": 0, "fusion_lon": 0.0, "lat": 38.913370666666665, "rental_uris": {"ios": "https://dc.lft.to/lastmile_qr_scan", "android": "https://dc.lft.to/lastmile_qr_scan"}, "bike_id": "240e5d938228d0ef7b77acb92b5c9d1e", "fusion_lat": 0.0}, {"lon": -77.03592383333333, "name": "549e6c8ecfd83d3538d16a7286c1c0f6", "is_disabled": 0, "type": "electric_scooter", "is_reserved": 0, "fusion_lon": 0.0, "lat": 38.902306333333335, "rental_uris": {"ios": "https://dc.lft.to/lastmile_qr_scan", "android": "https://dc.lft.to/lastmile_qr_scan"}, "bike_id": "549e6c8ecfd83d3538d16a7286c1c0f6", "fusion_lat": 0.0}, {"lon": -77.04015, "name": "16036a53132d276b46e6fa9c52ebf602", "is_disabled": 0, "type": "electric_scooter", "is_reserved": 0, "fusion_lon": 0.0, "lat": 38.921093666666664, "rental_uris": {"ios": "https://dc.lft.to/lastmile_qr_scan", "android": "https://dc.lft.to/lastmile_qr_scan"}, "bike_id": "16036a53132d276b46e6fa9c52ebf602", "fusion_lat": 0.0}, {"lon": -77.03928566666667, "name": "8805eef08908454cb2e4637d92dd3d87", "is_disabled": 0, "type": "electric_scooter", "is_reserved": 0, "fusion_lon": 0.0, "lat": 38.916227, "rental_uris": {"ios": "https://dc.lft.to/lastmile_qr_scan", "android": "https://dc.lft.to/lastmile_qr_scan"}, "bike_id": "8805eef08908454cb2e4637d92dd3d87", "fusion_lat": 0.0}, {"lon": -77.04245283333333, "name": "3586608644e624d8c4114b95d63c095f", "is_disabled": 0, "type": "electric_scooter", "is_reserved": 0, "fusion_lon": 0.0, "lat": 38.92050283333333, "rental_uris": {"ios": "https://dc.lft.to/lastmile_qr_scan", "android": "https://dc.lft.to/lastmile_qr_scan"}, "bike_id": "3586608644e624d8c4114b95d63c095f", "fusion_lat": 0.0}, {"lon": -77.03427066666667, "name": "e2dadac984b1a3b3e259970981d2fec3", "is_disabled": 0, "type": "electric_scooter", "is_reserved": 0, "fusion_lon": 0.0, "lat": 38.902441333333336, "rental_uris": {"ios": "https://dc.lft.to/lastmile_qr_scan", "android": "https://dc.lft.to/lastmile_qr_scan"}, "bike_id": "e2dadac984b1a3b3e259970981d2fec3", "fusion_lat": 0.0}, {"lon": -77.01788016666667, "name": "934c7418c2392aa8af15478fff31c094", "is_disabled": 0, "type": "electric_scooter", "is_reserved": 0, "fusion_lon": 0.0, "lat": 38.90412366666666, "rental_uris": {"ios": "https://dc.lft.to/lastmile_qr_scan", "android": "https://dc.lft.to/lastmile_qr_scan"}, "bike_id": "934c7418c2392aa8af15478fff31c094", "fusion_lat": 0.0}, {"lon": -76.93740133333333, "name": "6ea1db3d94a7cef0358873c92a2fe3a6", "is_disabled": 0, "type": "electric_scooter", "is_reserved": 0, "fusion_lon": 0.0, "lat": 38.89017, "rental_uris": {"ios": "https://dc.lft.to/lastmile_qr_scan", "android": "https://dc.lft.to/lastmile_qr_scan"}, "bike_id": "6ea1db3d94a7cef0358873c92a2fe3a6", "fusion_lat": 0.0}, {"lon": -77.05342266666666, "name": "a2becb1dfdd950a2957be74a609e48f8", "is_disabled": 0, "type": "electric_scooter", "is_reserved": 0, "fusion_lon": 0.0, "lat": 38.90423, "rental_uris": {"ios": "https://dc.lft.to/lastmile_qr_scan", "android": "https://dc.lft.to/lastmile_qr_scan"}, "bike_id": "a2becb1dfdd950a2957be74a609e48f8", "fusion_lat": 0.0}, {"lon": -77.02463666666667, "name": "1954bb8ddb6a13964cacab890b93d328", "is_disabled": 0, "type": "electric_scooter", "is_reserved": 0, "fusion_lon": 0.0, "lat": 38.89761033333333, "rental_uris": {"ios": "https://dc.lft.to/lastmile_qr_scan", "android": "https://dc.lft.to/lastmile_qr_scan"}, "bike_id": "1954bb8ddb6a13964cacab890b93d328", "fusion_lat": 0.0}, {"lon": -77.05885, "name": "1fd56668050930df1fcb92192d316d3e", "is_disabled": 0, "type": "electric_bike", "is_reserved": 0, "fusion_lon": 0.0, "lat": 38.94296033333333, "rental_uris": {"ios": "https://dc.lft.to/lastmile_qr_scan", "android": "https://dc.lft.to/lastmile_qr_scan"}, "bike_id": "1fd56668050930df1fcb92192d316d3e", "fusion_lat": 0.0}, {"lon": -76.97817483333333, "name": "76c7a5fb648f9840b5976234a0c65954", "is_disabled": 0, "type": "electric_scooter", "is_reserved": 0, "fusion_lon": 0.0, "lat": 38.89390566666667, "rental_uris": {"ios": "https://dc.lft.to/lastmile_qr_scan", "android": "https://dc.lft.to/lastmile_qr_scan"}, "bike_id": "76c7a5fb648f9840b5976234a0c65954", "fusion_lat": 0.0}, {"lon": -77.02139916666667, "name": "4f3201e4cc889de21d45b27b783a835c", "is_disabled": 0, "type": "electric_scooter", "is_reserved": 0, "fusion_lon": 0.0, "lat": 38.924113166666665, "rental_uris": {"ios": "https://dc.lft.to/lastmile_qr_scan", "android": "https://dc.lft.to/lastmile_qr_scan"}, "bike_id": "4f3201e4cc889de21d45b27b783a835c", "fusion_lat": 0.0}, {"lon": -77.028925, "name": "1aa45bca6f2ad79eec4426639f382a28", "is_disabled": 0, "type": "electric_scooter", "is_reserved": 0, "fusion_lon": 0.0, "lat": 38.92325616666667, "rental_uris": {"ios": "https://dc.lft.to/lastmile_qr_scan", "android": "https://dc.lft.to/lastmile_qr_scan"}, "bike_id": "1aa45bca6f2ad79eec4426639f382a28", "fusion_lat": 0.0}, {"lon": -77.045018, "name": "a7f0f376bd3331bdee9893dd69814587", "is_disabled": 0, "type": "electric_scooter", "is_reserved": 0, "fusion_lon": 0.0, "lat": 38.895946, "rental_uris": {"ios": "https://dc.lft.to/lastmile_qr_scan", "android": "https://dc.lft.to/lastmile_qr_scan"}, "bike_id": "a7f0f376bd3331bdee9893dd69814587", "fusion_lat": 0.0}, {"lon": -77.01270116666667, "name": "645b6c284e401370dcaf3e0d9b2f17d7", "is_disabled": 0, "type": "electric_scooter", "is_reserved": 0, "fusion_lon": 0.0, "lat": 38.898163833333335, "rental_uris": {"ios": "https://dc.lft.to/lastmile_qr_scan", "android": "https://dc.lft.to/lastmile_qr_scan"}, "bike_id": "645b6c284e401370dcaf3e0d9b2f17d7", "fusion_lat": 0.0}, {"lon": -77.07658183333334, "name": "2a473a6e946b132976379dd6d125ed0c", "is_disabled": 0, "type": "electric_bike", "is_reserved": 0, "fusion_lon": 0.0, "lat": 38.8097495, "rental_uris": {"ios": "https://dc.lft.to/lastmile_qr_scan", "android": "https://dc.lft.to/lastmile_qr_scan"}, "bike_id": "2a473a6e946b132976379dd6d125ed0c", "fusion_lat": 0.0}, {"lon": -77.04743016666667, "name": "445936e6800d03c48ce8b341f421cd97", "is_disabled": 0, "type": "electric_scooter", "is_reserved": 0, "fusion_lon": 0.0, "lat": 38.90163883333334, "rental_uris": {"ios": "https://dc.lft.to/lastmile_qr_scan", "android": "https://dc.lft.to/lastmile_qr_scan"}, "bike_id": "445936e6800d03c48ce8b341f421cd97", "fusion_lat": 0.0}, {"lon": -77.02391033333333, "name": "79457e04e40e6130b923df16f782ee81", "is_disabled": 0, "type": "electric_scooter", "is_reserved": 0, "fusion_lon": 0.0, "lat": 38.90982866666667, "rental_uris": {"ios": "https://dc.lft.to/lastmile_qr_scan", "android": "https://dc.lft.to/lastmile_qr_scan"}, "bike_id": "79457e04e40e6130b923df16f782ee81", "fusion_lat": 0.0}, {"lon": -77.027903, "name": "dfa5c3d991c64dafbba9a308177b7bcd", "is_disabled": 0, "type": "electric_scooter", "is_reserved": 0, "fusion_lon": 0.0, "lat": 38.926778666666664, "rental_uris": {"ios": "https://dc.lft.to/lastmile_qr_scan", "android": "https://dc.lft.to/lastmile_qr_scan"}, "bike_id": "dfa5c3d991c64dafbba9a308177b7bcd", "fusion_lat": 0.0}, {"lon": -76.99574816666667, "name": "506622f04b7799c6b0162817370de098", "is_disabled": 0, "type": "electric_scooter", "is_reserved": 0, "fusion_lon": 0.0, "lat": 38.892065833333334, "rental_uris": {"ios": "https://dc.lft.to/lastmile_qr_scan", "android": "https://dc.lft.to/lastmile_qr_scan"}, "bike_id": "506622f04b7799c6b0162817370de098", "fusion_lat": 0.0}, {"lon": -77.04051333333334, "name": "4878577d1e9bda7742004e43868f7937", "is_disabled": 0, "type": "electric_scooter", "is_reserved": 0, "fusion_lon": 0.0, "lat": 38.90880833333333, "rental_uris": {"ios": "https://dc.lft.to/lastmile_qr_scan", "android": "https://dc.lft.to/lastmile_qr_scan"}, "bike_id": "4878577d1e9bda7742004e43868f7937", "fusion_lat": 0.0}, {"lon": -77.05480083333333, "name": "626c2255fea6f7d4b48fac5289eb07f7", "is_disabled": 0, "type": "electric_scooter", "is_reserved": 0, "fusion_lon": 0.0, "lat": 38.902965333333334, "rental_uris": {"ios": "https://dc.lft.to/lastmile_qr_scan", "android": "https://dc.lft.to/lastmile_qr_scan"}, "bike_id": "626c2255fea6f7d4b48fac5289eb07f7", "fusion_lat": 0.0}, {"lon": -77.05878, "name": "9ae2dec888409ee514263fc1a26e37f6", "is_disabled": 0, "type": "electric_scooter", "is_reserved": 0, "fusion_lon": 0.0, "lat": 38.9052265, "rental_uris": {"ios": "https://dc.lft.to/lastmile_qr_scan", "android": "https://dc.lft.to/lastmile_qr_scan"}, "bike_id": "9ae2dec888409ee514263fc1a26e37f6", "fusion_lat": 0.0}, {"lon": -77.01950266666667, "name": "426ef4ad3e1ef1e064f1b9dc979d7fa2", "is_disabled": 0, "type": "electric_scooter", "is_reserved": 0, "fusion_lon": 0.0, "lat": 38.922506166666665, "rental_uris": {"ios": "https://dc.lft.to/lastmile_qr_scan", "android": "https://dc.lft.to/lastmile_qr_scan"}, "bike_id": "426ef4ad3e1ef1e064f1b9dc979d7fa2", "fusion_lat": 0.0}, {"lon": -77.057095, "name": "134258901dbcc63188316b87967c9585", "is_disabled": 0, "type": "electric_scooter", "is_reserved": 0, "fusion_lon": 0.0, "lat": 38.90593616666666, "rental_uris": {"ios": "https://dc.lft.to/lastmile_qr_scan", "android": "https://dc.lft.to/lastmile_qr_scan"}, "bike_id": "134258901dbcc63188316b87967c9585", "fusion_lat": 0.0}, {"lon": -77.030924, "name": "7191855f5a5b53f5b04d85b36327210c", "is_disabled": 0, "type": "electric_scooter", "is_reserved": 0, "fusion_lon": 0.0, "lat": 38.93375566666667, "rental_uris": {"ios": "https://dc.lft.to/lastmile_qr_scan", "android": "https://dc.lft.to/lastmile_qr_scan"}, "bike_id": "7191855f5a5b53f5b04d85b36327210c", "fusion_lat": 0.0}, {"lon": -77.01550266666666, "name": "5865d9523657c10ab7cb491252b767fd", "is_disabled": 0, "type": "electric_scooter", "is_reserved": 0, "fusion_lon": 0.0, "lat": 38.92783933333333, "rental_uris": {"ios": "https://dc.lft.to/lastmile_qr_scan", "android": "https://dc.lft.to/lastmile_qr_scan"}, "bike_id": "5865d9523657c10ab7cb491252b767fd", "fusion_lat": 0.0}, {"lon": -77.08907616666667, "name": "4c2ead82f192dc01a1c4daf086a58e6b", "is_disabled": 0, "type": "electric_bike", "is_reserved": 0, "fusion_lon": 0.0, "lat": 38.96731333333334, "rental_uris": {"ios": "https://dc.lft.to/lastmile_qr_scan", "android": "https://dc.lft.to/lastmile_qr_scan"}, "bike_id": "4c2ead82f192dc01a1c4daf086a58e6b", "fusion_lat": 0.0}, {"lon": -76.9726815, "name": "d2d8ca8131aceee9ee7aebacc3840699", "is_disabled": 0, "type": "electric_bike", "is_reserved": 0, "fusion_lon": 0.0, "lat": 38.91445066666667, "rental_uris": {"ios": "https://dc.lft.to/lastmile_qr_scan", "android": "https://dc.lft.to/lastmile_qr_scan"}, "bike_id": "d2d8ca8131aceee9ee7aebacc3840699", "fusion_lat": 0.0}, {"lon": -76.99017616666667, "name": "ad6369466e73ce190feb403c553281c3", "is_disabled": 0, "type": "electric_bike", "is_reserved": 0, "fusion_lon": 0.0, "lat": 38.83582033333333, "rental_uris": {"ios": "https://dc.lft.to/lastmile_qr_scan", "android": "https://dc.lft.to/lastmile_qr_scan"}, "bike_id": "ad6369466e73ce190feb403c553281c3", "fusion_lat": 0.0}, {"lon": -76.9835055, "name": "479bdfda7fbae83ae0ff543adb115304", "is_disabled": 0, "type": "electric_bike", "is_reserved": 0, "fusion_lon": 0.0, "lat": 38.935126333333336, "rental_uris": {"ios": "https://dc.lft.to/lastmile_qr_scan", "android": "https://dc.lft.to/lastmile_qr_scan"}, "bike_id": "479bdfda7fbae83ae0ff543adb115304", "fusion_lat": 0.0}, {"lon": -77.015546, "name": "ce1d3500d475ac9517aa9aa69ff9dd19", "is_disabled": 0, "type": "electric_scooter", "is_reserved": 0, "fusion_lon": 0.0, "lat": 38.89172716666667, "rental_uris": {"ios": "https://dc.lft.to/lastmile_qr_scan", "android": "https://dc.lft.to/lastmile_qr_scan"}, "bike_id": "ce1d3500d475ac9517aa9aa69ff9dd19", "fusion_lat": 0.0}, {"lon": -77.04123716666666, "name": "e8c185ede9c5a39b4df41a9bb5dd9403", "is_disabled": 0, "type": "electric_scooter", "is_reserved": 0, "fusion_lon": 0.0, "lat": 38.916215666666666, "rental_uris": {"ios": "https://dc.lft.to/lastmile_qr_scan", "android": "https://dc.lft.to/lastmile_qr_scan"}, "bike_id": "e8c185ede9c5a39b4df41a9bb5dd9403", "fusion_lat": 0.0}, {"lon": -77.041818, "name": "22aada9c4e5560a1638fc240063196f5", "is_disabled": 0, "type": "electric_scooter", "is_reserved": 0, "fusion_lon": 0.0, "lat": 38.926036, "rental_uris": {"ios": "https://dc.lft.to/lastmile_qr_scan", "android": "https://dc.lft.to/lastmile_qr_scan"}, "bike_id": "22aada9c4e5560a1638fc240063196f5", "fusion_lat": 0.0}, {"lon": -77.00006583333334, "name": "5617e00bd1cff2b22f7dac4551c43820", "is_disabled": 0, "type": "electric_bike", "is_reserved": 0, "fusion_lon": 0.0, "lat": 38.92393766666667, "rental_uris": {"ios": "https://dc.lft.to/lastmile_qr_scan", "android": "https://dc.lft.to/lastmile_qr_scan"}, "bike_id": "5617e00bd1cff2b22f7dac4551c43820", "fusion_lat": 0.0}, {"lon": -77.028189, "name": "6ce986377b28e86920a1e2dda19bc8af", "is_disabled": 0, "type": "electric_scooter", "is_reserved": 0, "fusion_lon": 0.0, "lat": 38.886518833333334, "rental_uris": {"ios": "https://dc.lft.to/lastmile_qr_scan", "android": "https://dc.lft.to/lastmile_qr_scan"}, "bike_id": "6ce986377b28e86920a1e2dda19bc8af", "fusion_lat": 0.0}, {"lon": -77.001387, "name": "6923f8542f83f4b9243969542a0d00c4", "is_disabled": 0, "type": "electric_scooter", "is_reserved": 0, "fusion_lon": 0.0, "lat": 38.88432383333333, "rental_uris": {"ios": "https://dc.lft.to/lastmile_qr_scan", "android": "https://dc.lft.to/lastmile_qr_scan"}, "bike_id": "6923f8542f83f4b9243969542a0d00c4", "fusion_lat": 0.0}, {"lon": -77.0628405, "name": "6d38ea3344b49a03636a9ad6a4e5e99a", "is_disabled": 0, "type": "electric_scooter", "is_reserved": 0, "fusion_lon": 0.0, "lat": 38.905387, "rental_uris": {"ios": "https://dc.lft.to/lastmile_qr_scan", "android": "https://dc.lft.to/lastmile_qr_scan"}, "bike_id": "6d38ea3344b49a03636a9ad6a4e5e99a", "fusion_lat": 0.0}, {"lon": -77.04008216666666, "name": "9f58613a6cd48fa9da53105f90d95cb7", "is_disabled": 0, "type": "electric_scooter", "is_reserved": 0, "fusion_lon": 0.0, "lat": 38.909940166666665, "rental_uris": {"ios": "https://dc.lft.to/lastmile_qr_scan", "android": "https://dc.lft.to/lastmile_qr_scan"}, "bike_id": "9f58613a6cd48fa9da53105f90d95cb7", "fusion_lat": 0.0}, {"lon": -77.0318655, "name": "6ba853a7008fa7e8d98f0a777b816b16", "is_disabled": 0, "type": "electric_scooter", "is_reserved": 0, "fusion_lon": 0.0, "lat": 38.892383833333334, "rental_uris": {"ios": "https://dc.lft.to/lastmile_qr_scan", "android": "https://dc.lft.to/lastmile_qr_scan"}, "bike_id": "6ba853a7008fa7e8d98f0a777b816b16", "fusion_lat": 0.0}, {"lon": -76.97742483333333, "name": "27fc717eff6e9264c3049f14daeb51d7", "is_disabled": 0, "type": "electric_bike", "is_reserved": 0, "fusion_lon": 0.0, "lat": 38.86488666666666, "rental_uris": {"ios": "https://dc.lft.to/lastmile_qr_scan", "android": "https://dc.lft.to/lastmile_qr_scan"}, "bike_id": "27fc717eff6e9264c3049f14daeb51d7", "fusion_lat": 0.0}, {"lon": -77.0230685, "name": "d534fca8284276a2dfff7298713666d5", "is_disabled": 0, "type": "electric_scooter", "is_reserved": 0, "fusion_lon": 0.0, "lat": 38.917040666666665, "rental_uris": {"ios": "https://dc.lft.to/lastmile_qr_scan", "android": "https://dc.lft.to/lastmile_qr_scan"}, "bike_id": "d534fca8284276a2dfff7298713666d5", "fusion_lat": 0.0}, {"lon": -77.0157515, "name": "d70d5e3089e273be04548095c6e7a285", "is_disabled": 0, "type": "electric_scooter", "is_reserved": 0, "fusion_lon": 0.0, "lat": 38.8852225, "rental_uris": {"ios": "https://dc.lft.to/lastmile_qr_scan", "android": "https://dc.lft.to/lastmile_qr_scan"}, "bike_id": "d70d5e3089e273be04548095c6e7a285", "fusion_lat": 0.0}, {"lon": -76.98089433333334, "name": "12555ebb23cbe9e5fa11e77eef22168f", "is_disabled": 0, "type": "electric_bike", "is_reserved": 0, "fusion_lon": 0.0, "lat": 38.95352116666667, "rental_uris": {"ios": "https://dc.lft.to/lastmile_qr_scan", "android": "https://dc.lft.to/lastmile_qr_scan"}, "bike_id": "12555ebb23cbe9e5fa11e77eef22168f", "fusion_lat": 0.0}, {"lon": -76.9914605, "name": "059153363cbad454cfdc3cfea907fe9a", "is_disabled": 0, "type": "electric_scooter", "is_reserved": 0, "fusion_lon": 0.0, "lat": 38.89159183333334, "rental_uris": {"ios": "https://dc.lft.to/lastmile_qr_scan", "android": "https://dc.lft.to/lastmile_qr_scan"}, "bike_id": "059153363cbad454cfdc3cfea907fe9a", "fusion_lat": 0.0}, {"lon": -77.01501033333334, "name": "87ab9988002ac8bfa8379293c133b696", "is_disabled": 0, "type": "electric_scooter", "is_reserved": 0, "fusion_lon": 0.0, "lat": 38.891621666666666, "rental_uris": {"ios": "https://dc.lft.to/lastmile_qr_scan", "android": "https://dc.lft.to/lastmile_qr_scan"}, "bike_id": "87ab9988002ac8bfa8379293c133b696", "fusion_lat": 0.0}, {"lon": -77.01834566666666, "name": "a9cceb81f9f705fff77f4e51cb9d5451", "is_disabled": 0, "type": "electric_scooter", "is_reserved": 0, "fusion_lon": 0.0, "lat": 38.908626166666664, "rental_uris": {"ios": "https://dc.lft.to/lastmile_qr_scan", "android": "https://dc.lft.to/lastmile_qr_scan"}, "bike_id": "a9cceb81f9f705fff77f4e51cb9d5451", "fusion_lat": 0.0}, {"lon": -77.05520816666667, "name": "5455fa8d669dc7377bca6d93ca78a294", "is_disabled": 0, "type": "electric_scooter", "is_reserved": 0, "fusion_lon": 0.0, "lat": 38.929596333333336, "rental_uris": {"ios": "https://dc.lft.to/lastmile_qr_scan", "android": "https://dc.lft.to/lastmile_qr_scan"}, "bike_id": "5455fa8d669dc7377bca6d93ca78a294", "fusion_lat": 0.0}, {"lon": -77.03971533333333, "name": "d80f07a74ab66f7708a36999dd8e7dd3", "is_disabled": 0, "type": "electric_scooter", "is_reserved": 0, "fusion_lon": 0.0, "lat": 38.90120566666667, "rental_uris": {"ios": "https://dc.lft.to/lastmile_qr_scan", "android": "https://dc.lft.to/lastmile_qr_scan"}, "bike_id": "d80f07a74ab66f7708a36999dd8e7dd3", "fusion_lat": 0.0}, {"lon": -76.9916495, "name": "18426634e56a42caeef2a39107bd8d86", "is_disabled": 0, "type": "electric_scooter", "is_reserved": 0, "fusion_lon": 0.0, "lat": 38.88970366666667, "rental_uris": {"ios": "https://dc.lft.to/lastmile_qr_scan", "android": "https://dc.lft.to/lastmile_qr_scan"}, "bike_id": "18426634e56a42caeef2a39107bd8d86", "fusion_lat": 0.0}, {"lon": -77.0417295, "name": "703105bdbc297aea44ac7f8859396c6b", "is_disabled": 0, "type": "electric_scooter", "is_reserved": 0, "fusion_lon": 0.0, "lat": 38.90798433333333, "rental_uris": {"ios": "https://dc.lft.to/lastmile_qr_scan", "android": "https://dc.lft.to/lastmile_qr_scan"}, "bike_id": "703105bdbc297aea44ac7f8859396c6b", "fusion_lat": 0.0}, {"lon": -77.0502525, "name": "23f7562defefc5b955400657eb055730", "is_disabled": 0, "type": "electric_scooter", "is_reserved": 0, "fusion_lon": 0.0, "lat": 38.892443166666666, "rental_uris": {"ios": "https://dc.lft.to/lastmile_qr_scan", "android": "https://dc.lft.to/lastmile_qr_scan"}, "bike_id": "23f7562defefc5b955400657eb055730", "fusion_lat": 0.0}, {"lon": -76.9937, "name": "7d5692f3981c77ec3eb60875128b8e79", "is_disabled": 0, "type": "electric_bike", "is_reserved": 0, "fusion_lon": 0.0, "lat": 38.990975, "rental_uris": {"ios": "https://dc.lft.to/lastmile_qr_scan", "android": "https://dc.lft.to/lastmile_qr_scan"}, "bike_id": "7d5692f3981c77ec3eb60875128b8e79", "fusion_lat": 0.0}, {"lon": -77.01275183333334, "name": "78d73a528bc6e75c760325824e61861f", "is_disabled": 0, "type": "electric_scooter", "is_reserved": 0, "fusion_lon": 0.0, "lat": 38.956472833333336, "rental_uris": {"ios": "https://dc.lft.to/lastmile_qr_scan", "android": "https://dc.lft.to/lastmile_qr_scan"}, "bike_id": "78d73a528bc6e75c760325824e61861f", "fusion_lat": 0.0}, {"lon": -76.9363255, "name": "eb8afc533d3c7bae3a0f972db4a2e2d3", "is_disabled": 0, "type": "electric_scooter", "is_reserved": 0, "fusion_lon": 0.0, "lat": 38.88344433333333, "rental_uris": {"ios": "https://dc.lft.to/lastmile_qr_scan", "android": "https://dc.lft.to/lastmile_qr_scan"}, "bike_id": "eb8afc533d3c7bae3a0f972db4a2e2d3", "fusion_lat": 0.0}, {"lon": -77.03175416666667, "name": "94db0066ca19a0bac7251d4137d6dc52", "is_disabled": 0, "type": "electric_scooter", "is_reserved": 0, "fusion_lon": 0.0, "lat": 38.89849383333333, "rental_uris": {"ios": "https://dc.lft.to/lastmile_qr_scan", "android": "https://dc.lft.to/lastmile_qr_scan"}, "bike_id": "94db0066ca19a0bac7251d4137d6dc52", "fusion_lat": 0.0}, {"lon": -76.94635866666667, "name": "3c6b61cd55a5f7944aed194c38cde812", "is_disabled": 0, "type": "electric_scooter", "is_reserved": 0, "fusion_lon": 0.0, "lat": 38.898455166666665, "rental_uris": {"ios": "https://dc.lft.to/lastmile_qr_scan", "android": "https://dc.lft.to/lastmile_qr_scan"}, "bike_id": "3c6b61cd55a5f7944aed194c38cde812", "fusion_lat": 0.0}, {"lon": -77.0220955, "name": "fb02923fd638d795ea79cce732005a4e", "is_disabled": 0, "type": "electric_scooter", "is_reserved": 0, "fusion_lon": 0.0, "lat": 38.9246915, "rental_uris": {"ios": "https://dc.lft.to/lastmile_qr_scan", "android": "https://dc.lft.to/lastmile_qr_scan"}, "bike_id": "fb02923fd638d795ea79cce732005a4e", "fusion_lat": 0.0}, {"lon": -77.08321383333333, "name": "5d6cb0a7503bbed5a8e7874de32462dd", "is_disabled": 0, "type": "electric_scooter", "is_reserved": 0, "fusion_lon": 0.0, "lat": 38.936069, "rental_uris": {"ios": "https://dc.lft.to/lastmile_qr_scan", "android": "https://dc.lft.to/lastmile_qr_scan"}, "bike_id": "5d6cb0a7503bbed5a8e7874de32462dd", "fusion_lat": 0.0}, {"lon": -77.00575166666667, "name": "ec540307809374900bac3eacf1b8711b", "is_disabled": 0, "type": "electric_scooter", "is_reserved": 0, "fusion_lon": 0.0, "lat": 38.872149, "rental_uris": {"ios": "https://dc.lft.to/lastmile_qr_scan", "android": "https://dc.lft.to/lastmile_qr_scan"}, "bike_id": "ec540307809374900bac3eacf1b8711b", "fusion_lat": 0.0}, {"lon": -77.00567766666667, "name": "8a820a756303ceee6aa477b57cbcb504", "is_disabled": 0, "type": "electric_scooter", "is_reserved": 0, "fusion_lon": 0.0, "lat": 38.88499733333333, "rental_uris": {"ios": "https://dc.lft.to/lastmile_qr_scan", "android": "https://dc.lft.to/lastmile_qr_scan"}, "bike_id": "8a820a756303ceee6aa477b57cbcb504", "fusion_lat": 0.0}, {"lon": -77.09521533333333, "name": "44905aa3a8d69a46830838158e641b81", "is_disabled": 0, "type": "electric_bike", "is_reserved": 0, "fusion_lon": 0.0, "lat": 38.838125, "rental_uris": {"ios": "https://dc.lft.to/lastmile_qr_scan", "android": "https://dc.lft.to/lastmile_qr_scan"}, "bike_id": "44905aa3a8d69a46830838158e641b81", "fusion_lat": 0.0}, {"lon": -77.03180716666667, "name": "a5cb23ee705a6d4b4594e128d43e209b", "is_disabled": 0, "type": "electric_scooter", "is_reserved": 0, "fusion_lon": 0.0, "lat": 38.908564166666665, "rental_uris": {"ios": "https://dc.lft.to/lastmile_qr_scan", "android": "https://dc.lft.to/lastmile_qr_scan"}, "bike_id": "a5cb23ee705a6d4b4594e128d43e209b", "fusion_lat": 0.0}, {"lon": -76.98108333333333, "name": "9f82d3463f9258985fab37bcd93b5df5", "is_disabled": 0, "type": "electric_scooter", "is_reserved": 0, "fusion_lon": 0.0, "lat": 38.914699666666664, "rental_uris": {"ios": "https://dc.lft.to/lastmile_qr_scan", "android": "https://dc.lft.to/lastmile_qr_scan"}, "bike_id": "9f82d3463f9258985fab37bcd93b5df5", "fusion_lat": 0.0}, {"lon": -76.93004916666666, "name": "49b74ea3f5b5748d73a14d8ee1a71e65", "is_disabled": 0, "type": "electric_scooter", "is_reserved": 0, "fusion_lon": 0.0, "lat": 38.90715566666667, "rental_uris": {"ios": "https://dc.lft.to/lastmile_qr_scan", "android": "https://dc.lft.to/lastmile_qr_scan"}, "bike_id": "49b74ea3f5b5748d73a14d8ee1a71e65", "fusion_lat": 0.0}, {"lon": -77.02202233333334, "name": "9f66bb4a32eb179be8e35a6634e1955b", "is_disabled": 0, "type": "electric_scooter", "is_reserved": 0, "fusion_lon": 0.0, "lat": 38.91098266666667, "rental_uris": {"ios": "https://dc.lft.to/lastmile_qr_scan", "android": "https://dc.lft.to/lastmile_qr_scan"}, "bike_id": "9f66bb4a32eb179be8e35a6634e1955b", "fusion_lat": 0.0}, {"lon": -77.022887, "name": "6795563fc36dec7075863e43528111e3", "is_disabled": 0, "type": "electric_scooter", "is_reserved": 0, "fusion_lon": 0.0, "lat": 38.907411833333335, "rental_uris": {"ios": "https://dc.lft.to/lastmile_qr_scan", "android": "https://dc.lft.to/lastmile_qr_scan"}, "bike_id": "6795563fc36dec7075863e43528111e3", "fusion_lat": 0.0}, {"lon": -76.98451916666667, "name": "b87c4676ff944b7a77b481f7f85a44dd", "is_disabled": 0, "type": "electric_scooter", "is_reserved": 0, "fusion_lon": 0.0, "lat": 38.892328666666664, "rental_uris": {"ios": "https://dc.lft.to/lastmile_qr_scan", "android": "https://dc.lft.to/lastmile_qr_scan"}, "bike_id": "b87c4676ff944b7a77b481f7f85a44dd", "fusion_lat": 0.0}, {"lon": -77.02206866666667, "name": "2cbd5bfa865266cc0accdd8779ca2b4a", "is_disabled": 0, "type": "electric_scooter", "is_reserved": 0, "fusion_lon": 0.0, "lat": 38.9246695, "rental_uris": {"ios": "https://dc.lft.to/lastmile_qr_scan", "android": "https://dc.lft.to/lastmile_qr_scan"}, "bike_id": "2cbd5bfa865266cc0accdd8779ca2b4a", "fusion_lat": 0.0}, {"lon": -77.03393933333334, "name": "bd5d27aeb5b4cba97d2628efacb050c2", "is_disabled": 0, "type": "electric_scooter", "is_reserved": 0, "fusion_lon": 0.0, "lat": 38.90005566666667, "rental_uris": {"ios": "https://dc.lft.to/lastmile_qr_scan", "android": "https://dc.lft.to/lastmile_qr_scan"}, "bike_id": "bd5d27aeb5b4cba97d2628efacb050c2", "fusion_lat": 0.0}, {"lon": -77.040468, "name": "abc4d49feb8d6ff9a2cc785d25d3e819", "is_disabled": 0, "type": "electric_scooter", "is_reserved": 0, "fusion_lon": 0.0, "lat": 38.9170725, "rental_uris": {"ios": "https://dc.lft.to/lastmile_qr_scan", "android": "https://dc.lft.to/lastmile_qr_scan"}, "bike_id": "abc4d49feb8d6ff9a2cc785d25d3e819", "fusion_lat": 0.0}, {"lon": -76.98615116666667, "name": "c39c98b999c88ea9ca7d51c7c7e37fa5", "is_disabled": 0, "type": "electric_scooter", "is_reserved": 0, "fusion_lon": 0.0, "lat": 38.903452333333334, "rental_uris": {"ios": "https://dc.lft.to/lastmile_qr_scan", "android": "https://dc.lft.to/lastmile_qr_scan"}, "bike_id": "c39c98b999c88ea9ca7d51c7c7e37fa5", "fusion_lat": 0.0}, {"lon": -77.1293255, "name": "fd0ecf1d68f0ae80796c71fc600cc794", "is_disabled": 0, "type": "electric_bike", "is_reserved": 0, "fusion_lon": 0.0, "lat": 38.865756166666664, "rental_uris": {"ios": "https://dc.lft.to/lastmile_qr_scan", "android": "https://dc.lft.to/lastmile_qr_scan"}, "bike_id": "fd0ecf1d68f0ae80796c71fc600cc794", "fusion_lat": 0.0}, {"lon": -77.01946266666667, "name": "8c61003c9420ff533c4ff9200db18cf6", "is_disabled": 0, "type": "electric_scooter", "is_reserved": 0, "fusion_lon": 0.0, "lat": 38.922512, "rental_uris": {"ios": "https://dc.lft.to/lastmile_qr_scan", "android": "https://dc.lft.to/lastmile_qr_scan"}, "bike_id": "8c61003c9420ff533c4ff9200db18cf6", "fusion_lat": 0.0}, {"lon": -77.0208245, "name": "3aca9ad74ea935ccb0b2755fca764fe5", "is_disabled": 0, "type": "electric_scooter", "is_reserved": 0, "fusion_lon": 0.0, "lat": 38.92290466666667, "rental_uris": {"ios": "https://dc.lft.to/lastmile_qr_scan", "android": "https://dc.lft.to/lastmile_qr_scan"}, "bike_id": "3aca9ad74ea935ccb0b2755fca764fe5", "fusion_lat": 0.0}, {"lon": -77.04997433333334, "name": "e9af028f29a332bc56adbb8b85449517", "is_disabled": 0, "type": "electric_scooter", "is_reserved": 0, "fusion_lon": 0.0, "lat": 38.8922915, "rental_uris": {"ios": "https://dc.lft.to/lastmile_qr_scan", "android": "https://dc.lft.to/lastmile_qr_scan"}, "bike_id": "e9af028f29a332bc56adbb8b85449517", "fusion_lat": 0.0}, {"lon": -77.0242105, "name": "8dcf7de1049f39307025e1e835ce5374", "is_disabled": 0, "type": "electric_scooter", "is_reserved": 0, "fusion_lon": 0.0, "lat": 38.8921945, "rental_uris": {"ios": "https://dc.lft.to/lastmile_qr_scan", "android": "https://dc.lft.to/lastmile_qr_scan"}, "bike_id": "8dcf7de1049f39307025e1e835ce5374", "fusion_lat": 0.0}, {"lon": -76.9397125, "name": "bacfb9e0e10d5e1acfa972b49a284d4f", "is_disabled": 0, "type": "electric_scooter", "is_reserved": 0, "fusion_lon": 0.0, "lat": 38.899603, "rental_uris": {"ios": "https://dc.lft.to/lastmile_qr_scan", "android": "https://dc.lft.to/lastmile_qr_scan"}, "bike_id": "bacfb9e0e10d5e1acfa972b49a284d4f", "fusion_lat": 0.0}, {"lon": -76.98346316666667, "name": "754a1703c1c2f8d6f0458041283de9aa", "is_disabled": 0, "type": "electric_bike", "is_reserved": 0, "fusion_lon": 0.0, "lat": 38.862529, "rental_uris": {"ios": "https://dc.lft.to/lastmile_qr_scan", "android": "https://dc.lft.to/lastmile_qr_scan"}, "bike_id": "754a1703c1c2f8d6f0458041283de9aa", "fusion_lat": 0.0}, {"lon": -77.01910233333334, "name": "f2a53bbedaa57306810f556341f7731f", "is_disabled": 0, "type": "electric_scooter", "is_reserved": 0, "fusion_lon": 0.0, "lat": 38.93721133333333, "rental_uris": {"ios": "https://dc.lft.to/lastmile_qr_scan", "android": "https://dc.lft.to/lastmile_qr_scan"}, "bike_id": "f2a53bbedaa57306810f556341f7731f", "fusion_lat": 0.0}, {"lon": -77.017036, "name": "0fe10c280d33dbb3c583169ab77331c1", "is_disabled": 0, "type": "electric_scooter", "is_reserved": 0, "fusion_lon": 0.0, "lat": 38.88747266666667, "rental_uris": {"ios": "https://dc.lft.to/lastmile_qr_scan", "android": "https://dc.lft.to/lastmile_qr_scan"}, "bike_id": "0fe10c280d33dbb3c583169ab77331c1", "fusion_lat": 0.0}, {"lon": -77.04342683333333, "name": "7aff97179d3aecefae8b7650482b7ea9", "is_disabled": 0, "type": "electric_scooter", "is_reserved": 0, "fusion_lon": 0.0, "lat": 38.91049966666667, "rental_uris": {"ios": "https://dc.lft.to/lastmile_qr_scan", "android": "https://dc.lft.to/lastmile_qr_scan"}, "bike_id": "7aff97179d3aecefae8b7650482b7ea9", "fusion_lat": 0.0}, {"lon": -77.06271666666666, "name": "b131e8c7784eb143d082886c4c0d993a", "is_disabled": 0, "type": "electric_scooter", "is_reserved": 0, "fusion_lon": 0.0, "lat": 38.905872333333335, "rental_uris": {"ios": "https://dc.lft.to/lastmile_qr_scan", "android": "https://dc.lft.to/lastmile_qr_scan"}, "bike_id": "b131e8c7784eb143d082886c4c0d993a", "fusion_lat": 0.0}, {"lon": -76.99852616666666, "name": "114dda2e92f7ddda501e8b6599486f55", "is_disabled": 0, "type": "electric_scooter", "is_reserved": 0, "fusion_lon": 0.0, "lat": 38.8941795, "rental_uris": {"ios": "https://dc.lft.to/lastmile_qr_scan", "android": "https://dc.lft.to/lastmile_qr_scan"}, "bike_id": "114dda2e92f7ddda501e8b6599486f55", "fusion_lat": 0.0}, {"lon": -77.04286866666666, "name": "2f8e57aad3842c3a2f6a6a9008225f47", "is_disabled": 0, "type": "electric_scooter", "is_reserved": 0, "fusion_lon": 0.0, "lat": 38.92289733333333, "rental_uris": {"ios": "https://dc.lft.to/lastmile_qr_scan", "android": "https://dc.lft.to/lastmile_qr_scan"}, "bike_id": "2f8e57aad3842c3a2f6a6a9008225f47", "fusion_lat": 0.0}, {"lon": -77.01613033333334, "name": "9714b568adf14a6f70c6b686424201b7", "is_disabled": 0, "type": "electric_bike", "is_reserved": 0, "fusion_lon": 0.0, "lat": 38.94940066666667, "rental_uris": {"ios": "https://dc.lft.to/lastmile_qr_scan", "android": "https://dc.lft.to/lastmile_qr_scan"}, "bike_id": "9714b568adf14a6f70c6b686424201b7", "fusion_lat": 0.0}, {"lon": -77.0325765, "name": "b6bec3a015b46fbf01d2d448107baa11", "is_disabled": 0, "type": "electric_scooter", "is_reserved": 0, "fusion_lon": 0.0, "lat": 38.928664166666664, "rental_uris": {"ios": "https://dc.lft.to/lastmile_qr_scan", "android": "https://dc.lft.to/lastmile_qr_scan"}, "bike_id": "b6bec3a015b46fbf01d2d448107baa11", "fusion_lat": 0.0}, {"lon": -77.11477616666667, "name": "0ee120c96063fefb1b9909eb8ee0b887", "is_disabled": 0, "type": "electric_bike", "is_reserved": 0, "fusion_lon": 0.0, "lat": 38.858289, "rental_uris": {"ios": "https://dc.lft.to/lastmile_qr_scan", "android": "https://dc.lft.to/lastmile_qr_scan"}, "bike_id": "0ee120c96063fefb1b9909eb8ee0b887", "fusion_lat": 0.0}, {"lon": -77.03048683333333, "name": "6f303a31d7d738f730717f813c0feea2", "is_disabled": 0, "type": "electric_scooter", "is_reserved": 0, "fusion_lon": 0.0, "lat": 38.90304416666667, "rental_uris": {"ios": "https://dc.lft.to/lastmile_qr_scan", "android": "https://dc.lft.to/lastmile_qr_scan"}, "bike_id": "6f303a31d7d738f730717f813c0feea2", "fusion_lat": 0.0}, {"lon": -77.02795733333333, "name": "0df5b886cd0ec696e15c351a40e92d59", "is_disabled": 0, "type": "electric_scooter", "is_reserved": 0, "fusion_lon": 0.0, "lat": 38.9417335, "rental_uris": {"ios": "https://dc.lft.to/lastmile_qr_scan", "android": "https://dc.lft.to/lastmile_qr_scan"}, "bike_id": "0df5b886cd0ec696e15c351a40e92d59", "fusion_lat": 0.0}, {"lon": -77.0317235, "name": "031d5b9c0f7e15f28a82e23003f89d60", "is_disabled": 0, "type": "electric_scooter", "is_reserved": 0, "fusion_lon": 0.0, "lat": 38.892185, "rental_uris": {"ios": "https://dc.lft.to/lastmile_qr_scan", "android": "https://dc.lft.to/lastmile_qr_scan"}, "bike_id": "031d5b9c0f7e15f28a82e23003f89d60", "fusion_lat": 0.0}, {"lon": -77.02221166666666, "name": "d44c826c80a2167174d9e84738cb23f2", "is_disabled": 0, "type": "electric_scooter", "is_reserved": 0, "fusion_lon": 0.0, "lat": 38.92476933333333, "rental_uris": {"ios": "https://dc.lft.to/lastmile_qr_scan", "android": "https://dc.lft.to/lastmile_qr_scan"}, "bike_id": "d44c826c80a2167174d9e84738cb23f2", "fusion_lat": 0.0}, {"lon": -76.9577015, "name": "b0268990ee3294af32055ce0c1cc144f", "is_disabled": 0, "type": "electric_scooter", "is_reserved": 0, "fusion_lon": 0.0, "lat": 38.88355933333333, "rental_uris": {"ios": "https://dc.lft.to/lastmile_qr_scan", "android": "https://dc.lft.to/lastmile_qr_scan"}, "bike_id": "b0268990ee3294af32055ce0c1cc144f", "fusion_lat": 0.0}, {"lon": -77.02502166666666, "name": "63208447fae52400058c0c02924d2c73", "is_disabled": 0, "type": "electric_bike", "is_reserved": 0, "fusion_lon": 0.0, "lat": 38.88025416666667, "rental_uris": {"ios": "https://dc.lft.to/lastmile_qr_scan", "android": "https://dc.lft.to/lastmile_qr_scan"}, "bike_id": "63208447fae52400058c0c02924d2c73", "fusion_lat": 0.0}, {"lon": -77.04663016666667, "name": "0245e63bf44814c96c9ac2043c39bb4e", "is_disabled": 0, "type": "electric_scooter", "is_reserved": 0, "fusion_lon": 0.0, "lat": 38.90025933333333, "rental_uris": {"ios": "https://dc.lft.to/lastmile_qr_scan", "android": "https://dc.lft.to/lastmile_qr_scan"}, "bike_id": "0245e63bf44814c96c9ac2043c39bb4e", "fusion_lat": 0.0}, {"lon": -77.02775133333333, "name": "47f1b5c2aa26cc95edcca0085b6aee12", "is_disabled": 0, "type": "electric_scooter", "is_reserved": 0, "fusion_lon": 0.0, "lat": 38.955409833333334, "rental_uris": {"ios": "https://dc.lft.to/lastmile_qr_scan", "android": "https://dc.lft.to/lastmile_qr_scan"}, "bike_id": "47f1b5c2aa26cc95edcca0085b6aee12", "fusion_lat": 0.0}, {"lon": -77.065156, "name": "9986ae7733b1df2f422cbef088868d8d", "is_disabled": 0, "type": "electric_scooter", "is_reserved": 0, "fusion_lon": 0.0, "lat": 38.90448583333333, "rental_uris": {"ios": "https://dc.lft.to/lastmile_qr_scan", "android": "https://dc.lft.to/lastmile_qr_scan"}, "bike_id": "9986ae7733b1df2f422cbef088868d8d", "fusion_lat": 0.0}, {"lon": -77.00492533333333, "name": "26bdff0fce4b86851ce6c288513fcf62", "is_disabled": 0, "type": "electric_scooter", "is_reserved": 0, "fusion_lon": 0.0, "lat": 38.916936, "rental_uris": {"ios": "https://dc.lft.to/lastmile_qr_scan", "android": "https://dc.lft.to/lastmile_qr_scan"}, "bike_id": "26bdff0fce4b86851ce6c288513fcf62", "fusion_lat": 0.0}, {"lon": -77.0722185, "name": "c0e468ac77fdb46f0d6ef5fd7ebdfba4", "is_disabled": 0, "type": "electric_scooter", "is_reserved": 0, "fusion_lon": 0.0, "lat": 38.91359466666667, "rental_uris": {"ios": "https://dc.lft.to/lastmile_qr_scan", "android": "https://dc.lft.to/lastmile_qr_scan"}, "bike_id": "c0e468ac77fdb46f0d6ef5fd7ebdfba4", "fusion_lat": 0.0}, {"lon": -77.02055616666667, "name": "ac55881c2b21caa93f25f3b7afb1248d", "is_disabled": 0, "type": "electric_scooter", "is_reserved": 0, "fusion_lon": 0.0, "lat": 38.923729, "rental_uris": {"ios": "https://dc.lft.to/lastmile_qr_scan", "android": "https://dc.lft.to/lastmile_qr_scan"}, "bike_id": "ac55881c2b21caa93f25f3b7afb1248d", "fusion_lat": 0.0}, {"lon": -77.03479, "name": "930b29791f8e5c3334b89b85123c9ba4", "is_disabled": 0, "type": "electric_scooter", "is_reserved": 0, "fusion_lon": 0.0, "lat": 38.9287085, "rental_uris": {"ios": "https://dc.lft.to/lastmile_qr_scan", "android": "https://dc.lft.to/lastmile_qr_scan"}, "bike_id": "930b29791f8e5c3334b89b85123c9ba4", "fusion_lat": 0.0}, {"lon": -76.91724266666667, "name": "f2ab61823936e3cf9b64dd72821468ff", "is_disabled": 0, "type": "electric_bike", "is_reserved": 0, "fusion_lon": 0.0, "lat": 38.880234333333334, "rental_uris": {"ios": "https://dc.lft.to/lastmile_qr_scan", "android": "https://dc.lft.to/lastmile_qr_scan"}, "bike_id": "f2ab61823936e3cf9b64dd72821468ff", "fusion_lat": 0.0}, {"lon": -77.02229033333333, "name": "c47568cb2e9601b76ad955eb9410811d", "is_disabled": 0, "type": "electric_scooter", "is_reserved": 0, "fusion_lon": 0.0, "lat": 38.914146833333334, "rental_uris": {"ios": "https://dc.lft.to/lastmile_qr_scan", "android": "https://dc.lft.to/lastmile_qr_scan"}, "bike_id": "c47568cb2e9601b76ad955eb9410811d", "fusion_lat": 0.0}, {"lon": -77.05703433333333, "name": "f47b2743b5d96f4a8e6a3aae96804629", "is_disabled": 0, "type": "electric_scooter", "is_reserved": 0, "fusion_lon": 0.0, "lat": 38.926049166666665, "rental_uris": {"ios": "https://dc.lft.to/lastmile_qr_scan", "android": "https://dc.lft.to/lastmile_qr_scan"}, "bike_id": "f47b2743b5d96f4a8e6a3aae96804629", "fusion_lat": 0.0}, {"lon": -77.03575916666667, "name": "2dc64dfe88456673825eccf044541897", "is_disabled": 0, "type": "electric_scooter", "is_reserved": 0, "fusion_lon": 0.0, "lat": 38.9268385, "rental_uris": {"ios": "https://dc.lft.to/lastmile_qr_scan", "android": "https://dc.lft.to/lastmile_qr_scan"}, "bike_id": "2dc64dfe88456673825eccf044541897", "fusion_lat": 0.0}, {"lon": -77.04470966666666, "name": "d13a525e5f3a84f9046cd318604f18a4", "is_disabled": 0, "type": "electric_scooter", "is_reserved": 0, "fusion_lon": 0.0, "lat": 38.91530783333333, "rental_uris": {"ios": "https://dc.lft.to/lastmile_qr_scan", "android": "https://dc.lft.to/lastmile_qr_scan"}, "bike_id": "d13a525e5f3a84f9046cd318604f18a4", "fusion_lat": 0.0}, {"lon": -77.021607, "name": "0a5bcb99d7714090011c11877eb10966", "is_disabled": 0, "type": "electric_scooter", "is_reserved": 0, "fusion_lon": 0.0, "lat": 38.897292166666666, "rental_uris": {"ios": "https://dc.lft.to/lastmile_qr_scan", "android": "https://dc.lft.to/lastmile_qr_scan"}, "bike_id": "0a5bcb99d7714090011c11877eb10966", "fusion_lat": 0.0}, {"lon": -77.0313075, "name": "f9e1f7bf7120317ac488aa4ae0f73eb4", "is_disabled": 0, "type": "electric_scooter", "is_reserved": 0, "fusion_lon": 0.0, "lat": 38.920262666666666, "rental_uris": {"ios": "https://dc.lft.to/lastmile_qr_scan", "android": "https://dc.lft.to/lastmile_qr_scan"}, "bike_id": "f9e1f7bf7120317ac488aa4ae0f73eb4", "fusion_lat": 0.0}, {"lon": -76.99960216666666, "name": "9ae15991e929d8c9fb16198451f6319f", "is_disabled": 0, "type": "electric_scooter", "is_reserved": 0, "fusion_lon": 0.0, "lat": 38.90668266666667, "rental_uris": {"ios": "https://dc.lft.to/lastmile_qr_scan", "android": "https://dc.lft.to/lastmile_qr_scan"}, "bike_id": "9ae15991e929d8c9fb16198451f6319f", "fusion_lat": 0.0}, {"lon": -77.0121315, "name": "2b31929afda8dfe974d427713547b08f", "is_disabled": 0, "type": "electric_scooter", "is_reserved": 0, "fusion_lon": 0.0, "lat": 38.914449, "rental_uris": {"ios": "https://dc.lft.to/lastmile_qr_scan", "android": "https://dc.lft.to/lastmile_qr_scan"}, "bike_id": "2b31929afda8dfe974d427713547b08f", "fusion_lat": 0.0}, {"lon": -77.05759733333333, "name": "d38c009ccc0b48d4dc2cc3c65d8221a0", "is_disabled": 0, "type": "electric_scooter", "is_reserved": 0, "fusion_lon": 0.0, "lat": 38.924814833333336, "rental_uris": {"ios": "https://dc.lft.to/lastmile_qr_scan", "android": "https://dc.lft.to/lastmile_qr_scan"}, "bike_id": "d38c009ccc0b48d4dc2cc3c65d8221a0", "fusion_lat": 0.0}, {"lon": -77.03154633333334, "name": "28faedfbb86ce99881110efe05dfbe0d", "is_disabled": 0, "type": "electric_scooter", "is_reserved": 0, "fusion_lon": 0.0, "lat": 38.95934116666667, "rental_uris": {"ios": "https://dc.lft.to/lastmile_qr_scan", "android": "https://dc.lft.to/lastmile_qr_scan"}, "bike_id": "28faedfbb86ce99881110efe05dfbe0d", "fusion_lat": 0.0}, {"lon": -77.00332733333333, "name": "e93144b49d876effaee3c837a319ab33", "is_disabled": 0, "type": "electric_bike", "is_reserved": 0, "fusion_lon": 0.0, "lat": 38.920164, "rental_uris": {"ios": "https://dc.lft.to/lastmile_qr_scan", "android": "https://dc.lft.to/lastmile_qr_scan"}, "bike_id": "e93144b49d876effaee3c837a319ab33", "fusion_lat": 0.0}, {"lon": -77.02349666666667, "name": "50a93b978146e2333999727f95f3f045", "is_disabled": 0, "type": "electric_scooter", "is_reserved": 0, "fusion_lon": 0.0, "lat": 38.93528116666667, "rental_uris": {"ios": "https://dc.lft.to/lastmile_qr_scan", "android": "https://dc.lft.to/lastmile_qr_scan"}, "bike_id": "50a93b978146e2333999727f95f3f045", "fusion_lat": 0.0}, {"lon": -77.02150616666667, "name": "8e34d867a27874646b0903170e49df33", "is_disabled": 0, "type": "electric_scooter", "is_reserved": 0, "fusion_lon": 0.0, "lat": 38.9260185, "rental_uris": {"ios": "https://dc.lft.to/lastmile_qr_scan", "android": "https://dc.lft.to/lastmile_qr_scan"}, "bike_id": "8e34d867a27874646b0903170e49df33", "fusion_lat": 0.0}, {"lon": -77.02403133333334, "name": "74043bfb7b14d7e47eb7c0fea1ec005a", "is_disabled": 0, "type": "electric_scooter", "is_reserved": 0, "fusion_lon": 0.0, "lat": 38.91621766666667, "rental_uris": {"ios": "https://dc.lft.to/lastmile_qr_scan", "android": "https://dc.lft.to/lastmile_qr_scan"}, "bike_id": "74043bfb7b14d7e47eb7c0fea1ec005a", "fusion_lat": 0.0}, {"lon": -77.036372, "name": "8a2902d8fa1d38aabc80977ccdeae587", "is_disabled": 0, "type": "electric_scooter", "is_reserved": 0, "fusion_lon": 0.0, "lat": 38.91446933333334, "rental_uris": {"ios": "https://dc.lft.to/lastmile_qr_scan", "android": "https://dc.lft.to/lastmile_qr_scan"}, "bike_id": "8a2902d8fa1d38aabc80977ccdeae587", "fusion_lat": 0.0}, {"lon": -76.976834, "name": "8c01a3491e94899a43afe9deb55f7904", "is_disabled": 0, "type": "electric_scooter", "is_reserved": 0, "fusion_lon": 0.0, "lat": 38.90089, "rental_uris": {"ios": "https://dc.lft.to/lastmile_qr_scan", "android": "https://dc.lft.to/lastmile_qr_scan"}, "bike_id": "8c01a3491e94899a43afe9deb55f7904", "fusion_lat": 0.0}, {"lon": -77.01543683333334, "name": "cd10b2175013fbce224d6632ac765244", "is_disabled": 0, "type": "electric_scooter", "is_reserved": 0, "fusion_lon": 0.0, "lat": 38.88583883333333, "rental_uris": {"ios": "https://dc.lft.to/lastmile_qr_scan", "android": "https://dc.lft.to/lastmile_qr_scan"}, "bike_id": "cd10b2175013fbce224d6632ac765244", "fusion_lat": 0.0}, {"lon": -77.0212815, "name": "aa961f111c46b0f8efd587dee6461eb0", "is_disabled": 0, "type": "electric_scooter", "is_reserved": 0, "fusion_lon": 0.0, "lat": 38.924153833333335, "rental_uris": {"ios": "https://dc.lft.to/lastmile_qr_scan", "android": "https://dc.lft.to/lastmile_qr_scan"}, "bike_id": "aa961f111c46b0f8efd587dee6461eb0", "fusion_lat": 0.0}, {"lon": -77.01985016666667, "name": "8780e4302aed536ae1b9eb121cc14a3e", "is_disabled": 0, "type": "electric_scooter", "is_reserved": 0, "fusion_lon": 0.0, "lat": 38.8998435, "rental_uris": {"ios": "https://dc.lft.to/lastmile_qr_scan", "android": "https://dc.lft.to/lastmile_qr_scan"}, "bike_id": "8780e4302aed536ae1b9eb121cc14a3e", "fusion_lat": 0.0}, {"lon": -77.12893466666667, "name": "a681bf29f7eb58e585742830179d8112", "is_disabled": 0, "type": "electric_bike", "is_reserved": 0, "fusion_lon": 0.0, "lat": 38.9060605, "rental_uris": {"ios": "https://dc.lft.to/lastmile_qr_scan", "android": "https://dc.lft.to/lastmile_qr_scan"}, "bike_id": "a681bf29f7eb58e585742830179d8112", "fusion_lat": 0.0}, {"lon": -77.017679, "name": "c9f113464616e9f971b278624f794ea3", "is_disabled": 0, "type": "electric_scooter", "is_reserved": 0, "fusion_lon": 0.0, "lat": 38.877011833333334, "rental_uris": {"ios": "https://dc.lft.to/lastmile_qr_scan", "android": "https://dc.lft.to/lastmile_qr_scan"}, "bike_id": "c9f113464616e9f971b278624f794ea3", "fusion_lat": 0.0}, {"lon": -77.02973133333333, "name": "1997994bf6be7114b9da7af2bd3c540f", "is_disabled": 0, "type": "electric_scooter", "is_reserved": 0, "fusion_lon": 0.0, "lat": 38.923081, "rental_uris": {"ios": "https://dc.lft.to/lastmile_qr_scan", "android": "https://dc.lft.to/lastmile_qr_scan"}, "bike_id": "1997994bf6be7114b9da7af2bd3c540f", "fusion_lat": 0.0}, {"lon": -76.98516933333333, "name": "200bce9702282caabe1c02ee1ebb88d0", "is_disabled": 0, "type": "electric_scooter", "is_reserved": 0, "fusion_lon": 0.0, "lat": 38.86000666666666, "rental_uris": {"ios": "https://dc.lft.to/lastmile_qr_scan", "android": "https://dc.lft.to/lastmile_qr_scan"}, "bike_id": "200bce9702282caabe1c02ee1ebb88d0", "fusion_lat": 0.0}, {"lon": -77.013742, "name": "5120c39335596cc6d8913e0838f2b090", "is_disabled": 0, "type": "electric_scooter", "is_reserved": 0, "fusion_lon": 0.0, "lat": 38.912746, "rental_uris": {"ios": "https://dc.lft.to/lastmile_qr_scan", "android": "https://dc.lft.to/lastmile_qr_scan"}, "bike_id": "5120c39335596cc6d8913e0838f2b090", "fusion_lat": 0.0}, {"lon": -77.02408466666667, "name": "19bee15587fca168132ba9e9d1df143b", "is_disabled": 0, "type": "electric_scooter", "is_reserved": 0, "fusion_lon": 0.0, "lat": 38.93361266666667, "rental_uris": {"ios": "https://dc.lft.to/lastmile_qr_scan", "android": "https://dc.lft.to/lastmile_qr_scan"}, "bike_id": "19bee15587fca168132ba9e9d1df143b", "fusion_lat": 0.0}, {"lon": -77.034422, "name": "248f34da112f35bb8eacdf80e839cea4", "is_disabled": 0, "type": "electric_scooter", "is_reserved": 0, "fusion_lon": 0.0, "lat": 38.9178225, "rental_uris": {"ios": "https://dc.lft.to/lastmile_qr_scan", "android": "https://dc.lft.to/lastmile_qr_scan"}, "bike_id": "248f34da112f35bb8eacdf80e839cea4", "fusion_lat": 0.0}, {"lon": -77.0346985, "name": "1941296ab63b50b0a230bbc0169a7cd8", "is_disabled": 0, "type": "electric_scooter", "is_reserved": 0, "fusion_lon": 0.0, "lat": 38.92974816666667, "rental_uris": {"ios": "https://dc.lft.to/lastmile_qr_scan", "android": "https://dc.lft.to/lastmile_qr_scan"}, "bike_id": "1941296ab63b50b0a230bbc0169a7cd8", "fusion_lat": 0.0}, {"lon": -76.98464583333333, "name": "615f073890988600f33fc9ed2c28e8ab", "is_disabled": 0, "type": "electric_scooter", "is_reserved": 0, "fusion_lon": 0.0, "lat": 38.909644166666666, "rental_uris": {"ios": "https://dc.lft.to/lastmile_qr_scan", "android": "https://dc.lft.to/lastmile_qr_scan"}, "bike_id": "615f073890988600f33fc9ed2c28e8ab", "fusion_lat": 0.0}, {"lon": -76.9968885, "name": "2944d95970fd50f110a800aa0f25d139", "is_disabled": 0, "type": "electric_scooter", "is_reserved": 0, "fusion_lon": 0.0, "lat": 38.907951833333335, "rental_uris": {"ios": "https://dc.lft.to/lastmile_qr_scan", "android": "https://dc.lft.to/lastmile_qr_scan"}, "bike_id": "2944d95970fd50f110a800aa0f25d139", "fusion_lat": 0.0}, {"lon": -77.07153466666666, "name": "7db742e7410378b0576597d3c4d9fe71", "is_disabled": 0, "type": "electric_scooter", "is_reserved": 0, "fusion_lon": 0.0, "lat": 38.90771683333333, "rental_uris": {"ios": "https://dc.lft.to/lastmile_qr_scan", "android": "https://dc.lft.to/lastmile_qr_scan"}, "bike_id": "7db742e7410378b0576597d3c4d9fe71", "fusion_lat": 0.0}, {"lon": -77.01379166666666, "name": "607b2308db641d863386e0557d6daac5", "is_disabled": 0, "type": "electric_scooter", "is_reserved": 0, "fusion_lon": 0.0, "lat": 38.89849316666667, "rental_uris": {"ios": "https://dc.lft.to/lastmile_qr_scan", "android": "https://dc.lft.to/lastmile_qr_scan"}, "bike_id": "607b2308db641d863386e0557d6daac5", "fusion_lat": 0.0}, {"lon": -77.01718933333333, "name": "c294bdedd9f4c5c9848788287489d0e0", "is_disabled": 0, "type": "electric_scooter", "is_reserved": 0, "fusion_lon": 0.0, "lat": 38.90724016666667, "rental_uris": {"ios": "https://dc.lft.to/lastmile_qr_scan", "android": "https://dc.lft.to/lastmile_qr_scan"}, "bike_id": "c294bdedd9f4c5c9848788287489d0e0", "fusion_lat": 0.0}, {"lon": -77.00728583333333, "name": "c7939ee7c32ad55711a9655174608237", "is_disabled": 0, "type": "electric_scooter", "is_reserved": 0, "fusion_lon": 0.0, "lat": 38.911892, "rental_uris": {"ios": "https://dc.lft.to/lastmile_qr_scan", "android": "https://dc.lft.to/lastmile_qr_scan"}, "bike_id": "c7939ee7c32ad55711a9655174608237", "fusion_lat": 0.0}, {"lon": -77.0198425, "name": "53ac03a8fdaa4af481143f4d3c6ddd48", "is_disabled": 0, "type": "electric_scooter", "is_reserved": 0, "fusion_lon": 0.0, "lat": 38.93188766666667, "rental_uris": {"ios": "https://dc.lft.to/lastmile_qr_scan", "android": "https://dc.lft.to/lastmile_qr_scan"}, "bike_id": "53ac03a8fdaa4af481143f4d3c6ddd48", "fusion_lat": 0.0}, {"lon": -76.99555233333334, "name": "5c2d3a17ad973ce0ca2ca829d22159ca", "is_disabled": 0, "type": "electric_scooter", "is_reserved": 0, "fusion_lon": 0.0, "lat": 38.9266045, "rental_uris": {"ios": "https://dc.lft.to/lastmile_qr_scan", "android": "https://dc.lft.to/lastmile_qr_scan"}, "bike_id": "5c2d3a17ad973ce0ca2ca829d22159ca", "fusion_lat": 0.0}, {"lon": -77.032665, "name": "3c55268943b28cbcf9ccdd5d9a1945f7", "is_disabled": 0, "type": "electric_scooter", "is_reserved": 0, "fusion_lon": 0.0, "lat": 38.92900733333333, "rental_uris": {"ios": "https://dc.lft.to/lastmile_qr_scan", "android": "https://dc.lft.to/lastmile_qr_scan"}, "bike_id": "3c55268943b28cbcf9ccdd5d9a1945f7", "fusion_lat": 0.0}, {"lon": -76.9901855, "name": "b2d2948e6f9050308d5fea6e297a843b", "is_disabled": 0, "type": "electric_scooter", "is_reserved": 0, "fusion_lon": 0.0, "lat": 38.86513683333333, "rental_uris": {"ios": "https://dc.lft.to/lastmile_qr_scan", "android": "https://dc.lft.to/lastmile_qr_scan"}, "bike_id": "b2d2948e6f9050308d5fea6e297a843b", "fusion_lat": 0.0}, {"lon": -77.00955383333333, "name": "5ddd6cf37bd289784ded73480e9ae1ae", "is_disabled": 0, "type": "electric_scooter", "is_reserved": 0, "fusion_lon": 0.0, "lat": 38.87627366666667, "rental_uris": {"ios": "https://dc.lft.to/lastmile_qr_scan", "android": "https://dc.lft.to/lastmile_qr_scan"}, "bike_id": "5ddd6cf37bd289784ded73480e9ae1ae", "fusion_lat": 0.0}, {"lon": -77.00363483333334, "name": "84b27e4f502f2ad4d7059965135af939", "is_disabled": 0, "type": "electric_scooter", "is_reserved": 0, "fusion_lon": 0.0, "lat": 38.89259333333333, "rental_uris": {"ios": "https://dc.lft.to/lastmile_qr_scan", "android": "https://dc.lft.to/lastmile_qr_scan"}, "bike_id": "84b27e4f502f2ad4d7059965135af939", "fusion_lat": 0.0}, {"lon": -76.9893785, "name": "ba3ed6ce06e7a1579f6a2dbcfd143fa4", "is_disabled": 0, "type": "electric_scooter", "is_reserved": 0, "fusion_lon": 0.0, "lat": 38.8828595, "rental_uris": {"ios": "https://dc.lft.to/lastmile_qr_scan", "android": "https://dc.lft.to/lastmile_qr_scan"}, "bike_id": "ba3ed6ce06e7a1579f6a2dbcfd143fa4", "fusion_lat": 0.0}, {"lon": -77.05696766666667, "name": "62edcce7f5b3c6519dae0afcc93eb547", "is_disabled": 0, "type": "electric_scooter", "is_reserved": 0, "fusion_lon": 0.0, "lat": 38.905150666666664, "rental_uris": {"ios": "https://dc.lft.to/lastmile_qr_scan", "android": "https://dc.lft.to/lastmile_qr_scan"}, "bike_id": "62edcce7f5b3c6519dae0afcc93eb547", "fusion_lat": 0.0}, {"lon": -77.05920483333334, "name": "c5cf8670724ca341914f68f325c5b097", "is_disabled": 0, "type": "electric_scooter", "is_reserved": 0, "fusion_lon": 0.0, "lat": 38.901523166666664, "rental_uris": {"ios": "https://dc.lft.to/lastmile_qr_scan", "android": "https://dc.lft.to/lastmile_qr_scan"}, "bike_id": "c5cf8670724ca341914f68f325c5b097", "fusion_lat": 0.0}, {"lon": -76.995296, "name": "87204b7acaae25c7fc4bc6417632f720", "is_disabled": 0, "type": "electric_scooter", "is_reserved": 0, "fusion_lon": 0.0, "lat": 38.88764716666667, "rental_uris": {"ios": "https://dc.lft.to/lastmile_qr_scan", "android": "https://dc.lft.to/lastmile_qr_scan"}, "bike_id": "87204b7acaae25c7fc4bc6417632f720", "fusion_lat": 0.0}, {"lon": -77.0336305, "name": "8e4123393d04670be72825caff5bb868", "is_disabled": 0, "type": "electric_scooter", "is_reserved": 0, "fusion_lon": 0.0, "lat": 38.9223425, "rental_uris": {"ios": "https://dc.lft.to/lastmile_qr_scan", "android": "https://dc.lft.to/lastmile_qr_scan"}, "bike_id": "8e4123393d04670be72825caff5bb868", "fusion_lat": 0.0}, {"lon": -77.019081, "name": "55d666303c3203b596dc9d9d2d867823", "is_disabled": 0, "type": "electric_scooter", "is_reserved": 0, "fusion_lon": 0.0, "lat": 38.92333816666667, "rental_uris": {"ios": "https://dc.lft.to/lastmile_qr_scan", "android": "https://dc.lft.to/lastmile_qr_scan"}, "bike_id": "55d666303c3203b596dc9d9d2d867823", "fusion_lat": 0.0}, {"lon": -77.0569455, "name": "7b4d2b63267175f91fc00982d4a0c7bf", "is_disabled": 0, "type": "electric_scooter", "is_reserved": 0, "fusion_lon": 0.0, "lat": 38.90611966666667, "rental_uris": {"ios": "https://dc.lft.to/lastmile_qr_scan", "android": "https://dc.lft.to/lastmile_qr_scan"}, "bike_id": "7b4d2b63267175f91fc00982d4a0c7bf", "fusion_lat": 0.0}, {"lon": -77.03214933333334, "name": "6537cd22086e65c3e467c289373527be", "is_disabled": 0, "type": "electric_scooter", "is_reserved": 0, "fusion_lon": 0.0, "lat": 38.91637733333334, "rental_uris": {"ios": "https://dc.lft.to/lastmile_qr_scan", "android": "https://dc.lft.to/lastmile_qr_scan"}, "bike_id": "6537cd22086e65c3e467c289373527be", "fusion_lat": 0.0}, {"lon": -77.02702216666667, "name": "f4444d756be146695e20e06730716866", "is_disabled": 0, "type": "electric_scooter", "is_reserved": 0, "fusion_lon": 0.0, "lat": 38.90575066666667, "rental_uris": {"ios": "https://dc.lft.to/lastmile_qr_scan", "android": "https://dc.lft.to/lastmile_qr_scan"}, "bike_id": "f4444d756be146695e20e06730716866", "fusion_lat": 0.0}, {"lon": -77.02442766666667, "name": "b553b7bfae499a667ff1333cb7f5ff5b", "is_disabled": 0, "type": "electric_scooter", "is_reserved": 0, "fusion_lon": 0.0, "lat": 38.907222833333336, "rental_uris": {"ios": "https://dc.lft.to/lastmile_qr_scan", "android": "https://dc.lft.to/lastmile_qr_scan"}, "bike_id": "b553b7bfae499a667ff1333cb7f5ff5b", "fusion_lat": 0.0}, {"lon": -77.03164633333333, "name": "1867a10830ba56aa14397768803c63a5", "is_disabled": 0, "type": "electric_scooter", "is_reserved": 0, "fusion_lon": 0.0, "lat": 38.892188166666664, "rental_uris": {"ios": "https://dc.lft.to/lastmile_qr_scan", "android": "https://dc.lft.to/lastmile_qr_scan"}, "bike_id": "1867a10830ba56aa14397768803c63a5", "fusion_lat": 0.0}, {"lon": -77.04149733333334, "name": "8ffe7f3f90e0c5196424d6ec23e4d477", "is_disabled": 0, "type": "electric_scooter", "is_reserved": 0, "fusion_lon": 0.0, "lat": 38.918086833333334, "rental_uris": {"ios": "https://dc.lft.to/lastmile_qr_scan", "android": "https://dc.lft.to/lastmile_qr_scan"}, "bike_id": "8ffe7f3f90e0c5196424d6ec23e4d477", "fusion_lat": 0.0}, {"lon": -77.02429516666666, "name": "a64ff4b7b26b164813adb78c4827abaf", "is_disabled": 0, "type": "electric_scooter", "is_reserved": 0, "fusion_lon": 0.0, "lat": 38.93350433333333, "rental_uris": {"ios": "https://dc.lft.to/lastmile_qr_scan", "android": "https://dc.lft.to/lastmile_qr_scan"}, "bike_id": "a64ff4b7b26b164813adb78c4827abaf", "fusion_lat": 0.0}, {"lon": -76.98788616666667, "name": "c240ef216d6f15e46f59500a47d78aaa", "is_disabled": 0, "type": "electric_bike", "is_reserved": 0, "fusion_lon": 0.0, "lat": 38.8446515, "rental_uris": {"ios": "https://dc.lft.to/lastmile_qr_scan", "android": "https://dc.lft.to/lastmile_qr_scan"}, "bike_id": "c240ef216d6f15e46f59500a47d78aaa", "fusion_lat": 0.0}, {"lon": -77.04866016666666, "name": "3a7bb13c847e5f66afbe4eafb5598745", "is_disabled": 0, "type": "electric_scooter", "is_reserved": 0, "fusion_lon": 0.0, "lat": 38.9001655, "rental_uris": {"ios": "https://dc.lft.to/lastmile_qr_scan", "android": "https://dc.lft.to/lastmile_qr_scan"}, "bike_id": "3a7bb13c847e5f66afbe4eafb5598745", "fusion_lat": 0.0}, {"lon": -77.00916583333333, "name": "074600fb2fbc392e0cf5777d84729e0b", "is_disabled": 0, "type": "electric_scooter", "is_reserved": 0, "fusion_lon": 0.0, "lat": 38.92338516666667, "rental_uris": {"ios": "https://dc.lft.to/lastmile_qr_scan", "android": "https://dc.lft.to/lastmile_qr_scan"}, "bike_id": "074600fb2fbc392e0cf5777d84729e0b", "fusion_lat": 0.0}, {"lon": -77.06404333333333, "name": "27588dd44b26435de31364660879c821", "is_disabled": 0, "type": "electric_scooter", "is_reserved": 0, "fusion_lon": 0.0, "lat": 38.944372, "rental_uris": {"ios": "https://dc.lft.to/lastmile_qr_scan", "android": "https://dc.lft.to/lastmile_qr_scan"}, "bike_id": "27588dd44b26435de31364660879c821", "fusion_lat": 0.0}, {"lon": -77.02971666666667, "name": "5517063c94246bbde1ba0a58af1b02bb", "is_disabled": 0, "type": "electric_scooter", "is_reserved": 0, "fusion_lon": 0.0, "lat": 38.9168255, "rental_uris": {"ios": "https://dc.lft.to/lastmile_qr_scan", "android": "https://dc.lft.to/lastmile_qr_scan"}, "bike_id": "5517063c94246bbde1ba0a58af1b02bb", "fusion_lat": 0.0}, {"lon": -77.03220066666667, "name": "8ea9674c0203c6979fa1ced62745033f", "is_disabled": 0, "type": "electric_scooter", "is_reserved": 0, "fusion_lon": 0.0, "lat": 38.892228833333334, "rental_uris": {"ios": "https://dc.lft.to/lastmile_qr_scan", "android": "https://dc.lft.to/lastmile_qr_scan"}, "bike_id": "8ea9674c0203c6979fa1ced62745033f", "fusion_lat": 0.0}, {"lon": -77.0401035, "name": "56f470f550415ec405eddfa49477bffa", "is_disabled": 0, "type": "electric_scooter", "is_reserved": 0, "fusion_lon": 0.0, "lat": 38.90280933333333, "rental_uris": {"ios": "https://dc.lft.to/lastmile_qr_scan", "android": "https://dc.lft.to/lastmile_qr_scan"}, "bike_id": "56f470f550415ec405eddfa49477bffa", "fusion_lat": 0.0}, {"lon": -76.99747016666667, "name": "9aacdc8b2921a406bbb9c42eebd41871", "is_disabled": 0, "type": "electric_scooter", "is_reserved": 0, "fusion_lon": 0.0, "lat": 38.910362166666665, "rental_uris": {"ios": "https://dc.lft.to/lastmile_qr_scan", "android": "https://dc.lft.to/lastmile_qr_scan"}, "bike_id": "9aacdc8b2921a406bbb9c42eebd41871", "fusion_lat": 0.0}, {"lon": -76.97345566666667, "name": "aa2e49483688794b3422bb4b86092726", "is_disabled": 0, "type": "electric_scooter", "is_reserved": 0, "fusion_lon": 0.0, "lat": 38.86508216666667, "rental_uris": {"ios": "https://dc.lft.to/lastmile_qr_scan", "android": "https://dc.lft.to/lastmile_qr_scan"}, "bike_id": "aa2e49483688794b3422bb4b86092726", "fusion_lat": 0.0}, {"lon": -77.00108516666667, "name": "f5c65cd37393eef2a9a1479e15d82454", "is_disabled": 0, "type": "electric_scooter", "is_reserved": 0, "fusion_lon": 0.0, "lat": 38.88656116666667, "rental_uris": {"ios": "https://dc.lft.to/lastmile_qr_scan", "android": "https://dc.lft.to/lastmile_qr_scan"}, "bike_id": "f5c65cd37393eef2a9a1479e15d82454", "fusion_lat": 0.0}, {"lon": -77.021478, "name": "b35a5fa1998c457447a4fe396d55f1b3", "is_disabled": 0, "type": "electric_scooter", "is_reserved": 0, "fusion_lon": 0.0, "lat": 38.92453233333333, "rental_uris": {"ios": "https://dc.lft.to/lastmile_qr_scan", "android": "https://dc.lft.to/lastmile_qr_scan"}, "bike_id": "b35a5fa1998c457447a4fe396d55f1b3", "fusion_lat": 0.0},