{"data": {"bikes": [{"name": "47d2d04226b1cdb4670d613cd532f649", "type": "electric_scooter", "lat": 38.882205666666664, "is_reserved": 0, "lon": -76.94178016666666, "fusion_lon": 0.0, "is_disabled": 0, "fusion_lat": 0.0, "bike_id": "47d2d04226b1cdb4670d613cd532f649", "rental_uris": {"ios": "https://dc.lft.to/lastmile_qr_scan", "android": "https://dc.lft.to/lastmile_qr_scan"}}, {"name": "76de5ed9852612b55c423f9ce9880cdf", "type": "electric_scooter", "lat": 38.886080666666665, "is_reserved": 0, "lon": -76.9951105, "fusion_lon": 0.0, "is_disabled": 0, "fusion_lat": 0.0, "bike_id": "76de5ed9852612b55c423f9ce9880cdf", "rental_uris": {"ios": "https://dc.lft.to/lastmile_qr_scan", "android": "https://dc.lft.to/lastmile_qr_scan"}}, {"name": "cd0851b3de509767311e4b8f332047d6", "type": "electric_scooter", "lat": 38.9033165, "is_reserved": 0, "lon": -76.98972283333333, "fusion_lon": 0.0, "is_disabled": 0, "fusion_lat": 0.0, "bike_id": "cd0851b3de509767311e4b8f332047d6", "rental_uris": {"ios": "https://dc.lft.to/lastmile_qr_scan", "android": "https://dc.lft.to/lastmile_qr_scan"}}, {"name": "bf2b63694eb0f2c393b0f099019a8ae8", "type": "electric_scooter", "lat": 38.922093333333336, "is_reserved": 0, "lon": -77.04238283333333, "fusion_lon": 0.0, "is_disabled": 0, "fusion_lat": 0.0, "bike_id": "bf2b63694eb0f2c393b0f099019a8ae8", "rental_uris": {"ios": "https://dc.lft.to/lastmile_qr_scan", "android": "https://dc.lft.to/lastmile_qr_scan"}}, {"name": "d8cfd88157e112578282addc4296ecb1", "type": "electric_scooter", "lat": 38.90285516666667, "is_reserved": 0, "lon": -77.03175516666667, "fusion_lon": 0.0, "is_disabled": 0, "fusion_lat": 0.0, "bike_id": "d8cfd88157e112578282addc4296ecb1", "rental_uris": {"ios": "https://dc.lft.to/lastmile_qr_scan", "android": "https://dc.lft.to/lastmile_qr_scan"}}, {"name": "331b57b7e1f54383652d282bab055e90", "type": "electric_scooter", "lat": 38.905545833333335, "is_reserved": 0, "lon": -77.005799, "fusion_lon": 0.0, "is_disabled": 0, "fusion_lat": 0.0, "bike_id": "331b57b7e1f54383652d282bab055e90", "rental_uris": {"ios": "https://dc.lft.to/lastmile_qr_scan", "android": "https://dc.lft.to/lastmile_qr_scan"}}, {"name": "914234470a9e5571e1a1e5794eb8cddf", "type": "electric_scooter", "lat": 38.902707, "is_reserved": 0, "lon": -77.01770833333333, "fusion_lon": 0.0, "is_disabled": 0, "fusion_lat": 0.0, "bike_id": "914234470a9e5571e1a1e5794eb8cddf", "rental_uris": {"ios": "https://dc.lft.to/lastmile_qr_scan", "android": "https://dc.lft.to/lastmile_qr_scan"}}, {"name": "2b7cf6951af89de7749ec57cc83d264e", "type": "electric_scooter", "lat": 38.90731, "is_reserved": 0, "lon": -77.0113265, "fusion_lon": 0.0, "is_disabled": 0, "fusion_lat": 0.0, "bike_id": "2b7cf6951af89de7749ec57cc83d264e", "rental_uris": {"ios": "https://dc.lft.to/lastmile_qr_scan", "android": "https://dc.lft.to/lastmile_qr_scan"}}, {"name": "fb9a45484938e49f945c7f874dd89b77", "type": "electric_scooter", "lat": 38.921595333333336, "is_reserved": 0, "lon": -77.03381933333333, "fusion_lon": 0.0, "is_disabled": 0, "fusion_lat": 0.0, "bike_id": "fb9a45484938e49f945c7f874dd89b77", "rental_uris": {"ios": "https://dc.lft.to/lastmile_qr_scan", "android": "https://dc.lft.to/lastmile_qr_scan"}}, {"name": "28647a7b5dfed9a2c76203576c04e2fb", "type": "electric_scooter", "lat": 38.908333999999996, "is_reserved": 0, "lon": -77.04357416666667, "fusion_lon": 0.0, "is_disabled": 0, "fusion_lat": 0.0, "bike_id": "28647a7b5dfed9a2c76203576c04e2fb", "rental_uris": {"ios": "https://dc.lft.to/lastmile_qr_scan", "android": "https://dc.lft.to/lastmile_qr_scan"}}, {"name": "59a097bcadf7d9b67c149fbd87d4d95f", "type": "electric_scooter", "lat": 38.876354166666665, "is_reserved": 0, "lon": -77.009212, "fusion_lon": 0.0, "is_disabled": 0, "fusion_lat": 0.0, "bike_id": "59a097bcadf7d9b67c149fbd87d4d95f", "rental_uris": {"ios": "https://dc.lft.to/lastmile_qr_scan", "android": "https://dc.lft.to/lastmile_qr_scan"}}, {"name": "4c398fe7a65e77d81ba25aee5826bbb2", "type": "electric_bike", "lat": 38.93674883333333, "is_reserved": 0, "lon": -76.95213616666666, "fusion_lon": 0.0, "is_disabled": 0, "fusion_lat": 0.0, "bike_id": "4c398fe7a65e77d81ba25aee5826bbb2", "rental_uris": {"ios": "https://dc.lft.to/lastmile_qr_scan", "android": "https://dc.lft.to/lastmile_qr_scan"}}, {"name": "9c054d9ddce5dfc7ec3ed46c4919d2b0", "type": "electric_scooter", "lat": 38.877105, "is_reserved": 0, "lon": -77.0184485, "fusion_lon": 0.0, "is_disabled": 0, "fusion_lat": 0.0, "bike_id": "9c054d9ddce5dfc7ec3ed46c4919d2b0", "rental_uris": {"ios": "https://dc.lft.to/lastmile_qr_scan", "android": "https://dc.lft.to/lastmile_qr_scan"}}, {"name": "b704d9281fd21cf7ff956cd2fb1a880c", "type": "electric_scooter", "lat": 38.92876916666667, "is_reserved": 0, "lon": -77.04049416666666, "fusion_lon": 0.0, "is_disabled": 0, "fusion_lat": 0.0, "bike_id": "b704d9281fd21cf7ff956cd2fb1a880c", "rental_uris": {"ios": "https://dc.lft.to/lastmile_qr_scan", "android": "https://dc.lft.to/lastmile_qr_scan"}}, {"name": "58a8ebd0d02321aa10da2307ca278130", "type": "electric_bike", "lat": 38.9547445, "is_reserved": 0, "lon": -76.99012, "fusion_lon": 0.0, "is_disabled": 0, "fusion_lat": 0.0, "bike_id": "58a8ebd0d02321aa10da2307ca278130", "rental_uris": {"ios": "https://dc.lft.to/lastmile_qr_scan", "android": "https://dc.lft.to/lastmile_qr_scan"}}, {"name": "e8ce7ff46f03eed3087476e199dd07b5", "type": "electric_scooter", "lat": 38.901855, "is_reserved": 0, "lon": -77.02177633333334, "fusion_lon": 0.0, "is_disabled": 0, "fusion_lat": 0.0, "bike_id": "e8ce7ff46f03eed3087476e199dd07b5", "rental_uris": {"ios": "https://dc.lft.to/lastmile_qr_scan", "android": "https://dc.lft.to/lastmile_qr_scan"}}, {"name": "19615597557b19598a71ecfca0d2c4bc", "type": "electric_scooter", "lat": 38.911908, "is_reserved": 0, "lon": -77.03215066666667, "fusion_lon": 0.0, "is_disabled": 0, "fusion_lat": 0.0, "bike_id": "19615597557b19598a71ecfca0d2c4bc", "rental_uris": {"ios": "https://dc.lft.to/lastmile_qr_scan", "android": "https://dc.lft.to/lastmile_qr_scan"}}, {"name": "74fca9383e2cefc59f4c8560cef18ad6", "type": "electric_scooter", "lat": 38.927145, "is_reserved": 0, "lon": -77.02282366666667, "fusion_lon": 0.0, "is_disabled": 0, "fusion_lat": 0.0, "bike_id": "74fca9383e2cefc59f4c8560cef18ad6", "rental_uris": {"ios": "https://dc.lft.to/lastmile_qr_scan", "android": "https://dc.lft.to/lastmile_qr_scan"}}, {"name": "27163f70f33566dc086e04d618fcaae0", "type": "electric_scooter", "lat": 38.9244905, "is_reserved": 0, "lon": -77.03372133333333, "fusion_lon": 0.0, "is_disabled": 0, "fusion_lat": 0.0, "bike_id": "27163f70f33566dc086e04d618fcaae0", "rental_uris": {"ios": "https://dc.lft.to/lastmile_qr_scan", "android": "https://dc.lft.to/lastmile_qr_scan"}}, {"name": "e9d5ad6ca587368bb74156dbf16a4c3d", "type": "electric_scooter", "lat": 38.97236483333333, "is_reserved": 0, "lon": -77.02712183333334, "fusion_lon": 0.0, "is_disabled": 0, "fusion_lat": 0.0, "bike_id": "e9d5ad6ca587368bb74156dbf16a4c3d", "rental_uris": {"ios": "https://dc.lft.to/lastmile_qr_scan", "android": "https://dc.lft.to/lastmile_qr_scan"}}, {"name": "93002cb80a26affd697a99f417da8f80", "type": "electric_scooter", "lat": 38.92446866666667, "is_reserved": 0, "lon": -77.02033816666666, "fusion_lon": 0.0, "is_disabled": 0, "fusion_lat": 0.0, "bike_id": "93002cb80a26affd697a99f417da8f80", "rental_uris": {"ios": "https://dc.lft.to/lastmile_qr_scan", "android": "https://dc.lft.to/lastmile_qr_scan"}}, {"name": "898461f9fa1fdaf3cf9e442452961bb3", "type": "electric_scooter", "lat": 38.941001166666666, "is_reserved": 0, "lon": -77.03283866666666, "fusion_lon": 0.0, "is_disabled": 0, "fusion_lat": 0.0, "bike_id": "898461f9fa1fdaf3cf9e442452961bb3", "rental_uris": {"ios": "https://dc.lft.to/lastmile_qr_scan", "android": "https://dc.lft.to/lastmile_qr_scan"}}, {"name": "cc0190a2d57302212f54c79c4cc8f79d", "type": "electric_scooter", "lat": 38.8552735, "is_reserved": 0, "lon": -76.96917383333333, "fusion_lon": 0.0, "is_disabled": 0, "fusion_lat": 0.0, "bike_id": "cc0190a2d57302212f54c79c4cc8f79d", "rental_uris": {"ios": "https://dc.lft.to/lastmile_qr_scan", "android": "https://dc.lft.to/lastmile_qr_scan"}}, {"name": "c92158e7ecf6a80c490e9ba1b672ee95", "type": "electric_scooter", "lat": 38.89402916666667, "is_reserved": 0, "lon": -76.94803083333333, "fusion_lon": 0.0, "is_disabled": 0, "fusion_lat": 0.0, "bike_id": "c92158e7ecf6a80c490e9ba1b672ee95", "rental_uris": {"ios": "https://dc.lft.to/lastmile_qr_scan", "android": "https://dc.lft.to/lastmile_qr_scan"}}, {"name": "048b8e0cdf9b86bfb135351b179d1bc5", "type": "electric_scooter", "lat": 38.8999625, "is_reserved": 0, "lon": -76.99508083333333, "fusion_lon": 0.0, "is_disabled": 0, "fusion_lat": 0.0, "bike_id": "048b8e0cdf9b86bfb135351b179d1bc5", "rental_uris": {"ios": "https://dc.lft.to/lastmile_qr_scan", "android": "https://dc.lft.to/lastmile_qr_scan"}}, {"name": "56394ce237deb193d336c2991574c2e3", "type": "electric_scooter", "lat": 38.907288, "is_reserved": 0, "lon": -77.03442316666667, "fusion_lon": 0.0, "is_disabled": 0, "fusion_lat": 0.0, "bike_id": "56394ce237deb193d336c2991574c2e3", "rental_uris": {"ios": "https://dc.lft.to/lastmile_qr_scan", "android": "https://dc.lft.to/lastmile_qr_scan"}}, {"name": "1d1bb52ca586be63c62a99f80143ab59", "type": "electric_bike", "lat": 38.9451205, "is_reserved": 0, "lon": -77.006738, "fusion_lon": 0.0, "is_disabled": 0, "fusion_lat": 0.0, "bike_id": "1d1bb52ca586be63c62a99f80143ab59", "rental_uris": {"ios": "https://dc.lft.to/lastmile_qr_scan", "android": "https://dc.lft.to/lastmile_qr_scan"}}, {"name": "aaaf194d86404669c116ec7e806e98f8", "type": "electric_scooter", "lat": 38.91758166666666, "is_reserved": 0, "lon": -77.03962033333333, "fusion_lon": 0.0, "is_disabled": 0, "fusion_lat": 0.0, "bike_id": "aaaf194d86404669c116ec7e806e98f8", "rental_uris": {"ios": "https://dc.lft.to/lastmile_qr_scan", "android": "https://dc.lft.to/lastmile_qr_scan"}}, {"name": "18f12d8566f7e54f6888020b3cb1f721", "type": "electric_scooter", "lat": 38.90562516666667, "is_reserved": 0, "lon": -77.02176, "fusion_lon": 0.0, "is_disabled": 0, "fusion_lat": 0.0, "bike_id": "18f12d8566f7e54f6888020b3cb1f721", "rental_uris": {"ios": "https://dc.lft.to/lastmile_qr_scan", "android": "https://dc.lft.to/lastmile_qr_scan"}}, {"name": "4c6e18e38eb256e0186b8b44c76fd3cc", "type": "electric_scooter", "lat": 38.86419266666667, "is_reserved": 0, "lon": -76.98042316666667, "fusion_lon": 0.0, "is_disabled": 0, "fusion_lat": 0.0, "bike_id": "4c6e18e38eb256e0186b8b44c76fd3cc", "rental_uris": {"ios": "https://dc.lft.to/lastmile_qr_scan", "android": "https://dc.lft.to/lastmile_qr_scan"}}, {"name": "3ddcaba4e1428b23ff8680642e3cda73", "type": "electric_scooter", "lat": 38.901529, "is_reserved": 0, "lon": -77.0333175, "fusion_lon": 0.0, "is_disabled": 0, "fusion_lat": 0.0, "bike_id": "3ddcaba4e1428b23ff8680642e3cda73", "rental_uris": {"ios": "https://dc.lft.to/lastmile_qr_scan", "android": "https://dc.lft.to/lastmile_qr_scan"}}, {"name": "cce0d2aa6d124ba21a1456b545ea9e86", "type": "electric_scooter", "lat": 38.91678516666666, "is_reserved": 0, "lon": -77.0368355, "fusion_lon": 0.0, "is_disabled": 0, "fusion_lat": 0.0, "bike_id": "cce0d2aa6d124ba21a1456b545ea9e86", "rental_uris": {"ios": "https://dc.lft.to/lastmile_qr_scan", "android": "https://dc.lft.to/lastmile_qr_scan"}}, {"name": "2ac1b186bf7f23f1d46582980e83fa74", "type": "electric_scooter", "lat": 38.930473666666664, "is_reserved": 0, "lon": -77.0278365, "fusion_lon": 0.0, "is_disabled": 0, "fusion_lat": 0.0, "bike_id": "2ac1b186bf7f23f1d46582980e83fa74", "rental_uris": {"ios": "https://dc.lft.to/lastmile_qr_scan", "android": "https://dc.lft.to/lastmile_qr_scan"}}, {"name": "8833240c009fd7babecbdc7623ce491b", "type": "electric_scooter", "lat": 38.92485833333333, "is_reserved": 0, "lon": -77.027183, "fusion_lon": 0.0, "is_disabled": 0, "fusion_lat": 0.0, "bike_id": "8833240c009fd7babecbdc7623ce491b", "rental_uris": {"ios": "https://dc.lft.to/lastmile_qr_scan", "android": "https://dc.lft.to/lastmile_qr_scan"}}, {"name": "7368cc304c2a0104d41f5923beeb5d21", "type": "electric_scooter", "lat": 38.899205, "is_reserved": 0, "lon": -76.93384683333333, "fusion_lon": 0.0, "is_disabled": 0, "fusion_lat": 0.0, "bike_id": "7368cc304c2a0104d41f5923beeb5d21", "rental_uris": {"ios": "https://dc.lft.to/lastmile_qr_scan", "android": "https://dc.lft.to/lastmile_qr_scan"}}, {"name": "e9bfc3e45719699ffcbe0a7379d9affc", "type": "electric_scooter", "lat": 38.930943166666665, "is_reserved": 0, "lon": -77.03670566666666, "fusion_lon": 0.0, "is_disabled": 0, "fusion_lat": 0.0, "bike_id": "e9bfc3e45719699ffcbe0a7379d9affc", "rental_uris": {"ios": "https://dc.lft.to/lastmile_qr_scan", "android": "https://dc.lft.to/lastmile_qr_scan"}}, {"name": "b35db11a7492eb7aab263400bed2260e", "type": "electric_bike", "lat": 38.8515705, "is_reserved": 0, "lon": -77.12875566666666, "fusion_lon": 0.0, "is_disabled": 0, "fusion_lat": 0.0, "bike_id": "b35db11a7492eb7aab263400bed2260e", "rental_uris": {"ios": "https://dc.lft.to/lastmile_qr_scan", "android": "https://dc.lft.to/lastmile_qr_scan"}}, {"name": "49bbbd809de3e3a47cd9ed8f505b4929", "type": "electric_scooter", "lat": 38.92230333333333, "is_reserved": 0, "lon": -77.04619566666666, "fusion_lon": 0.0, "is_disabled": 0, "fusion_lat": 0.0, "bike_id": "49bbbd809de3e3a47cd9ed8f505b4929", "rental_uris": {"ios": "https://dc.lft.to/lastmile_qr_scan", "android": "https://dc.lft.to/lastmile_qr_scan"}}, {"name": "43d1b0cde4fa578d894b91151a552db5", "type": "electric_scooter", "lat": 38.9573525, "is_reserved": 0, "lon": -77.02406366666666, "fusion_lon": 0.0, "is_disabled": 0, "fusion_lat": 0.0, "bike_id": "43d1b0cde4fa578d894b91151a552db5", "rental_uris": {"ios": "https://dc.lft.to/lastmile_qr_scan", "android": "https://dc.lft.to/lastmile_qr_scan"}}, {"name": "282823815979131f98c44b548c84f765", "type": "electric_scooter", "lat": 38.90125483333333, "is_reserved": 0, "lon": -77.04478666666667, "fusion_lon": 0.0, "is_disabled": 0, "fusion_lat": 0.0, "bike_id": "282823815979131f98c44b548c84f765", "rental_uris": {"ios": "https://dc.lft.to/lastmile_qr_scan", "android": "https://dc.lft.to/lastmile_qr_scan"}}, {"name": "469396dd0062254fd9fb29cd16cbc843", "type": "electric_scooter", "lat": 38.902477833333336, "is_reserved": 0, "lon": -76.9793115, "fusion_lon": 0.0, "is_disabled": 0, "fusion_lat": 0.0, "bike_id": "469396dd0062254fd9fb29cd16cbc843", "rental_uris": {"ios": "https://dc.lft.to/lastmile_qr_scan", "android": "https://dc.lft.to/lastmile_qr_scan"}}, {"name": "85ad5798ad4b38fcf8dceb7049726c4d", "type": "electric_scooter", "lat": 38.906552166666664, "is_reserved": 0, "lon": -77.04292816666667, "fusion_lon": 0.0, "is_disabled": 0, "fusion_lat": 0.0, "bike_id": "85ad5798ad4b38fcf8dceb7049726c4d", "rental_uris": {"ios": "https://dc.lft.to/lastmile_qr_scan", "android": "https://dc.lft.to/lastmile_qr_scan"}}, {"name": "cfc049ee01dfce94093b6566b22d0308", "type": "electric_scooter", "lat": 38.894720666666664, "is_reserved": 0, "lon": -76.9840285, "fusion_lon": 0.0, "is_disabled": 0, "fusion_lat": 0.0, "bike_id": "cfc049ee01dfce94093b6566b22d0308", "rental_uris": {"ios": "https://dc.lft.to/lastmile_qr_scan", "android": "https://dc.lft.to/lastmile_qr_scan"}}, {"name": "90124b5d4d7ba404b6a588855302b7a2", "type": "electric_bike", "lat": 38.89819083333333, "is_reserved": 0, "lon": -77.00578066666667, "fusion_lon": 0.0, "is_disabled": 0, "fusion_lat": 0.0, "bike_id": "90124b5d4d7ba404b6a588855302b7a2", "rental_uris": {"ios": "https://dc.lft.to/lastmile_qr_scan", "android": "https://dc.lft.to/lastmile_qr_scan"}}, {"name": "55cd8eee745cc78b23a95256bfdc76a9", "type": "electric_scooter", "lat": 38.865709833333334, "is_reserved": 0, "lon": -76.98949433333334, "fusion_lon": 0.0, "is_disabled": 0, "fusion_lat": 0.0, "bike_id": "55cd8eee745cc78b23a95256bfdc76a9", "rental_uris": {"ios": "https://dc.lft.to/lastmile_qr_scan", "android": "https://dc.lft.to/lastmile_qr_scan"}}, {"name": "5193ae43672adc725c6488003630c98c", "type": "electric_bike", "lat": 38.8840515, "is_reserved": 0, "lon": -77.04645133333334, "fusion_lon": 0.0, "is_disabled": 0, "fusion_lat": 0.0, "bike_id": "5193ae43672adc725c6488003630c98c", "rental_uris": {"ios": "https://dc.lft.to/lastmile_qr_scan", "android": "https://dc.lft.to/lastmile_qr_scan"}}, {"name": "15ef14f0b3f0850ef85e32b6841d0ed9", "type": "electric_scooter", "lat": 38.93059616666667, "is_reserved": 0, "lon": -77.039426, "fusion_lon": 0.0, "is_disabled": 0, "fusion_lat": 0.0, "bike_id": "15ef14f0b3f0850ef85e32b6841d0ed9", "rental_uris": {"ios": "https://dc.lft.to/lastmile_qr_scan", "android": "https://dc.lft.to/lastmile_qr_scan"}}, {"name": "e78516e2dbbc5fa792082c67c9bbf38a", "type": "electric_scooter", "lat": 38.943118, "is_reserved": 0, "lon": -77.0591625, "fusion_lon": 0.0, "is_disabled": 0, "fusion_lat": 0.0, "bike_id": "e78516e2dbbc5fa792082c67c9bbf38a", "rental_uris": {"ios": "https://dc.lft.to/lastmile_qr_scan", "android": "https://dc.lft.to/lastmile_qr_scan"}}, {"name": "3ce3b48bafc063641a808ed36024c5d0", "type": "electric_bike", "lat": 38.9116565, "is_reserved": 0, "lon": -77.002772, "fusion_lon": 0.0, "is_disabled": 0, "fusion_lat": 0.0, "bike_id": "3ce3b48bafc063641a808ed36024c5d0", "rental_uris": {"ios": "https://dc.lft.to/lastmile_qr_scan", "android": "https://dc.lft.to/lastmile_qr_scan"}}, {"name": "8381f9c5eb13c0d77da2d9962d37915f", "type": "electric_scooter", "lat": 38.90039816666667, "is_reserved": 0, "lon": -77.0020015, "fusion_lon": 0.0, "is_disabled": 0, "fusion_lat": 0.0, "bike_id": "8381f9c5eb13c0d77da2d9962d37915f", "rental_uris": {"ios": "https://dc.lft.to/lastmile_qr_scan", "android": "https://dc.lft.to/lastmile_qr_scan"}}, {"name": "55b25e959d4b190a2d976e9ba0d422f2", "type": "electric_bike", "lat": 38.82224266666667, "is_reserved": 0, "lon": -77.10449433333334, "fusion_lon": 0.0, "is_disabled": 0, "fusion_lat": 0.0, "bike_id": "55b25e959d4b190a2d976e9ba0d422f2", "rental_uris": {"ios": "https://dc.lft.to/lastmile_qr_scan", "android": "https://dc.lft.to/lastmile_qr_scan"}}, {"name": "5bbef3b1bd9d5a24fcedd58fdb0b60f8", "type": "electric_scooter", "lat": 38.905490666666665, "is_reserved": 0, "lon": -77.02182466666666, "fusion_lon": 0.0, "is_disabled": 0, "fusion_lat": 0.0, "bike_id": "5bbef3b1bd9d5a24fcedd58fdb0b60f8", "rental_uris": {"ios": "https://dc.lft.to/lastmile_qr_scan", "android": "https://dc.lft.to/lastmile_qr_scan"}}, {"name": "ccff8540c67fa2beab17374794b08860", "type": "electric_scooter", "lat": 38.866588666666665, "is_reserved": 0, "lon": -76.9888635, "fusion_lon": 0.0, "is_disabled": 0, "fusion_lat": 0.0, "bike_id": "ccff8540c67fa2beab17374794b08860", "rental_uris": {"ios": "https://dc.lft.to/lastmile_qr_scan", "android": "https://dc.lft.to/lastmile_qr_scan"}}, {"name": "e1a9e080b28392ad9206f0168437294a", "type": "electric_scooter", "lat": 38.927413666666666, "is_reserved": 0, "lon": -77.0326595, "fusion_lon": 0.0, "is_disabled": 0, "fusion_lat": 0.0, "bike_id": "e1a9e080b28392ad9206f0168437294a", "rental_uris": {"ios": "https://dc.lft.to/lastmile_qr_scan", "android": "https://dc.lft.to/lastmile_qr_scan"}}, {"name": "b835c346b7a9f263af811af34f129c86", "type": "electric_scooter", "lat": 38.88609866666667, "is_reserved": 0, "lon": -76.99511866666667, "fusion_lon": 0.0, "is_disabled": 0, "fusion_lat": 0.0, "bike_id": "b835c346b7a9f263af811af34f129c86", "rental_uris": {"ios": "https://dc.lft.to/lastmile_qr_scan", "android": "https://dc.lft.to/lastmile_qr_scan"}}, {"name": "3696f837e0d91d5b0ce775ee0b070a92", "type": "electric_scooter", "lat": 38.92510716666666, "is_reserved": 0, "lon": -77.0193485, "fusion_lon": 0.0, "is_disabled": 0, "fusion_lat": 0.0, "bike_id": "3696f837e0d91d5b0ce775ee0b070a92", "rental_uris": {"ios": "https://dc.lft.to/lastmile_qr_scan", "android": "https://dc.lft.to/lastmile_qr_scan"}}, {"name": "5da65231714106fa041db1ef8af7a6ff", "type": "electric_scooter", "lat": 38.9110875, "is_reserved": 0, "lon": -77.03828016666667, "fusion_lon": 0.0, "is_disabled": 0, "fusion_lat": 0.0, "bike_id": "5da65231714106fa041db1ef8af7a6ff", "rental_uris": {"ios": "https://dc.lft.to/lastmile_qr_scan", "android": "https://dc.lft.to/lastmile_qr_scan"}}, {"name": "adcd690966a5b81e504d85a179fbb598", "type": "electric_bike", "lat": 38.862862166666666, "is_reserved": 0, "lon": -77.06366416666667, "fusion_lon": 0.0, "is_disabled": 0, "fusion_lat": 0.0, "bike_id": "adcd690966a5b81e504d85a179fbb598", "rental_uris": {"ios": "https://dc.lft.to/lastmile_qr_scan", "android": "https://dc.lft.to/lastmile_qr_scan"}}, {"name": "2c21c6506b236362c42358fa5dcafb28", "type": "electric_scooter", "lat": 38.911104, "is_reserved": 0, "lon": -77.013919, "fusion_lon": 0.0, "is_disabled": 0, "fusion_lat": 0.0, "bike_id": "2c21c6506b236362c42358fa5dcafb28", "rental_uris": {"ios": "https://dc.lft.to/lastmile_qr_scan", "android": "https://dc.lft.to/lastmile_qr_scan"}}, {"name": "f3ed57797b35667bf752966014189a61", "type": "electric_scooter", "lat": 38.92144, "is_reserved": 0, "lon": -77.03386916666666, "fusion_lon": 0.0, "is_disabled": 0, "fusion_lat": 0.0, "bike_id": "f3ed57797b35667bf752966014189a61", "rental_uris": {"ios": "https://dc.lft.to/lastmile_qr_scan", "android": "https://dc.lft.to/lastmile_qr_scan"}}, {"name": "20d92b7cffc6316f3497a104f2baef99", "type": "electric_scooter", "lat": 38.863726666666665, "is_reserved": 0, "lon": -76.99059166666666, "fusion_lon": 0.0, "is_disabled": 0, "fusion_lat": 0.0, "bike_id": "20d92b7cffc6316f3497a104f2baef99", "rental_uris": {"ios": "https://dc.lft.to/lastmile_qr_scan", "android": "https://dc.lft.to/lastmile_qr_scan"}}, {"name": "fee5728852cc9c1e3e2c079718f0d287", "type": "electric_scooter", "lat": 38.91994, "is_reserved": 0, "lon": -77.038838, "fusion_lon": 0.0, "is_disabled": 0, "fusion_lat": 0.0, "bike_id": "fee5728852cc9c1e3e2c079718f0d287", "rental_uris": {"ios": "https://dc.lft.to/lastmile_qr_scan", "android": "https://dc.lft.to/lastmile_qr_scan"}}, {"name": "34e7284dbecb084a64d39ff0fcae17a6", "type": "electric_scooter", "lat": 38.9067205, "is_reserved": 0, "lon": -77.03831166666667, "fusion_lon": 0.0, "is_disabled": 0, "fusion_lat": 0.0, "bike_id": "34e7284dbecb084a64d39ff0fcae17a6", "rental_uris": {"ios": "https://dc.lft.to/lastmile_qr_scan", "android": "https://dc.lft.to/lastmile_qr_scan"}}, {"name": "0d23746fdceff08952702d8dbace1c4e", "type": "electric_scooter", "lat": 38.866586, "is_reserved": 0, "lon": -76.9888135, "fusion_lon": 0.0, "is_disabled": 0, "fusion_lat": 0.0, "bike_id": "0d23746fdceff08952702d8dbace1c4e", "rental_uris": {"ios": "https://dc.lft.to/lastmile_qr_scan", "android": "https://dc.lft.to/lastmile_qr_scan"}}, {"name": "f36d8be978cd5a17aa22dcc6e76e532c", "type": "electric_scooter", "lat": 38.926858333333335, "is_reserved": 0, "lon": -77.02783816666667, "fusion_lon": 0.0, "is_disabled": 0, "fusion_lat": 0.0, "bike_id": "f36d8be978cd5a17aa22dcc6e76e532c", "rental_uris": {"ios": "https://dc.lft.to/lastmile_qr_scan", "android": "https://dc.lft.to/lastmile_qr_scan"}}, {"name": "e5a5e95e62eaa30e4458c5a684259b3a", "type": "electric_scooter", "lat": 38.86520866666667, "is_reserved": 0, "lon": -76.990288, "fusion_lon": 0.0, "is_disabled": 0, "fusion_lat": 0.0, "bike_id": "e5a5e95e62eaa30e4458c5a684259b3a", "rental_uris": {"ios": "https://dc.lft.to/lastmile_qr_scan", "android": "https://dc.lft.to/lastmile_qr_scan"}}, {"name": "182d85dd5dc9c9bac3d7c99ce5c1595a", "type": "electric_scooter", "lat": 38.89388566666667, "is_reserved": 0, "lon": -77.02991583333333, "fusion_lon": 0.0, "is_disabled": 0, "fusion_lat": 0.0, "bike_id": "182d85dd5dc9c9bac3d7c99ce5c1595a", "rental_uris": {"ios": "https://dc.lft.to/lastmile_qr_scan", "android": "https://dc.lft.to/lastmile_qr_scan"}}, {"name": "b3c5fa86d0d866e50478385cce65a679", "type": "electric_scooter", "lat": 38.924800833333336, "is_reserved": 0, "lon": -77.034817, "fusion_lon": 0.0, "is_disabled": 0, "fusion_lat": 0.0, "bike_id": "b3c5fa86d0d866e50478385cce65a679", "rental_uris": {"ios": "https://dc.lft.to/lastmile_qr_scan", "android": "https://dc.lft.to/lastmile_qr_scan"}}, {"name": "a1976c74c499d16c7554b57ac355ecfa", "type": "electric_bike", "lat": 38.952663, "is_reserved": 0, "lon": -77.069768, "fusion_lon": 0.0, "is_disabled": 0, "fusion_lat": 0.0, "bike_id": "a1976c74c499d16c7554b57ac355ecfa", "rental_uris": {"ios": "https://dc.lft.to/lastmile_qr_scan", "android": "https://dc.lft.to/lastmile_qr_scan"}}, {"name": "06f08d7f489c000219fff94482614415", "type": "electric_scooter", "lat": 38.92345616666667, "is_reserved": 0, "lon": -77.01906383333333, "fusion_lon": 0.0, "is_disabled": 0, "fusion_lat": 0.0, "bike_id": "06f08d7f489c000219fff94482614415", "rental_uris": {"ios": "https://dc.lft.to/lastmile_qr_scan", "android": "https://dc.lft.to/lastmile_qr_scan"}}, {"name": "bc55b9eac60d00297333e05dc124e864", "type": "electric_scooter", "lat": 38.905060666666664, "is_reserved": 0, "lon": -77.06385516666667, "fusion_lon": 0.0, "is_disabled": 0, "fusion_lat": 0.0, "bike_id": "bc55b9eac60d00297333e05dc124e864", "rental_uris": {"ios": "https://dc.lft.to/lastmile_qr_scan", "android": "https://dc.lft.to/lastmile_qr_scan"}}, {"name": "744e8b2be75f8619f603bdebee96d514", "type": "electric_scooter", "lat": 38.909755, "is_reserved": 0, "lon": -77.01124916666667, "fusion_lon": 0.0, "is_disabled": 0, "fusion_lat": 0.0, "bike_id": "744e8b2be75f8619f603bdebee96d514", "rental_uris": {"ios": "https://dc.lft.to/lastmile_qr_scan", "android": "https://dc.lft.to/lastmile_qr_scan"}}, {"name": "614eb36cbbdf339607948dcf4c5aed55", "type": "electric_bike", "lat": 38.88838366666667, "is_reserved": 0, "lon": -76.99360783333333, "fusion_lon": 0.0, "is_disabled": 0, "fusion_lat": 0.0, "bike_id": "614eb36cbbdf339607948dcf4c5aed55", "rental_uris": {"ios": "https://dc.lft.to/lastmile_qr_scan", "android": "https://dc.lft.to/lastmile_qr_scan"}}, {"name": "9b098e41271732bdc31939c246671c90", "type": "electric_scooter", "lat": 38.90586533333333, "is_reserved": 0, "lon": -77.06518516666667, "fusion_lon": 0.0, "is_disabled": 0, "fusion_lat": 0.0, "bike_id": "9b098e41271732bdc31939c246671c90", "rental_uris": {"ios": "https://dc.lft.to/lastmile_qr_scan", "android": "https://dc.lft.to/lastmile_qr_scan"}}, {"name": "3f4f39d1681b560701abe1a8fb0d75a0", "type": "electric_scooter", "lat": 38.91856133333334, "is_reserved": 0, "lon": -76.96543366666667, "fusion_lon": 0.0, "is_disabled": 0, "fusion_lat": 0.0, "bike_id": "3f4f39d1681b560701abe1a8fb0d75a0", "rental_uris": {"ios": "https://dc.lft.to/lastmile_qr_scan", "android": "https://dc.lft.to/lastmile_qr_scan"}}, {"name": "589428b4941a5e88aa81acd83168d029", "type": "electric_scooter", "lat": 38.92631866666667, "is_reserved": 0, "lon": -77.035084, "fusion_lon": 0.0, "is_disabled": 0, "fusion_lat": 0.0, "bike_id": "589428b4941a5e88aa81acd83168d029", "rental_uris": {"ios": "https://dc.lft.to/lastmile_qr_scan", "android": "https://dc.lft.to/lastmile_qr_scan"}}, {"name": "4756f3d1038cfefe0481cc967c883575", "type": "electric_scooter", "lat": 38.92057366666667, "is_reserved": 0, "lon": -77.02975166666667, "fusion_lon": 0.0, "is_disabled": 0, "fusion_lat": 0.0, "bike_id": "4756f3d1038cfefe0481cc967c883575", "rental_uris": {"ios": "https://dc.lft.to/lastmile_qr_scan", "android": "https://dc.lft.to/lastmile_qr_scan"}}, {"name": "bcbadce64b946a138be2995a25369755", "type": "electric_scooter", "lat": 38.909734, "is_reserved": 0, "lon": -77.01714833333334, "fusion_lon": 0.0, "is_disabled": 0, "fusion_lat": 0.0, "bike_id": "bcbadce64b946a138be2995a25369755", "rental_uris": {"ios": "https://dc.lft.to/lastmile_qr_scan", "android": "https://dc.lft.to/lastmile_qr_scan"}}, {"name": "f872277c09d033e7a0d14cefcaa14014", "type": "electric_scooter", "lat": 38.905886, "is_reserved": 0, "lon": -77.06519233333333, "fusion_lon": 0.0, "is_disabled": 0, "fusion_lat": 0.0, "bike_id": "f872277c09d033e7a0d14cefcaa14014", "rental_uris": {"ios": "https://dc.lft.to/lastmile_qr_scan", "android": "https://dc.lft.to/lastmile_qr_scan"}}, {"name": "76f8074996a3d8ce6c02294b8eee3148", "type": "electric_scooter", "lat": 38.919719666666666, "is_reserved": 0, "lon": -77.00108683333333, "fusion_lon": 0.0, "is_disabled": 0, "fusion_lat": 0.0, "bike_id": "76f8074996a3d8ce6c02294b8eee3148", "rental_uris": {"ios": "https://dc.lft.to/lastmile_qr_scan", "android": "https://dc.lft.to/lastmile_qr_scan"}}, {"name": "51f3483c70ae5b3b0f0bb9e5f39147d5", "type": "electric_bike", "lat": 38.95537933333333, "is_reserved": 0, "lon": -77.02290066666667, "fusion_lon": 0.0, "is_disabled": 0, "fusion_lat": 0.0, "bike_id": "51f3483c70ae5b3b0f0bb9e5f39147d5", "rental_uris": {"ios": "https://dc.lft.to/lastmile_qr_scan", "android": "https://dc.lft.to/lastmile_qr_scan"}}, {"name": "1cd039b3ec303d2cd44fdd313812720c", "type": "electric_scooter", "lat": 38.933539333333336, "is_reserved": 0, "lon": -77.06933016666666, "fusion_lon": 0.0, "is_disabled": 0, "fusion_lat": 0.0, "bike_id": "1cd039b3ec303d2cd44fdd313812720c", "rental_uris": {"ios": "https://dc.lft.to/lastmile_qr_scan", "android": "https://dc.lft.to/lastmile_qr_scan"}}, {"name": "4aa31fe3532abf5c11830b505a290edb", "type": "electric_scooter", "lat": 38.90266966666667, "is_reserved": 0, "lon": -77.03829033333334, "fusion_lon": 0.0, "is_disabled": 0, "fusion_lat": 0.0, "bike_id": "4aa31fe3532abf5c11830b505a290edb", "rental_uris": {"ios": "https://dc.lft.to/lastmile_qr_scan", "android": "https://dc.lft.to/lastmile_qr_scan"}}, {"name": "a983572533101312520572075ea60eaa", "type": "electric_scooter", "lat": 38.89957533333333, "is_reserved": 0, "lon": -76.926193, "fusion_lon": 0.0, "is_disabled": 0, "fusion_lat": 0.0, "bike_id": "a983572533101312520572075ea60eaa", "rental_uris": {"ios": "https://dc.lft.to/lastmile_qr_scan", "android": "https://dc.lft.to/lastmile_qr_scan"}}, {"name": "a31f8d6f2119e22ace33a30a103bbaea", "type": "electric_scooter", "lat": 38.919925666666664, "is_reserved": 0, "lon": -77.0346315, "fusion_lon": 0.0, "is_disabled": 0, "fusion_lat": 0.0, "bike_id": "a31f8d6f2119e22ace33a30a103bbaea", "rental_uris": {"ios": "https://dc.lft.to/lastmile_qr_scan", "android": "https://dc.lft.to/lastmile_qr_scan"}}, {"name": "6b685e5f2d2647324dcdf7fcf65990f0", "type": "electric_scooter", "lat": 38.9118965, "is_reserved": 0, "lon": -77.0453985, "fusion_lon": 0.0, "is_disabled": 0, "fusion_lat": 0.0, "bike_id": "6b685e5f2d2647324dcdf7fcf65990f0", "rental_uris": {"ios": "https://dc.lft.to/lastmile_qr_scan", "android": "https://dc.lft.to/lastmile_qr_scan"}}, {"name": "083eca422ab75f45e4d423fc28606e7b", "type": "electric_scooter", "lat": 38.89913516666667, "is_reserved": 0, "lon": -77.0391535, "fusion_lon": 0.0, "is_disabled": 0, "fusion_lat": 0.0, "bike_id": "083eca422ab75f45e4d423fc28606e7b", "rental_uris": {"ios": "https://dc.lft.to/lastmile_qr_scan", "android": "https://dc.lft.to/lastmile_qr_scan"}}, {"name": "3f539d7d2641210b2477f6acc57c88a9", "type": "electric_scooter", "lat": 38.892011333333336, "is_reserved": 0, "lon": -77.00245583333333, "fusion_lon": 0.0, "is_disabled": 0, "fusion_lat": 0.0, "bike_id": "3f539d7d2641210b2477f6acc57c88a9", "rental_uris": {"ios": "https://dc.lft.to/lastmile_qr_scan", "android": "https://dc.lft.to/lastmile_qr_scan"}}, {"name": "675d023d1232b073da7634c021b29660", "type": "electric_scooter", "lat": 38.90960416666667, "is_reserved": 0, "lon": -77.04862166666666, "fusion_lon": 0.0, "is_disabled": 0, "fusion_lat": 0.0, "bike_id": "675d023d1232b073da7634c021b29660", "rental_uris": {"ios": "https://dc.lft.to/lastmile_qr_scan", "android": "https://dc.lft.to/lastmile_qr_scan"}}, {"name": "b25b8c0ce8a08566ba2bb9c24833807a", "type": "electric_scooter", "lat": 38.89508516666667, "is_reserved": 0, "lon": -77.00339466666667, "fusion_lon": 0.0, "is_disabled": 0, "fusion_lat": 0.0, "bike_id": "b25b8c0ce8a08566ba2bb9c24833807a", "rental_uris": {"ios": "https://dc.lft.to/lastmile_qr_scan", "android": "https://dc.lft.to/lastmile_qr_scan"}}, {"name": "3676b5d2627798ab77fa5dfbf6600fe5", "type": "electric_scooter", "lat": 38.894741833333335, "is_reserved": 0, "lon": -77.001367, "fusion_lon": 0.0, "is_disabled": 0, "fusion_lat": 0.0, "bike_id": "3676b5d2627798ab77fa5dfbf6600fe5", "rental_uris": {"ios": "https://dc.lft.to/lastmile_qr_scan", "android": "https://dc.lft.to/lastmile_qr_scan"}}, {"name": "39294b800d4b72b4d22a3ab66299713b", "type": "electric_scooter", "lat": 38.92072783333333, "is_reserved": 0, "lon": -77.022112, "fusion_lon": 0.0, "is_disabled": 0, "fusion_lat": 0.0, "bike_id": "39294b800d4b72b4d22a3ab66299713b", "rental_uris": {"ios": "https://dc.lft.to/lastmile_qr_scan", "android": "https://dc.lft.to/lastmile_qr_scan"}}, {"name": "9030b50c5062fdeebec7a236e64e466e", "type": "electric_scooter", "lat": 38.89906233333333, "is_reserved": 0, "lon": -77.039058, "fusion_lon": 0.0, "is_disabled": 0, "fusion_lat": 0.0, "bike_id": "9030b50c5062fdeebec7a236e64e466e", "rental_uris": {"ios": "https://dc.lft.to/lastmile_qr_scan", "android": "https://dc.lft.to/lastmile_qr_scan"}}, {"name": "5f46d2a5ae98040519f9fd28b5b2f680", "type": "electric_scooter", "lat": 38.890378166666665, "is_reserved": 0, "lon": -77.02973716666666, "fusion_lon": 0.0, "is_disabled": 0, "fusion_lat": 0.0, "bike_id": "5f46d2a5ae98040519f9fd28b5b2f680", "rental_uris": {"ios": "https://dc.lft.to/lastmile_qr_scan", "android": "https://dc.lft.to/lastmile_qr_scan"}}, {"name": "547e149836df39724ad7a47ad5f38b4f", "type": "electric_scooter", "lat": 38.92092383333333, "is_reserved": 0, "lon": -77.024913, "fusion_lon": 0.0, "is_disabled": 0, "fusion_lat": 0.0, "bike_id": "547e149836df39724ad7a47ad5f38b4f", "rental_uris": {"ios": "https://dc.lft.to/lastmile_qr_scan", "android": "https://dc.lft.to/lastmile_qr_scan"}}, {"name": "adb1edef2cc49920e5f485ba3991110a", "type": "electric_scooter", "lat": 38.89535766666667, "is_reserved": 0, "lon": -77.0335175, "fusion_lon": 0.0, "is_disabled": 0, "fusion_lat": 0.0, "bike_id": "adb1edef2cc49920e5f485ba3991110a", "rental_uris": {"ios": "https://dc.lft.to/lastmile_qr_scan", "android": "https://dc.lft.to/lastmile_qr_scan"}}, {"name": "69ab82181b2e3a4407be249f4b3977c4", "type": "electric_bike", "lat": 38.96496883333333, "is_reserved": 0, "lon": -77.06489733333333, "fusion_lon": 0.0, "is_disabled": 0, "fusion_lat": 0.0, "bike_id": "69ab82181b2e3a4407be249f4b3977c4", "rental_uris": {"ios": "https://dc.lft.to/lastmile_qr_scan", "android": "https://dc.lft.to/lastmile_qr_scan"}}, {"name": "510ed4a40d627e765df5b08b4f1a1953", "type": "electric_scooter", "lat": 38.923418833333336, "is_reserved": 0, "lon": -77.05070983333333, "fusion_lon": 0.0, "is_disabled": 0, "fusion_lat": 0.0, "bike_id": "510ed4a40d627e765df5b08b4f1a1953", "rental_uris": {"ios": "https://dc.lft.to/lastmile_qr_scan", "android": "https://dc.lft.to/lastmile_qr_scan"}}, {"name": "5a2902ef9c4681650df38233a37cb7e2", "type": "electric_scooter", "lat": 38.9155525, "is_reserved": 0, "lon": -77.07274733333334, "fusion_lon": 0.0, "is_disabled": 0, "fusion_lat": 0.0, "bike_id": "5a2902ef9c4681650df38233a37cb7e2", "rental_uris": {"ios": "https://dc.lft.to/lastmile_qr_scan", "android": "https://dc.lft.to/lastmile_qr_scan"}}, {"name": "b88268e33260ed3b9f464cccf8fe3f84", "type": "electric_scooter", "lat": 38.8975265, "is_reserved": 0, "lon": -77.051528, "fusion_lon": 0.0, "is_disabled": 0, "fusion_lat": 0.0, "bike_id": "b88268e33260ed3b9f464cccf8fe3f84", "rental_uris": {"ios": "https://dc.lft.to/lastmile_qr_scan", "android": "https://dc.lft.to/lastmile_qr_scan"}}, {"name": "2d301ac55fd136b47130ef60b5fa9696", "type": "electric_scooter", "lat": 38.918215333333336, "is_reserved": 0, "lon": -77.0343835, "fusion_lon": 0.0, "is_disabled": 0, "fusion_lat": 0.0, "bike_id": "2d301ac55fd136b47130ef60b5fa9696", "rental_uris": {"ios": "https://dc.lft.to/lastmile_qr_scan", "android": "https://dc.lft.to/lastmile_qr_scan"}}, {"name": "99b382325bc5136b3cf8f4535909841c", "type": "electric_scooter", "lat": 38.92031883333333, "is_reserved": 0, "lon": -77.01118233333334, "fusion_lon": 0.0, "is_disabled": 0, "fusion_lat": 0.0, "bike_id": "99b382325bc5136b3cf8f4535909841c", "rental_uris": {"ios": "https://dc.lft.to/lastmile_qr_scan", "android": "https://dc.lft.to/lastmile_qr_scan"}}, {"name": "ff7a999113c608c47ae0d5093426e2bc", "type": "electric_scooter", "lat": 38.933033, "is_reserved": 0, "lon": -77.02802516666667, "fusion_lon": 0.0, "is_disabled": 0, "fusion_lat": 0.0, "bike_id": "ff7a999113c608c47ae0d5093426e2bc", "rental_uris": {"ios": "https://dc.lft.to/lastmile_qr_scan", "android": "https://dc.lft.to/lastmile_qr_scan"}}, {"name": "1666713b3ebf02ea3300bc6c605dfd4e", "type": "electric_scooter", "lat": 38.903723, "is_reserved": 0, "lon": -77.04019633333333, "fusion_lon": 0.0, "is_disabled": 0, "fusion_lat": 0.0, "bike_id": "1666713b3ebf02ea3300bc6c605dfd4e", "rental_uris": {"ios": "https://dc.lft.to/lastmile_qr_scan", "android": "https://dc.lft.to/lastmile_qr_scan"}}, {"name": "66db53294d59487c778d48d32ae060cb", "type": "electric_scooter", "lat": 38.84296766666667, "is_reserved": 0, "lon": -76.99947016666667, "fusion_lon": 0.0, "is_disabled": 0, "fusion_lat": 0.0, "bike_id": "66db53294d59487c778d48d32ae060cb", "rental_uris": {"ios": "https://dc.lft.to/lastmile_qr_scan", "android": "https://dc.lft.to/lastmile_qr_scan"}}, {"name": "b3f161d6684866cfd03d7291628393bc", "type": "electric_scooter", "lat": 38.974746333333336, "is_reserved": 0, "lon": -77.01894216666666, "fusion_lon": 0.0, "is_disabled": 0, "fusion_lat": 0.0, "bike_id": "b3f161d6684866cfd03d7291628393bc", "rental_uris": {"ios": "https://dc.lft.to/lastmile_qr_scan", "android": "https://dc.lft.to/lastmile_qr_scan"}}, {"name": "c3f8a237ed0733fb7050490d851d2c0c", "type": "electric_bike", "lat": 38.85802266666666, "is_reserved": 0, "lon": -76.9875685, "fusion_lon": 0.0, "is_disabled": 0, "fusion_lat": 0.0, "bike_id": "c3f8a237ed0733fb7050490d851d2c0c", "rental_uris": {"ios": "https://dc.lft.to/lastmile_qr_scan", "android": "https://dc.lft.to/lastmile_qr_scan"}}, {"name": "1e7bcb9bad1008f20ef2ff8005362a21", "type": "electric_scooter", "lat": 38.901414333333335, "is_reserved": 0, "lon": -77.044444, "fusion_lon": 0.0, "is_disabled": 0, "fusion_lat": 0.0, "bike_id": "1e7bcb9bad1008f20ef2ff8005362a21", "rental_uris": {"ios": "https://dc.lft.to/lastmile_qr_scan", "android": "https://dc.lft.to/lastmile_qr_scan"}}, {"name": "dc27fea815b6dd663442285c3a42db85", "type": "electric_scooter", "lat": 38.952707833333335, "is_reserved": 0, "lon": -77.068115, "fusion_lon": 0.0, "is_disabled": 0, "fusion_lat": 0.0, "bike_id": "dc27fea815b6dd663442285c3a42db85", "rental_uris": {"ios": "https://dc.lft.to/lastmile_qr_scan", "android": "https://dc.lft.to/lastmile_qr_scan"}}, {"name": "97b5107f67b69132edd13e0315e07183", "type": "electric_scooter", "lat": 38.959097666666665, "is_reserved": 0, "lon": -77.08071866666667, "fusion_lon": 0.0, "is_disabled": 0, "fusion_lat": 0.0, "bike_id": "97b5107f67b69132edd13e0315e07183", "rental_uris": {"ios": "https://dc.lft.to/lastmile_qr_scan", "android": "https://dc.lft.to/lastmile_qr_scan"}}, {"name": "470edf094bb5c46b32600a54321fab8c", "type": "electric_scooter", "lat": 38.9149365, "is_reserved": 0, "lon": -77.01850966666667, "fusion_lon": 0.0, "is_disabled": 0, "fusion_lat": 0.0, "bike_id": "470edf094bb5c46b32600a54321fab8c", "rental_uris": {"ios": "https://dc.lft.to/lastmile_qr_scan", "android": "https://dc.lft.to/lastmile_qr_scan"}}, {"name": "f373361bde50ebaacf8357f7db63f16f", "type": "electric_scooter", "lat": 38.89232483333333, "is_reserved": 0, "lon": -77.012706, "fusion_lon": 0.0, "is_disabled": 0, "fusion_lat": 0.0, "bike_id": "f373361bde50ebaacf8357f7db63f16f", "rental_uris": {"ios": "https://dc.lft.to/lastmile_qr_scan", "android": "https://dc.lft.to/lastmile_qr_scan"}}, {"name": "46244f325a628651f6a3d742d7fd0961", "type": "electric_scooter", "lat": 38.88027366666667, "is_reserved": 0, "lon": -76.98841533333334, "fusion_lon": 0.0, "is_disabled": 0, "fusion_lat": 0.0, "bike_id": "46244f325a628651f6a3d742d7fd0961", "rental_uris": {"ios": "https://dc.lft.to/lastmile_qr_scan", "android": "https://dc.lft.to/lastmile_qr_scan"}}, {"name": "e15e8338a10fa71cef16623de2580553", "type": "electric_scooter", "lat": 38.93397733333333, "is_reserved": 0, "lon": -77.03883883333333, "fusion_lon": 0.0, "is_disabled": 0, "fusion_lat": 0.0, "bike_id": "e15e8338a10fa71cef16623de2580553", "rental_uris": {"ios": "https://dc.lft.to/lastmile_qr_scan", "android": "https://dc.lft.to/lastmile_qr_scan"}}, {"name": "b22e1ba079610ead46d789ee3470df9f", "type": "electric_scooter", "lat": 38.877379166666664, "is_reserved": 0, "lon": -77.00589133333334, "fusion_lon": 0.0, "is_disabled": 0, "fusion_lat": 0.0, "bike_id": "b22e1ba079610ead46d789ee3470df9f", "rental_uris": {"ios": "https://dc.lft.to/lastmile_qr_scan", "android": "https://dc.lft.to/lastmile_qr_scan"}}, {"name": "d603769a81552ad7a77008b41d3532a7", "type": "electric_scooter", "lat": 38.908079666666666, "is_reserved": 0, "lon": -77.038682, "fusion_lon": 0.0, "is_disabled": 0, "fusion_lat": 0.0, "bike_id": "d603769a81552ad7a77008b41d3532a7", "rental_uris": {"ios": "https://dc.lft.to/lastmile_qr_scan", "android": "https://dc.lft.to/lastmile_qr_scan"}}, {"name": "e07c4d01310595b9aa81003e8b9a5542", "type": "electric_scooter", "lat": 38.90497466666667, "is_reserved": 0, "lon": -77.05323516666667, "fusion_lon": 0.0, "is_disabled": 0, "fusion_lat": 0.0, "bike_id": "e07c4d01310595b9aa81003e8b9a5542", "rental_uris": {"ios": "https://dc.lft.to/lastmile_qr_scan", "android": "https://dc.lft.to/lastmile_qr_scan"}}, {"name": "5b9c686ac0ca4e4a25712c27de71593a", "type": "electric_scooter", "lat": 38.8712885, "is_reserved": 0, "lon": -77.00599516666666, "fusion_lon": 0.0, "is_disabled": 0, "fusion_lat": 0.0, "bike_id": "5b9c686ac0ca4e4a25712c27de71593a", "rental_uris": {"ios": "https://dc.lft.to/lastmile_qr_scan", "android": "https://dc.lft.to/lastmile_qr_scan"}}, {"name": "9e724ecf85c5c19d60d754c5a7af079b", "type": "electric_bike", "lat": 38.956441833333336, "is_reserved": 0, "lon": -76.9974305, "fusion_lon": 0.0, "is_disabled": 0, "fusion_lat": 0.0, "bike_id": "9e724ecf85c5c19d60d754c5a7af079b", "rental_uris": {"ios": "https://dc.lft.to/lastmile_qr_scan", "android": "https://dc.lft.to/lastmile_qr_scan"}}, {"name": "2066105ad8e4d74000e09108922b2694", "type": "electric_scooter", "lat": 38.883247833333336, "is_reserved": 0, "lon": -77.01772366666667, "fusion_lon": 0.0, "is_disabled": 0, "fusion_lat": 0.0, "bike_id": "2066105ad8e4d74000e09108922b2694", "rental_uris": {"ios": "https://dc.lft.to/lastmile_qr_scan", "android": "https://dc.lft.to/lastmile_qr_scan"}}, {"name": "a7cb3d456a5c69c19aa4a063d26c9324", "type": "electric_scooter", "lat": 38.9139585, "is_reserved": 0, "lon": -77.03326783333333, "fusion_lon": 0.0, "is_disabled": 0, "fusion_lat": 0.0, "bike_id": "a7cb3d456a5c69c19aa4a063d26c9324", "rental_uris": {"ios": "https://dc.lft.to/lastmile_qr_scan", "android": "https://dc.lft.to/lastmile_qr_scan"}}, {"name": "2b63a78f90d5eb8ea8ea33a3e763e3ca", "type": "electric_bike", "lat": 38.9518465, "is_reserved": 0, "lon": -76.935445, "fusion_lon": 0.0, "is_disabled": 0, "fusion_lat": 0.0, "bike_id": "2b63a78f90d5eb8ea8ea33a3e763e3ca", "rental_uris": {"ios": "https://dc.lft.to/lastmile_qr_scan", "android": "https://dc.lft.to/lastmile_qr_scan"}}, {"name": "5b311b787c76f0df0bd44e4d9e09d21f", "type": "electric_scooter", "lat": 38.917045, "is_reserved": 0, "lon": -77.00114983333333, "fusion_lon": 0.0, "is_disabled": 0, "fusion_lat": 0.0, "bike_id": "5b311b787c76f0df0bd44e4d9e09d21f", "rental_uris": {"ios": "https://dc.lft.to/lastmile_qr_scan", "android": "https://dc.lft.to/lastmile_qr_scan"}}, {"name": "03acdd9902c60c3513d3b9c7e8e62d39", "type": "electric_scooter", "lat": 38.927187, "is_reserved": 0, "lon": -77.03852933333333, "fusion_lon": 0.0, "is_disabled": 0, "fusion_lat": 0.0, "bike_id": "03acdd9902c60c3513d3b9c7e8e62d39", "rental_uris": {"ios": "https://dc.lft.to/lastmile_qr_scan", "android": "https://dc.lft.to/lastmile_qr_scan"}}, {"name": "abc0c3951cf33420d09a5835b0376c9f", "type": "electric_scooter", "lat": 38.872647666666666, "is_reserved": 0, "lon": -77.015345, "fusion_lon": 0.0, "is_disabled": 0, "fusion_lat": 0.0, "bike_id": "abc0c3951cf33420d09a5835b0376c9f", "rental_uris": {"ios": "https://dc.lft.to/lastmile_qr_scan", "android": "https://dc.lft.to/lastmile_qr_scan"}}, {"name": "7f859f8cdefa6d43acabb2a9db336098", "type": "electric_scooter", "lat": 38.923310666666666, "is_reserved": 0, "lon": -77.03510383333334, "fusion_lon": 0.0, "is_disabled": 0, "fusion_lat": 0.0, "bike_id": "7f859f8cdefa6d43acabb2a9db336098", "rental_uris": {"ios": "https://dc.lft.to/lastmile_qr_scan", "android": "https://dc.lft.to/lastmile_qr_scan"}}, {"name": "0d8c072dcee3156bc5661cc13ea7d555", "type": "electric_scooter", "lat": 38.897275, "is_reserved": 0, "lon": -77.04334933333334, "fusion_lon": 0.0, "is_disabled": 0, "fusion_lat": 0.0, "bike_id": "0d8c072dcee3156bc5661cc13ea7d555", "rental_uris": {"ios": "https://dc.lft.to/lastmile_qr_scan", "android": "https://dc.lft.to/lastmile_qr_scan"}}, {"name": "2718d53dbe41850d1fecedd84035b8d2", "type": "electric_scooter", "lat": 38.91092416666667, "is_reserved": 0, "lon": -77.00498416666667, "fusion_lon": 0.0, "is_disabled": 0, "fusion_lat": 0.0, "bike_id": "2718d53dbe41850d1fecedd84035b8d2", "rental_uris": {"ios": "https://dc.lft.to/lastmile_qr_scan", "android": "https://dc.lft.to/lastmile_qr_scan"}}, {"name": "e0d6e1493f5d5e47d01ea37b31c98e52", "type": "electric_scooter", "lat": 38.9002475, "is_reserved": 0, "lon": -77.01188183333333, "fusion_lon": 0.0, "is_disabled": 0, "fusion_lat": 0.0, "bike_id": "e0d6e1493f5d5e47d01ea37b31c98e52", "rental_uris": {"ios": "https://dc.lft.to/lastmile_qr_scan", "android": "https://dc.lft.to/lastmile_qr_scan"}}, {"name": "abdc8eb16146ea8c60c0827308ad6def", "type": "electric_scooter", "lat": 38.90627, "is_reserved": 0, "lon": -77.05140833333333, "fusion_lon": 0.0, "is_disabled": 0, "fusion_lat": 0.0, "bike_id": "abdc8eb16146ea8c60c0827308ad6def", "rental_uris": {"ios": "https://dc.lft.to/lastmile_qr_scan", "android": "https://dc.lft.to/lastmile_qr_scan"}}, {"name": "d18cec92339f70832b7139f23c12d05a", "type": "electric_scooter", "lat": 38.905666333333336, "is_reserved": 0, "lon": -77.0344175, "fusion_lon": 0.0, "is_disabled": 0, "fusion_lat": 0.0, "bike_id": "d18cec92339f70832b7139f23c12d05a", "rental_uris": {"ios": "https://dc.lft.to/lastmile_qr_scan", "android": "https://dc.lft.to/lastmile_qr_scan"}}, {"name": "d87be4a5657fd9901b2bf918c823c099", "type": "electric_scooter", "lat": 38.90652166666667, "is_reserved": 0, "lon": -77.05143683333333, "fusion_lon": 0.0, "is_disabled": 0, "fusion_lat": 0.0, "bike_id": "d87be4a5657fd9901b2bf918c823c099", "rental_uris": {"ios": "https://dc.lft.to/lastmile_qr_scan", "android": "https://dc.lft.to/lastmile_qr_scan"}}, {"name": "781a0db8b602b2bb16e13071ecaaf370", "type": "electric_scooter", "lat": 38.93011716666667, "is_reserved": 0, "lon": -77.02330216666667, "fusion_lon": 0.0, "is_disabled": 0, "fusion_lat": 0.0, "bike_id": "781a0db8b602b2bb16e13071ecaaf370", "rental_uris": {"ios": "https://dc.lft.to/lastmile_qr_scan", "android": "https://dc.lft.to/lastmile_qr_scan"}}, {"name": "2507b7041a96180336063f7df7f34b80", "type": "electric_scooter", "lat": 38.900248833333336, "is_reserved": 0, "lon": -77.0404, "fusion_lon": 0.0, "is_disabled": 0, "fusion_lat": 0.0, "bike_id": "2507b7041a96180336063f7df7f34b80", "rental_uris": {"ios": "https://dc.lft.to/lastmile_qr_scan", "android": "https://dc.lft.to/lastmile_qr_scan"}}, {"name": "a1f8549309d8687bbf387501239a0a62", "type": "electric_scooter", "lat": 38.9024405, "is_reserved": 0, "lon": -77.03638466666666, "fusion_lon": 0.0, "is_disabled": 0, "fusion_lat": 0.0, "bike_id": "a1f8549309d8687bbf387501239a0a62", "rental_uris": {"ios": "https://dc.lft.to/lastmile_qr_scan", "android": "https://dc.lft.to/lastmile_qr_scan"}}, {"name": "ac52d5b43f98a9b465678e8e54ccce56", "type": "electric_scooter", "lat": 38.92750816666667, "is_reserved": 0, "lon": -77.02484783333334, "fusion_lon": 0.0, "is_disabled": 0, "fusion_lat": 0.0, "bike_id": "ac52d5b43f98a9b465678e8e54ccce56", "rental_uris": {"ios": "https://dc.lft.to/lastmile_qr_scan", "android": "https://dc.lft.to/lastmile_qr_scan"}}, {"name": "36520224eb36712071024c2c9ee0d711", "type": "electric_scooter", "lat": 38.9026995, "is_reserved": 0, "lon": -77.053196, "fusion_lon": 0.0, "is_disabled": 0, "fusion_lat": 0.0, "bike_id": "36520224eb36712071024c2c9ee0d711", "rental_uris": {"ios": "https://dc.lft.to/lastmile_qr_scan", "android": "https://dc.lft.to/lastmile_qr_scan"}}, {"name": "0f23bbe705a0517410db30a64bcfc701", "type": "electric_scooter", "lat": 38.89910166666667, "is_reserved": 0, "lon": -77.03930983333333, "fusion_lon": 0.0, "is_disabled": 0, "fusion_lat": 0.0, "bike_id": "0f23bbe705a0517410db30a64bcfc701", "rental_uris": {"ios": "https://dc.lft.to/lastmile_qr_scan", "android": "https://dc.lft.to/lastmile_qr_scan"}}, {"name": "02838ab132df9667d4ff0d3535250943", "type": "electric_bike", "lat": 38.895620666666666, "is_reserved": 0, "lon": -77.1273205, "fusion_lon": 0.0, "is_disabled": 0, "fusion_lat": 0.0, "bike_id": "02838ab132df9667d4ff0d3535250943", "rental_uris": {"ios": "https://dc.lft.to/lastmile_qr_scan", "android": "https://dc.lft.to/lastmile_qr_scan"}}, {"name": "9040cdd5a5f80728e179ac3e5e6cd6a7", "type": "electric_scooter", "lat": 38.899575666666664, "is_reserved": 0, "lon": -77.05096133333333, "fusion_lon": 0.0, "is_disabled": 0, "fusion_lat": 0.0, "bike_id": "9040cdd5a5f80728e179ac3e5e6cd6a7", "rental_uris": {"ios": "https://dc.lft.to/lastmile_qr_scan", "android": "https://dc.lft.to/lastmile_qr_scan"}}, {"name": "d5a6c352370538cb6b8fd3409acd2e4b", "type": "electric_scooter", "lat": 38.95089266666667, "is_reserved": 0, "lon": -77.0286765, "fusion_lon": 0.0, "is_disabled": 0, "fusion_lat": 0.0, "bike_id": "d5a6c352370538cb6b8fd3409acd2e4b", "rental_uris": {"ios": "https://dc.lft.to/lastmile_qr_scan", "android": "https://dc.lft.to/lastmile_qr_scan"}}, {"name": "11fc8d6a62aecbaef70ec1460b8bdc3d", "type": "electric_scooter", "lat": 38.907990833333336, "is_reserved": 0, "lon": -77.04820766666667, "fusion_lon": 0.0, "is_disabled": 0, "fusion_lat": 0.0, "bike_id": "11fc8d6a62aecbaef70ec1460b8bdc3d", "rental_uris": {"ios": "https://dc.lft.to/lastmile_qr_scan", "android": "https://dc.lft.to/lastmile_qr_scan"}}, {"name": "f28467ed85eb410fcc47c064a3503a3c", "type": "electric_scooter", "lat": 38.898592666666666, "is_reserved": 0, "lon": -77.0435065, "fusion_lon": 0.0, "is_disabled": 0, "fusion_lat": 0.0, "bike_id": "f28467ed85eb410fcc47c064a3503a3c", "rental_uris": {"ios": "https://dc.lft.to/lastmile_qr_scan", "android": "https://dc.lft.to/lastmile_qr_scan"}}, {"name": "831e9b9d5b0f45a6b18658528c0939df", "type": "electric_scooter", "lat": 38.909697333333334, "is_reserved": 0, "lon": -77.036735, "fusion_lon": 0.0, "is_disabled": 0, "fusion_lat": 0.0, "bike_id": "831e9b9d5b0f45a6b18658528c0939df", "rental_uris": {"ios": "https://dc.lft.to/lastmile_qr_scan", "android": "https://dc.lft.to/lastmile_qr_scan"}}, {"name": "8b59b180875bd25364a884d374d0f5a0", "type": "electric_scooter", "lat": 38.87550266666667, "is_reserved": 0, "lon": -76.964913, "fusion_lon": 0.0, "is_disabled": 0, "fusion_lat": 0.0, "bike_id": "8b59b180875bd25364a884d374d0f5a0", "rental_uris": {"ios": "https://dc.lft.to/lastmile_qr_scan", "android": "https://dc.lft.to/lastmile_qr_scan"}}, {"name": "dd22e0c2452713ee43675ed028dcb052", "type": "electric_scooter", "lat": 38.91496083333333, "is_reserved": 0, "lon": -77.0185055, "fusion_lon": 0.0, "is_disabled": 0, "fusion_lat": 0.0, "bike_id": "dd22e0c2452713ee43675ed028dcb052", "rental_uris": {"ios": "https://dc.lft.to/lastmile_qr_scan", "android": "https://dc.lft.to/lastmile_qr_scan"}}, {"name": "49c9c4d6c52131e48a5294b4077ec6fd", "type": "electric_scooter", "lat": 38.915324166666664, "is_reserved": 0, "lon": -77.0460865, "fusion_lon": 0.0, "is_disabled": 0, "fusion_lat": 0.0, "bike_id": "49c9c4d6c52131e48a5294b4077ec6fd", "rental_uris": {"ios": "https://dc.lft.to/lastmile_qr_scan", "android": "https://dc.lft.to/lastmile_qr_scan"}}, {"name": "37dc6c825060eac2c0f8b8c05abb2fa1", "type": "electric_scooter", "lat": 38.899865, "is_reserved": 0, "lon": -76.98551033333334, "fusion_lon": 0.0, "is_disabled": 0, "fusion_lat": 0.0, "bike_id": "37dc6c825060eac2c0f8b8c05abb2fa1", "rental_uris": {"ios": "https://dc.lft.to/lastmile_qr_scan", "android": "https://dc.lft.to/lastmile_qr_scan"}}, {"name": "eb16ba6cfb7f8f6f8b214af617b4b2ab", "type": "electric_scooter", "lat": 38.9126405, "is_reserved": 0, "lon": -77.00369083333334, "fusion_lon": 0.0, "is_disabled": 0, "fusion_lat": 0.0, "bike_id": "eb16ba6cfb7f8f6f8b214af617b4b2ab", "rental_uris": {"ios": "https://dc.lft.to/lastmile_qr_scan", "android": "https://dc.lft.to/lastmile_qr_scan"}}, {"name": "f1e08eb216a09b15d22231ced511e60c", "type": "electric_scooter", "lat": 38.89483033333333, "is_reserved": 0, "lon": -76.948713, "fusion_lon": 0.0, "is_disabled": 0, "fusion_lat": 0.0, "bike_id": "f1e08eb216a09b15d22231ced511e60c", "rental_uris": {"ios": "https://dc.lft.to/lastmile_qr_scan", "android": "https://dc.lft.to/lastmile_qr_scan"}}, {"name": "710192c8d1fcf817230c65dbf0a7d398", "type": "electric_scooter", "lat": 38.930685, "is_reserved": 0, "lon": -77.04130733333334, "fusion_lon": 0.0, "is_disabled": 0, "fusion_lat": 0.0, "bike_id": "710192c8d1fcf817230c65dbf0a7d398", "rental_uris": {"ios": "https://dc.lft.to/lastmile_qr_scan", "android": "https://dc.lft.to/lastmile_qr_scan"}}, {"name": "f742ba48afedd0c0a69cbf166fe28d7a", "type": "electric_bike", "lat": 38.92347916666667, "is_reserved": 0, "lon": -76.99249933333333, "fusion_lon": 0.0, "is_disabled": 0, "fusion_lat": 0.0, "bike_id": "f742ba48afedd0c0a69cbf166fe28d7a", "rental_uris": {"ios": "https://dc.lft.to/lastmile_qr_scan", "android": "https://dc.lft.to/lastmile_qr_scan"}}, {"name": "b3bf75919bd078fe384164648992eb0b", "type": "electric_bike", "lat": 38.904725666666664, "is_reserved": 0, "lon": -76.9294655, "fusion_lon": 0.0, "is_disabled": 0, "fusion_lat": 0.0, "bike_id": "b3bf75919bd078fe384164648992eb0b", "rental_uris": {"ios": "https://dc.lft.to/lastmile_qr_scan", "android": "https://dc.lft.to/lastmile_qr_scan"}}, {"name": "e0b50ee398d919dfeab40800fdf02209", "type": "electric_scooter", "lat": 38.91112233333333, "is_reserved": 0, "lon": -77.007559, "fusion_lon": 0.0, "is_disabled": 0, "fusion_lat": 0.0, "bike_id": "e0b50ee398d919dfeab40800fdf02209", "rental_uris": {"ios": "https://dc.lft.to/lastmile_qr_scan", "android": "https://dc.lft.to/lastmile_qr_scan"}}, {"name": "b74eba9fbfdf0315e455a2ea3a681337", "type": "electric_scooter", "lat": 38.89222933333333, "is_reserved": 0, "lon": -77.04369466666667, "fusion_lon": 0.0, "is_disabled": 0, "fusion_lat": 0.0, "bike_id": "b74eba9fbfdf0315e455a2ea3a681337", "rental_uris": {"ios": "https://dc.lft.to/lastmile_qr_scan", "android": "https://dc.lft.to/lastmile_qr_scan"}}, {"name": "055b668dadafec60141943fa9dfe9c39", "type": "electric_scooter", "lat": 38.89525183333333, "is_reserved": 0, "lon": -77.04852383333333, "fusion_lon": 0.0, "is_disabled": 0, "fusion_lat": 0.0, "bike_id": "055b668dadafec60141943fa9dfe9c39", "rental_uris": {"ios": "https://dc.lft.to/lastmile_qr_scan", "android": "https://dc.lft.to/lastmile_qr_scan"}}, {"name": "4400828e50609d2777baff46bf91b0a2", "type": "electric_scooter", "lat": 38.912601333333335, "is_reserved": 0, "lon": -77.03146483333333, "fusion_lon": 0.0, "is_disabled": 0, "fusion_lat": 0.0, "bike_id": "4400828e50609d2777baff46bf91b0a2", "rental_uris": {"ios": "https://dc.lft.to/lastmile_qr_scan", "android": "https://dc.lft.to/lastmile_qr_scan"}}, {"name": "0f92e586d435584401410de7df9ff4e0", "type": "electric_scooter", "lat": 38.914087333333335, "is_reserved": 0, "lon": -77.03906866666667, "fusion_lon": 0.0, "is_disabled": 0, "fusion_lat": 0.0, "bike_id": "0f92e586d435584401410de7df9ff4e0", "rental_uris": {"ios": "https://dc.lft.to/lastmile_qr_scan", "android": "https://dc.lft.to/lastmile_qr_scan"}}, {"name": "92f2fc81a8355f7c670fd81c905ca1de", "type": "electric_scooter", "lat": 38.89999783333333, "is_reserved": 0, "lon": -77.05252533333334, "fusion_lon": 0.0, "is_disabled": 0, "fusion_lat": 0.0, "bike_id": "92f2fc81a8355f7c670fd81c905ca1de", "rental_uris": {"ios": "https://dc.lft.to/lastmile_qr_scan", "android": "https://dc.lft.to/lastmile_qr_scan"}}, {"name": "65858ea75acae916201a5f1690a73e0b", "type": "electric_scooter", "lat": 38.903864166666665, "is_reserved": 0, "lon": -77.03394233333333, "fusion_lon": 0.0, "is_disabled": 0, "fusion_lat": 0.0, "bike_id": "65858ea75acae916201a5f1690a73e0b", "rental_uris": {"ios": "https://dc.lft.to/lastmile_qr_scan", "android": "https://dc.lft.to/lastmile_qr_scan"}}, {"name": "8a24efdd97a112708bb8897adae172d0", "type": "electric_scooter", "lat": 38.934536666666666, "is_reserved": 0, "lon": -77.03049983333334, "fusion_lon": 0.0, "is_disabled": 0, "fusion_lat": 0.0, "bike_id": "8a24efdd97a112708bb8897adae172d0", "rental_uris": {"ios": "https://dc.lft.to/lastmile_qr_scan", "android": "https://dc.lft.to/lastmile_qr_scan"}}, {"name": "c09a7d713c31f9c72c521d175a2913a5", "type": "electric_scooter", "lat": 38.890173833333336, "is_reserved": 0, "lon": -76.93731583333333, "fusion_lon": 0.0, "is_disabled": 0, "fusion_lat": 0.0, "bike_id": "c09a7d713c31f9c72c521d175a2913a5", "rental_uris": {"ios": "https://dc.lft.to/lastmile_qr_scan", "android": "https://dc.lft.to/lastmile_qr_scan"}}, {"name": "067a368abfa987b93ddf283ee0da8c1f", "type": "electric_bike", "lat": 38.84611116666667, "is_reserved": 0, "lon": -76.97833033333333, "fusion_lon": 0.0, "is_disabled": 0, "fusion_lat": 0.0, "bike_id": "067a368abfa987b93ddf283ee0da8c1f", "rental_uris": {"ios": "https://dc.lft.to/lastmile_qr_scan", "android": "https://dc.lft.to/lastmile_qr_scan"}}, {"name": "3b655951203e3cfe3e162b19093a63fc", "type": "electric_scooter", "lat": 38.9148175, "is_reserved": 0, "lon": -77.0083435, "fusion_lon": 0.0, "is_disabled": 0, "fusion_lat": 0.0, "bike_id": "3b655951203e3cfe3e162b19093a63fc", "rental_uris": {"ios": "https://dc.lft.to/lastmile_qr_scan", "android": "https://dc.lft.to/lastmile_qr_scan"}}, {"name": "b1c9472388c6b19724a93f4b8f0000d8", "type": "electric_scooter", "lat": 38.9233235, "is_reserved": 0, "lon": -77.04018066666667, "fusion_lon": 0.0, "is_disabled": 0, "fusion_lat": 0.0, "bike_id": "b1c9472388c6b19724a93f4b8f0000d8", "rental_uris": {"ios": "https://dc.lft.to/lastmile_qr_scan", "android": "https://dc.lft.to/lastmile_qr_scan"}}, {"name": "b8833b333244b76508cc1b2fe8fc21fd", "type": "electric_bike", "lat": 38.9529005, "is_reserved": 0, "lon": -76.97804766666667, "fusion_lon": 0.0, "is_disabled": 0, "fusion_lat": 0.0, "bike_id": "b8833b333244b76508cc1b2fe8fc21fd", "rental_uris": {"ios": "https://dc.lft.to/lastmile_qr_scan", "android": "https://dc.lft.to/lastmile_qr_scan"}}, {"name": "557fbf3fe0010e59e186c41d7e34a0e9", "type": "electric_bike", "lat": 38.84609116666667, "is_reserved": 0, "lon": -76.96885366666666, "fusion_lon": 0.0, "is_disabled": 0, "fusion_lat": 0.0, "bike_id": "557fbf3fe0010e59e186c41d7e34a0e9", "rental_uris": {"ios": "https://dc.lft.to/lastmile_qr_scan", "android": "https://dc.lft.to/lastmile_qr_scan"}}, {"name": "041a371a82f2fd0c252eaf88ebdf1dbd", "type": "electric_scooter", "lat": 38.885029333333335, "is_reserved": 0, "lon": -76.99843466666667, "fusion_lon": 0.0, "is_disabled": 0, "fusion_lat": 0.0, "bike_id": "041a371a82f2fd0c252eaf88ebdf1dbd", "rental_uris": {"ios": "https://dc.lft.to/lastmile_qr_scan", "android": "https://dc.lft.to/lastmile_qr_scan"}}, {"name": "6d5d064e2bf1d465cb1a831f4fcbc002", "type": "electric_scooter", "lat": 38.94183566666667, "is_reserved": 0, "lon": -77.03028783333333, "fusion_lon": 0.0, "is_disabled": 0, "fusion_lat": 0.0, "bike_id": "6d5d064e2bf1d465cb1a831f4fcbc002", "rental_uris": {"ios": "https://dc.lft.to/lastmile_qr_scan", "android": "https://dc.lft.to/lastmile_qr_scan"}}, {"name": "3becc20caea5a4b4d7da125a8098084f", "type": "electric_bike", "lat": 39.05813633333333, "is_reserved": 0, "lon": -77.12626833333333, "fusion_lon": 0.0, "is_disabled": 0, "fusion_lat": 0.0, "bike_id": "3becc20caea5a4b4d7da125a8098084f", "rental_uris": {"ios": "https://dc.lft.to/lastmile_qr_scan", "android": "https://dc.lft.to/lastmile_qr_scan"}}, {"name": "4bd376a966eab5738a24c0802c5988af", "type": "electric_scooter", "lat": 38.8992335, "is_reserved": 0, "lon": -77.0152935, "fusion_lon": 0.0, "is_disabled": 0, "fusion_lat": 0.0, "bike_id": "4bd376a966eab5738a24c0802c5988af", "rental_uris": {"ios": "https://dc.lft.to/lastmile_qr_scan", "android": "https://dc.lft.to/lastmile_qr_scan"}}, {"name": "0e79a0a549eb299243fc750fa790fed7", "type": "electric_scooter", "lat": 38.902609166666664, "is_reserved": 0, "lon": -77.031823, "fusion_lon": 0.0, "is_disabled": 0, "fusion_lat": 0.0, "bike_id": "0e79a0a549eb299243fc750fa790fed7", "rental_uris": {"ios": "https://dc.lft.to/lastmile_qr_scan", "android": "https://dc.lft.to/lastmile_qr_scan"}}, {"name": "39e3930616df62a00a951cdaa1701d51", "type": "electric_scooter", "lat": 38.915982166666666, "is_reserved": 0, "lon": -76.9838055, "fusion_lon": 0.0, "is_disabled": 0, "fusion_lat": 0.0, "bike_id": "39e3930616df62a00a951cdaa1701d51", "rental_uris": {"ios": "https://dc.lft.to/lastmile_qr_scan", "android": "https://dc.lft.to/lastmile_qr_scan"}}, {"name": "9a4fb58666aa58e3ee5f3ae74ed7f9c0", "type": "electric_scooter", "lat": 38.8991915, "is_reserved": 0, "lon": -77.03299416666667, "fusion_lon": 0.0, "is_disabled": 0, "fusion_lat": 0.0, "bike_id": "9a4fb58666aa58e3ee5f3ae74ed7f9c0", "rental_uris": {"ios": "https://dc.lft.to/lastmile_qr_scan", "android": "https://dc.lft.to/lastmile_qr_scan"}}, {"name": "12c0b9d342caa474f23e56f8cfed18f7", "type": "electric_scooter", "lat": 38.908578, "is_reserved": 0, "lon": -77.04425866666666, "fusion_lon": 0.0, "is_disabled": 0, "fusion_lat": 0.0, "bike_id": "12c0b9d342caa474f23e56f8cfed18f7", "rental_uris": {"ios": "https://dc.lft.to/lastmile_qr_scan", "android": "https://dc.lft.to/lastmile_qr_scan"}}, {"name": "7b02a8a3bcaad87b36dec550a2a2e67d", "type": "electric_scooter", "lat": 38.9071675, "is_reserved": 0, "lon": -77.04353316666666, "fusion_lon": 0.0, "is_disabled": 0, "fusion_lat": 0.0, "bike_id": "7b02a8a3bcaad87b36dec550a2a2e67d", "rental_uris": {"ios": "https://dc.lft.to/lastmile_qr_scan", "android": "https://dc.lft.to/lastmile_qr_scan"}}, {"name": "e7b114b425600cf66bea19b283853173", "type": "electric_scooter", "lat": 38.90683833333333, "is_reserved": 0, "lon": -77.0134265, "fusion_lon": 0.0, "is_disabled": 0, "fusion_lat": 0.0, "bike_id": "e7b114b425600cf66bea19b283853173", "rental_uris": {"ios": "https://dc.lft.to/lastmile_qr_scan", "android": "https://dc.lft.to/lastmile_qr_scan"}}, {"name": "f4a5d167db6bf4342cdeca16e5e842e3", "type": "electric_bike", "lat": 38.869086833333334, "is_reserved": 0, "lon": -77.13180166666666, "fusion_lon": 0.0, "is_disabled": 0, "fusion_lat": 0.0, "bike_id": "f4a5d167db6bf4342cdeca16e5e842e3", "rental_uris": {"ios": "https://dc.lft.to/lastmile_qr_scan", "android": "https://dc.lft.to/lastmile_qr_scan"}}, {"name": "f9f009a705e74d663c49228fe28673cc", "type": "electric_scooter", "lat": 38.932520333333336, "is_reserved": 0, "lon": -77.032869, "fusion_lon": 0.0, "is_disabled": 0, "fusion_lat": 0.0, "bike_id": "f9f009a705e74d663c49228fe28673cc", "rental_uris": {"ios": "https://dc.lft.to/lastmile_qr_scan", "android": "https://dc.lft.to/lastmile_qr_scan"}}, {"name": "fed6ec1dd51d1bab0bf9a1b58a9bd855", "type": "electric_scooter", "lat": 38.906412833333334, "is_reserved": 0, "lon": -76.98573766666667, "fusion_lon": 0.0, "is_disabled": 0, "fusion_lat": 0.0, "bike_id": "fed6ec1dd51d1bab0bf9a1b58a9bd855", "rental_uris": {"ios": "https://dc.lft.to/lastmile_qr_scan", "android": "https://dc.lft.to/lastmile_qr_scan"}}, {"name": "3e723905fd4ab02dadaa24c9a0abac4a", "type": "electric_scooter", "lat": 38.92726666666667, "is_reserved": 0, "lon": -77.03080283333334, "fusion_lon": 0.0, "is_disabled": 0, "fusion_lat": 0.0, "bike_id": "3e723905fd4ab02dadaa24c9a0abac4a", "rental_uris": {"ios": "https://dc.lft.to/lastmile_qr_scan", "android": "https://dc.lft.to/lastmile_qr_scan"}}, {"name": "f5b01b9a0b9e625fc242f0c932fc9c3e", "type": "electric_scooter", "lat": 38.921764333333336, "is_reserved": 0, "lon": -77.04015, "fusion_lon": 0.0, "is_disabled": 0, "fusion_lat": 0.0, "bike_id": "f5b01b9a0b9e625fc242f0c932fc9c3e", "rental_uris": {"ios": "https://dc.lft.to/lastmile_qr_scan", "android": "https://dc.lft.to/lastmile_qr_scan"}}, {"name": "139a7f3515a88edbb17687a152fbbe83", "type": "electric_scooter", "lat": 38.918183666666664, "is_reserved": 0, "lon": -77.03451066666666, "fusion_lon": 0.0, "is_disabled": 0, "fusion_lat": 0.0, "bike_id": "139a7f3515a88edbb17687a152fbbe83", "rental_uris": {"ios": "https://dc.lft.to/lastmile_qr_scan", "android": "https://dc.lft.to/lastmile_qr_scan"}}, {"name": "f1831ca9d0162762bb350523e1f9dd40", "type": "electric_scooter", "lat": 38.932488166666666, "is_reserved": 0, "lon": -77.03284333333333, "fusion_lon": 0.0, "is_disabled": 0, "fusion_lat": 0.0, "bike_id": "f1831ca9d0162762bb350523e1f9dd40", "rental_uris": {"ios": "https://dc.lft.to/lastmile_qr_scan", "android": "https://dc.lft.to/lastmile_qr_scan"}}, {"name": "8fc487adf53de3270fb1f788aed063a0", "type": "electric_scooter", "lat": 38.9110965, "is_reserved": 0, "lon": -77.03627283333333, "fusion_lon": 0.0, "is_disabled": 0, "fusion_lat": 0.0, "bike_id": "8fc487adf53de3270fb1f788aed063a0", "rental_uris": {"ios": "https://dc.lft.to/lastmile_qr_scan", "android": "https://dc.lft.to/lastmile_qr_scan"}}, {"name": "569886d0ebb7180dad7ca09a913b472a", "type": "electric_scooter", "lat": 38.92246466666667, "is_reserved": 0, "lon": -77.01009333333333, "fusion_lon": 0.0, "is_disabled": 0, "fusion_lat": 0.0, "bike_id": "569886d0ebb7180dad7ca09a913b472a", "rental_uris": {"ios": "https://dc.lft.to/lastmile_qr_scan", "android": "https://dc.lft.to/lastmile_qr_scan"}}, {"name": "b202001ede58b012f407fc676230f5fb", "type": "electric_scooter", "lat": 38.91549883333333, "is_reserved": 0, "lon": -77.03851366666666, "fusion_lon": 0.0, "is_disabled": 0, "fusion_lat": 0.0, "bike_id": "b202001ede58b012f407fc676230f5fb", "rental_uris": {"ios": "https://dc.lft.to/lastmile_qr_scan", "android": "https://dc.lft.to/lastmile_qr_scan"}}, {"name": "c3b242d3ab10f19e096301b76fccdc82", "type": "electric_scooter", "lat": 38.896719166666664, "is_reserved": 0, "lon": -77.02842783333334, "fusion_lon": 0.0, "is_disabled": 0, "fusion_lat": 0.0, "bike_id": "c3b242d3ab10f19e096301b76fccdc82", "rental_uris": {"ios": "https://dc.lft.to/lastmile_qr_scan", "android": "https://dc.lft.to/lastmile_qr_scan"}}, {"name": "9bdcc5464ceb383b02cc3a4af992ba3c", "type": "electric_scooter", "lat": 38.9027395, "is_reserved": 0, "lon": -77.05922433333333, "fusion_lon": 0.0, "is_disabled": 0, "fusion_lat": 0.0, "bike_id": "9bdcc5464ceb383b02cc3a4af992ba3c", "rental_uris": {"ios": "https://dc.lft.to/lastmile_qr_scan", "android": "https://dc.lft.to/lastmile_qr_scan"}}, {"name": "05c1f16cb6ccc8c9caf683ddd0ef4bee", "type": "electric_bike", "lat": 38.863702333333336, "is_reserved": 0, "lon": -76.97004116666666, "fusion_lon": 0.0, "is_disabled": 0, "fusion_lat": 0.0, "bike_id": "05c1f16cb6ccc8c9caf683ddd0ef4bee", "rental_uris": {"ios": "https://dc.lft.to/lastmile_qr_scan", "android": "https://dc.lft.to/lastmile_qr_scan"}}, {"name": "a37a1c36c79a3d73d24c57a184975a02", "type": "electric_scooter", "lat": 38.91237733333333, "is_reserved": 0, "lon": -77.00106016666666, "fusion_lon": 0.0, "is_disabled": 0, "fusion_lat": 0.0, "bike_id": "a37a1c36c79a3d73d24c57a184975a02", "rental_uris": {"ios": "https://dc.lft.to/lastmile_qr_scan", "android": "https://dc.lft.to/lastmile_qr_scan"}}, {"name": "c33edbbc2586626b37f6dc1063f281ae", "type": "electric_scooter", "lat": 38.90262766666667, "is_reserved": 0, "lon": -77.03169366666667, "fusion_lon": 0.0, "is_disabled": 0, "fusion_lat": 0.0, "bike_id": "c33edbbc2586626b37f6dc1063f281ae", "rental_uris": {"ios": "https://dc.lft.to/lastmile_qr_scan", "android": "https://dc.lft.to/lastmile_qr_scan"}}, {"name": "bdd2b6d3343be3e6b9e28919faadabb4", "type": "electric_scooter", "lat": 38.906588, "is_reserved": 0, "lon": -77.038591, "fusion_lon": 0.0, "is_disabled": 0, "fusion_lat": 0.0, "bike_id": "bdd2b6d3343be3e6b9e28919faadabb4", "rental_uris": {"ios": "https://dc.lft.to/lastmile_qr_scan", "android": "https://dc.lft.to/lastmile_qr_scan"}}, {"name": "cf537226a86b8491a472f82504e52a22", "type": "electric_scooter", "lat": 38.906448166666664, "is_reserved": 0, "lon": -77.01138166666667, "fusion_lon": 0.0, "is_disabled": 0, "fusion_lat": 0.0, "bike_id": "cf537226a86b8491a472f82504e52a22", "rental_uris": {"ios": "https://dc.lft.to/lastmile_qr_scan", "android": "https://dc.lft.to/lastmile_qr_scan"}}, {"name": "c5976d2f523464370fd41adad7f874b2", "type": "electric_scooter", "lat": 38.892220333333334, "is_reserved": 0, "lon": -77.04264583333334, "fusion_lon": 0.0, "is_disabled": 0, "fusion_lat": 0.0, "bike_id": "c5976d2f523464370fd41adad7f874b2", "rental_uris": {"ios": "https://dc.lft.to/lastmile_qr_scan", "android": "https://dc.lft.to/lastmile_qr_scan"}}, {"name": "c32798e1a518834e8a1a10499995de48", "type": "electric_scooter", "lat": 38.90612616666667, "is_reserved": 0, "lon": -77.07489883333334, "fusion_lon": 0.0, "is_disabled": 0, "fusion_lat": 0.0, "bike_id": "c32798e1a518834e8a1a10499995de48", "rental_uris": {"ios": "https://dc.lft.to/lastmile_qr_scan", "android": "https://dc.lft.to/lastmile_qr_scan"}}, {"name": "e02ad943cc93eb438fba203dea41ae55", "type": "electric_bike", "lat": 39.038811, "is_reserved": 0, "lon": -76.99042216666666, "fusion_lon": 0.0, "is_disabled": 0, "fusion_lat": 0.0, "bike_id": "e02ad943cc93eb438fba203dea41ae55", "rental_uris": {"ios": "https://dc.lft.to/lastmile_qr_scan", "android": "https://dc.lft.to/lastmile_qr_scan"}}, {"name": "658c077666b1fde493187e4f1d70d569", "type": "electric_scooter", "lat": 38.900091, "is_reserved": 0, "lon": -76.991207, "fusion_lon": 0.0, "is_disabled": 0, "fusion_lat": 0.0, "bike_id": "658c077666b1fde493187e4f1d70d569", "rental_uris": {"ios": "https://dc.lft.to/lastmile_qr_scan", "android": "https://dc.lft.to/lastmile_qr_scan"}}, {"name": "ee47cad8216bb28b4973592d400b2b6c", "type": "electric_scooter", "lat": 38.90536766666666, "is_reserved": 0, "lon": -77.04348683333333, "fusion_lon": 0.0, "is_disabled": 0, "fusion_lat": 0.0, "bike_id": "ee47cad8216bb28b4973592d400b2b6c", "rental_uris": {"ios": "https://dc.lft.to/lastmile_qr_scan", "android": "https://dc.lft.to/lastmile_qr_scan"}}, {"name": "bfb091da71169fb58ebc18e6162e76f5", "type": "electric_scooter", "lat": 38.900845833333335, "is_reserved": 0, "lon": -77.0503595, "fusion_lon": 0.0, "is_disabled": 0, "fusion_lat": 0.0, "bike_id": "bfb091da71169fb58ebc18e6162e76f5", "rental_uris": {"ios": "https://dc.lft.to/lastmile_qr_scan", "android": "https://dc.lft.to/lastmile_qr_scan"}}, {"name": "03f1adac13bc3c143378ed896373fd11", "type": "electric_scooter", "lat": 38.92168266666667, "is_reserved": 0, "lon": -77.0326695, "fusion_lon": 0.0, "is_disabled": 0, "fusion_lat": 0.0, "bike_id": "03f1adac13bc3c143378ed896373fd11", "rental_uris": {"ios": "https://dc.lft.to/lastmile_qr_scan", "android": "https://dc.lft.to/lastmile_qr_scan"}}, {"name": "d443ef205803ae7587b6c26915d815aa", "type": "electric_scooter", "lat": 38.88314666666667, "is_reserved": 0, "lon": -77.017415, "fusion_lon": 0.0, "is_disabled": 0, "fusion_lat": 0.0, "bike_id": "d443ef205803ae7587b6c26915d815aa", "rental_uris": {"ios": "https://dc.lft.to/lastmile_qr_scan", "android": "https://dc.lft.to/lastmile_qr_scan"}}, {"name": "afc25e633f4af6a2e5b7508aaa49506b", "type": "electric_scooter", "lat": 38.9430855, "is_reserved": 0, "lon": -77.059332, "fusion_lon": 0.0, "is_disabled": 0, "fusion_lat": 0.0, "bike_id": "afc25e633f4af6a2e5b7508aaa49506b", "rental_uris": {"ios": "https://dc.lft.to/lastmile_qr_scan", "android": "https://dc.lft.to/lastmile_qr_scan"}}, {"name": "0626327c456d141771f2967f37752d0c", "type": "electric_scooter", "lat": 38.918223833333336, "is_reserved": 0, "lon": -77.03444466666667, "fusion_lon": 0.0, "is_disabled": 0, "fusion_lat": 0.0, "bike_id": "0626327c456d141771f2967f37752d0c", "rental_uris": {"ios": "https://dc.lft.to/lastmile_qr_scan", "android": "https://dc.lft.to/lastmile_qr_scan"}}, {"name": "afe1c0b62821b55e5ee7f80b2066cc11", "type": "electric_scooter", "lat": 38.90131266666667, "is_reserved": 0, "lon": -77.041621, "fusion_lon": 0.0, "is_disabled": 0, "fusion_lat": 0.0, "bike_id": "afe1c0b62821b55e5ee7f80b2066cc11", "rental_uris": {"ios": "https://dc.lft.to/lastmile_qr_scan", "android": "https://dc.lft.to/lastmile_qr_scan"}}, {"name": "92a05197c127e0ff72675e196d714db2", "type": "electric_scooter", "lat": 38.91625583333333, "is_reserved": 0, "lon": -77.0133055, "fusion_lon": 0.0, "is_disabled": 0, "fusion_lat": 0.0, "bike_id": "92a05197c127e0ff72675e196d714db2", "rental_uris": {"ios": "https://dc.lft.to/lastmile_qr_scan", "android": "https://dc.lft.to/lastmile_qr_scan"}}, {"name": "1039f03ea0efe6d94d9eac3d2e77e583", "type": "electric_scooter", "lat": 38.915896000000004, "is_reserved": 0, "lon": -77.04489333333333, "fusion_lon": 0.0, "is_disabled": 0, "fusion_lat": 0.0, "bike_id": "1039f03ea0efe6d94d9eac3d2e77e583", "rental_uris": {"ios": "https://dc.lft.to/lastmile_qr_scan", "android": "https://dc.lft.to/lastmile_qr_scan"}}, {"name": "00a9d67d3f86b6bba87c876d5c95836f", "type": "electric_bike", "lat": 38.913575, "is_reserved": 0, "lon": -77.02876066666667, "fusion_lon": 0.0, "is_disabled": 0, "fusion_lat": 0.0, "bike_id": "00a9d67d3f86b6bba87c876d5c95836f", "rental_uris": {"ios": "https://dc.lft.to/lastmile_qr_scan", "android": "https://dc.lft.to/lastmile_qr_scan"}}, {"name": "b50d34a6431f85de4fdf69c7bcafa27e", "type": "electric_bike", "lat": 39.030466833333335, "is_reserved": 0, "lon": -77.09482933333334, "fusion_lon": 0.0, "is_disabled": 0, "fusion_lat": 0.0, "bike_id": "b50d34a6431f85de4fdf69c7bcafa27e", "rental_uris": {"ios": "https://dc.lft.to/lastmile_qr_scan", "android": "https://dc.lft.to/lastmile_qr_scan"}}, {"name": "fe0790a4ad5aac23750c314da8eca838", "type": "electric_scooter", "lat": 38.90547866666667, "is_reserved": 0, "lon": -77.051866, "fusion_lon": 0.0, "is_disabled": 0, "fusion_lat": 0.0, "bike_id": "fe0790a4ad5aac23750c314da8eca838", "rental_uris": {"ios": "https://dc.lft.to/lastmile_qr_scan", "android": "https://dc.lft.to/lastmile_qr_scan"}}, {"name": "467be0cb167694bb22952c7becbdb4f0", "type": "electric_bike", "lat": 38.97057266666667, "is_reserved": 0, "lon": -76.936151, "fusion_lon": 0.0, "is_disabled": 0, "fusion_lat": 0.0, "bike_id": "467be0cb167694bb22952c7becbdb4f0", "rental_uris": {"ios": "https://dc.lft.to/lastmile_qr_scan", "android": "https://dc.lft.to/lastmile_qr_scan"}}, {"name": "999fe2ece32c923dff9b9831a4084a73", "type": "electric_bike", "lat": 38.908907, "is_reserved": 0, "lon": -77.03209733333334, "fusion_lon": 0.0, "is_disabled": 0, "fusion_lat": 0.0, "bike_id": "999fe2ece32c923dff9b9831a4084a73", "rental_uris": {"ios": "https://dc.lft.to/lastmile_qr_scan", "android": "https://dc.lft.to/lastmile_qr_scan"}}, {"name": "bc2d101dbeb211ebb5a4c1862efc30b0", "type": "electric_scooter", "lat": 38.915472, "is_reserved": 0, "lon": -77.03854933333334, "fusion_lon": 0.0, "is_disabled": 0, "fusion_lat": 0.0, "bike_id": "bc2d101dbeb211ebb5a4c1862efc30b0", "rental_uris": {"ios": "https://dc.lft.to/lastmile_qr_scan", "android": "https://dc.lft.to/lastmile_qr_scan"}}, {"name": "c9803ddce20256d869e06eb0409f7611", "type": "electric_scooter", "lat": 38.90435216666667, "is_reserved": 0, "lon": -77.028399, "fusion_lon": 0.0, "is_disabled": 0, "fusion_lat": 0.0, "bike_id": "c9803ddce20256d869e06eb0409f7611", "rental_uris": {"ios": "https://dc.lft.to/lastmile_qr_scan", "android": "https://dc.lft.to/lastmile_qr_scan"}}, {"name": "cdfcfcfee105040fb72475246ca34115", "type": "electric_scooter", "lat": 38.931104, "is_reserved": 0, "lon": -77.0384315, "fusion_lon": 0.0, "is_disabled": 0, "fusion_lat": 0.0, "bike_id": "cdfcfcfee105040fb72475246ca34115", "rental_uris": {"ios": "https://dc.lft.to/lastmile_qr_scan", "android": "https://dc.lft.to/lastmile_qr_scan"}}, {"name": "2da6039888534d7a6c4e459e46f08f55", "type": "electric_scooter", "lat": 38.9236655, "is_reserved": 0, "lon": -77.05041366666667, "fusion_lon": 0.0, "is_disabled": 0, "fusion_lat": 0.0, "bike_id": "2da6039888534d7a6c4e459e46f08f55", "rental_uris": {"ios": "https://dc.lft.to/lastmile_qr_scan", "android": "https://dc.lft.to/lastmile_qr_scan"}}, {"name": "95d7e70b618debdb4f30f8638dc6aea6", "type": "electric_scooter", "lat": 38.905736833333336, "is_reserved": 0, "lon": -77.00574333333333, "fusion_lon": 0.0, "is_disabled": 0, "fusion_lat": 0.0, "bike_id": "95d7e70b618debdb4f30f8638dc6aea6", "rental_uris": {"ios": "https://dc.lft.to/lastmile_qr_scan", "android": "https://dc.lft.to/lastmile_qr_scan"}}, {"name": "39d15aba4af23e117bb0105c09f0f851", "type": "electric_bike", "lat": 38.96185216666667, "is_reserved": 0, "lon": -77.07375833333333, "fusion_lon": 0.0, "is_disabled": 0, "fusion_lat": 0.0, "bike_id": "39d15aba4af23e117bb0105c09f0f851", "rental_uris": {"ios": "https://dc.lft.to/lastmile_qr_scan", "android": "https://dc.lft.to/lastmile_qr_scan"}}, {"name": "3623359605b47cb78f771663d7ed9921", "type": "electric_scooter", "lat": 38.898845666666666, "is_reserved": 0, "lon": -76.93175783333334, "fusion_lon": 0.0, "is_disabled": 0, "fusion_lat": 0.0, "bike_id": "3623359605b47cb78f771663d7ed9921", "rental_uris": {"ios": "https://dc.lft.to/lastmile_qr_scan", "android": "https://dc.lft.to/lastmile_qr_scan"}}, {"name": "ed0ede0d38e340b9d74d21212188c09e", "type": "electric_bike", "lat": 38.855206, "is_reserved": 0, "lon": -77.11170716666666, "fusion_lon": 0.0, "is_disabled": 0, "fusion_lat": 0.0, "bike_id": "ed0ede0d38e340b9d74d21212188c09e", "rental_uris": {"ios": "https://dc.lft.to/lastmile_qr_scan", "android": "https://dc.lft.to/lastmile_qr_scan"}}, {"name": "9eef99601d415099942b95985e0ba26d", "type": "electric_scooter", "lat": 38.91571366666667, "is_reserved": 0, "lon": -77.0217995, "fusion_lon": 0.0, "is_disabled": 0, "fusion_lat": 0.0, "bike_id": "9eef99601d415099942b95985e0ba26d", "rental_uris": {"ios": "https://dc.lft.to/lastmile_qr_scan", "android": "https://dc.lft.to/lastmile_qr_scan"}}, {"name": "5a7d36df3d406f49eeceeb381a7826b7", "type": "electric_scooter", "lat": 38.90037483333333, "is_reserved": 0, "lon": -76.98835283333334, "fusion_lon": 0.0, "is_disabled": 0, "fusion_lat": 0.0, "bike_id": "5a7d36df3d406f49eeceeb381a7826b7", "rental_uris": {"ios": "https://dc.lft.to/lastmile_qr_scan", "android": "https://dc.lft.to/lastmile_qr_scan"}}, {"name": "264302f5cc0afbbba8229307aa448ceb", "type": "electric_scooter", "lat": 38.862452833333336, "is_reserved": 0, "lon": -76.99497316666667, "fusion_lon": 0.0, "is_disabled": 0, "fusion_lat": 0.0, "bike_id": "264302f5cc0afbbba8229307aa448ceb", "rental_uris": {"ios": "https://dc.lft.to/lastmile_qr_scan", "android": "https://dc.lft.to/lastmile_qr_scan"}}, {"name": "4d9760fa44dc2c4a0fb1b6f46e6308ad", "type": "electric_scooter", "lat": 38.844239333333334, "is_reserved": 0, "lon": -76.997765, "fusion_lon": 0.0, "is_disabled": 0, "fusion_lat": 0.0, "bike_id": "4d9760fa44dc2c4a0fb1b6f46e6308ad", "rental_uris": {"ios": "https://dc.lft.to/lastmile_qr_scan", "android": "https://dc.lft.to/lastmile_qr_scan"}}, {"name": "2ffa8be069148d4e676a1bc18bfebce9", "type": "electric_scooter", "lat": 38.914041166666664, "is_reserved": 0, "lon": -77.0390735, "fusion_lon": 0.0, "is_disabled": 0, "fusion_lat": 0.0, "bike_id": "2ffa8be069148d4e676a1bc18bfebce9", "rental_uris": {"ios": "https://dc.lft.to/lastmile_qr_scan", "android": "https://dc.lft.to/lastmile_qr_scan"}}, {"name": "ceac455e69ea96907af44629317e4b87", "type": "electric_scooter", "lat": 38.915882833333335, "is_reserved": 0, "lon": -76.98374483333333, "fusion_lon": 0.0, "is_disabled": 0, "fusion_lat": 0.0, "bike_id": "ceac455e69ea96907af44629317e4b87", "rental_uris": {"ios": "https://dc.lft.to/lastmile_qr_scan", "android": "https://dc.lft.to/lastmile_qr_scan"}}, {"name": "df3fa25b872c83b6f9cc8428bb29b800", "type": "electric_scooter", "lat": 38.895078833333336, "is_reserved": 0, "lon": -77.00338333333333, "fusion_lon": 0.0, "is_disabled": 0, "fusion_lat": 0.0, "bike_id": "df3fa25b872c83b6f9cc8428bb29b800", "rental_uris": {"ios": "https://dc.lft.to/lastmile_qr_scan", "android": "https://dc.lft.to/lastmile_qr_scan"}}, {"name": "76418c1015711ada98684292498fcf0d", "type": "electric_scooter", "lat": 38.93527483333333, "is_reserved": 0, "lon": -77.058154, "fusion_lon": 0.0, "is_disabled": 0, "fusion_lat": 0.0, "bike_id": "76418c1015711ada98684292498fcf0d", "rental_uris": {"ios": "https://dc.lft.to/lastmile_qr_scan", "android": "https://dc.lft.to/lastmile_qr_scan"}}, {"name": "3d4fd24bb54bcd078737d0eb7a3a1234", "type": "electric_scooter", "lat": 38.923838333333336, "is_reserved": 0, "lon": -77.031896, "fusion_lon": 0.0, "is_disabled": 0, "fusion_lat": 0.0, "bike_id": "3d4fd24bb54bcd078737d0eb7a3a1234", "rental_uris": {"ios": "https://dc.lft.to/lastmile_qr_scan", "android": "https://dc.lft.to/lastmile_qr_scan"}}, {"name": "58ddb1dfd057b389aa76189cd2b56b13", "type": "electric_scooter", "lat": 38.871965333333335, "is_reserved": 0, "lon": -77.00576933333333, "fusion_lon": 0.0, "is_disabled": 0, "fusion_lat": 0.0, "bike_id": "58ddb1dfd057b389aa76189cd2b56b13", "rental_uris": {"ios": "https://dc.lft.to/lastmile_qr_scan", "android": "https://dc.lft.to/lastmile_qr_scan"}}, {"name": "67109f4126e296bf4617ce60d05f0350", "type": "electric_scooter", "lat": 38.89918, "is_reserved": 0, "lon": -77.03284, "fusion_lon": 0.0, "is_disabled": 0, "fusion_lat": 0.0, "bike_id": "67109f4126e296bf4617ce60d05f0350", "rental_uris": {"ios": "https://dc.lft.to/lastmile_qr_scan", "android": "https://dc.lft.to/lastmile_qr_scan"}}, {"name": "f8a8229d01ea8c96f40c570f5a1766ac", "type": "electric_scooter", "lat": 38.8876635, "is_reserved": 0, "lon": -76.92713683333334, "fusion_lon": 0.0, "is_disabled": 0, "fusion_lat": 0.0, "bike_id": "f8a8229d01ea8c96f40c570f5a1766ac", "rental_uris": {"ios": "https://dc.lft.to/lastmile_qr_scan", "android": "https://dc.lft.to/lastmile_qr_scan"}}, {"name": "4e414eadf74673ca85bfc742593bd041", "type": "electric_bike", "lat": 38.9708835, "is_reserved": 0, "lon": -77.06963233333333, "fusion_lon": 0.0, "is_disabled": 0, "fusion_lat": 0.0, "bike_id": "4e414eadf74673ca85bfc742593bd041", "rental_uris": {"ios": "https://dc.lft.to/lastmile_qr_scan", "android": "https://dc.lft.to/lastmile_qr_scan"}}, {"name": "5a67192acabbbad540a6f58cb775d7cf", "type": "electric_scooter", "lat": 38.906624666666666, "is_reserved": 0, "lon": -77.01155, "fusion_lon": 0.0, "is_disabled": 0, "fusion_lat": 0.0, "bike_id": "5a67192acabbbad540a6f58cb775d7cf", "rental_uris": {"ios": "https://dc.lft.to/lastmile_qr_scan", "android": "https://dc.lft.to/lastmile_qr_scan"}}, {"name": "2bcc3ca5ab2ad8d8dd83302979a551f7", "type": "electric_scooter", "lat": 38.9027055, "is_reserved": 0, "lon": -77.01643183333333, "fusion_lon": 0.0, "is_disabled": 0, "fusion_lat": 0.0, "bike_id": "2bcc3ca5ab2ad8d8dd83302979a551f7", "rental_uris": {"ios": "https://dc.lft.to/lastmile_qr_scan", "android": "https://dc.lft.to/lastmile_qr_scan"}}, {"name": "fe482c9176ccda52044c7dc10bdc3243", "type": "electric_scooter", "lat": 38.898705666666665, "is_reserved": 0, "lon": -77.0262805, "fusion_lon": 0.0, "is_disabled": 0, "fusion_lat": 0.0, "bike_id": "fe482c9176ccda52044c7dc10bdc3243", "rental_uris": {"ios": "https://dc.lft.to/lastmile_qr_scan", "android": "https://dc.lft.to/lastmile_qr_scan"}}, {"name": "13d36d6be70a747ca82463ff708b299a", "type": "electric_scooter", "lat": 38.9133105, "is_reserved": 0, "lon": -77.04870966666667, "fusion_lon": 0.0, "is_disabled": 0, "fusion_lat": 0.0, "bike_id": "13d36d6be70a747ca82463ff708b299a", "rental_uris": {"ios": "https://dc.lft.to/lastmile_qr_scan", "android": "https://dc.lft.to/lastmile_qr_scan"}}, {"name": "dab15689cb9b9f3760610d4dd981f194", "type": "electric_scooter", "lat": 38.90584416666667, "is_reserved": 0, "lon": -77.00257566666667, "fusion_lon": 0.0, "is_disabled": 0, "fusion_lat": 0.0, "bike_id": "dab15689cb9b9f3760610d4dd981f194", "rental_uris": {"ios": "https://dc.lft.to/lastmile_qr_scan", "android": "https://dc.lft.to/lastmile_qr_scan"}}, {"name": "e0fbad989f20b375b7ad608dbbc6f760", "type": "electric_scooter", "lat": 38.91892516666667, "is_reserved": 0, "lon": -77.016159, "fusion_lon": 0.0, "is_disabled": 0, "fusion_lat": 0.0, "bike_id": "e0fbad989f20b375b7ad608dbbc6f760", "rental_uris": {"ios": "https://dc.lft.to/lastmile_qr_scan", "android": "https://dc.lft.to/lastmile_qr_scan"}}, {"name": "5839efcb37253d70b4b7730dd1956510", "type": "electric_scooter", "lat": 38.93889583333333, "is_reserved": 0, "lon": -77.0246145, "fusion_lon": 0.0, "is_disabled": 0, "fusion_lat": 0.0, "bike_id": "5839efcb37253d70b4b7730dd1956510", "rental_uris": {"ios": "https://dc.lft.to/lastmile_qr_scan", "android": "https://dc.lft.to/lastmile_qr_scan"}}, {"name": "8a9638e40e39fe48ad3d5ce1046b3ec8", "type": "electric_scooter", "lat": 38.926257166666666, "is_reserved": 0, "lon": -77.03777266666667, "fusion_lon": 0.0, "is_disabled": 0, "fusion_lat": 0.0, "bike_id": "8a9638e40e39fe48ad3d5ce1046b3ec8", "rental_uris": {"ios": "https://dc.lft.to/lastmile_qr_scan", "android": "https://dc.lft.to/lastmile_qr_scan"}}, {"name": "329257b5861c135fdff4083d29ba4d2b", "type": "electric_scooter", "lat": 38.931402166666665, "is_reserved": 0, "lon": -77.03849883333334, "fusion_lon": 0.0, "is_disabled": 0, "fusion_lat": 0.0, "bike_id": "329257b5861c135fdff4083d29ba4d2b", "rental_uris": {"ios": "https://dc.lft.to/lastmile_qr_scan", "android": "https://dc.lft.to/lastmile_qr_scan"}}, {"name": "022697abf0f5492eebb6ed5700b65451", "type": "electric_scooter", "lat": 38.92579766666667, "is_reserved": 0, "lon": -77.00473066666666, "fusion_lon": 0.0, "is_disabled": 0, "fusion_lat": 0.0, "bike_id": "022697abf0f5492eebb6ed5700b65451", "rental_uris": {"ios": "https://dc.lft.to/lastmile_qr_scan", "android": "https://dc.lft.to/lastmile_qr_scan"}}, {"name": "137c2cc04818537527e1216c686ab9b4", "type": "electric_scooter", "lat": 38.902692, "is_reserved": 0, "lon": -77.04619583333333, "fusion_lon": 0.0, "is_disabled": 0, "fusion_lat": 0.0, "bike_id": "137c2cc04818537527e1216c686ab9b4", "rental_uris": {"ios": "https://dc.lft.to/lastmile_qr_scan", "android": "https://dc.lft.to/lastmile_qr_scan"}}, {"name": "f7f25c91f60a7e28c0436ba49277bf66", "type": "electric_scooter", "lat": 38.87714416666667, "is_reserved": 0, "lon": -76.99381733333334, "fusion_lon": 0.0, "is_disabled": 0, "fusion_lat": 0.0, "bike_id": "f7f25c91f60a7e28c0436ba49277bf66", "rental_uris": {"ios": "https://dc.lft.to/lastmile_qr_scan", "android": "https://dc.lft.to/lastmile_qr_scan"}}, {"name": "2f36958b5c1ea8415260475cd7a3ed98", "type": "electric_scooter", "lat": 38.88773533333333, "is_reserved": 0, "lon": -76.93263816666666, "fusion_lon": 0.0, "is_disabled": 0, "fusion_lat": 0.0, "bike_id": "2f36958b5c1ea8415260475cd7a3ed98", "rental_uris": {"ios": "https://dc.lft.to/lastmile_qr_scan", "android": "https://dc.lft.to/lastmile_qr_scan"}}, {"name": "360893b687b31ccf07068e2f4ba845b9", "type": "electric_scooter", "lat": 38.8949645, "is_reserved": 0, "lon": -77.02127683333333, "fusion_lon": 0.0, "is_disabled": 0, "fusion_lat": 0.0, "bike_id": "360893b687b31ccf07068e2f4ba845b9", "rental_uris": {"ios": "https://dc.lft.to/lastmile_qr_scan", "android": "https://dc.lft.to/lastmile_qr_scan"}}, {"name": "53f8bc883e04fb3105685b91b791c28c", "type": "electric_scooter", "lat": 38.929695833333334, "is_reserved": 0, "lon": -77.00533366666667, "fusion_lon": 0.0, "is_disabled": 0, "fusion_lat": 0.0, "bike_id": "53f8bc883e04fb3105685b91b791c28c", "rental_uris": {"ios": "https://dc.lft.to/lastmile_qr_scan", "android": "https://dc.lft.to/lastmile_qr_scan"}}, {"name": "2fa1df9c28b4445ce3b108b34af0fc88", "type": "electric_scooter", "lat": 38.90032166666667, "is_reserved": 0, "lon": -77.01186033333333, "fusion_lon": 0.0, "is_disabled": 0, "fusion_lat": 0.0, "bike_id": "2fa1df9c28b4445ce3b108b34af0fc88", "rental_uris": {"ios": "https://dc.lft.to/lastmile_qr_scan", "android": "https://dc.lft.to/lastmile_qr_scan"}}, {"name": "9b2f57294db2561740189d33a68c19bd", "type": "electric_scooter", "lat": 38.93863983333333, "is_reserved": 0, "lon": -77.02670733333333, "fusion_lon": 0.0, "is_disabled": 0, "fusion_lat": 0.0, "bike_id": "9b2f57294db2561740189d33a68c19bd", "rental_uris": {"ios": "https://dc.lft.to/lastmile_qr_scan", "android": "https://dc.lft.to/lastmile_qr_scan"}}, {"name": "b4578f5583ee1b257aff8b2a6657bf8b", "type": "electric_scooter", "lat": 38.896817166666665, "is_reserved": 0, "lon": -77.02598416666666, "fusion_lon": 0.0, "is_disabled": 0, "fusion_lat": 0.0, "bike_id": "b4578f5583ee1b257aff8b2a6657bf8b", "rental_uris": {"ios": "https://dc.lft.to/lastmile_qr_scan", "android": "https://dc.lft.to/lastmile_qr_scan"}}, {"name": "44553a4d724d06321eb4efa35a4e6578", "type": "electric_scooter", "lat": 38.906741, "is_reserved": 0, "lon": -77.03823066666666, "fusion_lon": 0.0, "is_disabled": 0, "fusion_lat": 0.0, "bike_id": "44553a4d724d06321eb4efa35a4e6578", "rental_uris": {"ios": "https://dc.lft.to/lastmile_qr_scan", "android": "https://dc.lft.to/lastmile_qr_scan"}}, {"name": "a9cdd3be929b59f23c72b79274a57ebb", "type": "electric_scooter", "lat": 38.905353833333336, "is_reserved": 0, "lon": -77.0502485, "fusion_lon": 0.0, "is_disabled": 0, "fusion_lat": 0.0, "bike_id": "a9cdd3be929b59f23c72b79274a57ebb", "rental_uris": {"ios": "https://dc.lft.to/lastmile_qr_scan", "android": "https://dc.lft.to/lastmile_qr_scan"}}, {"name": "858347c3611572cb1f8a3de33b47cf2e", "type": "electric_scooter", "lat": 38.91547416666667, "is_reserved": 0, "lon": -77.03857166666667, "fusion_lon": 0.0, "is_disabled": 0, "fusion_lat": 0.0, "bike_id": "858347c3611572cb1f8a3de33b47cf2e", "rental_uris": {"ios": "https://dc.lft.to/lastmile_qr_scan", "android": "https://dc.lft.to/lastmile_qr_scan"}}, {"name": "0ee894f7499e6647b3c59d04f19c7c5e", "type": "electric_scooter", "lat": 38.898259833333334, "is_reserved": 0, "lon": -76.94650983333334, "fusion_lon": 0.0, "is_disabled": 0, "fusion_lat": 0.0, "bike_id": "0ee894f7499e6647b3c59d04f19c7c5e", "rental_uris": {"ios": "https://dc.lft.to/lastmile_qr_scan", "android": "https://dc.lft.to/lastmile_qr_scan"}}, {"name": "39aa3fe616cb78dc79c55ae8e614ac0e", "type": "electric_bike", "lat": 38.9568835, "is_reserved": 0, "lon": -77.02224283333334, "fusion_lon": 0.0, "is_disabled": 0, "fusion_lat": 0.0, "bike_id": "39aa3fe616cb78dc79c55ae8e614ac0e", "rental_uris": {"ios": "https://dc.lft.to/lastmile_qr_scan", "android": "https://dc.lft.to/lastmile_qr_scan"}}, {"name": "63ac905bb0afbc057984f6140bd28d49", "type": "electric_scooter", "lat": 38.89827833333333, "is_reserved": 0, "lon": -76.94650216666666, "fusion_lon": 0.0, "is_disabled": 0, "fusion_lat": 0.0, "bike_id": "63ac905bb0afbc057984f6140bd28d49", "rental_uris": {"ios": "https://dc.lft.to/lastmile_qr_scan", "android": "https://dc.lft.to/lastmile_qr_scan"}}, {"name": "7888778ef39a7ffe5f2c6d12b1438fb5", "type": "electric_scooter", "lat": 38.922485333333334, "is_reserved": 0, "lon": -77.0346945, "fusion_lon": 0.0, "is_disabled": 0, "fusion_lat": 0.0, "bike_id": "7888778ef39a7ffe5f2c6d12b1438fb5", "rental_uris": {"ios": "https://dc.lft.to/lastmile_qr_scan", "android": "https://dc.lft.to/lastmile_qr_scan"}}, {"name": "45dbea5c20273541bb22fb67436150bd", "type": "electric_scooter", "lat": 38.905462, "is_reserved": 0, "lon": -77.02189166666666, "fusion_lon": 0.0, "is_disabled": 0, "fusion_lat": 0.0, "bike_id": "45dbea5c20273541bb22fb67436150bd", "rental_uris": {"ios": "https://dc.lft.to/lastmile_qr_scan", "android": "https://dc.lft.to/lastmile_qr_scan"}}, {"name": "44ec09f963f54086241dcb9f9830b9de", "type": "electric_scooter", "lat": 38.918201333333336, "is_reserved": 0, "lon": -77.02531966666666, "fusion_lon": 0.0, "is_disabled": 0, "fusion_lat": 0.0, "bike_id": "44ec09f963f54086241dcb9f9830b9de", "rental_uris": {"ios": "https://dc.lft.to/lastmile_qr_scan", "android": "https://dc.lft.to/lastmile_qr_scan"}}, {"name": "3e2ab3849518ebdb7207e794180c8679", "type": "electric_scooter", "lat": 38.90154716666667, "is_reserved": 0, "lon": -77.033283, "fusion_lon": 0.0, "is_disabled": 0, "fusion_lat": 0.0, "bike_id": "3e2ab3849518ebdb7207e794180c8679", "rental_uris": {"ios": "https://dc.lft.to/lastmile_qr_scan", "android": "https://dc.lft.to/lastmile_qr_scan"}}, {"name": "9ed307924bfc299ed335ac6de8a81e03", "type": "electric_scooter", "lat": 38.90458016666667, "is_reserved": 0, "lon": -77.04660183333333, "fusion_lon": 0.0, "is_disabled": 0, "fusion_lat": 0.0, "bike_id": "9ed307924bfc299ed335ac6de8a81e03", "rental_uris": {"ios": "https://dc.lft.to/lastmile_qr_scan", "android": "https://dc.lft.to/lastmile_qr_scan"}}, {"name": "4d7ca03e53eae2a2ff6fabfad5aa9c8e", "type": "electric_scooter", "lat": 38.909634833333335, "is_reserved": 0, "lon": -77.0077175, "fusion_lon": 0.0, "is_disabled": 0, "fusion_lat": 0.0, "bike_id": "4d7ca03e53eae2a2ff6fabfad5aa9c8e", "rental_uris": {"ios": "https://dc.lft.to/lastmile_qr_scan", "android": "https://dc.lft.to/lastmile_qr_scan"}}, {"name": "72546015f2f207330ccd01af44f029ad", "type": "electric_scooter", "lat": 38.931998666666665, "is_reserved": 0, "lon": -77.0387705, "fusion_lon": 0.0, "is_disabled": 0, "fusion_lat": 0.0, "bike_id": "72546015f2f207330ccd01af44f029ad", "rental_uris": {"ios": "https://dc.lft.to/lastmile_qr_scan", "android": "https://dc.lft.to/lastmile_qr_scan"}}, {"name": "fc8525860ed1c84f416c66ac029b5681", "type": "electric_scooter", "lat": 38.891916, "is_reserved": 0, "lon": -77.045869, "fusion_lon": 0.0, "is_disabled": 0, "fusion_lat": 0.0, "bike_id": "fc8525860ed1c84f416c66ac029b5681", "rental_uris": {"ios": "https://dc.lft.to/lastmile_qr_scan", "android": "https://dc.lft.to/lastmile_qr_scan"}}, {"name": "3a685fec02f6ec6bb720d3f4937a07ed", "type": "electric_scooter", "lat": 38.9367695, "is_reserved": 0, "lon": -77.03631483333334, "fusion_lon": 0.0, "is_disabled": 0, "fusion_lat": 0.0, "bike_id": "3a685fec02f6ec6bb720d3f4937a07ed", "rental_uris": {"ios": "https://dc.lft.to/lastmile_qr_scan", "android": "https://dc.lft.to/lastmile_qr_scan"}}, {"name": "1d54bb83dfe2792013b4febe2c35deb7", "type": "electric_scooter", "lat": 38.91315866666667, "is_reserved": 0, "lon": -77.03857133333334, "fusion_lon": 0.0, "is_disabled": 0, "fusion_lat": 0.0, "bike_id": "1d54bb83dfe2792013b4febe2c35deb7", "rental_uris": {"ios": "https://dc.lft.to/lastmile_qr_scan", "android": "https://dc.lft.to/lastmile_qr_scan"}}, {"name": "92eeea1b0caa370e45befa130d9a1f9c", "type": "electric_bike", "lat": 38.802278, "is_reserved": 0, "lon": -77.07914733333334, "fusion_lon": 0.0, "is_disabled": 0, "fusion_lat": 0.0, "bike_id": "92eeea1b0caa370e45befa130d9a1f9c", "rental_uris": {"ios": "https://dc.lft.to/lastmile_qr_scan", "android": "https://dc.lft.to/lastmile_qr_scan"}}, {"name": "d5f6816bed42876c3f9aa83810ad1372", "type": "electric_bike", "lat": 38.897231166666664, "is_reserved": 0, "lon": -77.00712633333333, "fusion_lon": 0.0, "is_disabled": 0, "fusion_lat": 0.0, "bike_id": "d5f6816bed42876c3f9aa83810ad1372", "rental_uris": {"ios": "https://dc.lft.to/lastmile_qr_scan", "android": "https://dc.lft.to/lastmile_qr_scan"}}, {"name": "b40b09f180a642e3c26e597cbb2120e2", "type": "electric_bike", "lat": 38.906854333333335, "is_reserved": 0, "lon": -76.95187216666666, "fusion_lon": 0.0, "is_disabled": 0, "fusion_lat": 0.0, "bike_id": "b40b09f180a642e3c26e597cbb2120e2", "rental_uris": {"ios": "https://dc.lft.to/lastmile_qr_scan", "android": "https://dc.lft.to/lastmile_qr_scan"}}, {"name": "999dba28dc2c288243baf1289228fae9", "type": "electric_scooter", "lat": 38.90380966666667, "is_reserved": 0, "lon": -77.01103283333333, "fusion_lon": 0.0, "is_disabled": 0, "fusion_lat": 0.0, "bike_id": "999dba28dc2c288243baf1289228fae9", "rental_uris": {"ios": "https://dc.lft.to/lastmile_qr_scan", "android": "https://dc.lft.to/lastmile_qr_scan"}}, {"name": "7b5a736b935fda80adf13a571ce0036e", "type": "electric_scooter", "lat": 38.944458, "is_reserved": 0, "lon": -77.06354316666666, "fusion_lon": 0.0, "is_disabled": 0, "fusion_lat": 0.0, "bike_id": "7b5a736b935fda80adf13a571ce0036e", "rental_uris": {"ios": "https://dc.lft.to/lastmile_qr_scan", "android": "https://dc.lft.to/lastmile_qr_scan"}}, {"name": "a9294a9fb8cbc8b3954ea991bd7960c0", "type": "electric_scooter", "lat": 38.907263666666665, "is_reserved": 0, "lon": -77.03441366666667, "fusion_lon": 0.0, "is_disabled": 0, "fusion_lat": 0.0, "bike_id": "a9294a9fb8cbc8b3954ea991bd7960c0", "rental_uris": {"ios": "https://dc.lft.to/lastmile_qr_scan", "android": "https://dc.lft.to/lastmile_qr_scan"}}, {"name": "96c5b21d9d6f5959d545466ff1de5341", "type": "electric_scooter", "lat": 38.91409216666667, "is_reserved": 0, "lon": -77.021166, "fusion_lon": 0.0, "is_disabled": 0, "fusion_lat": 0.0, "bike_id": "96c5b21d9d6f5959d545466ff1de5341", "rental_uris": {"ios": "https://dc.lft.to/lastmile_qr_scan", "android": "https://dc.lft.to/lastmile_qr_scan"}}, {"name": "221891f4841e22b48e8732fa8c1b10da", "type": "electric_scooter", "lat": 38.920428333333334, "is_reserved": 0, "lon": -77.03423366666667, "fusion_lon": 0.0, "is_disabled": 0, "fusion_lat": 0.0, "bike_id": "221891f4841e22b48e8732fa8c1b10da", "rental_uris": {"ios": "https://dc.lft.to/lastmile_qr_scan", "android": "https://dc.lft.to/lastmile_qr_scan"}}, {"name": "9db8a4ebef4d42afbd107a081fe6952d", "type": "electric_scooter", "lat": 38.92794133333334, "is_reserved": 0, "lon": -77.031526, "fusion_lon": 0.0, "is_disabled": 0, "fusion_lat": 0.0, "bike_id": "9db8a4ebef4d42afbd107a081fe6952d", "rental_uris": {"ios": "https://dc.lft.to/lastmile_qr_scan", "android": "https://dc.lft.to/lastmile_qr_scan"}}, {"name": "7c0b8f34076d2a9fcbf49c2dcaf5c635", "type": "electric_scooter", "lat": 38.91021116666667, "is_reserved": 0, "lon": -77.053072, "fusion_lon": 0.0, "is_disabled": 0, "fusion_lat": 0.0, "bike_id": "7c0b8f34076d2a9fcbf49c2dcaf5c635", "rental_uris": {"ios": "https://dc.lft.to/lastmile_qr_scan", "android": "https://dc.lft.to/lastmile_qr_scan"}}, {"name": "a15d31b6d66c6b0924c81098c95d5744", "type": "electric_scooter", "lat": 38.9008275, "is_reserved": 0, "lon": -77.049177, "fusion_lon": 0.0, "is_disabled": 0, "fusion_lat": 0.0, "bike_id": "a15d31b6d66c6b0924c81098c95d5744", "rental_uris": {"ios": "https://dc.lft.to/lastmile_qr_scan", "android": "https://dc.lft.to/lastmile_qr_scan"}}, {"name": "2128d62dedfe635389323ea68b9d1236", "type": "electric_scooter", "lat": 38.91105266666667, "is_reserved": 0, "lon": -77.01061216666666, "fusion_lon": 0.0, "is_disabled": 0, "fusion_lat": 0.0, "bike_id": "2128d62dedfe635389323ea68b9d1236", "rental_uris": {"ios": "https://dc.lft.to/lastmile_qr_scan", "android": "https://dc.lft.to/lastmile_qr_scan"}}, {"name": "1e297481c5ee1f95bc2ba02f6cfe75e2", "type": "electric_scooter", "lat": 38.89245666666667, "is_reserved": 0, "lon": -77.03183116666666, "fusion_lon": 0.0, "is_disabled": 0, "fusion_lat": 0.0, "bike_id": "1e297481c5ee1f95bc2ba02f6cfe75e2", "rental_uris": {"ios": "https://dc.lft.to/lastmile_qr_scan", "android": "https://dc.lft.to/lastmile_qr_scan"}}, {"name": "a5e89d95fd12133cc8b32d23e9414365", "type": "electric_scooter", "lat": 38.91685983333333, "is_reserved": 0, "lon": -77.025274, "fusion_lon": 0.0, "is_disabled": 0, "fusion_lat": 0.0, "bike_id": "a5e89d95fd12133cc8b32d23e9414365", "rental_uris": {"ios": "https://dc.lft.to/lastmile_qr_scan", "android": "https://dc.lft.to/lastmile_qr_scan"}}, {"name": "7c99e180a52464b7e96e41a387c0ab8e", "type": "electric_scooter", "lat": 38.908095, "is_reserved": 0, "lon": -77.03868633333333, "fusion_lon": 0.0, "is_disabled": 0, "fusion_lat": 0.0, "bike_id": "7c99e180a52464b7e96e41a387c0ab8e", "rental_uris": {"ios": "https://dc.lft.to/lastmile_qr_scan", "android": "https://dc.lft.to/lastmile_qr_scan"}},