{"data": {"bikes": [{"fusion_lat": 0.0, "lon": -77.04821766666667, "is_reserved": 0, "bike_id": "9738742686a45e95f909f550299693d1", "fusion_lon": 0.0, "rental_uris": {"android": "https://dc.lft.to/lastmile_qr_scan", "ios": "https://dc.lft.to/lastmile_qr_scan"}, "name": "9738742686a45e95f909f550299693d1", "type": "electric_scooter", "lat": 38.907205166666664, "is_disabled": 0}, {"fusion_lat": 0.0, "lon": -77.02845333333333, "is_reserved": 0, "bike_id": "6a8b6cf3f09f343324f471519a46fcf4", "fusion_lon": 0.0, "rental_uris": {"android": "https://dc.lft.to/lastmile_qr_scan", "ios": "https://dc.lft.to/lastmile_qr_scan"}, "name": "6a8b6cf3f09f343324f471519a46fcf4", "type": "electric_scooter", "lat": 38.91265333333333, "is_disabled": 0}, {"fusion_lat": 0.0, "lon": -77.01816066666666, "is_reserved": 0, "bike_id": "25107886e9b8226bf53f9b641e82f01f", "fusion_lon": 0.0, "rental_uris": {"android": "https://dc.lft.to/lastmile_qr_scan", "ios": "https://dc.lft.to/lastmile_qr_scan"}, "name": "25107886e9b8226bf53f9b641e82f01f", "type": "electric_scooter", "lat": 38.920198, "is_disabled": 0}, {"fusion_lat": 0.0, "lon": -77.05804233333333, "is_reserved": 0, "bike_id": "54ac33a1d1bf08ff14d1b1b726ea812b", "fusion_lon": 0.0, "rental_uris": {"android": "https://dc.lft.to/lastmile_qr_scan", "ios": "https://dc.lft.to/lastmile_qr_scan"}, "name": "54ac33a1d1bf08ff14d1b1b726ea812b", "type": "electric_scooter", "lat": 38.93512466666667, "is_disabled": 0}, {"fusion_lat": 0.0, "lon": -77.00225566666667, "is_reserved": 0, "bike_id": "80c52886b52664c41ca6640b5cd3de62", "fusion_lon": 0.0, "rental_uris": {"android": "https://dc.lft.to/lastmile_qr_scan", "ios": "https://dc.lft.to/lastmile_qr_scan"}, "name": "80c52886b52664c41ca6640b5cd3de62", "type": "electric_scooter", "lat": 38.89481333333333, "is_disabled": 0}, {"fusion_lat": 0.0, "lon": -77.02529466666667, "is_reserved": 0, "bike_id": "247893974acf31044de7fcc43cef3c57", "fusion_lon": 0.0, "rental_uris": {"android": "https://dc.lft.to/lastmile_qr_scan", "ios": "https://dc.lft.to/lastmile_qr_scan"}, "name": "247893974acf31044de7fcc43cef3c57", "type": "electric_scooter", "lat": 38.92748533333334, "is_disabled": 0}, {"fusion_lat": 0.0, "lon": -77.045016, "is_reserved": 0, "bike_id": "a14cc44ffb9cbb2f7b19e8b5e18af024", "fusion_lon": 0.0, "rental_uris": {"android": "https://dc.lft.to/lastmile_qr_scan", "ios": "https://dc.lft.to/lastmile_qr_scan"}, "name": "a14cc44ffb9cbb2f7b19e8b5e18af024", "type": "electric_scooter", "lat": 38.90720266666667, "is_disabled": 0}, {"fusion_lat": 0.0, "lon": -77.02215566666666, "is_reserved": 0, "bike_id": "aac4974ce6fb8cf36ea4d0cbfb0bec26", "fusion_lon": 0.0, "rental_uris": {"android": "https://dc.lft.to/lastmile_qr_scan", "ios": "https://dc.lft.to/lastmile_qr_scan"}, "name": "aac4974ce6fb8cf36ea4d0cbfb0bec26", "type": "electric_scooter", "lat": 38.900459833333336, "is_disabled": 0}, {"fusion_lat": 0.0, "lon": -77.06105716666667, "is_reserved": 0, "bike_id": "0df8478ffbb66e1eded42c0b9ef3fdfd", "fusion_lon": 0.0, "rental_uris": {"android": "https://dc.lft.to/lastmile_qr_scan", "ios": "https://dc.lft.to/lastmile_qr_scan"}, "name": "0df8478ffbb66e1eded42c0b9ef3fdfd", "type": "electric_scooter", "lat": 38.9437045, "is_disabled": 0}, {"fusion_lat": 0.0, "lon": -77.0218635, "is_reserved": 0, "bike_id": "68155aa09a4910f380a9ca9fe56084be", "fusion_lon": 0.0, "rental_uris": {"android": "https://dc.lft.to/lastmile_qr_scan", "ios": "https://dc.lft.to/lastmile_qr_scan"}, "name": "68155aa09a4910f380a9ca9fe56084be", "type": "electric_scooter", "lat": 38.9095945, "is_disabled": 0}, {"fusion_lat": 0.0, "lon": -77.034462, "is_reserved": 0, "bike_id": "33738d9ce7ae594022565b3bb27f54d0", "fusion_lon": 0.0, "rental_uris": {"android": "https://dc.lft.to/lastmile_qr_scan", "ios": "https://dc.lft.to/lastmile_qr_scan"}, "name": "33738d9ce7ae594022565b3bb27f54d0", "type": "electric_scooter", "lat": 38.9062895, "is_disabled": 0}, {"fusion_lat": 0.0, "lon": -77.05740683333333, "is_reserved": 0, "bike_id": "e9cd7fdc04b6fde9820693c9d54e3ce9", "fusion_lon": 0.0, "rental_uris": {"android": "https://dc.lft.to/lastmile_qr_scan", "ios": "https://dc.lft.to/lastmile_qr_scan"}, "name": "e9cd7fdc04b6fde9820693c9d54e3ce9", "type": "electric_scooter", "lat": 38.9338845, "is_disabled": 0}, {"fusion_lat": 0.0, "lon": -77.02947933333333, "is_reserved": 0, "bike_id": "7f73a6e0ec4e5222d35aa4788b7b9086", "fusion_lon": 0.0, "rental_uris": {"android": "https://dc.lft.to/lastmile_qr_scan", "ios": "https://dc.lft.to/lastmile_qr_scan"}, "name": "7f73a6e0ec4e5222d35aa4788b7b9086", "type": "electric_scooter", "lat": 38.91686083333333, "is_disabled": 0}, {"fusion_lat": 0.0, "lon": -77.02489266666667, "is_reserved": 0, "bike_id": "dfc9afce8276fc12ded94d8017f638c5", "fusion_lon": 0.0, "rental_uris": {"android": "https://dc.lft.to/lastmile_qr_scan", "ios": "https://dc.lft.to/lastmile_qr_scan"}, "name": "dfc9afce8276fc12ded94d8017f638c5", "type": "electric_scooter", "lat": 38.937532, "is_disabled": 0}, {"fusion_lat": 0.0, "lon": -76.99933483333334, "is_reserved": 0, "bike_id": "66fb969778e2e84b332565cb17cc8457", "fusion_lon": 0.0, "rental_uris": {"android": "https://dc.lft.to/lastmile_qr_scan", "ios": "https://dc.lft.to/lastmile_qr_scan"}, "name": "66fb969778e2e84b332565cb17cc8457", "type": "electric_scooter", "lat": 38.842994166666664, "is_disabled": 0}, {"fusion_lat": 0.0, "lon": -77.0627745, "is_reserved": 0, "bike_id": "8ccbd42df65f6fe1418457d9e424ec86", "fusion_lon": 0.0, "rental_uris": {"android": "https://dc.lft.to/lastmile_qr_scan", "ios": "https://dc.lft.to/lastmile_qr_scan"}, "name": "8ccbd42df65f6fe1418457d9e424ec86", "type": "electric_scooter", "lat": 38.905866833333334, "is_disabled": 0}, {"fusion_lat": 0.0, "lon": -76.94872566666666, "is_reserved": 0, "bike_id": "cc8a2556d5cb8c186381c11b967b966d", "fusion_lon": 0.0, "rental_uris": {"android": "https://dc.lft.to/lastmile_qr_scan", "ios": "https://dc.lft.to/lastmile_qr_scan"}, "name": "cc8a2556d5cb8c186381c11b967b966d", "type": "electric_scooter", "lat": 38.89546266666667, "is_disabled": 0}, {"fusion_lat": 0.0, "lon": -76.99847266666667, "is_reserved": 0, "bike_id": "36928f861bfd8353debbaebe8e2cf8d1", "fusion_lon": 0.0, "rental_uris": {"android": "https://dc.lft.to/lastmile_qr_scan", "ios": "https://dc.lft.to/lastmile_qr_scan"}, "name": "36928f861bfd8353debbaebe8e2cf8d1", "type": "electric_scooter", "lat": 38.9001515, "is_disabled": 0}, {"fusion_lat": 0.0, "lon": -77.07324466666667, "is_reserved": 0, "bike_id": "94b2dce3d4bf0b2e1ad3c577a7772f57", "fusion_lon": 0.0, "rental_uris": {"android": "https://dc.lft.to/lastmile_qr_scan", "ios": "https://dc.lft.to/lastmile_qr_scan"}, "name": "94b2dce3d4bf0b2e1ad3c577a7772f57", "type": "electric_scooter", "lat": 38.926100166666664, "is_disabled": 0}, {"fusion_lat": 0.0, "lon": -77.0107365, "is_reserved": 0, "bike_id": "b6d2d885bd96f2196740c1ad29dcd566", "fusion_lon": 0.0, "rental_uris": {"android": "https://dc.lft.to/lastmile_qr_scan", "ios": "https://dc.lft.to/lastmile_qr_scan"}, "name": "b6d2d885bd96f2196740c1ad29dcd566", "type": "electric_scooter", "lat": 38.91770366666667, "is_disabled": 0}, {"fusion_lat": 0.0, "lon": -77.01863483333334, "is_reserved": 0, "bike_id": "18cd3864bd913808dc26d28a82109d21", "fusion_lon": 0.0, "rental_uris": {"android": "https://dc.lft.to/lastmile_qr_scan", "ios": "https://dc.lft.to/lastmile_qr_scan"}, "name": "18cd3864bd913808dc26d28a82109d21", "type": "electric_scooter", "lat": 38.97370433333333, "is_disabled": 0}, {"fusion_lat": 0.0, "lon": -76.99622333333333, "is_reserved": 0, "bike_id": "9f06e5357d88980a112093c383e71233", "fusion_lon": 0.0, "rental_uris": {"android": "https://dc.lft.to/lastmile_qr_scan", "ios": "https://dc.lft.to/lastmile_qr_scan"}, "name": "9f06e5357d88980a112093c383e71233", "type": "electric_scooter", "lat": 38.90030983333333, "is_disabled": 0}, {"fusion_lat": 0.0, "lon": -77.04192783333333, "is_reserved": 0, "bike_id": "25edfe2b68e9960700c8ca999d49c8dc", "fusion_lon": 0.0, "rental_uris": {"android": "https://dc.lft.to/lastmile_qr_scan", "ios": "https://dc.lft.to/lastmile_qr_scan"}, "name": "25edfe2b68e9960700c8ca999d49c8dc", "type": "electric_scooter", "lat": 38.91975566666667, "is_disabled": 0}, {"fusion_lat": 0.0, "lon": -77.01523, "is_reserved": 0, "bike_id": "54f687449f7ead62c97d01acace69d5b", "fusion_lon": 0.0, "rental_uris": {"android": "https://dc.lft.to/lastmile_qr_scan", "ios": "https://dc.lft.to/lastmile_qr_scan"}, "name": "54f687449f7ead62c97d01acace69d5b", "type": "electric_bike", "lat": 38.91867366666666, "is_disabled": 0}, {"fusion_lat": 0.0, "lon": -76.99375083333334, "is_reserved": 0, "bike_id": "d91b77912cb12bcedbdbf743110e361e", "fusion_lon": 0.0, "rental_uris": {"android": "https://dc.lft.to/lastmile_qr_scan", "ios": "https://dc.lft.to/lastmile_qr_scan"}, "name": "d91b77912cb12bcedbdbf743110e361e", "type": "electric_bike", "lat": 38.97185983333333, "is_disabled": 0}, {"fusion_lat": 0.0, "lon": -77.0246895, "is_reserved": 0, "bike_id": "982a2f8db9662af5aa7d67d3944d1e09", "fusion_lon": 0.0, "rental_uris": {"android": "https://dc.lft.to/lastmile_qr_scan", "ios": "https://dc.lft.to/lastmile_qr_scan"}, "name": "982a2f8db9662af5aa7d67d3944d1e09", "type": "electric_scooter", "lat": 38.933074833333336, "is_disabled": 0}, {"fusion_lat": 0.0, "lon": -77.0410535, "is_reserved": 0, "bike_id": "e6aa630355896026b0c378409894d20a", "fusion_lon": 0.0, "rental_uris": {"android": "https://dc.lft.to/lastmile_qr_scan", "ios": "https://dc.lft.to/lastmile_qr_scan"}, "name": "e6aa630355896026b0c378409894d20a", "type": "electric_scooter", "lat": 38.9280145, "is_disabled": 0}, {"fusion_lat": 0.0, "lon": -77.02722966666667, "is_reserved": 0, "bike_id": "8e92315c60a172f4596d9b7d5dbb1517", "fusion_lon": 0.0, "rental_uris": {"android": "https://dc.lft.to/lastmile_qr_scan", "ios": "https://dc.lft.to/lastmile_qr_scan"}, "name": "8e92315c60a172f4596d9b7d5dbb1517", "type": "electric_scooter", "lat": 38.89731483333333, "is_disabled": 0}, {"fusion_lat": 0.0, "lon": -77.02415333333333, "is_reserved": 0, "bike_id": "ad8255286249b98249c5598b7f694e3a", "fusion_lon": 0.0, "rental_uris": {"android": "https://dc.lft.to/lastmile_qr_scan", "ios": "https://dc.lft.to/lastmile_qr_scan"}, "name": "ad8255286249b98249c5598b7f694e3a", "type": "electric_scooter", "lat": 38.892558666666666, "is_disabled": 0}, {"fusion_lat": 0.0, "lon": -77.03223783333334, "is_reserved": 0, "bike_id": "5f687d2e5ffa5d59ea310386080d1962", "fusion_lon": 0.0, "rental_uris": {"android": "https://dc.lft.to/lastmile_qr_scan", "ios": "https://dc.lft.to/lastmile_qr_scan"}, "name": "5f687d2e5ffa5d59ea310386080d1962", "type": "electric_scooter", "lat": 38.92640466666667, "is_disabled": 0}, {"fusion_lat": 0.0, "lon": -77.033744, "is_reserved": 0, "bike_id": "335a7614afffb1561c0e5070b6a7c0bb", "fusion_lon": 0.0, "rental_uris": {"android": "https://dc.lft.to/lastmile_qr_scan", "ios": "https://dc.lft.to/lastmile_qr_scan"}, "name": "335a7614afffb1561c0e5070b6a7c0bb", "type": "electric_scooter", "lat": 38.90837583333333, "is_disabled": 0}, {"fusion_lat": 0.0, "lon": -77.00911216666667, "is_reserved": 0, "bike_id": "dac7a658157a52f28736f07bfb8fb944", "fusion_lon": 0.0, "rental_uris": {"android": "https://dc.lft.to/lastmile_qr_scan", "ios": "https://dc.lft.to/lastmile_qr_scan"}, "name": "dac7a658157a52f28736f07bfb8fb944", "type": "electric_scooter", "lat": 38.89559966666667, "is_disabled": 0}, {"fusion_lat": 0.0, "lon": -77.0196495, "is_reserved": 0, "bike_id": "384d4ef6cbc07e7a08b85c4b8dd578fa", "fusion_lon": 0.0, "rental_uris": {"android": "https://dc.lft.to/lastmile_qr_scan", "ios": "https://dc.lft.to/lastmile_qr_scan"}, "name": "384d4ef6cbc07e7a08b85c4b8dd578fa", "type": "electric_scooter", "lat": 38.883332333333335, "is_disabled": 0}, {"fusion_lat": 0.0, "lon": -77.0458315, "is_reserved": 0, "bike_id": "a9d26fe10578e47738c7d78108804a54", "fusion_lon": 0.0, "rental_uris": {"android": "https://dc.lft.to/lastmile_qr_scan", "ios": "https://dc.lft.to/lastmile_qr_scan"}, "name": "a9d26fe10578e47738c7d78108804a54", "type": "electric_scooter", "lat": 38.916210666666665, "is_disabled": 0}, {"fusion_lat": 0.0, "lon": -77.34289366666667, "is_reserved": 0, "bike_id": "d73e77ea2d8fca0e871a99ba11a1a522", "fusion_lon": 0.0, "rental_uris": {"android": "https://dc.lft.to/lastmile_qr_scan", "ios": "https://dc.lft.to/lastmile_qr_scan"}, "name": "d73e77ea2d8fca0e871a99ba11a1a522", "type": "electric_bike", "lat": 38.945995833333335, "is_disabled": 0}, {"fusion_lat": 0.0, "lon": -77.0238335, "is_reserved": 0, "bike_id": "490c10fad95ccf46c13639fc2c851ef1", "fusion_lon": 0.0, "rental_uris": {"android": "https://dc.lft.to/lastmile_qr_scan", "ios": "https://dc.lft.to/lastmile_qr_scan"}, "name": "490c10fad95ccf46c13639fc2c851ef1", "type": "electric_scooter", "lat": 38.908145, "is_disabled": 0}, {"fusion_lat": 0.0, "lon": -77.0382095, "is_reserved": 0, "bike_id": "d8edc0eb11d6453255282f39c5299c42", "fusion_lon": 0.0, "rental_uris": {"android": "https://dc.lft.to/lastmile_qr_scan", "ios": "https://dc.lft.to/lastmile_qr_scan"}, "name": "d8edc0eb11d6453255282f39c5299c42", "type": "electric_scooter", "lat": 38.93133666666667, "is_disabled": 0}, {"fusion_lat": 0.0, "lon": -77.02219083333334, "is_reserved": 0, "bike_id": "8d61806593be488f529f0806e505ab52", "fusion_lon": 0.0, "rental_uris": {"android": "https://dc.lft.to/lastmile_qr_scan", "ios": "https://dc.lft.to/lastmile_qr_scan"}, "name": "8d61806593be488f529f0806e505ab52", "type": "electric_scooter", "lat": 38.93547616666667, "is_disabled": 0}, {"fusion_lat": 0.0, "lon": -76.99580983333334, "is_reserved": 0, "bike_id": "c3469fd1c9c9659aa756fa1734f0dd49", "fusion_lon": 0.0, "rental_uris": {"android": "https://dc.lft.to/lastmile_qr_scan", "ios": "https://dc.lft.to/lastmile_qr_scan"}, "name": "c3469fd1c9c9659aa756fa1734f0dd49", "type": "electric_bike", "lat": 38.852945, "is_disabled": 0}, {"fusion_lat": 0.0, "lon": -77.02129066666667, "is_reserved": 0, "bike_id": "3cde7e5a919317950a5ba1b566c358bc", "fusion_lon": 0.0, "rental_uris": {"android": "https://dc.lft.to/lastmile_qr_scan", "ios": "https://dc.lft.to/lastmile_qr_scan"}, "name": "3cde7e5a919317950a5ba1b566c358bc", "type": "electric_scooter", "lat": 38.924176333333335, "is_disabled": 0}, {"fusion_lat": 0.0, "lon": -77.0738715, "is_reserved": 0, "bike_id": "9c867d9d45d355b721fa5a7ff97de51c", "fusion_lon": 0.0, "rental_uris": {"android": "https://dc.lft.to/lastmile_qr_scan", "ios": "https://dc.lft.to/lastmile_qr_scan"}, "name": "9c867d9d45d355b721fa5a7ff97de51c", "type": "electric_bike", "lat": 38.96173783333333, "is_disabled": 0}, {"fusion_lat": 0.0, "lon": -76.990927, "is_reserved": 0, "bike_id": "29094e3076d09f3935bf06024d264aab", "fusion_lon": 0.0, "rental_uris": {"android": "https://dc.lft.to/lastmile_qr_scan", "ios": "https://dc.lft.to/lastmile_qr_scan"}, "name": "29094e3076d09f3935bf06024d264aab", "type": "electric_scooter", "lat": 38.863693833333336, "is_disabled": 0}, {"fusion_lat": 0.0, "lon": -77.08579683333333, "is_reserved": 0, "bike_id": "808657a39843cac99f445dda331822cd", "fusion_lon": 0.0, "rental_uris": {"android": "https://dc.lft.to/lastmile_qr_scan", "ios": "https://dc.lft.to/lastmile_qr_scan"}, "name": "808657a39843cac99f445dda331822cd", "type": "electric_bike", "lat": 38.8442855, "is_disabled": 0}, {"fusion_lat": 0.0, "lon": -77.02966483333333, "is_reserved": 0, "bike_id": "7c37926f4075f2b9688325d115542c6b", "fusion_lon": 0.0, "rental_uris": {"android": "https://dc.lft.to/lastmile_qr_scan", "ios": "https://dc.lft.to/lastmile_qr_scan"}, "name": "7c37926f4075f2b9688325d115542c6b", "type": "electric_scooter", "lat": 38.92572366666667, "is_disabled": 0}, {"fusion_lat": 0.0, "lon": -77.02608116666667, "is_reserved": 0, "bike_id": "ad7f9a55e74c05233b71549e494f750b", "fusion_lon": 0.0, "rental_uris": {"android": "https://dc.lft.to/lastmile_qr_scan", "ios": "https://dc.lft.to/lastmile_qr_scan"}, "name": "ad7f9a55e74c05233b71549e494f750b", "type": "electric_scooter", "lat": 38.905086833333336, "is_disabled": 0}, {"fusion_lat": 0.0, "lon": -77.06393316666667, "is_reserved": 0, "bike_id": "9363ed7700c187043b31e7b6b3fb4193", "fusion_lon": 0.0, "rental_uris": {"android": "https://dc.lft.to/lastmile_qr_scan", "ios": "https://dc.lft.to/lastmile_qr_scan"}, "name": "9363ed7700c187043b31e7b6b3fb4193", "type": "electric_scooter", "lat": 38.943268, "is_disabled": 0}, {"fusion_lat": 0.0, "lon": -77.03833916666666, "is_reserved": 0, "bike_id": "e58eb2e4ca995e9c67b170389a0ea52e", "fusion_lon": 0.0, "rental_uris": {"android": "https://dc.lft.to/lastmile_qr_scan", "ios": "https://dc.lft.to/lastmile_qr_scan"}, "name": "e58eb2e4ca995e9c67b170389a0ea52e", "type": "electric_scooter", "lat": 38.9119315, "is_disabled": 0}, {"fusion_lat": 0.0, "lon": -76.99030383333333, "is_reserved": 0, "bike_id": "06a53713a272c3072b545bf44839ea7f", "fusion_lon": 0.0, "rental_uris": {"android": "https://dc.lft.to/lastmile_qr_scan", "ios": "https://dc.lft.to/lastmile_qr_scan"}, "name": "06a53713a272c3072b545bf44839ea7f", "type": "electric_scooter", "lat": 38.9028755, "is_disabled": 0}, {"fusion_lat": 0.0, "lon": -76.93733566666667, "is_reserved": 0, "bike_id": "79b7266511865141811938db08864abf", "fusion_lon": 0.0, "rental_uris": {"android": "https://dc.lft.to/lastmile_qr_scan", "ios": "https://dc.lft.to/lastmile_qr_scan"}, "name": "79b7266511865141811938db08864abf", "type": "electric_scooter", "lat": 38.890158, "is_disabled": 0}, {"fusion_lat": 0.0, "lon": -76.9220035, "is_reserved": 0, "bike_id": "06ea5138ad73f63b39ae15e493de019d", "fusion_lon": 0.0, "rental_uris": {"android": "https://dc.lft.to/lastmile_qr_scan", "ios": "https://dc.lft.to/lastmile_qr_scan"}, "name": "06ea5138ad73f63b39ae15e493de019d", "type": "electric_bike", "lat": 38.8949465, "is_disabled": 0}, {"fusion_lat": 0.0, "lon": -77.0059915, "is_reserved": 0, "bike_id": "d47bc298bd7aebc2618f4637a88ac75a", "fusion_lon": 0.0, "rental_uris": {"android": "https://dc.lft.to/lastmile_qr_scan", "ios": "https://dc.lft.to/lastmile_qr_scan"}, "name": "d47bc298bd7aebc2618f4637a88ac75a", "type": "electric_scooter", "lat": 38.88520116666667, "is_disabled": 0}, {"fusion_lat": 0.0, "lon": -77.04101633333333, "is_reserved": 0, "bike_id": "cf366676a168ff3776b5d062ce592cbd", "fusion_lon": 0.0, "rental_uris": {"android": "https://dc.lft.to/lastmile_qr_scan", "ios": "https://dc.lft.to/lastmile_qr_scan"}, "name": "cf366676a168ff3776b5d062ce592cbd", "type": "electric_scooter", "lat": 38.917765833333334, "is_disabled": 0}, {"fusion_lat": 0.0, "lon": -77.0364575, "is_reserved": 0, "bike_id": "5684222bd7835ec9fe6ed03a3401a973", "fusion_lon": 0.0, "rental_uris": {"android": "https://dc.lft.to/lastmile_qr_scan", "ios": "https://dc.lft.to/lastmile_qr_scan"}, "name": "5684222bd7835ec9fe6ed03a3401a973", "type": "electric_scooter", "lat": 38.91825166666667, "is_disabled": 0}, {"fusion_lat": 0.0, "lon": -77.02698783333334, "is_reserved": 0, "bike_id": "c9b16393372197552568239e72c3f972", "fusion_lon": 0.0, "rental_uris": {"android": "https://dc.lft.to/lastmile_qr_scan", "ios": "https://dc.lft.to/lastmile_qr_scan"}, "name": "c9b16393372197552568239e72c3f972", "type": "electric_scooter", "lat": 38.92371516666667, "is_disabled": 0}, {"fusion_lat": 0.0, "lon": -77.038969, "is_reserved": 0, "bike_id": "33afc94c66b6bf37d83d18e44b1dcccb", "fusion_lon": 0.0, "rental_uris": {"android": "https://dc.lft.to/lastmile_qr_scan", "ios": "https://dc.lft.to/lastmile_qr_scan"}, "name": "33afc94c66b6bf37d83d18e44b1dcccb", "type": "electric_scooter", "lat": 38.9147165, "is_disabled": 0}, {"fusion_lat": 0.0, "lon": -77.01624683333333, "is_reserved": 0, "bike_id": "152df9b26b19eac1132f9e4b21b5513c", "fusion_lon": 0.0, "rental_uris": {"android": "https://dc.lft.to/lastmile_qr_scan", "ios": "https://dc.lft.to/lastmile_qr_scan"}, "name": "152df9b26b19eac1132f9e4b21b5513c", "type": "electric_scooter", "lat": 38.9034095, "is_disabled": 0}, {"fusion_lat": 0.0, "lon": -77.02794183333333, "is_reserved": 0, "bike_id": "94b5b4a5d02da7cbc74166ace1090d1b", "fusion_lon": 0.0, "rental_uris": {"android": "https://dc.lft.to/lastmile_qr_scan", "ios": "https://dc.lft.to/lastmile_qr_scan"}, "name": "94b5b4a5d02da7cbc74166ace1090d1b", "type": "electric_scooter", "lat": 38.93086366666667, "is_disabled": 0}, {"fusion_lat": 0.0, "lon": -77.009724, "is_reserved": 0, "bike_id": "edd314be915af08511246254c1dd0911", "fusion_lon": 0.0, "rental_uris": {"android": "https://dc.lft.to/lastmile_qr_scan", "ios": "https://dc.lft.to/lastmile_qr_scan"}, "name": "edd314be915af08511246254c1dd0911", "type": "electric_scooter", "lat": 38.914104333333334, "is_disabled": 0}, {"fusion_lat": 0.0, "lon": -77.07072383333333, "is_reserved": 0, "bike_id": "21f8d4f184e35421d996a131fca709d5", "fusion_lon": 0.0, "rental_uris": {"android": "https://dc.lft.to/lastmile_qr_scan", "ios": "https://dc.lft.to/lastmile_qr_scan"}, "name": "21f8d4f184e35421d996a131fca709d5", "type": "electric_scooter", "lat": 38.93171383333333, "is_disabled": 0}, {"fusion_lat": 0.0, "lon": -77.02567133333334, "is_reserved": 0, "bike_id": "0b2cc02db3c5e328e752a14510cd78c4", "fusion_lon": 0.0, "rental_uris": {"android": "https://dc.lft.to/lastmile_qr_scan", "ios": "https://dc.lft.to/lastmile_qr_scan"}, "name": "0b2cc02db3c5e328e752a14510cd78c4", "type": "electric_scooter", "lat": 38.880784, "is_disabled": 0}, {"fusion_lat": 0.0, "lon": -76.93752516666666, "is_reserved": 0, "bike_id": "fd710b2c248244a2f741a5fd93195885", "fusion_lon": 0.0, "rental_uris": {"android": "https://dc.lft.to/lastmile_qr_scan", "ios": "https://dc.lft.to/lastmile_qr_scan"}, "name": "fd710b2c248244a2f741a5fd93195885", "type": "electric_scooter", "lat": 38.890494, "is_disabled": 0}, {"fusion_lat": 0.0, "lon": -77.027213, "is_reserved": 0, "bike_id": "6ce666d13dcdf3ee9da483ff01982ba8", "fusion_lon": 0.0, "rental_uris": {"android": "https://dc.lft.to/lastmile_qr_scan", "ios": "https://dc.lft.to/lastmile_qr_scan"}, "name": "6ce666d13dcdf3ee9da483ff01982ba8", "type": "electric_scooter", "lat": 38.90674333333333, "is_disabled": 0}, {"fusion_lat": 0.0, "lon": -77.0274155, "is_reserved": 0, "bike_id": "78e42fb9c45d03e885ffe4e7d71ce0b4", "fusion_lon": 0.0, "rental_uris": {"android": "https://dc.lft.to/lastmile_qr_scan", "ios": "https://dc.lft.to/lastmile_qr_scan"}, "name": "78e42fb9c45d03e885ffe4e7d71ce0b4", "type": "electric_scooter", "lat": 38.928584666666666, "is_disabled": 0}, {"fusion_lat": 0.0, "lon": -77.0432255, "is_reserved": 0, "bike_id": "8c37c6c3cc60e9e47360db1dfa433371", "fusion_lon": 0.0, "rental_uris": {"android": "https://dc.lft.to/lastmile_qr_scan", "ios": "https://dc.lft.to/lastmile_qr_scan"}, "name": "8c37c6c3cc60e9e47360db1dfa433371", "type": "electric_scooter", "lat": 38.8922485, "is_disabled": 0}, {"fusion_lat": 0.0, "lon": -77.04929333333334, "is_reserved": 0, "bike_id": "3d483058dd8b7c3f8a578098ec2dbf62", "fusion_lon": 0.0, "rental_uris": {"android": "https://dc.lft.to/lastmile_qr_scan", "ios": "https://dc.lft.to/lastmile_qr_scan"}, "name": "3d483058dd8b7c3f8a578098ec2dbf62", "type": "electric_scooter", "lat": 38.89529316666667, "is_disabled": 0}, {"fusion_lat": 0.0, "lon": -77.00479416666667, "is_reserved": 0, "bike_id": "8668f4a3c17e16f673fda6a26b809510", "fusion_lon": 0.0, "rental_uris": {"android": "https://dc.lft.to/lastmile_qr_scan", "ios": "https://dc.lft.to/lastmile_qr_scan"}, "name": "8668f4a3c17e16f673fda6a26b809510", "type": "electric_scooter", "lat": 38.87479033333334, "is_disabled": 0}, {"fusion_lat": 0.0, "lon": -76.99794766666666, "is_reserved": 0, "bike_id": "b8d76745e62becb63ba6139a37c3760e", "fusion_lon": 0.0, "rental_uris": {"android": "https://dc.lft.to/lastmile_qr_scan", "ios": "https://dc.lft.to/lastmile_qr_scan"}, "name": "b8d76745e62becb63ba6139a37c3760e", "type": "electric_bike", "lat": 38.9564205, "is_disabled": 0}, {"fusion_lat": 0.0, "lon": -76.98094816666666, "is_reserved": 0, "bike_id": "18eb6c90bfe93629acb9a01948b44f4d", "fusion_lon": 0.0, "rental_uris": {"android": "https://dc.lft.to/lastmile_qr_scan", "ios": "https://dc.lft.to/lastmile_qr_scan"}, "name": "18eb6c90bfe93629acb9a01948b44f4d", "type": "electric_bike", "lat": 38.9211205, "is_disabled": 0}, {"fusion_lat": 0.0, "lon": -77.03296116666667, "is_reserved": 0, "bike_id": "77558efc470b1be5c2f3cf8b51a7d47b", "fusion_lon": 0.0, "rental_uris": {"android": "https://dc.lft.to/lastmile_qr_scan", "ios": "https://dc.lft.to/lastmile_qr_scan"}, "name": "77558efc470b1be5c2f3cf8b51a7d47b", "type": "electric_scooter", "lat": 38.89227966666667, "is_disabled": 0}, {"fusion_lat": 0.0, "lon": -77.04730783333333, "is_reserved": 0, "bike_id": "f69e675407c5287008fdc1f55123c50c", "fusion_lon": 0.0, "rental_uris": {"android": "https://dc.lft.to/lastmile_qr_scan", "ios": "https://dc.lft.to/lastmile_qr_scan"}, "name": "f69e675407c5287008fdc1f55123c50c", "type": "electric_scooter", "lat": 38.90966866666667, "is_disabled": 0}, {"fusion_lat": 0.0, "lon": -76.9336655, "is_reserved": 0, "bike_id": "2bd3d3c00f27bbde55a96ce893891596", "fusion_lon": 0.0, "rental_uris": {"android": "https://dc.lft.to/lastmile_qr_scan", "ios": "https://dc.lft.to/lastmile_qr_scan"}, "name": "2bd3d3c00f27bbde55a96ce893891596", "type": "electric_scooter", "lat": 38.89912016666667, "is_disabled": 0}, {"fusion_lat": 0.0, "lon": -77.0535185, "is_reserved": 0, "bike_id": "2c0a702986307727ff562cb6e55949cb", "fusion_lon": 0.0, "rental_uris": {"android": "https://dc.lft.to/lastmile_qr_scan", "ios": "https://dc.lft.to/lastmile_qr_scan"}, "name": "2c0a702986307727ff562cb6e55949cb", "type": "electric_scooter", "lat": 38.92721216666666, "is_disabled": 0}, {"fusion_lat": 0.0, "lon": -76.99578033333333, "is_reserved": 0, "bike_id": "5c25e35d1d4a377c47c5596b312a2804", "fusion_lon": 0.0, "rental_uris": {"android": "https://dc.lft.to/lastmile_qr_scan", "ios": "https://dc.lft.to/lastmile_qr_scan"}, "name": "5c25e35d1d4a377c47c5596b312a2804", "type": "electric_bike", "lat": 38.85297966666667, "is_disabled": 0}, {"fusion_lat": 0.0, "lon": -77.03772383333333, "is_reserved": 0, "bike_id": "f971e467001a29d9ec5e4e0ed6cbb4b5", "fusion_lon": 0.0, "rental_uris": {"android": "https://dc.lft.to/lastmile_qr_scan", "ios": "https://dc.lft.to/lastmile_qr_scan"}, "name": "f971e467001a29d9ec5e4e0ed6cbb4b5", "type": "electric_scooter", "lat": 38.92203816666667, "is_disabled": 0}, {"fusion_lat": 0.0, "lon": -77.00339616666666, "is_reserved": 0, "bike_id": "eb37f4de50af77cfe4c242c46fdc7af6", "fusion_lon": 0.0, "rental_uris": {"android": "https://dc.lft.to/lastmile_qr_scan", "ios": "https://dc.lft.to/lastmile_qr_scan"}, "name": "eb37f4de50af77cfe4c242c46fdc7af6", "type": "electric_scooter", "lat": 38.886247, "is_disabled": 0}, {"fusion_lat": 0.0, "lon": -76.99529166666667, "is_reserved": 0, "bike_id": "ba5f0bdd1d85d9fcc4da48be178cdca1", "fusion_lon": 0.0, "rental_uris": {"android": "https://dc.lft.to/lastmile_qr_scan", "ios": "https://dc.lft.to/lastmile_qr_scan"}, "name": "ba5f0bdd1d85d9fcc4da48be178cdca1", "type": "electric_scooter", "lat": 38.883738666666666, "is_disabled": 0}, {"fusion_lat": 0.0, "lon": -77.01627833333333, "is_reserved": 0, "bike_id": "3febb84921b9c4cbfd1d2efe875a0e6b", "fusion_lon": 0.0, "rental_uris": {"android": "https://dc.lft.to/lastmile_qr_scan", "ios": "https://dc.lft.to/lastmile_qr_scan"}, "name": "3febb84921b9c4cbfd1d2efe875a0e6b", "type": "electric_scooter", "lat": 38.96552916666667, "is_disabled": 0}, {"fusion_lat": 0.0, "lon": -77.03263266666667, "is_reserved": 0, "bike_id": "24f9c8e5fb3150e863dcba60c7365809", "fusion_lon": 0.0, "rental_uris": {"android": "https://dc.lft.to/lastmile_qr_scan", "ios": "https://dc.lft.to/lastmile_qr_scan"}, "name": "24f9c8e5fb3150e863dcba60c7365809", "type": "electric_scooter", "lat": 38.94626566666667, "is_disabled": 0}, {"fusion_lat": 0.0, "lon": -77.03170433333334, "is_reserved": 0, "bike_id": "8abd043bb6605bb28e750f6b56f720cb", "fusion_lon": 0.0, "rental_uris": {"android": "https://dc.lft.to/lastmile_qr_scan", "ios": "https://dc.lft.to/lastmile_qr_scan"}, "name": "8abd043bb6605bb28e750f6b56f720cb", "type": "electric_scooter", "lat": 38.91792083333333, "is_disabled": 0}, {"fusion_lat": 0.0, "lon": -76.99546883333333, "is_reserved": 0, "bike_id": "eca3466e7803f6996a665cc87a902029", "fusion_lon": 0.0, "rental_uris": {"android": "https://dc.lft.to/lastmile_qr_scan", "ios": "https://dc.lft.to/lastmile_qr_scan"}, "name": "eca3466e7803f6996a665cc87a902029", "type": "electric_scooter", "lat": 38.86262716666667, "is_disabled": 0}, {"fusion_lat": 0.0, "lon": -77.04105583333333, "is_reserved": 0, "bike_id": "5b66268548636c30a94d3ff4be0091d9", "fusion_lon": 0.0, "rental_uris": {"android": "https://dc.lft.to/lastmile_qr_scan", "ios": "https://dc.lft.to/lastmile_qr_scan"}, "name": "5b66268548636c30a94d3ff4be0091d9", "type": "electric_scooter", "lat": 38.910587, "is_disabled": 0}, {"fusion_lat": 0.0, "lon": -77.033326, "is_reserved": 0, "bike_id": "99e35334718a6876bcc222f10086511d", "fusion_lon": 0.0, "rental_uris": {"android": "https://dc.lft.to/lastmile_qr_scan", "ios": "https://dc.lft.to/lastmile_qr_scan"}, "name": "99e35334718a6876bcc222f10086511d", "type": "electric_scooter", "lat": 38.921639666666664, "is_disabled": 0}, {"fusion_lat": 0.0, "lon": -76.99038866666666, "is_reserved": 0, "bike_id": "a573b9657aa0f8313bb17169b5c1a795", "fusion_lon": 0.0, "rental_uris": {"android": "https://dc.lft.to/lastmile_qr_scan", "ios": "https://dc.lft.to/lastmile_qr_scan"}, "name": "a573b9657aa0f8313bb17169b5c1a795", "type": "electric_scooter", "lat": 38.89852166666667, "is_disabled": 0}, {"fusion_lat": 0.0, "lon": -77.02391416666667, "is_reserved": 0, "bike_id": "513b704c8d8875d060ffb7ac2c86a673", "fusion_lon": 0.0, "rental_uris": {"android": "https://dc.lft.to/lastmile_qr_scan", "ios": "https://dc.lft.to/lastmile_qr_scan"}, "name": "513b704c8d8875d060ffb7ac2c86a673", "type": "electric_scooter", "lat": 38.92601766666667, "is_disabled": 0}, {"fusion_lat": 0.0, "lon": -77.00242983333334, "is_reserved": 0, "bike_id": "1510bccab69da684dd8bf78952acd1ae", "fusion_lon": 0.0, "rental_uris": {"android": "https://dc.lft.to/lastmile_qr_scan", "ios": "https://dc.lft.to/lastmile_qr_scan"}, "name": "1510bccab69da684dd8bf78952acd1ae", "type": "electric_scooter", "lat": 38.9572275, "is_disabled": 0}, {"fusion_lat": 0.0, "lon": -77.01695283333333, "is_reserved": 0, "bike_id": "8c16ab5d9d8d6f859b9d003390e9926a", "fusion_lon": 0.0, "rental_uris": {"android": "https://dc.lft.to/lastmile_qr_scan", "ios": "https://dc.lft.to/lastmile_qr_scan"}, "name": "8c16ab5d9d8d6f859b9d003390e9926a", "type": "electric_scooter", "lat": 38.975083833333336, "is_disabled": 0}, {"fusion_lat": 0.0, "lon": -76.988226, "is_reserved": 0, "bike_id": "305bc284f256c3ea23a10952200b239d", "fusion_lon": 0.0, "rental_uris": {"android": "https://dc.lft.to/lastmile_qr_scan", "ios": "https://dc.lft.to/lastmile_qr_scan"}, "name": "305bc284f256c3ea23a10952200b239d", "type": "electric_scooter", "lat": 38.89072383333333, "is_disabled": 0}, {"fusion_lat": 0.0, "lon": -76.9691955, "is_reserved": 0, "bike_id": "7a1764ed513d2fba360e4c7832bdcfd7", "fusion_lon": 0.0, "rental_uris": {"android": "https://dc.lft.to/lastmile_qr_scan", "ios": "https://dc.lft.to/lastmile_qr_scan"}, "name": "7a1764ed513d2fba360e4c7832bdcfd7", "type": "electric_bike", "lat": 38.951217166666666, "is_disabled": 0}, {"fusion_lat": 0.0, "lon": -77.029788, "is_reserved": 0, "bike_id": "159a237978acc85092cef734c9e898e5", "fusion_lon": 0.0, "rental_uris": {"android": "https://dc.lft.to/lastmile_qr_scan", "ios": "https://dc.lft.to/lastmile_qr_scan"}, "name": "159a237978acc85092cef734c9e898e5", "type": "electric_scooter", "lat": 38.92195616666667, "is_disabled": 0}, {"fusion_lat": 0.0, "lon": -77.228028, "is_reserved": 0, "bike_id": "8a3ae39c72eb4c03f7f69c889e901869", "fusion_lon": 0.0, "rental_uris": {"android": "https://dc.lft.to/lastmile_qr_scan", "ios": "https://dc.lft.to/lastmile_qr_scan"}, "name": "8a3ae39c72eb4c03f7f69c889e901869", "type": "electric_bike", "lat": 38.91018583333334, "is_disabled": 0}, {"fusion_lat": 0.0, "lon": -77.04768633333333, "is_reserved": 0, "bike_id": "5769a8b71a4316b0af04fb496460442f", "fusion_lon": 0.0, "rental_uris": {"android": "https://dc.lft.to/lastmile_qr_scan", "ios": "https://dc.lft.to/lastmile_qr_scan"}, "name": "5769a8b71a4316b0af04fb496460442f", "type": "electric_scooter", "lat": 38.917621, "is_disabled": 0}, {"fusion_lat": 0.0, "lon": -77.01120816666666, "is_reserved": 0, "bike_id": "c5d02bbf6b065310b37bc653e3f7af21", "fusion_lon": 0.0, "rental_uris": {"android": "https://dc.lft.to/lastmile_qr_scan", "ios": "https://dc.lft.to/lastmile_qr_scan"}, "name": "c5d02bbf6b065310b37bc653e3f7af21", "type": "electric_scooter", "lat": 38.894991166666664, "is_disabled": 0}, {"fusion_lat": 0.0, "lon": -77.01769633333333, "is_reserved": 0, "bike_id": "8f2f565bcf18342145cb5a2845ac2b91", "fusion_lon": 0.0, "rental_uris": {"android": "https://dc.lft.to/lastmile_qr_scan", "ios": "https://dc.lft.to/lastmile_qr_scan"}, "name": "8f2f565bcf18342145cb5a2845ac2b91", "type": "electric_scooter", "lat": 38.90401216666667, "is_disabled": 0}, {"fusion_lat": 0.0, "lon": -77.0248735, "is_reserved": 0, "bike_id": "66ad0cbecab2ef9a10f57dde52bca44e", "fusion_lon": 0.0, "rental_uris": {"android": "https://dc.lft.to/lastmile_qr_scan", "ios": "https://dc.lft.to/lastmile_qr_scan"}, "name": "66ad0cbecab2ef9a10f57dde52bca44e", "type": "electric_scooter", "lat": 38.938761166666666, "is_disabled": 0}, {"fusion_lat": 0.0, "lon": -77.05486016666667, "is_reserved": 0, "bike_id": "cfbae1281f895d6419cdc93bc64b974a", "fusion_lon": 0.0, "rental_uris": {"android": "https://dc.lft.to/lastmile_qr_scan", "ios": "https://dc.lft.to/lastmile_qr_scan"}, "name": "cfbae1281f895d6419cdc93bc64b974a", "type": "electric_scooter", "lat": 38.893839666666665, "is_disabled": 0}, {"fusion_lat": 0.0, "lon": -77.0501805, "is_reserved": 0, "bike_id": "548d3144d9287665fb2941fe7694a621", "fusion_lon": 0.0, "rental_uris": {"android": "https://dc.lft.to/lastmile_qr_scan", "ios": "https://dc.lft.to/lastmile_qr_scan"}, "name": "548d3144d9287665fb2941fe7694a621", "type": "electric_scooter", "lat": 38.9054495, "is_disabled": 0}, {"fusion_lat": 0.0, "lon": -77.0196365, "is_reserved": 0, "bike_id": "9ad4bc2fa09400fa65be5ab8aab6fbdd", "fusion_lon": 0.0, "rental_uris": {"android": "https://dc.lft.to/lastmile_qr_scan", "ios": "https://dc.lft.to/lastmile_qr_scan"}, "name": "9ad4bc2fa09400fa65be5ab8aab6fbdd", "type": "electric_scooter", "lat": 38.950187166666666, "is_disabled": 0}, {"fusion_lat": 0.0, "lon": -77.02364833333333, "is_reserved": 0, "bike_id": "c33128c58c2c8c882fee6a418a4fc61b", "fusion_lon": 0.0, "rental_uris": {"android": "https://dc.lft.to/lastmile_qr_scan", "ios": "https://dc.lft.to/lastmile_qr_scan"}, "name": "c33128c58c2c8c882fee6a418a4fc61b", "type": "electric_scooter", "lat": 38.8921895, "is_disabled": 0}, {"fusion_lat": 0.0, "lon": -77.03011533333333, "is_reserved": 0, "bike_id": "15257b3abeeb7d0cbb105f54181a8053", "fusion_lon": 0.0, "rental_uris": {"android": "https://dc.lft.to/lastmile_qr_scan", "ios": "https://dc.lft.to/lastmile_qr_scan"}, "name": "15257b3abeeb7d0cbb105f54181a8053", "type": "electric_scooter", "lat": 38.926740333333335, "is_disabled": 0}, {"fusion_lat": 0.0, "lon": -77.03849483333333, "is_reserved": 0, "bike_id": "b1bd9b7c143bddae1f91ec9b6601605f", "fusion_lon": 0.0, "rental_uris": {"android": "https://dc.lft.to/lastmile_qr_scan", "ios": "https://dc.lft.to/lastmile_qr_scan"}, "name": "b1bd9b7c143bddae1f91ec9b6601605f", "type": "electric_scooter", "lat": 38.92168483333333, "is_disabled": 0}, {"fusion_lat": 0.0, "lon": -77.063258, "is_reserved": 0, "bike_id": "3573188e18c1fbb3d670925d978844aa", "fusion_lon": 0.0, "rental_uris": {"android": "https://dc.lft.to/lastmile_qr_scan", "ios": "https://dc.lft.to/lastmile_qr_scan"}, "name": "3573188e18c1fbb3d670925d978844aa", "type": "electric_scooter", "lat": 38.944164, "is_disabled": 0}, {"fusion_lat": 0.0, "lon": -77.019989, "is_reserved": 0, "bike_id": "313f0ccc602bafb0450024a9a2da236f", "fusion_lon": 0.0, "rental_uris": {"android": "https://dc.lft.to/lastmile_qr_scan", "ios": "https://dc.lft.to/lastmile_qr_scan"}, "name": "313f0ccc602bafb0450024a9a2da236f", "type": "electric_scooter", "lat": 38.88588933333333, "is_disabled": 0}, {"fusion_lat": 0.0, "lon": -76.95403366666666, "is_reserved": 0, "bike_id": "93818208fa58fdc0f6c1187ab10bfa06", "fusion_lon": 0.0, "rental_uris": {"android": "https://dc.lft.to/lastmile_qr_scan", "ios": "https://dc.lft.to/lastmile_qr_scan"}, "name": "93818208fa58fdc0f6c1187ab10bfa06", "type": "electric_scooter", "lat": 38.88466733333333, "is_disabled": 0}, {"fusion_lat": 0.0, "lon": -77.027138, "is_reserved": 0, "bike_id": "3577b81576123a8659f8384dabe3aab2", "fusion_lon": 0.0, "rental_uris": {"android": "https://dc.lft.to/lastmile_qr_scan", "ios": "https://dc.lft.to/lastmile_qr_scan"}, "name": "3577b81576123a8659f8384dabe3aab2", "type": "electric_scooter", "lat": 38.906698, "is_disabled": 0}, {"fusion_lat": 0.0, "lon": -77.059177, "is_reserved": 0, "bike_id": "e25c15b5ef6b277479b79ce5d5aca1bc", "fusion_lon": 0.0, "rental_uris": {"android": "https://dc.lft.to/lastmile_qr_scan", "ios": "https://dc.lft.to/lastmile_qr_scan"}, "name": "e25c15b5ef6b277479b79ce5d5aca1bc", "type": "electric_scooter", "lat": 38.9015865, "is_disabled": 0}, {"fusion_lat": 0.0, "lon": -77.05063983333334, "is_reserved": 0, "bike_id": "7a45f7c1ba69baaf05802080084e31fd", "fusion_lon": 0.0, "rental_uris": {"android": "https://dc.lft.to/lastmile_qr_scan", "ios": "https://dc.lft.to/lastmile_qr_scan"}, "name": "7a45f7c1ba69baaf05802080084e31fd", "type": "electric_scooter", "lat": 38.905358, "is_disabled": 0}, {"fusion_lat": 0.0, "lon": -76.98712833333333, "is_reserved": 0, "bike_id": "2975deb0b8784889cf343c342f232c23", "fusion_lon": 0.0, "rental_uris": {"android": "https://dc.lft.to/lastmile_qr_scan", "ios": "https://dc.lft.to/lastmile_qr_scan"}, "name": "2975deb0b8784889cf343c342f232c23", "type": "electric_scooter", "lat": 38.86624366666667, "is_disabled": 0}, {"fusion_lat": 0.0, "lon": -77.00713816666666, "is_reserved": 0, "bike_id": "f3d15f20939c5acfb25c68beae26f577", "fusion_lon": 0.0, "rental_uris": {"android": "https://dc.lft.to/lastmile_qr_scan", "ios": "https://dc.lft.to/lastmile_qr_scan"}, "name": "f3d15f20939c5acfb25c68beae26f577", "type": "electric_scooter", "lat": 38.905776, "is_disabled": 0}, {"fusion_lat": 0.0, "lon": -77.04808483333333, "is_reserved": 0, "bike_id": "dea9d46de89ac7d2e87ee3e274a1e82a", "fusion_lon": 0.0, "rental_uris": {"android": "https://dc.lft.to/lastmile_qr_scan", "ios": "https://dc.lft.to/lastmile_qr_scan"}, "name": "dea9d46de89ac7d2e87ee3e274a1e82a", "type": "electric_scooter", "lat": 38.919153666666666, "is_disabled": 0}, {"fusion_lat": 0.0, "lon": -77.00993066666666, "is_reserved": 0, "bike_id": "c6c853d65fd91181356dc85366e38150", "fusion_lon": 0.0, "rental_uris": {"android": "https://dc.lft.to/lastmile_qr_scan", "ios": "https://dc.lft.to/lastmile_qr_scan"}, "name": "c6c853d65fd91181356dc85366e38150", "type": "electric_scooter", "lat": 38.8728785, "is_disabled": 0}, {"fusion_lat": 0.0, "lon": -77.02392683333333, "is_reserved": 0, "bike_id": "30f2a2d4fa61922a2d91095794a108fc", "fusion_lon": 0.0, "rental_uris": {"android": "https://dc.lft.to/lastmile_qr_scan", "ios": "https://dc.lft.to/lastmile_qr_scan"}, "name": "30f2a2d4fa61922a2d91095794a108fc", "type": "electric_scooter", "lat": 38.91602816666666, "is_disabled": 0}, {"fusion_lat": 0.0, "lon": -77.041804, "is_reserved": 0, "bike_id": "094952167fc1dc30ee3464591c515a20", "fusion_lon": 0.0, "rental_uris": {"android": "https://dc.lft.to/lastmile_qr_scan", "ios": "https://dc.lft.to/lastmile_qr_scan"}, "name": "094952167fc1dc30ee3464591c515a20", "type": "electric_scooter", "lat": 38.91662516666667, "is_disabled": 0}, {"fusion_lat": 0.0, "lon": -76.93881416666666, "is_reserved": 0, "bike_id": "ddd8f8d2efe3aed791f5f057e2d50f10", "fusion_lon": 0.0, "rental_uris": {"android": "https://dc.lft.to/lastmile_qr_scan", "ios": "https://dc.lft.to/lastmile_qr_scan"}, "name": "ddd8f8d2efe3aed791f5f057e2d50f10", "type": "electric_bike", "lat": 38.95641766666667, "is_disabled": 0}, {"fusion_lat": 0.0, "lon": -76.994245, "is_reserved": 0, "bike_id": "36f70316ad6b5acc9dfe51d5cd598e1e", "fusion_lon": 0.0, "rental_uris": {"android": "https://dc.lft.to/lastmile_qr_scan", "ios": "https://dc.lft.to/lastmile_qr_scan"}, "name": "36f70316ad6b5acc9dfe51d5cd598e1e", "type": "electric_scooter", "lat": 38.950484333333335, "is_disabled": 0}, {"fusion_lat": 0.0, "lon": -77.0448795, "is_reserved": 0, "bike_id": "39c9bd77505366a3c4fbc75c6d81f60a", "fusion_lon": 0.0, "rental_uris": {"android": "https://dc.lft.to/lastmile_qr_scan", "ios": "https://dc.lft.to/lastmile_qr_scan"}, "name": "39c9bd77505366a3c4fbc75c6d81f60a", "type": "electric_scooter", "lat": 38.907809, "is_disabled": 0}, {"fusion_lat": 0.0, "lon": -77.02154133333333, "is_reserved": 0, "bike_id": "09e4c8cb7ae40103ca8b573b72893c30", "fusion_lon": 0.0, "rental_uris": {"android": "https://dc.lft.to/lastmile_qr_scan", "ios": "https://dc.lft.to/lastmile_qr_scan"}, "name": "09e4c8cb7ae40103ca8b573b72893c30", "type": "electric_scooter", "lat": 38.87923583333333, "is_disabled": 0}, {"fusion_lat": 0.0, "lon": -77.00371966666667, "is_reserved": 0, "bike_id": "fe9d64be3c9865fcc5d6e0970b56aa20", "fusion_lon": 0.0, "rental_uris": {"android": "https://dc.lft.to/lastmile_qr_scan", "ios": "https://dc.lft.to/lastmile_qr_scan"}, "name": "fe9d64be3c9865fcc5d6e0970b56aa20", "type": "electric_scooter", "lat": 38.89731966666667, "is_disabled": 0}, {"fusion_lat": 0.0, "lon": -77.02702866666667, "is_reserved": 0, "bike_id": "8e56d93fae3ba2efe6ca867a9be4d2af", "fusion_lon": 0.0, "rental_uris": {"android": "https://dc.lft.to/lastmile_qr_scan", "ios": "https://dc.lft.to/lastmile_qr_scan"}, "name": "8e56d93fae3ba2efe6ca867a9be4d2af", "type": "electric_scooter", "lat": 38.92332366666667, "is_disabled": 0}, {"fusion_lat": 0.0, "lon": -77.03988316666667, "is_reserved": 0, "bike_id": "9f39e19d11744b0e2867eaf2421b41bd", "fusion_lon": 0.0, "rental_uris": {"android": "https://dc.lft.to/lastmile_qr_scan", "ios": "https://dc.lft.to/lastmile_qr_scan"}, "name": "9f39e19d11744b0e2867eaf2421b41bd", "type": "electric_scooter", "lat": 38.917643166666664, "is_disabled": 0}, {"fusion_lat": 0.0, "lon": -77.01132666666666, "is_reserved": 0, "bike_id": "a1d110c1198b1431f7b23885920da9d3", "fusion_lon": 0.0, "rental_uris": {"android": "https://dc.lft.to/lastmile_qr_scan", "ios": "https://dc.lft.to/lastmile_qr_scan"}, "name": "a1d110c1198b1431f7b23885920da9d3", "type": "electric_scooter", "lat": 38.880389666666666, "is_disabled": 0}, {"fusion_lat": 0.0, "lon": -77.01816366666667, "is_reserved": 0, "bike_id": "411f9dc45d86072dda9c506b111370e7", "fusion_lon": 0.0, "rental_uris": {"android": "https://dc.lft.to/lastmile_qr_scan", "ios": "https://dc.lft.to/lastmile_qr_scan"}, "name": "411f9dc45d86072dda9c506b111370e7", "type": "electric_scooter", "lat": 38.9096845, "is_disabled": 0}, {"fusion_lat": 0.0, "lon": -76.98032066666667, "is_reserved": 0, "bike_id": "57bba6ca9fe4bc7fc9168f4b1a33b93d", "fusion_lon": 0.0, "rental_uris": {"android": "https://dc.lft.to/lastmile_qr_scan", "ios": "https://dc.lft.to/lastmile_qr_scan"}, "name": "57bba6ca9fe4bc7fc9168f4b1a33b93d", "type": "electric_bike", "lat": 38.889646166666665, "is_disabled": 0}, {"fusion_lat": 0.0, "lon": -76.99766066666666, "is_reserved": 0, "bike_id": "59fb9001676cdaa4674c4150ff53e3f1", "fusion_lon": 0.0, "rental_uris": {"android": "https://dc.lft.to/lastmile_qr_scan", "ios": "https://dc.lft.to/lastmile_qr_scan"}, "name": "59fb9001676cdaa4674c4150ff53e3f1", "type": "electric_scooter", "lat": 38.911156, "is_disabled": 0}, {"fusion_lat": 0.0, "lon": -77.03347566666666, "is_reserved": 0, "bike_id": "c8f6d461af8ac9156219cf91b5077c3b", "fusion_lon": 0.0, "rental_uris": {"android": "https://dc.lft.to/lastmile_qr_scan", "ios": "https://dc.lft.to/lastmile_qr_scan"}, "name": "c8f6d461af8ac9156219cf91b5077c3b", "type": "electric_scooter", "lat": 38.8989725, "is_disabled": 0}, {"fusion_lat": 0.0, "lon": -77.01621316666666, "is_reserved": 0, "bike_id": "333c830008bf76621f2c7b503a67a21c", "fusion_lon": 0.0, "rental_uris": {"android": "https://dc.lft.to/lastmile_qr_scan", "ios": "https://dc.lft.to/lastmile_qr_scan"}, "name": "333c830008bf76621f2c7b503a67a21c", "type": "electric_scooter", "lat": 38.9036525, "is_disabled": 0}, {"fusion_lat": 0.0, "lon": -76.99508633333333, "is_reserved": 0, "bike_id": "f4aa228428148f375859827275e1b4bb", "fusion_lon": 0.0, "rental_uris": {"android": "https://dc.lft.to/lastmile_qr_scan", "ios": "https://dc.lft.to/lastmile_qr_scan"}, "name": "f4aa228428148f375859827275e1b4bb", "type": "electric_scooter", "lat": 38.88260116666667, "is_disabled": 0}, {"fusion_lat": 0.0, "lon": -77.04174166666667, "is_reserved": 0, "bike_id": "0741c5ab5c702408e9b3bc6b44ae8d98", "fusion_lon": 0.0, "rental_uris": {"android": "https://dc.lft.to/lastmile_qr_scan", "ios": "https://dc.lft.to/lastmile_qr_scan"}, "name": "0741c5ab5c702408e9b3bc6b44ae8d98", "type": "electric_scooter", "lat": 38.917302, "is_disabled": 0}, {"fusion_lat": 0.0, "lon": -77.07707666666667, "is_reserved": 0, "bike_id": "51f1a3128f106b25bd9c4244f5da593b", "fusion_lon": 0.0, "rental_uris": {"android": "https://dc.lft.to/lastmile_qr_scan", "ios": "https://dc.lft.to/lastmile_qr_scan"}, "name": "51f1a3128f106b25bd9c4244f5da593b", "type": "electric_bike", "lat": 38.84091166666666, "is_disabled": 0}, {"fusion_lat": 0.0, "lon": -77.0435345, "is_reserved": 0, "bike_id": "44d5305951e7b80357e27226a4fb9e24", "fusion_lon": 0.0, "rental_uris": {"android": "https://dc.lft.to/lastmile_qr_scan", "ios": "https://dc.lft.to/lastmile_qr_scan"}, "name": "44d5305951e7b80357e27226a4fb9e24", "type": "electric_scooter", "lat": 38.903274, "is_disabled": 0}, {"fusion_lat": 0.0, "lon": -77.04323966666666, "is_reserved": 0, "bike_id": "c761496f0f68f20b15f481538fc623bc", "fusion_lon": 0.0, "rental_uris": {"android": "https://dc.lft.to/lastmile_qr_scan", "ios": "https://dc.lft.to/lastmile_qr_scan"}, "name": "c761496f0f68f20b15f481538fc623bc", "type": "electric_scooter", "lat": 38.89223366666667, "is_disabled": 0}, {"fusion_lat": 0.0, "lon": -76.9992315, "is_reserved": 0, "bike_id": "cdd78381ab4f3a98113886f28c697bcb", "fusion_lon": 0.0, "rental_uris": {"android": "https://dc.lft.to/lastmile_qr_scan", "ios": "https://dc.lft.to/lastmile_qr_scan"}, "name": "cdd78381ab4f3a98113886f28c697bcb", "type": "electric_scooter", "lat": 38.907811833333334, "is_disabled": 0}, {"fusion_lat": 0.0, "lon": -77.037665, "is_reserved": 0, "bike_id": "c0af8e6efd69ef23ba4a9d67027adff5", "fusion_lon": 0.0, "rental_uris": {"android": "https://dc.lft.to/lastmile_qr_scan", "ios": "https://dc.lft.to/lastmile_qr_scan"}, "name": "c0af8e6efd69ef23ba4a9d67027adff5", "type": "electric_scooter", "lat": 38.90683833333333, "is_disabled": 0}, {"fusion_lat": 0.0, "lon": -77.03179483333334, "is_reserved": 0, "bike_id": "a695f26cc9348f8ef3f089ab089a3df6", "fusion_lon": 0.0, "rental_uris": {"android": "https://dc.lft.to/lastmile_qr_scan", "ios": "https://dc.lft.to/lastmile_qr_scan"}, "name": "a695f26cc9348f8ef3f089ab089a3df6", "type": "electric_scooter", "lat": 38.91816133333333, "is_disabled": 0}, {"fusion_lat": 0.0, "lon": -77.02997816666667, "is_reserved": 0, "bike_id": "9c0510e62405a489fab839023381aeb1", "fusion_lon": 0.0, "rental_uris": {"android": "https://dc.lft.to/lastmile_qr_scan", "ios": "https://dc.lft.to/lastmile_qr_scan"}, "name": "9c0510e62405a489fab839023381aeb1", "type": "electric_scooter", "lat": 38.92043533333333, "is_disabled": 0}, {"fusion_lat": 0.0, "lon": -76.97641366666667, "is_reserved": 0, "bike_id": "487d6e8c6f050d2abc386d381ef1d6bf", "fusion_lon": 0.0, "rental_uris": {"android": "https://dc.lft.to/lastmile_qr_scan", "ios": "https://dc.lft.to/lastmile_qr_scan"}, "name": "487d6e8c6f050d2abc386d381ef1d6bf", "type": "electric_scooter", "lat": 38.864580833333335, "is_disabled": 0}, {"fusion_lat": 0.0, "lon": -77.03831083333333, "is_reserved": 0, "bike_id": "74d671d954feed1265278cd67dd2606e", "fusion_lon": 0.0, "rental_uris": {"android": "https://dc.lft.to/lastmile_qr_scan", "ios": "https://dc.lft.to/lastmile_qr_scan"}, "name": "74d671d954feed1265278cd67dd2606e", "type": "electric_scooter", "lat": 38.911217666666666, "is_disabled": 0}, {"fusion_lat": 0.0, "lon": -76.99509633333334, "is_reserved": 0, "bike_id": "5e1bd86b5d1bebc67a195762a779b306", "fusion_lon": 0.0, "rental_uris": {"android": "https://dc.lft.to/lastmile_qr_scan", "ios": "https://dc.lft.to/lastmile_qr_scan"}, "name": "5e1bd86b5d1bebc67a195762a779b306", "type": "electric_scooter", "lat": 38.89728383333333, "is_disabled": 0}, {"fusion_lat": 0.0, "lon": -76.98014383333333, "is_reserved": 0, "bike_id": "ce0c1f2fb19f55897ccfe0b42c0ae41d", "fusion_lon": 0.0, "rental_uris": {"android": "https://dc.lft.to/lastmile_qr_scan", "ios": "https://dc.lft.to/lastmile_qr_scan"}, "name": "ce0c1f2fb19f55897ccfe0b42c0ae41d", "type": "electric_bike", "lat": 38.85321116666667, "is_disabled": 0}, {"fusion_lat": 0.0, "lon": -76.9575615, "is_reserved": 0, "bike_id": "c8bcc436de204fa16e8a86896f55f8fc", "fusion_lon": 0.0, "rental_uris": {"android": "https://dc.lft.to/lastmile_qr_scan", "ios": "https://dc.lft.to/lastmile_qr_scan"}, "name": "c8bcc436de204fa16e8a86896f55f8fc", "type": "electric_scooter", "lat": 38.884327166666665, "is_disabled": 0}, {"fusion_lat": 0.0, "lon": -77.03891183333333, "is_reserved": 0, "bike_id": "e437ccd462528a3fb92086ae4a8f349b", "fusion_lon": 0.0, "rental_uris": {"android": "https://dc.lft.to/lastmile_qr_scan", "ios": "https://dc.lft.to/lastmile_qr_scan"}, "name": "e437ccd462528a3fb92086ae4a8f349b", "type": "electric_scooter", "lat": 38.910172833333334, "is_disabled": 0}, {"fusion_lat": 0.0, "lon": -77.00925316666667, "is_reserved": 0, "bike_id": "c9b4c0c5e41afedb26927538b4e0e98c", "fusion_lon": 0.0, "rental_uris": {"android": "https://dc.lft.to/lastmile_qr_scan", "ios": "https://dc.lft.to/lastmile_qr_scan"}, "name": "c9b4c0c5e41afedb26927538b4e0e98c", "type": "electric_scooter", "lat": 38.896042666666666, "is_disabled": 0}, {"fusion_lat": 0.0, "lon": -77.05323083333333, "is_reserved": 0, "bike_id": "fe25235c88f9a091e79129aca22cff8b", "fusion_lon": 0.0, "rental_uris": {"android": "https://dc.lft.to/lastmile_qr_scan", "ios": "https://dc.lft.to/lastmile_qr_scan"}, "name": "fe25235c88f9a091e79129aca22cff8b", "type": "electric_scooter", "lat": 38.91557266666667, "is_disabled": 0}, {"fusion_lat": 0.0, "lon": -77.04304533333334, "is_reserved": 0, "bike_id": "cddfc52c265210ab3825c768aa43e2e4", "fusion_lon": 0.0, "rental_uris": {"android": "https://dc.lft.to/lastmile_qr_scan", "ios": "https://dc.lft.to/lastmile_qr_scan"}, "name": "cddfc52c265210ab3825c768aa43e2e4", "type": "electric_scooter", "lat": 38.92323433333333, "is_disabled": 0}, {"fusion_lat": 0.0, "lon": -77.03435316666666, "is_reserved": 0, "bike_id": "fa6481eb6a37b6141907078de417fbbb", "fusion_lon": 0.0, "rental_uris": {"android": "https://dc.lft.to/lastmile_qr_scan", "ios": "https://dc.lft.to/lastmile_qr_scan"}, "name": "fa6481eb6a37b6141907078de417fbbb", "type": "electric_scooter", "lat": 38.91931, "is_disabled": 0}, {"fusion_lat": 0.0, "lon": -76.97333016666667, "is_reserved": 0, "bike_id": "6ce4431e0ce66e12cd6827aa2131ff51", "fusion_lon": 0.0, "rental_uris": {"android": "https://dc.lft.to/lastmile_qr_scan", "ios": "https://dc.lft.to/lastmile_qr_scan"}, "name": "6ce4431e0ce66e12cd6827aa2131ff51", "type": "electric_scooter", "lat": 38.91775466666667, "is_disabled": 0}, {"fusion_lat": 0.0, "lon": -77.034844, "is_reserved": 0, "bike_id": "b5832aa08c045375da9f88aa06628ef0", "fusion_lon": 0.0, "rental_uris": {"android": "https://dc.lft.to/lastmile_qr_scan", "ios": "https://dc.lft.to/lastmile_qr_scan"}, "name": "b5832aa08c045375da9f88aa06628ef0", "type": "electric_scooter", "lat": 38.92151033333333, "is_disabled": 0}, {"fusion_lat": 0.0, "lon": -77.02566316666666, "is_reserved": 0, "bike_id": "1d33ad571e02e1b5a655889d28e1c728", "fusion_lon": 0.0, "rental_uris": {"android": "https://dc.lft.to/lastmile_qr_scan", "ios": "https://dc.lft.to/lastmile_qr_scan"}, "name": "1d33ad571e02e1b5a655889d28e1c728", "type": "electric_scooter", "lat": 38.91414983333333, "is_disabled": 0}, {"fusion_lat": 0.0, "lon": -77.0067495, "is_reserved": 0, "bike_id": "2580786d04a24c1501f0932e60482f6a", "fusion_lon": 0.0, "rental_uris": {"android": "https://dc.lft.to/lastmile_qr_scan", "ios": "https://dc.lft.to/lastmile_qr_scan"}, "name": "2580786d04a24c1501f0932e60482f6a", "type": "electric_scooter", "lat": 38.900337, "is_disabled": 0}, {"fusion_lat": 0.0, "lon": -77.0145535, "is_reserved": 0, "bike_id": "a7fe1e81cece4e0b82e25f3939c770cd", "fusion_lon": 0.0, "rental_uris": {"android": "https://dc.lft.to/lastmile_qr_scan", "ios": "https://dc.lft.to/lastmile_qr_scan"}, "name": "a7fe1e81cece4e0b82e25f3939c770cd", "type": "electric_bike", "lat": 38.876799166666665, "is_disabled": 0}, {"fusion_lat": 0.0, "lon": -76.9923285, "is_reserved": 0, "bike_id": "b634b79aa4f8991ca0eb568ca2fe3d73", "fusion_lon": 0.0, "rental_uris": {"android": "https://dc.lft.to/lastmile_qr_scan", "ios": "https://dc.lft.to/lastmile_qr_scan"}, "name": "b634b79aa4f8991ca0eb568ca2fe3d73", "type": "electric_bike", "lat": 38.9386165, "is_disabled": 0}, {"fusion_lat": 0.0, "lon": -77.0858895, "is_reserved": 0, "bike_id": "8fe9e0578ec503a8ca3dfd2915fed857", "fusion_lon": 0.0, "rental_uris": {"android": "https://dc.lft.to/lastmile_qr_scan", "ios": "https://dc.lft.to/lastmile_qr_scan"}, "name": "8fe9e0578ec503a8ca3dfd2915fed857", "type": "electric_bike", "lat": 38.84440283333333, "is_disabled": 0}, {"fusion_lat": 0.0, "lon": -76.972355, "is_reserved": 0, "bike_id": "5c478d2a81703ed356eab9f98fd0cf2b", "fusion_lon": 0.0, "rental_uris": {"android": "https://dc.lft.to/lastmile_qr_scan", "ios": "https://dc.lft.to/lastmile_qr_scan"}, "name": "5c478d2a81703ed356eab9f98fd0cf2b", "type": "electric_bike", "lat": 38.949106, "is_disabled": 0}, {"fusion_lat": 0.0, "lon": -77.02287, "is_reserved": 0, "bike_id": "1af51ec340f14d229bef0555ac01efdb", "fusion_lon": 0.0, "rental_uris": {"android": "https://dc.lft.to/lastmile_qr_scan", "ios": "https://dc.lft.to/lastmile_qr_scan"}, "name": "1af51ec340f14d229bef0555ac01efdb", "type": "electric_scooter", "lat": 38.88646516666667, "is_disabled": 0}, {"fusion_lat": 0.0, "lon": -77.05740316666666, "is_reserved": 0, "bike_id": "2c86a54c4d8e4957b1a7f26674422a41", "fusion_lon": 0.0, "rental_uris": {"android": "https://dc.lft.to/lastmile_qr_scan", "ios": "https://dc.lft.to/lastmile_qr_scan"}, "name": "2c86a54c4d8e4957b1a7f26674422a41", "type": "electric_scooter", "lat": 38.9339375, "is_disabled": 0}, {"fusion_lat": 0.0, "lon": -77.03642233333333, "is_reserved": 0, "bike_id": "c5e50f369ebebd6b95c4bb1af339bd3a", "fusion_lon": 0.0, "rental_uris": {"android": "https://dc.lft.to/lastmile_qr_scan", "ios": "https://dc.lft.to/lastmile_qr_scan"}, "name": "c5e50f369ebebd6b95c4bb1af339bd3a", "type": "electric_scooter", "lat": 38.921077, "is_disabled": 0}, {"fusion_lat": 0.0, "lon": -76.9810885, "is_reserved": 0, "bike_id": "ec56352a51b874989c30c6f09ca0649f", "fusion_lon": 0.0, "rental_uris": {"android": "https://dc.lft.to/lastmile_qr_scan", "ios": "https://dc.lft.to/lastmile_qr_scan"}, "name": "ec56352a51b874989c30c6f09ca0649f", "type": "electric_scooter", "lat": 38.903941, "is_disabled": 0}, {"fusion_lat": 0.0, "lon": -77.02802166666666, "is_reserved": 0, "bike_id": "23d512c7421372a1ccb0f94198355d0a", "fusion_lon": 0.0, "rental_uris": {"android": "https://dc.lft.to/lastmile_qr_scan", "ios": "https://dc.lft.to/lastmile_qr_scan"}, "name": "23d512c7421372a1ccb0f94198355d0a", "type": "electric_scooter", "lat": 38.90976933333334, "is_disabled": 0}, {"fusion_lat": 0.0, "lon": -77.042423, "is_reserved": 0, "bike_id": "839e354b9accd9cd18c9ae84cb903a46", "fusion_lon": 0.0, "rental_uris": {"android": "https://dc.lft.to/lastmile_qr_scan", "ios": "https://dc.lft.to/lastmile_qr_scan"}, "name": "839e354b9accd9cd18c9ae84cb903a46", "type": "electric_scooter", "lat": 38.9171195, "is_disabled": 0}, {"fusion_lat": 0.0, "lon": -76.98512483333333, "is_reserved": 0, "bike_id": "818658c69f91ae82a863eae6f17710d8", "fusion_lon": 0.0, "rental_uris": {"android": "https://dc.lft.to/lastmile_qr_scan", "ios": "https://dc.lft.to/lastmile_qr_scan"}, "name": "818658c69f91ae82a863eae6f17710d8", "type": "electric_scooter", "lat": 38.866553, "is_disabled": 0}, {"fusion_lat": 0.0, "lon": -77.046535, "is_reserved": 0, "bike_id": "9febfa2177597cbf6415b419246349b0", "fusion_lon": 0.0, "rental_uris": {"android": "https://dc.lft.to/lastmile_qr_scan", "ios": "https://dc.lft.to/lastmile_qr_scan"}, "name": "9febfa2177597cbf6415b419246349b0", "type": "electric_scooter", "lat": 38.90335133333333, "is_disabled": 0}, {"fusion_lat": 0.0, "lon": -77.02772, "is_reserved": 0, "bike_id": "a2e8af0aa919cda3e399e3415ae6fccf", "fusion_lon": 0.0, "rental_uris": {"android": "https://dc.lft.to/lastmile_qr_scan", "ios": "https://dc.lft.to/lastmile_qr_scan"}, "name": "a2e8af0aa919cda3e399e3415ae6fccf", "type": "electric_scooter", "lat": 38.92974933333333, "is_disabled": 0}, {"fusion_lat": 0.0, "lon": -77.00069466666666, "is_reserved": 0, "bike_id": "c28eab332633c278f1fc8db6203cacdb", "fusion_lon": 0.0, "rental_uris": {"android": "https://dc.lft.to/lastmile_qr_scan", "ios": "https://dc.lft.to/lastmile_qr_scan"}, "name": "c28eab332633c278f1fc8db6203cacdb", "type": "electric_scooter", "lat": 38.899927166666664, "is_disabled": 0}, {"fusion_lat": 0.0, "lon": -76.990139, "is_reserved": 0, "bike_id": "a124c0860e850146f42dc9e287455c01", "fusion_lon": 0.0, "rental_uris": {"android": "https://dc.lft.to/lastmile_qr_scan", "ios": "https://dc.lft.to/lastmile_qr_scan"}, "name": "a124c0860e850146f42dc9e287455c01", "type": "electric_scooter", "lat": 38.881840833333335, "is_disabled": 0}, {"fusion_lat": 0.0, "lon": -77.02529316666667, "is_reserved": 0, "bike_id": "900a47892e34976935e6a1d7af9993aa", "fusion_lon": 0.0, "rental_uris": {"android": "https://dc.lft.to/lastmile_qr_scan", "ios": "https://dc.lft.to/lastmile_qr_scan"}, "name": "900a47892e34976935e6a1d7af9993aa", "type": "electric_scooter", "lat": 38.92093583333333, "is_disabled": 0}, {"fusion_lat": 0.0, "lon": -77.03285433333333, "is_reserved": 0, "bike_id": "065b9b5b22932b32f573622455fd710e", "fusion_lon": 0.0, "rental_uris": {"android": "https://dc.lft.to/lastmile_qr_scan", "ios": "https://dc.lft.to/lastmile_qr_scan"}, "name": "065b9b5b22932b32f573622455fd710e", "type": "electric_scooter", "lat": 38.92839583333333, "is_disabled": 0}, {"fusion_lat": 0.0, "lon": -77.04323633333334, "is_reserved": 0, "bike_id": "78a8d4893441e3ffb51526e597eb9234", "fusion_lon": 0.0, "rental_uris": {"android": "https://dc.lft.to/lastmile_qr_scan", "ios": "https://dc.lft.to/lastmile_qr_scan"}, "name": "78a8d4893441e3ffb51526e597eb9234", "type": "electric_scooter", "lat": 38.892238666666664, "is_disabled": 0}, {"fusion_lat": 0.0, "lon": -77.007322, "is_reserved": 0, "bike_id": "bed4c8796d95bc556457e9156f763482", "fusion_lon": 0.0, "rental_uris": {"android": "https://dc.lft.to/lastmile_qr_scan", "ios": "https://dc.lft.to/lastmile_qr_scan"}, "name": "bed4c8796d95bc556457e9156f763482", "type": "electric_scooter", "lat": 38.9058405, "is_disabled": 0}, {"fusion_lat": 0.0, "lon": -77.03476933333333, "is_reserved": 0, "bike_id": "087262933392116f63085c19ef6fff27", "fusion_lon": 0.0, "rental_uris": {"android": "https://dc.lft.to/lastmile_qr_scan", "ios": "https://dc.lft.to/lastmile_qr_scan"}, "name": "087262933392116f63085c19ef6fff27", "type": "electric_scooter", "lat": 38.90559733333333, "is_disabled": 0}, {"fusion_lat": 0.0, "lon": -77.03211166666667, "is_reserved": 0, "bike_id": "d478a326e11dcab72bec67af042f4363", "fusion_lon": 0.0, "rental_uris": {"android": "https://dc.lft.to/lastmile_qr_scan", "ios": "https://dc.lft.to/lastmile_qr_scan"}, "name": "d478a326e11dcab72bec67af042f4363", "type": "electric_scooter", "lat": 38.91780216666667, "is_disabled": 0}, {"fusion_lat": 0.0, "lon": -77.031749, "is_reserved": 0, "bike_id": "e2d6c1c2c4a6e39a5f2f19ea65447e2f", "fusion_lon": 0.0, "rental_uris": {"android": "https://dc.lft.to/lastmile_qr_scan", "ios": "https://dc.lft.to/lastmile_qr_scan"}, "name": "e2d6c1c2c4a6e39a5f2f19ea65447e2f", "type": "electric_scooter", "lat": 38.91556883333333, "is_disabled": 0}, {"fusion_lat": 0.0, "lon": -77.01257616666666, "is_reserved": 0, "bike_id": "1136ea731b5cdf34d7f5df1caf8cefba", "fusion_lon": 0.0, "rental_uris": {"android": "https://dc.lft.to/lastmile_qr_scan", "ios": "https://dc.lft.to/lastmile_qr_scan"}, "name": "1136ea731b5cdf34d7f5df1caf8cefba", "type": "electric_scooter", "lat": 38.90848966666667, "is_disabled": 0}, {"fusion_lat": 0.0, "lon": -77.001927, "is_reserved": 0, "bike_id": "8d283a2787b0cb8245b9af54957cb44c", "fusion_lon": 0.0, "rental_uris": {"android": "https://dc.lft.to/lastmile_qr_scan", "ios": "https://dc.lft.to/lastmile_qr_scan"}, "name": "8d283a2787b0cb8245b9af54957cb44c", "type": "electric_scooter", "lat": 38.90379466666667, "is_disabled": 0}, {"fusion_lat": 0.0, "lon": -77.0441965, "is_reserved": 0, "bike_id": "e12df98a048cbe6ba0dd3211274c0a45", "fusion_lon": 0.0, "rental_uris": {"android": "https://dc.lft.to/lastmile_qr_scan", "ios": "https://dc.lft.to/lastmile_qr_scan"}, "name": "e12df98a048cbe6ba0dd3211274c0a45", "type": "electric_scooter", "lat": 38.91359116666667, "is_disabled": 0}, {"fusion_lat": 0.0, "lon": -77.029364, "is_reserved": 0, "bike_id": "4b881596d4f03f68af2b805d0c101a1c", "fusion_lon": 0.0, "rental_uris": {"android": "https://dc.lft.to/lastmile_qr_scan", "ios": "https://dc.lft.to/lastmile_qr_scan"}, "name": "4b881596d4f03f68af2b805d0c101a1c", "type": "electric_scooter", "lat": 38.93263566666667, "is_disabled": 0}, {"fusion_lat": 0.0, "lon": -77.01990783333333, "is_reserved": 0, "bike_id": "9bce19d38b68f5aefedf71f9ad8aeabc", "fusion_lon": 0.0, "rental_uris": {"android": "https://dc.lft.to/lastmile_qr_scan", "ios": "https://dc.lft.to/lastmile_qr_scan"}, "name": "9bce19d38b68f5aefedf71f9ad8aeabc", "type": "electric_scooter", "lat": 38.913597833333334, "is_disabled": 0}, {"fusion_lat": 0.0, "lon": -77.07280383333334, "is_reserved": 0, "bike_id": "f9a5b70409af99808410a3f0910820bd", "fusion_lon": 0.0, "rental_uris": {"android": "https://dc.lft.to/lastmile_qr_scan", "ios": "https://dc.lft.to/lastmile_qr_scan"}, "name": "f9a5b70409af99808410a3f0910820bd", "type": "electric_scooter", "lat": 38.934793666666664, "is_disabled": 0}, {"fusion_lat": 0.0, "lon": -77.03810216666666, "is_reserved": 0, "bike_id": "6d702927b7b4518954ea54ece1cea891", "fusion_lon": 0.0, "rental_uris": {"android": "https://dc.lft.to/lastmile_qr_scan", "ios": "https://dc.lft.to/lastmile_qr_scan"}, "name": "6d702927b7b4518954ea54ece1cea891", "type": "electric_scooter", "lat": 38.909742333333334, "is_disabled": 0}, {"fusion_lat": 0.0, "lon": -77.023013, "is_reserved": 0, "bike_id": "3c620d2c7f689ae1ae696740dfd79f9a", "fusion_lon": 0.0, "rental_uris": {"android": "https://dc.lft.to/lastmile_qr_scan", "ios": "https://dc.lft.to/lastmile_qr_scan"}, "name": "3c620d2c7f689ae1ae696740dfd79f9a", "type": "electric_scooter", "lat": 38.9178015, "is_disabled": 0}, {"fusion_lat": 0.0, "lon": -77.01810633333334, "is_reserved": 0, "bike_id": "7cd27ac800c26093fbc0f8e0dae5c813", "fusion_lon": 0.0, "rental_uris": {"android": "https://dc.lft.to/lastmile_qr_scan", "ios": "https://dc.lft.to/lastmile_qr_scan"}, "name": "7cd27ac800c26093fbc0f8e0dae5c813", "type": "electric_scooter", "lat": 38.92368733333333, "is_disabled": 0}, {"fusion_lat": 0.0, "lon": -77.03792033333333, "is_reserved": 0, "bike_id": "f60aa9075e92f1ea76ea61d5dfc8859a", "fusion_lon": 0.0, "rental_uris": {"android": "https://dc.lft.to/lastmile_qr_scan", "ios": "https://dc.lft.to/lastmile_qr_scan"}, "name": "f60aa9075e92f1ea76ea61d5dfc8859a", "type": "electric_scooter", "lat": 38.925041, "is_disabled": 0}, {"fusion_lat": 0.0, "lon": -77.07237616666667, "is_reserved": 0, "bike_id": "6b7fb59eda67f7645f22937c73ffea65", "fusion_lon": 0.0, "rental_uris": {"android": "https://dc.lft.to/lastmile_qr_scan", "ios": "https://dc.lft.to/lastmile_qr_scan"}, "name": "6b7fb59eda67f7645f22937c73ffea65", "type": "electric_scooter", "lat": 38.959799333333336, "is_disabled": 0}, {"fusion_lat": 0.0, "lon": -77.023825, "is_reserved": 0, "bike_id": "bee8ba084c2d9af7e3cccccbfe703f24", "fusion_lon": 0.0, "rental_uris": {"android": "https://dc.lft.to/lastmile_qr_scan", "ios": "https://dc.lft.to/lastmile_qr_scan"}, "name": "bee8ba084c2d9af7e3cccccbfe703f24", "type": "electric_scooter", "lat": 38.929035999999996, "is_disabled": 0}, {"fusion_lat": 0.0, "lon": -77.03830333333333, "is_reserved": 0, "bike_id": "a8b6065e060b8b97bb130608dbf38280", "fusion_lon": 0.0, "rental_uris": {"android": "https://dc.lft.to/lastmile_qr_scan", "ios": "https://dc.lft.to/lastmile_qr_scan"}, "name": "a8b6065e060b8b97bb130608dbf38280", "type": "electric_scooter", "lat": 38.911226, "is_disabled": 0}, {"fusion_lat": 0.0, "lon": -77.0059835, "is_reserved": 0, "bike_id": "84944d935dff940fff247ef8a0489197", "fusion_lon": 0.0, "rental_uris": {"android": "https://dc.lft.to/lastmile_qr_scan", "ios": "https://dc.lft.to/lastmile_qr_scan"}, "name": "84944d935dff940fff247ef8a0489197", "type": "electric_scooter", "lat": 38.87547383333333, "is_disabled": 0}, {"fusion_lat": 0.0, "lon": -77.04545033333333, "is_reserved": 0, "bike_id": "069e41cb2080e227952d9b902a01efde", "fusion_lon": 0.0, "rental_uris": {"android": "https://dc.lft.to/lastmile_qr_scan", "ios": "https://dc.lft.to/lastmile_qr_scan"}, "name": "069e41cb2080e227952d9b902a01efde", "type": "electric_scooter", "lat": 38.90973316666667, "is_disabled": 0}, {"fusion_lat": 0.0, "lon": -77.03856716666667, "is_reserved": 0, "bike_id": "05b709959a82518551582894d3c34dcf", "fusion_lon": 0.0, "rental_uris": {"android": "https://dc.lft.to/lastmile_qr_scan", "ios": "https://dc.lft.to/lastmile_qr_scan"}, "name": "05b709959a82518551582894d3c34dcf", "type": "electric_scooter", "lat": 38.906506, "is_disabled": 0}, {"fusion_lat": 0.0, "lon": -77.05115966666666, "is_reserved": 0, "bike_id": "e7032fdeb098991ffc2f59829cfeeea5", "fusion_lon": 0.0, "rental_uris": {"android": "https://dc.lft.to/lastmile_qr_scan", "ios": "https://dc.lft.to/lastmile_qr_scan"}, "name": "e7032fdeb098991ffc2f59829cfeeea5", "type": "electric_scooter", "lat": 38.897631833333335, "is_disabled": 0}, {"fusion_lat": 0.0, "lon": -76.98457366666666, "is_reserved": 0, "bike_id": "1072232c2b3b6a199c82f078d0020a37", "fusion_lon": 0.0, "rental_uris": {"android": "https://dc.lft.to/lastmile_qr_scan", "ios": "https://dc.lft.to/lastmile_qr_scan"}, "name": "1072232c2b3b6a199c82f078d0020a37", "type": "electric_scooter", "lat": 38.90024533333333, "is_disabled": 0}, {"fusion_lat": 0.0, "lon": -77.000677, "is_reserved": 0, "bike_id": "e87ebda751c5026bdcd7c4b32ead92a8", "fusion_lon": 0.0, "rental_uris": {"android": "https://dc.lft.to/lastmile_qr_scan", "ios": "https://dc.lft.to/lastmile_qr_scan"}, "name": "e87ebda751c5026bdcd7c4b32ead92a8", "type": "electric_scooter", "lat": 38.900526166666666, "is_disabled": 0}, {"fusion_lat": 0.0, "lon": -77.02411433333333, "is_reserved": 0, "bike_id": "ce95e2dbc93b190da44ef4e24d5ee13f", "fusion_lon": 0.0, "rental_uris": {"android": "https://dc.lft.to/lastmile_qr_scan", "ios": "https://dc.lft.to/lastmile_qr_scan"}, "name": "ce95e2dbc93b190da44ef4e24d5ee13f", "type": "electric_scooter", "lat": 38.93383633333333, "is_disabled": 0}, {"fusion_lat": 0.0, "lon": -77.0265355, "is_reserved": 0, "bike_id": "c8740f6059366f6012bb0b0f3031de20", "fusion_lon": 0.0, "rental_uris": {"android": "https://dc.lft.to/lastmile_qr_scan", "ios": "https://dc.lft.to/lastmile_qr_scan"}, "name": "c8740f6059366f6012bb0b0f3031de20", "type": "electric_scooter", "lat": 38.97563183333333, "is_disabled": 0}, {"fusion_lat": 0.0, "lon": -77.00484, "is_reserved": 0, "bike_id": "dfc425c1b31a76e0baf1c2eb4abfabc2", "fusion_lon": 0.0, "rental_uris": {"android": "https://dc.lft.to/lastmile_qr_scan", "ios": "https://dc.lft.to/lastmile_qr_scan"}, "name": "dfc425c1b31a76e0baf1c2eb4abfabc2", "type": "electric_scooter", "lat": 38.911902833333336, "is_disabled": 0}, {"fusion_lat": 0.0, "lon": -76.93636133333334, "is_reserved": 0, "bike_id": "19ab500e38b7268ef6a7772320c9a070", "fusion_lon": 0.0, "rental_uris": {"android": "https://dc.lft.to/lastmile_qr_scan", "ios": "https://dc.lft.to/lastmile_qr_scan"}, "name": "19ab500e38b7268ef6a7772320c9a070", "type": "electric_scooter", "lat": 38.900629, "is_disabled": 0}, {"fusion_lat": 0.0, "lon": -77.04751416666667, "is_reserved": 0, "bike_id": "cdf9baff28d937e9a8535c1ea6e779ec", "fusion_lon": 0.0, "rental_uris": {"android": "https://dc.lft.to/lastmile_qr_scan", "ios": "https://dc.lft.to/lastmile_qr_scan"}, "name": "cdf9baff28d937e9a8535c1ea6e779ec", "type": "electric_scooter", "lat": 38.90072333333333, "is_disabled": 0}, {"fusion_lat": 0.0, "lon": -76.9299875, "is_reserved": 0, "bike_id": "15917a40e8d276d16c6fd3899f9cf6ee", "fusion_lon": 0.0, "rental_uris": {"android": "https://dc.lft.to/lastmile_qr_scan", "ios": "https://dc.lft.to/lastmile_qr_scan"}, "name": "15917a40e8d276d16c6fd3899f9cf6ee", "type": "electric_bike", "lat": 38.8965735, "is_disabled": 0}, {"fusion_lat": 0.0, "lon": -76.94933816666666, "is_reserved": 0, "bike_id": "6a1b8c6f107e40a6186c879ee3e4c0c8", "fusion_lon": 0.0, "rental_uris": {"android": "https://dc.lft.to/lastmile_qr_scan", "ios": "https://dc.lft.to/lastmile_qr_scan"}, "name": "6a1b8c6f107e40a6186c879ee3e4c0c8", "type": "electric_scooter", "lat": 38.893503833333334, "is_disabled": 0}, {"fusion_lat": 0.0, "lon": -77.03203366666666, "is_reserved": 0, "bike_id": "8559d5bfa45a8acbfc45e766264b4c3f", "fusion_lon": 0.0, "rental_uris": {"android": "https://dc.lft.to/lastmile_qr_scan", "ios": "https://dc.lft.to/lastmile_qr_scan"}, "name": "8559d5bfa45a8acbfc45e766264b4c3f", "type": "electric_scooter", "lat": 38.90550133333333, "is_disabled": 0}, {"fusion_lat": 0.0, "lon": -77.03097083333333, "is_reserved": 0, "bike_id": "dfc21a95fccde6f3dd61633426d85ff5", "fusion_lon": 0.0, "rental_uris": {"android": "https://dc.lft.to/lastmile_qr_scan", "ios": "https://dc.lft.to/lastmile_qr_scan"}, "name": "dfc21a95fccde6f3dd61633426d85ff5", "type": "electric_bike", "lat": 38.932535, "is_disabled": 0}, {"fusion_lat": 0.0, "lon": -77.084024, "is_reserved": 0, "bike_id": "beeed2771798c7568a70f567b1a4bdae", "fusion_lon": 0.0, "rental_uris": {"android": "https://dc.lft.to/lastmile_qr_scan", "ios": "https://dc.lft.to/lastmile_qr_scan"}, "name": "beeed2771798c7568a70f567b1a4bdae", "type": "electric_scooter", "lat": 38.9080525, "is_disabled": 0}, {"fusion_lat": 0.0, "lon": -77.03100666666667, "is_reserved": 0, "bike_id": "e6d5103656db9f9d9856a50b581e9481", "fusion_lon": 0.0, "rental_uris": {"android": "https://dc.lft.to/lastmile_qr_scan", "ios": "https://dc.lft.to/lastmile_qr_scan"}, "name": "e6d5103656db9f9d9856a50b581e9481", "type": "electric_scooter", "lat": 38.9507535, "is_disabled": 0}, {"fusion_lat": 0.0, "lon": -77.03828616666667, "is_reserved": 0, "bike_id": "2991b67969d4ae88840ef09f48b83a95", "fusion_lon": 0.0, "rental_uris": {"android": "https://dc.lft.to/lastmile_qr_scan", "ios": "https://dc.lft.to/lastmile_qr_scan"}, "name": "2991b67969d4ae88840ef09f48b83a95", "type": "electric_scooter", "lat": 38.904283166666666, "is_disabled": 0}, {"fusion_lat": 0.0, "lon": -76.995051, "is_reserved": 0, "bike_id": "a805a1ab07a84ceb43cba43edac15e3a", "fusion_lon": 0.0, "rental_uris": {"android": "https://dc.lft.to/lastmile_qr_scan", "ios": "https://dc.lft.to/lastmile_qr_scan"}, "name": "a805a1ab07a84ceb43cba43edac15e3a", "type": "electric_scooter", "lat": 38.88011866666667, "is_disabled": 0}, {"fusion_lat": 0.0, "lon": -77.038325, "is_reserved": 0, "bike_id": "a24f29c21693f1dc7659bed239afd2bb", "fusion_lon": 0.0, "rental_uris": {"android": "https://dc.lft.to/lastmile_qr_scan", "ios": "https://dc.lft.to/lastmile_qr_scan"}, "name": "a24f29c21693f1dc7659bed239afd2bb", "type": "electric_scooter", "lat": 38.9119105, "is_disabled": 0}, {"fusion_lat": 0.0, "lon": -77.03442316666667, "is_reserved": 0, "bike_id": "ce113971e7db46d516468ee60e30675d", "fusion_lon": 0.0, "rental_uris": {"android": "https://dc.lft.to/lastmile_qr_scan", "ios": "https://dc.lft.to/lastmile_qr_scan"}, "name": "ce113971e7db46d516468ee60e30675d", "type": "electric_scooter", "lat": 38.918235333333335, "is_disabled": 0}, {"fusion_lat": 0.0, "lon": -76.99164633333334, "is_reserved": 0, "bike_id": "5a1b8e8690bf95d876080a11c8e42398", "fusion_lon": 0.0, "rental_uris": {"android": "https://dc.lft.to/lastmile_qr_scan", "ios": "https://dc.lft.to/lastmile_qr_scan"}, "name": "5a1b8e8690bf95d876080a11c8e42398", "type": "electric_scooter", "lat": 38.89800533333333, "is_disabled": 0}, {"fusion_lat": 0.0, "lon": -76.99005983333333, "is_reserved": 0, "bike_id": "df1b6d3df84a322add4c1f8ef72ff529", "fusion_lon": 0.0, "rental_uris": {"android": "https://dc.lft.to/lastmile_qr_scan", "ios": "https://dc.lft.to/lastmile_qr_scan"}, "name": "df1b6d3df84a322add4c1f8ef72ff529", "type": "electric_scooter", "lat": 38.90392666666666, "is_disabled": 0}, {"fusion_lat": 0.0, "lon": -77.04286133333333, "is_reserved": 0, "bike_id": "af1879a564134109371ea064a34fcfc6", "fusion_lon": 0.0, "rental_uris": {"android": "https://dc.lft.to/lastmile_qr_scan", "ios": "https://dc.lft.to/lastmile_qr_scan"}, "name": "af1879a564134109371ea064a34fcfc6", "type": "electric_scooter", "lat": 38.917021, "is_disabled": 0}, {"fusion_lat": 0.0, "lon": -77.01404016666666, "is_reserved": 0, "bike_id": "141e6c768e5d2fd6f2922bd5c4bf3fc1", "fusion_lon": 0.0, "rental_uris": {"android": "https://dc.lft.to/lastmile_qr_scan", "ios": "https://dc.lft.to/lastmile_qr_scan"}, "name": "141e6c768e5d2fd6f2922bd5c4bf3fc1", "type": "electric_scooter", "lat": 38.88744833333333, "is_disabled": 0}, {"fusion_lat": 0.0, "lon": -77.02089616666666, "is_reserved": 0, "bike_id": "6d12d1280918f79e207f06c2470e2b3d", "fusion_lon": 0.0, "rental_uris": {"android": "https://dc.lft.to/lastmile_qr_scan", "ios": "https://dc.lft.to/lastmile_qr_scan"}, "name": "6d12d1280918f79e207f06c2470e2b3d", "type": "electric_scooter", "lat": 38.88184533333333, "is_disabled": 0}, {"fusion_lat": 0.0, "lon": -76.98474883333333, "is_reserved": 0, "bike_id": "ac85ceebf48efe5e47f15265f8f3659f", "fusion_lon": 0.0, "rental_uris": {"android": "https://dc.lft.to/lastmile_qr_scan", "ios": "https://dc.lft.to/lastmile_qr_scan"}, "name": "ac85ceebf48efe5e47f15265f8f3659f", "type": "electric_bike", "lat": 38.92894, "is_disabled": 0}, {"fusion_lat": 0.0, "lon": -77.17838466666667, "is_reserved": 0, "bike_id": "e608f98476fb3fb2d26ca0cef004d697", "fusion_lon": 0.0, "rental_uris": {"android": "https://dc.lft.to/lastmile_qr_scan", "ios": "https://dc.lft.to/lastmile_qr_scan"}, "name": "e608f98476fb3fb2d26ca0cef004d697", "type": "electric_bike", "lat": 39.08863183333333, "is_disabled": 0}, {"fusion_lat": 0.0, "lon": -77.03205566666666, "is_reserved": 0, "bike_id": "d5faab8100c4fe714d33ba185ae0c151", "fusion_lon": 0.0, "rental_uris": {"android": "https://dc.lft.to/lastmile_qr_scan", "ios": "https://dc.lft.to/lastmile_qr_scan"}, "name": "d5faab8100c4fe714d33ba185ae0c151", "type": "electric_scooter", "lat": 38.917738666666665, "is_disabled": 0}, {"fusion_lat": 0.0, "lon": -77.02725333333333, "is_reserved": 0, "bike_id": "cb921342b074a44fe07324a5f5918512", "fusion_lon": 0.0, "rental_uris": {"android": "https://dc.lft.to/lastmile_qr_scan", "ios": "https://dc.lft.to/lastmile_qr_scan"}, "name": "cb921342b074a44fe07324a5f5918512", "type": "electric_scooter", "lat": 38.9354165, "is_disabled": 0}, {"fusion_lat": 0.0, "lon": -77.030733, "is_reserved": 0, "bike_id": "e9bbf207480157b4ad906575f20b50f3", "fusion_lon": 0.0, "rental_uris": {"android": "https://dc.lft.to/lastmile_qr_scan", "ios": "https://dc.lft.to/lastmile_qr_scan"}, "name": "e9bbf207480157b4ad906575f20b50f3", "type": "electric_scooter", "lat": 38.9056775, "is_disabled": 0}, {"fusion_lat": 0.0, "lon": -77.02657083333334, "is_reserved": 0, "bike_id": "565acd23e95a073c6d37370c0adb6855", "fusion_lon": 0.0, "rental_uris": {"android": "https://dc.lft.to/lastmile_qr_scan", "ios": "https://dc.lft.to/lastmile_qr_scan"}, "name": "565acd23e95a073c6d37370c0adb6855", "type": "electric_scooter", "lat": 38.8921345, "is_disabled": 0}, {"fusion_lat": 0.0, "lon": -76.95650383333333, "is_reserved": 0, "bike_id": "0d8fccff41e7bdbb1f9e9ba443bd1757", "fusion_lon": 0.0, "rental_uris": {"android": "https://dc.lft.to/lastmile_qr_scan", "ios": "https://dc.lft.to/lastmile_qr_scan"}, "name": "0d8fccff41e7bdbb1f9e9ba443bd1757", "type": "electric_scooter", "lat": 38.895595666666665, "is_disabled": 0}, {"fusion_lat": 0.0, "lon": -77.01220233333333, "is_reserved": 0, "bike_id": "41b9e1dbdc1be48b8b4d9874d76f9f1e", "fusion_lon": 0.0, "rental_uris": {"android": "https://dc.lft.to/lastmile_qr_scan", "ios": "https://dc.lft.to/lastmile_qr_scan"}, "name": "41b9e1dbdc1be48b8b4d9874d76f9f1e", "type": "electric_bike", "lat": 38.87195166666667, "is_disabled": 0}, {"fusion_lat": 0.0, "lon": -77.03218183333334, "is_reserved": 0, "bike_id": "0839a1b5ccfa4cf7cc3da0dd64baa1eb", "fusion_lon": 0.0, "rental_uris": {"android": "https://dc.lft.to/lastmile_qr_scan", "ios": "https://dc.lft.to/lastmile_qr_scan"}, "name": "0839a1b5ccfa4cf7cc3da0dd64baa1eb", "type": "electric_scooter", "lat": 38.914074, "is_disabled": 0}, {"fusion_lat": 0.0, "lon": -77.03693083333333, "is_reserved": 0, "bike_id": "81698f4b2d8332ac019ba58fc66a04fa", "fusion_lon": 0.0, "rental_uris": {"android": "https://dc.lft.to/lastmile_qr_scan", "ios": "https://dc.lft.to/lastmile_qr_scan"}, "name": "81698f4b2d8332ac019ba58fc66a04fa", "type": "electric_scooter", "lat": 38.916738333333335, "is_disabled": 0}, {"fusion_lat": 0.0, "lon": -76.946331, "is_reserved": 0, "bike_id": "45e0ba0f2d6857bb94db7a17c4a3da34", "fusion_lon": 0.0, "rental_uris": {"android": "https://dc.lft.to/lastmile_qr_scan", "ios": "https://dc.lft.to/lastmile_qr_scan"}, "name": "45e0ba0f2d6857bb94db7a17c4a3da34", "type": "electric_scooter", "lat": 38.8984515, "is_disabled": 0}, {"fusion_lat": 0.0, "lon": -77.05530383333334, "is_reserved": 0, "bike_id": "6c56a257cb90b41f7cae190bd9199aa0", "fusion_lon": 0.0, "rental_uris": {"android": "https://dc.lft.to/lastmile_qr_scan", "ios": "https://dc.lft.to/lastmile_qr_scan"}, "name": "6c56a257cb90b41f7cae190bd9199aa0", "type": "electric_scooter", "lat": 38.92804066666667, "is_disabled": 0}, {"fusion_lat": 0.0, "lon": -76.94876166666667, "is_reserved": 0, "bike_id": "53dbb4b403f6fd88407d02770bbe86f7", "fusion_lon": 0.0, "rental_uris": {"android": "https://dc.lft.to/lastmile_qr_scan", "ios": "https://dc.lft.to/lastmile_qr_scan"}, "name": "53dbb4b403f6fd88407d02770bbe86f7", "type": "electric_scooter", "lat": 38.895513333333334, "is_disabled": 0}, {"fusion_lat": 0.0, "lon": -77.07478866666666, "is_reserved": 0, "bike_id": "6067735279b6851a98289c7ea5c22ae5", "fusion_lon": 0.0, "rental_uris": {"android": "https://dc.lft.to/lastmile_qr_scan", "ios": "https://dc.lft.to/lastmile_qr_scan"}, "name": "6067735279b6851a98289c7ea5c22ae5", "type": "electric_scooter", "lat": 38.963767, "is_disabled": 0}, {"fusion_lat": 0.0, "lon": -77.024039, "is_reserved": 0, "bike_id": "ba66ca35d3b34a2a72c7449cb1c556ed", "fusion_lon": 0.0, "rental_uris": {"android": "https://dc.lft.to/lastmile_qr_scan", "ios": "https://dc.lft.to/lastmile_qr_scan"}, "name": "ba66ca35d3b34a2a72c7449cb1c556ed", "type": "electric_scooter", "lat": 38.95732816666667, "is_disabled": 0}, {"fusion_lat": 0.0, "lon": -77.02778583333334, "is_reserved": 0, "bike_id": "286f5f5f68d36a90d2096321b5f6c63f", "fusion_lon": 0.0, "rental_uris": {"android": "https://dc.lft.to/lastmile_qr_scan", "ios": "https://dc.lft.to/lastmile_qr_scan"}, "name": "286f5f5f68d36a90d2096321b5f6c63f", "type": "electric_scooter", "lat": 38.92777683333333, "is_disabled": 0}, {"fusion_lat": 0.0, "lon": -76.9810475, "is_reserved": 0, "bike_id": "9b8ca6cc650b3dd6f4f23bebb5148780", "fusion_lon": 0.0, "rental_uris": {"android": "https://dc.lft.to/lastmile_qr_scan", "ios": "https://dc.lft.to/lastmile_qr_scan"}, "name": "9b8ca6cc650b3dd6f4f23bebb5148780", "type": "electric_scooter", "lat": 38.903944, "is_disabled": 0}, {"fusion_lat": 0.0, "lon": -77.02510566666666, "is_reserved": 0, "bike_id": "8cb3af59ae862c3261d6cbead7c9dab1", "fusion_lon": 0.0, "rental_uris": {"android": "https://dc.lft.to/lastmile_qr_scan", "ios": "https://dc.lft.to/lastmile_qr_scan"}, "name": "8cb3af59ae862c3261d6cbead7c9dab1", "type": "electric_scooter", "lat": 38.920779833333334, "is_disabled": 0}, {"fusion_lat": 0.0, "lon": -77.00724366666667, "is_reserved": 0, "bike_id": "a74ac68cbd5a4e83087037dc5ca32afb", "fusion_lon": 0.0, "rental_uris": {"android": "https://dc.lft.to/lastmile_qr_scan", "ios": "https://dc.lft.to/lastmile_qr_scan"}, "name": "a74ac68cbd5a4e83087037dc5ca32afb", "type": "electric_scooter", "lat": 38.88490216666667, "is_disabled": 0}, {"fusion_lat": 0.0, "lon": -77.03669283333333, "is_reserved": 0, "bike_id": "ef37654867bb2061976a838452c77955", "fusion_lon": 0.0, "rental_uris": {"android": "https://dc.lft.to/lastmile_qr_scan", "ios": "https://dc.lft.to/lastmile_qr_scan"}, "name": "ef37654867bb2061976a838452c77955", "type": "electric_scooter", "lat": 38.902816666666666, "is_disabled": 0}, {"fusion_lat": 0.0, "lon": -77.04305133333334, "is_reserved": 0, "bike_id": "eb797e3e29e1965a757386f0c8a89b5b", "fusion_lon": 0.0, "rental_uris": {"android": "https://dc.lft.to/lastmile_qr_scan", "ios": "https://dc.lft.to/lastmile_qr_scan"}, "name": "eb797e3e29e1965a757386f0c8a89b5b", "type": "electric_scooter", "lat": 38.893634666666664, "is_disabled": 0}, {"fusion_lat": 0.0, "lon": -76.941961, "is_reserved": 0, "bike_id": "e72a509a189edc7fa5126ff97a2c93fe", "fusion_lon": 0.0, "rental_uris": {"android": "https://dc.lft.to/lastmile_qr_scan", "ios": "https://dc.lft.to/lastmile_qr_scan"}, "name": "e72a509a189edc7fa5126ff97a2c93fe", "type": "electric_scooter", "lat": 38.8937505, "is_disabled": 0}, {"fusion_lat": 0.0, "lon": -76.99757533333333, "is_reserved": 0, "bike_id": "e08211a12e9d1acdb0cf95ec7c000054", "fusion_lon": 0.0, "rental_uris": {"android": "https://dc.lft.to/lastmile_qr_scan", "ios": "https://dc.lft.to/lastmile_qr_scan"}, "name": "e08211a12e9d1acdb0cf95ec7c000054", "type": "electric_scooter", "lat": 38.88766616666667, "is_disabled": 0}, {"fusion_lat": 0.0, "lon": -77.03751483333333, "is_reserved": 0, "bike_id": "87dad2555481fe007713000dba066631", "fusion_lon": 0.0, "rental_uris": {"android": "https://dc.lft.to/lastmile_qr_scan", "ios": "https://dc.lft.to/lastmile_qr_scan"}, "name": "87dad2555481fe007713000dba066631", "type": "electric_scooter", "lat": 38.911302, "is_disabled": 0}, {"fusion_lat": 0.0, "lon": -77.031495, "is_reserved": 0, "bike_id": "3e6f82c8ea1bfbdd996011ddaea82244", "fusion_lon": 0.0, "rental_uris": {"android": "https://dc.lft.to/lastmile_qr_scan", "ios": "https://dc.lft.to/lastmile_qr_scan"}, "name": "3e6f82c8ea1bfbdd996011ddaea82244", "type": "electric_scooter", "lat": 38.927949, "is_disabled": 0}, {"fusion_lat": 0.0, "lon": -77.04360083333333, "is_reserved": 0, "bike_id": "a6dd1f7177d36a2492889322a6224963", "fusion_lon": 0.0, "rental_uris": {"android": "https://dc.lft.to/lastmile_qr_scan", "ios": "https://dc.lft.to/lastmile_qr_scan"}, "name": "a6dd1f7177d36a2492889322a6224963", "type": "electric_scooter", "lat": 38.892302, "is_disabled": 0}, {"fusion_lat": 0.0, "lon": -76.9468245, "is_reserved": 0, "bike_id": "b15c89eeb4744051b77a6adc278e6ff7", "fusion_lon": 0.0, "rental_uris": {"android": "https://dc.lft.to/lastmile_qr_scan", "ios": "https://dc.lft.to/lastmile_qr_scan"}, "name": "b15c89eeb4744051b77a6adc278e6ff7", "type": "electric_scooter", "lat": 38.886306, "is_disabled": 0}, {"fusion_lat": 0.0, "lon": -77.03846833333333, "is_reserved": 0, "bike_id": "4226f992bc8252e08548dc00bb8e6071", "fusion_lon": 0.0, "rental_uris": {"android": "https://dc.lft.to/lastmile_qr_scan", "ios": "https://dc.lft.to/lastmile_qr_scan"}, "name": "4226f992bc8252e08548dc00bb8e6071", "type": "electric_scooter", "lat": 38.9252845, "is_disabled": 0}, {"fusion_lat": 0.0, "lon": -77.045001, "is_reserved": 0, "bike_id": "560c3ff48a274fb6a8a929ebbdd3cef4", "fusion_lon": 0.0, "rental_uris": {"android": "https://dc.lft.to/lastmile_qr_scan", "ios": "https://dc.lft.to/lastmile_qr_scan"}, "name": "560c3ff48a274fb6a8a929ebbdd3cef4", "type": "electric_scooter", "lat": 38.91114966666667, "is_disabled": 0}, {"fusion_lat": 0.0, "lon": -77.003838, "is_reserved": 0, "bike_id": "1f1fecef62a68f9fcbc18dbc3e1f7b99", "fusion_lon": 0.0, "rental_uris": {"android": "https://dc.lft.to/lastmile_qr_scan", "ios": "https://dc.lft.to/lastmile_qr_scan"}, "name": "1f1fecef62a68f9fcbc18dbc3e1f7b99", "type": "electric_scooter", "lat": 38.876404666666666, "is_disabled": 0}, {"fusion_lat": 0.0, "lon": -77.00339283333334, "is_reserved": 0, "bike_id": "0ec7a8ba224cb00124823fb74cf19cb1", "fusion_lon": 0.0, "rental_uris": {"android": "https://dc.lft.to/lastmile_qr_scan", "ios": "https://dc.lft.to/lastmile_qr_scan"}, "name": "0ec7a8ba224cb00124823fb74cf19cb1", "type": "electric_scooter", "lat": 38.903577166666665, "is_disabled": 0}, {"fusion_lat": 0.0, "lon": -77.04511933333333, "is_reserved": 0, "bike_id": "785a35c138cf1461b000b78475e1b569", "fusion_lon": 0.0, "rental_uris": {"android": "https://dc.lft.to/lastmile_qr_scan", "ios": "https://dc.lft.to/lastmile_qr_scan"}, "name": "785a35c138cf1461b000b78475e1b569", "type": "electric_scooter", "lat": 38.905012166666666, "is_disabled": 0}, {"fusion_lat": 0.0, "lon": -77.078801, "is_reserved": 0, "bike_id": "0f3df1e5324eab5075f000b5df8b54ad", "fusion_lon": 0.0, "rental_uris": {"android": "https://dc.lft.to/lastmile_qr_scan", "ios": "https://dc.lft.to/lastmile_qr_scan"}, "name": "0f3df1e5324eab5075f000b5df8b54ad", "type": "electric_bike", "lat": 38.95026266666667, "is_disabled": 0}, {"fusion_lat": 0.0, "lon": -77.02895733333334, "is_reserved": 0, "bike_id": "ce3a53ec85bfa28ed126d5da1271dcea", "fusion_lon": 0.0, "rental_uris": {"android": "https://dc.lft.to/lastmile_qr_scan", "ios": "https://dc.lft.to/lastmile_qr_scan"}, "name": "ce3a53ec85bfa28ed126d5da1271dcea", "type": "electric_scooter", "lat": 38.90373116666667, "is_disabled": 0}, {"fusion_lat": 0.0, "lon": -77.01228083333334, "is_reserved": 0, "bike_id": "bba3d5472945936839ef24cb6f4df104", "fusion_lon": 0.0, "rental_uris": {"android": "https://dc.lft.to/lastmile_qr_scan", "ios": "https://dc.lft.to/lastmile_qr_scan"}, "name": "bba3d5472945936839ef24cb6f4df104", "type": "electric_scooter", "lat": 38.915233666666666, "is_disabled": 0}, {"fusion_lat": 0.0, "lon": -76.98557983333333, "is_reserved": 0, "bike_id": "194ade367dca0de4bb32ec898a6a8e6e", "fusion_lon": 0.0, "rental_uris": {"android": "https://dc.lft.to/lastmile_qr_scan", "ios": "https://dc.lft.to/lastmile_qr_scan"}, "name": "194ade367dca0de4bb32ec898a6a8e6e", "type": "electric_scooter", "lat": 38.910328, "is_disabled": 0}, {"fusion_lat": 0.0, "lon": -77.029504, "is_reserved": 0, "bike_id": "779c4d5ac1067b14962d5ce4c3eaeb59", "fusion_lon": 0.0, "rental_uris": {"android": "https://dc.lft.to/lastmile_qr_scan", "ios": "https://dc.lft.to/lastmile_qr_scan"}, "name": "779c4d5ac1067b14962d5ce4c3eaeb59", "type": "electric_scooter", "lat": 38.921738, "is_disabled": 0}, {"fusion_lat": 0.0, "lon": -77.0333805, "is_reserved": 0, "bike_id": "a849d3b738bb63c13d9f62051d597e0d", "fusion_lon": 0.0, "rental_uris": {"android": "https://dc.lft.to/lastmile_qr_scan", "ios": "https://dc.lft.to/lastmile_qr_scan"}, "name": "a849d3b738bb63c13d9f62051d597e0d", "type": "electric_scooter", "lat": 38.91718566666667, "is_disabled": 0}, {"fusion_lat": 0.0, "lon": -77.00754016666667, "is_reserved": 0, "bike_id": "ca1fedb25f80b31a3b94dcb735cda3d0", "fusion_lon": 0.0, "rental_uris": {"android": "https://dc.lft.to/lastmile_qr_scan", "ios": "https://dc.lft.to/lastmile_qr_scan"}, "name": "ca1fedb25f80b31a3b94dcb735cda3d0", "type": "electric_scooter", "lat": 38.92673516666667, "is_disabled": 0}, {"fusion_lat": 0.0, "lon": -76.97860433333334, "is_reserved": 0, "bike_id": "527e1901ec917918a4a9ada4df3196a6", "fusion_lon": 0.0, "rental_uris": {"android": "https://dc.lft.to/lastmile_qr_scan", "ios": "https://dc.lft.to/lastmile_qr_scan"}, "name": "527e1901ec917918a4a9ada4df3196a6", "type": "electric_scooter", "lat": 38.8706795, "is_disabled": 0}, {"fusion_lat": 0.0, "lon": -76.9990185, "is_reserved": 0, "bike_id": "d5e0300a29e4b7c7395a2aa2f3ea8e38", "fusion_lon": 0.0, "rental_uris": {"android": "https://dc.lft.to/lastmile_qr_scan", "ios": "https://dc.lft.to/lastmile_qr_scan"}, "name": "d5e0300a29e4b7c7395a2aa2f3ea8e38", "type": "electric_scooter", "lat": 38.924549999999996, "is_disabled": 0}, {"fusion_lat": 0.0, "lon": -76.96561816666667, "is_reserved": 0, "bike_id": "a2e1e9b1c10137418e0ea7005dfaa44d", "fusion_lon": 0.0, "rental_uris": {"android": "https://dc.lft.to/lastmile_qr_scan", "ios": "https://dc.lft.to/lastmile_qr_scan"}, "name": "a2e1e9b1c10137418e0ea7005dfaa44d", "type": "electric_bike", "lat": 38.873796166666665, "is_disabled": 0}, {"fusion_lat": 0.0, "lon": -77.02799883333333, "is_reserved": 0, "bike_id": "4b472f091a4a7ce9b1ecebd09ed8dcd3", "fusion_lon": 0.0, "rental_uris": {"android": "https://dc.lft.to/lastmile_qr_scan", "ios": "https://dc.lft.to/lastmile_qr_scan"}, "name": "4b472f091a4a7ce9b1ecebd09ed8dcd3", "type": "electric_scooter", "lat": 38.89232466666667, "is_disabled": 0}, {"fusion_lat": 0.0, "lon": -77.02910583333333, "is_reserved": 0, "bike_id": "ead1f9a4651a8c9e7b674a69151b0355", "fusion_lon": 0.0, "rental_uris": {"android": "https://dc.lft.to/lastmile_qr_scan", "ios": "https://dc.lft.to/lastmile_qr_scan"}, "name": "ead1f9a4651a8c9e7b674a69151b0355", "type": "electric_scooter", "lat": 38.940381, "is_disabled": 0}, {"fusion_lat": 0.0, "lon": -77.04351066666666, "is_reserved": 0, "bike_id": "8c7512066b5c16da8623fc029cff9310", "fusion_lon": 0.0, "rental_uris": {"android": "https://dc.lft.to/lastmile_qr_scan", "ios": "https://dc.lft.to/lastmile_qr_scan"}, "name": "8c7512066b5c16da8623fc029cff9310", "type": "electric_scooter", "lat": 38.907627166666664, "is_disabled": 0}, {"fusion_lat": 0.0, "lon": -77.03502083333333, "is_reserved": 0, "bike_id": "11f39a74a4f10deafb9ce420eeb77f12", "fusion_lon": 0.0, "rental_uris": {"android": "https://dc.lft.to/lastmile_qr_scan", "ios": "https://dc.lft.to/lastmile_qr_scan"}, "name": "11f39a74a4f10deafb9ce420eeb77f12", "type": "electric_scooter", "lat": 38.918750333333335, "is_disabled": 0}, {"fusion_lat": 0.0, "lon": -77.02901, "is_reserved": 0, "bike_id": "9b739851911642d709ef4664e7ac1861", "fusion_lon": 0.0, "rental_uris": {"android": "https://dc.lft.to/lastmile_qr_scan", "ios": "https://dc.lft.to/lastmile_qr_scan"}, "name": "9b739851911642d709ef4664e7ac1861", "type": "electric_scooter", "lat": 38.96140333333334, "is_disabled": 0}, {"fusion_lat": 0.0, "lon": -77.05307233333333, "is_reserved": 0, "bike_id": "ac10083794f27beb5f362bd25a847080", "fusion_lon": 0.0, "rental_uris": {"android": "https://dc.lft.to/lastmile_qr_scan", "ios": "https://dc.lft.to/lastmile_qr_scan"}, "name": "ac10083794f27beb5f362bd25a847080", "type": "electric_scooter", "lat": 38.8985165, "is_disabled": 0}, {"fusion_lat": 0.0, "lon": -77.017759, "is_reserved": 0, "bike_id": "73b4843c4927f7d8d4714f4d37601806", "fusion_lon": 0.0, "rental_uris": {"android": "https://dc.lft.to/lastmile_qr_scan", "ios": "https://dc.lft.to/lastmile_qr_scan"}, "name": "73b4843c4927f7d8d4714f4d37601806", "type": "electric_scooter", "lat": 38.887146, "is_disabled": 0}, {"fusion_lat": 0.0, "lon": -76.99652816666666, "is_reserved": 0, "bike_id": "987bec1cd59e5b4dfcead5446326b836", "fusion_lon": 0.0, "rental_uris": {"android": "https://dc.lft.to/lastmile_qr_scan", "ios": "https://dc.lft.to/lastmile_qr_scan"}, "name": "987bec1cd59e5b4dfcead5446326b836", "type": "electric_bike", "lat": 38.98823316666667, "is_disabled": 0}, {"fusion_lat": 0.0, "lon": -77.067377, "is_reserved": 0, "bike_id": "0ba19184da8f85f3e3c1f126ce97e3a2", "fusion_lon": 0.0, "rental_uris": {"android": "https://dc.lft.to/lastmile_qr_scan", "ios": "https://dc.lft.to/lastmile_qr_scan"}, "name": "0ba19184da8f85f3e3c1f126ce97e3a2", "type": "electric_scooter", "lat": 38.906798333333334, "is_disabled": 0}, {"fusion_lat": 0.0, "lon": -77.03863866666667, "is_reserved": 0, "bike_id": "291973c9ff839d7445e94191737813e0", "fusion_lon": 0.0, "rental_uris": {"android": "https://dc.lft.to/lastmile_qr_scan", "ios": "https://dc.lft.to/lastmile_qr_scan"}, "name": "291973c9ff839d7445e94191737813e0", "type": "electric_scooter", "lat": 38.90792233333333, "is_disabled": 0}, {"fusion_lat": 0.0, "lon": -77.04824416666666, "is_reserved": 0, "bike_id": "9bd2828e18682d344000228c3643846b", "fusion_lon": 0.0, "rental_uris": {"android": "https://dc.lft.to/lastmile_qr_scan", "ios": "https://dc.lft.to/lastmile_qr_scan"}, "name": "9bd2828e18682d344000228c3643846b", "type": "electric_scooter", "lat": 38.90497, "is_disabled": 0}, {"fusion_lat": 0.0, "lon": -77.02307016666667, "is_reserved": 0, "bike_id": "c01c7961c1bfa879305e59b23f57dfd8", "fusion_lon": 0.0, "rental_uris": {"android": "https://dc.lft.to/lastmile_qr_scan", "ios": "https://dc.lft.to/lastmile_qr_scan"}, "name": "c01c7961c1bfa879305e59b23f57dfd8", "type": "electric_scooter", "lat": 38.9177615, "is_disabled": 0}, {"fusion_lat": 0.0, "lon": -77.03384933333334, "is_reserved": 0, "bike_id": "0b98af42182583f36d9d894fb18feaa7", "fusion_lon": 0.0, "rental_uris": {"android": "https://dc.lft.to/lastmile_qr_scan", "ios": "https://dc.lft.to/lastmile_qr_scan"}, "name": "0b98af42182583f36d9d894fb18feaa7", "type": "electric_scooter", "lat": 38.92359716666667, "is_disabled": 0}, {"fusion_lat": 0.0, "lon": -77.02603383333333, "is_reserved": 0, "bike_id": "416ef50b343437303551155be3f9bb91", "fusion_lon": 0.0, "rental_uris": {"android": "https://dc.lft.to/lastmile_qr_scan", "ios": "https://dc.lft.to/lastmile_qr_scan"}, "name": "416ef50b343437303551155be3f9bb91", "type": "electric_scooter", "lat": 38.925883166666665, "is_disabled": 0}, {"fusion_lat": 0.0, "lon": -77.03677483333334, "is_reserved": 0, "bike_id": "420acfcb156f781b967fa8f1482e7db5", "fusion_lon": 0.0, "rental_uris": {"android": "https://dc.lft.to/lastmile_qr_scan", "ios": "https://dc.lft.to/lastmile_qr_scan"}, "name": "420acfcb156f781b967fa8f1482e7db5", "type": "electric_scooter", "lat": 38.910454666666666, "is_disabled": 0}, {"fusion_lat": 0.0, "lon": -77.03188583333333, "is_reserved": 0, "bike_id": "e0f8c775675787e530128a45a2f26d1c", "fusion_lon": 0.0, "rental_uris": {"android": "https://dc.lft.to/lastmile_qr_scan", "ios": "https://dc.lft.to/lastmile_qr_scan"}, "name": "e0f8c775675787e530128a45a2f26d1c", "type": "electric_scooter", "lat": 38.90832316666667, "is_disabled": 0}, {"fusion_lat": 0.0, "lon": -77.02160816666667, "is_reserved": 0, "bike_id": "c70322e5259979767a907a66c3fc4050", "fusion_lon": 0.0, "rental_uris": {"android": "https://dc.lft.to/lastmile_qr_scan", "ios": "https://dc.lft.to/lastmile_qr_scan"}, "name": "c70322e5259979767a907a66c3fc4050", "type": "electric_scooter", "lat": 38.92905283333333, "is_disabled": 0}, {"fusion_lat": 0.0, "lon": -77.03466833333333, "is_reserved": 0, "bike_id": "0df433e8f501e9ff31b67bf7881839cd", "fusion_lon": 0.0, "rental_uris": {"android": "https://dc.lft.to/lastmile_qr_scan", "ios": "https://dc.lft.to/lastmile_qr_scan"}, "name": "0df433e8f501e9ff31b67bf7881839cd", "type": "electric_scooter", "lat": 38.918813166666666, "is_disabled": 0}, {"fusion_lat": 0.0, "lon": -77.04268466666667, "is_reserved": 0, "bike_id": "c29ab485f6dde30f2dec5cff218b8714", "fusion_lon": 0.0, "rental_uris": {"android": "https://dc.lft.to/lastmile_qr_scan", "ios": "https://dc.lft.to/lastmile_qr_scan"}, "name": "c29ab485f6dde30f2dec5cff218b8714", "type": "electric_scooter", "lat": 38.913442, "is_disabled": 0}, {"fusion_lat": 0.0, "lon": -77.01534883333333, "is_reserved": 0, "bike_id": "fd84fd609eb7545cccc11222ed202c85", "fusion_lon": 0.0, "rental_uris": {"android": "https://dc.lft.to/lastmile_qr_scan", "ios": "https://dc.lft.to/lastmile_qr_scan"}, "name": "fd84fd609eb7545cccc11222ed202c85", "type": "electric_scooter", "lat": 38.88739966666667, "is_disabled": 0}, {"fusion_lat": 0.0, "lon": -77.00661666666667, "is_reserved": 0, "bike_id": "da66c48e1d734e709deff16c25ca5e04", "fusion_lon": 0.0, "rental_uris": {"android": "https://dc.lft.to/lastmile_qr_scan", "ios": "https://dc.lft.to/lastmile_qr_scan"}, "name": "da66c48e1d734e709deff16c25ca5e04", "type": "electric_scooter", "lat": 38.90035316666667, "is_disabled": 0}, {"fusion_lat": 0.0, "lon": -77.03866583333334, "is_reserved": 0, "bike_id": "ce0a3203196dcb145cab30afedaaac0d", "fusion_lon": 0.0, "rental_uris": {"android": "https://dc.lft.to/lastmile_qr_scan", "ios": "https://dc.lft.to/lastmile_qr_scan"}, "name": "ce0a3203196dcb145cab30afedaaac0d", "type": "electric_scooter", "lat": 38.9155485, "is_disabled": 0}, {"fusion_lat": 0.0, "lon": -77.04586966666666, "is_reserved": 0, "bike_id": "9b7fa282371d79b39b3ae4312081322f", "fusion_lon": 0.0, "rental_uris": {"android": "https://dc.lft.to/lastmile_qr_scan", "ios": "https://dc.lft.to/lastmile_qr_scan"}, "name": "9b7fa282371d79b39b3ae4312081322f", "type": "electric_scooter", "lat": 38.921260833333335, "is_disabled": 0}, {"fusion_lat": 0.0, "lon": -76.99832216666667, "is_reserved": 0, "bike_id": "082fab31a26c9d30b165ce3ad3cb7f5c", "fusion_lon": 0.0, "rental_uris": {"android": "https://dc.lft.to/lastmile_qr_scan", "ios": "https://dc.lft.to/lastmile_qr_scan"}, "name": "082fab31a26c9d30b165ce3ad3cb7f5c", "type": "electric_scooter", "lat": 38.88324216666667, "is_disabled": 0}, {"fusion_lat": 0.0, "lon": -77.04002783333334, "is_reserved": 0, "bike_id": "6b803719f6eafbbb7a80971c62a2d1d9", "fusion_lon": 0.0, "rental_uris": {"android": "https://dc.lft.to/lastmile_qr_scan", "ios": "https://dc.lft.to/lastmile_qr_scan"}, "name": "6b803719f6eafbbb7a80971c62a2d1d9", "type": "electric_bike", "lat": 38.93154283333333, "is_disabled": 0}, {"fusion_lat": 0.0, "lon": -77.02414166666667, "is_reserved": 0, "bike_id": "c1aab2b39e3d46aac14be53b7dc8fce4", "fusion_lon": 0.0, "rental_uris": {"android": "https://dc.lft.to/lastmile_qr_scan", "ios": "https://dc.lft.to/lastmile_qr_scan"}, "name": "c1aab2b39e3d46aac14be53b7dc8fce4", "type": "electric_scooter", "lat": 38.93120833333333, "is_disabled": 0}, {"fusion_lat": 0.0, "lon": -76.99827483333334, "is_reserved": 0, "bike_id": "bd88ed099d7a805e59dba0ca83019e55", "fusion_lon": 0.0, "rental_uris": {"android": "https://dc.lft.to/lastmile_qr_scan", "ios": "https://dc.lft.to/lastmile_qr_scan"}, "name": "bd88ed099d7a805e59dba0ca83019e55", "type": "electric_scooter", "lat": 38.900546, "is_disabled": 0}, {"fusion_lat": 0.0, "lon": -77.05265, "is_reserved": 0, "bike_id": "0be052aab2f6d39f67c6565ef0016c32", "fusion_lon": 0.0, "rental_uris": {"android": "https://dc.lft.to/lastmile_qr_scan", "ios": "https://dc.lft.to/lastmile_qr_scan"}, "name": "0be052aab2f6d39f67c6565ef0016c32", "type": "electric_scooter", "lat": 38.92776716666667, "is_disabled": 0}, {"fusion_lat": 0.0, "lon": -77.02550566666666, "is_reserved": 0, "bike_id": "81a3f0f7d8567c7639fe689956e6a503", "fusion_lon": 0.0, "rental_uris": {"android": "https://dc.lft.to/lastmile_qr_scan", "ios": "https://dc.lft.to/lastmile_qr_scan"}, "name": "81a3f0f7d8567c7639fe689956e6a503", "type": "electric_scooter", "lat": 38.92471883333333, "is_disabled": 0}, {"fusion_lat": 0.0, "lon": -77.05141283333333, "is_reserved": 0, "bike_id": "16ee7aed465ffb1aebc8b49295a9e484", "fusion_lon": 0.0, "rental_uris": {"android": "https://dc.lft.to/lastmile_qr_scan", "ios": "https://dc.lft.to/lastmile_qr_scan"}, "name": "16ee7aed465ffb1aebc8b49295a9e484", "type": "electric_scooter", "lat": 38.906338166666664, "is_disabled": 0}, {"fusion_lat": 0.0, "lon": -76.94406116666667, "is_reserved": 0, "bike_id": "7ca3f87ebeb46d93f52d43f35a0a57ad", "fusion_lon": 0.0, "rental_uris": {"android": "https://dc.lft.to/lastmile_qr_scan", "ios": "https://dc.lft.to/lastmile_qr_scan"}, "name": "7ca3f87ebeb46d93f52d43f35a0a57ad", "type": "electric_scooter", "lat": 38.881424333333335, "is_disabled": 0},