{"data": {"bikes": [{"rental_uris": {"ios": "https://dc.lft.to/lastmile_qr_scan", "android": "https://dc.lft.to/lastmile_qr_scan"}, "lon": -77.0188275, "type": "electric_scooter", "fusion_lat": 0.0, "lat": 38.900922333333334, "name": "277de217ead401117e1086e6223c3374", "fusion_lon": 0.0, "bike_id": "277de217ead401117e1086e6223c3374", "is_disabled": 0, "is_reserved": 0}, {"rental_uris": {"ios": "https://dc.lft.to/lastmile_qr_scan", "android": "https://dc.lft.to/lastmile_qr_scan"}, "lon": -77.02200066666667, "type": "electric_scooter", "fusion_lat": 0.0, "lat": 38.892675833333335, "name": "95158d461ab3f0af73c513bd8345be66", "fusion_lon": 0.0, "bike_id": "95158d461ab3f0af73c513bd8345be66", "is_disabled": 0, "is_reserved": 0}, {"rental_uris": {"ios": "https://dc.lft.to/lastmile_qr_scan", "android": "https://dc.lft.to/lastmile_qr_scan"}, "lon": -77.03392116666667, "type": "electric_scooter", "fusion_lat": 0.0, "lat": 38.91922133333333, "name": "516bbc94580bddce49b3a8033b5f8377", "fusion_lon": 0.0, "bike_id": "516bbc94580bddce49b3a8033b5f8377", "is_disabled": 0, "is_reserved": 0}, {"rental_uris": {"ios": "https://dc.lft.to/lastmile_qr_scan", "android": "https://dc.lft.to/lastmile_qr_scan"}, "lon": -77.0450445, "type": "electric_scooter", "fusion_lat": 0.0, "lat": 38.90970333333333, "name": "b5a6759a6d3561f2f18b1308ba8d038a", "fusion_lon": 0.0, "bike_id": "b5a6759a6d3561f2f18b1308ba8d038a", "is_disabled": 0, "is_reserved": 0}, {"rental_uris": {"ios": "https://dc.lft.to/lastmile_qr_scan", "android": "https://dc.lft.to/lastmile_qr_scan"}, "lon": -76.995182, "type": "electric_scooter", "fusion_lat": 0.0, "lat": 38.86263016666667, "name": "e2425b41e559767ca2efb03efc4f104b", "fusion_lon": 0.0, "bike_id": "e2425b41e559767ca2efb03efc4f104b", "is_disabled": 0, "is_reserved": 0}, {"rental_uris": {"ios": "https://dc.lft.to/lastmile_qr_scan", "android": "https://dc.lft.to/lastmile_qr_scan"}, "lon": -77.0057955, "type": "electric_scooter", "fusion_lat": 0.0, "lat": 38.87421883333333, "name": "7639afcb4ddf261573f3372899e96133", "fusion_lon": 0.0, "bike_id": "7639afcb4ddf261573f3372899e96133", "is_disabled": 0, "is_reserved": 0}, {"rental_uris": {"ios": "https://dc.lft.to/lastmile_qr_scan", "android": "https://dc.lft.to/lastmile_qr_scan"}, "lon": -77.03567216666667, "type": "electric_scooter", "fusion_lat": 0.0, "lat": 38.9558845, "name": "8885db1f20a248898aef8a8b76e9286b", "fusion_lon": 0.0, "bike_id": "8885db1f20a248898aef8a8b76e9286b", "is_disabled": 0, "is_reserved": 0}, {"rental_uris": {"ios": "https://dc.lft.to/lastmile_qr_scan", "android": "https://dc.lft.to/lastmile_qr_scan"}, "lon": -77.0228735, "type": "electric_scooter", "fusion_lat": 0.0, "lat": 38.918153, "name": "b5899fe2d7660694cc4f70a702c65522", "fusion_lon": 0.0, "bike_id": "b5899fe2d7660694cc4f70a702c65522", "is_disabled": 0, "is_reserved": 0}, {"rental_uris": {"ios": "https://dc.lft.to/lastmile_qr_scan", "android": "https://dc.lft.to/lastmile_qr_scan"}, "lon": -77.03285116666666, "type": "electric_scooter", "fusion_lat": 0.0, "lat": 38.919094666666666, "name": "9441249fd897ef804829802988b62a68", "fusion_lon": 0.0, "bike_id": "9441249fd897ef804829802988b62a68", "is_disabled": 0, "is_reserved": 0}, {"rental_uris": {"ios": "https://dc.lft.to/lastmile_qr_scan", "android": "https://dc.lft.to/lastmile_qr_scan"}, "lon": -77.14117516666667, "type": "electric_bike", "fusion_lat": 0.0, "lat": 38.816060666666665, "name": "31cc6c1d2f888f3211bf6f21d7c2fb36", "fusion_lon": 0.0, "bike_id": "31cc6c1d2f888f3211bf6f21d7c2fb36", "is_disabled": 0, "is_reserved": 0}, {"rental_uris": {"ios": "https://dc.lft.to/lastmile_qr_scan", "android": "https://dc.lft.to/lastmile_qr_scan"}, "lon": -77.011589, "type": "electric_scooter", "fusion_lat": 0.0, "lat": 38.915671833333334, "name": "a6191844e99635659b4354471d1be8b1", "fusion_lon": 0.0, "bike_id": "a6191844e99635659b4354471d1be8b1", "is_disabled": 0, "is_reserved": 0}, {"rental_uris": {"ios": "https://dc.lft.to/lastmile_qr_scan", "android": "https://dc.lft.to/lastmile_qr_scan"}, "lon": -77.0136645, "type": "electric_scooter", "fusion_lat": 0.0, "lat": 38.86371466666667, "name": "7f691a6edf52562b390d83a5ed97407b", "fusion_lon": 0.0, "bike_id": "7f691a6edf52562b390d83a5ed97407b", "is_disabled": 0, "is_reserved": 0}, {"rental_uris": {"ios": "https://dc.lft.to/lastmile_qr_scan", "android": "https://dc.lft.to/lastmile_qr_scan"}, "lon": -77.00843366666666, "type": "electric_bike", "fusion_lat": 0.0, "lat": 38.949205666666664, "name": "b357517f839fb993224a708a0d023ba7", "fusion_lon": 0.0, "bike_id": "b357517f839fb993224a708a0d023ba7", "is_disabled": 0, "is_reserved": 0}, {"rental_uris": {"ios": "https://dc.lft.to/lastmile_qr_scan", "android": "https://dc.lft.to/lastmile_qr_scan"}, "lon": -77.04543116666666, "type": "electric_scooter", "fusion_lat": 0.0, "lat": 38.911107666666666, "name": "dde89233a1137b01a9aa22ee5a8cd930", "fusion_lon": 0.0, "bike_id": "dde89233a1137b01a9aa22ee5a8cd930", "is_disabled": 0, "is_reserved": 0}, {"rental_uris": {"ios": "https://dc.lft.to/lastmile_qr_scan", "android": "https://dc.lft.to/lastmile_qr_scan"}, "lon": -77.03884833333333, "type": "electric_scooter", "fusion_lat": 0.0, "lat": 38.922206, "name": "7c3ad9b8600a6b270e7d8a398a4d31fb", "fusion_lon": 0.0, "bike_id": "7c3ad9b8600a6b270e7d8a398a4d31fb", "is_disabled": 0, "is_reserved": 0}, {"rental_uris": {"ios": "https://dc.lft.to/lastmile_qr_scan", "android": "https://dc.lft.to/lastmile_qr_scan"}, "lon": -77.01542133333334, "type": "electric_scooter", "fusion_lat": 0.0, "lat": 38.89199133333334, "name": "bf89fd66e4134d2dcdf1929a90922db4", "fusion_lon": 0.0, "bike_id": "bf89fd66e4134d2dcdf1929a90922db4", "is_disabled": 0, "is_reserved": 0}, {"rental_uris": {"ios": "https://dc.lft.to/lastmile_qr_scan", "android": "https://dc.lft.to/lastmile_qr_scan"}, "lon": -77.02178833333333, "type": "electric_scooter", "fusion_lat": 0.0, "lat": 38.89712216666667, "name": "d6ea1623eca3c3d69fbb30e7cd82cd33", "fusion_lon": 0.0, "bike_id": "d6ea1623eca3c3d69fbb30e7cd82cd33", "is_disabled": 0, "is_reserved": 0}, {"rental_uris": {"ios": "https://dc.lft.to/lastmile_qr_scan", "android": "https://dc.lft.to/lastmile_qr_scan"}, "lon": -77.0250295, "type": "electric_scooter", "fusion_lat": 0.0, "lat": 38.880315333333336, "name": "8adfccc49a1bce19ac03c03280159a62", "fusion_lon": 0.0, "bike_id": "8adfccc49a1bce19ac03c03280159a62", "is_disabled": 0, "is_reserved": 0}, {"rental_uris": {"ios": "https://dc.lft.to/lastmile_qr_scan", "android": "https://dc.lft.to/lastmile_qr_scan"}, "lon": -76.96503533333333, "type": "electric_scooter", "fusion_lat": 0.0, "lat": 38.87649966666667, "name": "358968d2aa50b4348f9cd6451f7c78ab", "fusion_lon": 0.0, "bike_id": "358968d2aa50b4348f9cd6451f7c78ab", "is_disabled": 0, "is_reserved": 0}, {"rental_uris": {"ios": "https://dc.lft.to/lastmile_qr_scan", "android": "https://dc.lft.to/lastmile_qr_scan"}, "lon": -77.03794883333333, "type": "electric_scooter", "fusion_lat": 0.0, "lat": 38.9154235, "name": "b8dfd4db6464e97439558d80c4704b04", "fusion_lon": 0.0, "bike_id": "b8dfd4db6464e97439558d80c4704b04", "is_disabled": 0, "is_reserved": 0}, {"rental_uris": {"ios": "https://dc.lft.to/lastmile_qr_scan", "android": "https://dc.lft.to/lastmile_qr_scan"}, "lon": -77.15263416666667, "type": "electric_bike", "fusion_lat": 0.0, "lat": 39.10567966666667, "name": "b484fd1f2f2411174a90a23165860a29", "fusion_lon": 0.0, "bike_id": "b484fd1f2f2411174a90a23165860a29", "is_disabled": 0, "is_reserved": 0}, {"rental_uris": {"ios": "https://dc.lft.to/lastmile_qr_scan", "android": "https://dc.lft.to/lastmile_qr_scan"}, "lon": -77.038314, "type": "electric_scooter", "fusion_lat": 0.0, "lat": 38.921773, "name": "159df1ffa563d2d77e0b3364b989a5cb", "fusion_lon": 0.0, "bike_id": "159df1ffa563d2d77e0b3364b989a5cb", "is_disabled": 0, "is_reserved": 0}, {"rental_uris": {"ios": "https://dc.lft.to/lastmile_qr_scan", "android": "https://dc.lft.to/lastmile_qr_scan"}, "lon": -76.9832455, "type": "electric_scooter", "fusion_lat": 0.0, "lat": 38.86171616666667, "name": "20db23438761899dbab1fad57ecb609d", "fusion_lon": 0.0, "bike_id": "20db23438761899dbab1fad57ecb609d", "is_disabled": 0, "is_reserved": 0}, {"rental_uris": {"ios": "https://dc.lft.to/lastmile_qr_scan", "android": "https://dc.lft.to/lastmile_qr_scan"}, "lon": -76.99619966666667, "type": "electric_scooter", "fusion_lat": 0.0, "lat": 38.884446833333335, "name": "f87d54f9c753af456b596328042391ca", "fusion_lon": 0.0, "bike_id": "f87d54f9c753af456b596328042391ca", "is_disabled": 0, "is_reserved": 0}, {"rental_uris": {"ios": "https://dc.lft.to/lastmile_qr_scan", "android": "https://dc.lft.to/lastmile_qr_scan"}, "lon": -76.95752433333334, "type": "electric_scooter", "fusion_lat": 0.0, "lat": 38.88436816666667, "name": "eb666834f94fc61969474c7f5e40f072", "fusion_lon": 0.0, "bike_id": "eb666834f94fc61969474c7f5e40f072", "is_disabled": 0, "is_reserved": 0}, {"rental_uris": {"ios": "https://dc.lft.to/lastmile_qr_scan", "android": "https://dc.lft.to/lastmile_qr_scan"}, "lon": -76.93793016666666, "type": "electric_scooter", "fusion_lat": 0.0, "lat": 38.890840833333336, "name": "ad3f0359ebaabf437009e78ebc873a42", "fusion_lon": 0.0, "bike_id": "ad3f0359ebaabf437009e78ebc873a42", "is_disabled": 0, "is_reserved": 0}, {"rental_uris": {"ios": "https://dc.lft.to/lastmile_qr_scan", "android": "https://dc.lft.to/lastmile_qr_scan"}, "lon": -76.93539033333333, "type": "electric_bike", "fusion_lat": 0.0, "lat": 38.9554855, "name": "99ceb1fc11b1932114ba93a7244f0183", "fusion_lon": 0.0, "bike_id": "99ceb1fc11b1932114ba93a7244f0183", "is_disabled": 0, "is_reserved": 0}, {"rental_uris": {"ios": "https://dc.lft.to/lastmile_qr_scan", "android": "https://dc.lft.to/lastmile_qr_scan"}, "lon": -77.03325733333334, "type": "electric_scooter", "fusion_lat": 0.0, "lat": 38.898936166666665, "name": "32a16c9d17ef7983cb1ddddd7e24c6e5", "fusion_lon": 0.0, "bike_id": "32a16c9d17ef7983cb1ddddd7e24c6e5", "is_disabled": 0, "is_reserved": 0}, {"rental_uris": {"ios": "https://dc.lft.to/lastmile_qr_scan", "android": "https://dc.lft.to/lastmile_qr_scan"}, "lon": -77.12255816666666, "type": "electric_bike", "fusion_lat": 0.0, "lat": 38.891888333333334, "name": "766be402e5ff1c2d59d6a6741621df48", "fusion_lon": 0.0, "bike_id": "766be402e5ff1c2d59d6a6741621df48", "is_disabled": 0, "is_reserved": 0}, {"rental_uris": {"ios": "https://dc.lft.to/lastmile_qr_scan", "android": "https://dc.lft.to/lastmile_qr_scan"}, "lon": -77.0327185, "type": "electric_scooter", "fusion_lat": 0.0, "lat": 38.929278333333336, "name": "17e6372051a1109553882e62950d9161", "fusion_lon": 0.0, "bike_id": "17e6372051a1109553882e62950d9161", "is_disabled": 0, "is_reserved": 0}, {"rental_uris": {"ios": "https://dc.lft.to/lastmile_qr_scan", "android": "https://dc.lft.to/lastmile_qr_scan"}, "lon": -77.02372766666667, "type": "electric_scooter", "fusion_lat": 0.0, "lat": 38.9160785, "name": "8372623b27d9ea3861943880d6c13324", "fusion_lon": 0.0, "bike_id": "8372623b27d9ea3861943880d6c13324", "is_disabled": 0, "is_reserved": 0}, {"rental_uris": {"ios": "https://dc.lft.to/lastmile_qr_scan", "android": "https://dc.lft.to/lastmile_qr_scan"}, "lon": -77.050025, "type": "electric_scooter", "fusion_lat": 0.0, "lat": 38.898986, "name": "381b4f4c14325b276a2731deb992183b", "fusion_lon": 0.0, "bike_id": "381b4f4c14325b276a2731deb992183b", "is_disabled": 0, "is_reserved": 0}, {"rental_uris": {"ios": "https://dc.lft.to/lastmile_qr_scan", "android": "https://dc.lft.to/lastmile_qr_scan"}, "lon": -77.0768085, "type": "electric_bike", "fusion_lat": 0.0, "lat": 38.831966333333334, "name": "38c960b37f7fee17a1b3c240d4f66d54", "fusion_lon": 0.0, "bike_id": "38c960b37f7fee17a1b3c240d4f66d54", "is_disabled": 0, "is_reserved": 0}, {"rental_uris": {"ios": "https://dc.lft.to/lastmile_qr_scan", "android": "https://dc.lft.to/lastmile_qr_scan"}, "lon": -77.029136, "type": "electric_scooter", "fusion_lat": 0.0, "lat": 38.898512833333335, "name": "2d6ba6321ef0b1952202aed521e12076", "fusion_lon": 0.0, "bike_id": "2d6ba6321ef0b1952202aed521e12076", "is_disabled": 0, "is_reserved": 0}, {"rental_uris": {"ios": "https://dc.lft.to/lastmile_qr_scan", "android": "https://dc.lft.to/lastmile_qr_scan"}, "lon": -77.112213, "type": "electric_bike", "fusion_lat": 0.0, "lat": 38.8287715, "name": "7c9412595ebf7ebf7bce79686666a0d0", "fusion_lon": 0.0, "bike_id": "7c9412595ebf7ebf7bce79686666a0d0", "is_disabled": 0, "is_reserved": 0}, {"rental_uris": {"ios": "https://dc.lft.to/lastmile_qr_scan", "android": "https://dc.lft.to/lastmile_qr_scan"}, "lon": -77.0473295, "type": "electric_scooter", "fusion_lat": 0.0, "lat": 38.902229166666665, "name": "4606087ba6dd5f5fcf560942b69ab2f5", "fusion_lon": 0.0, "bike_id": "4606087ba6dd5f5fcf560942b69ab2f5", "is_disabled": 0, "is_reserved": 0}, {"rental_uris": {"ios": "https://dc.lft.to/lastmile_qr_scan", "android": "https://dc.lft.to/lastmile_qr_scan"}, "lon": -77.0272085, "type": "electric_scooter", "fusion_lat": 0.0, "lat": 38.9181725, "name": "7a9080df674fe37e9adffa4881c0fc5a", "fusion_lon": 0.0, "bike_id": "7a9080df674fe37e9adffa4881c0fc5a", "is_disabled": 0, "is_reserved": 0}, {"rental_uris": {"ios": "https://dc.lft.to/lastmile_qr_scan", "android": "https://dc.lft.to/lastmile_qr_scan"}, "lon": -77.03671383333334, "type": "electric_scooter", "fusion_lat": 0.0, "lat": 38.9365005, "name": "97babb32a266355f6e8603f101edbdbb", "fusion_lon": 0.0, "bike_id": "97babb32a266355f6e8603f101edbdbb", "is_disabled": 0, "is_reserved": 0}, {"rental_uris": {"ios": "https://dc.lft.to/lastmile_qr_scan", "android": "https://dc.lft.to/lastmile_qr_scan"}, "lon": -76.95751533333333, "type": "electric_scooter", "fusion_lat": 0.0, "lat": 38.884380166666666, "name": "057e7c8879cecfaf69ef6bd6ae81763d", "fusion_lon": 0.0, "bike_id": "057e7c8879cecfaf69ef6bd6ae81763d", "is_disabled": 0, "is_reserved": 0}, {"rental_uris": {"ios": "https://dc.lft.to/lastmile_qr_scan", "android": "https://dc.lft.to/lastmile_qr_scan"}, "lon": -77.04801216666667, "type": "electric_scooter", "fusion_lat": 0.0, "lat": 38.89614683333333, "name": "f2e2fbbc52dcaaf92ee14e635f87d481", "fusion_lon": 0.0, "bike_id": "f2e2fbbc52dcaaf92ee14e635f87d481", "is_disabled": 0, "is_reserved": 0}, {"rental_uris": {"ios": "https://dc.lft.to/lastmile_qr_scan", "android": "https://dc.lft.to/lastmile_qr_scan"}, "lon": -77.1120945, "type": "electric_bike", "fusion_lat": 0.0, "lat": 38.813081833333335, "name": "4c34f934f0817096a561aec46a9bd48b", "fusion_lon": 0.0, "bike_id": "4c34f934f0817096a561aec46a9bd48b", "is_disabled": 0, "is_reserved": 0}, {"rental_uris": {"ios": "https://dc.lft.to/lastmile_qr_scan", "android": "https://dc.lft.to/lastmile_qr_scan"}, "lon": -76.92710383333333, "type": "electric_scooter", "fusion_lat": 0.0, "lat": 38.88769383333333, "name": "0743d3d3bc0f84940bf3e64713385656", "fusion_lon": 0.0, "bike_id": "0743d3d3bc0f84940bf3e64713385656", "is_disabled": 0, "is_reserved": 0}, {"rental_uris": {"ios": "https://dc.lft.to/lastmile_qr_scan", "android": "https://dc.lft.to/lastmile_qr_scan"}, "lon": -77.04552733333334, "type": "electric_scooter", "fusion_lat": 0.0, "lat": 38.9126305, "name": "1d773af379060623f7bbc8f83e560007", "fusion_lon": 0.0, "bike_id": "1d773af379060623f7bbc8f83e560007", "is_disabled": 0, "is_reserved": 0}, {"rental_uris": {"ios": "https://dc.lft.to/lastmile_qr_scan", "android": "https://dc.lft.to/lastmile_qr_scan"}, "lon": -77.02375316666667, "type": "electric_scooter", "fusion_lat": 0.0, "lat": 38.916769333333335, "name": "fd1389b2f2003a256d03dd8bc97cd738", "fusion_lon": 0.0, "bike_id": "fd1389b2f2003a256d03dd8bc97cd738", "is_disabled": 0, "is_reserved": 0}, {"rental_uris": {"ios": "https://dc.lft.to/lastmile_qr_scan", "android": "https://dc.lft.to/lastmile_qr_scan"}, "lon": -77.033266, "type": "electric_scooter", "fusion_lat": 0.0, "lat": 38.896341666666665, "name": "202a28ca616f9973277a00281518c87f", "fusion_lon": 0.0, "bike_id": "202a28ca616f9973277a00281518c87f", "is_disabled": 0, "is_reserved": 0}, {"rental_uris": {"ios": "https://dc.lft.to/lastmile_qr_scan", "android": "https://dc.lft.to/lastmile_qr_scan"}, "lon": -77.0088905, "type": "electric_scooter", "fusion_lat": 0.0, "lat": 38.9123405, "name": "07ef8218ea99b3852ead34d7fb4d6e0e", "fusion_lon": 0.0, "bike_id": "07ef8218ea99b3852ead34d7fb4d6e0e", "is_disabled": 0, "is_reserved": 0}, {"rental_uris": {"ios": "https://dc.lft.to/lastmile_qr_scan", "android": "https://dc.lft.to/lastmile_qr_scan"}, "lon": -77.03197333333334, "type": "electric_scooter", "fusion_lat": 0.0, "lat": 38.9248575, "name": "cf9e227b2737b383a20173885708a217", "fusion_lon": 0.0, "bike_id": "cf9e227b2737b383a20173885708a217", "is_disabled": 0, "is_reserved": 0}, {"rental_uris": {"ios": "https://dc.lft.to/lastmile_qr_scan", "android": "https://dc.lft.to/lastmile_qr_scan"}, "lon": -76.93174516666667, "type": "electric_scooter", "fusion_lat": 0.0, "lat": 38.898833, "name": "57f739281c40321f5ef6c9e3cd64827e", "fusion_lon": 0.0, "bike_id": "57f739281c40321f5ef6c9e3cd64827e", "is_disabled": 0, "is_reserved": 0}, {"rental_uris": {"ios": "https://dc.lft.to/lastmile_qr_scan", "android": "https://dc.lft.to/lastmile_qr_scan"}, "lon": -76.986529, "type": "electric_scooter", "fusion_lat": 0.0, "lat": 38.85807366666667, "name": "f94f3eb49121752712c19c2026e8e994", "fusion_lon": 0.0, "bike_id": "f94f3eb49121752712c19c2026e8e994", "is_disabled": 0, "is_reserved": 0}, {"rental_uris": {"ios": "https://dc.lft.to/lastmile_qr_scan", "android": "https://dc.lft.to/lastmile_qr_scan"}, "lon": -77.022303, "type": "electric_scooter", "fusion_lat": 0.0, "lat": 38.914240666666664, "name": "3dba9250f6cff59d4471ae7cc67875bf", "fusion_lon": 0.0, "bike_id": "3dba9250f6cff59d4471ae7cc67875bf", "is_disabled": 0, "is_reserved": 0}, {"rental_uris": {"ios": "https://dc.lft.to/lastmile_qr_scan", "android": "https://dc.lft.to/lastmile_qr_scan"}, "lon": -77.02324716666666, "type": "electric_scooter", "fusion_lat": 0.0, "lat": 38.916817, "name": "a26867cab6505da7f7c5c7796f6659ae", "fusion_lon": 0.0, "bike_id": "a26867cab6505da7f7c5c7796f6659ae", "is_disabled": 0, "is_reserved": 0}, {"rental_uris": {"ios": "https://dc.lft.to/lastmile_qr_scan", "android": "https://dc.lft.to/lastmile_qr_scan"}, "lon": -77.0347055, "type": "electric_scooter", "fusion_lat": 0.0, "lat": 38.929922, "name": "e31382c4fb250a870ed0f2a73f88f1ef", "fusion_lon": 0.0, "bike_id": "e31382c4fb250a870ed0f2a73f88f1ef", "is_disabled": 0, "is_reserved": 0}, {"rental_uris": {"ios": "https://dc.lft.to/lastmile_qr_scan", "android": "https://dc.lft.to/lastmile_qr_scan"}, "lon": -77.04504483333334, "type": "electric_scooter", "fusion_lat": 0.0, "lat": 38.892222, "name": "ae1f8b5b55aa569b4bebd1fe94a12806", "fusion_lon": 0.0, "bike_id": "ae1f8b5b55aa569b4bebd1fe94a12806", "is_disabled": 0, "is_reserved": 0}, {"rental_uris": {"ios": "https://dc.lft.to/lastmile_qr_scan", "android": "https://dc.lft.to/lastmile_qr_scan"}, "lon": -76.990461, "type": "electric_scooter", "fusion_lat": 0.0, "lat": 38.901404166666666, "name": "fda900bd7cdf46eaa7119e140616e8b1", "fusion_lon": 0.0, "bike_id": "fda900bd7cdf46eaa7119e140616e8b1", "is_disabled": 0, "is_reserved": 0}, {"rental_uris": {"ios": "https://dc.lft.to/lastmile_qr_scan", "android": "https://dc.lft.to/lastmile_qr_scan"}, "lon": -76.97922516666667, "type": "electric_scooter", "fusion_lat": 0.0, "lat": 38.90499583333333, "name": "c16808664a1ff008d1c29a1474788174", "fusion_lon": 0.0, "bike_id": "c16808664a1ff008d1c29a1474788174", "is_disabled": 0, "is_reserved": 0}, {"rental_uris": {"ios": "https://dc.lft.to/lastmile_qr_scan", "android": "https://dc.lft.to/lastmile_qr_scan"}, "lon": -77.04898133333333, "type": "electric_bike", "fusion_lat": 0.0, "lat": 38.87493166666667, "name": "26a7bdba1e0081f2bfd6fd782acfd696", "fusion_lon": 0.0, "bike_id": "26a7bdba1e0081f2bfd6fd782acfd696", "is_disabled": 0, "is_reserved": 0}, {"rental_uris": {"ios": "https://dc.lft.to/lastmile_qr_scan", "android": "https://dc.lft.to/lastmile_qr_scan"}, "lon": -77.06257733333334, "type": "electric_scooter", "fusion_lat": 0.0, "lat": 38.908449, "name": "39b3cf10930837de260669a237517215", "fusion_lon": 0.0, "bike_id": "39b3cf10930837de260669a237517215", "is_disabled": 0, "is_reserved": 0}, {"rental_uris": {"ios": "https://dc.lft.to/lastmile_qr_scan", "android": "https://dc.lft.to/lastmile_qr_scan"}, "lon": -76.94650866666667, "type": "electric_scooter", "fusion_lat": 0.0, "lat": 38.89829566666667, "name": "1f2d923b2034161187f4d9b4496abb59", "fusion_lon": 0.0, "bike_id": "1f2d923b2034161187f4d9b4496abb59", "is_disabled": 0, "is_reserved": 0}, {"rental_uris": {"ios": "https://dc.lft.to/lastmile_qr_scan", "android": "https://dc.lft.to/lastmile_qr_scan"}, "lon": -77.0036525, "type": "electric_scooter", "fusion_lat": 0.0, "lat": 38.8976345, "name": "431fc9eb1a8cb87e82fcec88b5789a11", "fusion_lon": 0.0, "bike_id": "431fc9eb1a8cb87e82fcec88b5789a11", "is_disabled": 0, "is_reserved": 0}, {"rental_uris": {"ios": "https://dc.lft.to/lastmile_qr_scan", "android": "https://dc.lft.to/lastmile_qr_scan"}, "lon": -76.986521, "type": "electric_scooter", "fusion_lat": 0.0, "lat": 38.858096, "name": "bc42065f917e05dd24a21397b39f7e1d", "fusion_lon": 0.0, "bike_id": "bc42065f917e05dd24a21397b39f7e1d", "is_disabled": 0, "is_reserved": 0}, {"rental_uris": {"ios": "https://dc.lft.to/lastmile_qr_scan", "android": "https://dc.lft.to/lastmile_qr_scan"}, "lon": -76.9856915, "type": "electric_scooter", "fusion_lat": 0.0, "lat": 38.898904333333334, "name": "fe820de1e1ad41375488e3c1ecb34cf7", "fusion_lon": 0.0, "bike_id": "fe820de1e1ad41375488e3c1ecb34cf7", "is_disabled": 0, "is_reserved": 0}, {"rental_uris": {"ios": "https://dc.lft.to/lastmile_qr_scan", "android": "https://dc.lft.to/lastmile_qr_scan"}, "lon": -77.03213316666667, "type": "electric_scooter", "fusion_lat": 0.0, "lat": 38.962389, "name": "081342cf5aa839c2d9a5303b3d89a28f", "fusion_lon": 0.0, "bike_id": "081342cf5aa839c2d9a5303b3d89a28f", "is_disabled": 0, "is_reserved": 0}, {"rental_uris": {"ios": "https://dc.lft.to/lastmile_qr_scan", "android": "https://dc.lft.to/lastmile_qr_scan"}, "lon": -76.9994665, "type": "electric_scooter", "fusion_lat": 0.0, "lat": 38.8429555, "name": "8bf0fcee0328dd136ea5ec8a5b106e08", "fusion_lon": 0.0, "bike_id": "8bf0fcee0328dd136ea5ec8a5b106e08", "is_disabled": 0, "is_reserved": 0}, {"rental_uris": {"ios": "https://dc.lft.to/lastmile_qr_scan", "android": "https://dc.lft.to/lastmile_qr_scan"}, "lon": -77.100245, "type": "electric_bike", "fusion_lat": 0.0, "lat": 38.9906835, "name": "2c43a874ed89836b7bd7142bfdf1e51d", "fusion_lon": 0.0, "bike_id": "2c43a874ed89836b7bd7142bfdf1e51d", "is_disabled": 0, "is_reserved": 0}, {"rental_uris": {"ios": "https://dc.lft.to/lastmile_qr_scan", "android": "https://dc.lft.to/lastmile_qr_scan"}, "lon": -77.03535283333333, "type": "electric_scooter", "fusion_lat": 0.0, "lat": 38.9035445, "name": "532b06d98f1f464d6c2b79e250ee2ea3", "fusion_lon": 0.0, "bike_id": "532b06d98f1f464d6c2b79e250ee2ea3", "is_disabled": 0, "is_reserved": 0}, {"rental_uris": {"ios": "https://dc.lft.to/lastmile_qr_scan", "android": "https://dc.lft.to/lastmile_qr_scan"}, "lon": -77.01232216666666, "type": "electric_scooter", "fusion_lat": 0.0, "lat": 38.915526666666665, "name": "b57c97887f04c3f21d9afac49de6d286", "fusion_lon": 0.0, "bike_id": "b57c97887f04c3f21d9afac49de6d286", "is_disabled": 0, "is_reserved": 0}, {"rental_uris": {"ios": "https://dc.lft.to/lastmile_qr_scan", "android": "https://dc.lft.to/lastmile_qr_scan"}, "lon": -77.02644066666667, "type": "electric_scooter", "fusion_lat": 0.0, "lat": 38.91566433333333, "name": "ff73fcdd9425d5b9b3b8ab9d1f4df10c", "fusion_lon": 0.0, "bike_id": "ff73fcdd9425d5b9b3b8ab9d1f4df10c", "is_disabled": 0, "is_reserved": 0}, {"rental_uris": {"ios": "https://dc.lft.to/lastmile_qr_scan", "android": "https://dc.lft.to/lastmile_qr_scan"}, "lon": -77.06370883333334, "type": "electric_scooter", "fusion_lat": 0.0, "lat": 38.94426766666667, "name": "82cb849c86a648c2554e41789b9daed5", "fusion_lon": 0.0, "bike_id": "82cb849c86a648c2554e41789b9daed5", "is_disabled": 0, "is_reserved": 0}, {"rental_uris": {"ios": "https://dc.lft.to/lastmile_qr_scan", "android": "https://dc.lft.to/lastmile_qr_scan"}, "lon": -77.00742266666667, "type": "electric_scooter", "fusion_lat": 0.0, "lat": 38.903652, "name": "43c85f180eeecbbc60a9e1625e69fa26", "fusion_lon": 0.0, "bike_id": "43c85f180eeecbbc60a9e1625e69fa26", "is_disabled": 0, "is_reserved": 0}, {"rental_uris": {"ios": "https://dc.lft.to/lastmile_qr_scan", "android": "https://dc.lft.to/lastmile_qr_scan"}, "lon": -77.000911, "type": "electric_scooter", "fusion_lat": 0.0, "lat": 38.90753733333333, "name": "2cb0d6139af31e4f99113b6b19cd46ca", "fusion_lon": 0.0, "bike_id": "2cb0d6139af31e4f99113b6b19cd46ca", "is_disabled": 0, "is_reserved": 0}, {"rental_uris": {"ios": "https://dc.lft.to/lastmile_qr_scan", "android": "https://dc.lft.to/lastmile_qr_scan"}, "lon": -77.00715983333333, "type": "electric_scooter", "fusion_lat": 0.0, "lat": 38.90570116666667, "name": "9b886c4f9dac2707233474697d96c788", "fusion_lon": 0.0, "bike_id": "9b886c4f9dac2707233474697d96c788", "is_disabled": 0, "is_reserved": 0}, {"rental_uris": {"ios": "https://dc.lft.to/lastmile_qr_scan", "android": "https://dc.lft.to/lastmile_qr_scan"}, "lon": -77.03497166666666, "type": "electric_scooter", "fusion_lat": 0.0, "lat": 38.91810266666667, "name": "c6bb015035302ff84749528d2f549a2e", "fusion_lon": 0.0, "bike_id": "c6bb015035302ff84749528d2f549a2e", "is_disabled": 0, "is_reserved": 0}, {"rental_uris": {"ios": "https://dc.lft.to/lastmile_qr_scan", "android": "https://dc.lft.to/lastmile_qr_scan"}, "lon": -77.041245, "type": "electric_scooter", "fusion_lat": 0.0, "lat": 38.917106833333335, "name": "414a8f9228b0481c03666a374f0d24ae", "fusion_lon": 0.0, "bike_id": "414a8f9228b0481c03666a374f0d24ae", "is_disabled": 0, "is_reserved": 0}, {"rental_uris": {"ios": "https://dc.lft.to/lastmile_qr_scan", "android": "https://dc.lft.to/lastmile_qr_scan"}, "lon": -77.02219683333334, "type": "electric_scooter", "fusion_lat": 0.0, "lat": 38.91273, "name": "47e685691cd6a1f358950ff19d075760", "fusion_lon": 0.0, "bike_id": "47e685691cd6a1f358950ff19d075760", "is_disabled": 0, "is_reserved": 0}, {"rental_uris": {"ios": "https://dc.lft.to/lastmile_qr_scan", "android": "https://dc.lft.to/lastmile_qr_scan"}, "lon": -77.05346316666666, "type": "electric_scooter", "fusion_lat": 0.0, "lat": 38.9059625, "name": "2dcbcc11dcf2e00d8285442f5cd94064", "fusion_lon": 0.0, "bike_id": "2dcbcc11dcf2e00d8285442f5cd94064", "is_disabled": 0, "is_reserved": 0}, {"rental_uris": {"ios": "https://dc.lft.to/lastmile_qr_scan", "android": "https://dc.lft.to/lastmile_qr_scan"}, "lon": -76.99975783333333, "type": "electric_scooter", "fusion_lat": 0.0, "lat": 38.838384833333336, "name": "cd59bb8b582cbcaea7fd94ba146e7de7", "fusion_lon": 0.0, "bike_id": "cd59bb8b582cbcaea7fd94ba146e7de7", "is_disabled": 0, "is_reserved": 0}, {"rental_uris": {"ios": "https://dc.lft.to/lastmile_qr_scan", "android": "https://dc.lft.to/lastmile_qr_scan"}, "lon": -77.02402033333334, "type": "electric_scooter", "fusion_lat": 0.0, "lat": 38.9157575, "name": "12780d3f02cb59dac6e014f8d0d4b16c", "fusion_lon": 0.0, "bike_id": "12780d3f02cb59dac6e014f8d0d4b16c", "is_disabled": 0, "is_reserved": 0}, {"rental_uris": {"ios": "https://dc.lft.to/lastmile_qr_scan", "android": "https://dc.lft.to/lastmile_qr_scan"}, "lon": -77.02487183333334, "type": "electric_scooter", "fusion_lat": 0.0, "lat": 38.937579666666664, "name": "a19329184609a299e494c4111f9432cb", "fusion_lon": 0.0, "bike_id": "a19329184609a299e494c4111f9432cb", "is_disabled": 0, "is_reserved": 0}, {"rental_uris": {"ios": "https://dc.lft.to/lastmile_qr_scan", "android": "https://dc.lft.to/lastmile_qr_scan"}, "lon": -77.0257815, "type": "electric_scooter", "fusion_lat": 0.0, "lat": 38.88080766666667, "name": "2e4471348cd4256a9d5e1b2d19e51b5a", "fusion_lon": 0.0, "bike_id": "2e4471348cd4256a9d5e1b2d19e51b5a", "is_disabled": 0, "is_reserved": 0}, {"rental_uris": {"ios": "https://dc.lft.to/lastmile_qr_scan", "android": "https://dc.lft.to/lastmile_qr_scan"}, "lon": -76.99944316666667, "type": "electric_scooter", "fusion_lat": 0.0, "lat": 38.842923, "name": "8449c3b65428d711b0f66a519de5cbee", "fusion_lon": 0.0, "bike_id": "8449c3b65428d711b0f66a519de5cbee", "is_disabled": 0, "is_reserved": 0}, {"rental_uris": {"ios": "https://dc.lft.to/lastmile_qr_scan", "android": "https://dc.lft.to/lastmile_qr_scan"}, "lon": -76.99177733333333, "type": "electric_scooter", "fusion_lat": 0.0, "lat": 38.9045625, "name": "482989bd750bfd4bf3e448b7e0368901", "fusion_lon": 0.0, "bike_id": "482989bd750bfd4bf3e448b7e0368901", "is_disabled": 0, "is_reserved": 0}, {"rental_uris": {"ios": "https://dc.lft.to/lastmile_qr_scan", "android": "https://dc.lft.to/lastmile_qr_scan"}, "lon": -76.90821383333333, "type": "electric_bike", "fusion_lat": 0.0, "lat": 39.00253083333333, "name": "68e2b70c583e73da741b1c2caf77a93a", "fusion_lon": 0.0, "bike_id": "68e2b70c583e73da741b1c2caf77a93a", "is_disabled": 0, "is_reserved": 0}, {"rental_uris": {"ios": "https://dc.lft.to/lastmile_qr_scan", "android": "https://dc.lft.to/lastmile_qr_scan"}, "lon": -77.112178, "type": "electric_bike", "fusion_lat": 0.0, "lat": 38.82875466666667, "name": "d9b20c261cb41c73dbea80769b3d854b", "fusion_lon": 0.0, "bike_id": "d9b20c261cb41c73dbea80769b3d854b", "is_disabled": 0, "is_reserved": 0}, {"rental_uris": {"ios": "https://dc.lft.to/lastmile_qr_scan", "android": "https://dc.lft.to/lastmile_qr_scan"}, "lon": -77.0260925, "type": "electric_scooter", "fusion_lat": 0.0, "lat": 38.91707366666667, "name": "8620735324cba27c4f420e377fb040eb", "fusion_lon": 0.0, "bike_id": "8620735324cba27c4f420e377fb040eb", "is_disabled": 0, "is_reserved": 0}, {"rental_uris": {"ios": "https://dc.lft.to/lastmile_qr_scan", "android": "https://dc.lft.to/lastmile_qr_scan"}, "lon": -77.03854516666667, "type": "electric_scooter", "fusion_lat": 0.0, "lat": 38.90410633333333, "name": "ffc420d942157aea5d3c507485496726", "fusion_lon": 0.0, "bike_id": "ffc420d942157aea5d3c507485496726", "is_disabled": 0, "is_reserved": 0}, {"rental_uris": {"ios": "https://dc.lft.to/lastmile_qr_scan", "android": "https://dc.lft.to/lastmile_qr_scan"}, "lon": -77.0013115, "type": "electric_bike", "fusion_lat": 0.0, "lat": 38.958704833333336, "name": "5736492cf345993ee856e717a347c106", "fusion_lon": 0.0, "bike_id": "5736492cf345993ee856e717a347c106", "is_disabled": 0, "is_reserved": 0}, {"rental_uris": {"ios": "https://dc.lft.to/lastmile_qr_scan", "android": "https://dc.lft.to/lastmile_qr_scan"}, "lon": -77.01501766666667, "type": "electric_scooter", "fusion_lat": 0.0, "lat": 38.87208866666667, "name": "c5d729514f8ca96e4a714b80a53b27f2", "fusion_lon": 0.0, "bike_id": "c5d729514f8ca96e4a714b80a53b27f2", "is_disabled": 0, "is_reserved": 0}, {"rental_uris": {"ios": "https://dc.lft.to/lastmile_qr_scan", "android": "https://dc.lft.to/lastmile_qr_scan"}, "lon": -77.0315485, "type": "electric_scooter", "fusion_lat": 0.0, "lat": 38.89362116666667, "name": "afc86f2becef5cbfb49daf79ad65239c", "fusion_lon": 0.0, "bike_id": "afc86f2becef5cbfb49daf79ad65239c", "is_disabled": 0, "is_reserved": 0}, {"rental_uris": {"ios": "https://dc.lft.to/lastmile_qr_scan", "android": "https://dc.lft.to/lastmile_qr_scan"}, "lon": -77.01430783333333, "type": "electric_scooter", "fusion_lat": 0.0, "lat": 38.929915666666666, "name": "f421b552b657d64623b0e725a686f8fe", "fusion_lon": 0.0, "bike_id": "f421b552b657d64623b0e725a686f8fe", "is_disabled": 0, "is_reserved": 0}, {"rental_uris": {"ios": "https://dc.lft.to/lastmile_qr_scan", "android": "https://dc.lft.to/lastmile_qr_scan"}, "lon": -77.00485783333333, "type": "electric_scooter", "fusion_lat": 0.0, "lat": 38.91255316666667, "name": "b327c2ea469bbe6f8ef2a5ae251996e6", "fusion_lon": 0.0, "bike_id": "b327c2ea469bbe6f8ef2a5ae251996e6", "is_disabled": 0, "is_reserved": 0}, {"rental_uris": {"ios": "https://dc.lft.to/lastmile_qr_scan", "android": "https://dc.lft.to/lastmile_qr_scan"}, "lon": -76.97249716666667, "type": "electric_bike", "fusion_lat": 0.0, "lat": 38.957429833333336, "name": "cbc6ae98697b464f2834addaf31c978c", "fusion_lon": 0.0, "bike_id": "cbc6ae98697b464f2834addaf31c978c", "is_disabled": 0, "is_reserved": 0}, {"rental_uris": {"ios": "https://dc.lft.to/lastmile_qr_scan", "android": "https://dc.lft.to/lastmile_qr_scan"}, "lon": -77.02689166666667, "type": "electric_scooter", "fusion_lat": 0.0, "lat": 38.916909, "name": "b5946d4bfe7481d5f8810960370102fb", "fusion_lon": 0.0, "bike_id": "b5946d4bfe7481d5f8810960370102fb", "is_disabled": 0, "is_reserved": 0}, {"rental_uris": {"ios": "https://dc.lft.to/lastmile_qr_scan", "android": "https://dc.lft.to/lastmile_qr_scan"}, "lon": -77.02159016666667, "type": "electric_scooter", "fusion_lat": 0.0, "lat": 38.9162505, "name": "d64bda97c9f74b22b51563ace3a4a7c9", "fusion_lon": 0.0, "bike_id": "d64bda97c9f74b22b51563ace3a4a7c9", "is_disabled": 0, "is_reserved": 0}, {"rental_uris": {"ios": "https://dc.lft.to/lastmile_qr_scan", "android": "https://dc.lft.to/lastmile_qr_scan"}, "lon": -77.05880816666667, "type": "electric_scooter", "fusion_lat": 0.0, "lat": 38.9364, "name": "02743e5bb43a6692bc9835ef3b6cec4a", "fusion_lon": 0.0, "bike_id": "02743e5bb43a6692bc9835ef3b6cec4a", "is_disabled": 0, "is_reserved": 0}, {"rental_uris": {"ios": "https://dc.lft.to/lastmile_qr_scan", "android": "https://dc.lft.to/lastmile_qr_scan"}, "lon": -77.0426475, "type": "electric_scooter", "fusion_lat": 0.0, "lat": 38.90795583333333, "name": "ddbc97db275932ab337b008e57db02ca", "fusion_lon": 0.0, "bike_id": "ddbc97db275932ab337b008e57db02ca", "is_disabled": 0, "is_reserved": 0}, {"rental_uris": {"ios": "https://dc.lft.to/lastmile_qr_scan", "android": "https://dc.lft.to/lastmile_qr_scan"}, "lon": -76.94651616666667, "type": "electric_scooter", "fusion_lat": 0.0, "lat": 38.898270333333336, "name": "d7437433239ef7f2404aafd2842d9594", "fusion_lon": 0.0, "bike_id": "d7437433239ef7f2404aafd2842d9594", "is_disabled": 0, "is_reserved": 0}, {"rental_uris": {"ios": "https://dc.lft.to/lastmile_qr_scan", "android": "https://dc.lft.to/lastmile_qr_scan"}, "lon": -77.011053, "type": "electric_scooter", "fusion_lat": 0.0, "lat": 38.89532116666667, "name": "01ea8d75cbe3d084c8b6ad0df4fe918d", "fusion_lon": 0.0, "bike_id": "01ea8d75cbe3d084c8b6ad0df4fe918d", "is_disabled": 0, "is_reserved": 0}, {"rental_uris": {"ios": "https://dc.lft.to/lastmile_qr_scan", "android": "https://dc.lft.to/lastmile_qr_scan"}, "lon": -77.031902, "type": "electric_scooter", "fusion_lat": 0.0, "lat": 38.921358, "name": "3140f6a22268be1afb9b0769febb06b5", "fusion_lon": 0.0, "bike_id": "3140f6a22268be1afb9b0769febb06b5", "is_disabled": 0, "is_reserved": 0}, {"rental_uris": {"ios": "https://dc.lft.to/lastmile_qr_scan", "android": "https://dc.lft.to/lastmile_qr_scan"}, "lon": -77.02381583333333, "type": "electric_scooter", "fusion_lat": 0.0, "lat": 38.916085, "name": "46b269e850c3ff2357dd8ece1f6d7da7", "fusion_lon": 0.0, "bike_id": "46b269e850c3ff2357dd8ece1f6d7da7", "is_disabled": 0, "is_reserved": 0}, {"rental_uris": {"ios": "https://dc.lft.to/lastmile_qr_scan", "android": "https://dc.lft.to/lastmile_qr_scan"}, "lon": -77.03344416666667, "type": "electric_scooter", "fusion_lat": 0.0, "lat": 38.906408, "name": "28e49d02958e96a9480461f84b35a9c5", "fusion_lon": 0.0, "bike_id": "28e49d02958e96a9480461f84b35a9c5", "is_disabled": 0, "is_reserved": 0}, {"rental_uris": {"ios": "https://dc.lft.to/lastmile_qr_scan", "android": "https://dc.lft.to/lastmile_qr_scan"}, "lon": -77.04868983333333, "type": "electric_scooter", "fusion_lat": 0.0, "lat": 38.906468333333336, "name": "b924b9089c788597e7cba98628dc385b", "fusion_lon": 0.0, "bike_id": "b924b9089c788597e7cba98628dc385b", "is_disabled": 0, "is_reserved": 0}, {"rental_uris": {"ios": "https://dc.lft.to/lastmile_qr_scan", "android": "https://dc.lft.to/lastmile_qr_scan"}, "lon": -77.02260033333333, "type": "electric_scooter", "fusion_lat": 0.0, "lat": 38.927357666666666, "name": "5f4a9ca1a55078cb77e6b89c6a29406e", "fusion_lon": 0.0, "bike_id": "5f4a9ca1a55078cb77e6b89c6a29406e", "is_disabled": 0, "is_reserved": 0}, {"rental_uris": {"ios": "https://dc.lft.to/lastmile_qr_scan", "android": "https://dc.lft.to/lastmile_qr_scan"}, "lon": -77.06349983333334, "type": "electric_bike", "fusion_lat": 0.0, "lat": 38.9084905, "name": "4239780c787f1538b6215025c1ff801c", "fusion_lon": 0.0, "bike_id": "4239780c787f1538b6215025c1ff801c", "is_disabled": 0, "is_reserved": 0}, {"rental_uris": {"ios": "https://dc.lft.to/lastmile_qr_scan", "android": "https://dc.lft.to/lastmile_qr_scan"}, "lon": -77.04692266666666, "type": "electric_scooter", "fusion_lat": 0.0, "lat": 38.91782466666667, "name": "38f48c84e487da67e2aac48924330a7f", "fusion_lon": 0.0, "bike_id": "38f48c84e487da67e2aac48924330a7f", "is_disabled": 0, "is_reserved": 0}, {"rental_uris": {"ios": "https://dc.lft.to/lastmile_qr_scan", "android": "https://dc.lft.to/lastmile_qr_scan"}, "lon": -77.0155135, "type": "electric_scooter", "fusion_lat": 0.0, "lat": 38.902262, "name": "e726330dccaf4ca7a985b696070f5c02", "fusion_lon": 0.0, "bike_id": "e726330dccaf4ca7a985b696070f5c02", "is_disabled": 0, "is_reserved": 0}, {"rental_uris": {"ios": "https://dc.lft.to/lastmile_qr_scan", "android": "https://dc.lft.to/lastmile_qr_scan"}, "lon": -77.03202933333333, "type": "electric_scooter", "fusion_lat": 0.0, "lat": 38.937560833333336, "name": "91432da3c7ad8db3a22190781007d3a5", "fusion_lon": 0.0, "bike_id": "91432da3c7ad8db3a22190781007d3a5", "is_disabled": 0, "is_reserved": 0}, {"rental_uris": {"ios": "https://dc.lft.to/lastmile_qr_scan", "android": "https://dc.lft.to/lastmile_qr_scan"}, "lon": -77.04714783333333, "type": "electric_scooter", "fusion_lat": 0.0, "lat": 38.9223835, "name": "94ec2d81d658ebbd74558ab14eb1b049", "fusion_lon": 0.0, "bike_id": "94ec2d81d658ebbd74558ab14eb1b049", "is_disabled": 0, "is_reserved": 0}, {"rental_uris": {"ios": "https://dc.lft.to/lastmile_qr_scan", "android": "https://dc.lft.to/lastmile_qr_scan"}, "lon": -76.990013, "type": "electric_scooter", "fusion_lat": 0.0, "lat": 38.8650565, "name": "ea2029514856020afaca2801bcdb55b7", "fusion_lon": 0.0, "bike_id": "ea2029514856020afaca2801bcdb55b7", "is_disabled": 0, "is_reserved": 0}, {"rental_uris": {"ios": "https://dc.lft.to/lastmile_qr_scan", "android": "https://dc.lft.to/lastmile_qr_scan"}, "lon": -77.0194335, "type": "electric_scooter", "fusion_lat": 0.0, "lat": 38.92414083333333, "name": "b84d488f23a4b6d07fb1128318fbbab5", "fusion_lon": 0.0, "bike_id": "b84d488f23a4b6d07fb1128318fbbab5", "is_disabled": 0, "is_reserved": 0}, {"rental_uris": {"ios": "https://dc.lft.to/lastmile_qr_scan", "android": "https://dc.lft.to/lastmile_qr_scan"}, "lon": -77.00865916666666, "type": "electric_bike", "fusion_lat": 0.0, "lat": 38.827315666666664, "name": "0623685e3183ca6165e4bc72ca2a85db", "fusion_lon": 0.0, "bike_id": "0623685e3183ca6165e4bc72ca2a85db", "is_disabled": 0, "is_reserved": 0}, {"rental_uris": {"ios": "https://dc.lft.to/lastmile_qr_scan", "android": "https://dc.lft.to/lastmile_qr_scan"}, "lon": -77.06755316666667, "type": "electric_scooter", "fusion_lat": 0.0, "lat": 38.90359983333333, "name": "8e168fdb1d124011fe42c1716b74f4ec", "fusion_lon": 0.0, "bike_id": "8e168fdb1d124011fe42c1716b74f4ec", "is_disabled": 0, "is_reserved": 0}, {"rental_uris": {"ios": "https://dc.lft.to/lastmile_qr_scan", "android": "https://dc.lft.to/lastmile_qr_scan"}, "lon": -77.02203916666667, "type": "electric_scooter", "fusion_lat": 0.0, "lat": 38.89486133333333, "name": "3921cd78de4b5758b9ba6d9bc7a75efb", "fusion_lon": 0.0, "bike_id": "3921cd78de4b5758b9ba6d9bc7a75efb", "is_disabled": 0, "is_reserved": 0}, {"rental_uris": {"ios": "https://dc.lft.to/lastmile_qr_scan", "android": "https://dc.lft.to/lastmile_qr_scan"}, "lon": -76.94890066666666, "type": "electric_scooter", "fusion_lat": 0.0, "lat": 38.89532233333333, "name": "eb28538f02aca7579d7e01ba7a20151c", "fusion_lon": 0.0, "bike_id": "eb28538f02aca7579d7e01ba7a20151c", "is_disabled": 0, "is_reserved": 0}, {"rental_uris": {"ios": "https://dc.lft.to/lastmile_qr_scan", "android": "https://dc.lft.to/lastmile_qr_scan"}, "lon": -76.98558533333333, "type": "electric_scooter", "fusion_lat": 0.0, "lat": 38.855881333333336, "name": "e246c97080c5143351923c068ef52f0e", "fusion_lon": 0.0, "bike_id": "e246c97080c5143351923c068ef52f0e", "is_disabled": 0, "is_reserved": 0}, {"rental_uris": {"ios": "https://dc.lft.to/lastmile_qr_scan", "android": "https://dc.lft.to/lastmile_qr_scan"}, "lon": -77.05499416666666, "type": "electric_scooter", "fusion_lat": 0.0, "lat": 38.9297845, "name": "2cc0892913a885269cffff087c51dfe2", "fusion_lon": 0.0, "bike_id": "2cc0892913a885269cffff087c51dfe2", "is_disabled": 0, "is_reserved": 0}, {"rental_uris": {"ios": "https://dc.lft.to/lastmile_qr_scan", "android": "https://dc.lft.to/lastmile_qr_scan"}, "lon": -77.07063183333334, "type": "electric_scooter", "fusion_lat": 0.0, "lat": 38.952167833333334, "name": "b2f4b2ab31f9d417ab320740e2459649", "fusion_lon": 0.0, "bike_id": "b2f4b2ab31f9d417ab320740e2459649", "is_disabled": 0, "is_reserved": 0}, {"rental_uris": {"ios": "https://dc.lft.to/lastmile_qr_scan", "android": "https://dc.lft.to/lastmile_qr_scan"}, "lon": -77.0074635, "type": "electric_scooter", "fusion_lat": 0.0, "lat": 38.903689666666665, "name": "a0bfa5ac4b97f4077fda55599fca8dac", "fusion_lon": 0.0, "bike_id": "a0bfa5ac4b97f4077fda55599fca8dac", "is_disabled": 0, "is_reserved": 0}, {"rental_uris": {"ios": "https://dc.lft.to/lastmile_qr_scan", "android": "https://dc.lft.to/lastmile_qr_scan"}, "lon": -77.02034866666666, "type": "electric_scooter", "fusion_lat": 0.0, "lat": 38.92407866666667, "name": "21b23525abd48cb1f1b332c6ad931022", "fusion_lon": 0.0, "bike_id": "21b23525abd48cb1f1b332c6ad931022", "is_disabled": 0, "is_reserved": 0}, {"rental_uris": {"ios": "https://dc.lft.to/lastmile_qr_scan", "android": "https://dc.lft.to/lastmile_qr_scan"}, "lon": -77.0448665, "type": "electric_scooter", "fusion_lat": 0.0, "lat": 38.91954833333333, "name": "61b05732fca210b00a494630fd51be6f", "fusion_lon": 0.0, "bike_id": "61b05732fca210b00a494630fd51be6f", "is_disabled": 0, "is_reserved": 0}, {"rental_uris": {"ios": "https://dc.lft.to/lastmile_qr_scan", "android": "https://dc.lft.to/lastmile_qr_scan"}, "lon": -77.02378833333333, "type": "electric_scooter", "fusion_lat": 0.0, "lat": 38.932318333333335, "name": "823b12b2196c1da844cadb539ad1a2bf", "fusion_lon": 0.0, "bike_id": "823b12b2196c1da844cadb539ad1a2bf", "is_disabled": 0, "is_reserved": 0}, {"rental_uris": {"ios": "https://dc.lft.to/lastmile_qr_scan", "android": "https://dc.lft.to/lastmile_qr_scan"}, "lon": -77.04205833333333, "type": "electric_scooter", "fusion_lat": 0.0, "lat": 38.903378833333335, "name": "f41832412022a112ee7af4c7a7d5199a", "fusion_lon": 0.0, "bike_id": "f41832412022a112ee7af4c7a7d5199a", "is_disabled": 0, "is_reserved": 0}, {"rental_uris": {"ios": "https://dc.lft.to/lastmile_qr_scan", "android": "https://dc.lft.to/lastmile_qr_scan"}, "lon": -77.02830583333333, "type": "electric_scooter", "fusion_lat": 0.0, "lat": 38.896146, "name": "94a2786a54a316d5ef8995000b96cd9f", "fusion_lon": 0.0, "bike_id": "94a2786a54a316d5ef8995000b96cd9f", "is_disabled": 0, "is_reserved": 0}, {"rental_uris": {"ios": "https://dc.lft.to/lastmile_qr_scan", "android": "https://dc.lft.to/lastmile_qr_scan"}, "lon": -77.01774766666666, "type": "electric_scooter", "fusion_lat": 0.0, "lat": 38.887175, "name": "4c5a6112e1406a5a6ef853afe5d304d9", "fusion_lon": 0.0, "bike_id": "4c5a6112e1406a5a6ef853afe5d304d9", "is_disabled": 0, "is_reserved": 0}, {"rental_uris": {"ios": "https://dc.lft.to/lastmile_qr_scan", "android": "https://dc.lft.to/lastmile_qr_scan"}, "lon": -77.00545616666666, "type": "electric_scooter", "fusion_lat": 0.0, "lat": 38.8745885, "name": "bbca0b300811c97ef2115a757e378ae5", "fusion_lon": 0.0, "bike_id": "bbca0b300811c97ef2115a757e378ae5", "is_disabled": 0, "is_reserved": 0}, {"rental_uris": {"ios": "https://dc.lft.to/lastmile_qr_scan", "android": "https://dc.lft.to/lastmile_qr_scan"}, "lon": -77.05525933333334, "type": "electric_scooter", "fusion_lat": 0.0, "lat": 38.8995665, "name": "1ceb25aac27050cb022b65af394412cd", "fusion_lon": 0.0, "bike_id": "1ceb25aac27050cb022b65af394412cd", "is_disabled": 0, "is_reserved": 0}, {"rental_uris": {"ios": "https://dc.lft.to/lastmile_qr_scan", "android": "https://dc.lft.to/lastmile_qr_scan"}, "lon": -77.05502683333333, "type": "electric_scooter", "fusion_lat": 0.0, "lat": 38.9298135, "name": "5c5111d1f7d46176753f8c2f168d8358", "fusion_lon": 0.0, "bike_id": "5c5111d1f7d46176753f8c2f168d8358", "is_disabled": 0, "is_reserved": 0}, {"rental_uris": {"ios": "https://dc.lft.to/lastmile_qr_scan", "android": "https://dc.lft.to/lastmile_qr_scan"}, "lon": -77.02498716666666, "type": "electric_scooter", "fusion_lat": 0.0, "lat": 38.897440333333336, "name": "2f91732a93a01d53c6ffa7ea4969bffc", "fusion_lon": 0.0, "bike_id": "2f91732a93a01d53c6ffa7ea4969bffc", "is_disabled": 0, "is_reserved": 0}, {"rental_uris": {"ios": "https://dc.lft.to/lastmile_qr_scan", "android": "https://dc.lft.to/lastmile_qr_scan"}, "lon": -77.1237215, "type": "electric_bike", "fusion_lat": 0.0, "lat": 38.847403666666665, "name": "c689f40df1c4440fb98f4d803bb20c98", "fusion_lon": 0.0, "bike_id": "c689f40df1c4440fb98f4d803bb20c98", "is_disabled": 0, "is_reserved": 0}, {"rental_uris": {"ios": "https://dc.lft.to/lastmile_qr_scan", "android": "https://dc.lft.to/lastmile_qr_scan"}, "lon": -77.03278616666667, "type": "electric_scooter", "fusion_lat": 0.0, "lat": 38.92911466666666, "name": "3f89cefc0e73ee56075b9ae7c1d49b25", "fusion_lon": 0.0, "bike_id": "3f89cefc0e73ee56075b9ae7c1d49b25", "is_disabled": 0, "is_reserved": 0}, {"rental_uris": {"ios": "https://dc.lft.to/lastmile_qr_scan", "android": "https://dc.lft.to/lastmile_qr_scan"}, "lon": -76.9883, "type": "electric_scooter", "fusion_lat": 0.0, "lat": 38.88025066666667, "name": "030db5def41433dd2d08c0980622129e", "fusion_lon": 0.0, "bike_id": "030db5def41433dd2d08c0980622129e", "is_disabled": 0, "is_reserved": 0}, {"rental_uris": {"ios": "https://dc.lft.to/lastmile_qr_scan", "android": "https://dc.lft.to/lastmile_qr_scan"}, "lon": -77.02733983333333, "type": "electric_scooter", "fusion_lat": 0.0, "lat": 38.89484216666666, "name": "6cec54e35af0163873cdbc2ea2cb61e2", "fusion_lon": 0.0, "bike_id": "6cec54e35af0163873cdbc2ea2cb61e2", "is_disabled": 0, "is_reserved": 0}, {"rental_uris": {"ios": "https://dc.lft.to/lastmile_qr_scan", "android": "https://dc.lft.to/lastmile_qr_scan"}, "lon": -77.02411316666667, "type": "electric_scooter", "fusion_lat": 0.0, "lat": 38.884653166666666, "name": "0f42cb0d7623836e63116e3b9fcf7354", "fusion_lon": 0.0, "bike_id": "0f42cb0d7623836e63116e3b9fcf7354", "is_disabled": 0, "is_reserved": 0}, {"rental_uris": {"ios": "https://dc.lft.to/lastmile_qr_scan", "android": "https://dc.lft.to/lastmile_qr_scan"}, "lon": -77.02886583333333, "type": "electric_scooter", "fusion_lat": 0.0, "lat": 38.91691733333333, "name": "47f14adc7749a43a469c05dec73154cb", "fusion_lon": 0.0, "bike_id": "47f14adc7749a43a469c05dec73154cb", "is_disabled": 0, "is_reserved": 0}, {"rental_uris": {"ios": "https://dc.lft.to/lastmile_qr_scan", "android": "https://dc.lft.to/lastmile_qr_scan"}, "lon": -77.04470583333334, "type": "electric_scooter", "fusion_lat": 0.0, "lat": 38.900773666666666, "name": "66aff8196eab03548c7d67f9b0f8bec1", "fusion_lon": 0.0, "bike_id": "66aff8196eab03548c7d67f9b0f8bec1", "is_disabled": 0, "is_reserved": 0}, {"rental_uris": {"ios": "https://dc.lft.to/lastmile_qr_scan", "android": "https://dc.lft.to/lastmile_qr_scan"}, "lon": -77.0706045, "type": "electric_scooter", "fusion_lat": 0.0, "lat": 38.90112383333334, "name": "32543b0015f5904902c781a72956960c", "fusion_lon": 0.0, "bike_id": "32543b0015f5904902c781a72956960c", "is_disabled": 0, "is_reserved": 0}, {"rental_uris": {"ios": "https://dc.lft.to/lastmile_qr_scan", "android": "https://dc.lft.to/lastmile_qr_scan"}, "lon": -77.03360233333333, "type": "electric_scooter", "fusion_lat": 0.0, "lat": 38.8997045, "name": "7322b6547626a3207837e9a57d9bbf55", "fusion_lon": 0.0, "bike_id": "7322b6547626a3207837e9a57d9bbf55", "is_disabled": 0, "is_reserved": 0}, {"rental_uris": {"ios": "https://dc.lft.to/lastmile_qr_scan", "android": "https://dc.lft.to/lastmile_qr_scan"}, "lon": -76.9890265, "type": "electric_scooter", "fusion_lat": 0.0, "lat": 38.90015066666667, "name": "08c88ab937fdd893ee670b4bbc0b427a", "fusion_lon": 0.0, "bike_id": "08c88ab937fdd893ee670b4bbc0b427a", "is_disabled": 0, "is_reserved": 0}, {"rental_uris": {"ios": "https://dc.lft.to/lastmile_qr_scan", "android": "https://dc.lft.to/lastmile_qr_scan"}, "lon": -77.013788, "type": "electric_scooter", "fusion_lat": 0.0, "lat": 38.8991365, "name": "c1613bcd4974cb7076af3749f1abdc62", "fusion_lon": 0.0, "bike_id": "c1613bcd4974cb7076af3749f1abdc62", "is_disabled": 0, "is_reserved": 0}, {"rental_uris": {"ios": "https://dc.lft.to/lastmile_qr_scan", "android": "https://dc.lft.to/lastmile_qr_scan"}, "lon": -77.02697783333333, "type": "electric_scooter", "fusion_lat": 0.0, "lat": 38.94999116666666, "name": "b64bf707ff817f920cdfc4ddff241f3f", "fusion_lon": 0.0, "bike_id": "b64bf707ff817f920cdfc4ddff241f3f", "is_disabled": 0, "is_reserved": 0}, {"rental_uris": {"ios": "https://dc.lft.to/lastmile_qr_scan", "android": "https://dc.lft.to/lastmile_qr_scan"}, "lon": -76.94631983333333, "type": "electric_scooter", "fusion_lat": 0.0, "lat": 38.8983455, "name": "05a22755604eb78eeba879c9c4883733", "fusion_lon": 0.0, "bike_id": "05a22755604eb78eeba879c9c4883733", "is_disabled": 0, "is_reserved": 0}, {"rental_uris": {"ios": "https://dc.lft.to/lastmile_qr_scan", "android": "https://dc.lft.to/lastmile_qr_scan"}, "lon": -77.02017233333333, "type": "electric_scooter", "fusion_lat": 0.0, "lat": 38.91305333333333, "name": "955592262991a109c52c563a3960fd55", "fusion_lon": 0.0, "bike_id": "955592262991a109c52c563a3960fd55", "is_disabled": 0, "is_reserved": 0}, {"rental_uris": {"ios": "https://dc.lft.to/lastmile_qr_scan", "android": "https://dc.lft.to/lastmile_qr_scan"}, "lon": -77.10453233333334, "type": "electric_bike", "fusion_lat": 0.0, "lat": 38.8963615, "name": "32d802b9654a63dcba1e88973c76774f", "fusion_lon": 0.0, "bike_id": "32d802b9654a63dcba1e88973c76774f", "is_disabled": 0, "is_reserved": 0}, {"rental_uris": {"ios": "https://dc.lft.to/lastmile_qr_scan", "android": "https://dc.lft.to/lastmile_qr_scan"}, "lon": -76.97928666666667, "type": "electric_scooter", "fusion_lat": 0.0, "lat": 38.906724833333335, "name": "98b2d37d51a583593e011acf349b0704", "fusion_lon": 0.0, "bike_id": "98b2d37d51a583593e011acf349b0704", "is_disabled": 0, "is_reserved": 0}, {"rental_uris": {"ios": "https://dc.lft.to/lastmile_qr_scan", "android": "https://dc.lft.to/lastmile_qr_scan"}, "lon": -77.0346195, "type": "electric_scooter", "fusion_lat": 0.0, "lat": 38.91886, "name": "7a30446e76021322a21e7c74f25f645e", "fusion_lon": 0.0, "bike_id": "7a30446e76021322a21e7c74f25f645e", "is_disabled": 0, "is_reserved": 0}, {"rental_uris": {"ios": "https://dc.lft.to/lastmile_qr_scan", "android": "https://dc.lft.to/lastmile_qr_scan"}, "lon": -77.03203033333334, "type": "electric_scooter", "fusion_lat": 0.0, "lat": 38.90769933333333, "name": "bd3d33c915478f7caf4d64a5b2958f92", "fusion_lon": 0.0, "bike_id": "bd3d33c915478f7caf4d64a5b2958f92", "is_disabled": 0, "is_reserved": 0}, {"rental_uris": {"ios": "https://dc.lft.to/lastmile_qr_scan", "android": "https://dc.lft.to/lastmile_qr_scan"}, "lon": -77.04547533333333, "type": "electric_scooter", "fusion_lat": 0.0, "lat": 38.93412766666667, "name": "f0812f7cb6dfc62fce7b49375b05ecad", "fusion_lon": 0.0, "bike_id": "f0812f7cb6dfc62fce7b49375b05ecad", "is_disabled": 0, "is_reserved": 0}, {"rental_uris": {"ios": "https://dc.lft.to/lastmile_qr_scan", "android": "https://dc.lft.to/lastmile_qr_scan"}, "lon": -77.03916100000001, "type": "electric_scooter", "fusion_lat": 0.0, "lat": 38.918452, "name": "d30556b0a57a99ea757b78653e2443dd", "fusion_lon": 0.0, "bike_id": "d30556b0a57a99ea757b78653e2443dd", "is_disabled": 0, "is_reserved": 0}, {"rental_uris": {"ios": "https://dc.lft.to/lastmile_qr_scan", "android": "https://dc.lft.to/lastmile_qr_scan"}, "lon": -77.02377716666666, "type": "electric_scooter", "fusion_lat": 0.0, "lat": 38.93232416666667, "name": "32f60b222e0ff7c69451a2f7ef942088", "fusion_lon": 0.0, "bike_id": "32f60b222e0ff7c69451a2f7ef942088", "is_disabled": 0, "is_reserved": 0}, {"rental_uris": {"ios": "https://dc.lft.to/lastmile_qr_scan", "android": "https://dc.lft.to/lastmile_qr_scan"}, "lon": -77.03571816666667, "type": "electric_scooter", "fusion_lat": 0.0, "lat": 38.956194333333336, "name": "bd0ec7ab4b17d186a0ec9e8c0c0800e9", "fusion_lon": 0.0, "bike_id": "bd0ec7ab4b17d186a0ec9e8c0c0800e9", "is_disabled": 0, "is_reserved": 0}, {"rental_uris": {"ios": "https://dc.lft.to/lastmile_qr_scan", "android": "https://dc.lft.to/lastmile_qr_scan"}, "lon": -77.02126816666667, "type": "electric_scooter", "fusion_lat": 0.0, "lat": 38.931127333333336, "name": "e229151397f8d00167b51084f8e4426a", "fusion_lon": 0.0, "bike_id": "e229151397f8d00167b51084f8e4426a", "is_disabled": 0, "is_reserved": 0}, {"rental_uris": {"ios": "https://dc.lft.to/lastmile_qr_scan", "android": "https://dc.lft.to/lastmile_qr_scan"}, "lon": -77.02178, "type": "electric_scooter", "fusion_lat": 0.0, "lat": 38.8971235, "name": "6aa1eca41f773fc775edf34d52eef727", "fusion_lon": 0.0, "bike_id": "6aa1eca41f773fc775edf34d52eef727", "is_disabled": 0, "is_reserved": 0}, {"rental_uris": {"ios": "https://dc.lft.to/lastmile_qr_scan", "android": "https://dc.lft.to/lastmile_qr_scan"}, "lon": -77.0588055, "type": "electric_scooter", "fusion_lat": 0.0, "lat": 38.93637316666667, "name": "00a9c9b955ccabdff8053f556d65ba32", "fusion_lon": 0.0, "bike_id": "00a9c9b955ccabdff8053f556d65ba32", "is_disabled": 0, "is_reserved": 0}, {"rental_uris": {"ios": "https://dc.lft.to/lastmile_qr_scan", "android": "https://dc.lft.to/lastmile_qr_scan"}, "lon": -76.98676266666666, "type": "electric_scooter", "fusion_lat": 0.0, "lat": 38.882180166666664, "name": "cad3b5e24a9ab733d1d08be081f6f78d", "fusion_lon": 0.0, "bike_id": "cad3b5e24a9ab733d1d08be081f6f78d", "is_disabled": 0, "is_reserved": 0}, {"rental_uris": {"ios": "https://dc.lft.to/lastmile_qr_scan", "android": "https://dc.lft.to/lastmile_qr_scan"}, "lon": -77.04730233333333, "type": "electric_scooter", "fusion_lat": 0.0, "lat": 38.9128745, "name": "a80d2cc89ece6d6f7f095f40737d97f5", "fusion_lon": 0.0, "bike_id": "a80d2cc89ece6d6f7f095f40737d97f5", "is_disabled": 0, "is_reserved": 0}, {"rental_uris": {"ios": "https://dc.lft.to/lastmile_qr_scan", "android": "https://dc.lft.to/lastmile_qr_scan"}, "lon": -77.04149016666666, "type": "electric_scooter", "fusion_lat": 0.0, "lat": 38.91415633333333, "name": "cb0ec1c83fc8a26e26ea0b19e0aaf26e", "fusion_lon": 0.0, "bike_id": "cb0ec1c83fc8a26e26ea0b19e0aaf26e", "is_disabled": 0, "is_reserved": 0}, {"rental_uris": {"ios": "https://dc.lft.to/lastmile_qr_scan", "android": "https://dc.lft.to/lastmile_qr_scan"}, "lon": -77.0630065, "type": "electric_scooter", "fusion_lat": 0.0, "lat": 38.913355833333334, "name": "df9595808d768c62021560ebe4c9e400", "fusion_lon": 0.0, "bike_id": "df9595808d768c62021560ebe4c9e400", "is_disabled": 0, "is_reserved": 0}, {"rental_uris": {"ios": "https://dc.lft.to/lastmile_qr_scan", "android": "https://dc.lft.to/lastmile_qr_scan"}, "lon": -76.97957766666667, "type": "electric_scooter", "fusion_lat": 0.0, "lat": 38.903811, "name": "0fdc8738b6925afaf217951cfb188d36", "fusion_lon": 0.0, "bike_id": "0fdc8738b6925afaf217951cfb188d36", "is_disabled": 0, "is_reserved": 0}, {"rental_uris": {"ios": "https://dc.lft.to/lastmile_qr_scan", "android": "https://dc.lft.to/lastmile_qr_scan"}, "lon": -77.002928, "type": "electric_scooter", "fusion_lat": 0.0, "lat": 38.894841, "name": "0b04222b1d651659ea0346696738e1fc", "fusion_lon": 0.0, "bike_id": "0b04222b1d651659ea0346696738e1fc", "is_disabled": 0, "is_reserved": 0}, {"rental_uris": {"ios": "https://dc.lft.to/lastmile_qr_scan", "android": "https://dc.lft.to/lastmile_qr_scan"}, "lon": -77.02954666666666, "type": "electric_scooter", "fusion_lat": 0.0, "lat": 38.91606216666667, "name": "f5d10743be691a045cd309851da3903e", "fusion_lon": 0.0, "bike_id": "f5d10743be691a045cd309851da3903e", "is_disabled": 0, "is_reserved": 0}, {"rental_uris": {"ios": "https://dc.lft.to/lastmile_qr_scan", "android": "https://dc.lft.to/lastmile_qr_scan"}, "lon": -77.03117833333333, "type": "electric_scooter", "fusion_lat": 0.0, "lat": 38.913372333333335, "name": "83fa65eba41ed67fab56ccd4ceede3a0", "fusion_lon": 0.0, "bike_id": "83fa65eba41ed67fab56ccd4ceede3a0", "is_disabled": 0, "is_reserved": 0}, {"rental_uris": {"ios": "https://dc.lft.to/lastmile_qr_scan", "android": "https://dc.lft.to/lastmile_qr_scan"}, "lon": -76.99917616666667, "type": "electric_scooter", "fusion_lat": 0.0, "lat": 38.9002975, "name": "2ce772c55484372d46b122bd84df9f48", "fusion_lon": 0.0, "bike_id": "2ce772c55484372d46b122bd84df9f48", "is_disabled": 0, "is_reserved": 0}, {"rental_uris": {"ios": "https://dc.lft.to/lastmile_qr_scan", "android": "https://dc.lft.to/lastmile_qr_scan"}, "lon": -77.00911583333334, "type": "electric_scooter", "fusion_lat": 0.0, "lat": 38.873638666666665, "name": "f0b0d1a2a50a5cff38ac5fb531c84ec5", "fusion_lon": 0.0, "bike_id": "f0b0d1a2a50a5cff38ac5fb531c84ec5", "is_disabled": 0, "is_reserved": 0}, {"rental_uris": {"ios": "https://dc.lft.to/lastmile_qr_scan", "android": "https://dc.lft.to/lastmile_qr_scan"}, "lon": -76.98374966666667, "type": "electric_scooter", "fusion_lat": 0.0, "lat": 38.915233, "name": "9202e9b810d1841ebb844d5b7298f62c", "fusion_lon": 0.0, "bike_id": "9202e9b810d1841ebb844d5b7298f62c", "is_disabled": 0, "is_reserved": 0}, {"rental_uris": {"ios": "https://dc.lft.to/lastmile_qr_scan", "android": "https://dc.lft.to/lastmile_qr_scan"}, "lon": -77.02218116666667, "type": "electric_scooter", "fusion_lat": 0.0, "lat": 38.8840105, "name": "5695775c09e51799c67f69a2871743b0", "fusion_lon": 0.0, "bike_id": "5695775c09e51799c67f69a2871743b0", "is_disabled": 0, "is_reserved": 0}, {"rental_uris": {"ios": "https://dc.lft.to/lastmile_qr_scan", "android": "https://dc.lft.to/lastmile_qr_scan"}, "lon": -77.03211966666667, "type": "electric_scooter", "fusion_lat": 0.0, "lat": 38.916981, "name": "f3f6772723ff7b4333badf64df4067e8", "fusion_lon": 0.0, "bike_id": "f3f6772723ff7b4333badf64df4067e8", "is_disabled": 0, "is_reserved": 0}, {"rental_uris": {"ios": "https://dc.lft.to/lastmile_qr_scan", "android": "https://dc.lft.to/lastmile_qr_scan"}, "lon": -77.03198416666666, "type": "electric_scooter", "fusion_lat": 0.0, "lat": 38.926804, "name": "5116d2af3e4fad8194b292bc39397873", "fusion_lon": 0.0, "bike_id": "5116d2af3e4fad8194b292bc39397873", "is_disabled": 0, "is_reserved": 0}, {"rental_uris": {"ios": "https://dc.lft.to/lastmile_qr_scan", "android": "https://dc.lft.to/lastmile_qr_scan"}, "lon": -77.0322885, "type": "electric_scooter", "fusion_lat": 0.0, "lat": 38.914104333333334, "name": "9dc7d6108d371e10acfad6f2d1c1de1d", "fusion_lon": 0.0, "bike_id": "9dc7d6108d371e10acfad6f2d1c1de1d", "is_disabled": 0, "is_reserved": 0}, {"rental_uris": {"ios": "https://dc.lft.to/lastmile_qr_scan", "android": "https://dc.lft.to/lastmile_qr_scan"}, "lon": -76.94632683333333, "type": "electric_scooter", "fusion_lat": 0.0, "lat": 38.89844933333333, "name": "fc38a38c0696455474e9b17bb6fa5f17", "fusion_lon": 0.0, "bike_id": "fc38a38c0696455474e9b17bb6fa5f17", "is_disabled": 0, "is_reserved": 0}, {"rental_uris": {"ios": "https://dc.lft.to/lastmile_qr_scan", "android": "https://dc.lft.to/lastmile_qr_scan"}, "lon": -77.072391, "type": "electric_scooter", "fusion_lat": 0.0, "lat": 38.9346285, "name": "51080cec126b1487bf6d7aa4faceca4b", "fusion_lon": 0.0, "bike_id": "51080cec126b1487bf6d7aa4faceca4b", "is_disabled": 0, "is_reserved": 0}, {"rental_uris": {"ios": "https://dc.lft.to/lastmile_qr_scan", "android": "https://dc.lft.to/lastmile_qr_scan"}, "lon": -76.94077416666667, "type": "electric_bike", "fusion_lat": 0.0, "lat": 38.875978, "name": "305084b31e0fe77a5c6e25fa1a11814d", "fusion_lon": 0.0, "bike_id": "305084b31e0fe77a5c6e25fa1a11814d", "is_disabled": 0, "is_reserved": 0}, {"rental_uris": {"ios": "https://dc.lft.to/lastmile_qr_scan", "android": "https://dc.lft.to/lastmile_qr_scan"}, "lon": -77.029835, "type": "electric_scooter", "fusion_lat": 0.0, "lat": 38.91555816666666, "name": "071fd2e3870a4f5fc752b4e3c721363b", "fusion_lon": 0.0, "bike_id": "071fd2e3870a4f5fc752b4e3c721363b", "is_disabled": 0, "is_reserved": 0}, {"rental_uris": {"ios": "https://dc.lft.to/lastmile_qr_scan", "android": "https://dc.lft.to/lastmile_qr_scan"}, "lon": -77.0321205, "type": "electric_scooter", "fusion_lat": 0.0, "lat": 38.9196805, "name": "19f48ad2be3c6f473c65402fc4a89d2e", "fusion_lon": 0.0, "bike_id": "19f48ad2be3c6f473c65402fc4a89d2e", "is_disabled": 0, "is_reserved": 0}, {"rental_uris": {"ios": "https://dc.lft.to/lastmile_qr_scan", "android": "https://dc.lft.to/lastmile_qr_scan"}, "lon": -76.9081315, "type": "electric_bike", "fusion_lat": 0.0, "lat": 38.9945525, "name": "cd5830757bb9ef7cedd79dcb1016775b", "fusion_lon": 0.0, "bike_id": "cd5830757bb9ef7cedd79dcb1016775b", "is_disabled": 0, "is_reserved": 0}, {"rental_uris": {"ios": "https://dc.lft.to/lastmile_qr_scan", "android": "https://dc.lft.to/lastmile_qr_scan"}, "lon": -77.04257616666666, "type": "electric_scooter", "fusion_lat": 0.0, "lat": 38.922156666666666, "name": "e28f4415ef78ecfc21bdfdf164198158", "fusion_lon": 0.0, "bike_id": "e28f4415ef78ecfc21bdfdf164198158", "is_disabled": 0, "is_reserved": 0}, {"rental_uris": {"ios": "https://dc.lft.to/lastmile_qr_scan", "android": "https://dc.lft.to/lastmile_qr_scan"}, "lon": -77.06293333333333, "type": "electric_scooter", "fusion_lat": 0.0, "lat": 38.903996166666666, "name": "4c35b296bde13b461e736731f779c12c", "fusion_lon": 0.0, "bike_id": "4c35b296bde13b461e736731f779c12c", "is_disabled": 0, "is_reserved": 0}, {"rental_uris": {"ios": "https://dc.lft.to/lastmile_qr_scan", "android": "https://dc.lft.to/lastmile_qr_scan"}, "lon": -77.03889083333334, "type": "electric_scooter", "fusion_lat": 0.0, "lat": 38.91713683333333, "name": "91496fdce5b400629572aa682312231c", "fusion_lon": 0.0, "bike_id": "91496fdce5b400629572aa682312231c", "is_disabled": 0, "is_reserved": 0}, {"rental_uris": {"ios": "https://dc.lft.to/lastmile_qr_scan", "android": "https://dc.lft.to/lastmile_qr_scan"}, "lon": -77.04819983333333, "type": "electric_scooter", "fusion_lat": 0.0, "lat": 38.91334716666667, "name": "1fcaced1e00d38bbb8bf9be2a370b16e", "fusion_lon": 0.0, "bike_id": "1fcaced1e00d38bbb8bf9be2a370b16e", "is_disabled": 0, "is_reserved": 0}, {"rental_uris": {"ios": "https://dc.lft.to/lastmile_qr_scan", "android": "https://dc.lft.to/lastmile_qr_scan"}, "lon": -77.011403, "type": "electric_scooter", "fusion_lat": 0.0, "lat": 38.89552233333333, "name": "709a20956945bc4a87048f02debf5662", "fusion_lon": 0.0, "bike_id": "709a20956945bc4a87048f02debf5662", "is_disabled": 0, "is_reserved": 0}, {"rental_uris": {"ios": "https://dc.lft.to/lastmile_qr_scan", "android": "https://dc.lft.to/lastmile_qr_scan"}, "lon": -77.0261175, "type": "electric_scooter", "fusion_lat": 0.0, "lat": 38.91706816666667, "name": "36c3dc7c4a803004a14d3a5e3c3414ae", "fusion_lon": 0.0, "bike_id": "36c3dc7c4a803004a14d3a5e3c3414ae", "is_disabled": 0, "is_reserved": 0}, {"rental_uris": {"ios": "https://dc.lft.to/lastmile_qr_scan", "android": "https://dc.lft.to/lastmile_qr_scan"}, "lon": -77.03160166666666, "type": "electric_scooter", "fusion_lat": 0.0, "lat": 38.91564733333333, "name": "9a4e5ed0f91120b7156e229dc16d5b31", "fusion_lon": 0.0, "bike_id": "9a4e5ed0f91120b7156e229dc16d5b31", "is_disabled": 0, "is_reserved": 0}, {"rental_uris": {"ios": "https://dc.lft.to/lastmile_qr_scan", "android": "https://dc.lft.to/lastmile_qr_scan"}, "lon": -76.99508433333334, "type": "electric_scooter", "fusion_lat": 0.0, "lat": 38.8810385, "name": "6c8094a619b3f7cc8eb67edb1783c896", "fusion_lon": 0.0, "bike_id": "6c8094a619b3f7cc8eb67edb1783c896", "is_disabled": 0, "is_reserved": 0}, {"rental_uris": {"ios": "https://dc.lft.to/lastmile_qr_scan", "android": "https://dc.lft.to/lastmile_qr_scan"}, "lon": -76.93177633333333, "type": "electric_scooter", "fusion_lat": 0.0, "lat": 38.89885816666666, "name": "12e43d0c00efa11c6075c59ef419953b", "fusion_lon": 0.0, "bike_id": "12e43d0c00efa11c6075c59ef419953b", "is_disabled": 0, "is_reserved": 0}, {"rental_uris": {"ios": "https://dc.lft.to/lastmile_qr_scan", "android": "https://dc.lft.to/lastmile_qr_scan"}, "lon": -77.04656166666666, "type": "electric_scooter", "fusion_lat": 0.0, "lat": 38.8933545, "name": "0bb030a1471b1387f7740155595bcf85", "fusion_lon": 0.0, "bike_id": "0bb030a1471b1387f7740155595bcf85", "is_disabled": 0, "is_reserved": 0}, {"rental_uris": {"ios": "https://dc.lft.to/lastmile_qr_scan", "android": "https://dc.lft.to/lastmile_qr_scan"}, "lon": -77.12048833333333, "type": "electric_bike", "fusion_lat": 0.0, "lat": 38.85521766666667, "name": "65c5674993c7202961bcbf8482461e2a", "fusion_lon": 0.0, "bike_id": "65c5674993c7202961bcbf8482461e2a", "is_disabled": 0, "is_reserved": 0}, {"rental_uris": {"ios": "https://dc.lft.to/lastmile_qr_scan", "android": "https://dc.lft.to/lastmile_qr_scan"}, "lon": -77.00068783333333, "type": "electric_scooter", "fusion_lat": 0.0, "lat": 38.905879666666664, "name": "f0fc72eb487fc5a1b648d05bf4406225", "fusion_lon": 0.0, "bike_id": "f0fc72eb487fc5a1b648d05bf4406225", "is_disabled": 0, "is_reserved": 0}, {"rental_uris": {"ios": "https://dc.lft.to/lastmile_qr_scan", "android": "https://dc.lft.to/lastmile_qr_scan"}, "lon": -77.04127116666666, "type": "electric_bike", "fusion_lat": 0.0, "lat": 38.92880566666667, "name": "7d843644a6529357aaf088fe8c9d7313", "fusion_lon": 0.0, "bike_id": "7d843644a6529357aaf088fe8c9d7313", "is_disabled": 0, "is_reserved": 0}, {"rental_uris": {"ios": "https://dc.lft.to/lastmile_qr_scan", "android": "https://dc.lft.to/lastmile_qr_scan"}, "lon": -76.98799583333333, "type": "electric_bike", "fusion_lat": 0.0, "lat": 38.8637515, "name": "d2574eb40d3b282feeaa29881c794576", "fusion_lon": 0.0, "bike_id": "d2574eb40d3b282feeaa29881c794576", "is_disabled": 0, "is_reserved": 0}, {"rental_uris": {"ios": "https://dc.lft.to/lastmile_qr_scan", "android": "https://dc.lft.to/lastmile_qr_scan"}, "lon": -77.00263866666667, "type": "electric_scooter", "fusion_lat": 0.0, "lat": 38.89898866666667, "name": "e8f58bd45beec04e16a0eb6c6925e4c1", "fusion_lon": 0.0, "bike_id": "e8f58bd45beec04e16a0eb6c6925e4c1", "is_disabled": 0, "is_reserved": 0}, {"rental_uris": {"ios": "https://dc.lft.to/lastmile_qr_scan", "android": "https://dc.lft.to/lastmile_qr_scan"}, "lon": -77.08599733333334, "type": "electric_scooter", "fusion_lat": 0.0, "lat": 38.96072, "name": "f0b86bfba0bd0df5e64d46e15027c450", "fusion_lon": 0.0, "bike_id": "f0b86bfba0bd0df5e64d46e15027c450", "is_disabled": 0, "is_reserved": 0}, {"rental_uris": {"ios": "https://dc.lft.to/lastmile_qr_scan", "android": "https://dc.lft.to/lastmile_qr_scan"}, "lon": -77.033499, "type": "electric_scooter", "fusion_lat": 0.0, "lat": 38.8875155, "name": "72911fc0d990a2964f56da1f7df0ceb0", "fusion_lon": 0.0, "bike_id": "72911fc0d990a2964f56da1f7df0ceb0", "is_disabled": 0, "is_reserved": 0}, {"rental_uris": {"ios": "https://dc.lft.to/lastmile_qr_scan", "android": "https://dc.lft.to/lastmile_qr_scan"}, "lon": -77.02453183333333, "type": "electric_scooter", "fusion_lat": 0.0, "lat": 38.91702166666666, "name": "4a224820ccfb4931b07f5fffea2be837", "fusion_lon": 0.0, "bike_id": "4a224820ccfb4931b07f5fffea2be837", "is_disabled": 0, "is_reserved": 0}, {"rental_uris": {"ios": "https://dc.lft.to/lastmile_qr_scan", "android": "https://dc.lft.to/lastmile_qr_scan"}, "lon": -77.019914, "type": "electric_scooter", "fusion_lat": 0.0, "lat": 38.877506833333335, "name": "bc1bdc9133af3f41a99c3c221167fb1d", "fusion_lon": 0.0, "bike_id": "bc1bdc9133af3f41a99c3c221167fb1d", "is_disabled": 0, "is_reserved": 0}, {"rental_uris": {"ios": "https://dc.lft.to/lastmile_qr_scan", "android": "https://dc.lft.to/lastmile_qr_scan"}, "lon": -77.04456383333333, "type": "electric_scooter", "fusion_lat": 0.0, "lat": 38.91960233333333, "name": "44cc2f02c9e269be0d60670efa82ec5a", "fusion_lon": 0.0, "bike_id": "44cc2f02c9e269be0d60670efa82ec5a", "is_disabled": 0, "is_reserved": 0}, {"rental_uris": {"ios": "https://dc.lft.to/lastmile_qr_scan", "android": "https://dc.lft.to/lastmile_qr_scan"}, "lon": -77.01074583333333, "type": "electric_bike", "fusion_lat": 0.0, "lat": 38.9565565, "name": "505b6ff70234c99bf17ed0cceac7998b", "fusion_lon": 0.0, "bike_id": "505b6ff70234c99bf17ed0cceac7998b", "is_disabled": 0, "is_reserved": 0}, {"rental_uris": {"ios": "https://dc.lft.to/lastmile_qr_scan", "android": "https://dc.lft.to/lastmile_qr_scan"}, "lon": -76.9984845, "type": "electric_scooter", "fusion_lat": 0.0, "lat": 38.89492383333334, "name": "5077209d6dea06b9670ac6aa9c8c276a", "fusion_lon": 0.0, "bike_id": "5077209d6dea06b9670ac6aa9c8c276a", "is_disabled": 0, "is_reserved": 0}, {"rental_uris": {"ios": "https://dc.lft.to/lastmile_qr_scan", "android": "https://dc.lft.to/lastmile_qr_scan"}, "lon": -77.03067566666667, "type": "electric_scooter", "fusion_lat": 0.0, "lat": 38.9057215, "name": "184e7bf363246246c8db7135654e4f18", "fusion_lon": 0.0, "bike_id": "184e7bf363246246c8db7135654e4f18", "is_disabled": 0, "is_reserved": 0}, {"rental_uris": {"ios": "https://dc.lft.to/lastmile_qr_scan", "android": "https://dc.lft.to/lastmile_qr_scan"}, "lon": -77.04461433333333, "type": "electric_scooter", "fusion_lat": 0.0, "lat": 38.90960483333333, "name": "d6d55c2fa8b303403608f08dc98d28d0", "fusion_lon": 0.0, "bike_id": "d6d55c2fa8b303403608f08dc98d28d0", "is_disabled": 0, "is_reserved": 0}, {"rental_uris": {"ios": "https://dc.lft.to/lastmile_qr_scan", "android": "https://dc.lft.to/lastmile_qr_scan"}, "lon": -77.02827083333334, "type": "electric_scooter", "fusion_lat": 0.0, "lat": 38.892329, "name": "cc207ecf5477b08f17a5259e4aff9361", "fusion_lon": 0.0, "bike_id": "cc207ecf5477b08f17a5259e4aff9361", "is_disabled": 0, "is_reserved": 0}, {"rental_uris": {"ios": "https://dc.lft.to/lastmile_qr_scan", "android": "https://dc.lft.to/lastmile_qr_scan"}, "lon": -77.03206233333333, "type": "electric_scooter", "fusion_lat": 0.0, "lat": 38.912886, "name": "fbdc0840f7f190f8f3e3e7587da8e6d7", "fusion_lon": 0.0, "bike_id": "fbdc0840f7f190f8f3e3e7587da8e6d7", "is_disabled": 0, "is_reserved": 0}, {"rental_uris": {"ios": "https://dc.lft.to/lastmile_qr_scan", "android": "https://dc.lft.to/lastmile_qr_scan"}, "lon": -77.05561133333333, "type": "electric_scooter", "fusion_lat": 0.0, "lat": 38.93043883333333, "name": "c71dbc4f7ad4e3ebc3cda66870bcc4d1", "fusion_lon": 0.0, "bike_id": "c71dbc4f7ad4e3ebc3cda66870bcc4d1", "is_disabled": 0, "is_reserved": 0}, {"rental_uris": {"ios": "https://dc.lft.to/lastmile_qr_scan", "android": "https://dc.lft.to/lastmile_qr_scan"}, "lon": -77.02594083333334, "type": "electric_scooter", "fusion_lat": 0.0, "lat": 38.91694533333333, "name": "7672991a9635f4250543fd477ddc78f2", "fusion_lon": 0.0, "bike_id": "7672991a9635f4250543fd477ddc78f2", "is_disabled": 0, "is_reserved": 0}, {"rental_uris": {"ios": "https://dc.lft.to/lastmile_qr_scan", "android": "https://dc.lft.to/lastmile_qr_scan"}, "lon": -77.03051666666667, "type": "electric_bike", "fusion_lat": 0.0, "lat": 38.95864733333333, "name": "1c255dd3adace7d5d1b93cc85ec68d6a", "fusion_lon": 0.0, "bike_id": "1c255dd3adace7d5d1b93cc85ec68d6a", "is_disabled": 0, "is_reserved": 0}, {"rental_uris": {"ios": "https://dc.lft.to/lastmile_qr_scan", "android": "https://dc.lft.to/lastmile_qr_scan"}, "lon": -77.0551465, "type": "electric_scooter", "fusion_lat": 0.0, "lat": 38.930004833333335, "name": "ac8ed3664992d1e8683595cff3a6b8ab", "fusion_lon": 0.0, "bike_id": "ac8ed3664992d1e8683595cff3a6b8ab", "is_disabled": 0, "is_reserved": 0}, {"rental_uris": {"ios": "https://dc.lft.to/lastmile_qr_scan", "android": "https://dc.lft.to/lastmile_qr_scan"}, "lon": -76.97327433333334, "type": "electric_scooter", "fusion_lat": 0.0, "lat": 38.91781666666667, "name": "8246bbd29b0e79a27db360f324a149dd", "fusion_lon": 0.0, "bike_id": "8246bbd29b0e79a27db360f324a149dd", "is_disabled": 0, "is_reserved": 0}, {"rental_uris": {"ios": "https://dc.lft.to/lastmile_qr_scan", "android": "https://dc.lft.to/lastmile_qr_scan"}, "lon": -77.0222185, "type": "electric_scooter", "fusion_lat": 0.0, "lat": 38.921020666666664, "name": "d0cf91407f9f9423a279868a511fe116", "fusion_lon": 0.0, "bike_id": "d0cf91407f9f9423a279868a511fe116", "is_disabled": 0, "is_reserved": 0}, {"rental_uris": {"ios": "https://dc.lft.to/lastmile_qr_scan", "android": "https://dc.lft.to/lastmile_qr_scan"}, "lon": -77.0220215, "type": "electric_scooter", "fusion_lat": 0.0, "lat": 38.89318383333333, "name": "f16671a73edee5dce4d4bbd1bd0ee76b", "fusion_lon": 0.0, "bike_id": "f16671a73edee5dce4d4bbd1bd0ee76b", "is_disabled": 0, "is_reserved": 0}, {"rental_uris": {"ios": "https://dc.lft.to/lastmile_qr_scan", "android": "https://dc.lft.to/lastmile_qr_scan"}, "lon": -77.0319595, "type": "electric_scooter", "fusion_lat": 0.0, "lat": 38.9113355, "name": "ed6f31d89b9d9eb460b771db62aeae27", "fusion_lon": 0.0, "bike_id": "ed6f31d89b9d9eb460b771db62aeae27", "is_disabled": 0, "is_reserved": 0}, {"rental_uris": {"ios": "https://dc.lft.to/lastmile_qr_scan", "android": "https://dc.lft.to/lastmile_qr_scan"}, "lon": -77.031543, "type": "electric_scooter", "fusion_lat": 0.0, "lat": 38.945328, "name": "de8f796b03a81836f0e92e7ea68df566", "fusion_lon": 0.0, "bike_id": "de8f796b03a81836f0e92e7ea68df566", "is_disabled": 0, "is_reserved": 0}, {"rental_uris": {"ios": "https://dc.lft.to/lastmile_qr_scan", "android": "https://dc.lft.to/lastmile_qr_scan"}, "lon": -77.0385085, "type": "electric_scooter", "fusion_lat": 0.0, "lat": 38.915716, "name": "b1b06938193222b28afdba54dd898d75", "fusion_lon": 0.0, "bike_id": "b1b06938193222b28afdba54dd898d75", "is_disabled": 0, "is_reserved": 0}, {"rental_uris": {"ios": "https://dc.lft.to/lastmile_qr_scan", "android": "https://dc.lft.to/lastmile_qr_scan"}, "lon": -77.01976466666666, "type": "electric_scooter", "fusion_lat": 0.0, "lat": 38.88589483333333, "name": "b2a171f8a8d6f3a3afab6f043fcf1007", "fusion_lon": 0.0, "bike_id": "b2a171f8a8d6f3a3afab6f043fcf1007", "is_disabled": 0, "is_reserved": 0}, {"rental_uris": {"ios": "https://dc.lft.to/lastmile_qr_scan", "android": "https://dc.lft.to/lastmile_qr_scan"}, "lon": -77.01529716666667, "type": "electric_scooter", "fusion_lat": 0.0, "lat": 38.88734933333333, "name": "75a1ade515c3a0b08a3b5bde2cba7297", "fusion_lon": 0.0, "bike_id": "75a1ade515c3a0b08a3b5bde2cba7297", "is_disabled": 0, "is_reserved": 0}, {"rental_uris": {"ios": "https://dc.lft.to/lastmile_qr_scan", "android": "https://dc.lft.to/lastmile_qr_scan"}, "lon": -76.9962125, "type": "electric_scooter", "fusion_lat": 0.0, "lat": 38.8856115, "name": "c15b4ce62719919ed379e2be124e8c7f", "fusion_lon": 0.0, "bike_id": "c15b4ce62719919ed379e2be124e8c7f", "is_disabled": 0, "is_reserved": 0}, {"rental_uris": {"ios": "https://dc.lft.to/lastmile_qr_scan", "android": "https://dc.lft.to/lastmile_qr_scan"}, "lon": -77.026965, "type": "electric_scooter", "fusion_lat": 0.0, "lat": 38.89549133333333, "name": "d7fcefa4ce70bbe96d9e0ed7d3aa3f65", "fusion_lon": 0.0, "bike_id": "d7fcefa4ce70bbe96d9e0ed7d3aa3f65", "is_disabled": 0, "is_reserved": 0}, {"rental_uris": {"ios": "https://dc.lft.to/lastmile_qr_scan", "android": "https://dc.lft.to/lastmile_qr_scan"}, "lon": -77.00578766666666, "type": "electric_scooter", "fusion_lat": 0.0, "lat": 38.844979, "name": "b1e1463060bca6b9d245d2f99bb75701", "fusion_lon": 0.0, "bike_id": "b1e1463060bca6b9d245d2f99bb75701", "is_disabled": 0, "is_reserved": 0}, {"rental_uris": {"ios": "https://dc.lft.to/lastmile_qr_scan", "android": "https://dc.lft.to/lastmile_qr_scan"}, "lon": -77.02187816666667, "type": "electric_scooter", "fusion_lat": 0.0, "lat": 38.897127, "name": "4bb07b4e1c1cba1d58b2e79da846161f", "fusion_lon": 0.0, "bike_id": "4bb07b4e1c1cba1d58b2e79da846161f", "is_disabled": 0, "is_reserved": 0}, {"rental_uris": {"ios": "https://dc.lft.to/lastmile_qr_scan", "android": "https://dc.lft.to/lastmile_qr_scan"}, "lon": -77.02499333333333, "type": "electric_scooter", "fusion_lat": 0.0, "lat": 38.90329466666667, "name": "96195ff7babfc804b4e00a184f6e22ff", "fusion_lon": 0.0, "bike_id": "96195ff7babfc804b4e00a184f6e22ff", "is_disabled": 0, "is_reserved": 0}, {"rental_uris": {"ios": "https://dc.lft.to/lastmile_qr_scan", "android": "https://dc.lft.to/lastmile_qr_scan"}, "lon": -77.03029833333333, "type": "electric_scooter", "fusion_lat": 0.0, "lat": 38.931189833333335, "name": "17ee1be7d6cd85e625a6944d0dcc334b", "fusion_lon": 0.0, "bike_id": "17ee1be7d6cd85e625a6944d0dcc334b", "is_disabled": 0, "is_reserved": 0}, {"rental_uris": {"ios": "https://dc.lft.to/lastmile_qr_scan", "android": "https://dc.lft.to/lastmile_qr_scan"}, "lon": -76.9443565, "type": "electric_bike", "fusion_lat": 0.0, "lat": 38.902982, "name": "c25a21fb07051e5041afc6ec7240823b", "fusion_lon": 0.0, "bike_id": "c25a21fb07051e5041afc6ec7240823b", "is_disabled": 0, "is_reserved": 0}, {"rental_uris": {"ios": "https://dc.lft.to/lastmile_qr_scan", "android": "https://dc.lft.to/lastmile_qr_scan"}, "lon": -77.01768633333333, "type": "electric_scooter", "fusion_lat": 0.0, "lat": 38.919590666666664, "name": "1a8d559c7c946246c6da8d1103d22da6", "fusion_lon": 0.0, "bike_id": "1a8d559c7c946246c6da8d1103d22da6", "is_disabled": 0, "is_reserved": 0}, {"rental_uris": {"ios": "https://dc.lft.to/lastmile_qr_scan", "android": "https://dc.lft.to/lastmile_qr_scan"}, "lon": -76.9721455, "type": "electric_bike", "fusion_lat": 0.0, "lat": 38.84482333333333, "name": "d6e8a422bbea23ed2daaf15db04a61a4", "fusion_lon": 0.0, "bike_id": "d6e8a422bbea23ed2daaf15db04a61a4", "is_disabled": 0, "is_reserved": 0}, {"rental_uris": {"ios": "https://dc.lft.to/lastmile_qr_scan", "android": "https://dc.lft.to/lastmile_qr_scan"}, "lon": -77.09551733333333, "type": "electric_bike", "fusion_lat": 0.0, "lat": 38.83731733333333, "name": "ac91653fbaf1a17843a88587050a62aa", "fusion_lon": 0.0, "bike_id": "ac91653fbaf1a17843a88587050a62aa", "is_disabled": 0, "is_reserved": 0}, {"rental_uris": {"ios": "https://dc.lft.to/lastmile_qr_scan", "android": "https://dc.lft.to/lastmile_qr_scan"}, "lon": -77.0038045, "type": "electric_bike", "fusion_lat": 0.0, "lat": 38.83612083333333, "name": "07e30d49d30aea603c3c5587d461dd11", "fusion_lon": 0.0, "bike_id": "07e30d49d30aea603c3c5587d461dd11", "is_disabled": 0, "is_reserved": 0}, {"rental_uris": {"ios": "https://dc.lft.to/lastmile_qr_scan", "android": "https://dc.lft.to/lastmile_qr_scan"}, "lon": -76.99064183333333, "type": "electric_scooter", "fusion_lat": 0.0, "lat": 38.8635585, "name": "9478c160cc2ad40f85e3511ad19107ad", "fusion_lon": 0.0, "bike_id": "9478c160cc2ad40f85e3511ad19107ad", "is_disabled": 0, "is_reserved": 0}, {"rental_uris": {"ios": "https://dc.lft.to/lastmile_qr_scan", "android": "https://dc.lft.to/lastmile_qr_scan"}, "lon": -77.01853766666666, "type": "electric_bike", "fusion_lat": 0.0, "lat": 38.903978333333335, "name": "7942a0258152071b4a4cfdfc3bc50b1e", "fusion_lon": 0.0, "bike_id": "7942a0258152071b4a4cfdfc3bc50b1e", "is_disabled": 0, "is_reserved": 0}, {"rental_uris": {"ios": "https://dc.lft.to/lastmile_qr_scan", "android": "https://dc.lft.to/lastmile_qr_scan"}, "lon": -77.02757783333334, "type": "electric_scooter", "fusion_lat": 0.0, "lat": 38.956182, "name": "af98e3f065b2008a8f64cda37bf3489f", "fusion_lon": 0.0, "bike_id": "af98e3f065b2008a8f64cda37bf3489f", "is_disabled": 0, "is_reserved": 0}, {"rental_uris": {"ios": "https://dc.lft.to/lastmile_qr_scan", "android": "https://dc.lft.to/lastmile_qr_scan"}, "lon": -77.02202333333334, "type": "electric_scooter", "fusion_lat": 0.0, "lat": 38.90969483333333, "name": "7dd0590379fd34aeda15000e41c238cb", "fusion_lon": 0.0, "bike_id": "7dd0590379fd34aeda15000e41c238cb", "is_disabled": 0, "is_reserved": 0}, {"rental_uris": {"ios": "https://dc.lft.to/lastmile_qr_scan", "android": "https://dc.lft.to/lastmile_qr_scan"}, "lon": -77.00365916666667, "type": "electric_scooter", "fusion_lat": 0.0, "lat": 38.838076666666666, "name": "a58b4cd1c93e9896de0c5eb7d8a1f270", "fusion_lon": 0.0, "bike_id": "a58b4cd1c93e9896de0c5eb7d8a1f270", "is_disabled": 0, "is_reserved": 0}, {"rental_uris": {"ios": "https://dc.lft.to/lastmile_qr_scan", "android": "https://dc.lft.to/lastmile_qr_scan"}, "lon": -77.05189133333333, "type": "electric_scooter", "fusion_lat": 0.0, "lat": 38.924113, "name": "2f2bf36a73fe22ef342b57a44085caef", "fusion_lon": 0.0, "bike_id": "2f2bf36a73fe22ef342b57a44085caef", "is_disabled": 0, "is_reserved": 0}, {"rental_uris": {"ios": "https://dc.lft.to/lastmile_qr_scan", "android": "https://dc.lft.to/lastmile_qr_scan"}, "lon": -76.946306, "type": "electric_scooter", "fusion_lat": 0.0, "lat": 38.898339666666665, "name": "9f65386f65c119042fd9332ae1d5065c", "fusion_lon": 0.0, "bike_id": "9f65386f65c119042fd9332ae1d5065c", "is_disabled": 0, "is_reserved": 0}, {"rental_uris": {"ios": "https://dc.lft.to/lastmile_qr_scan", "android": "https://dc.lft.to/lastmile_qr_scan"}, "lon": -77.01670566666667, "type": "electric_bike", "fusion_lat": 0.0, "lat": 38.88125566666667, "name": "1a2ac1ed0da9ddb82c39733ed2262884", "fusion_lon": 0.0, "bike_id": "1a2ac1ed0da9ddb82c39733ed2262884", "is_disabled": 0, "is_reserved": 0}, {"rental_uris": {"ios": "https://dc.lft.to/lastmile_qr_scan", "android": "https://dc.lft.to/lastmile_qr_scan"}, "lon": -77.08203566666667, "type": "electric_bike", "fusion_lat": 0.0, "lat": 38.92206816666667, "name": "00819339897d8ba19c4e656e12a0e225", "fusion_lon": 0.0, "bike_id": "00819339897d8ba19c4e656e12a0e225", "is_disabled": 0, "is_reserved": 0}, {"rental_uris": {"ios": "https://dc.lft.to/lastmile_qr_scan", "android": "https://dc.lft.to/lastmile_qr_scan"}, "lon": -77.02495583333334, "type": "electric_scooter", "fusion_lat": 0.0, "lat": 38.9198075, "name": "3aafa9708c1619b2580378232bc79676", "fusion_lon": 0.0, "bike_id": "3aafa9708c1619b2580378232bc79676", "is_disabled": 0, "is_reserved": 0}, {"rental_uris": {"ios": "https://dc.lft.to/lastmile_qr_scan", "android": "https://dc.lft.to/lastmile_qr_scan"}, "lon": -76.97610133333333, "type": "electric_bike", "fusion_lat": 0.0, "lat": 38.9131155, "name": "9a5913d32a549ed02d71ba37bccaada1", "fusion_lon": 0.0, "bike_id": "9a5913d32a549ed02d71ba37bccaada1", "is_disabled": 0, "is_reserved": 0}, {"rental_uris": {"ios": "https://dc.lft.to/lastmile_qr_scan", "android": "https://dc.lft.to/lastmile_qr_scan"}, "lon": -76.9903075, "type": "electric_scooter", "fusion_lat": 0.0, "lat": 38.858689166666665, "name": "a0d69e73b941230b644d547581baf424", "fusion_lon": 0.0, "bike_id": "a0d69e73b941230b644d547581baf424", "is_disabled": 0, "is_reserved": 0}, {"rental_uris": {"ios": "https://dc.lft.to/lastmile_qr_scan", "android": "https://dc.lft.to/lastmile_qr_scan"}, "lon": -77.093536, "type": "electric_bike", "fusion_lat": 0.0, "lat": 38.806580333333336, "name": "ca69e20f9b2861c20d01154dec4c0d78", "fusion_lon": 0.0, "bike_id": "ca69e20f9b2861c20d01154dec4c0d78", "is_disabled": 0, "is_reserved": 0}, {"rental_uris": {"ios": "https://dc.lft.to/lastmile_qr_scan", "android": "https://dc.lft.to/lastmile_qr_scan"}, "lon": -77.04380183333333, "type": "electric_scooter", "fusion_lat": 0.0, "lat": 38.92280516666667, "name": "3be4f1fbf7c8b960cef1255a04b43288", "fusion_lon": 0.0, "bike_id": "3be4f1fbf7c8b960cef1255a04b43288", "is_disabled": 0, "is_reserved": 0}, {"rental_uris": {"ios": "https://dc.lft.to/lastmile_qr_scan", "android": "https://dc.lft.to/lastmile_qr_scan"}, "lon": -77.06693766666666, "type": "electric_scooter", "fusion_lat": 0.0, "lat": 38.90974416666667, "name": "9021c5e1d35995a69a74160a4b9451c4", "fusion_lon": 0.0, "bike_id": "9021c5e1d35995a69a74160a4b9451c4", "is_disabled": 0, "is_reserved": 0}, {"rental_uris": {"ios": "https://dc.lft.to/lastmile_qr_scan", "android": "https://dc.lft.to/lastmile_qr_scan"}, "lon": -77.03205016666666, "type": "electric_scooter", "fusion_lat": 0.0, "lat": 38.916532833333335, "name": "1127e21b5460ef67f866f1beff0e5138", "fusion_lon": 0.0, "bike_id": "1127e21b5460ef67f866f1beff0e5138", "is_disabled": 0, "is_reserved": 0}, {"rental_uris": {"ios": "https://dc.lft.to/lastmile_qr_scan", "android": "https://dc.lft.to/lastmile_qr_scan"}, "lon": -77.00270616666667, "type": "electric_bike", "fusion_lat": 0.0, "lat": 38.91175716666667, "name": "0f5d90651aec23af31077c60a29a5c6c", "fusion_lon": 0.0, "bike_id": "0f5d90651aec23af31077c60a29a5c6c", "is_disabled": 0, "is_reserved": 0}, {"rental_uris": {"ios": "https://dc.lft.to/lastmile_qr_scan", "android": "https://dc.lft.to/lastmile_qr_scan"}, "lon": -77.0470935, "type": "electric_scooter", "fusion_lat": 0.0, "lat": 38.90865316666667, "name": "fb04ac87c5966237f8dfd41956298050", "fusion_lon": 0.0, "bike_id": "fb04ac87c5966237f8dfd41956298050", "is_disabled": 0, "is_reserved": 0}, {"rental_uris": {"ios": "https://dc.lft.to/lastmile_qr_scan", "android": "https://dc.lft.to/lastmile_qr_scan"}, "lon": -76.98171683333334, "type": "electric_scooter", "fusion_lat": 0.0, "lat": 38.87698366666667, "name": "2430f5c011628bc92f09b27dddadcd08", "fusion_lon": 0.0, "bike_id": "2430f5c011628bc92f09b27dddadcd08", "is_disabled": 0, "is_reserved": 0}, {"rental_uris": {"ios": "https://dc.lft.to/lastmile_qr_scan", "android": "https://dc.lft.to/lastmile_qr_scan"}, "lon": -77.04017883333333, "type": "electric_scooter", "fusion_lat": 0.0, "lat": 38.91795366666667, "name": "4514f04493bf96a8672a7183a003c27b", "fusion_lon": 0.0, "bike_id": "4514f04493bf96a8672a7183a003c27b", "is_disabled": 0, "is_reserved": 0}, {"rental_uris": {"ios": "https://dc.lft.to/lastmile_qr_scan", "android": "https://dc.lft.to/lastmile_qr_scan"}, "lon": -77.0409735, "type": "electric_scooter", "fusion_lat": 0.0, "lat": 38.905518, "name": "108c6ef7950866ab3334a5bf316634a7", "fusion_lon": 0.0, "bike_id": "108c6ef7950866ab3334a5bf316634a7", "is_disabled": 0, "is_reserved": 0}, {"rental_uris": {"ios": "https://dc.lft.to/lastmile_qr_scan", "android": "https://dc.lft.to/lastmile_qr_scan"}, "lon": -77.024925, "type": "electric_scooter", "fusion_lat": 0.0, "lat": 38.942916833333335, "name": "142d2f2976dd935233174e6e34d391ae", "fusion_lon": 0.0, "bike_id": "142d2f2976dd935233174e6e34d391ae", "is_disabled": 0, "is_reserved": 0}, {"rental_uris": {"ios": "https://dc.lft.to/lastmile_qr_scan", "android": "https://dc.lft.to/lastmile_qr_scan"}, "lon": -76.989601, "type": "electric_scooter", "fusion_lat": 0.0, "lat": 38.92956483333333, "name": "d95afd0d8e299593774a5ae075b5feee", "fusion_lon": 0.0, "bike_id": "d95afd0d8e299593774a5ae075b5feee", "is_disabled": 0, "is_reserved": 0}, {"rental_uris": {"ios": "https://dc.lft.to/lastmile_qr_scan", "android": "https://dc.lft.to/lastmile_qr_scan"}, "lon": -77.02272916666666, "type": "electric_scooter", "fusion_lat": 0.0, "lat": 38.91845583333333, "name": "f50aa56eb1508f5460382b963d89ad0b", "fusion_lon": 0.0, "bike_id": "f50aa56eb1508f5460382b963d89ad0b", "is_disabled": 0, "is_reserved": 0}, {"rental_uris": {"ios": "https://dc.lft.to/lastmile_qr_scan", "android": "https://dc.lft.to/lastmile_qr_scan"}, "lon": -77.0646955, "type": "electric_bike", "fusion_lat": 0.0, "lat": 38.9738265, "name": "97b75d1d8f60f5fd988278470f4fa4f3", "fusion_lon": 0.0, "bike_id": "97b75d1d8f60f5fd988278470f4fa4f3", "is_disabled": 0, "is_reserved": 0}, {"rental_uris": {"ios": "https://dc.lft.to/lastmile_qr_scan", "android": "https://dc.lft.to/lastmile_qr_scan"}, "lon": -77.03216933333333, "type": "electric_scooter", "fusion_lat": 0.0, "lat": 38.91408, "name": "89ec7139de1ac1a040170762c6ea6370", "fusion_lon": 0.0, "bike_id": "89ec7139de1ac1a040170762c6ea6370", "is_disabled": 0, "is_reserved": 0}, {"rental_uris": {"ios": "https://dc.lft.to/lastmile_qr_scan", "android": "https://dc.lft.to/lastmile_qr_scan"}, "lon": -77.00503816666667, "type": "electric_scooter", "fusion_lat": 0.0, "lat": 38.87536466666667, "name": "961063a72bf2051741fd360ee9493798", "fusion_lon": 0.0, "bike_id": "961063a72bf2051741fd360ee9493798", "is_disabled": 0, "is_reserved": 0}, {"rental_uris": {"ios": "https://dc.lft.to/lastmile_qr_scan", "android": "https://dc.lft.to/lastmile_qr_scan"}, "lon": -77.02705533333334, "type": "electric_scooter", "fusion_lat": 0.0, "lat": 38.9000585, "name": "e61382b9a1f91d271a1bdc8aa2bb6e51", "fusion_lon": 0.0, "bike_id": "e61382b9a1f91d271a1bdc8aa2bb6e51", "is_disabled": 0, "is_reserved": 0}, {"rental_uris": {"ios": "https://dc.lft.to/lastmile_qr_scan", "android": "https://dc.lft.to/lastmile_qr_scan"}, "lon": -76.99167416666667, "type": "electric_scooter", "fusion_lat": 0.0, "lat": 38.8792605, "name": "b4a8302ba73a205d397dd074f42dd7da", "fusion_lon": 0.0, "bike_id": "b4a8302ba73a205d397dd074f42dd7da", "is_disabled": 0, "is_reserved": 0}, {"rental_uris": {"ios": "https://dc.lft.to/lastmile_qr_scan", "android": "https://dc.lft.to/lastmile_qr_scan"}, "lon": -77.02384316666667, "type": "electric_scooter", "fusion_lat": 0.0, "lat": 38.93373316666667, "name": "8ec7b5f5c22a54b859513afaaaab74ea", "fusion_lon": 0.0, "bike_id": "8ec7b5f5c22a54b859513afaaaab74ea", "is_disabled": 0, "is_reserved": 0}, {"rental_uris": {"ios": "https://dc.lft.to/lastmile_qr_scan", "android": "https://dc.lft.to/lastmile_qr_scan"}, "lon": -77.02395066666666, "type": "electric_scooter", "fusion_lat": 0.0, "lat": 38.9069975, "name": "f9b463547106496af1275e69c52a55f3", "fusion_lon": 0.0, "bike_id": "f9b463547106496af1275e69c52a55f3", "is_disabled": 0, "is_reserved": 0}, {"rental_uris": {"ios": "https://dc.lft.to/lastmile_qr_scan", "android": "https://dc.lft.to/lastmile_qr_scan"}, "lon": -77.04615866666667, "type": "electric_bike", "fusion_lat": 0.0, "lat": 38.999101, "name": "48b41702adbad5793391cc404dbbb7a5", "fusion_lon": 0.0, "bike_id": "48b41702adbad5793391cc404dbbb7a5", "is_disabled": 0, "is_reserved": 0}, {"rental_uris": {"ios": "https://dc.lft.to/lastmile_qr_scan", "android": "https://dc.lft.to/lastmile_qr_scan"}, "lon": -77.03377316666666, "type": "electric_scooter", "fusion_lat": 0.0, "lat": 38.910392333333334, "name": "0375a8c2ae33256b813e6f2dc6aa4867", "fusion_lon": 0.0, "bike_id": "0375a8c2ae33256b813e6f2dc6aa4867", "is_disabled": 0, "is_reserved": 0}, {"rental_uris": {"ios": "https://dc.lft.to/lastmile_qr_scan", "android": "https://dc.lft.to/lastmile_qr_scan"}, "lon": -77.0331905, "type": "electric_scooter", "fusion_lat": 0.0, "lat": 38.92874416666667, "name": "c1430aedd1e144ceb7b30493ed22f5fa", "fusion_lon": 0.0, "bike_id": "c1430aedd1e144ceb7b30493ed22f5fa", "is_disabled": 0, "is_reserved": 0}, {"rental_uris": {"ios": "https://dc.lft.to/lastmile_qr_scan", "android": "https://dc.lft.to/lastmile_qr_scan"}, "lon": -77.0239735, "type": "electric_scooter", "fusion_lat": 0.0, "lat": 38.905935666666664, "name": "24da381c5e407490a22ff4c45e4e23de", "fusion_lon": 0.0, "bike_id": "24da381c5e407490a22ff4c45e4e23de", "is_disabled": 0, "is_reserved": 0}, {"rental_uris": {"ios": "https://dc.lft.to/lastmile_qr_scan", "android": "https://dc.lft.to/lastmile_qr_scan"}, "lon": -76.99945233333334, "type": "electric_bike", "fusion_lat": 0.0, "lat": 38.923417666666666, "name": "62524282c01346a74815cc1ecd438fd9", "fusion_lon": 0.0, "bike_id": "62524282c01346a74815cc1ecd438fd9", "is_disabled": 0, "is_reserved": 0}, {"rental_uris": {"ios": "https://dc.lft.to/lastmile_qr_scan", "android": "https://dc.lft.to/lastmile_qr_scan"}, "lon": -76.99779633333333, "type": "electric_scooter", "fusion_lat": 0.0, "lat": 38.844276, "name": "4b0eb1335c1d17b89c6a37f7416b4248", "fusion_lon": 0.0, "bike_id": "4b0eb1335c1d17b89c6a37f7416b4248", "is_disabled": 0, "is_reserved": 0}, {"rental_uris": {"ios": "https://dc.lft.to/lastmile_qr_scan", "android": "https://dc.lft.to/lastmile_qr_scan"}, "lon": -77.066098, "type": "electric_scooter", "fusion_lat": 0.0, "lat": 38.9053015, "name": "d06bcc8c033e02fb26d1da73268b4aa9", "fusion_lon": 0.0, "bike_id": "d06bcc8c033e02fb26d1da73268b4aa9", "is_disabled": 0, "is_reserved": 0}, {"rental_uris": {"ios": "https://dc.lft.to/lastmile_qr_scan", "android": "https://dc.lft.to/lastmile_qr_scan"}, "lon": -76.997552, "type": "electric_scooter", "fusion_lat": 0.0, "lat": 38.92164133333333, "name": "87db209f731501eb39e4066bdf85747a", "fusion_lon": 0.0, "bike_id": "87db209f731501eb39e4066bdf85747a", "is_disabled": 0, "is_reserved": 0}, {"rental_uris": {"ios": "https://dc.lft.to/lastmile_qr_scan", "android": "https://dc.lft.to/lastmile_qr_scan"}, "lon": -77.03694283333333, "type": "electric_scooter", "fusion_lat": 0.0, "lat": 38.92757433333333, "name": "1c12c171a00db7b0a369d5e2e7c08f83", "fusion_lon": 0.0, "bike_id": "1c12c171a00db7b0a369d5e2e7c08f83", "is_disabled": 0, "is_reserved": 0}, {"rental_uris": {"ios": "https://dc.lft.to/lastmile_qr_scan", "android": "https://dc.lft.to/lastmile_qr_scan"}, "lon": -77.06672766666667, "type": "electric_scooter", "fusion_lat": 0.0, "lat": 38.914065, "name": "086f19d214cd9dbc8645bad1978d1202", "fusion_lon": 0.0, "bike_id": "086f19d214cd9dbc8645bad1978d1202", "is_disabled": 0, "is_reserved": 0}, {"rental_uris": {"ios": "https://dc.lft.to/lastmile_qr_scan", "android": "https://dc.lft.to/lastmile_qr_scan"}, "lon": -77.04985266666667, "type": "electric_scooter", "fusion_lat": 0.0, "lat": 38.896072333333336, "name": "e45c5fb9a3bf4d77ea58e1d42bb4edec", "fusion_lon": 0.0, "bike_id": "e45c5fb9a3bf4d77ea58e1d42bb4edec", "is_disabled": 0, "is_reserved": 0}, {"rental_uris": {"ios": "https://dc.lft.to/lastmile_qr_scan", "android": "https://dc.lft.to/lastmile_qr_scan"}, "lon": -77.015265, "type": "electric_scooter", "fusion_lat": 0.0, "lat": 38.87273, "name": "2a91aceb6b5a696f9497222b7578fb94", "fusion_lon": 0.0, "bike_id": "2a91aceb6b5a696f9497222b7578fb94", "is_disabled": 0, "is_reserved": 0}, {"rental_uris": {"ios": "https://dc.lft.to/lastmile_qr_scan", "android": "https://dc.lft.to/lastmile_qr_scan"}, "lon": -77.0499765, "type": "electric_scooter", "fusion_lat": 0.0, "lat": 38.892277, "name": "de1f1a557c32d4ea647782a2a04620ee", "fusion_lon": 0.0, "bike_id": "de1f1a557c32d4ea647782a2a04620ee", "is_disabled": 0, "is_reserved": 0}, {"rental_uris": {"ios": "https://dc.lft.to/lastmile_qr_scan", "android": "https://dc.lft.to/lastmile_qr_scan"}, "lon": -76.979834, "type": "electric_bike", "fusion_lat": 0.0, "lat": 38.877562, "name": "d0ea7ae211ea07b7264f0918bbf2e23f", "fusion_lon": 0.0, "bike_id": "d0ea7ae211ea07b7264f0918bbf2e23f", "is_disabled": 0, "is_reserved": 0}, {"rental_uris": {"ios": "https://dc.lft.to/lastmile_qr_scan", "android": "https://dc.lft.to/lastmile_qr_scan"}, "lon": -77.02580766666667, "type": "electric_scooter", "fusion_lat": 0.0, "lat": 38.90148966666667, "name": "e7e58b158a496bfad9017331767d6612", "fusion_lon": 0.0, "bike_id": "e7e58b158a496bfad9017331767d6612", "is_disabled": 0, "is_reserved": 0}, {"rental_uris": {"ios": "https://dc.lft.to/lastmile_qr_scan", "android": "https://dc.lft.to/lastmile_qr_scan"}, "lon": -77.3609185, "type": "electric_bike", "fusion_lat": 0.0, "lat": 38.93959066666667, "name": "d4320f499ae93e6514b6bfd193df339f", "fusion_lon": 0.0, "bike_id": "d4320f499ae93e6514b6bfd193df339f", "is_disabled": 0, "is_reserved": 0}, {"rental_uris": {"ios": "https://dc.lft.to/lastmile_qr_scan", "android": "https://dc.lft.to/lastmile_qr_scan"}, "lon": -77.02092633333334, "type": "electric_scooter", "fusion_lat": 0.0, "lat": 38.910090333333336, "name": "0e3fa2c3e68f5d723bf9fae211bfdfd5", "fusion_lon": 0.0, "bike_id": "0e3fa2c3e68f5d723bf9fae211bfdfd5", "is_disabled": 0, "is_reserved": 0}, {"rental_uris": {"ios": "https://dc.lft.to/lastmile_qr_scan", "android": "https://dc.lft.to/lastmile_qr_scan"}, "lon": -77.03294183333334, "type": "electric_scooter", "fusion_lat": 0.0, "lat": 38.92216366666667, "name": "7d622fe3a725d198533f4a4b47872482", "fusion_lon": 0.0, "bike_id": "7d622fe3a725d198533f4a4b47872482", "is_disabled": 0, "is_reserved": 0}, {"rental_uris": {"ios": "https://dc.lft.to/lastmile_qr_scan", "android": "https://dc.lft.to/lastmile_qr_scan"}, "lon": -77.03490183333334, "type": "electric_scooter", "fusion_lat": 0.0, "lat": 38.91896583333333, "name": "835d065021078f9260804fc87d7fd73b", "fusion_lon": 0.0, "bike_id": "835d065021078f9260804fc87d7fd73b", "is_disabled": 0, "is_reserved": 0}, {"rental_uris": {"ios": "https://dc.lft.to/lastmile_qr_scan", "android": "https://dc.lft.to/lastmile_qr_scan"}, "lon": -77.03341083333333, "type": "electric_scooter", "fusion_lat": 0.0, "lat": 38.9000655, "name": "70f915269a12b0d746b4b358945c8084", "fusion_lon": 0.0, "bike_id": "70f915269a12b0d746b4b358945c8084", "is_disabled": 0, "is_reserved": 0}, {"rental_uris": {"ios": "https://dc.lft.to/lastmile_qr_scan", "android": "https://dc.lft.to/lastmile_qr_scan"}, "lon": -77.0319665, "type": "electric_scooter", "fusion_lat": 0.0, "lat": 38.91470866666667, "name": "f7ff7a0ff46068e587e061c286f4edd9", "fusion_lon": 0.0, "bike_id": "f7ff7a0ff46068e587e061c286f4edd9", "is_disabled": 0, "is_reserved": 0}, {"rental_uris": {"ios": "https://dc.lft.to/lastmile_qr_scan", "android": "https://dc.lft.to/lastmile_qr_scan"}, "lon": -77.04050183333334, "type": "electric_scooter", "fusion_lat": 0.0, "lat": 38.92717116666667, "name": "1b0105fcbbf4b93f5121c1c5dbb40264", "fusion_lon": 0.0, "bike_id": "1b0105fcbbf4b93f5121c1c5dbb40264", "is_disabled": 0, "is_reserved": 0}, {"rental_uris": {"ios": "https://dc.lft.to/lastmile_qr_scan", "android": "https://dc.lft.to/lastmile_qr_scan"}, "lon": -77.098668, "type": "electric_bike", "fusion_lat": 0.0, "lat": 38.85367333333333, "name": "2ca4b2337484879c4c638872a84cd68a", "fusion_lon": 0.0, "bike_id": "2ca4b2337484879c4c638872a84cd68a", "is_disabled": 0, "is_reserved": 0}, {"rental_uris": {"ios": "https://dc.lft.to/lastmile_qr_scan", "android": "https://dc.lft.to/lastmile_qr_scan"}, "lon": -77.0320705, "type": "electric_scooter", "fusion_lat": 0.0, "lat": 38.911359, "name": "a844995e19443fc5e74bdd7c7b96db77", "fusion_lon": 0.0, "bike_id": "a844995e19443fc5e74bdd7c7b96db77", "is_disabled": 0, "is_reserved": 0}, {"rental_uris": {"ios": "https://dc.lft.to/lastmile_qr_scan", "android": "https://dc.lft.to/lastmile_qr_scan"}, "lon": -77.027975, "type": "electric_scooter", "fusion_lat": 0.0, "lat": 38.92973583333333, "name": "9b86f3245e2c47a320a955fe1e7344ca", "fusion_lon": 0.0, "bike_id": "9b86f3245e2c47a320a955fe1e7344ca", "is_disabled": 0, "is_reserved": 0}, {"rental_uris": {"ios": "https://dc.lft.to/lastmile_qr_scan", "android": "https://dc.lft.to/lastmile_qr_scan"}, "lon": -77.03413033333334, "type": "electric_bike", "fusion_lat": 0.0, "lat": 38.90049533333333, "name": "24e2bc45a5f66e62b6d31a494a64215d", "fusion_lon": 0.0, "bike_id": "24e2bc45a5f66e62b6d31a494a64215d", "is_disabled": 0, "is_reserved": 0}, {"rental_uris": {"ios": "https://dc.lft.to/lastmile_qr_scan", "android": "https://dc.lft.to/lastmile_qr_scan"}, "lon": -77.0683315, "type": "electric_scooter", "fusion_lat": 0.0, "lat": 38.91722983333333, "name": "eb144d3a145f343cb953c97549b5fe37", "fusion_lon": 0.0, "bike_id": "eb144d3a145f343cb953c97549b5fe37", "is_disabled": 0, "is_reserved": 0}, {"rental_uris": {"ios": "https://dc.lft.to/lastmile_qr_scan", "android": "https://dc.lft.to/lastmile_qr_scan"}, "lon": -77.04570116666666, "type": "electric_scooter", "fusion_lat": 0.0, "lat": 38.908680333333336, "name": "b4885efe612f85c624580a94ccc8d866", "fusion_lon": 0.0, "bike_id": "b4885efe612f85c624580a94ccc8d866", "is_disabled": 0, "is_reserved": 0}, {"rental_uris": {"ios": "https://dc.lft.to/lastmile_qr_scan", "android": "https://dc.lft.to/lastmile_qr_scan"}, "lon": -77.045058, "type": "electric_scooter", "fusion_lat": 0.0, "lat": 38.90545216666666, "name": "3f6d1253ffdcaa7ddc4c6aa9dba234e0", "fusion_lon": 0.0, "bike_id": "3f6d1253ffdcaa7ddc4c6aa9dba234e0", "is_disabled": 0, "is_reserved": 0}, {"rental_uris": {"ios": "https://dc.lft.to/lastmile_qr_scan", "android": "https://dc.lft.to/lastmile_qr_scan"},