{"data": {"bikes": [{"lat": 38.84423233333333, "is_disabled": 0, "type": "electric_scooter", "lon": -76.99785933333334, "bike_id": "587e43773bc4cacd64ccf04fb65b675d", "fusion_lat": 0.0, "name": "587e43773bc4cacd64ccf04fb65b675d", "is_reserved": 0, "rental_uris": {"android": "https://dc.lft.to/lastmile_qr_scan", "ios": "https://dc.lft.to/lastmile_qr_scan"}, "fusion_lon": 0.0}, {"lat": 38.9170225, "is_disabled": 0, "type": "electric_scooter", "lon": -77.011033, "bike_id": "07bd4e475531741c665fbde92e34d97e", "fusion_lat": 0.0, "name": "07bd4e475531741c665fbde92e34d97e", "is_reserved": 0, "rental_uris": {"android": "https://dc.lft.to/lastmile_qr_scan", "ios": "https://dc.lft.to/lastmile_qr_scan"}, "fusion_lon": 0.0}, {"lat": 38.866214, "is_disabled": 0, "type": "electric_scooter", "lon": -76.986466, "bike_id": "aced7f3a4227b48f2edde0ef9cef2c76", "fusion_lat": 0.0, "name": "aced7f3a4227b48f2edde0ef9cef2c76", "is_reserved": 0, "rental_uris": {"android": "https://dc.lft.to/lastmile_qr_scan", "ios": "https://dc.lft.to/lastmile_qr_scan"}, "fusion_lon": 0.0}, {"lat": 38.95329533333334, "is_disabled": 0, "type": "electric_bike", "lon": -76.98820866666667, "bike_id": "eb24e7fec6f4c5fb8d03c103f27579ca", "fusion_lat": 0.0, "name": "eb24e7fec6f4c5fb8d03c103f27579ca", "is_reserved": 0, "rental_uris": {"android": "https://dc.lft.to/lastmile_qr_scan", "ios": "https://dc.lft.to/lastmile_qr_scan"}, "fusion_lon": 0.0}, {"lat": 38.8521145, "is_disabled": 0, "type": "electric_bike", "lon": -76.99580583333334, "bike_id": "536eece23bb324a6baaa27e522aab303", "fusion_lat": 0.0, "name": "536eece23bb324a6baaa27e522aab303", "is_reserved": 0, "rental_uris": {"android": "https://dc.lft.to/lastmile_qr_scan", "ios": "https://dc.lft.to/lastmile_qr_scan"}, "fusion_lon": 0.0}, {"lat": 38.91547766666667, "is_disabled": 0, "type": "electric_scooter", "lon": -77.03246266666666, "bike_id": "09c3f2cdb7fe3c7ec3c5e496a9e688c1", "fusion_lat": 0.0, "name": "09c3f2cdb7fe3c7ec3c5e496a9e688c1", "is_reserved": 0, "rental_uris": {"android": "https://dc.lft.to/lastmile_qr_scan", "ios": "https://dc.lft.to/lastmile_qr_scan"}, "fusion_lon": 0.0}, {"lat": 38.91420266666667, "is_disabled": 0, "type": "electric_scooter", "lon": -77.03205833333334, "bike_id": "faa1dc54a2fc65e9bed42c7eb0094676", "fusion_lat": 0.0, "name": "faa1dc54a2fc65e9bed42c7eb0094676", "is_reserved": 0, "rental_uris": {"android": "https://dc.lft.to/lastmile_qr_scan", "ios": "https://dc.lft.to/lastmile_qr_scan"}, "fusion_lon": 0.0}, {"lat": 38.932246166666665, "is_disabled": 0, "type": "electric_scooter", "lon": -77.0239445, "bike_id": "e1466521fc2c169f91f932605186aca3", "fusion_lat": 0.0, "name": "e1466521fc2c169f91f932605186aca3", "is_reserved": 0, "rental_uris": {"android": "https://dc.lft.to/lastmile_qr_scan", "ios": "https://dc.lft.to/lastmile_qr_scan"}, "fusion_lon": 0.0}, {"lat": 38.90790966666667, "is_disabled": 0, "type": "electric_scooter", "lon": -77.00378333333333, "bike_id": "dd68b3dd742457a33bec9e63c402440a", "fusion_lat": 0.0, "name": "dd68b3dd742457a33bec9e63c402440a", "is_reserved": 0, "rental_uris": {"android": "https://dc.lft.to/lastmile_qr_scan", "ios": "https://dc.lft.to/lastmile_qr_scan"}, "fusion_lon": 0.0}, {"lat": 38.9218205, "is_disabled": 0, "type": "electric_scooter", "lon": -77.02420316666667, "bike_id": "77fdf788903352049f8d601de2e73ba4", "fusion_lat": 0.0, "name": "77fdf788903352049f8d601de2e73ba4", "is_reserved": 0, "rental_uris": {"android": "https://dc.lft.to/lastmile_qr_scan", "ios": "https://dc.lft.to/lastmile_qr_scan"}, "fusion_lon": 0.0}, {"lat": 38.804954333333335, "is_disabled": 0, "type": "electric_bike", "lon": -77.0412945, "bike_id": "86218ea08eb3ad1a65be2567db1f352b", "fusion_lat": 0.0, "name": "86218ea08eb3ad1a65be2567db1f352b", "is_reserved": 0, "rental_uris": {"android": "https://dc.lft.to/lastmile_qr_scan", "ios": "https://dc.lft.to/lastmile_qr_scan"}, "fusion_lon": 0.0}, {"lat": 38.91411516666667, "is_disabled": 0, "type": "electric_scooter", "lon": -77.0316485, "bike_id": "3aa642fdb344fa969ce08ef90a14c44f", "fusion_lat": 0.0, "name": "3aa642fdb344fa969ce08ef90a14c44f", "is_reserved": 0, "rental_uris": {"android": "https://dc.lft.to/lastmile_qr_scan", "ios": "https://dc.lft.to/lastmile_qr_scan"}, "fusion_lon": 0.0}, {"lat": 38.907070166666664, "is_disabled": 0, "type": "electric_scooter", "lon": -77.03103633333333, "bike_id": "53df56e850f3fc39ccc2ad2b4a095737", "fusion_lat": 0.0, "name": "53df56e850f3fc39ccc2ad2b4a095737", "is_reserved": 0, "rental_uris": {"android": "https://dc.lft.to/lastmile_qr_scan", "ios": "https://dc.lft.to/lastmile_qr_scan"}, "fusion_lon": 0.0}, {"lat": 38.93112466666667, "is_disabled": 0, "type": "electric_scooter", "lon": -77.03815516666667, "bike_id": "58a3524b3041db00172697ed5c8d4444", "fusion_lat": 0.0, "name": "58a3524b3041db00172697ed5c8d4444", "is_reserved": 0, "rental_uris": {"android": "https://dc.lft.to/lastmile_qr_scan", "ios": "https://dc.lft.to/lastmile_qr_scan"}, "fusion_lon": 0.0}, {"lat": 38.900407333333334, "is_disabled": 0, "type": "electric_scooter", "lon": -77.01413033333333, "bike_id": "57f67a1b725199ee94ff50e325cf6b7c", "fusion_lat": 0.0, "name": "57f67a1b725199ee94ff50e325cf6b7c", "is_reserved": 0, "rental_uris": {"android": "https://dc.lft.to/lastmile_qr_scan", "ios": "https://dc.lft.to/lastmile_qr_scan"}, "fusion_lon": 0.0}, {"lat": 38.918646, "is_disabled": 0, "type": "electric_scooter", "lon": -77.0403115, "bike_id": "f60b1127b925173416e275a676fe6732", "fusion_lat": 0.0, "name": "f60b1127b925173416e275a676fe6732", "is_reserved": 0, "rental_uris": {"android": "https://dc.lft.to/lastmile_qr_scan", "ios": "https://dc.lft.to/lastmile_qr_scan"}, "fusion_lon": 0.0}, {"lat": 38.903704833333336, "is_disabled": 0, "type": "electric_scooter", "lon": -77.02817416666667, "bike_id": "c444cad2c9420e73813f07cd3619ff36", "fusion_lat": 0.0, "name": "c444cad2c9420e73813f07cd3619ff36", "is_reserved": 0, "rental_uris": {"android": "https://dc.lft.to/lastmile_qr_scan", "ios": "https://dc.lft.to/lastmile_qr_scan"}, "fusion_lon": 0.0}, {"lat": 38.93080333333333, "is_disabled": 0, "type": "electric_scooter", "lon": -77.0280285, "bike_id": "22589d8c9c7c5991309f50d69b859794", "fusion_lat": 0.0, "name": "22589d8c9c7c5991309f50d69b859794", "is_reserved": 0, "rental_uris": {"android": "https://dc.lft.to/lastmile_qr_scan", "ios": "https://dc.lft.to/lastmile_qr_scan"}, "fusion_lon": 0.0}, {"lat": 38.910715, "is_disabled": 0, "type": "electric_scooter", "lon": -77.016393, "bike_id": "2cb8de4aeee06f82bb02677a0e8e0275", "fusion_lat": 0.0, "name": "2cb8de4aeee06f82bb02677a0e8e0275", "is_reserved": 0, "rental_uris": {"android": "https://dc.lft.to/lastmile_qr_scan", "ios": "https://dc.lft.to/lastmile_qr_scan"}, "fusion_lon": 0.0}, {"lat": 38.86593883333333, "is_disabled": 0, "type": "electric_bike", "lon": -76.93231433333334, "bike_id": "8ba8828dde50d35c57cabdf0460505f1", "fusion_lat": 0.0, "name": "8ba8828dde50d35c57cabdf0460505f1", "is_reserved": 0, "rental_uris": {"android": "https://dc.lft.to/lastmile_qr_scan", "ios": "https://dc.lft.to/lastmile_qr_scan"}, "fusion_lon": 0.0}, {"lat": 38.8923595, "is_disabled": 0, "type": "electric_scooter", "lon": -77.03965966666667, "bike_id": "2f1b11994fed2ffe641e3935798b861b", "fusion_lat": 0.0, "name": "2f1b11994fed2ffe641e3935798b861b", "is_reserved": 0, "rental_uris": {"android": "https://dc.lft.to/lastmile_qr_scan", "ios": "https://dc.lft.to/lastmile_qr_scan"}, "fusion_lon": 0.0}, {"lat": 38.96214616666666, "is_disabled": 0, "type": "electric_bike", "lon": -77.02786533333334, "bike_id": "9022661ad560981b53131e2c19632eab", "fusion_lat": 0.0, "name": "9022661ad560981b53131e2c19632eab", "is_reserved": 0, "rental_uris": {"android": "https://dc.lft.to/lastmile_qr_scan", "ios": "https://dc.lft.to/lastmile_qr_scan"}, "fusion_lon": 0.0}, {"lat": 38.8521865, "is_disabled": 0, "type": "electric_bike", "lon": -77.12958683333333, "bike_id": "86916e6a9a3f6d23ee5850b4caf274d7", "fusion_lat": 0.0, "name": "86916e6a9a3f6d23ee5850b4caf274d7", "is_reserved": 0, "rental_uris": {"android": "https://dc.lft.to/lastmile_qr_scan", "ios": "https://dc.lft.to/lastmile_qr_scan"}, "fusion_lon": 0.0}, {"lat": 38.90066933333333, "is_disabled": 0, "type": "electric_scooter", "lon": -77.0075995, "bike_id": "52b4ec1ac5b532cdfc25587cdcb28c17", "fusion_lat": 0.0, "name": "52b4ec1ac5b532cdfc25587cdcb28c17", "is_reserved": 0, "rental_uris": {"android": "https://dc.lft.to/lastmile_qr_scan", "ios": "https://dc.lft.to/lastmile_qr_scan"}, "fusion_lon": 0.0}, {"lat": 38.927888, "is_disabled": 0, "type": "electric_scooter", "lon": -77.0315155, "bike_id": "de8a0e991559db3e8332f4dc4757846e", "fusion_lat": 0.0, "name": "de8a0e991559db3e8332f4dc4757846e", "is_reserved": 0, "rental_uris": {"android": "https://dc.lft.to/lastmile_qr_scan", "ios": "https://dc.lft.to/lastmile_qr_scan"}, "fusion_lon": 0.0}, {"lat": 38.9111135, "is_disabled": 0, "type": "electric_scooter", "lon": -77.03745016666667, "bike_id": "8b48de39a8878d01ff3470bc80116ebc", "fusion_lat": 0.0, "name": "8b48de39a8878d01ff3470bc80116ebc", "is_reserved": 0, "rental_uris": {"android": "https://dc.lft.to/lastmile_qr_scan", "ios": "https://dc.lft.to/lastmile_qr_scan"}, "fusion_lon": 0.0}, {"lat": 38.8990015, "is_disabled": 0, "type": "electric_scooter", "lon": -77.0035095, "bike_id": "ccc3fff005880c1f2784054646081ecf", "fusion_lat": 0.0, "name": "ccc3fff005880c1f2784054646081ecf", "is_reserved": 0, "rental_uris": {"android": "https://dc.lft.to/lastmile_qr_scan", "ios": "https://dc.lft.to/lastmile_qr_scan"}, "fusion_lon": 0.0}, {"lat": 38.91111316666667, "is_disabled": 0, "type": "electric_scooter", "lon": -77.0436315, "bike_id": "af7e52df63bc93e3426845951f507bca", "fusion_lat": 0.0, "name": "af7e52df63bc93e3426845951f507bca", "is_reserved": 0, "rental_uris": {"android": "https://dc.lft.to/lastmile_qr_scan", "ios": "https://dc.lft.to/lastmile_qr_scan"}, "fusion_lon": 0.0}, {"lat": 38.91682333333333, "is_disabled": 0, "type": "electric_scooter", "lon": -77.025139, "bike_id": "c0a941d443f223eab3ff25378a7c0693", "fusion_lat": 0.0, "name": "c0a941d443f223eab3ff25378a7c0693", "is_reserved": 0, "rental_uris": {"android": "https://dc.lft.to/lastmile_qr_scan", "ios": "https://dc.lft.to/lastmile_qr_scan"}, "fusion_lon": 0.0}, {"lat": 38.894227666666666, "is_disabled": 0, "type": "electric_scooter", "lon": -77.0394135, "bike_id": "4466ba1318b06d25aa5e442bf4374015", "fusion_lat": 0.0, "name": "4466ba1318b06d25aa5e442bf4374015", "is_reserved": 0, "rental_uris": {"android": "https://dc.lft.to/lastmile_qr_scan", "ios": "https://dc.lft.to/lastmile_qr_scan"}, "fusion_lon": 0.0}, {"lat": 38.934477333333334, "is_disabled": 0, "type": "electric_scooter", "lon": -77.03254133333333, "bike_id": "6af379507032fc419d6e8cc4cec8052f", "fusion_lat": 0.0, "name": "6af379507032fc419d6e8cc4cec8052f", "is_reserved": 0, "rental_uris": {"android": "https://dc.lft.to/lastmile_qr_scan", "ios": "https://dc.lft.to/lastmile_qr_scan"}, "fusion_lon": 0.0}, {"lat": 38.9024775, "is_disabled": 0, "type": "electric_scooter", "lon": -77.04377183333334, "bike_id": "fdeab67ba2d55e88f4d41f7bacddad95", "fusion_lat": 0.0, "name": "fdeab67ba2d55e88f4d41f7bacddad95", "is_reserved": 0, "rental_uris": {"android": "https://dc.lft.to/lastmile_qr_scan", "ios": "https://dc.lft.to/lastmile_qr_scan"}, "fusion_lon": 0.0}, {"lat": 38.93225016666667, "is_disabled": 0, "type": "electric_scooter", "lon": -77.04414283333334, "bike_id": "d14c9d1605303bd4c7c4883e7c627da6", "fusion_lat": 0.0, "name": "d14c9d1605303bd4c7c4883e7c627da6", "is_reserved": 0, "rental_uris": {"android": "https://dc.lft.to/lastmile_qr_scan", "ios": "https://dc.lft.to/lastmile_qr_scan"}, "fusion_lon": 0.0}, {"lat": 38.91656183333333, "is_disabled": 0, "type": "electric_scooter", "lon": -77.0430215, "bike_id": "e95279fe5c199db05f7d45513a9a425c", "fusion_lat": 0.0, "name": "e95279fe5c199db05f7d45513a9a425c", "is_reserved": 0, "rental_uris": {"android": "https://dc.lft.to/lastmile_qr_scan", "ios": "https://dc.lft.to/lastmile_qr_scan"}, "fusion_lon": 0.0}, {"lat": 38.921692, "is_disabled": 0, "type": "electric_scooter", "lon": -77.05137816666667, "bike_id": "539839c62daf8048d842aafcb0d37769", "fusion_lat": 0.0, "name": "539839c62daf8048d842aafcb0d37769", "is_reserved": 0, "rental_uris": {"android": "https://dc.lft.to/lastmile_qr_scan", "ios": "https://dc.lft.to/lastmile_qr_scan"}, "fusion_lon": 0.0}, {"lat": 38.9116965, "is_disabled": 0, "type": "electric_scooter", "lon": -77.00465, "bike_id": "e936bf843580c2a717a61b34defe612f", "fusion_lat": 0.0, "name": "e936bf843580c2a717a61b34defe612f", "is_reserved": 0, "rental_uris": {"android": "https://dc.lft.to/lastmile_qr_scan", "ios": "https://dc.lft.to/lastmile_qr_scan"}, "fusion_lon": 0.0}, {"lat": 38.92471166666667, "is_disabled": 0, "type": "electric_scooter", "lon": -77.03974716666667, "bike_id": "99e3980a015b098331fd244a587d1317", "fusion_lat": 0.0, "name": "99e3980a015b098331fd244a587d1317", "is_reserved": 0, "rental_uris": {"android": "https://dc.lft.to/lastmile_qr_scan", "ios": "https://dc.lft.to/lastmile_qr_scan"}, "fusion_lon": 0.0}, {"lat": 38.908439666666666, "is_disabled": 0, "type": "electric_scooter", "lon": -77.044697, "bike_id": "df2c16d36312911c310aba87fb848ed4", "fusion_lat": 0.0, "name": "df2c16d36312911c310aba87fb848ed4", "is_reserved": 0, "rental_uris": {"android": "https://dc.lft.to/lastmile_qr_scan", "ios": "https://dc.lft.to/lastmile_qr_scan"}, "fusion_lon": 0.0}, {"lat": 38.94629166666667, "is_disabled": 0, "type": "electric_scooter", "lon": -77.025301, "bike_id": "a54fccb25b8e1b449cdb67c9dd7828ad", "fusion_lat": 0.0, "name": "a54fccb25b8e1b449cdb67c9dd7828ad", "is_reserved": 0, "rental_uris": {"android": "https://dc.lft.to/lastmile_qr_scan", "ios": "https://dc.lft.to/lastmile_qr_scan"}, "fusion_lon": 0.0}, {"lat": 38.921497, "is_disabled": 0, "type": "electric_scooter", "lon": -77.04241116666667, "bike_id": "868de9eb7f56297743a0f300d3b019e1", "fusion_lat": 0.0, "name": "868de9eb7f56297743a0f300d3b019e1", "is_reserved": 0, "rental_uris": {"android": "https://dc.lft.to/lastmile_qr_scan", "ios": "https://dc.lft.to/lastmile_qr_scan"}, "fusion_lon": 0.0}, {"lat": 38.920482, "is_disabled": 0, "type": "electric_scooter", "lon": -77.0426655, "bike_id": "32a595f20883f213b721e02a4092f9b2", "fusion_lat": 0.0, "name": "32a595f20883f213b721e02a4092f9b2", "is_reserved": 0, "rental_uris": {"android": "https://dc.lft.to/lastmile_qr_scan", "ios": "https://dc.lft.to/lastmile_qr_scan"}, "fusion_lon": 0.0}, {"lat": 38.900299833333335, "is_disabled": 0, "type": "electric_scooter", "lon": -77.04032783333334, "bike_id": "9bbedd63e2f5c18007ad08208d3a3d62", "fusion_lat": 0.0, "name": "9bbedd63e2f5c18007ad08208d3a3d62", "is_reserved": 0, "rental_uris": {"android": "https://dc.lft.to/lastmile_qr_scan", "ios": "https://dc.lft.to/lastmile_qr_scan"}, "fusion_lon": 0.0}, {"lat": 38.92410983333333, "is_disabled": 0, "type": "electric_scooter", "lon": -77.05052233333333, "bike_id": "2c874aa4d970ca8a6536ac4d40b05e9a", "fusion_lat": 0.0, "name": "2c874aa4d970ca8a6536ac4d40b05e9a", "is_reserved": 0, "rental_uris": {"android": "https://dc.lft.to/lastmile_qr_scan", "ios": "https://dc.lft.to/lastmile_qr_scan"}, "fusion_lon": 0.0}, {"lat": 38.906862, "is_disabled": 0, "type": "electric_scooter", "lon": -77.05801116666666, "bike_id": "3e98c80393a595dc9b5d3c07c84cc864", "fusion_lat": 0.0, "name": "3e98c80393a595dc9b5d3c07c84cc864", "is_reserved": 0, "rental_uris": {"android": "https://dc.lft.to/lastmile_qr_scan", "ios": "https://dc.lft.to/lastmile_qr_scan"}, "fusion_lon": 0.0}, {"lat": 38.91930583333333, "is_disabled": 0, "type": "electric_scooter", "lon": -77.0447705, "bike_id": "ef5c834ae36aec12c0f0279018395427", "fusion_lat": 0.0, "name": "ef5c834ae36aec12c0f0279018395427", "is_reserved": 0, "rental_uris": {"android": "https://dc.lft.to/lastmile_qr_scan", "ios": "https://dc.lft.to/lastmile_qr_scan"}, "fusion_lon": 0.0}, {"lat": 38.87089066666667, "is_disabled": 0, "type": "electric_scooter", "lon": -77.01225783333334, "bike_id": "7624d597142f51f632ee01aaf5a5f912", "fusion_lat": 0.0, "name": "7624d597142f51f632ee01aaf5a5f912", "is_reserved": 0, "rental_uris": {"android": "https://dc.lft.to/lastmile_qr_scan", "ios": "https://dc.lft.to/lastmile_qr_scan"}, "fusion_lon": 0.0}, {"lat": 38.92266883333333, "is_disabled": 0, "type": "electric_scooter", "lon": -77.03910416666666, "bike_id": "02b4ed64fd7d29f79ec266e36e37309d", "fusion_lat": 0.0, "name": "02b4ed64fd7d29f79ec266e36e37309d", "is_reserved": 0, "rental_uris": {"android": "https://dc.lft.to/lastmile_qr_scan", "ios": "https://dc.lft.to/lastmile_qr_scan"}, "fusion_lon": 0.0}, {"lat": 38.90017266666667, "is_disabled": 0, "type": "electric_scooter", "lon": -77.01202733333334, "bike_id": "618312268fe9d2a214ef8233180b93c4", "fusion_lat": 0.0, "name": "618312268fe9d2a214ef8233180b93c4", "is_reserved": 0, "rental_uris": {"android": "https://dc.lft.to/lastmile_qr_scan", "ios": "https://dc.lft.to/lastmile_qr_scan"}, "fusion_lon": 0.0}, {"lat": 38.936988, "is_disabled": 0, "type": "electric_scooter", "lon": -77.02400683333333, "bike_id": "d001aa6c69175474786ba2f2a1e8e831", "fusion_lat": 0.0, "name": "d001aa6c69175474786ba2f2a1e8e831", "is_reserved": 0, "rental_uris": {"android": "https://dc.lft.to/lastmile_qr_scan", "ios": "https://dc.lft.to/lastmile_qr_scan"}, "fusion_lon": 0.0}, {"lat": 38.957324, "is_disabled": 0, "type": "electric_scooter", "lon": -77.02404383333334, "bike_id": "385eed02bc90fadd47b66725b9dc1ce1", "fusion_lat": 0.0, "name": "385eed02bc90fadd47b66725b9dc1ce1", "is_reserved": 0, "rental_uris": {"android": "https://dc.lft.to/lastmile_qr_scan", "ios": "https://dc.lft.to/lastmile_qr_scan"}, "fusion_lon": 0.0}, {"lat": 38.939825166666665, "is_disabled": 0, "type": "electric_scooter", "lon": -77.0193105, "bike_id": "c0c455b7ea51b24e01845a9eea9080cb", "fusion_lat": 0.0, "name": "c0c455b7ea51b24e01845a9eea9080cb", "is_reserved": 0, "rental_uris": {"android": "https://dc.lft.to/lastmile_qr_scan", "ios": "https://dc.lft.to/lastmile_qr_scan"}, "fusion_lon": 0.0}, {"lat": 38.892614333333334, "is_disabled": 0, "type": "electric_scooter", "lon": -77.032098, "bike_id": "62c25c96310414e75299d72663d440a4", "fusion_lat": 0.0, "name": "62c25c96310414e75299d72663d440a4", "is_reserved": 0, "rental_uris": {"android": "https://dc.lft.to/lastmile_qr_scan", "ios": "https://dc.lft.to/lastmile_qr_scan"}, "fusion_lon": 0.0}, {"lat": 38.90253466666667, "is_disabled": 0, "type": "electric_scooter", "lon": -77.027069, "bike_id": "9f83d177d4175556aea62f9c2444dad6", "fusion_lat": 0.0, "name": "9f83d177d4175556aea62f9c2444dad6", "is_reserved": 0, "rental_uris": {"android": "https://dc.lft.to/lastmile_qr_scan", "ios": "https://dc.lft.to/lastmile_qr_scan"}, "fusion_lon": 0.0}, {"lat": 38.8958715, "is_disabled": 0, "type": "electric_scooter", "lon": -77.0436625, "bike_id": "3bdcbc36027682ab4b7e4f9c15e43dd4", "fusion_lat": 0.0, "name": "3bdcbc36027682ab4b7e4f9c15e43dd4", "is_reserved": 0, "rental_uris": {"android": "https://dc.lft.to/lastmile_qr_scan", "ios": "https://dc.lft.to/lastmile_qr_scan"}, "fusion_lon": 0.0}, {"lat": 38.926598166666665, "is_disabled": 0, "type": "electric_scooter", "lon": -77.0560265, "bike_id": "6b1265611facbc0726c8af74d694fbda", "fusion_lat": 0.0, "name": "6b1265611facbc0726c8af74d694fbda", "is_reserved": 0, "rental_uris": {"android": "https://dc.lft.to/lastmile_qr_scan", "ios": "https://dc.lft.to/lastmile_qr_scan"}, "fusion_lon": 0.0}, {"lat": 38.91354533333333, "is_disabled": 0, "type": "electric_scooter", "lon": -77.03200666666666, "bike_id": "715f26151bbd7c0a7fc03cf6bc452c3b", "fusion_lat": 0.0, "name": "715f26151bbd7c0a7fc03cf6bc452c3b", "is_reserved": 0, "rental_uris": {"android": "https://dc.lft.to/lastmile_qr_scan", "ios": "https://dc.lft.to/lastmile_qr_scan"}, "fusion_lon": 0.0}, {"lat": 38.903558, "is_disabled": 0, "type": "electric_scooter", "lon": -77.01899983333334, "bike_id": "78ecbd84d2a816f2b0a3cc1ad6ef67de", "fusion_lat": 0.0, "name": "78ecbd84d2a816f2b0a3cc1ad6ef67de", "is_reserved": 0, "rental_uris": {"android": "https://dc.lft.to/lastmile_qr_scan", "ios": "https://dc.lft.to/lastmile_qr_scan"}, "fusion_lon": 0.0}, {"lat": 38.8954005, "is_disabled": 0, "type": "electric_scooter", "lon": -76.93363333333333, "bike_id": "20a668f65a0adb5c46c03979213bb59c", "fusion_lat": 0.0, "name": "20a668f65a0adb5c46c03979213bb59c", "is_reserved": 0, "rental_uris": {"android": "https://dc.lft.to/lastmile_qr_scan", "ios": "https://dc.lft.to/lastmile_qr_scan"}, "fusion_lon": 0.0}, {"lat": 38.90958233333333, "is_disabled": 0, "type": "electric_scooter", "lon": -77.03353883333334, "bike_id": "e8daa6e01aac560de08490d592ee0129", "fusion_lat": 0.0, "name": "e8daa6e01aac560de08490d592ee0129", "is_reserved": 0, "rental_uris": {"android": "https://dc.lft.to/lastmile_qr_scan", "ios": "https://dc.lft.to/lastmile_qr_scan"}, "fusion_lon": 0.0}, {"lat": 38.92500733333333, "is_disabled": 0, "type": "electric_scooter", "lon": -77.05216866666666, "bike_id": "2b043dc3ac93eb73c592a7477e4ac58b", "fusion_lat": 0.0, "name": "2b043dc3ac93eb73c592a7477e4ac58b", "is_reserved": 0, "rental_uris": {"android": "https://dc.lft.to/lastmile_qr_scan", "ios": "https://dc.lft.to/lastmile_qr_scan"}, "fusion_lon": 0.0}, {"lat": 38.924712666666665, "is_disabled": 0, "type": "electric_scooter", "lon": -77.0397295, "bike_id": "12058e4d9181d7a5ca950cc3c7eb99e9", "fusion_lat": 0.0, "name": "12058e4d9181d7a5ca950cc3c7eb99e9", "is_reserved": 0, "rental_uris": {"android": "https://dc.lft.to/lastmile_qr_scan", "ios": "https://dc.lft.to/lastmile_qr_scan"}, "fusion_lon": 0.0}, {"lat": 38.90357183333333, "is_disabled": 0, "type": "electric_scooter", "lon": -76.97654516666667, "bike_id": "da58fdc59103c5b5e72f1058b03ad4a6", "fusion_lat": 0.0, "name": "da58fdc59103c5b5e72f1058b03ad4a6", "is_reserved": 0, "rental_uris": {"android": "https://dc.lft.to/lastmile_qr_scan", "ios": "https://dc.lft.to/lastmile_qr_scan"}, "fusion_lon": 0.0}, {"lat": 38.90204216666667, "is_disabled": 0, "type": "electric_scooter", "lon": -76.988522, "bike_id": "d987a267f48f38fbf217a2a290c4c079", "fusion_lat": 0.0, "name": "d987a267f48f38fbf217a2a290c4c079", "is_reserved": 0, "rental_uris": {"android": "https://dc.lft.to/lastmile_qr_scan", "ios": "https://dc.lft.to/lastmile_qr_scan"}, "fusion_lon": 0.0}, {"lat": 38.90269466666667, "is_disabled": 0, "type": "electric_scooter", "lon": -77.03431016666667, "bike_id": "a066fa2916c248530a668e5039e21c00", "fusion_lat": 0.0, "name": "a066fa2916c248530a668e5039e21c00", "is_reserved": 0, "rental_uris": {"android": "https://dc.lft.to/lastmile_qr_scan", "ios": "https://dc.lft.to/lastmile_qr_scan"}, "fusion_lon": 0.0}, {"lat": 38.89649633333333, "is_disabled": 0, "type": "electric_scooter", "lon": -77.00911633333334, "bike_id": "90f0b4b8e3df0e5a2d5ea26882fc1c17", "fusion_lat": 0.0, "name": "90f0b4b8e3df0e5a2d5ea26882fc1c17", "is_reserved": 0, "rental_uris": {"android": "https://dc.lft.to/lastmile_qr_scan", "ios": "https://dc.lft.to/lastmile_qr_scan"}, "fusion_lon": 0.0}, {"lat": 38.9205945, "is_disabled": 0, "type": "electric_scooter", "lon": -77.03343483333333, "bike_id": "c9f6aa824eac5d4d5db4bb7c597e03bc", "fusion_lat": 0.0, "name": "c9f6aa824eac5d4d5db4bb7c597e03bc", "is_reserved": 0, "rental_uris": {"android": "https://dc.lft.to/lastmile_qr_scan", "ios": "https://dc.lft.to/lastmile_qr_scan"}, "fusion_lon": 0.0}, {"lat": 38.9464955, "is_disabled": 0, "type": "electric_scooter", "lon": -77.0648695, "bike_id": "79b32fc0ebacc30bda6a15d6ebdf57c3", "fusion_lat": 0.0, "name": "79b32fc0ebacc30bda6a15d6ebdf57c3", "is_reserved": 0, "rental_uris": {"android": "https://dc.lft.to/lastmile_qr_scan", "ios": "https://dc.lft.to/lastmile_qr_scan"}, "fusion_lon": 0.0}, {"lat": 38.79304583333333, "is_disabled": 0, "type": "electric_bike", "lon": -77.04925, "bike_id": "307d148c7b7941c84b2ec6c456e92382", "fusion_lat": 0.0, "name": "307d148c7b7941c84b2ec6c456e92382", "is_reserved": 0, "rental_uris": {"android": "https://dc.lft.to/lastmile_qr_scan", "ios": "https://dc.lft.to/lastmile_qr_scan"}, "fusion_lon": 0.0}, {"lat": 38.917136166666666, "is_disabled": 0, "type": "electric_scooter", "lon": -77.038588, "bike_id": "52570ec1e3e23959ce8698c42c1ea716", "fusion_lat": 0.0, "name": "52570ec1e3e23959ce8698c42c1ea716", "is_reserved": 0, "rental_uris": {"android": "https://dc.lft.to/lastmile_qr_scan", "ios": "https://dc.lft.to/lastmile_qr_scan"}, "fusion_lon": 0.0}, {"lat": 38.924845, "is_disabled": 0, "type": "electric_scooter", "lon": -77.02845283333333, "bike_id": "0009f00147e4448efdf282b50cc055de", "fusion_lat": 0.0, "name": "0009f00147e4448efdf282b50cc055de", "is_reserved": 0, "rental_uris": {"android": "https://dc.lft.to/lastmile_qr_scan", "ios": "https://dc.lft.to/lastmile_qr_scan"}, "fusion_lon": 0.0}, {"lat": 38.89809616666667, "is_disabled": 0, "type": "electric_scooter", "lon": -76.996964, "bike_id": "ecf24376d079b0629e7008668a648fa5", "fusion_lat": 0.0, "name": "ecf24376d079b0629e7008668a648fa5", "is_reserved": 0, "rental_uris": {"android": "https://dc.lft.to/lastmile_qr_scan", "ios": "https://dc.lft.to/lastmile_qr_scan"}, "fusion_lon": 0.0}, {"lat": 38.88576283333333, "is_disabled": 0, "type": "electric_scooter", "lon": -76.91911616666667, "bike_id": "1da8a2ea4bbf197bed1a1e4f50af0014", "fusion_lat": 0.0, "name": "1da8a2ea4bbf197bed1a1e4f50af0014", "is_reserved": 0, "rental_uris": {"android": "https://dc.lft.to/lastmile_qr_scan", "ios": "https://dc.lft.to/lastmile_qr_scan"}, "fusion_lon": 0.0}, {"lat": 38.91747183333333, "is_disabled": 0, "type": "electric_scooter", "lon": -77.03187133333333, "bike_id": "630a23b552ee6962da321d131a63188c", "fusion_lat": 0.0, "name": "630a23b552ee6962da321d131a63188c", "is_reserved": 0, "rental_uris": {"android": "https://dc.lft.to/lastmile_qr_scan", "ios": "https://dc.lft.to/lastmile_qr_scan"}, "fusion_lon": 0.0}, {"lat": 38.914654166666665, "is_disabled": 0, "type": "electric_scooter", "lon": -77.009421, "bike_id": "84854cdf7de9e3b868b3104ed736712b", "fusion_lat": 0.0, "name": "84854cdf7de9e3b868b3104ed736712b", "is_reserved": 0, "rental_uris": {"android": "https://dc.lft.to/lastmile_qr_scan", "ios": "https://dc.lft.to/lastmile_qr_scan"}, "fusion_lon": 0.0}, {"lat": 38.86235166666667, "is_disabled": 0, "type": "electric_scooter", "lon": -76.99548833333333, "bike_id": "70be9571c8f98fcc7213576df8eb16dc", "fusion_lat": 0.0, "name": "70be9571c8f98fcc7213576df8eb16dc", "is_reserved": 0, "rental_uris": {"android": "https://dc.lft.to/lastmile_qr_scan", "ios": "https://dc.lft.to/lastmile_qr_scan"}, "fusion_lon": 0.0}, {"lat": 38.927687166666665, "is_disabled": 0, "type": "electric_scooter", "lon": -77.0322395, "bike_id": "ae217982f3c8706556365f592a055ccd", "fusion_lat": 0.0, "name": "ae217982f3c8706556365f592a055ccd", "is_reserved": 0, "rental_uris": {"android": "https://dc.lft.to/lastmile_qr_scan", "ios": "https://dc.lft.to/lastmile_qr_scan"}, "fusion_lon": 0.0}, {"lat": 38.923578666666664, "is_disabled": 0, "type": "electric_scooter", "lon": -77.04131416666667, "bike_id": "7aa66bf717024235688b047a72d398c5", "fusion_lat": 0.0, "name": "7aa66bf717024235688b047a72d398c5", "is_reserved": 0, "rental_uris": {"android": "https://dc.lft.to/lastmile_qr_scan", "ios": "https://dc.lft.to/lastmile_qr_scan"}, "fusion_lon": 0.0}, {"lat": 38.886380833333334, "is_disabled": 0, "type": "electric_bike", "lon": -76.95476133333334, "bike_id": "4be18a2d85da023a9d1f698e32528661", "fusion_lat": 0.0, "name": "4be18a2d85da023a9d1f698e32528661", "is_reserved": 0, "rental_uris": {"android": "https://dc.lft.to/lastmile_qr_scan", "ios": "https://dc.lft.to/lastmile_qr_scan"}, "fusion_lon": 0.0}, {"lat": 38.96153133333333, "is_disabled": 0, "type": "electric_scooter", "lon": -77.02783633333334, "bike_id": "4128b37f5e79b162c9e186e715abe303", "fusion_lat": 0.0, "name": "4128b37f5e79b162c9e186e715abe303", "is_reserved": 0, "rental_uris": {"android": "https://dc.lft.to/lastmile_qr_scan", "ios": "https://dc.lft.to/lastmile_qr_scan"}, "fusion_lon": 0.0}, {"lat": 38.9171935, "is_disabled": 0, "type": "electric_scooter", "lon": -77.02718516666667, "bike_id": "d3897ea0046a3d12820e20d99cf69d86", "fusion_lat": 0.0, "name": "d3897ea0046a3d12820e20d99cf69d86", "is_reserved": 0, "rental_uris": {"android": "https://dc.lft.to/lastmile_qr_scan", "ios": "https://dc.lft.to/lastmile_qr_scan"}, "fusion_lon": 0.0}, {"lat": 39.05634466666667, "is_disabled": 0, "type": "electric_bike", "lon": -77.12526233333334, "bike_id": "abd0c5c97ac27274cf459b9c34125f92", "fusion_lat": 0.0, "name": "abd0c5c97ac27274cf459b9c34125f92", "is_reserved": 0, "rental_uris": {"android": "https://dc.lft.to/lastmile_qr_scan", "ios": "https://dc.lft.to/lastmile_qr_scan"}, "fusion_lon": 0.0}, {"lat": 38.91959583333333, "is_disabled": 0, "type": "electric_scooter", "lon": -77.02302866666666, "bike_id": "513b15f7dde566759a62ba56c5c7fa31", "fusion_lat": 0.0, "name": "513b15f7dde566759a62ba56c5c7fa31", "is_reserved": 0, "rental_uris": {"android": "https://dc.lft.to/lastmile_qr_scan", "ios": "https://dc.lft.to/lastmile_qr_scan"}, "fusion_lon": 0.0}, {"lat": 38.91417216666667, "is_disabled": 0, "type": "electric_scooter", "lon": -77.03179183333333, "bike_id": "a478c2f89d05be67650f4e25334bcb40", "fusion_lat": 0.0, "name": "a478c2f89d05be67650f4e25334bcb40", "is_reserved": 0, "rental_uris": {"android": "https://dc.lft.to/lastmile_qr_scan", "ios": "https://dc.lft.to/lastmile_qr_scan"}, "fusion_lon": 0.0}, {"lat": 38.917281333333335, "is_disabled": 0, "type": "electric_scooter", "lon": -77.0366605, "bike_id": "762f62cfb867eeaf038055add6f46ad1", "fusion_lat": 0.0, "name": "762f62cfb867eeaf038055add6f46ad1", "is_reserved": 0, "rental_uris": {"android": "https://dc.lft.to/lastmile_qr_scan", "ios": "https://dc.lft.to/lastmile_qr_scan"}, "fusion_lon": 0.0}, {"lat": 38.917727666666664, "is_disabled": 0, "type": "electric_scooter", "lon": -77.022738, "bike_id": "0de13a40818e55e9e79b751481251bfa", "fusion_lat": 0.0, "name": "0de13a40818e55e9e79b751481251bfa", "is_reserved": 0, "rental_uris": {"android": "https://dc.lft.to/lastmile_qr_scan", "ios": "https://dc.lft.to/lastmile_qr_scan"}, "fusion_lon": 0.0}, {"lat": 38.9054265, "is_disabled": 0, "type": "electric_scooter", "lon": -77.0070795, "bike_id": "59ff407429c11674a868a7fffdf57dff", "fusion_lat": 0.0, "name": "59ff407429c11674a868a7fffdf57dff", "is_reserved": 0, "rental_uris": {"android": "https://dc.lft.to/lastmile_qr_scan", "ios": "https://dc.lft.to/lastmile_qr_scan"}, "fusion_lon": 0.0}, {"lat": 38.91887333333333, "is_disabled": 0, "type": "electric_scooter", "lon": -77.04128416666667, "bike_id": "d52fa5d154f4c3fb672c2fb5358d5659", "fusion_lat": 0.0, "name": "d52fa5d154f4c3fb672c2fb5358d5659", "is_reserved": 0, "rental_uris": {"android": "https://dc.lft.to/lastmile_qr_scan", "ios": "https://dc.lft.to/lastmile_qr_scan"}, "fusion_lon": 0.0}, {"lat": 38.870634, "is_disabled": 0, "type": "electric_scooter", "lon": -77.00844083333334, "bike_id": "cb989d7b56019e793aeb4f303636885c", "fusion_lat": 0.0, "name": "cb989d7b56019e793aeb4f303636885c", "is_reserved": 0, "rental_uris": {"android": "https://dc.lft.to/lastmile_qr_scan", "ios": "https://dc.lft.to/lastmile_qr_scan"}, "fusion_lon": 0.0}, {"lat": 38.916819833333335, "is_disabled": 0, "type": "electric_scooter", "lon": -77.03124466666667, "bike_id": "ad928aa8f8b776b4a5eefefc6e6de3b1", "fusion_lat": 0.0, "name": "ad928aa8f8b776b4a5eefefc6e6de3b1", "is_reserved": 0, "rental_uris": {"android": "https://dc.lft.to/lastmile_qr_scan", "ios": "https://dc.lft.to/lastmile_qr_scan"}, "fusion_lon": 0.0}, {"lat": 38.89816233333333, "is_disabled": 0, "type": "electric_scooter", "lon": -76.97151233333334, "bike_id": "c60cc9ca70b7ccc77a5d229038baf997", "fusion_lat": 0.0, "name": "c60cc9ca70b7ccc77a5d229038baf997", "is_reserved": 0, "rental_uris": {"android": "https://dc.lft.to/lastmile_qr_scan", "ios": "https://dc.lft.to/lastmile_qr_scan"}, "fusion_lon": 0.0}, {"lat": 38.88428183333333, "is_disabled": 0, "type": "electric_scooter", "lon": -77.01759433333334, "bike_id": "039b7309523a2b118ec4031afe53708a", "fusion_lat": 0.0, "name": "039b7309523a2b118ec4031afe53708a", "is_reserved": 0, "rental_uris": {"android": "https://dc.lft.to/lastmile_qr_scan", "ios": "https://dc.lft.to/lastmile_qr_scan"}, "fusion_lon": 0.0}, {"lat": 38.91813716666667, "is_disabled": 0, "type": "electric_scooter", "lon": -77.04005383333333, "bike_id": "4a063a75dee2c0160a912ee62706691f", "fusion_lat": 0.0, "name": "4a063a75dee2c0160a912ee62706691f", "is_reserved": 0, "rental_uris": {"android": "https://dc.lft.to/lastmile_qr_scan", "ios": "https://dc.lft.to/lastmile_qr_scan"}, "fusion_lon": 0.0}, {"lat": 38.9168485, "is_disabled": 0, "type": "electric_scooter", "lon": -77.0373525, "bike_id": "bd265eba24433fd3c70b5893379189ca", "fusion_lat": 0.0, "name": "bd265eba24433fd3c70b5893379189ca", "is_reserved": 0, "rental_uris": {"android": "https://dc.lft.to/lastmile_qr_scan", "ios": "https://dc.lft.to/lastmile_qr_scan"}, "fusion_lon": 0.0}, {"lat": 38.91722566666667, "is_disabled": 0, "type": "electric_scooter", "lon": -77.02510333333333, "bike_id": "dcea4631931a60fa5ef7a4381d9d8dcc", "fusion_lat": 0.0, "name": "dcea4631931a60fa5ef7a4381d9d8dcc", "is_reserved": 0, "rental_uris": {"android": "https://dc.lft.to/lastmile_qr_scan", "ios": "https://dc.lft.to/lastmile_qr_scan"}, "fusion_lon": 0.0}, {"lat": 38.917291, "is_disabled": 0, "type": "electric_scooter", "lon": -77.02720133333334, "bike_id": "e9f6104ab9f99a92f2d7eea94c5d6760", "fusion_lat": 0.0, "name": "e9f6104ab9f99a92f2d7eea94c5d6760", "is_reserved": 0, "rental_uris": {"android": "https://dc.lft.to/lastmile_qr_scan", "ios": "https://dc.lft.to/lastmile_qr_scan"}, "fusion_lon": 0.0}, {"lat": 38.855091, "is_disabled": 0, "type": "electric_bike", "lon": -77.12027983333333, "bike_id": "e75e61b6d5bd404996ef9e7ef0a432d2", "fusion_lat": 0.0, "name": "e75e61b6d5bd404996ef9e7ef0a432d2", "is_reserved": 0, "rental_uris": {"android": "https://dc.lft.to/lastmile_qr_scan", "ios": "https://dc.lft.to/lastmile_qr_scan"}, "fusion_lon": 0.0}, {"lat": 38.8506865, "is_disabled": 0, "type": "electric_bike", "lon": -76.956803, "bike_id": "c17d75f6abae609db5475dc099161810", "fusion_lat": 0.0, "name": "c17d75f6abae609db5475dc099161810", "is_reserved": 0, "rental_uris": {"android": "https://dc.lft.to/lastmile_qr_scan", "ios": "https://dc.lft.to/lastmile_qr_scan"}, "fusion_lon": 0.0}, {"lat": 38.90867183333334, "is_disabled": 0, "type": "electric_scooter", "lon": -77.0668495, "bike_id": "47f23a888a28ce6948299565386cff80", "fusion_lat": 0.0, "name": "47f23a888a28ce6948299565386cff80", "is_reserved": 0, "rental_uris": {"android": "https://dc.lft.to/lastmile_qr_scan", "ios": "https://dc.lft.to/lastmile_qr_scan"}, "fusion_lon": 0.0}, {"lat": 38.9097405, "is_disabled": 0, "type": "electric_scooter", "lon": -77.023986, "bike_id": "72110bcbfa0eb6f6943b110565271918", "fusion_lat": 0.0, "name": "72110bcbfa0eb6f6943b110565271918", "is_reserved": 0, "rental_uris": {"android": "https://dc.lft.to/lastmile_qr_scan", "ios": "https://dc.lft.to/lastmile_qr_scan"}, "fusion_lon": 0.0}, {"lat": 38.906189, "is_disabled": 0, "type": "electric_scooter", "lon": -76.98988816666666, "bike_id": "48f30ced67c848be12775229ec8c1962", "fusion_lat": 0.0, "name": "48f30ced67c848be12775229ec8c1962", "is_reserved": 0, "rental_uris": {"android": "https://dc.lft.to/lastmile_qr_scan", "ios": "https://dc.lft.to/lastmile_qr_scan"}, "fusion_lon": 0.0}, {"lat": 38.907299, "is_disabled": 0, "type": "electric_scooter", "lon": -77.00376033333333, "bike_id": "e0998e87a2e9660b2087442f33b7e08f", "fusion_lat": 0.0, "name": "e0998e87a2e9660b2087442f33b7e08f", "is_reserved": 0, "rental_uris": {"android": "https://dc.lft.to/lastmile_qr_scan", "ios": "https://dc.lft.to/lastmile_qr_scan"}, "fusion_lon": 0.0}, {"lat": 38.8590835, "is_disabled": 0, "type": "electric_scooter", "lon": -76.99148366666667, "bike_id": "9f314a816644ace0b92a306e5b823bf2", "fusion_lat": 0.0, "name": "9f314a816644ace0b92a306e5b823bf2", "is_reserved": 0, "rental_uris": {"android": "https://dc.lft.to/lastmile_qr_scan", "ios": "https://dc.lft.to/lastmile_qr_scan"}, "fusion_lon": 0.0}, {"lat": 38.904272166666665, "is_disabled": 0, "type": "electric_scooter", "lon": -76.982155, "bike_id": "2116134f2db26632d1c7c481ff3654bb", "fusion_lat": 0.0, "name": "2116134f2db26632d1c7c481ff3654bb", "is_reserved": 0, "rental_uris": {"android": "https://dc.lft.to/lastmile_qr_scan", "ios": "https://dc.lft.to/lastmile_qr_scan"}, "fusion_lon": 0.0}, {"lat": 38.8989845, "is_disabled": 0, "type": "electric_scooter", "lon": -76.93362483333334, "bike_id": "0f4925592598e06b29c42016926f4b81", "fusion_lat": 0.0, "name": "0f4925592598e06b29c42016926f4b81", "is_reserved": 0, "rental_uris": {"android": "https://dc.lft.to/lastmile_qr_scan", "ios": "https://dc.lft.to/lastmile_qr_scan"}, "fusion_lon": 0.0}, {"lat": 38.9274615, "is_disabled": 0, "type": "electric_scooter", "lon": -77.02538183333333, "bike_id": "735314b43bd326d9caf14c5a30648761", "fusion_lat": 0.0, "name": "735314b43bd326d9caf14c5a30648761", "is_reserved": 0, "rental_uris": {"android": "https://dc.lft.to/lastmile_qr_scan", "ios": "https://dc.lft.to/lastmile_qr_scan"}, "fusion_lon": 0.0}, {"lat": 38.93054766666667, "is_disabled": 0, "type": "electric_scooter", "lon": -77.0419165, "bike_id": "6180d721e44ce481113545834060d4e5", "fusion_lat": 0.0, "name": "6180d721e44ce481113545834060d4e5", "is_reserved": 0, "rental_uris": {"android": "https://dc.lft.to/lastmile_qr_scan", "ios": "https://dc.lft.to/lastmile_qr_scan"}, "fusion_lon": 0.0}, {"lat": 38.92385983333333, "is_disabled": 0, "type": "electric_scooter", "lon": -77.04478066666667, "bike_id": "46e6cf100c9550d4b219dd63bc43af55", "fusion_lat": 0.0, "name": "46e6cf100c9550d4b219dd63bc43af55", "is_reserved": 0, "rental_uris": {"android": "https://dc.lft.to/lastmile_qr_scan", "ios": "https://dc.lft.to/lastmile_qr_scan"}, "fusion_lon": 0.0}, {"lat": 38.892635166666665, "is_disabled": 0, "type": "electric_scooter", "lon": -77.0319715, "bike_id": "4826e3ebcc3016d01bcc4335d0695c4a", "fusion_lat": 0.0, "name": "4826e3ebcc3016d01bcc4335d0695c4a", "is_reserved": 0, "rental_uris": {"android": "https://dc.lft.to/lastmile_qr_scan", "ios": "https://dc.lft.to/lastmile_qr_scan"}, "fusion_lon": 0.0}, {"lat": 38.9057645, "is_disabled": 0, "type": "electric_scooter", "lon": -77.062764, "bike_id": "c1989fda3feaf428b54674576bb6c26d", "fusion_lat": 0.0, "name": "c1989fda3feaf428b54674576bb6c26d", "is_reserved": 0, "rental_uris": {"android": "https://dc.lft.to/lastmile_qr_scan", "ios": "https://dc.lft.to/lastmile_qr_scan"}, "fusion_lon": 0.0}, {"lat": 38.891137666666665, "is_disabled": 0, "type": "electric_scooter", "lon": -76.94388033333334, "bike_id": "e11e909963f936fa2f831f185ca1ea7b", "fusion_lat": 0.0, "name": "e11e909963f936fa2f831f185ca1ea7b", "is_reserved": 0, "rental_uris": {"android": "https://dc.lft.to/lastmile_qr_scan", "ios": "https://dc.lft.to/lastmile_qr_scan"}, "fusion_lon": 0.0}, {"lat": 38.9257685, "is_disabled": 0, "type": "electric_scooter", "lon": -77.02577016666666, "bike_id": "00a7cb26f3d57b5c7c686a8d4ccfa1dc", "fusion_lat": 0.0, "name": "00a7cb26f3d57b5c7c686a8d4ccfa1dc", "is_reserved": 0, "rental_uris": {"android": "https://dc.lft.to/lastmile_qr_scan", "ios": "https://dc.lft.to/lastmile_qr_scan"}, "fusion_lon": 0.0}, {"lat": 38.90763233333333, "is_disabled": 0, "type": "electric_scooter", "lon": -77.04344683333333, "bike_id": "ab8ddcb689a8b25093109613d6a0f02a", "fusion_lat": 0.0, "name": "ab8ddcb689a8b25093109613d6a0f02a", "is_reserved": 0, "rental_uris": {"android": "https://dc.lft.to/lastmile_qr_scan", "ios": "https://dc.lft.to/lastmile_qr_scan"}, "fusion_lon": 0.0}, {"lat": 38.919045833333335, "is_disabled": 0, "type": "electric_scooter", "lon": -77.04123833333334, "bike_id": "193440eb3ff7703af9090fe9f1d7cc0c", "fusion_lat": 0.0, "name": "193440eb3ff7703af9090fe9f1d7cc0c", "is_reserved": 0, "rental_uris": {"android": "https://dc.lft.to/lastmile_qr_scan", "ios": "https://dc.lft.to/lastmile_qr_scan"}, "fusion_lon": 0.0}, {"lat": 38.915822666666664, "is_disabled": 0, "type": "electric_scooter", "lon": -77.03202766666666, "bike_id": "9e3c919c131379f4b8beb89d0499e45f", "fusion_lat": 0.0, "name": "9e3c919c131379f4b8beb89d0499e45f", "is_reserved": 0, "rental_uris": {"android": "https://dc.lft.to/lastmile_qr_scan", "ios": "https://dc.lft.to/lastmile_qr_scan"}, "fusion_lon": 0.0}, {"lat": 38.9285485, "is_disabled": 0, "type": "electric_bike", "lon": -77.22225316666666, "bike_id": "430266e9bf197b693cdf0073e0d8cb70", "fusion_lat": 0.0, "name": "430266e9bf197b693cdf0073e0d8cb70", "is_reserved": 0, "rental_uris": {"android": "https://dc.lft.to/lastmile_qr_scan", "ios": "https://dc.lft.to/lastmile_qr_scan"}, "fusion_lon": 0.0}, {"lat": 39.08853916666666, "is_disabled": 0, "type": "electric_bike", "lon": -77.17844766666667, "bike_id": "62f2012a5ef134752a1b6fa456189578", "fusion_lat": 0.0, "name": "62f2012a5ef134752a1b6fa456189578", "is_reserved": 0, "rental_uris": {"android": "https://dc.lft.to/lastmile_qr_scan", "ios": "https://dc.lft.to/lastmile_qr_scan"}, "fusion_lon": 0.0}, {"lat": 38.91621983333334, "is_disabled": 0, "type": "electric_scooter", "lon": -77.04642733333333, "bike_id": "b5af9dd94122ddc68d31f0ac476ecf6a", "fusion_lat": 0.0, "name": "b5af9dd94122ddc68d31f0ac476ecf6a", "is_reserved": 0, "rental_uris": {"android": "https://dc.lft.to/lastmile_qr_scan", "ios": "https://dc.lft.to/lastmile_qr_scan"}, "fusion_lon": 0.0}, {"lat": 38.90307133333334, "is_disabled": 0, "type": "electric_scooter", "lon": -77.02896316666667, "bike_id": "c11a9a3df701589779be030d5c3b3d14", "fusion_lat": 0.0, "name": "c11a9a3df701589779be030d5c3b3d14", "is_reserved": 0, "rental_uris": {"android": "https://dc.lft.to/lastmile_qr_scan", "ios": "https://dc.lft.to/lastmile_qr_scan"}, "fusion_lon": 0.0}, {"lat": 38.876394833333336, "is_disabled": 0, "type": "electric_scooter", "lon": -76.9932415, "bike_id": "bfb12ae1428aa610edb8ce0865622845", "fusion_lat": 0.0, "name": "bfb12ae1428aa610edb8ce0865622845", "is_reserved": 0, "rental_uris": {"android": "https://dc.lft.to/lastmile_qr_scan", "ios": "https://dc.lft.to/lastmile_qr_scan"}, "fusion_lon": 0.0}, {"lat": 38.917723333333335, "is_disabled": 0, "type": "electric_scooter", "lon": -77.0289925, "bike_id": "cb6503f1db2824a6a4fef126a7b2d8d8", "fusion_lat": 0.0, "name": "cb6503f1db2824a6a4fef126a7b2d8d8", "is_reserved": 0, "rental_uris": {"android": "https://dc.lft.to/lastmile_qr_scan", "ios": "https://dc.lft.to/lastmile_qr_scan"}, "fusion_lon": 0.0}, {"lat": 38.92592283333333, "is_disabled": 0, "type": "electric_scooter", "lon": -77.02439, "bike_id": "5ca6ceb921168fb4973343d3b13ac823", "fusion_lat": 0.0, "name": "5ca6ceb921168fb4973343d3b13ac823", "is_reserved": 0, "rental_uris": {"android": "https://dc.lft.to/lastmile_qr_scan", "ios": "https://dc.lft.to/lastmile_qr_scan"}, "fusion_lon": 0.0}, {"lat": 38.908634166666666, "is_disabled": 0, "type": "electric_scooter", "lon": -77.02407016666666, "bike_id": "b8cf58ce75557af3c165b050c78e398f", "fusion_lat": 0.0, "name": "b8cf58ce75557af3c165b050c78e398f", "is_reserved": 0, "rental_uris": {"android": "https://dc.lft.to/lastmile_qr_scan", "ios": "https://dc.lft.to/lastmile_qr_scan"}, "fusion_lon": 0.0}, {"lat": 38.9023465, "is_disabled": 0, "type": "electric_scooter", "lon": -77.043428, "bike_id": "24b00185b743c0ae0579c895fdc4b6fd", "fusion_lat": 0.0, "name": "24b00185b743c0ae0579c895fdc4b6fd", "is_reserved": 0, "rental_uris": {"android": "https://dc.lft.to/lastmile_qr_scan", "ios": "https://dc.lft.to/lastmile_qr_scan"}, "fusion_lon": 0.0}, {"lat": 38.92302816666667, "is_disabled": 0, "type": "electric_bike", "lon": -77.0235405, "bike_id": "fab330b1be3d48d58d170a4f96b8f5ff", "fusion_lat": 0.0, "name": "fab330b1be3d48d58d170a4f96b8f5ff", "is_reserved": 0, "rental_uris": {"android": "https://dc.lft.to/lastmile_qr_scan", "ios": "https://dc.lft.to/lastmile_qr_scan"}, "fusion_lon": 0.0}, {"lat": 38.909542333333334, "is_disabled": 0, "type": "electric_scooter", "lon": -77.030812, "bike_id": "0bfc738ae4af40026b0ef239a5e97fbd", "fusion_lat": 0.0, "name": "0bfc738ae4af40026b0ef239a5e97fbd", "is_reserved": 0, "rental_uris": {"android": "https://dc.lft.to/lastmile_qr_scan", "ios": "https://dc.lft.to/lastmile_qr_scan"}, "fusion_lon": 0.0}, {"lat": 38.873765166666665, "is_disabled": 0, "type": "electric_scooter", "lon": -77.00056433333333, "bike_id": "62b33799e535a06cef87f2b050621b50", "fusion_lat": 0.0, "name": "62b33799e535a06cef87f2b050621b50", "is_reserved": 0, "rental_uris": {"android": "https://dc.lft.to/lastmile_qr_scan", "ios": "https://dc.lft.to/lastmile_qr_scan"}, "fusion_lon": 0.0}, {"lat": 38.925673, "is_disabled": 0, "type": "electric_scooter", "lon": -77.05768, "bike_id": "6640c035157ce602280d241bc4d17dda", "fusion_lat": 0.0, "name": "6640c035157ce602280d241bc4d17dda", "is_reserved": 0, "rental_uris": {"android": "https://dc.lft.to/lastmile_qr_scan", "ios": "https://dc.lft.to/lastmile_qr_scan"}, "fusion_lon": 0.0}, {"lat": 38.8427955, "is_disabled": 0, "type": "electric_bike", "lon": -76.98848516666666, "bike_id": "f84af6271c060af813319a2ef0d166b1", "fusion_lat": 0.0, "name": "f84af6271c060af813319a2ef0d166b1", "is_reserved": 0, "rental_uris": {"android": "https://dc.lft.to/lastmile_qr_scan", "ios": "https://dc.lft.to/lastmile_qr_scan"}, "fusion_lon": 0.0}, {"lat": 38.897847, "is_disabled": 0, "type": "electric_bike", "lon": -76.90440366666667, "bike_id": "853637e633b9eb26faf6d26c66871f17", "fusion_lat": 0.0, "name": "853637e633b9eb26faf6d26c66871f17", "is_reserved": 0, "rental_uris": {"android": "https://dc.lft.to/lastmile_qr_scan", "ios": "https://dc.lft.to/lastmile_qr_scan"}, "fusion_lon": 0.0}, {"lat": 38.91471466666667, "is_disabled": 0, "type": "electric_scooter", "lon": -77.00368116666667, "bike_id": "7f41237e1c18df8f6d10855e7df26b8a", "fusion_lat": 0.0, "name": "7f41237e1c18df8f6d10855e7df26b8a", "is_reserved": 0, "rental_uris": {"android": "https://dc.lft.to/lastmile_qr_scan", "ios": "https://dc.lft.to/lastmile_qr_scan"}, "fusion_lon": 0.0}, {"lat": 38.904242333333336, "is_disabled": 0, "type": "electric_scooter", "lon": -77.05339616666667, "bike_id": "7d9c0d241e1a5add033c73609dbf5b57", "fusion_lat": 0.0, "name": "7d9c0d241e1a5add033c73609dbf5b57", "is_reserved": 0, "rental_uris": {"android": "https://dc.lft.to/lastmile_qr_scan", "ios": "https://dc.lft.to/lastmile_qr_scan"}, "fusion_lon": 0.0}, {"lat": 38.916807, "is_disabled": 0, "type": "electric_scooter", "lon": -77.02292533333333, "bike_id": "f898aea8978f3218ed4e815646ef85b8", "fusion_lat": 0.0, "name": "f898aea8978f3218ed4e815646ef85b8", "is_reserved": 0, "rental_uris": {"android": "https://dc.lft.to/lastmile_qr_scan", "ios": "https://dc.lft.to/lastmile_qr_scan"}, "fusion_lon": 0.0}, {"lat": 38.95699066666667, "is_disabled": 0, "type": "electric_scooter", "lon": -77.07099216666667, "bike_id": "417b8edcb3fc0f09b04811cfd623ba02", "fusion_lat": 0.0, "name": "417b8edcb3fc0f09b04811cfd623ba02", "is_reserved": 0, "rental_uris": {"android": "https://dc.lft.to/lastmile_qr_scan", "ios": "https://dc.lft.to/lastmile_qr_scan"}, "fusion_lon": 0.0}, {"lat": 38.901535333333335, "is_disabled": 0, "type": "electric_scooter", "lon": -76.9864275, "bike_id": "1af47ed34d71e3377ff292175d98809c", "fusion_lat": 0.0, "name": "1af47ed34d71e3377ff292175d98809c", "is_reserved": 0, "rental_uris": {"android": "https://dc.lft.to/lastmile_qr_scan", "ios": "https://dc.lft.to/lastmile_qr_scan"}, "fusion_lon": 0.0}, {"lat": 38.91680566666667, "is_disabled": 0, "type": "electric_scooter", "lon": -77.03737416666667, "bike_id": "9e055a67d6309c4e5544770b12e1fb21", "fusion_lat": 0.0, "name": "9e055a67d6309c4e5544770b12e1fb21", "is_reserved": 0, "rental_uris": {"android": "https://dc.lft.to/lastmile_qr_scan", "ios": "https://dc.lft.to/lastmile_qr_scan"}, "fusion_lon": 0.0}, {"lat": 38.89236416666667, "is_disabled": 0, "type": "electric_scooter", "lon": -77.02808483333334, "bike_id": "6e97e0b0bec8a08d5b863c05b3fa9c00", "fusion_lat": 0.0, "name": "6e97e0b0bec8a08d5b863c05b3fa9c00", "is_reserved": 0, "rental_uris": {"android": "https://dc.lft.to/lastmile_qr_scan", "ios": "https://dc.lft.to/lastmile_qr_scan"}, "fusion_lon": 0.0}, {"lat": 38.903535166666664, "is_disabled": 0, "type": "electric_scooter", "lon": -77.0401745, "bike_id": "832460d88d98d2419aa9fee55a045e10", "fusion_lat": 0.0, "name": "832460d88d98d2419aa9fee55a045e10", "is_reserved": 0, "rental_uris": {"android": "https://dc.lft.to/lastmile_qr_scan", "ios": "https://dc.lft.to/lastmile_qr_scan"}, "fusion_lon": 0.0}, {"lat": 38.88512516666667, "is_disabled": 0, "type": "electric_scooter", "lon": -77.00279383333333, "bike_id": "b117c7dde8da79fe37969e0fe424f7c9", "fusion_lat": 0.0, "name": "b117c7dde8da79fe37969e0fe424f7c9", "is_reserved": 0, "rental_uris": {"android": "https://dc.lft.to/lastmile_qr_scan", "ios": "https://dc.lft.to/lastmile_qr_scan"}, "fusion_lon": 0.0}, {"lat": 38.9011675, "is_disabled": 0, "type": "electric_scooter", "lon": -77.01704, "bike_id": "a0cdedd792e4639e256614ffdfd002e6", "fusion_lat": 0.0, "name": "a0cdedd792e4639e256614ffdfd002e6", "is_reserved": 0, "rental_uris": {"android": "https://dc.lft.to/lastmile_qr_scan", "ios": "https://dc.lft.to/lastmile_qr_scan"}, "fusion_lon": 0.0}, {"lat": 38.9239185, "is_disabled": 0, "type": "electric_scooter", "lon": -77.04466516666666, "bike_id": "46234432d446edab2ca1a23d9f31a703", "fusion_lat": 0.0, "name": "46234432d446edab2ca1a23d9f31a703", "is_reserved": 0, "rental_uris": {"android": "https://dc.lft.to/lastmile_qr_scan", "ios": "https://dc.lft.to/lastmile_qr_scan"}, "fusion_lon": 0.0}, {"lat": 38.91691133333333, "is_disabled": 0, "type": "electric_scooter", "lon": -77.03478583333333, "bike_id": "7be856c27bede91320caac4ca3dc2011", "fusion_lat": 0.0, "name": "7be856c27bede91320caac4ca3dc2011", "is_reserved": 0, "rental_uris": {"android": "https://dc.lft.to/lastmile_qr_scan", "ios": "https://dc.lft.to/lastmile_qr_scan"}, "fusion_lon": 0.0}, {"lat": 38.920358, "is_disabled": 0, "type": "electric_scooter", "lon": -76.97805216666667, "bike_id": "1eca0991e685585c9ba128f601a8794c", "fusion_lat": 0.0, "name": "1eca0991e685585c9ba128f601a8794c", "is_reserved": 0, "rental_uris": {"android": "https://dc.lft.to/lastmile_qr_scan", "ios": "https://dc.lft.to/lastmile_qr_scan"}, "fusion_lon": 0.0}, {"lat": 38.91306633333333, "is_disabled": 0, "type": "electric_scooter", "lon": -77.03206233333333, "bike_id": "1e60ed47bc2f948588c3be7bea8d0a93", "fusion_lat": 0.0, "name": "1e60ed47bc2f948588c3be7bea8d0a93", "is_reserved": 0, "rental_uris": {"android": "https://dc.lft.to/lastmile_qr_scan", "ios": "https://dc.lft.to/lastmile_qr_scan"}, "fusion_lon": 0.0}, {"lat": 38.88731033333333, "is_disabled": 0, "type": "electric_scooter", "lon": -77.0207645, "bike_id": "57f221fac062b2fa8ee48f3881a3b12e", "fusion_lat": 0.0, "name": "57f221fac062b2fa8ee48f3881a3b12e", "is_reserved": 0, "rental_uris": {"android": "https://dc.lft.to/lastmile_qr_scan", "ios": "https://dc.lft.to/lastmile_qr_scan"}, "fusion_lon": 0.0}, {"lat": 38.86700833333333, "is_disabled": 0, "type": "electric_scooter", "lon": -76.98729366666667, "bike_id": "8c076e02d264680c80eda925051c64be", "fusion_lat": 0.0, "name": "8c076e02d264680c80eda925051c64be", "is_reserved": 0, "rental_uris": {"android": "https://dc.lft.to/lastmile_qr_scan", "ios": "https://dc.lft.to/lastmile_qr_scan"}, "fusion_lon": 0.0}, {"lat": 38.8846755, "is_disabled": 0, "type": "electric_scooter", "lon": -77.02420166666667, "bike_id": "d07688514f889d881c695bf157ab3b00", "fusion_lat": 0.0, "name": "d07688514f889d881c695bf157ab3b00", "is_reserved": 0, "rental_uris": {"android": "https://dc.lft.to/lastmile_qr_scan", "ios": "https://dc.lft.to/lastmile_qr_scan"}, "fusion_lon": 0.0}, {"lat": 38.925089666666665, "is_disabled": 0, "type": "electric_scooter", "lon": -76.9857925, "bike_id": "8d299ee626bcc21e31b84721735268de", "fusion_lat": 0.0, "name": "8d299ee626bcc21e31b84721735268de", "is_reserved": 0, "rental_uris": {"android": "https://dc.lft.to/lastmile_qr_scan", "ios": "https://dc.lft.to/lastmile_qr_scan"}, "fusion_lon": 0.0}, {"lat": 38.9119555, "is_disabled": 0, "type": "electric_scooter", "lon": -77.04340066666667, "bike_id": "aae950c02ef647f4d7c8b3df441dc66d", "fusion_lat": 0.0, "name": "aae950c02ef647f4d7c8b3df441dc66d", "is_reserved": 0, "rental_uris": {"android": "https://dc.lft.to/lastmile_qr_scan", "ios": "https://dc.lft.to/lastmile_qr_scan"}, "fusion_lon": 0.0}, {"lat": 38.89775216666666, "is_disabled": 0, "type": "electric_scooter", "lon": -77.0436415, "bike_id": "6d305be0e0b11ce3deb007ee825967dd", "fusion_lat": 0.0, "name": "6d305be0e0b11ce3deb007ee825967dd", "is_reserved": 0, "rental_uris": {"android": "https://dc.lft.to/lastmile_qr_scan", "ios": "https://dc.lft.to/lastmile_qr_scan"}, "fusion_lon": 0.0}, {"lat": 38.90214116666667, "is_disabled": 0, "type": "electric_scooter", "lon": -76.94594933333333, "bike_id": "4d1e7f21d5f99e0ce97dad9466a13a3a", "fusion_lat": 0.0, "name": "4d1e7f21d5f99e0ce97dad9466a13a3a", "is_reserved": 0, "rental_uris": {"android": "https://dc.lft.to/lastmile_qr_scan", "ios": "https://dc.lft.to/lastmile_qr_scan"}, "fusion_lon": 0.0}, {"lat": 38.96272483333333, "is_disabled": 0, "type": "electric_bike", "lon": -77.03262166666667, "bike_id": "5f26bb4b0c1151dcde683348b4fe1f59", "fusion_lat": 0.0, "name": "5f26bb4b0c1151dcde683348b4fe1f59", "is_reserved": 0, "rental_uris": {"android": "https://dc.lft.to/lastmile_qr_scan", "ios": "https://dc.lft.to/lastmile_qr_scan"}, "fusion_lon": 0.0}, {"lat": 38.91564566666667, "is_disabled": 0, "type": "electric_scooter", "lon": -77.04674816666666, "bike_id": "c250c9ecda2e737ebc71a19179ebe1ba", "fusion_lat": 0.0, "name": "c250c9ecda2e737ebc71a19179ebe1ba", "is_reserved": 0, "rental_uris": {"android": "https://dc.lft.to/lastmile_qr_scan", "ios": "https://dc.lft.to/lastmile_qr_scan"}, "fusion_lon": 0.0}, {"lat": 38.8870565, "is_disabled": 0, "type": "electric_scooter", "lon": -77.0319195, "bike_id": "3133caa65dfa68d1057fef9bdd4dd594", "fusion_lat": 0.0, "name": "3133caa65dfa68d1057fef9bdd4dd594", "is_reserved": 0, "rental_uris": {"android": "https://dc.lft.to/lastmile_qr_scan", "ios": "https://dc.lft.to/lastmile_qr_scan"}, "fusion_lon": 0.0}, {"lat": 38.95612333333333, "is_disabled": 0, "type": "electric_scooter", "lon": -77.0278475, "bike_id": "172048cd7bd679cd5acb32842962b304", "fusion_lat": 0.0, "name": "172048cd7bd679cd5acb32842962b304", "is_reserved": 0, "rental_uris": {"android": "https://dc.lft.to/lastmile_qr_scan", "ios": "https://dc.lft.to/lastmile_qr_scan"}, "fusion_lon": 0.0}, {"lat": 38.9301335, "is_disabled": 0, "type": "electric_bike", "lon": -77.21648816666666, "bike_id": "54a048ded31672ef97cac4b3962d299c", "fusion_lat": 0.0, "name": "54a048ded31672ef97cac4b3962d299c", "is_reserved": 0, "rental_uris": {"android": "https://dc.lft.to/lastmile_qr_scan", "ios": "https://dc.lft.to/lastmile_qr_scan"}, "fusion_lon": 0.0}, {"lat": 38.9232405, "is_disabled": 0, "type": "electric_bike", "lon": -77.05696983333333, "bike_id": "e3098950d5d0f17f99e91da3e52df3b7", "fusion_lat": 0.0, "name": "e3098950d5d0f17f99e91da3e52df3b7", "is_reserved": 0, "rental_uris": {"android": "https://dc.lft.to/lastmile_qr_scan", "ios": "https://dc.lft.to/lastmile_qr_scan"}, "fusion_lon": 0.0}, {"lat": 38.8970735, "is_disabled": 0, "type": "electric_bike", "lon": -77.00748, "bike_id": "a6592c852d4e2b318973e33ebbe217b9", "fusion_lat": 0.0, "name": "a6592c852d4e2b318973e33ebbe217b9", "is_reserved": 0, "rental_uris": {"android": "https://dc.lft.to/lastmile_qr_scan", "ios": "https://dc.lft.to/lastmile_qr_scan"}, "fusion_lon": 0.0}, {"lat": 38.91914233333333, "is_disabled": 0, "type": "electric_scooter", "lon": -77.031346, "bike_id": "ae438a2933395f57edba6d37cd6ccf6b", "fusion_lat": 0.0, "name": "ae438a2933395f57edba6d37cd6ccf6b", "is_reserved": 0, "rental_uris": {"android": "https://dc.lft.to/lastmile_qr_scan", "ios": "https://dc.lft.to/lastmile_qr_scan"}, "fusion_lon": 0.0}, {"lat": 38.904977833333334, "is_disabled": 0, "type": "electric_scooter", "lon": -77.058026, "bike_id": "30c9d2c403ee79cfd7d2c568300f5beb", "fusion_lat": 0.0, "name": "30c9d2c403ee79cfd7d2c568300f5beb", "is_reserved": 0, "rental_uris": {"android": "https://dc.lft.to/lastmile_qr_scan", "ios": "https://dc.lft.to/lastmile_qr_scan"}, "fusion_lon": 0.0}, {"lat": 38.9078275, "is_disabled": 0, "type": "electric_scooter", "lon": -77.06933333333333, "bike_id": "2b8f357ca161ca4874b166ced7b5acdf", "fusion_lat": 0.0, "name": "2b8f357ca161ca4874b166ced7b5acdf", "is_reserved": 0, "rental_uris": {"android": "https://dc.lft.to/lastmile_qr_scan", "ios": "https://dc.lft.to/lastmile_qr_scan"}, "fusion_lon": 0.0}, {"lat": 38.8737545, "is_disabled": 0, "type": "electric_bike", "lon": -77.00938916666667, "bike_id": "a12137735861739b6779e89e02a0d066", "fusion_lat": 0.0, "name": "a12137735861739b6779e89e02a0d066", "is_reserved": 0, "rental_uris": {"android": "https://dc.lft.to/lastmile_qr_scan", "ios": "https://dc.lft.to/lastmile_qr_scan"}, "fusion_lon": 0.0}, {"lat": 38.91904666666667, "is_disabled": 0, "type": "electric_scooter", "lon": -77.04631483333333, "bike_id": "d9b05b3862542211f099e1faebc29d99", "fusion_lat": 0.0, "name": "d9b05b3862542211f099e1faebc29d99", "is_reserved": 0, "rental_uris": {"android": "https://dc.lft.to/lastmile_qr_scan", "ios": "https://dc.lft.to/lastmile_qr_scan"}, "fusion_lon": 0.0}, {"lat": 38.909402666666665, "is_disabled": 0, "type": "electric_scooter", "lon": -77.037296, "bike_id": "6a66ac38e84d86d053551395ca5000fa", "fusion_lat": 0.0, "name": "6a66ac38e84d86d053551395ca5000fa", "is_reserved": 0, "rental_uris": {"android": "https://dc.lft.to/lastmile_qr_scan", "ios": "https://dc.lft.to/lastmile_qr_scan"}, "fusion_lon": 0.0}, {"lat": 38.865241833333336, "is_disabled": 0, "type": "electric_scooter", "lon": -76.99038, "bike_id": "773d0652f2318c9bfbaeb068abde7b05", "fusion_lat": 0.0, "name": "773d0652f2318c9bfbaeb068abde7b05", "is_reserved": 0, "rental_uris": {"android": "https://dc.lft.to/lastmile_qr_scan", "ios": "https://dc.lft.to/lastmile_qr_scan"}, "fusion_lon": 0.0}, {"lat": 38.822502166666666, "is_disabled": 0, "type": "electric_scooter", "lon": -76.99990466666667, "bike_id": "802b98dea7dd29b99643d9cefa282dad", "fusion_lat": 0.0, "name": "802b98dea7dd29b99643d9cefa282dad", "is_reserved": 0, "rental_uris": {"android": "https://dc.lft.to/lastmile_qr_scan", "ios": "https://dc.lft.to/lastmile_qr_scan"}, "fusion_lon": 0.0}, {"lat": 38.933556833333334, "is_disabled": 0, "type": "electric_bike", "lon": -77.09966683333333, "bike_id": "f9d9ba3a184b96fb34597f2a8d02dd23", "fusion_lat": 0.0, "name": "f9d9ba3a184b96fb34597f2a8d02dd23", "is_reserved": 0, "rental_uris": {"android": "https://dc.lft.to/lastmile_qr_scan", "ios": "https://dc.lft.to/lastmile_qr_scan"}, "fusion_lon": 0.0}, {"lat": 38.9009185, "is_disabled": 0, "type": "electric_scooter", "lon": -77.02042783333333, "bike_id": "0e24601e6a6e1c5c99df972f4ea14b1e", "fusion_lat": 0.0, "name": "0e24601e6a6e1c5c99df972f4ea14b1e", "is_reserved": 0, "rental_uris": {"android": "https://dc.lft.to/lastmile_qr_scan", "ios": "https://dc.lft.to/lastmile_qr_scan"}, "fusion_lon": 0.0}, {"lat": 38.904555, "is_disabled": 0, "type": "electric_scooter", "lon": -77.03225, "bike_id": "f0e0f46c1eb62f01fce454a9bba35698", "fusion_lat": 0.0, "name": "f0e0f46c1eb62f01fce454a9bba35698", "is_reserved": 0, "rental_uris": {"android": "https://dc.lft.to/lastmile_qr_scan", "ios": "https://dc.lft.to/lastmile_qr_scan"}, "fusion_lon": 0.0}, {"lat": 38.90576216666667, "is_disabled": 0, "type": "electric_scooter", "lon": -77.00881683333333, "bike_id": "6b8ef2fa6618e40f467fa90b02528878", "fusion_lat": 0.0, "name": "6b8ef2fa6618e40f467fa90b02528878", "is_reserved": 0, "rental_uris": {"android": "https://dc.lft.to/lastmile_qr_scan", "ios": "https://dc.lft.to/lastmile_qr_scan"}, "fusion_lon": 0.0}, {"lat": 38.8960255, "is_disabled": 0, "type": "electric_scooter", "lon": -76.9560235, "bike_id": "a5ffd66e3ea0f9616b56bc531cc05dc2", "fusion_lat": 0.0, "name": "a5ffd66e3ea0f9616b56bc531cc05dc2", "is_reserved": 0, "rental_uris": {"android": "https://dc.lft.to/lastmile_qr_scan", "ios": "https://dc.lft.to/lastmile_qr_scan"}, "fusion_lon": 0.0}, {"lat": 38.91886983333333, "is_disabled": 0, "type": "electric_scooter", "lon": -77.03902866666667, "bike_id": "e4c7032e8ae6fa051d60827df15b5915", "fusion_lat": 0.0, "name": "e4c7032e8ae6fa051d60827df15b5915", "is_reserved": 0, "rental_uris": {"android": "https://dc.lft.to/lastmile_qr_scan", "ios": "https://dc.lft.to/lastmile_qr_scan"}, "fusion_lon": 0.0}, {"lat": 38.93336866666667, "is_disabled": 0, "type": "electric_scooter", "lon": -77.05708883333334, "bike_id": "96e5df1f39f6f0fd919d12977abca63c", "fusion_lat": 0.0, "name": "96e5df1f39f6f0fd919d12977abca63c", "is_reserved": 0, "rental_uris": {"android": "https://dc.lft.to/lastmile_qr_scan", "ios": "https://dc.lft.to/lastmile_qr_scan"}, "fusion_lon": 0.0}, {"lat": 38.886480666666664, "is_disabled": 0, "type": "electric_bike", "lon": -77.16234966666667, "bike_id": "058615c2b746159941a0c1a1ed9ba6f2", "fusion_lat": 0.0, "name": "058615c2b746159941a0c1a1ed9ba6f2", "is_reserved": 0, "rental_uris": {"android": "https://dc.lft.to/lastmile_qr_scan", "ios": "https://dc.lft.to/lastmile_qr_scan"}, "fusion_lon": 0.0}, {"lat": 38.921484666666665, "is_disabled": 0, "type": "electric_scooter", "lon": -77.03512433333333, "bike_id": "d47aa39cbce75500d7889a1cc144b924", "fusion_lat": 0.0, "name": "d47aa39cbce75500d7889a1cc144b924", "is_reserved": 0, "rental_uris": {"android": "https://dc.lft.to/lastmile_qr_scan", "ios": "https://dc.lft.to/lastmile_qr_scan"}, "fusion_lon": 0.0}, {"lat": 38.926431666666666, "is_disabled": 0, "type": "electric_scooter", "lon": -77.03569583333334, "bike_id": "1615c1a46bd54c3b13cfd112ec1c2e16", "fusion_lat": 0.0, "name": "1615c1a46bd54c3b13cfd112ec1c2e16", "is_reserved": 0, "rental_uris": {"android": "https://dc.lft.to/lastmile_qr_scan", "ios": "https://dc.lft.to/lastmile_qr_scan"}, "fusion_lon": 0.0}, {"lat": 38.91704416666666, "is_disabled": 0, "type": "electric_scooter", "lon": -77.03866066666667, "bike_id": "084f47b891c03c50d7be09b4f7a96d71", "fusion_lat": 0.0, "name": "084f47b891c03c50d7be09b4f7a96d71", "is_reserved": 0, "rental_uris": {"android": "https://dc.lft.to/lastmile_qr_scan", "ios": "https://dc.lft.to/lastmile_qr_scan"}, "fusion_lon": 0.0}, {"lat": 38.892425333333335, "is_disabled": 0, "type": "electric_scooter", "lon": -77.02012833333333, "bike_id": "5a81428e370799ef3a2bec6a3c02dd26", "fusion_lat": 0.0, "name": "5a81428e370799ef3a2bec6a3c02dd26", "is_reserved": 0, "rental_uris": {"android": "https://dc.lft.to/lastmile_qr_scan", "ios": "https://dc.lft.to/lastmile_qr_scan"}, "fusion_lon": 0.0}, {"lat": 38.904525166666666, "is_disabled": 0, "type": "electric_scooter", "lon": -77.00777966666666, "bike_id": "636c8c3b2c695e4178431d35d1689b7c", "fusion_lat": 0.0, "name": "636c8c3b2c695e4178431d35d1689b7c", "is_reserved": 0, "rental_uris": {"android": "https://dc.lft.to/lastmile_qr_scan", "ios": "https://dc.lft.to/lastmile_qr_scan"}, "fusion_lon": 0.0}, {"lat": 38.910539, "is_disabled": 0, "type": "electric_scooter", "lon": -77.045817, "bike_id": "b3bc78b2662b1108dc840d205010ff1f", "fusion_lat": 0.0, "name": "b3bc78b2662b1108dc840d205010ff1f", "is_reserved": 0, "rental_uris": {"android": "https://dc.lft.to/lastmile_qr_scan", "ios": "https://dc.lft.to/lastmile_qr_scan"}, "fusion_lon": 0.0}, {"lat": 38.938759, "is_disabled": 0, "type": "electric_scooter", "lon": -77.0322795, "bike_id": "8b953ffa5ecb7524804c94b0e865b901", "fusion_lat": 0.0, "name": "8b953ffa5ecb7524804c94b0e865b901", "is_reserved": 0, "rental_uris": {"android": "https://dc.lft.to/lastmile_qr_scan", "ios": "https://dc.lft.to/lastmile_qr_scan"}, "fusion_lon": 0.0}, {"lat": 38.921359, "is_disabled": 0, "type": "electric_scooter", "lon": -77.0413425, "bike_id": "b11763f7093fc3176f86b4c2f75949ee", "fusion_lat": 0.0, "name": "b11763f7093fc3176f86b4c2f75949ee", "is_reserved": 0, "rental_uris": {"android": "https://dc.lft.to/lastmile_qr_scan", "ios": "https://dc.lft.to/lastmile_qr_scan"}, "fusion_lon": 0.0}, {"lat": 38.900093166666665, "is_disabled": 0, "type": "electric_scooter", "lon": -76.99879466666667, "bike_id": "7ff3c31ad8655a202f921faf3862512b", "fusion_lat": 0.0, "name": "7ff3c31ad8655a202f921faf3862512b", "is_reserved": 0, "rental_uris": {"android": "https://dc.lft.to/lastmile_qr_scan", "ios": "https://dc.lft.to/lastmile_qr_scan"}, "fusion_lon": 0.0}, {"lat": 38.90152616666666, "is_disabled": 0, "type": "electric_scooter", "lon": -77.04165416666666, "bike_id": "2696413ba6f2d5ba4e43e76906b61119", "fusion_lat": 0.0, "name": "2696413ba6f2d5ba4e43e76906b61119", "is_reserved": 0, "rental_uris": {"android": "https://dc.lft.to/lastmile_qr_scan", "ios": "https://dc.lft.to/lastmile_qr_scan"}, "fusion_lon": 0.0}, {"lat": 38.905112333333335, "is_disabled": 0, "type": "electric_scooter", "lon": -77.06474916666667, "bike_id": "548629445e037abc7fd2bf20d33d9edd", "fusion_lat": 0.0, "name": "548629445e037abc7fd2bf20d33d9edd", "is_reserved": 0, "rental_uris": {"android": "https://dc.lft.to/lastmile_qr_scan", "ios": "https://dc.lft.to/lastmile_qr_scan"}, "fusion_lon": 0.0}, {"lat": 38.827817333333336, "is_disabled": 0, "type": "electric_bike", "lon": -77.00923416666667, "bike_id": "8134fb3c1b85c11311d256fbc0b7aedf", "fusion_lat": 0.0, "name": "8134fb3c1b85c11311d256fbc0b7aedf", "is_reserved": 0, "rental_uris": {"android": "https://dc.lft.to/lastmile_qr_scan", "ios": "https://dc.lft.to/lastmile_qr_scan"}, "fusion_lon": 0.0}, {"lat": 38.9059955, "is_disabled": 0, "type": "electric_scooter", "lon": -77.02505433333333, "bike_id": "4917e9b8a5cbad8e9295830fb627977c", "fusion_lat": 0.0, "name": "4917e9b8a5cbad8e9295830fb627977c", "is_reserved": 0, "rental_uris": {"android": "https://dc.lft.to/lastmile_qr_scan", "ios": "https://dc.lft.to/lastmile_qr_scan"}, "fusion_lon": 0.0}, {"lat": 38.9389085, "is_disabled": 0, "type": "electric_scooter", "lon": -77.03334416666667, "bike_id": "479775bb982a25481c5442ec0444c3bd", "fusion_lat": 0.0, "name": "479775bb982a25481c5442ec0444c3bd", "is_reserved": 0, "rental_uris": {"android": "https://dc.lft.to/lastmile_qr_scan", "ios": "https://dc.lft.to/lastmile_qr_scan"}, "fusion_lon": 0.0}, {"lat": 38.912127, "is_disabled": 0, "type": "electric_scooter", "lon": -77.02722366666667, "bike_id": "32cd42844a0a4ea75cf82ade508589b0", "fusion_lat": 0.0, "name": "32cd42844a0a4ea75cf82ade508589b0", "is_reserved": 0, "rental_uris": {"android": "https://dc.lft.to/lastmile_qr_scan", "ios": "https://dc.lft.to/lastmile_qr_scan"}, "fusion_lon": 0.0}, {"lat": 38.88366416666667, "is_disabled": 0, "type": "electric_scooter", "lon": -76.99505183333333, "bike_id": "9902d7ef46a73bf43bfcc89cad976977", "fusion_lat": 0.0, "name": "9902d7ef46a73bf43bfcc89cad976977", "is_reserved": 0, "rental_uris": {"android": "https://dc.lft.to/lastmile_qr_scan", "ios": "https://dc.lft.to/lastmile_qr_scan"}, "fusion_lon": 0.0}, {"lat": 38.9164845, "is_disabled": 0, "type": "electric_scooter", "lon": -77.03220583333334, "bike_id": "3bac49ce0dfb4fbd38cc903db1c16125", "fusion_lat": 0.0, "name": "3bac49ce0dfb4fbd38cc903db1c16125", "is_reserved": 0, "rental_uris": {"android": "https://dc.lft.to/lastmile_qr_scan", "ios": "https://dc.lft.to/lastmile_qr_scan"}, "fusion_lon": 0.0}, {"lat": 38.93189866666667, "is_disabled": 0, "type": "electric_scooter", "lon": -77.02567416666666, "bike_id": "42ea7772c456130030eb9e59a4829b4b", "fusion_lat": 0.0, "name": "42ea7772c456130030eb9e59a4829b4b", "is_reserved": 0, "rental_uris": {"android": "https://dc.lft.to/lastmile_qr_scan", "ios": "https://dc.lft.to/lastmile_qr_scan"}, "fusion_lon": 0.0}, {"lat": 38.9329135, "is_disabled": 0, "type": "electric_scooter", "lon": -77.04540816666666, "bike_id": "13dcb5a8be8a192fb2342d0c80f0963d", "fusion_lat": 0.0, "name": "13dcb5a8be8a192fb2342d0c80f0963d", "is_reserved": 0, "rental_uris": {"android": "https://dc.lft.to/lastmile_qr_scan", "ios": "https://dc.lft.to/lastmile_qr_scan"}, "fusion_lon": 0.0}, {"lat": 38.880912333333335, "is_disabled": 0, "type": "electric_scooter", "lon": -76.99259683333334, "bike_id": "71af19a6ce4247269f83c649e3992657", "fusion_lat": 0.0, "name": "71af19a6ce4247269f83c649e3992657", "is_reserved": 0, "rental_uris": {"android": "https://dc.lft.to/lastmile_qr_scan", "ios": "https://dc.lft.to/lastmile_qr_scan"}, "fusion_lon": 0.0}, {"lat": 38.88798383333334, "is_disabled": 0, "type": "electric_scooter", "lon": -76.9336415, "bike_id": "be4598e422c06a2d771e6e6b6ba350c2", "fusion_lat": 0.0, "name": "be4598e422c06a2d771e6e6b6ba350c2", "is_reserved": 0, "rental_uris": {"android": "https://dc.lft.to/lastmile_qr_scan", "ios": "https://dc.lft.to/lastmile_qr_scan"}, "fusion_lon": 0.0}, {"lat": 38.984265, "is_disabled": 0, "type": "electric_scooter", "lon": -77.02668883333334, "bike_id": "23d944f470eaf6ecb31bca99a1f0b8a1", "fusion_lat": 0.0, "name": "23d944f470eaf6ecb31bca99a1f0b8a1", "is_reserved": 0, "rental_uris": {"android": "https://dc.lft.to/lastmile_qr_scan", "ios": "https://dc.lft.to/lastmile_qr_scan"}, "fusion_lon": 0.0}, {"lat": 38.999967, "is_disabled": 0, "type": "electric_bike", "lon": -76.92495083333333, "bike_id": "e2798723ef43accc7fc04f527da11d66", "fusion_lat": 0.0, "name": "e2798723ef43accc7fc04f527da11d66", "is_reserved": 0, "rental_uris": {"android": "https://dc.lft.to/lastmile_qr_scan", "ios": "https://dc.lft.to/lastmile_qr_scan"}, "fusion_lon": 0.0}, {"lat": 38.92277816666667, "is_disabled": 0, "type": "electric_scooter", "lon": -77.04241816666666, "bike_id": "91992daa64708680abe53208116cc908", "fusion_lat": 0.0, "name": "91992daa64708680abe53208116cc908", "is_reserved": 0, "rental_uris": {"android": "https://dc.lft.to/lastmile_qr_scan", "ios": "https://dc.lft.to/lastmile_qr_scan"}, "fusion_lon": 0.0}, {"lat": 38.914137833333335, "is_disabled": 0, "type": "electric_scooter", "lon": -77.03176483333333, "bike_id": "5244295c885054b52799ad81283e7a15", "fusion_lat": 0.0, "name": "5244295c885054b52799ad81283e7a15", "is_reserved": 0, "rental_uris": {"android": "https://dc.lft.to/lastmile_qr_scan", "ios": "https://dc.lft.to/lastmile_qr_scan"}, "fusion_lon": 0.0}, {"lat": 38.936476, "is_disabled": 0, "type": "electric_scooter", "lon": -77.02406033333334, "bike_id": "74d1ccde442c744e5193e45f85849ddc", "fusion_lat": 0.0, "name": "74d1ccde442c744e5193e45f85849ddc", "is_reserved": 0, "rental_uris": {"android": "https://dc.lft.to/lastmile_qr_scan", "ios": "https://dc.lft.to/lastmile_qr_scan"}, "fusion_lon": 0.0}, {"lat": 38.9184365, "is_disabled": 0, "type": "electric_scooter", "lon": -77.0353815, "bike_id": "447515a12811a89b80afd83a3f8faf01", "fusion_lat": 0.0, "name": "447515a12811a89b80afd83a3f8faf01", "is_reserved": 0, "rental_uris": {"android": "https://dc.lft.to/lastmile_qr_scan", "ios": "https://dc.lft.to/lastmile_qr_scan"}, "fusion_lon": 0.0}, {"lat": 38.942806166666664, "is_disabled": 0, "type": "electric_scooter", "lon": -77.07707883333333, "bike_id": "d9dcef82a9bee6e1525ed79cbcfd61d4", "fusion_lat": 0.0, "name": "d9dcef82a9bee6e1525ed79cbcfd61d4", "is_reserved": 0, "rental_uris": {"android": "https://dc.lft.to/lastmile_qr_scan", "ios": "https://dc.lft.to/lastmile_qr_scan"}, "fusion_lon": 0.0}, {"lat": 38.92048166666667, "is_disabled": 0, "type": "electric_scooter", "lon": -77.03475333333333, "bike_id": "9bd04bf657a8ee355d1d11544b5c95c6", "fusion_lat": 0.0, "name": "9bd04bf657a8ee355d1d11544b5c95c6", "is_reserved": 0, "rental_uris": {"android": "https://dc.lft.to/lastmile_qr_scan", "ios": "https://dc.lft.to/lastmile_qr_scan"}, "fusion_lon": 0.0}, {"lat": 38.9051045, "is_disabled": 0, "type": "electric_scooter", "lon": -77.067687, "bike_id": "8ad22f4166716c8dffba4842d047d25b", "fusion_lat": 0.0, "name": "8ad22f4166716c8dffba4842d047d25b", "is_reserved": 0, "rental_uris": {"android": "https://dc.lft.to/lastmile_qr_scan", "ios": "https://dc.lft.to/lastmile_qr_scan"}, "fusion_lon": 0.0}, {"lat": 38.900615333333334, "is_disabled": 0, "type": "electric_scooter", "lon": -76.93387366666667, "bike_id": "fb6064c7e787d2ecb876c68a4827b954", "fusion_lat": 0.0, "name": "fb6064c7e787d2ecb876c68a4827b954", "is_reserved": 0, "rental_uris": {"android": "https://dc.lft.to/lastmile_qr_scan", "ios": "https://dc.lft.to/lastmile_qr_scan"}, "fusion_lon": 0.0}, {"lat": 38.90631033333333, "is_disabled": 0, "type": "electric_scooter", "lon": -77.04199833333334, "bike_id": "6a548126144987a8ad7400ba5c108c0e", "fusion_lat": 0.0, "name": "6a548126144987a8ad7400ba5c108c0e", "is_reserved": 0, "rental_uris": {"android": "https://dc.lft.to/lastmile_qr_scan", "ios": "https://dc.lft.to/lastmile_qr_scan"}, "fusion_lon": 0.0}, {"lat": 38.890948, "is_disabled": 0, "type": "electric_scooter", "lon": -76.9525335, "bike_id": "d3469b620337eb10ae0e44bb20b5373c", "fusion_lat": 0.0, "name": "d3469b620337eb10ae0e44bb20b5373c", "is_reserved": 0, "rental_uris": {"android": "https://dc.lft.to/lastmile_qr_scan", "ios": "https://dc.lft.to/lastmile_qr_scan"}, "fusion_lon": 0.0}, {"lat": 38.898706, "is_disabled": 0, "type": "electric_scooter", "lon": -77.02936533333333, "bike_id": "a1ea4b0b61065f3a1ac50994a1b3f17c", "fusion_lat": 0.0, "name": "a1ea4b0b61065f3a1ac50994a1b3f17c", "is_reserved": 0, "rental_uris": {"android": "https://dc.lft.to/lastmile_qr_scan", "ios": "https://dc.lft.to/lastmile_qr_scan"}, "fusion_lon": 0.0}, {"lat": 38.95730233333333, "is_disabled": 0, "type": "electric_scooter", "lon": -77.02386933333334, "bike_id": "b1ccce4eb75368acc9abe4936588d641", "fusion_lat": 0.0, "name": "b1ccce4eb75368acc9abe4936588d641", "is_reserved": 0, "rental_uris": {"android": "https://dc.lft.to/lastmile_qr_scan", "ios": "https://dc.lft.to/lastmile_qr_scan"}, "fusion_lon": 0.0}, {"lat": 38.924426833333335, "is_disabled": 0, "type": "electric_scooter", "lon": -77.04033, "bike_id": "d349ecd88ac6584c27914cce0f2bb8cc", "fusion_lat": 0.0, "name": "d349ecd88ac6584c27914cce0f2bb8cc", "is_reserved": 0, "rental_uris": {"android": "https://dc.lft.to/lastmile_qr_scan", "ios": "https://dc.lft.to/lastmile_qr_scan"}, "fusion_lon": 0.0}, {"lat": 38.9037555, "is_disabled": 0, "type": "electric_scooter", "lon": -77.03311766666667, "bike_id": "67692808affd1dbbebe9f750fb70b8ee", "fusion_lat": 0.0, "name": "67692808affd1dbbebe9f750fb70b8ee", "is_reserved": 0, "rental_uris": {"android": "https://dc.lft.to/lastmile_qr_scan", "ios": "https://dc.lft.to/lastmile_qr_scan"}, "fusion_lon": 0.0}, {"lat": 38.898051833333334, "is_disabled": 0, "type": "electric_bike", "lon": -76.99064383333334, "bike_id": "7b414b74d88ed3fec1829da854010968", "fusion_lat": 0.0, "name": "7b414b74d88ed3fec1829da854010968", "is_reserved": 0, "rental_uris": {"android": "https://dc.lft.to/lastmile_qr_scan", "ios": "https://dc.lft.to/lastmile_qr_scan"}, "fusion_lon": 0.0}, {"lat": 38.93564533333333, "is_disabled": 0, "type": "electric_scooter", "lon": -77.03746483333333, "bike_id": "c81cab3713362705b9132a4d668ae467", "fusion_lat": 0.0, "name": "c81cab3713362705b9132a4d668ae467", "is_reserved": 0, "rental_uris": {"android": "https://dc.lft.to/lastmile_qr_scan", "ios": "https://dc.lft.to/lastmile_qr_scan"}, "fusion_lon": 0.0}, {"lat": 38.91686983333334, "is_disabled": 0, "type": "electric_scooter", "lon": -77.02956716666667, "bike_id": "97b51327973dd7ffd7d0478299a07ac6", "fusion_lat": 0.0, "name": "97b51327973dd7ffd7d0478299a07ac6", "is_reserved": 0, "rental_uris": {"android": "https://dc.lft.to/lastmile_qr_scan", "ios": "https://dc.lft.to/lastmile_qr_scan"}, "fusion_lon": 0.0}, {"lat": 38.866179, "is_disabled": 0, "type": "electric_scooter", "lon": -76.98661716666666, "bike_id": "ab4c230d1b92e7d14ffb3a3bb06bf053", "fusion_lat": 0.0, "name": "ab4c230d1b92e7d14ffb3a3bb06bf053", "is_reserved": 0, "rental_uris": {"android": "https://dc.lft.to/lastmile_qr_scan", "ios": "https://dc.lft.to/lastmile_qr_scan"}, "fusion_lon": 0.0}, {"lat": 38.91722683333333, "is_disabled": 0, "type": "electric_scooter", "lon": -77.02717866666667, "bike_id": "d20c068cdd333f6f0ba21049f6d86df7", "fusion_lat": 0.0, "name": "d20c068cdd333f6f0ba21049f6d86df7", "is_reserved": 0, "rental_uris": {"android": "https://dc.lft.to/lastmile_qr_scan", "ios": "https://dc.lft.to/lastmile_qr_scan"}, "fusion_lon": 0.0}, {"lat": 38.90556683333333, "is_disabled": 0, "type": "electric_scooter", "lon": -77.056979, "bike_id": "2f10c085bcef5470126d88669bd8d051", "fusion_lat": 0.0, "name": "2f10c085bcef5470126d88669bd8d051", "is_reserved": 0, "rental_uris": {"android": "https://dc.lft.to/lastmile_qr_scan", "ios": "https://dc.lft.to/lastmile_qr_scan"}, "fusion_lon": 0.0}, {"lat": 38.91558466666667, "is_disabled": 0, "type": "electric_scooter", "lon": -77.00981033333333, "bike_id": "6eb3ee4e849babb47919750f0ebc1d0a", "fusion_lat": 0.0, "name": "6eb3ee4e849babb47919750f0ebc1d0a", "is_reserved": 0, "rental_uris": {"android": "https://dc.lft.to/lastmile_qr_scan", "ios": "https://dc.lft.to/lastmile_qr_scan"}, "fusion_lon": 0.0}, {"lat": 38.86222516666667, "is_disabled": 0, "type": "electric_scooter", "lon": -76.98376766666667, "bike_id": "36694dfbf2ab51eef5e64cefc81e4128", "fusion_lat": 0.0, "name": "36694dfbf2ab51eef5e64cefc81e4128", "is_reserved": 0, "rental_uris": {"android": "https://dc.lft.to/lastmile_qr_scan", "ios": "https://dc.lft.to/lastmile_qr_scan"}, "fusion_lon": 0.0}, {"lat": 38.890828666666664, "is_disabled": 0, "type": "electric_scooter", "lon": -76.98683833333334, "bike_id": "82ca6ab317b4e898a35d4c486ebd36b5", "fusion_lat": 0.0, "name": "82ca6ab317b4e898a35d4c486ebd36b5", "is_reserved": 0, "rental_uris": {"android": "https://dc.lft.to/lastmile_qr_scan", "ios": "https://dc.lft.to/lastmile_qr_scan"}, "fusion_lon": 0.0}, {"lat": 38.9182885, "is_disabled": 0, "type": "electric_scooter", "lon": -77.02281983333333, "bike_id": "8857b32ab04d3da5c88a218004f2d72a", "fusion_lat": 0.0, "name": "8857b32ab04d3da5c88a218004f2d72a", "is_reserved": 0, "rental_uris": {"android": "https://dc.lft.to/lastmile_qr_scan", "ios": "https://dc.lft.to/lastmile_qr_scan"}, "fusion_lon": 0.0}, {"lat": 38.88281933333333, "is_disabled": 0, "type": "electric_bike", "lon": -76.932386, "bike_id": "08df33bfec9e8c3e6d2837641164585a", "fusion_lat": 0.0, "name": "08df33bfec9e8c3e6d2837641164585a", "is_reserved": 0, "rental_uris": {"android": "https://dc.lft.to/lastmile_qr_scan", "ios": "https://dc.lft.to/lastmile_qr_scan"}, "fusion_lon": 0.0}, {"lat": 38.90875883333333, "is_disabled": 0, "type": "electric_scooter", "lon": -77.0366555, "bike_id": "62c7df9dd84fbf1c839c6bf4789ef3f0", "fusion_lat": 0.0, "name": "62c7df9dd84fbf1c839c6bf4789ef3f0", "is_reserved": 0, "rental_uris": {"android": "https://dc.lft.to/lastmile_qr_scan", "ios": "https://dc.lft.to/lastmile_qr_scan"}, "fusion_lon": 0.0}, {"lat": 38.89218, "is_disabled": 0, "type": "electric_scooter", "lon": -77.04871533333333, "bike_id": "6e8cecbf941c4522b89a02114e0a7ab9", "fusion_lat": 0.0, "name": "6e8cecbf941c4522b89a02114e0a7ab9", "is_reserved": 0, "rental_uris": {"android": "https://dc.lft.to/lastmile_qr_scan", "ios": "https://dc.lft.to/lastmile_qr_scan"}, "fusion_lon": 0.0}, {"lat": 38.950714, "is_disabled": 0, "type": "electric_bike", "lon": -77.01199033333333, "bike_id": "137aef082ff455f5420507f597b7f794", "fusion_lat": 0.0, "name": "137aef082ff455f5420507f597b7f794", "is_reserved": 0, "rental_uris": {"android": "https://dc.lft.to/lastmile_qr_scan", "ios": "https://dc.lft.to/lastmile_qr_scan"}, "fusion_lon": 0.0}, {"lat": 38.90338333333333, "is_disabled": 0, "type": "electric_scooter", "lon": -76.97060266666666, "bike_id": "4dfa84e1e548958fcb4f5e87ab59d2b3", "fusion_lat": 0.0, "name": "4dfa84e1e548958fcb4f5e87ab59d2b3", "is_reserved": 0, "rental_uris": {"android": "https://dc.lft.to/lastmile_qr_scan", "ios": "https://dc.lft.to/lastmile_qr_scan"}, "fusion_lon": 0.0}, {"lat": 38.91351316666667, "is_disabled": 0, "type": "electric_scooter", "lon": -77.04355966666667, "bike_id": "625922dd9011886dda323f6efd6fc03c", "fusion_lat": 0.0, "name": "625922dd9011886dda323f6efd6fc03c", "is_reserved": 0, "rental_uris": {"android": "https://dc.lft.to/lastmile_qr_scan", "ios": "https://dc.lft.to/lastmile_qr_scan"}, "fusion_lon": 0.0}, {"lat": 38.919743, "is_disabled": 0, "type": "electric_scooter", "lon": -77.04166783333334, "bike_id": "721d9f2aa138c2a488db55facbbff277", "fusion_lat": 0.0, "name": "721d9f2aa138c2a488db55facbbff277", "is_reserved": 0, "rental_uris": {"android": "https://dc.lft.to/lastmile_qr_scan", "ios": "https://dc.lft.to/lastmile_qr_scan"}, "fusion_lon": 0.0}, {"lat": 38.92178883333333, "is_disabled": 0, "type": "electric_scooter", "lon": -77.047182, "bike_id": "52de483ff15531e58eb5f9754f521dae", "fusion_lat": 0.0, "name": "52de483ff15531e58eb5f9754f521dae", "is_reserved": 0, "rental_uris": {"android": "https://dc.lft.to/lastmile_qr_scan", "ios": "https://dc.lft.to/lastmile_qr_scan"}, "fusion_lon": 0.0}, {"lat": 38.9540505, "is_disabled": 0, "type": "electric_scooter", "lon": -77.027501, "bike_id": "83b5f20cf4b525244cb95c04c8da2224", "fusion_lat": 0.0, "name": "83b5f20cf4b525244cb95c04c8da2224", "is_reserved": 0, "rental_uris": {"android": "https://dc.lft.to/lastmile_qr_scan", "ios": "https://dc.lft.to/lastmile_qr_scan"}, "fusion_lon": 0.0}, {"lat": 38.920807333333336, "is_disabled": 0, "type": "electric_scooter", "lon": -77.04205566666667, "bike_id": "c40c2d12aa4bbd59efbd71c856cec77b", "fusion_lat": 0.0, "name": "c40c2d12aa4bbd59efbd71c856cec77b", "is_reserved": 0, "rental_uris": {"android": "https://dc.lft.to/lastmile_qr_scan", "ios": "https://dc.lft.to/lastmile_qr_scan"}, "fusion_lon": 0.0}, {"lat": 38.90379316666667, "is_disabled": 0, "type": "electric_scooter", "lon": -77.00269766666666, "bike_id": "4770b9a72194055a500e07e1ba070bc3", "fusion_lat": 0.0, "name": "4770b9a72194055a500e07e1ba070bc3", "is_reserved": 0, "rental_uris": {"android": "https://dc.lft.to/lastmile_qr_scan", "ios": "https://dc.lft.to/lastmile_qr_scan"}, "fusion_lon": 0.0}, {"lat": 38.90025, "is_disabled": 0, "type": "electric_scooter", "lon": -77.00209683333334, "bike_id": "d70c70cdd8afc2e4f04d1bbc32cc83ed", "fusion_lat": 0.0, "name": "d70c70cdd8afc2e4f04d1bbc32cc83ed", "is_reserved": 0, "rental_uris": {"android": "https://dc.lft.to/lastmile_qr_scan", "ios": "https://dc.lft.to/lastmile_qr_scan"}, "fusion_lon": 0.0}, {"lat": 38.9323535, "is_disabled": 0, "type": "electric_scooter", "lon": -77.0326755, "bike_id": "15dff0d14a2aad5b54d553091bfedc46", "fusion_lat": 0.0, "name": "15dff0d14a2aad5b54d553091bfedc46", "is_reserved": 0, "rental_uris": {"android": "https://dc.lft.to/lastmile_qr_scan", "ios": "https://dc.lft.to/lastmile_qr_scan"}, "fusion_lon": 0.0}, {"lat": 38.8974575, "is_disabled": 0, "type": "electric_scooter", "lon": -77.01875633333333, "bike_id": "b3b21f9df9ef5f909b8da1b5d5e61fcc", "fusion_lat": 0.0, "name": "b3b21f9df9ef5f909b8da1b5d5e61fcc", "is_reserved": 0, "rental_uris": {"android": "https://dc.lft.to/lastmile_qr_scan", "ios": "https://dc.lft.to/lastmile_qr_scan"}, "fusion_lon": 0.0}, {"lat": 38.912266333333335, "is_disabled": 0, "type": "electric_scooter", "lon": -77.027198, "bike_id": "ebeae8fe1ed4f67d6cd524b22e52a5c2", "fusion_lat": 0.0, "name": "ebeae8fe1ed4f67d6cd524b22e52a5c2", "is_reserved": 0, "rental_uris": {"android": "https://dc.lft.to/lastmile_qr_scan", "ios": "https://dc.lft.to/lastmile_qr_scan"}, "fusion_lon": 0.0}, {"lat": 38.92027, "is_disabled": 0, "type": "electric_scooter", "lon": -77.03852816666667, "bike_id": "c37bbbf402a1d569d342a7428e26bea4", "fusion_lat": 0.0, "name": "c37bbbf402a1d569d342a7428e26bea4", "is_reserved": 0, "rental_uris": {"android": "https://dc.lft.to/lastmile_qr_scan", "ios": "https://dc.lft.to/lastmile_qr_scan"}, "fusion_lon": 0.0}, {"lat": 38.9077255, "is_disabled": 0, "type": "electric_scooter", "lon": -77.03848483333333, "bike_id": "c2c6fd382870a1ec824c8185c20af73c", "fusion_lat": 0.0, "name": "c2c6fd382870a1ec824c8185c20af73c", "is_reserved": 0, "rental_uris": {"android": "https://dc.lft.to/lastmile_qr_scan", "ios": "https://dc.lft.to/lastmile_qr_scan"}, "fusion_lon": 0.0}, {"lat": 38.90525266666667, "is_disabled": 0, "type": "electric_scooter", "lon": -76.9862685, "bike_id": "34368143096af0d533d6704f2f27b631", "fusion_lat": 0.0, "name": "34368143096af0d533d6704f2f27b631", "is_reserved": 0, "rental_uris": {"android": "https://dc.lft.to/lastmile_qr_scan", "ios": "https://dc.lft.to/lastmile_qr_scan"}, "fusion_lon": 0.0}, {"lat": 38.906017166666665, "is_disabled": 0, "type": "electric_scooter", "lon": -77.06309583333334, "bike_id": "3fec24f35d04054506491044cc110e01", "fusion_lat": 0.0, "name": "3fec24f35d04054506491044cc110e01", "is_reserved": 0, "rental_uris": {"android": "https://dc.lft.to/lastmile_qr_scan", "ios": "https://dc.lft.to/lastmile_qr_scan"}, "fusion_lon": 0.0}, {"lat": 38.93869633333333, "is_disabled": 0, "type": "electric_scooter", "lon": -77.02450033333334, "bike_id": "cf2cad78edf16ac71bd4c2a14c69a286", "fusion_lat": 0.0, "name": "cf2cad78edf16ac71bd4c2a14c69a286", "is_reserved": 0, "rental_uris": {"android": "https://dc.lft.to/lastmile_qr_scan", "ios": "https://dc.lft.to/lastmile_qr_scan"}, "fusion_lon": 0.0}, {"lat": 38.80737383333334, "is_disabled": 0, "type": "electric_bike", "lon": -77.09431883333333, "bike_id": "907ece85837b56f6aea7d3e02779e385", "fusion_lat": 0.0, "name": "907ece85837b56f6aea7d3e02779e385", "is_reserved": 0, "rental_uris": {"android": "https://dc.lft.to/lastmile_qr_scan", "ios": "https://dc.lft.to/lastmile_qr_scan"}, "fusion_lon": 0.0}, {"lat": 38.908745, "is_disabled": 0, "type": "electric_scooter", "lon": -77.0643195, "bike_id": "3d267e6ded794f8bf4734aa0b705f111", "fusion_lat": 0.0, "name": "3d267e6ded794f8bf4734aa0b705f111", "is_reserved": 0, "rental_uris": {"android": "https://dc.lft.to/lastmile_qr_scan", "ios": "https://dc.lft.to/lastmile_qr_scan"}, "fusion_lon": 0.0}, {"lat": 38.91393683333333, "is_disabled": 0, "type": "electric_scooter", "lon": -77.03660983333333, "bike_id": "306cf8b98a469869a4a9306f72abec72", "fusion_lat": 0.0, "name": "306cf8b98a469869a4a9306f72abec72", "is_reserved": 0, "rental_uris": {"android": "https://dc.lft.to/lastmile_qr_scan", "ios": "https://dc.lft.to/lastmile_qr_scan"}, "fusion_lon": 0.0}, {"lat": 38.93758283333333, "is_disabled": 0, "type": "electric_scooter", "lon": -77.0314395, "bike_id": "76a328f4158e8bc7bc8e1a04435028d9", "fusion_lat": 0.0, "name": "76a328f4158e8bc7bc8e1a04435028d9", "is_reserved": 0, "rental_uris": {"android": "https://dc.lft.to/lastmile_qr_scan", "ios": "https://dc.lft.to/lastmile_qr_scan"}, "fusion_lon": 0.0}, {"lat": 38.91861133333333, "is_disabled": 0, "type": "electric_scooter", "lon": -76.9712585, "bike_id": "4e0cd55c343c56a0b1b1eb09546d4b8c", "fusion_lat": 0.0, "name": "4e0cd55c343c56a0b1b1eb09546d4b8c", "is_reserved": 0, "rental_uris": {"android": "https://dc.lft.to/lastmile_qr_scan", "ios": "https://dc.lft.to/lastmile_qr_scan"}, "fusion_lon": 0.0}, {"lat": 38.9027225, "is_disabled": 0, "type": "electric_scooter", "lon": -77.039421, "bike_id": "e5804d7f52a1eb20dc7e2c9313498400", "fusion_lat": 0.0, "name": "e5804d7f52a1eb20dc7e2c9313498400", "is_reserved": 0, "rental_uris": {"android": "https://dc.lft.to/lastmile_qr_scan", "ios": "https://dc.lft.to/lastmile_qr_scan"}, "fusion_lon": 0.0}, {"lat": 38.93464216666667, "is_disabled": 0, "type": "electric_scooter", "lon": -77.0286235, "bike_id": "fe75d814723fdeb5b8b130f5d875403b", "fusion_lat": 0.0, "name": "fe75d814723fdeb5b8b130f5d875403b", "is_reserved": 0, "rental_uris": {"android": "https://dc.lft.to/lastmile_qr_scan", "ios": "https://dc.lft.to/lastmile_qr_scan"}, "fusion_lon": 0.0}, {"lat": 38.90850916666667, "is_disabled": 0, "type": "electric_scooter", "lon": -76.99960216666666, "bike_id": "ed4ca656cbdb06c6f615ddbacb227387", "fusion_lat": 0.0, "name": "ed4ca656cbdb06c6f615ddbacb227387", "is_reserved": 0, "rental_uris": {"android": "https://dc.lft.to/lastmile_qr_scan", "ios": "https://dc.lft.to/lastmile_qr_scan"}, "fusion_lon": 0.0}, {"lat": 38.9110925, "is_disabled": 0, "type": "electric_scooter", "lon": -77.04402666666667, "bike_id": "b1295447802e1713f0c5e9b992689519", "fusion_lat": 0.0, "name": "b1295447802e1713f0c5e9b992689519", "is_reserved": 0, "rental_uris": {"android": "https://dc.lft.to/lastmile_qr_scan", "ios": "https://dc.lft.to/lastmile_qr_scan"}, "fusion_lon": 0.0}, {"lat": 38.92189183333333, "is_disabled": 0, "type": "electric_scooter", "lon": -77.0414215, "bike_id": "b2afaa7d7203b1b09222528a0753f437", "fusion_lat": 0.0, "name": "b2afaa7d7203b1b09222528a0753f437", "is_reserved": 0, "rental_uris": {"android": "https://dc.lft.to/lastmile_qr_scan", "ios": "https://dc.lft.to/lastmile_qr_scan"}, "fusion_lon": 0.0}, {"lat": 38.910081166666664, "is_disabled": 0, "type": "electric_scooter", "lon": -77.03836933333334, "bike_id": "7f5e2d04162eb2ac8c468f0a7cc8a601", "fusion_lat": 0.0, "name": "7f5e2d04162eb2ac8c468f0a7cc8a601", "is_reserved": 0, "rental_uris": {"android": "https://dc.lft.to/lastmile_qr_scan", "ios": "https://dc.lft.to/lastmile_qr_scan"}, "fusion_lon": 0.0}, {"lat": 38.88456933333333, "is_disabled": 0, "type": "electric_scooter", "lon": -76.92626183333333, "bike_id": "9add73cd923282790aa4dc3dbf08f9d7", "fusion_lat": 0.0, "name": "9add73cd923282790aa4dc3dbf08f9d7", "is_reserved": 0, "rental_uris": {"android": "https://dc.lft.to/lastmile_qr_scan", "ios": "https://dc.lft.to/lastmile_qr_scan"}, "fusion_lon": 0.0}, {"lat": 38.884856666666664, "is_disabled": 0, "type": "electric_scooter", "lon": -77.03489033333334, "bike_id": "9e8b2ef9c9037990f0d73ae1c529cc2d", "fusion_lat": 0.0, "name": "9e8b2ef9c9037990f0d73ae1c529cc2d", "is_reserved": 0, "rental_uris": {"android": "https://dc.lft.to/lastmile_qr_scan", "ios": "https://dc.lft.to/lastmile_qr_scan"}, "fusion_lon": 0.0}, {"lat": 38.9285315, "is_disabled": 0, "type": "electric_bike", "lon": -77.10682316666667, "bike_id": "d4eda2723740e9e051312134670fe2cd", "fusion_lat": 0.0, "name": "d4eda2723740e9e051312134670fe2cd", "is_reserved": 0, "rental_uris": {"android": "https://dc.lft.to/lastmile_qr_scan", "ios": "https://dc.lft.to/lastmile_qr_scan"}, "fusion_lon": 0.0}, {"lat": 38.90822683333333, "is_disabled": 0, "type": "electric_scooter", "lon": -77.0638345, "bike_id": "38d278da0fa18d7c296d61081596f2fb", "fusion_lat": 0.0, "name": "38d278da0fa18d7c296d61081596f2fb", "is_reserved": 0, "rental_uris": {"android": "https://dc.lft.to/lastmile_qr_scan", "ios": "https://dc.lft.to/lastmile_qr_scan"}, "fusion_lon": 0.0}, {"lat": 38.90108083333333, "is_disabled": 0, "type": "electric_scooter", "lon": -77.049856, "bike_id": "47896f96fbeb19dc2787899c88284d80", "fusion_lat": 0.0, "name": "47896f96fbeb19dc2787899c88284d80", "is_reserved": 0, "rental_uris": {"android": "https://dc.lft.to/lastmile_qr_scan", "ios": "https://dc.lft.to/lastmile_qr_scan"}, "fusion_lon": 0.0}, {"lat": 38.919321833333335, "is_disabled": 0, "type": "electric_scooter", "lon": -77.031259, "bike_id": "89c7b31782649c77caccee7d33fa15a0", "fusion_lat": 0.0, "name": "89c7b31782649c77caccee7d33fa15a0", "is_reserved": 0, "rental_uris": {"android": "https://dc.lft.to/lastmile_qr_scan", "ios": "https://dc.lft.to/lastmile_qr_scan"}, "fusion_lon": 0.0}, {"lat": 38.850481333333335, "is_disabled": 0, "type": "electric_bike", "lon": -76.9732075, "bike_id": "119fc252b85dd70f9321850f762c5646", "fusion_lat": 0.0, "name": "119fc252b85dd70f9321850f762c5646", "is_reserved": 0, "rental_uris": {"android": "https://dc.lft.to/lastmile_qr_scan", "ios": "https://dc.lft.to/lastmile_qr_scan"}, "fusion_lon": 0.0}, {"lat": 38.912715666666664, "is_disabled": 0, "type": "electric_scooter", "lon": -77.022686, "bike_id": "7c1d55e2cee52763606e4d3c3929faec", "fusion_lat": 0.0, "name": "7c1d55e2cee52763606e4d3c3929faec", "is_reserved": 0, "rental_uris": {"android": "https://dc.lft.to/lastmile_qr_scan", "ios": "https://dc.lft.to/lastmile_qr_scan"}, "fusion_lon": 0.0}, {"lat": 38.9067025, "is_disabled": 0, "type": "electric_scooter", "lon": -77.0375865, "bike_id": "85932c1fb7c993bb1d0664b81244c11d", "fusion_lat": 0.0, "name": "85932c1fb7c993bb1d0664b81244c11d", "is_reserved": 0, "rental_uris": {"android": "https://dc.lft.to/lastmile_qr_scan", "ios": "https://dc.lft.to/lastmile_qr_scan"}, "fusion_lon": 0.0}, {"lat": 38.9186195, "is_disabled": 0, "type": "electric_scooter", "lon": -77.04116616666667, "bike_id": "60b724edd2e6506178914fbcad901d45", "fusion_lat": 0.0, "name": "60b724edd2e6506178914fbcad901d45", "is_reserved": 0, "rental_uris": {"android": "https://dc.lft.to/lastmile_qr_scan", "ios": "https://dc.lft.to/lastmile_qr_scan"}, "fusion_lon": 0.0}, {"lat": 38.936089333333335, "is_disabled": 0, "type": "electric_scooter", "lon": -77.058955, "bike_id": "c3f76c8eb25f14beb30844ab55a66947", "fusion_lat": 0.0, "name": "c3f76c8eb25f14beb30844ab55a66947", "is_reserved": 0, "rental_uris": {"android": "https://dc.lft.to/lastmile_qr_scan", "ios": "https://dc.lft.to/lastmile_qr_scan"}, "fusion_lon": 0.0}, {"lat": 38.912154666666666, "is_disabled": 0, "type": "electric_scooter", "lon": -77.03192666666666, "bike_id": "0082432416b3e7735bdfbf450d8feda9", "fusion_lat": 0.0, "name": "0082432416b3e7735bdfbf450d8feda9", "is_reserved": 0, "rental_uris": {"android": "https://dc.lft.to/lastmile_qr_scan", "ios": "https://dc.lft.to/lastmile_qr_scan"}, "fusion_lon": 0.0}, {"lat": 38.89730766666667, "is_disabled": 0, "type": "electric_scooter", "lon": -77.04770066666667, "bike_id": "914c00343b87e80351a289581d8ffb8e", "fusion_lat": 0.0, "name": "914c00343b87e80351a289581d8ffb8e", "is_reserved": 0, "rental_uris": {"android": "https://dc.lft.to/lastmile_qr_scan", "ios": "https://dc.lft.to/lastmile_qr_scan"}, "fusion_lon": 0.0}, {"lat": 38.8988195, "is_disabled": 0, "type": "electric_scooter", "lon": -76.93176366666667, "bike_id": "1016c6204995ca7989716632eb6690eb", "fusion_lat": 0.0, "name": "1016c6204995ca7989716632eb6690eb", "is_reserved": 0, "rental_uris": {"android": "https://dc.lft.to/lastmile_qr_scan", "ios": "https://dc.lft.to/lastmile_qr_scan"}, "fusion_lon": 0.0}, {"lat": 38.92114483333334, "is_disabled": 0, "type": "electric_scooter", "lon": -77.04381383333333, "bike_id": "ce328d327a4797cbe4a094da101f42aa", "fusion_lat": 0.0, "name": "ce328d327a4797cbe4a094da101f42aa", "is_reserved": 0, "rental_uris": {"android": "https://dc.lft.to/lastmile_qr_scan", "ios": "https://dc.lft.to/lastmile_qr_scan"}, "fusion_lon": 0.0}, {"lat": 38.900297, "is_disabled": 0, "type": "electric_scooter", "lon": -77.02608416666666, "bike_id": "061d7d262b12cac2a75878fd71860143", "fusion_lat": 0.0, "name": "061d7d262b12cac2a75878fd71860143", "is_reserved": 0, "rental_uris": {"android": "https://dc.lft.to/lastmile_qr_scan", "ios": "https://dc.lft.to/lastmile_qr_scan"}, "fusion_lon": 0.0}, {"lat": 38.922393166666666, "is_disabled": 0, "type": "electric_scooter", "lon": -77.04581216666666, "bike_id": "80b1e9c60b2a7fb30afe458464e41a0f", "fusion_lat": 0.0, "name": "80b1e9c60b2a7fb30afe458464e41a0f", "is_reserved": 0, "rental_uris": {"android": "https://dc.lft.to/lastmile_qr_scan", "ios": "https://dc.lft.to/lastmile_qr_scan"}, "fusion_lon": 0.0}, {"lat": 38.89282933333333, "is_disabled": 0, "type": "electric_scooter", "lon": -76.95851483333334, "bike_id": "81302c7ceb64b54fc064e28e00ce22d7", "fusion_lat": 0.0, "name": "81302c7ceb64b54fc064e28e00ce22d7", "is_reserved": 0, "rental_uris": {"android": "https://dc.lft.to/lastmile_qr_scan", "ios": "https://dc.lft.to/lastmile_qr_scan"}, "fusion_lon": 0.0}, {"lat": 38.908096, "is_disabled": 0, "type": "electric_scooter", "lon": -77.0344825, "bike_id": "d71fa85c73a48e240ebf205f49f8d0c9", "fusion_lat": 0.0, "name": "d71fa85c73a48e240ebf205f49f8d0c9", "is_reserved": 0, "rental_uris": {"android": "https://dc.lft.to/lastmile_qr_scan", "ios": "https://dc.lft.to/lastmile_qr_scan"}, "fusion_lon": 0.0}, {"lat": 38.8953935, "is_disabled": 0, "type": "electric_scooter", "lon": -77.050151, "bike_id": "cde208c28f468013801c4c4113dbfc7e", "fusion_lat": 0.0, "name": "cde208c28f468013801c4c4113dbfc7e", "is_reserved": 0, "rental_uris": {"android": "https://dc.lft.to/lastmile_qr_scan", "ios": "https://dc.lft.to/lastmile_qr_scan"}, "fusion_lon": 0.0}, {"lat": 38.92229483333333, "is_disabled": 0, "type": "electric_scooter", "lon": -77.036742, "bike_id": "b3e35f55646962d2ad7c1f2182b8adfa", "fusion_lat": 0.0, "name": "b3e35f55646962d2ad7c1f2182b8adfa", "is_reserved": 0, "rental_uris": {"android": "https://dc.lft.to/lastmile_qr_scan", "ios": "https://dc.lft.to/lastmile_qr_scan"}, "fusion_lon": 0.0}, {"lat": 38.915933833333334, "is_disabled": 0, "type": "electric_scooter", "lon": -77.027048, "bike_id": "e54aa07d29b2af6936fbfa7f7214ffd4", "fusion_lat": 0.0, "name": "e54aa07d29b2af6936fbfa7f7214ffd4", "is_reserved": 0, "rental_uris": {"android": "https://dc.lft.to/lastmile_qr_scan", "ios": "https://dc.lft.to/lastmile_qr_scan"}, "fusion_lon": 0.0}, {"lat": 38.92248816666667, "is_disabled": 0, "type": "electric_scooter", "lon": -77.0270775, "bike_id": "ebb318cb635b1623d1bf7370ec2dc4bb", "fusion_lat": 0.0, "name": "ebb318cb635b1623d1bf7370ec2dc4bb", "is_reserved": 0, "rental_uris": {"android": "https://dc.lft.to/lastmile_qr_scan", "ios": "https://dc.lft.to/lastmile_qr_scan"}, "fusion_lon": 0.0}, {"lat": 38.93347166666667, "is_disabled": 0, "type": "electric_bike", "lon": -76.99438983333333, "bike_id": "f2121f90e1c61c4e97fa813821b51c29", "fusion_lat": 0.0, "name": "f2121f90e1c61c4e97fa813821b51c29", "is_reserved": 0, "rental_uris": {"android": "https://dc.lft.to/lastmile_qr_scan", "ios": "https://dc.lft.to/lastmile_qr_scan"}, "fusion_lon": 0.0}, {"lat": 38.8628965, "is_disabled": 0, "type": "electric_scooter", "lon": -76.99235266666666, "bike_id": "63a69b982a6eb7e909d31617e1bedfc3", "fusion_lat": 0.0, "name": "63a69b982a6eb7e909d31617e1bedfc3", "is_reserved": 0, "rental_uris": {"android": "https://dc.lft.to/lastmile_qr_scan", "ios": "https://dc.lft.to/lastmile_qr_scan"}, "fusion_lon": 0.0}, {"lat": 38.91030816666667, "is_disabled": 0, "type": "electric_scooter", "lon": -77.03393133333333, "bike_id": "15569c740e8290ef6a8f9f491ae0f520", "fusion_lat": 0.0, "name": "15569c740e8290ef6a8f9f491ae0f520", "is_reserved": 0, "rental_uris": {"android": "https://dc.lft.to/lastmile_qr_scan", "ios": "https://dc.lft.to/lastmile_qr_scan"}, "fusion_lon": 0.0}, {"lat": 38.93199166666667, "is_disabled": 0, "type": "electric_scooter", "lon": -77.03871, "bike_id": "b66ebf86596e41320e27e5ba67d88743", "fusion_lat": 0.0, "name": "b66ebf86596e41320e27e5ba67d88743", "is_reserved": 0, "rental_uris": {"android": "https://dc.lft.to/lastmile_qr_scan", "ios": "https://dc.lft.to/lastmile_qr_scan"}, "fusion_lon": 0.0}, {"lat": 38.89845483333333, "is_disabled": 0, "type": "electric_scooter", "lon": -76.9446575, "bike_id": "6564af1cc1eb9ca5f30f351cff8cce2d", "fusion_lat": 0.0, "name": "6564af1cc1eb9ca5f30f351cff8cce2d", "is_reserved": 0, "rental_uris": {"android": "https://dc.lft.to/lastmile_qr_scan", "ios": "https://dc.lft.to/lastmile_qr_scan"}, "fusion_lon": 0.0}, {"lat": 38.89357233333333, "is_disabled": 0, "type": "electric_scooter", "lon": -77.04157666666667, "bike_id": "a2867ba2c704ef9a1f8d48c4c79d496e", "fusion_lat": 0.0, "name": "a2867ba2c704ef9a1f8d48c4c79d496e", "is_reserved": 0, "rental_uris": {"android": "https://dc.lft.to/lastmile_qr_scan", "ios": "https://dc.lft.to/lastmile_qr_scan"}, "fusion_lon": 0.0}, {"lat": 39.09435966666667, "is_disabled": 0, "type": "electric_bike", "lon": -77.13459283333333, "bike_id": "b69d1b18a6bda3bc212c5bf18bcac725", "fusion_lat": 0.0, "name": "b69d1b18a6bda3bc212c5bf18bcac725", "is_reserved": 0, "rental_uris": {"android": "https://dc.lft.to/lastmile_qr_scan", "ios": "https://dc.lft.to/lastmile_qr_scan"}, "fusion_lon": 0.0}, {"lat": 38.92853366666667, "is_disabled": 0, "type": "electric_scooter", "lon": -77.03101916666667, "bike_id": "c28efc8b625efcb077dd302450e0c112", "fusion_lat": 0.0, "name": "c28efc8b625efcb077dd302450e0c112", "is_reserved": 0, "rental_uris": {"android": "https://dc.lft.to/lastmile_qr_scan", "ios": "https://dc.lft.to/lastmile_qr_scan"}, "fusion_lon": 0.0},