{"data": {"bikes": [{"is_disabled": 0, "fusion_lon": 0.0, "fusion_lat": 0.0, "lat": 38.9498025, "type": "electric_scooter", "lon": -77.02699283333334, "bike_id": "5dc45a6d7c96e87cde00ff209bad8492", "rental_uris": {"android": "https://dc.lft.to/lastmile_qr_scan", "ios": "https://dc.lft.to/lastmile_qr_scan"}, "name": "5dc45a6d7c96e87cde00ff209bad8492", "is_reserved": 0}, {"is_disabled": 0, "fusion_lon": 0.0, "fusion_lat": 0.0, "lat": 38.897879333333336, "type": "electric_scooter", "lon": -76.93051316666667, "bike_id": "81fb92f28673e224b54d11127b7db56a", "rental_uris": {"android": "https://dc.lft.to/lastmile_qr_scan", "ios": "https://dc.lft.to/lastmile_qr_scan"}, "name": "81fb92f28673e224b54d11127b7db56a", "is_reserved": 0}, {"is_disabled": 0, "fusion_lon": 0.0, "fusion_lat": 0.0, "lat": 38.92481, "type": "electric_scooter", "lon": -77.02723233333333, "bike_id": "747a80a4b455a82f5c8fbb8f651010da", "rental_uris": {"android": "https://dc.lft.to/lastmile_qr_scan", "ios": "https://dc.lft.to/lastmile_qr_scan"}, "name": "747a80a4b455a82f5c8fbb8f651010da", "is_reserved": 0}, {"is_disabled": 0, "fusion_lon": 0.0, "fusion_lat": 0.0, "lat": 38.83154416666667, "type": "electric_bike", "lon": -76.99691466666667, "bike_id": "2406f6c61d6ed1ff78514d58948f631a", "rental_uris": {"android": "https://dc.lft.to/lastmile_qr_scan", "ios": "https://dc.lft.to/lastmile_qr_scan"}, "name": "2406f6c61d6ed1ff78514d58948f631a", "is_reserved": 0}, {"is_disabled": 0, "fusion_lon": 0.0, "fusion_lat": 0.0, "lat": 38.9240765, "type": "electric_scooter", "lon": -77.035478, "bike_id": "237b1ec62a3e5888811bd1c2656bf86a", "rental_uris": {"android": "https://dc.lft.to/lastmile_qr_scan", "ios": "https://dc.lft.to/lastmile_qr_scan"}, "name": "237b1ec62a3e5888811bd1c2656bf86a", "is_reserved": 0}, {"is_disabled": 0, "fusion_lon": 0.0, "fusion_lat": 0.0, "lat": 38.988191666666665, "type": "electric_bike", "lon": -77.0265655, "bike_id": "af4f3cd630636930bcc2c2c48fccbb3b", "rental_uris": {"android": "https://dc.lft.to/lastmile_qr_scan", "ios": "https://dc.lft.to/lastmile_qr_scan"}, "name": "af4f3cd630636930bcc2c2c48fccbb3b", "is_reserved": 0}, {"is_disabled": 0, "fusion_lon": 0.0, "fusion_lat": 0.0, "lat": 38.89244883333333, "type": "electric_scooter", "lon": -77.04659383333333, "bike_id": "199be87414068d71a9e719abfe8df3ef", "rental_uris": {"android": "https://dc.lft.to/lastmile_qr_scan", "ios": "https://dc.lft.to/lastmile_qr_scan"}, "name": "199be87414068d71a9e719abfe8df3ef", "is_reserved": 0}, {"is_disabled": 0, "fusion_lon": 0.0, "fusion_lat": 0.0, "lat": 38.95308683333333, "type": "electric_scooter", "lon": -77.036005, "bike_id": "fc6cfbccd9cf96fa9424f25be85e135d", "rental_uris": {"android": "https://dc.lft.to/lastmile_qr_scan", "ios": "https://dc.lft.to/lastmile_qr_scan"}, "name": "fc6cfbccd9cf96fa9424f25be85e135d", "is_reserved": 0}, {"is_disabled": 0, "fusion_lon": 0.0, "fusion_lat": 0.0, "lat": 38.906611833333336, "type": "electric_scooter", "lon": -77.04172116666666, "bike_id": "7cfd815735293aad5e23e9a54a2d953e", "rental_uris": {"android": "https://dc.lft.to/lastmile_qr_scan", "ios": "https://dc.lft.to/lastmile_qr_scan"}, "name": "7cfd815735293aad5e23e9a54a2d953e", "is_reserved": 0}, {"is_disabled": 0, "fusion_lon": 0.0, "fusion_lat": 0.0, "lat": 38.9349805, "type": "electric_bike", "lon": -77.07279016666666, "bike_id": "a83e9ac443fa4e94618a3031ea909a5d", "rental_uris": {"android": "https://dc.lft.to/lastmile_qr_scan", "ios": "https://dc.lft.to/lastmile_qr_scan"}, "name": "a83e9ac443fa4e94618a3031ea909a5d", "is_reserved": 0}, {"is_disabled": 0, "fusion_lon": 0.0, "fusion_lat": 0.0, "lat": 38.99074533333334, "type": "electric_bike", "lon": -77.02385133333334, "bike_id": "b0567b95259ff3e69b0d6fbae88c69be", "rental_uris": {"android": "https://dc.lft.to/lastmile_qr_scan", "ios": "https://dc.lft.to/lastmile_qr_scan"}, "name": "b0567b95259ff3e69b0d6fbae88c69be", "is_reserved": 0}, {"is_disabled": 0, "fusion_lon": 0.0, "fusion_lat": 0.0, "lat": 38.923503333333336, "type": "electric_bike", "lon": -76.992488, "bike_id": "787d698c0245f79d0b508675379393cb", "rental_uris": {"android": "https://dc.lft.to/lastmile_qr_scan", "ios": "https://dc.lft.to/lastmile_qr_scan"}, "name": "787d698c0245f79d0b508675379393cb", "is_reserved": 0}, {"is_disabled": 0, "fusion_lon": 0.0, "fusion_lat": 0.0, "lat": 38.90350333333333, "type": "electric_scooter", "lon": -77.02207383333334, "bike_id": "4f0a2d142ba3350c49043841eaacc116", "rental_uris": {"android": "https://dc.lft.to/lastmile_qr_scan", "ios": "https://dc.lft.to/lastmile_qr_scan"}, "name": "4f0a2d142ba3350c49043841eaacc116", "is_reserved": 0}, {"is_disabled": 0, "fusion_lon": 0.0, "fusion_lat": 0.0, "lat": 38.88416183333333, "type": "electric_scooter", "lon": -77.03300266666666, "bike_id": "16f9ae6e7492ef1f5354f8cd4d7b32d5", "rental_uris": {"android": "https://dc.lft.to/lastmile_qr_scan", "ios": "https://dc.lft.to/lastmile_qr_scan"}, "name": "16f9ae6e7492ef1f5354f8cd4d7b32d5", "is_reserved": 0}, {"is_disabled": 0, "fusion_lon": 0.0, "fusion_lat": 0.0, "lat": 38.9178585, "type": "electric_scooter", "lon": -77.04358866666666, "bike_id": "70751b70e9958668df683611c039b344", "rental_uris": {"android": "https://dc.lft.to/lastmile_qr_scan", "ios": "https://dc.lft.to/lastmile_qr_scan"}, "name": "70751b70e9958668df683611c039b344", "is_reserved": 0}, {"is_disabled": 0, "fusion_lon": 0.0, "fusion_lat": 0.0, "lat": 38.90530783333333, "type": "electric_scooter", "lon": -77.04755516666667, "bike_id": "596b2c030b77b4470217945d945ed63f", "rental_uris": {"android": "https://dc.lft.to/lastmile_qr_scan", "ios": "https://dc.lft.to/lastmile_qr_scan"}, "name": "596b2c030b77b4470217945d945ed63f", "is_reserved": 0}, {"is_disabled": 0, "fusion_lon": 0.0, "fusion_lat": 0.0, "lat": 38.909711, "type": "electric_bike", "lon": -77.0883015, "bike_id": "b693b8ad0f3fbc64bb7dea6bb0edf7bb", "rental_uris": {"android": "https://dc.lft.to/lastmile_qr_scan", "ios": "https://dc.lft.to/lastmile_qr_scan"}, "name": "b693b8ad0f3fbc64bb7dea6bb0edf7bb", "is_reserved": 0}, {"is_disabled": 0, "fusion_lon": 0.0, "fusion_lat": 0.0, "lat": 38.881397166666666, "type": "electric_scooter", "lon": -77.02076733333334, "bike_id": "d601525a1b999bd2dfd7df03b509e9d1", "rental_uris": {"android": "https://dc.lft.to/lastmile_qr_scan", "ios": "https://dc.lft.to/lastmile_qr_scan"}, "name": "d601525a1b999bd2dfd7df03b509e9d1", "is_reserved": 0}, {"is_disabled": 0, "fusion_lon": 0.0, "fusion_lat": 0.0, "lat": 38.897461, "type": "electric_scooter", "lon": -77.02649583333333, "bike_id": "497dcf6f7be4b515b12a4a4946d83e83", "rental_uris": {"android": "https://dc.lft.to/lastmile_qr_scan", "ios": "https://dc.lft.to/lastmile_qr_scan"}, "name": "497dcf6f7be4b515b12a4a4946d83e83", "is_reserved": 0}, {"is_disabled": 0, "fusion_lon": 0.0, "fusion_lat": 0.0, "lat": 38.896527166666665, "type": "electric_scooter", "lon": -77.01212766666667, "bike_id": "9e02abada48e88b8d50de40ef72dc1fa", "rental_uris": {"android": "https://dc.lft.to/lastmile_qr_scan", "ios": "https://dc.lft.to/lastmile_qr_scan"}, "name": "9e02abada48e88b8d50de40ef72dc1fa", "is_reserved": 0}, {"is_disabled": 0, "fusion_lon": 0.0, "fusion_lat": 0.0, "lat": 38.920413333333336, "type": "electric_scooter", "lon": -77.04814, "bike_id": "d673b19968faf23f44a25a2dcb494c31", "rental_uris": {"android": "https://dc.lft.to/lastmile_qr_scan", "ios": "https://dc.lft.to/lastmile_qr_scan"}, "name": "d673b19968faf23f44a25a2dcb494c31", "is_reserved": 0}, {"is_disabled": 0, "fusion_lon": 0.0, "fusion_lat": 0.0, "lat": 38.864639333333336, "type": "electric_scooter", "lon": -76.996149, "bike_id": "b4b87d0ddb893e0ec850c5add61bcf9e", "rental_uris": {"android": "https://dc.lft.to/lastmile_qr_scan", "ios": "https://dc.lft.to/lastmile_qr_scan"}, "name": "b4b87d0ddb893e0ec850c5add61bcf9e", "is_reserved": 0}, {"is_disabled": 0, "fusion_lon": 0.0, "fusion_lat": 0.0, "lat": 38.90564066666666, "type": "electric_scooter", "lon": -77.00638783333333, "bike_id": "21f87beef85e61b3c0494c1b0731d475", "rental_uris": {"android": "https://dc.lft.to/lastmile_qr_scan", "ios": "https://dc.lft.to/lastmile_qr_scan"}, "name": "21f87beef85e61b3c0494c1b0731d475", "is_reserved": 0}, {"is_disabled": 0, "fusion_lon": 0.0, "fusion_lat": 0.0, "lat": 38.885820333333335, "type": "electric_scooter", "lon": -77.012249, "bike_id": "818b46d42c9f8abdd92319ccb9547913", "rental_uris": {"android": "https://dc.lft.to/lastmile_qr_scan", "ios": "https://dc.lft.to/lastmile_qr_scan"}, "name": "818b46d42c9f8abdd92319ccb9547913", "is_reserved": 0}, {"is_disabled": 0, "fusion_lon": 0.0, "fusion_lat": 0.0, "lat": 38.92315, "type": "electric_scooter", "lon": -77.04202933333333, "bike_id": "374cb2e4ea65305ac4e7b22880da99a2", "rental_uris": {"android": "https://dc.lft.to/lastmile_qr_scan", "ios": "https://dc.lft.to/lastmile_qr_scan"}, "name": "374cb2e4ea65305ac4e7b22880da99a2", "is_reserved": 0}, {"is_disabled": 0, "fusion_lon": 0.0, "fusion_lat": 0.0, "lat": 38.89813016666667, "type": "electric_scooter", "lon": -77.03152333333334, "bike_id": "2ca4ba98ee1e058c72c873247d185f84", "rental_uris": {"android": "https://dc.lft.to/lastmile_qr_scan", "ios": "https://dc.lft.to/lastmile_qr_scan"}, "name": "2ca4ba98ee1e058c72c873247d185f84", "is_reserved": 0}, {"is_disabled": 0, "fusion_lon": 0.0, "fusion_lat": 0.0, "lat": 38.940758833333334, "type": "electric_scooter", "lon": -77.06147783333333, "bike_id": "d39c5f644d65929f9ec09d6a5204d4da", "rental_uris": {"android": "https://dc.lft.to/lastmile_qr_scan", "ios": "https://dc.lft.to/lastmile_qr_scan"}, "name": "d39c5f644d65929f9ec09d6a5204d4da", "is_reserved": 0}, {"is_disabled": 0, "fusion_lon": 0.0, "fusion_lat": 0.0, "lat": 38.901226, "type": "electric_scooter", "lon": -77.00322466666667, "bike_id": "74f130bc31289fea01b62cd7effa0172", "rental_uris": {"android": "https://dc.lft.to/lastmile_qr_scan", "ios": "https://dc.lft.to/lastmile_qr_scan"}, "name": "74f130bc31289fea01b62cd7effa0172", "is_reserved": 0}, {"is_disabled": 0, "fusion_lon": 0.0, "fusion_lat": 0.0, "lat": 38.918232833333334, "type": "electric_scooter", "lon": -77.03662483333333, "bike_id": "7a4e73b278f0b36da0dfb29107b03453", "rental_uris": {"android": "https://dc.lft.to/lastmile_qr_scan", "ios": "https://dc.lft.to/lastmile_qr_scan"}, "name": "7a4e73b278f0b36da0dfb29107b03453", "is_reserved": 0}, {"is_disabled": 0, "fusion_lon": 0.0, "fusion_lat": 0.0, "lat": 38.889899166666666, "type": "electric_scooter", "lon": -77.003382, "bike_id": "f81f9fbd4ddb9ea38ed7c8746686f666", "rental_uris": {"android": "https://dc.lft.to/lastmile_qr_scan", "ios": "https://dc.lft.to/lastmile_qr_scan"}, "name": "f81f9fbd4ddb9ea38ed7c8746686f666", "is_reserved": 0}, {"is_disabled": 0, "fusion_lon": 0.0, "fusion_lat": 0.0, "lat": 38.8961235, "type": "electric_scooter", "lon": -77.026453, "bike_id": "f7a53b0b25628ef171057d9a225bad25", "rental_uris": {"android": "https://dc.lft.to/lastmile_qr_scan", "ios": "https://dc.lft.to/lastmile_qr_scan"}, "name": "f7a53b0b25628ef171057d9a225bad25", "is_reserved": 0}, {"is_disabled": 0, "fusion_lon": 0.0, "fusion_lat": 0.0, "lat": 38.88510266666667, "type": "electric_scooter", "lon": -76.99847266666667, "bike_id": "eb783963070384b722e6cddd60c850b4", "rental_uris": {"android": "https://dc.lft.to/lastmile_qr_scan", "ios": "https://dc.lft.to/lastmile_qr_scan"}, "name": "eb783963070384b722e6cddd60c850b4", "is_reserved": 0}, {"is_disabled": 0, "fusion_lon": 0.0, "fusion_lat": 0.0, "lat": 38.98829333333333, "type": "electric_bike", "lon": -76.987591, "bike_id": "2e283a9e0d97a31b81708441069f97aa", "rental_uris": {"android": "https://dc.lft.to/lastmile_qr_scan", "ios": "https://dc.lft.to/lastmile_qr_scan"}, "name": "2e283a9e0d97a31b81708441069f97aa", "is_reserved": 0}, {"is_disabled": 0, "fusion_lon": 0.0, "fusion_lat": 0.0, "lat": 38.92031516666667, "type": "electric_scooter", "lon": -77.02585216666667, "bike_id": "b8441734078e68d7a2169659798966f8", "rental_uris": {"android": "https://dc.lft.to/lastmile_qr_scan", "ios": "https://dc.lft.to/lastmile_qr_scan"}, "name": "b8441734078e68d7a2169659798966f8", "is_reserved": 0}, {"is_disabled": 0, "fusion_lon": 0.0, "fusion_lat": 0.0, "lat": 38.90660483333333, "type": "electric_scooter", "lon": -77.04192416666666, "bike_id": "2ac1876eee93668cbdf0e4ecd8b6d8d9", "rental_uris": {"android": "https://dc.lft.to/lastmile_qr_scan", "ios": "https://dc.lft.to/lastmile_qr_scan"}, "name": "2ac1876eee93668cbdf0e4ecd8b6d8d9", "is_reserved": 0}, {"is_disabled": 0, "fusion_lon": 0.0, "fusion_lat": 0.0, "lat": 38.89534283333333, "type": "electric_scooter", "lon": -77.02834866666667, "bike_id": "9e0feb86fdb60903dc995fd36f180e95", "rental_uris": {"android": "https://dc.lft.to/lastmile_qr_scan", "ios": "https://dc.lft.to/lastmile_qr_scan"}, "name": "9e0feb86fdb60903dc995fd36f180e95", "is_reserved": 0}, {"is_disabled": 0, "fusion_lon": 0.0, "fusion_lat": 0.0, "lat": 38.887201, "type": "electric_scooter", "lon": -76.996306, "bike_id": "99ef8e18438a8ae0d99b93404849fd32", "rental_uris": {"android": "https://dc.lft.to/lastmile_qr_scan", "ios": "https://dc.lft.to/lastmile_qr_scan"}, "name": "99ef8e18438a8ae0d99b93404849fd32", "is_reserved": 0}, {"is_disabled": 0, "fusion_lon": 0.0, "fusion_lat": 0.0, "lat": 38.8777985, "type": "electric_scooter", "lon": -76.93091816666667, "bike_id": "76bd97337f3245ed49d3b2e3388ee9f0", "rental_uris": {"android": "https://dc.lft.to/lastmile_qr_scan", "ios": "https://dc.lft.to/lastmile_qr_scan"}, "name": "76bd97337f3245ed49d3b2e3388ee9f0", "is_reserved": 0}, {"is_disabled": 0, "fusion_lon": 0.0, "fusion_lat": 0.0, "lat": 38.91533166666667, "type": "electric_scooter", "lon": -77.03204366666667, "bike_id": "d0a54b783c8544aca5712884c5c47bae", "rental_uris": {"android": "https://dc.lft.to/lastmile_qr_scan", "ios": "https://dc.lft.to/lastmile_qr_scan"}, "name": "d0a54b783c8544aca5712884c5c47bae", "is_reserved": 0}, {"is_disabled": 0, "fusion_lon": 0.0, "fusion_lat": 0.0, "lat": 38.89850366666667, "type": "electric_scooter", "lon": -77.02216333333334, "bike_id": "62f239f3106c2b7d120e1b50c097634b", "rental_uris": {"android": "https://dc.lft.to/lastmile_qr_scan", "ios": "https://dc.lft.to/lastmile_qr_scan"}, "name": "62f239f3106c2b7d120e1b50c097634b", "is_reserved": 0}, {"is_disabled": 0, "fusion_lon": 0.0, "fusion_lat": 0.0, "lat": 38.900596, "type": "electric_scooter", "lon": -76.93381816666667, "bike_id": "050efe75f427dc9afd46cf189b124e04", "rental_uris": {"android": "https://dc.lft.to/lastmile_qr_scan", "ios": "https://dc.lft.to/lastmile_qr_scan"}, "name": "050efe75f427dc9afd46cf189b124e04", "is_reserved": 0}, {"is_disabled": 0, "fusion_lon": 0.0, "fusion_lat": 0.0, "lat": 38.93131966666667, "type": "electric_scooter", "lon": -77.05724833333333, "bike_id": "8ea468a9cee3002813784cb7f16f7d42", "rental_uris": {"android": "https://dc.lft.to/lastmile_qr_scan", "ios": "https://dc.lft.to/lastmile_qr_scan"}, "name": "8ea468a9cee3002813784cb7f16f7d42", "is_reserved": 0}, {"is_disabled": 0, "fusion_lon": 0.0, "fusion_lat": 0.0, "lat": 38.893550833333336, "type": "electric_scooter", "lon": -77.03955216666667, "bike_id": "4ae1001acd17aea84a30d5c405bc7779", "rental_uris": {"android": "https://dc.lft.to/lastmile_qr_scan", "ios": "https://dc.lft.to/lastmile_qr_scan"}, "name": "4ae1001acd17aea84a30d5c405bc7779", "is_reserved": 0}, {"is_disabled": 0, "fusion_lon": 0.0, "fusion_lat": 0.0, "lat": 38.87895533333333, "type": "electric_scooter", "lon": -76.93525316666667, "bike_id": "c01a92dc9577b2c2ff863e9a503bc324", "rental_uris": {"android": "https://dc.lft.to/lastmile_qr_scan", "ios": "https://dc.lft.to/lastmile_qr_scan"}, "name": "c01a92dc9577b2c2ff863e9a503bc324", "is_reserved": 0}, {"is_disabled": 0, "fusion_lon": 0.0, "fusion_lat": 0.0, "lat": 38.974126166666665, "type": "electric_bike", "lon": -77.02494933333334, "bike_id": "031f20cf4b7384b0b7393f91bf1ae33a", "rental_uris": {"android": "https://dc.lft.to/lastmile_qr_scan", "ios": "https://dc.lft.to/lastmile_qr_scan"}, "name": "031f20cf4b7384b0b7393f91bf1ae33a", "is_reserved": 0}, {"is_disabled": 0, "fusion_lon": 0.0, "fusion_lat": 0.0, "lat": 38.918537, "type": "electric_scooter", "lon": -77.04166833333333, "bike_id": "62473d42ee05fc46031b481efdca8a70", "rental_uris": {"android": "https://dc.lft.to/lastmile_qr_scan", "ios": "https://dc.lft.to/lastmile_qr_scan"}, "name": "62473d42ee05fc46031b481efdca8a70", "is_reserved": 0}, {"is_disabled": 0, "fusion_lon": 0.0, "fusion_lat": 0.0, "lat": 38.89221216666667, "type": "electric_scooter", "lon": -77.03340783333333, "bike_id": "aaaa8e310e3e7d135b8e6c435d6bbb5d", "rental_uris": {"android": "https://dc.lft.to/lastmile_qr_scan", "ios": "https://dc.lft.to/lastmile_qr_scan"}, "name": "aaaa8e310e3e7d135b8e6c435d6bbb5d", "is_reserved": 0}, {"is_disabled": 0, "fusion_lon": 0.0, "fusion_lat": 0.0, "lat": 38.918219, "type": "electric_scooter", "lon": -77.0121555, "bike_id": "fc2ed053ac49d1067da18d970dcb02f6", "rental_uris": {"android": "https://dc.lft.to/lastmile_qr_scan", "ios": "https://dc.lft.to/lastmile_qr_scan"}, "name": "fc2ed053ac49d1067da18d970dcb02f6", "is_reserved": 0}, {"is_disabled": 0, "fusion_lon": 0.0, "fusion_lat": 0.0, "lat": 38.92048966666667, "type": "electric_scooter", "lon": -77.02611366666666, "bike_id": "5fa1a54f3f60cccc1789a1709686b740", "rental_uris": {"android": "https://dc.lft.to/lastmile_qr_scan", "ios": "https://dc.lft.to/lastmile_qr_scan"}, "name": "5fa1a54f3f60cccc1789a1709686b740", "is_reserved": 0}, {"is_disabled": 0, "fusion_lon": 0.0, "fusion_lat": 0.0, "lat": 38.90554383333333, "type": "electric_scooter", "lon": -77.0335055, "bike_id": "c492096595dac039ac5fe0d2a7e58f3b", "rental_uris": {"android": "https://dc.lft.to/lastmile_qr_scan", "ios": "https://dc.lft.to/lastmile_qr_scan"}, "name": "c492096595dac039ac5fe0d2a7e58f3b", "is_reserved": 0}, {"is_disabled": 0, "fusion_lon": 0.0, "fusion_lat": 0.0, "lat": 38.845143666666665, "type": "electric_bike", "lon": -77.07800566666667, "bike_id": "249002c3c37ef8ff48001eeb47fa8f3a", "rental_uris": {"android": "https://dc.lft.to/lastmile_qr_scan", "ios": "https://dc.lft.to/lastmile_qr_scan"}, "name": "249002c3c37ef8ff48001eeb47fa8f3a", "is_reserved": 0}, {"is_disabled": 0, "fusion_lon": 0.0, "fusion_lat": 0.0, "lat": 38.91101616666667, "type": "electric_scooter", "lon": -77.03183533333333, "bike_id": "c12aecc7fcca906f9948a709784c9d1a", "rental_uris": {"android": "https://dc.lft.to/lastmile_qr_scan", "ios": "https://dc.lft.to/lastmile_qr_scan"}, "name": "c12aecc7fcca906f9948a709784c9d1a", "is_reserved": 0}, {"is_disabled": 0, "fusion_lon": 0.0, "fusion_lat": 0.0, "lat": 38.908286833333335, "type": "electric_scooter", "lon": -76.99679983333333, "bike_id": "2b3c7706e8dfbcc55acdf5af89cb2e98", "rental_uris": {"android": "https://dc.lft.to/lastmile_qr_scan", "ios": "https://dc.lft.to/lastmile_qr_scan"}, "name": "2b3c7706e8dfbcc55acdf5af89cb2e98", "is_reserved": 0}, {"is_disabled": 0, "fusion_lon": 0.0, "fusion_lat": 0.0, "lat": 38.90188366666667, "type": "electric_scooter", "lon": -77.03916483333333, "bike_id": "a965c62eb1dc5e8f78ff92f91002163f", "rental_uris": {"android": "https://dc.lft.to/lastmile_qr_scan", "ios": "https://dc.lft.to/lastmile_qr_scan"}, "name": "a965c62eb1dc5e8f78ff92f91002163f", "is_reserved": 0}, {"is_disabled": 0, "fusion_lon": 0.0, "fusion_lat": 0.0, "lat": 38.89729916666667, "type": "electric_scooter", "lon": -77.04992766666666, "bike_id": "4d6d57e85ece8858c41858e176d282b1", "rental_uris": {"android": "https://dc.lft.to/lastmile_qr_scan", "ios": "https://dc.lft.to/lastmile_qr_scan"}, "name": "4d6d57e85ece8858c41858e176d282b1", "is_reserved": 0}, {"is_disabled": 0, "fusion_lon": 0.0, "fusion_lat": 0.0, "lat": 38.833718166666664, "type": "electric_scooter", "lon": -76.99298233333333, "bike_id": "3d3cab955bb95fe3edcdc140b1ea82e2", "rental_uris": {"android": "https://dc.lft.to/lastmile_qr_scan", "ios": "https://dc.lft.to/lastmile_qr_scan"}, "name": "3d3cab955bb95fe3edcdc140b1ea82e2", "is_reserved": 0}, {"is_disabled": 0, "fusion_lon": 0.0, "fusion_lat": 0.0, "lat": 38.926034, "type": "electric_scooter", "lon": -77.0241855, "bike_id": "603fff13b0aa85af4fce5af79b9fb4ec", "rental_uris": {"android": "https://dc.lft.to/lastmile_qr_scan", "ios": "https://dc.lft.to/lastmile_qr_scan"}, "name": "603fff13b0aa85af4fce5af79b9fb4ec", "is_reserved": 0}, {"is_disabled": 0, "fusion_lon": 0.0, "fusion_lat": 0.0, "lat": 38.92330966666667, "type": "electric_scooter", "lon": -77.05678116666667, "bike_id": "b94ff0fd7ae505b2a3d740d28d760f05", "rental_uris": {"android": "https://dc.lft.to/lastmile_qr_scan", "ios": "https://dc.lft.to/lastmile_qr_scan"}, "name": "b94ff0fd7ae505b2a3d740d28d760f05", "is_reserved": 0}, {"is_disabled": 0, "fusion_lon": 0.0, "fusion_lat": 0.0, "lat": 38.901462333333335, "type": "electric_scooter", "lon": -77.03441916666667, "bike_id": "fc16fdfa113fd29bc642cb47fb901970", "rental_uris": {"android": "https://dc.lft.to/lastmile_qr_scan", "ios": "https://dc.lft.to/lastmile_qr_scan"}, "name": "fc16fdfa113fd29bc642cb47fb901970", "is_reserved": 0}, {"is_disabled": 0, "fusion_lon": 0.0, "fusion_lat": 0.0, "lat": 38.90555283333333, "type": "electric_scooter", "lon": -77.00577866666667, "bike_id": "6f14dd40eba3784dc70e493dd8661ca1", "rental_uris": {"android": "https://dc.lft.to/lastmile_qr_scan", "ios": "https://dc.lft.to/lastmile_qr_scan"}, "name": "6f14dd40eba3784dc70e493dd8661ca1", "is_reserved": 0}, {"is_disabled": 0, "fusion_lon": 0.0, "fusion_lat": 0.0, "lat": 38.9085735, "type": "electric_scooter", "lon": -77.02595383333333, "bike_id": "5aaf2d70e3871bcf34035cf2d8efa072", "rental_uris": {"android": "https://dc.lft.to/lastmile_qr_scan", "ios": "https://dc.lft.to/lastmile_qr_scan"}, "name": "5aaf2d70e3871bcf34035cf2d8efa072", "is_reserved": 0}, {"is_disabled": 0, "fusion_lon": 0.0, "fusion_lat": 0.0, "lat": 38.91914333333333, "type": "electric_scooter", "lon": -77.017513, "bike_id": "0db040331e4a34bb8f5b62d241a7c085", "rental_uris": {"android": "https://dc.lft.to/lastmile_qr_scan", "ios": "https://dc.lft.to/lastmile_qr_scan"}, "name": "0db040331e4a34bb8f5b62d241a7c085", "is_reserved": 0}, {"is_disabled": 0, "fusion_lon": 0.0, "fusion_lat": 0.0, "lat": 38.91650716666667, "type": "electric_scooter", "lon": -77.03857116666667, "bike_id": "5bfd81e49e69a6620197ef818cfe00be", "rental_uris": {"android": "https://dc.lft.to/lastmile_qr_scan", "ios": "https://dc.lft.to/lastmile_qr_scan"}, "name": "5bfd81e49e69a6620197ef818cfe00be", "is_reserved": 0}, {"is_disabled": 0, "fusion_lon": 0.0, "fusion_lat": 0.0, "lat": 38.921654, "type": "electric_scooter", "lon": -77.03443616666667, "bike_id": "4be27c1856cedec0c859a651465f1f33", "rental_uris": {"android": "https://dc.lft.to/lastmile_qr_scan", "ios": "https://dc.lft.to/lastmile_qr_scan"}, "name": "4be27c1856cedec0c859a651465f1f33", "is_reserved": 0}, {"is_disabled": 0, "fusion_lon": 0.0, "fusion_lat": 0.0, "lat": 38.91323533333333, "type": "electric_scooter", "lon": -77.03844266666667, "bike_id": "a02a9172b78193f4f1890ec58eb62c91", "rental_uris": {"android": "https://dc.lft.to/lastmile_qr_scan", "ios": "https://dc.lft.to/lastmile_qr_scan"}, "name": "a02a9172b78193f4f1890ec58eb62c91", "is_reserved": 0}, {"is_disabled": 0, "fusion_lon": 0.0, "fusion_lat": 0.0, "lat": 38.930884, "type": "electric_scooter", "lon": -77.03124933333334, "bike_id": "5951fc96de55d0f816996dce18b4619e", "rental_uris": {"android": "https://dc.lft.to/lastmile_qr_scan", "ios": "https://dc.lft.to/lastmile_qr_scan"}, "name": "5951fc96de55d0f816996dce18b4619e", "is_reserved": 0}, {"is_disabled": 0, "fusion_lon": 0.0, "fusion_lat": 0.0, "lat": 38.897388166666666, "type": "electric_scooter", "lon": -77.0075445, "bike_id": "0f599f8b57f746a4d04df48cf4937e6f", "rental_uris": {"android": "https://dc.lft.to/lastmile_qr_scan", "ios": "https://dc.lft.to/lastmile_qr_scan"}, "name": "0f599f8b57f746a4d04df48cf4937e6f", "is_reserved": 0}, {"is_disabled": 0, "fusion_lon": 0.0, "fusion_lat": 0.0, "lat": 38.90414633333333, "type": "electric_scooter", "lon": -77.03433633333333, "bike_id": "ee1bff649728388115856d0efeea21ab", "rental_uris": {"android": "https://dc.lft.to/lastmile_qr_scan", "ios": "https://dc.lft.to/lastmile_qr_scan"}, "name": "ee1bff649728388115856d0efeea21ab", "is_reserved": 0}, {"is_disabled": 0, "fusion_lon": 0.0, "fusion_lat": 0.0, "lat": 38.89459133333333, "type": "electric_scooter", "lon": -76.99417333333334, "bike_id": "b22d27e8c40fd13dc8f4922295dbddf9", "rental_uris": {"android": "https://dc.lft.to/lastmile_qr_scan", "ios": "https://dc.lft.to/lastmile_qr_scan"}, "name": "b22d27e8c40fd13dc8f4922295dbddf9", "is_reserved": 0}, {"is_disabled": 0, "fusion_lon": 0.0, "fusion_lat": 0.0, "lat": 38.899444833333334, "type": "electric_scooter", "lon": -77.04785616666666, "bike_id": "ced5f3734256b6e0cdc88f0ce64cc294", "rental_uris": {"android": "https://dc.lft.to/lastmile_qr_scan", "ios": "https://dc.lft.to/lastmile_qr_scan"}, "name": "ced5f3734256b6e0cdc88f0ce64cc294", "is_reserved": 0}, {"is_disabled": 0, "fusion_lon": 0.0, "fusion_lat": 0.0, "lat": 38.907046, "type": "electric_scooter", "lon": -76.98691666666667, "bike_id": "f21dd34204b3ef0c2fc3d20d0fb36923", "rental_uris": {"android": "https://dc.lft.to/lastmile_qr_scan", "ios": "https://dc.lft.to/lastmile_qr_scan"}, "name": "f21dd34204b3ef0c2fc3d20d0fb36923", "is_reserved": 0}, {"is_disabled": 0, "fusion_lon": 0.0, "fusion_lat": 0.0, "lat": 38.9285685, "type": "electric_scooter", "lon": -77.01418633333333, "bike_id": "f5bf7b24b1c5ce11a6b8cc8d7e967bf0", "rental_uris": {"android": "https://dc.lft.to/lastmile_qr_scan", "ios": "https://dc.lft.to/lastmile_qr_scan"}, "name": "f5bf7b24b1c5ce11a6b8cc8d7e967bf0", "is_reserved": 0}, {"is_disabled": 0, "fusion_lon": 0.0, "fusion_lat": 0.0, "lat": 38.925158333333336, "type": "electric_scooter", "lon": -77.07665, "bike_id": "0d24cd09330b7bb2745fdfef5dbb9859", "rental_uris": {"android": "https://dc.lft.to/lastmile_qr_scan", "ios": "https://dc.lft.to/lastmile_qr_scan"}, "name": "0d24cd09330b7bb2745fdfef5dbb9859", "is_reserved": 0}, {"is_disabled": 0, "fusion_lon": 0.0, "fusion_lat": 0.0, "lat": 38.93098883333333, "type": "electric_scooter", "lon": -77.0251605, "bike_id": "f2508481c972ed09e2d00766a899a439", "rental_uris": {"android": "https://dc.lft.to/lastmile_qr_scan", "ios": "https://dc.lft.to/lastmile_qr_scan"}, "name": "f2508481c972ed09e2d00766a899a439", "is_reserved": 0}, {"is_disabled": 0, "fusion_lon": 0.0, "fusion_lat": 0.0, "lat": 38.89826733333334, "type": "electric_scooter", "lon": -76.9465315, "bike_id": "c52f08719e47e85bbb4ea017be58961b", "rental_uris": {"android": "https://dc.lft.to/lastmile_qr_scan", "ios": "https://dc.lft.to/lastmile_qr_scan"}, "name": "c52f08719e47e85bbb4ea017be58961b", "is_reserved": 0}, {"is_disabled": 0, "fusion_lon": 0.0, "fusion_lat": 0.0, "lat": 38.900486, "type": "electric_scooter", "lon": -77.00071666666666, "bike_id": "35beed6f7a54f70506f8acc03b09343c", "rental_uris": {"android": "https://dc.lft.to/lastmile_qr_scan", "ios": "https://dc.lft.to/lastmile_qr_scan"}, "name": "35beed6f7a54f70506f8acc03b09343c", "is_reserved": 0}, {"is_disabled": 0, "fusion_lon": 0.0, "fusion_lat": 0.0, "lat": 38.88219383333333, "type": "electric_bike", "lon": -77.112768, "bike_id": "2f6095a314359b92119fb3c7ecabadc7", "rental_uris": {"android": "https://dc.lft.to/lastmile_qr_scan", "ios": "https://dc.lft.to/lastmile_qr_scan"}, "name": "2f6095a314359b92119fb3c7ecabadc7", "is_reserved": 0}, {"is_disabled": 0, "fusion_lon": 0.0, "fusion_lat": 0.0, "lat": 38.95308933333333, "type": "electric_scooter", "lon": -77.03599433333333, "bike_id": "ccbc1fcef8fe0edd5476f3a0e6acda25", "rental_uris": {"android": "https://dc.lft.to/lastmile_qr_scan", "ios": "https://dc.lft.to/lastmile_qr_scan"}, "name": "ccbc1fcef8fe0edd5476f3a0e6acda25", "is_reserved": 0}, {"is_disabled": 0, "fusion_lon": 0.0, "fusion_lat": 0.0, "lat": 38.91086116666666, "type": "electric_scooter", "lon": -77.03858783333334, "bike_id": "0e60cf8ea471175e72b3ea2aabb68776", "rental_uris": {"android": "https://dc.lft.to/lastmile_qr_scan", "ios": "https://dc.lft.to/lastmile_qr_scan"}, "name": "0e60cf8ea471175e72b3ea2aabb68776", "is_reserved": 0}, {"is_disabled": 0, "fusion_lon": 0.0, "fusion_lat": 0.0, "lat": 38.8929, "type": "electric_scooter", "lon": -77.01198983333333, "bike_id": "d9cccb70f75e2ed1860fca9ad62938ec", "rental_uris": {"android": "https://dc.lft.to/lastmile_qr_scan", "ios": "https://dc.lft.to/lastmile_qr_scan"}, "name": "d9cccb70f75e2ed1860fca9ad62938ec", "is_reserved": 0}, {"is_disabled": 0, "fusion_lon": 0.0, "fusion_lat": 0.0, "lat": 38.90318383333333, "type": "electric_scooter", "lon": -77.0188715, "bike_id": "e41d3aa3712dfc9583019b9f6dfbe265", "rental_uris": {"android": "https://dc.lft.to/lastmile_qr_scan", "ios": "https://dc.lft.to/lastmile_qr_scan"}, "name": "e41d3aa3712dfc9583019b9f6dfbe265", "is_reserved": 0}, {"is_disabled": 0, "fusion_lon": 0.0, "fusion_lat": 0.0, "lat": 38.899776333333335, "type": "electric_scooter", "lon": -77.04617633333334, "bike_id": "02cca8da942f161ac7ef9d411f5af864", "rental_uris": {"android": "https://dc.lft.to/lastmile_qr_scan", "ios": "https://dc.lft.to/lastmile_qr_scan"}, "name": "02cca8da942f161ac7ef9d411f5af864", "is_reserved": 0}, {"is_disabled": 0, "fusion_lon": 0.0, "fusion_lat": 0.0, "lat": 38.92103783333334, "type": "electric_scooter", "lon": -77.03054933333334, "bike_id": "3e684764ce40975695e4c02573f82bdc", "rental_uris": {"android": "https://dc.lft.to/lastmile_qr_scan", "ios": "https://dc.lft.to/lastmile_qr_scan"}, "name": "3e684764ce40975695e4c02573f82bdc", "is_reserved": 0}, {"is_disabled": 0, "fusion_lon": 0.0, "fusion_lat": 0.0, "lat": 38.908138, "type": "electric_scooter", "lon": -77.04164316666666, "bike_id": "5f35c390b75232ddabb2ca0ff13808bd", "rental_uris": {"android": "https://dc.lft.to/lastmile_qr_scan", "ios": "https://dc.lft.to/lastmile_qr_scan"}, "name": "5f35c390b75232ddabb2ca0ff13808bd", "is_reserved": 0}, {"is_disabled": 0, "fusion_lon": 0.0, "fusion_lat": 0.0, "lat": 38.8766355, "type": "electric_scooter", "lon": -77.015709, "bike_id": "27ed5b91bac8c99888f5566a80be5b6e", "rental_uris": {"android": "https://dc.lft.to/lastmile_qr_scan", "ios": "https://dc.lft.to/lastmile_qr_scan"}, "name": "27ed5b91bac8c99888f5566a80be5b6e", "is_reserved": 0}, {"is_disabled": 0, "fusion_lon": 0.0, "fusion_lat": 0.0, "lat": 38.931427666666664, "type": "electric_scooter", "lon": -77.03450533333333, "bike_id": "a1a55cee7b78972a3aa2422727ac729f", "rental_uris": {"android": "https://dc.lft.to/lastmile_qr_scan", "ios": "https://dc.lft.to/lastmile_qr_scan"}, "name": "a1a55cee7b78972a3aa2422727ac729f", "is_reserved": 0}, {"is_disabled": 0, "fusion_lon": 0.0, "fusion_lat": 0.0, "lat": 38.909707833333336, "type": "electric_scooter", "lon": -77.08072416666667, "bike_id": "16a05fe0d446f15633bd9e336147fb4c", "rental_uris": {"android": "https://dc.lft.to/lastmile_qr_scan", "ios": "https://dc.lft.to/lastmile_qr_scan"}, "name": "16a05fe0d446f15633bd9e336147fb4c", "is_reserved": 0}, {"is_disabled": 0, "fusion_lon": 0.0, "fusion_lat": 0.0, "lat": 38.895778666666665, "type": "electric_scooter", "lon": -77.0231055, "bike_id": "e2652ee85a083af451e17b567c8b1373", "rental_uris": {"android": "https://dc.lft.to/lastmile_qr_scan", "ios": "https://dc.lft.to/lastmile_qr_scan"}, "name": "e2652ee85a083af451e17b567c8b1373", "is_reserved": 0}, {"is_disabled": 0, "fusion_lon": 0.0, "fusion_lat": 0.0, "lat": 38.887493166666665, "type": "electric_scooter", "lon": -76.99625566666667, "bike_id": "55dd43b6bf243e6c0a8aeeca5267f0ee", "rental_uris": {"android": "https://dc.lft.to/lastmile_qr_scan", "ios": "https://dc.lft.to/lastmile_qr_scan"}, "name": "55dd43b6bf243e6c0a8aeeca5267f0ee", "is_reserved": 0}, {"is_disabled": 0, "fusion_lon": 0.0, "fusion_lat": 0.0, "lat": 38.91804616666667, "type": "electric_scooter", "lon": -77.0239165, "bike_id": "3fa8f7f7fce6554a21550bfe3242f949", "rental_uris": {"android": "https://dc.lft.to/lastmile_qr_scan", "ios": "https://dc.lft.to/lastmile_qr_scan"}, "name": "3fa8f7f7fce6554a21550bfe3242f949", "is_reserved": 0}, {"is_disabled": 0, "fusion_lon": 0.0, "fusion_lat": 0.0, "lat": 38.90240133333333, "type": "electric_scooter", "lon": -77.01204716666666, "bike_id": "0bf6d188453ad9a4a15d717ed8da4248", "rental_uris": {"android": "https://dc.lft.to/lastmile_qr_scan", "ios": "https://dc.lft.to/lastmile_qr_scan"}, "name": "0bf6d188453ad9a4a15d717ed8da4248", "is_reserved": 0}, {"is_disabled": 0, "fusion_lon": 0.0, "fusion_lat": 0.0, "lat": 38.904150666666666, "type": "electric_scooter", "lon": -77.043878, "bike_id": "436ed1ec54e327f4a460100b69e2fc3e", "rental_uris": {"android": "https://dc.lft.to/lastmile_qr_scan", "ios": "https://dc.lft.to/lastmile_qr_scan"}, "name": "436ed1ec54e327f4a460100b69e2fc3e", "is_reserved": 0}, {"is_disabled": 0, "fusion_lon": 0.0, "fusion_lat": 0.0, "lat": 38.910303666666664, "type": "electric_scooter", "lon": -77.014724, "bike_id": "39fbd3f6a935fe30cfe16b941117d992", "rental_uris": {"android": "https://dc.lft.to/lastmile_qr_scan", "ios": "https://dc.lft.to/lastmile_qr_scan"}, "name": "39fbd3f6a935fe30cfe16b941117d992", "is_reserved": 0}, {"is_disabled": 0, "fusion_lon": 0.0, "fusion_lat": 0.0, "lat": 38.932387, "type": "electric_scooter", "lon": -77.0387705, "bike_id": "2bd7af7972e5c38939f4cb7ddd17c632", "rental_uris": {"android": "https://dc.lft.to/lastmile_qr_scan", "ios": "https://dc.lft.to/lastmile_qr_scan"}, "name": "2bd7af7972e5c38939f4cb7ddd17c632", "is_reserved": 0}, {"is_disabled": 0, "fusion_lon": 0.0, "fusion_lat": 0.0, "lat": 38.898579, "type": "electric_scooter", "lon": -77.04166016666667, "bike_id": "b0d3da55d577c54a877baf249ab6e5a8", "rental_uris": {"android": "https://dc.lft.to/lastmile_qr_scan", "ios": "https://dc.lft.to/lastmile_qr_scan"}, "name": "b0d3da55d577c54a877baf249ab6e5a8", "is_reserved": 0}, {"is_disabled": 0, "fusion_lon": 0.0, "fusion_lat": 0.0, "lat": 38.898191833333335, "type": "electric_scooter", "lon": -77.00211933333334, "bike_id": "626a2ffbb3cbcb76e0dd8fcf098a5506", "rental_uris": {"android": "https://dc.lft.to/lastmile_qr_scan", "ios": "https://dc.lft.to/lastmile_qr_scan"}, "name": "626a2ffbb3cbcb76e0dd8fcf098a5506", "is_reserved": 0}, {"is_disabled": 0, "fusion_lon": 0.0, "fusion_lat": 0.0, "lat": 38.96552, "type": "electric_bike", "lon": -77.022988, "bike_id": "4b7a8bf7919fa443e6866b51f1d29d9e", "rental_uris": {"android": "https://dc.lft.to/lastmile_qr_scan", "ios": "https://dc.lft.to/lastmile_qr_scan"}, "name": "4b7a8bf7919fa443e6866b51f1d29d9e", "is_reserved": 0}, {"is_disabled": 0, "fusion_lon": 0.0, "fusion_lat": 0.0, "lat": 38.900307, "type": "electric_scooter", "lon": -76.99869916666667, "bike_id": "65c1838995047686acf7159f3bebdeea", "rental_uris": {"android": "https://dc.lft.to/lastmile_qr_scan", "ios": "https://dc.lft.to/lastmile_qr_scan"}, "name": "65c1838995047686acf7159f3bebdeea", "is_reserved": 0}, {"is_disabled": 0, "fusion_lon": 0.0, "fusion_lat": 0.0, "lat": 38.900866, "type": "electric_bike", "lon": -77.024599, "bike_id": "7d91413fa52d743458e29150d76b78c7", "rental_uris": {"android": "https://dc.lft.to/lastmile_qr_scan", "ios": "https://dc.lft.to/lastmile_qr_scan"}, "name": "7d91413fa52d743458e29150d76b78c7", "is_reserved": 0}, {"is_disabled": 0, "fusion_lon": 0.0, "fusion_lat": 0.0, "lat": 38.917156, "type": "electric_scooter", "lon": -77.02617766666667, "bike_id": "fa679e6cd405b3174f836e5dbbe42059", "rental_uris": {"android": "https://dc.lft.to/lastmile_qr_scan", "ios": "https://dc.lft.to/lastmile_qr_scan"}, "name": "fa679e6cd405b3174f836e5dbbe42059", "is_reserved": 0}, {"is_disabled": 0, "fusion_lon": 0.0, "fusion_lat": 0.0, "lat": 38.9024785, "type": "electric_scooter", "lon": -77.0309905, "bike_id": "446199eb19cc8c5cc1b88b5e3c042bdd", "rental_uris": {"android": "https://dc.lft.to/lastmile_qr_scan", "ios": "https://dc.lft.to/lastmile_qr_scan"}, "name": "446199eb19cc8c5cc1b88b5e3c042bdd", "is_reserved": 0}, {"is_disabled": 0, "fusion_lon": 0.0, "fusion_lat": 0.0, "lat": 38.93915616666666, "type": "electric_scooter", "lon": -77.02489583333333, "bike_id": "f3d1a69c811a71c764189ce039ba9cd8", "rental_uris": {"android": "https://dc.lft.to/lastmile_qr_scan", "ios": "https://dc.lft.to/lastmile_qr_scan"}, "name": "f3d1a69c811a71c764189ce039ba9cd8", "is_reserved": 0}, {"is_disabled": 0, "fusion_lon": 0.0, "fusion_lat": 0.0, "lat": 38.9013225, "type": "electric_scooter", "lon": -77.0152045, "bike_id": "b99a4fca5d1f63a13bbf8deec309fe28", "rental_uris": {"android": "https://dc.lft.to/lastmile_qr_scan", "ios": "https://dc.lft.to/lastmile_qr_scan"}, "name": "b99a4fca5d1f63a13bbf8deec309fe28", "is_reserved": 0}, {"is_disabled": 0, "fusion_lon": 0.0, "fusion_lat": 0.0, "lat": 38.9167905, "type": "electric_scooter", "lon": -77.04137016666667, "bike_id": "d80ff3100752f62b1a2bbb5592ac4fc0", "rental_uris": {"android": "https://dc.lft.to/lastmile_qr_scan", "ios": "https://dc.lft.to/lastmile_qr_scan"}, "name": "d80ff3100752f62b1a2bbb5592ac4fc0", "is_reserved": 0}, {"is_disabled": 0, "fusion_lon": 0.0, "fusion_lat": 0.0, "lat": 39.003759, "type": "electric_bike", "lon": -77.0128805, "bike_id": "8b061c08774d217de3e83702b83cfdb5", "rental_uris": {"android": "https://dc.lft.to/lastmile_qr_scan", "ios": "https://dc.lft.to/lastmile_qr_scan"}, "name": "8b061c08774d217de3e83702b83cfdb5", "is_reserved": 0}, {"is_disabled": 0, "fusion_lon": 0.0, "fusion_lat": 0.0, "lat": 38.89841366666667, "type": "electric_scooter", "lon": -77.02914333333334, "bike_id": "f97f589654def46ac6d5148412f23e2e", "rental_uris": {"android": "https://dc.lft.to/lastmile_qr_scan", "ios": "https://dc.lft.to/lastmile_qr_scan"}, "name": "f97f589654def46ac6d5148412f23e2e", "is_reserved": 0}, {"is_disabled": 0, "fusion_lon": 0.0, "fusion_lat": 0.0, "lat": 38.93066733333333, "type": "electric_scooter", "lon": -77.02964, "bike_id": "aeb9ce9db6c988d1d5c5eb5de00391a0", "rental_uris": {"android": "https://dc.lft.to/lastmile_qr_scan", "ios": "https://dc.lft.to/lastmile_qr_scan"}, "name": "aeb9ce9db6c988d1d5c5eb5de00391a0", "is_reserved": 0}, {"is_disabled": 0, "fusion_lon": 0.0, "fusion_lat": 0.0, "lat": 39.024928, "type": "electric_bike", "lon": -77.125688, "bike_id": "5951cbf9c400d33d688e7d0ac8dae8b3", "rental_uris": {"android": "https://dc.lft.to/lastmile_qr_scan", "ios": "https://dc.lft.to/lastmile_qr_scan"}, "name": "5951cbf9c400d33d688e7d0ac8dae8b3", "is_reserved": 0}, {"is_disabled": 0, "fusion_lon": 0.0, "fusion_lat": 0.0, "lat": 38.93079483333333, "type": "electric_scooter", "lon": -77.03632633333334, "bike_id": "fde2e7070125c7d96c48c1f625d711f0", "rental_uris": {"android": "https://dc.lft.to/lastmile_qr_scan", "ios": "https://dc.lft.to/lastmile_qr_scan"}, "name": "fde2e7070125c7d96c48c1f625d711f0", "is_reserved": 0}, {"is_disabled": 0, "fusion_lon": 0.0, "fusion_lat": 0.0, "lat": 38.910501, "type": "electric_scooter", "lon": -77.04352666666666, "bike_id": "9b9967f72f201989ff44092b16dcca55", "rental_uris": {"android": "https://dc.lft.to/lastmile_qr_scan", "ios": "https://dc.lft.to/lastmile_qr_scan"}, "name": "9b9967f72f201989ff44092b16dcca55", "is_reserved": 0}, {"is_disabled": 0, "fusion_lon": 0.0, "fusion_lat": 0.0, "lat": 38.92637216666667, "type": "electric_scooter", "lon": -77.03631283333333, "bike_id": "938c7dfb096ab75fe38540691594f692", "rental_uris": {"android": "https://dc.lft.to/lastmile_qr_scan", "ios": "https://dc.lft.to/lastmile_qr_scan"}, "name": "938c7dfb096ab75fe38540691594f692", "is_reserved": 0}, {"is_disabled": 0, "fusion_lon": 0.0, "fusion_lat": 0.0, "lat": 38.94308983333333, "type": "electric_scooter", "lon": -77.06172866666667, "bike_id": "1df5df403e8c95091afba0c77a9ca949", "rental_uris": {"android": "https://dc.lft.to/lastmile_qr_scan", "ios": "https://dc.lft.to/lastmile_qr_scan"}, "name": "1df5df403e8c95091afba0c77a9ca949", "is_reserved": 0}, {"is_disabled": 0, "fusion_lon": 0.0, "fusion_lat": 0.0, "lat": 38.90975133333333, "type": "electric_scooter", "lon": -77.03447566666667, "bike_id": "350a0736dbe13b8b4222d37a0fd3a148", "rental_uris": {"android": "https://dc.lft.to/lastmile_qr_scan", "ios": "https://dc.lft.to/lastmile_qr_scan"}, "name": "350a0736dbe13b8b4222d37a0fd3a148", "is_reserved": 0}, {"is_disabled": 0, "fusion_lon": 0.0, "fusion_lat": 0.0, "lat": 38.9011615, "type": "electric_scooter", "lon": -77.04413233333334, "bike_id": "142ce8e71789feb3674e95a756471067", "rental_uris": {"android": "https://dc.lft.to/lastmile_qr_scan", "ios": "https://dc.lft.to/lastmile_qr_scan"}, "name": "142ce8e71789feb3674e95a756471067", "is_reserved": 0}, {"is_disabled": 0, "fusion_lon": 0.0, "fusion_lat": 0.0, "lat": 38.911143333333335, "type": "electric_scooter", "lon": -77.03563533333333, "bike_id": "dc56e812e64e8a68e947b705428fa965", "rental_uris": {"android": "https://dc.lft.to/lastmile_qr_scan", "ios": "https://dc.lft.to/lastmile_qr_scan"}, "name": "dc56e812e64e8a68e947b705428fa965", "is_reserved": 0}, {"is_disabled": 0, "fusion_lon": 0.0, "fusion_lat": 0.0, "lat": 38.89196666666667, "type": "electric_scooter", "lon": -76.94269966666667, "bike_id": "c9b28f849e65acbcab6987ae25fd480e", "rental_uris": {"android": "https://dc.lft.to/lastmile_qr_scan", "ios": "https://dc.lft.to/lastmile_qr_scan"}, "name": "c9b28f849e65acbcab6987ae25fd480e", "is_reserved": 0}, {"is_disabled": 0, "fusion_lon": 0.0, "fusion_lat": 0.0, "lat": 38.928547333333334, "type": "electric_scooter", "lon": -77.03422933333333, "bike_id": "50f275d4772609467bdab9bc64dc368d", "rental_uris": {"android": "https://dc.lft.to/lastmile_qr_scan", "ios": "https://dc.lft.to/lastmile_qr_scan"}, "name": "50f275d4772609467bdab9bc64dc368d", "is_reserved": 0}, {"is_disabled": 0, "fusion_lon": 0.0, "fusion_lat": 0.0, "lat": 39.11501533333333, "type": "electric_bike", "lon": -77.19547616666667, "bike_id": "fd1427a8a6835d5cb31c4803b83e86d5", "rental_uris": {"android": "https://dc.lft.to/lastmile_qr_scan", "ios": "https://dc.lft.to/lastmile_qr_scan"}, "name": "fd1427a8a6835d5cb31c4803b83e86d5", "is_reserved": 0}, {"is_disabled": 0, "fusion_lon": 0.0, "fusion_lat": 0.0, "lat": 38.85714316666667, "type": "electric_bike", "lon": -76.981152, "bike_id": "fea1f3e8db74d8a402f94cf4616f81ba", "rental_uris": {"android": "https://dc.lft.to/lastmile_qr_scan", "ios": "https://dc.lft.to/lastmile_qr_scan"}, "name": "fea1f3e8db74d8a402f94cf4616f81ba", "is_reserved": 0}, {"is_disabled": 0, "fusion_lon": 0.0, "fusion_lat": 0.0, "lat": 38.93045716666666, "type": "electric_scooter", "lon": -77.00415216666667, "bike_id": "2d2987cbe990a8f4b23a3572041d49b5", "rental_uris": {"android": "https://dc.lft.to/lastmile_qr_scan", "ios": "https://dc.lft.to/lastmile_qr_scan"}, "name": "2d2987cbe990a8f4b23a3572041d49b5", "is_reserved": 0}, {"is_disabled": 0, "fusion_lon": 0.0, "fusion_lat": 0.0, "lat": 38.915523666666665, "type": "electric_scooter", "lon": -77.03873383333334, "bike_id": "b802f461d15b8ba7067bc245d25a7b03", "rental_uris": {"android": "https://dc.lft.to/lastmile_qr_scan", "ios": "https://dc.lft.to/lastmile_qr_scan"}, "name": "b802f461d15b8ba7067bc245d25a7b03", "is_reserved": 0}, {"is_disabled": 0, "fusion_lon": 0.0, "fusion_lat": 0.0, "lat": 38.904406333333334, "type": "electric_scooter", "lon": -77.03459916666667, "bike_id": "81bf2b9e2e0d8be815f934c8a76de151", "rental_uris": {"android": "https://dc.lft.to/lastmile_qr_scan", "ios": "https://dc.lft.to/lastmile_qr_scan"}, "name": "81bf2b9e2e0d8be815f934c8a76de151", "is_reserved": 0}, {"is_disabled": 0, "fusion_lon": 0.0, "fusion_lat": 0.0, "lat": 38.923567166666665, "type": "electric_scooter", "lon": -77.03228083333333, "bike_id": "e132fd1bc3803a9845160ed5c22967a6", "rental_uris": {"android": "https://dc.lft.to/lastmile_qr_scan", "ios": "https://dc.lft.to/lastmile_qr_scan"}, "name": "e132fd1bc3803a9845160ed5c22967a6", "is_reserved": 0}, {"is_disabled": 0, "fusion_lon": 0.0, "fusion_lat": 0.0, "lat": 38.90484416666666, "type": "electric_scooter", "lon": -77.03573133333333, "bike_id": "d6b38851a9f9c03a8a1c34891f9d6cdc", "rental_uris": {"android": "https://dc.lft.to/lastmile_qr_scan", "ios": "https://dc.lft.to/lastmile_qr_scan"}, "name": "d6b38851a9f9c03a8a1c34891f9d6cdc", "is_reserved": 0}, {"is_disabled": 0, "fusion_lon": 0.0, "fusion_lat": 0.0, "lat": 38.930758, "type": "electric_scooter", "lon": -77.03104566666667, "bike_id": "da2176d98db2669958a596da97813951", "rental_uris": {"android": "https://dc.lft.to/lastmile_qr_scan", "ios": "https://dc.lft.to/lastmile_qr_scan"}, "name": "da2176d98db2669958a596da97813951", "is_reserved": 0}, {"is_disabled": 0, "fusion_lon": 0.0, "fusion_lat": 0.0, "lat": 38.94575783333333, "type": "electric_bike", "lon": -76.98777416666667, "bike_id": "3eb6fd9fcdaa8a116eec74c75bd7ca8b", "rental_uris": {"android": "https://dc.lft.to/lastmile_qr_scan", "ios": "https://dc.lft.to/lastmile_qr_scan"}, "name": "3eb6fd9fcdaa8a116eec74c75bd7ca8b", "is_reserved": 0}, {"is_disabled": 0, "fusion_lon": 0.0, "fusion_lat": 0.0, "lat": 38.947457666666665, "type": "electric_scooter", "lon": -77.0179785, "bike_id": "d57346eff8786bc0bb9a2b81bc4fee93", "rental_uris": {"android": "https://dc.lft.to/lastmile_qr_scan", "ios": "https://dc.lft.to/lastmile_qr_scan"}, "name": "d57346eff8786bc0bb9a2b81bc4fee93", "is_reserved": 0}, {"is_disabled": 0, "fusion_lon": 0.0, "fusion_lat": 0.0, "lat": 38.910456333333336, "type": "electric_scooter", "lon": -77.064524, "bike_id": "b79c0e954a2af592af22f722799e3ef6", "rental_uris": {"android": "https://dc.lft.to/lastmile_qr_scan", "ios": "https://dc.lft.to/lastmile_qr_scan"}, "name": "b79c0e954a2af592af22f722799e3ef6", "is_reserved": 0}, {"is_disabled": 0, "fusion_lon": 0.0, "fusion_lat": 0.0, "lat": 38.87399533333333, "type": "electric_scooter", "lon": -77.00199716666667, "bike_id": "7f17dc6df177a5792939e483797274cc", "rental_uris": {"android": "https://dc.lft.to/lastmile_qr_scan", "ios": "https://dc.lft.to/lastmile_qr_scan"}, "name": "7f17dc6df177a5792939e483797274cc", "is_reserved": 0}, {"is_disabled": 0, "fusion_lon": 0.0, "fusion_lat": 0.0, "lat": 38.9080595, "type": "electric_scooter", "lon": -77.0014625, "bike_id": "f3b27ea13b42bb8e0c2a96dd3e1f0cf0", "rental_uris": {"android": "https://dc.lft.to/lastmile_qr_scan", "ios": "https://dc.lft.to/lastmile_qr_scan"}, "name": "f3b27ea13b42bb8e0c2a96dd3e1f0cf0", "is_reserved": 0}, {"is_disabled": 0, "fusion_lon": 0.0, "fusion_lat": 0.0, "lat": 38.90936833333333, "type": "electric_scooter", "lon": -77.03192616666666, "bike_id": "ccfadffac89283a39a37ca9121859073", "rental_uris": {"android": "https://dc.lft.to/lastmile_qr_scan", "ios": "https://dc.lft.to/lastmile_qr_scan"}, "name": "ccfadffac89283a39a37ca9121859073", "is_reserved": 0}, {"is_disabled": 0, "fusion_lon": 0.0, "fusion_lat": 0.0, "lat": 38.904191833333336, "type": "electric_scooter", "lon": -77.0288085, "bike_id": "3453ee789de0b80debb817fade83c6f0", "rental_uris": {"android": "https://dc.lft.to/lastmile_qr_scan", "ios": "https://dc.lft.to/lastmile_qr_scan"}, "name": "3453ee789de0b80debb817fade83c6f0", "is_reserved": 0}, {"is_disabled": 0, "fusion_lon": 0.0, "fusion_lat": 0.0, "lat": 38.9363575, "type": "electric_bike", "lon": -76.95465116666666, "bike_id": "a35f0a41e5273ecdefd56c0c4bf4a692", "rental_uris": {"android": "https://dc.lft.to/lastmile_qr_scan", "ios": "https://dc.lft.to/lastmile_qr_scan"}, "name": "a35f0a41e5273ecdefd56c0c4bf4a692", "is_reserved": 0}, {"is_disabled": 0, "fusion_lon": 0.0, "fusion_lat": 0.0, "lat": 38.89957866666666, "type": "electric_scooter", "lon": -77.0335335, "bike_id": "ecd4066a4578e96cf2ce730b5c9d4dd8", "rental_uris": {"android": "https://dc.lft.to/lastmile_qr_scan", "ios": "https://dc.lft.to/lastmile_qr_scan"}, "name": "ecd4066a4578e96cf2ce730b5c9d4dd8", "is_reserved": 0}, {"is_disabled": 0, "fusion_lon": 0.0, "fusion_lat": 0.0, "lat": 38.907211333333336, "type": "electric_scooter", "lon": -77.03486783333334, "bike_id": "2b8b94844913f1ad6932b0127d7bd2fc", "rental_uris": {"android": "https://dc.lft.to/lastmile_qr_scan", "ios": "https://dc.lft.to/lastmile_qr_scan"}, "name": "2b8b94844913f1ad6932b0127d7bd2fc", "is_reserved": 0}, {"is_disabled": 0, "fusion_lon": 0.0, "fusion_lat": 0.0, "lat": 38.89927933333333, "type": "electric_scooter", "lon": -77.02144783333334, "bike_id": "df7f4ed756c399a05f26a46ea8c0bbc9", "rental_uris": {"android": "https://dc.lft.to/lastmile_qr_scan", "ios": "https://dc.lft.to/lastmile_qr_scan"}, "name": "df7f4ed756c399a05f26a46ea8c0bbc9", "is_reserved": 0}, {"is_disabled": 0, "fusion_lon": 0.0, "fusion_lat": 0.0, "lat": 38.901304, "type": "electric_scooter", "lon": -77.04163666666666, "bike_id": "ef3e2ae7002d1b16f5cdd3428c6130c1", "rental_uris": {"android": "https://dc.lft.to/lastmile_qr_scan", "ios": "https://dc.lft.to/lastmile_qr_scan"}, "name": "ef3e2ae7002d1b16f5cdd3428c6130c1", "is_reserved": 0}, {"is_disabled": 0, "fusion_lon": 0.0, "fusion_lat": 0.0, "lat": 38.90553883333333, "type": "electric_scooter", "lon": -77.03359916666666, "bike_id": "4994c3b5daba1e79d5394686a01f6472", "rental_uris": {"android": "https://dc.lft.to/lastmile_qr_scan", "ios": "https://dc.lft.to/lastmile_qr_scan"}, "name": "4994c3b5daba1e79d5394686a01f6472", "is_reserved": 0}, {"is_disabled": 0, "fusion_lon": 0.0, "fusion_lat": 0.0, "lat": 38.88857616666667, "type": "electric_scooter", "lon": -76.977339, "bike_id": "f53aec18e52585a39a44e5af981dcbe9", "rental_uris": {"android": "https://dc.lft.to/lastmile_qr_scan", "ios": "https://dc.lft.to/lastmile_qr_scan"}, "name": "f53aec18e52585a39a44e5af981dcbe9", "is_reserved": 0}, {"is_disabled": 0, "fusion_lon": 0.0, "fusion_lat": 0.0, "lat": 38.895027, "type": "electric_scooter", "lon": -77.02208566666667, "bike_id": "a7d7a69356dba505021ac1e02d0f9802", "rental_uris": {"android": "https://dc.lft.to/lastmile_qr_scan", "ios": "https://dc.lft.to/lastmile_qr_scan"}, "name": "a7d7a69356dba505021ac1e02d0f9802", "is_reserved": 0}, {"is_disabled": 0, "fusion_lon": 0.0, "fusion_lat": 0.0, "lat": 38.92881466666667, "type": "electric_scooter", "lon": -77.03334716666667, "bike_id": "4370dc4d28e9527f61e36b617285f3b1", "rental_uris": {"android": "https://dc.lft.to/lastmile_qr_scan", "ios": "https://dc.lft.to/lastmile_qr_scan"}, "name": "4370dc4d28e9527f61e36b617285f3b1", "is_reserved": 0}, {"is_disabled": 0, "fusion_lon": 0.0, "fusion_lat": 0.0, "lat": 38.892956166666664, "type": "electric_scooter", "lon": -77.01972483333333, "bike_id": "4ccb43b7596cd527fd4d1c9aca950304", "rental_uris": {"android": "https://dc.lft.to/lastmile_qr_scan", "ios": "https://dc.lft.to/lastmile_qr_scan"}, "name": "4ccb43b7596cd527fd4d1c9aca950304", "is_reserved": 0}, {"is_disabled": 0, "fusion_lon": 0.0, "fusion_lat": 0.0, "lat": 38.827283333333334, "type": "electric_bike", "lon": -77.00862066666667, "bike_id": "0674a099f39884d1110a1e7e40f8e739", "rental_uris": {"android": "https://dc.lft.to/lastmile_qr_scan", "ios": "https://dc.lft.to/lastmile_qr_scan"}, "name": "0674a099f39884d1110a1e7e40f8e739", "is_reserved": 0}, {"is_disabled": 0, "fusion_lon": 0.0, "fusion_lat": 0.0, "lat": 38.90138016666667, "type": "electric_scooter", "lon": -77.04157766666667, "bike_id": "e624d299d1c0eac1ccb8a411a01d9ddd", "rental_uris": {"android": "https://dc.lft.to/lastmile_qr_scan", "ios": "https://dc.lft.to/lastmile_qr_scan"}, "name": "e624d299d1c0eac1ccb8a411a01d9ddd", "is_reserved": 0}, {"is_disabled": 0, "fusion_lon": 0.0, "fusion_lat": 0.0, "lat": 38.8311825, "type": "electric_bike", "lon": -77.043226, "bike_id": "d385537b5f04d5c530336b8a99f4cb96", "rental_uris": {"android": "https://dc.lft.to/lastmile_qr_scan", "ios": "https://dc.lft.to/lastmile_qr_scan"}, "name": "d385537b5f04d5c530336b8a99f4cb96", "is_reserved": 0}, {"is_disabled": 0, "fusion_lon": 0.0, "fusion_lat": 0.0, "lat": 38.9196755, "type": "electric_scooter", "lon": -77.0417975, "bike_id": "f26a7943a979c902314fd1bb233f925b", "rental_uris": {"android": "https://dc.lft.to/lastmile_qr_scan", "ios": "https://dc.lft.to/lastmile_qr_scan"}, "name": "f26a7943a979c902314fd1bb233f925b", "is_reserved": 0}, {"is_disabled": 0, "fusion_lon": 0.0, "fusion_lat": 0.0, "lat": 38.8681485, "type": "electric_scooter", "lon": -77.01180166666667, "bike_id": "3e0cd907ee25d5772e2bccea4b898b05", "rental_uris": {"android": "https://dc.lft.to/lastmile_qr_scan", "ios": "https://dc.lft.to/lastmile_qr_scan"}, "name": "3e0cd907ee25d5772e2bccea4b898b05", "is_reserved": 0}, {"is_disabled": 0, "fusion_lon": 0.0, "fusion_lat": 0.0, "lat": 38.9050765, "type": "electric_scooter", "lon": -76.98239616666666, "bike_id": "1de0179dac288c35290af6c46d63168e", "rental_uris": {"android": "https://dc.lft.to/lastmile_qr_scan", "ios": "https://dc.lft.to/lastmile_qr_scan"}, "name": "1de0179dac288c35290af6c46d63168e", "is_reserved": 0}, {"is_disabled": 0, "fusion_lon": 0.0, "fusion_lat": 0.0, "lat": 38.89529866666667, "type": "electric_scooter", "lon": -77.03353083333333, "bike_id": "11b4895f226ee75379393271b174db1d", "rental_uris": {"android": "https://dc.lft.to/lastmile_qr_scan", "ios": "https://dc.lft.to/lastmile_qr_scan"}, "name": "11b4895f226ee75379393271b174db1d", "is_reserved": 0}, {"is_disabled": 0, "fusion_lon": 0.0, "fusion_lat": 0.0, "lat": 38.917506333333336, "type": "electric_scooter", "lon": -77.03199133333334, "bike_id": "cdadc614a5bee7ff8752c9bb1c099ae5", "rental_uris": {"android": "https://dc.lft.to/lastmile_qr_scan", "ios": "https://dc.lft.to/lastmile_qr_scan"}, "name": "cdadc614a5bee7ff8752c9bb1c099ae5", "is_reserved": 0}, {"is_disabled": 0, "fusion_lon": 0.0, "fusion_lat": 0.0, "lat": 38.89392516666667, "type": "electric_scooter", "lon": -76.9500495, "bike_id": "95a822f4868f6221655ed41a6fa124c2", "rental_uris": {"android": "https://dc.lft.to/lastmile_qr_scan", "ios": "https://dc.lft.to/lastmile_qr_scan"}, "name": "95a822f4868f6221655ed41a6fa124c2", "is_reserved": 0}, {"is_disabled": 0, "fusion_lon": 0.0, "fusion_lat": 0.0, "lat": 38.895901333333335, "type": "electric_scooter", "lon": -77.0092695, "bike_id": "fa1f5d19fa42d0cdc85dca10cd945cc1", "rental_uris": {"android": "https://dc.lft.to/lastmile_qr_scan", "ios": "https://dc.lft.to/lastmile_qr_scan"}, "name": "fa1f5d19fa42d0cdc85dca10cd945cc1", "is_reserved": 0}, {"is_disabled": 0, "fusion_lon": 0.0, "fusion_lat": 0.0, "lat": 38.889622333333335, "type": "electric_scooter", "lon": -76.99139116666667, "bike_id": "2388f5e9e0ab3a7cb0e6681cebaab6e2", "rental_uris": {"android": "https://dc.lft.to/lastmile_qr_scan", "ios": "https://dc.lft.to/lastmile_qr_scan"}, "name": "2388f5e9e0ab3a7cb0e6681cebaab6e2", "is_reserved": 0}, {"is_disabled": 0, "fusion_lon": 0.0, "fusion_lat": 0.0, "lat": 38.910312166666664, "type": "electric_scooter", "lon": -77.03801933333334, "bike_id": "70260624052effcf74f6a1e7cc79b187", "rental_uris": {"android": "https://dc.lft.to/lastmile_qr_scan", "ios": "https://dc.lft.to/lastmile_qr_scan"}, "name": "70260624052effcf74f6a1e7cc79b187", "is_reserved": 0}, {"is_disabled": 0, "fusion_lon": 0.0, "fusion_lat": 0.0, "lat": 38.9283845, "type": "electric_scooter", "lon": -77.05547516666667, "bike_id": "4556c54abb3bee93203ba7c74b4a3ec0", "rental_uris": {"android": "https://dc.lft.to/lastmile_qr_scan", "ios": "https://dc.lft.to/lastmile_qr_scan"}, "name": "4556c54abb3bee93203ba7c74b4a3ec0", "is_reserved": 0}, {"is_disabled": 0, "fusion_lon": 0.0, "fusion_lat": 0.0, "lat": 38.88851716666667, "type": "electric_bike", "lon": -76.97703716666666, "bike_id": "77586b495fa606db20ebd2528a56c015", "rental_uris": {"android": "https://dc.lft.to/lastmile_qr_scan", "ios": "https://dc.lft.to/lastmile_qr_scan"}, "name": "77586b495fa606db20ebd2528a56c015", "is_reserved": 0}, {"is_disabled": 0, "fusion_lon": 0.0, "fusion_lat": 0.0, "lat": 38.897279833333336, "type": "electric_scooter", "lon": -77.04722883333334, "bike_id": "705770c80a1341eefc00f4209a0394df", "rental_uris": {"android": "https://dc.lft.to/lastmile_qr_scan", "ios": "https://dc.lft.to/lastmile_qr_scan"}, "name": "705770c80a1341eefc00f4209a0394df", "is_reserved": 0}, {"is_disabled": 0, "fusion_lon": 0.0, "fusion_lat": 0.0, "lat": 39.05461533333333, "type": "electric_bike", "lon": -77.14327383333334, "bike_id": "f5791627ab25370c4d8cf470d91c81d6", "rental_uris": {"android": "https://dc.lft.to/lastmile_qr_scan", "ios": "https://dc.lft.to/lastmile_qr_scan"}, "name": "f5791627ab25370c4d8cf470d91c81d6", "is_reserved": 0}, {"is_disabled": 0, "fusion_lon": 0.0, "fusion_lat": 0.0, "lat": 38.9085575, "type": "electric_scooter", "lon": -77.05507816666666, "bike_id": "3081636ee671637d5ffca6534dae79e3", "rental_uris": {"android": "https://dc.lft.to/lastmile_qr_scan", "ios": "https://dc.lft.to/lastmile_qr_scan"}, "name": "3081636ee671637d5ffca6534dae79e3", "is_reserved": 0}, {"is_disabled": 0, "fusion_lon": 0.0, "fusion_lat": 0.0, "lat": 38.77619133333334, "type": "electric_bike", "lon": -77.0835035, "bike_id": "875090472a4b4b7bc4acc46278040386", "rental_uris": {"android": "https://dc.lft.to/lastmile_qr_scan", "ios": "https://dc.lft.to/lastmile_qr_scan"}, "name": "875090472a4b4b7bc4acc46278040386", "is_reserved": 0}, {"is_disabled": 0, "fusion_lon": 0.0, "fusion_lat": 0.0, "lat": 38.88744716666667, "type": "electric_scooter", "lon": -77.01432033333333, "bike_id": "c01a7bb1dc1c463b7822817707835125", "rental_uris": {"android": "https://dc.lft.to/lastmile_qr_scan", "ios": "https://dc.lft.to/lastmile_qr_scan"}, "name": "c01a7bb1dc1c463b7822817707835125", "is_reserved": 0}, {"is_disabled": 0, "fusion_lon": 0.0, "fusion_lat": 0.0, "lat": 38.947841833333335, "type": "electric_bike", "lon": -77.08063316666667, "bike_id": "08e3d7c6c22febfc407c72b7ee81e2e2", "rental_uris": {"android": "https://dc.lft.to/lastmile_qr_scan", "ios": "https://dc.lft.to/lastmile_qr_scan"}, "name": "08e3d7c6c22febfc407c72b7ee81e2e2", "is_reserved": 0}, {"is_disabled": 0, "fusion_lon": 0.0, "fusion_lat": 0.0, "lat": 38.904444, "type": "electric_scooter", "lon": -77.02281233333333, "bike_id": "ba7326779df33c0eb35c4379be62d089", "rental_uris": {"android": "https://dc.lft.to/lastmile_qr_scan", "ios": "https://dc.lft.to/lastmile_qr_scan"}, "name": "ba7326779df33c0eb35c4379be62d089", "is_reserved": 0}, {"is_disabled": 0, "fusion_lon": 0.0, "fusion_lat": 0.0, "lat": 38.8958355, "type": "electric_scooter", "lon": -77.02663033333333, "bike_id": "4800f163460b1d09bf33bf8e1043b0d2", "rental_uris": {"android": "https://dc.lft.to/lastmile_qr_scan", "ios": "https://dc.lft.to/lastmile_qr_scan"}, "name": "4800f163460b1d09bf33bf8e1043b0d2", "is_reserved": 0}, {"is_disabled": 0, "fusion_lon": 0.0, "fusion_lat": 0.0, "lat": 38.94286666666667, "type": "electric_bike", "lon": -77.0692255, "bike_id": "532fe4593d39ed3c0305b0796e92d38f", "rental_uris": {"android": "https://dc.lft.to/lastmile_qr_scan", "ios": "https://dc.lft.to/lastmile_qr_scan"}, "name": "532fe4593d39ed3c0305b0796e92d38f", "is_reserved": 0}, {"is_disabled": 0, "fusion_lon": 0.0, "fusion_lat": 0.0, "lat": 38.91727, "type": "electric_scooter", "lon": -77.0050915, "bike_id": "b1adad6cefaf5f8246d9366d6b7972b4", "rental_uris": {"android": "https://dc.lft.to/lastmile_qr_scan", "ios": "https://dc.lft.to/lastmile_qr_scan"}, "name": "b1adad6cefaf5f8246d9366d6b7972b4", "is_reserved": 0}, {"is_disabled": 0, "fusion_lon": 0.0, "fusion_lat": 0.0, "lat": 38.933630666666666, "type": "electric_scooter", "lon": -77.02397283333333, "bike_id": "405b514d1b03b3fa47d1cd5964016ae9", "rental_uris": {"android": "https://dc.lft.to/lastmile_qr_scan", "ios": "https://dc.lft.to/lastmile_qr_scan"}, "name": "405b514d1b03b3fa47d1cd5964016ae9", "is_reserved": 0}, {"is_disabled": 0, "fusion_lon": 0.0, "fusion_lat": 0.0, "lat": 38.89521666666667, "type": "electric_scooter", "lon": -76.97712616666666, "bike_id": "1c473abd69e24a67474859bb2d58f454", "rental_uris": {"android": "https://dc.lft.to/lastmile_qr_scan", "ios": "https://dc.lft.to/lastmile_qr_scan"}, "name": "1c473abd69e24a67474859bb2d58f454", "is_reserved": 0}, {"is_disabled": 0, "fusion_lon": 0.0, "fusion_lat": 0.0, "lat": 38.9396945, "type": "electric_scooter", "lon": -77.03264833333333, "bike_id": "61ac791cd4e355f01a20c368fa3758d6", "rental_uris": {"android": "https://dc.lft.to/lastmile_qr_scan", "ios": "https://dc.lft.to/lastmile_qr_scan"}, "name": "61ac791cd4e355f01a20c368fa3758d6", "is_reserved": 0}, {"is_disabled": 0, "fusion_lon": 0.0, "fusion_lat": 0.0, "lat": 38.866952833333336, "type": "electric_scooter", "lon": -76.98708583333334, "bike_id": "2b5276e5a2c1ed0201f62a597e534f0a", "rental_uris": {"android": "https://dc.lft.to/lastmile_qr_scan", "ios": "https://dc.lft.to/lastmile_qr_scan"}, "name": "2b5276e5a2c1ed0201f62a597e534f0a", "is_reserved": 0}, {"is_disabled": 0, "fusion_lon": 0.0, "fusion_lat": 0.0, "lat": 38.91988333333333, "type": "electric_scooter", "lon": -77.0318565, "bike_id": "935696ece1438b74e9cca87a31728941", "rental_uris": {"android": "https://dc.lft.to/lastmile_qr_scan", "ios": "https://dc.lft.to/lastmile_qr_scan"}, "name": "935696ece1438b74e9cca87a31728941", "is_reserved": 0}, {"is_disabled": 0, "fusion_lon": 0.0, "fusion_lat": 0.0, "lat": 38.9065465, "type": "electric_scooter", "lon": -77.04544316666667, "bike_id": "bb66fd1166756ae5ae31f6523065d0e1", "rental_uris": {"android": "https://dc.lft.to/lastmile_qr_scan", "ios": "https://dc.lft.to/lastmile_qr_scan"}, "name": "bb66fd1166756ae5ae31f6523065d0e1", "is_reserved": 0}, {"is_disabled": 0, "fusion_lon": 0.0, "fusion_lat": 0.0, "lat": 39.007826333333334, "type": "electric_bike", "lon": -76.9956865, "bike_id": "9b4c2bf4f7da74820c3f014329e7073f", "rental_uris": {"android": "https://dc.lft.to/lastmile_qr_scan", "ios": "https://dc.lft.to/lastmile_qr_scan"}, "name": "9b4c2bf4f7da74820c3f014329e7073f", "is_reserved": 0}, {"is_disabled": 0, "fusion_lon": 0.0, "fusion_lat": 0.0, "lat": 38.93240383333333, "type": "electric_scooter", "lon": -77.02851483333333, "bike_id": "591803fa146b32b8e317b5f0c19497fa", "rental_uris": {"android": "https://dc.lft.to/lastmile_qr_scan", "ios": "https://dc.lft.to/lastmile_qr_scan"}, "name": "591803fa146b32b8e317b5f0c19497fa", "is_reserved": 0}, {"is_disabled": 0, "fusion_lon": 0.0, "fusion_lat": 0.0, "lat": 38.9124515, "type": "electric_scooter", "lon": -77.03748383333334, "bike_id": "5d61fbe10fad70a4392e86c2eeff7821", "rental_uris": {"android": "https://dc.lft.to/lastmile_qr_scan", "ios": "https://dc.lft.to/lastmile_qr_scan"}, "name": "5d61fbe10fad70a4392e86c2eeff7821", "is_reserved": 0}, {"is_disabled": 0, "fusion_lon": 0.0, "fusion_lat": 0.0, "lat": 38.93855, "type": "electric_scooter", "lon": -77.024765, "bike_id": "ea3d83d30185c88ad41226f1f1fb7e7d", "rental_uris": {"android": "https://dc.lft.to/lastmile_qr_scan", "ios": "https://dc.lft.to/lastmile_qr_scan"}, "name": "ea3d83d30185c88ad41226f1f1fb7e7d", "is_reserved": 0}, {"is_disabled": 0, "fusion_lon": 0.0, "fusion_lat": 0.0, "lat": 38.907119333333334, "type": "electric_scooter", "lon": -77.02408383333334, "bike_id": "5d902a5ce4682ae7e42e04c990e165a4", "rental_uris": {"android": "https://dc.lft.to/lastmile_qr_scan", "ios": "https://dc.lft.to/lastmile_qr_scan"}, "name": "5d902a5ce4682ae7e42e04c990e165a4", "is_reserved": 0}, {"is_disabled": 0, "fusion_lon": 0.0, "fusion_lat": 0.0, "lat": 38.91265033333333, "type": "electric_scooter", "lon": -77.0315355, "bike_id": "6c12b10efd0be85cd6dd40ad89634ff6", "rental_uris": {"android": "https://dc.lft.to/lastmile_qr_scan", "ios": "https://dc.lft.to/lastmile_qr_scan"}, "name": "6c12b10efd0be85cd6dd40ad89634ff6", "is_reserved": 0}, {"is_disabled": 0, "fusion_lon": 0.0, "fusion_lat": 0.0, "lat": 38.931762666666664, "type": "electric_scooter", "lon": -77.028191, "bike_id": "b71668b2c7209e08797a4f8e2a707295", "rental_uris": {"android": "https://dc.lft.to/lastmile_qr_scan", "ios": "https://dc.lft.to/lastmile_qr_scan"}, "name": "b71668b2c7209e08797a4f8e2a707295", "is_reserved": 0}, {"is_disabled": 0, "fusion_lon": 0.0, "fusion_lat": 0.0, "lat": 38.911172666666666, "type": "electric_scooter", "lon": -77.03716566666667, "bike_id": "a2a2f9d9f0545f35467e9c7e1d8fce45", "rental_uris": {"android": "https://dc.lft.to/lastmile_qr_scan", "ios": "https://dc.lft.to/lastmile_qr_scan"}, "name": "a2a2f9d9f0545f35467e9c7e1d8fce45", "is_reserved": 0}, {"is_disabled": 0, "fusion_lon": 0.0, "fusion_lat": 0.0, "lat": 38.908666333333336, "type": "electric_scooter", "lon": -77.02345633333333, "bike_id": "c064a4c71ae3eeb34a9af711c9630f2d", "rental_uris": {"android": "https://dc.lft.to/lastmile_qr_scan", "ios": "https://dc.lft.to/lastmile_qr_scan"}, "name": "c064a4c71ae3eeb34a9af711c9630f2d", "is_reserved": 0}, {"is_disabled": 0, "fusion_lon": 0.0, "fusion_lat": 0.0, "lat": 38.884997166666665, "type": "electric_scooter", "lon": -77.02501433333333, "bike_id": "12604021b735b6170b6d5f14c1e420f5", "rental_uris": {"android": "https://dc.lft.to/lastmile_qr_scan", "ios": "https://dc.lft.to/lastmile_qr_scan"}, "name": "12604021b735b6170b6d5f14c1e420f5", "is_reserved": 0}, {"is_disabled": 0, "fusion_lon": 0.0, "fusion_lat": 0.0, "lat": 38.932263166666665, "type": "electric_scooter", "lon": -76.99932916666667, "bike_id": "d2277c9515b2027594ce6c8cc619a284", "rental_uris": {"android": "https://dc.lft.to/lastmile_qr_scan", "ios": "https://dc.lft.to/lastmile_qr_scan"}, "name": "d2277c9515b2027594ce6c8cc619a284", "is_reserved": 0}, {"is_disabled": 0, "fusion_lon": 0.0, "fusion_lat": 0.0, "lat": 38.89734033333333, "type": "electric_scooter", "lon": -77.04992116666666, "bike_id": "716170bad7b6f43d9f0027dc7bb27336", "rental_uris": {"android": "https://dc.lft.to/lastmile_qr_scan", "ios": "https://dc.lft.to/lastmile_qr_scan"}, "name": "716170bad7b6f43d9f0027dc7bb27336", "is_reserved": 0}, {"is_disabled": 0, "fusion_lon": 0.0, "fusion_lat": 0.0, "lat": 38.908415, "type": "electric_scooter", "lon": -77.04893483333333, "bike_id": "526d3156da1262cecaf88fba6c65b2f9", "rental_uris": {"android": "https://dc.lft.to/lastmile_qr_scan", "ios": "https://dc.lft.to/lastmile_qr_scan"}, "name": "526d3156da1262cecaf88fba6c65b2f9", "is_reserved": 0}, {"is_disabled": 0, "fusion_lon": 0.0, "fusion_lat": 0.0, "lat": 38.96646583333333, "type": "electric_bike", "lon": -76.93020533333333, "bike_id": "affe9aac327735f47877d5701b46a31a", "rental_uris": {"android": "https://dc.lft.to/lastmile_qr_scan", "ios": "https://dc.lft.to/lastmile_qr_scan"}, "name": "affe9aac327735f47877d5701b46a31a", "is_reserved": 0}, {"is_disabled": 0, "fusion_lon": 0.0, "fusion_lat": 0.0, "lat": 38.92955666666667, "type": "electric_scooter", "lon": -77.0552495, "bike_id": "a9b9f76929e47567993a606f3996ec67", "rental_uris": {"android": "https://dc.lft.to/lastmile_qr_scan", "ios": "https://dc.lft.to/lastmile_qr_scan"}, "name": "a9b9f76929e47567993a606f3996ec67", "is_reserved": 0}, {"is_disabled": 0, "fusion_lon": 0.0, "fusion_lat": 0.0, "lat": 38.85832666666667, "type": "electric_bike", "lon": -76.992822, "bike_id": "026dea682815f7712de400aed5036b09", "rental_uris": {"android": "https://dc.lft.to/lastmile_qr_scan", "ios": "https://dc.lft.to/lastmile_qr_scan"}, "name": "026dea682815f7712de400aed5036b09", "is_reserved": 0}, {"is_disabled": 0, "fusion_lon": 0.0, "fusion_lat": 0.0, "lat": 38.915564, "type": "electric_scooter", "lon": -77.031483, "bike_id": "78d2ae4ce479fd4f00ef9b372409aaa7", "rental_uris": {"android": "https://dc.lft.to/lastmile_qr_scan", "ios": "https://dc.lft.to/lastmile_qr_scan"}, "name": "78d2ae4ce479fd4f00ef9b372409aaa7", "is_reserved": 0}, {"is_disabled": 0, "fusion_lon": 0.0, "fusion_lat": 0.0, "lat": 38.93873716666667, "type": "electric_scooter", "lon": -77.0325835, "bike_id": "54876a7d4ac59456141c6d2e4acc9481", "rental_uris": {"android": "https://dc.lft.to/lastmile_qr_scan", "ios": "https://dc.lft.to/lastmile_qr_scan"}, "name": "54876a7d4ac59456141c6d2e4acc9481", "is_reserved": 0}, {"is_disabled": 0, "fusion_lon": 0.0, "fusion_lat": 0.0, "lat": 38.9539585, "type": "electric_scooter", "lon": -77.02753966666667, "bike_id": "2541b7dc9062460aa1400ebc4c562e0d", "rental_uris": {"android": "https://dc.lft.to/lastmile_qr_scan", "ios": "https://dc.lft.to/lastmile_qr_scan"}, "name": "2541b7dc9062460aa1400ebc4c562e0d", "is_reserved": 0}, {"is_disabled": 0, "fusion_lon": 0.0, "fusion_lat": 0.0, "lat": 38.92896183333333, "type": "electric_scooter", "lon": -77.03244716666667, "bike_id": "2197c8eb464edeecfa8fd0a00fac62e2", "rental_uris": {"android": "https://dc.lft.to/lastmile_qr_scan", "ios": "https://dc.lft.to/lastmile_qr_scan"}, "name": "2197c8eb464edeecfa8fd0a00fac62e2", "is_reserved": 0}, {"is_disabled": 0, "fusion_lon": 0.0, "fusion_lat": 0.0, "lat": 38.9078975, "type": "electric_scooter", "lon": -77.0295475, "bike_id": "b2d898e9a1e25f193090887ee0c52de0", "rental_uris": {"android": "https://dc.lft.to/lastmile_qr_scan", "ios": "https://dc.lft.to/lastmile_qr_scan"}, "name": "b2d898e9a1e25f193090887ee0c52de0", "is_reserved": 0}, {"is_disabled": 0, "fusion_lon": 0.0, "fusion_lat": 0.0, "lat": 38.88000866666667, "type": "electric_bike", "lon": -76.91599216666667, "bike_id": "64a88cc04142d69d16043403ca4b120c", "rental_uris": {"android": "https://dc.lft.to/lastmile_qr_scan", "ios": "https://dc.lft.to/lastmile_qr_scan"}, "name": "64a88cc04142d69d16043403ca4b120c", "is_reserved": 0}, {"is_disabled": 0, "fusion_lon": 0.0, "fusion_lat": 0.0, "lat": 38.87706983333333, "type": "electric_scooter", "lon": -77.01753283333333, "bike_id": "7d6f742ff0d3fb982255176bd97dbe99", "rental_uris": {"android": "https://dc.lft.to/lastmile_qr_scan", "ios": "https://dc.lft.to/lastmile_qr_scan"}, "name": "7d6f742ff0d3fb982255176bd97dbe99", "is_reserved": 0}, {"is_disabled": 0, "fusion_lon": 0.0, "fusion_lat": 0.0, "lat": 38.904414833333334, "type": "electric_scooter", "lon": -77.06114533333333, "bike_id": "201bc2b80002acc225211a97e086289c", "rental_uris": {"android": "https://dc.lft.to/lastmile_qr_scan", "ios": "https://dc.lft.to/lastmile_qr_scan"}, "name": "201bc2b80002acc225211a97e086289c", "is_reserved": 0}, {"is_disabled": 0, "fusion_lon": 0.0, "fusion_lat": 0.0, "lat": 38.892405333333336, "type": "electric_scooter", "lon": -77.050353, "bike_id": "e6146dbd1e88fb7763adbe1519a370f6", "rental_uris": {"android": "https://dc.lft.to/lastmile_qr_scan", "ios": "https://dc.lft.to/lastmile_qr_scan"}, "name": "e6146dbd1e88fb7763adbe1519a370f6", "is_reserved": 0}, {"is_disabled": 0, "fusion_lon": 0.0, "fusion_lat": 0.0, "lat": 38.923890666666665, "type": "electric_scooter", "lon": -77.0406455, "bike_id": "fbe93a6fdce8639eeb86e2327eb4a2aa", "rental_uris": {"android": "https://dc.lft.to/lastmile_qr_scan", "ios": "https://dc.lft.to/lastmile_qr_scan"}, "name": "fbe93a6fdce8639eeb86e2327eb4a2aa", "is_reserved": 0}, {"is_disabled": 0, "fusion_lon": 0.0, "fusion_lat": 0.0, "lat": 38.9561705, "type": "electric_scooter", "lon": -77.0327995, "bike_id": "30db42305b279940a73fb6b9d61b5cf9", "rental_uris": {"android": "https://dc.lft.to/lastmile_qr_scan", "ios": "https://dc.lft.to/lastmile_qr_scan"}, "name": "30db42305b279940a73fb6b9d61b5cf9", "is_reserved": 0}, {"is_disabled": 0, "fusion_lon": 0.0, "fusion_lat": 0.0, "lat": 38.91774933333333, "type": "electric_scooter", "lon": -77.03453166666667, "bike_id": "3eeb022f8548f50a8fbff8b3317bfedd", "rental_uris": {"android": "https://dc.lft.to/lastmile_qr_scan", "ios": "https://dc.lft.to/lastmile_qr_scan"}, "name": "3eeb022f8548f50a8fbff8b3317bfedd", "is_reserved": 0}, {"is_disabled": 0, "fusion_lon": 0.0, "fusion_lat": 0.0, "lat": 38.88746883333334, "type": "electric_scooter", "lon": -77.02573716666667, "bike_id": "48b97dbee74ffdec30a3881d70f395e7", "rental_uris": {"android": "https://dc.lft.to/lastmile_qr_scan", "ios": "https://dc.lft.to/lastmile_qr_scan"}, "name": "48b97dbee74ffdec30a3881d70f395e7", "is_reserved": 0}, {"is_disabled": 0, "fusion_lon": 0.0, "fusion_lat": 0.0, "lat": 38.92249116666667, "type": "electric_scooter", "lon": -77.03084683333333, "bike_id": "61cc9108c08f8eebd21fe4e94489874b", "rental_uris": {"android": "https://dc.lft.to/lastmile_qr_scan", "ios": "https://dc.lft.to/lastmile_qr_scan"}, "name": "61cc9108c08f8eebd21fe4e94489874b", "is_reserved": 0}, {"is_disabled": 0, "fusion_lon": 0.0, "fusion_lat": 0.0, "lat": 38.915183166666665, "type": "electric_scooter", "lon": -77.019803, "bike_id": "8668e4242350cf593920925090190333", "rental_uris": {"android": "https://dc.lft.to/lastmile_qr_scan", "ios": "https://dc.lft.to/lastmile_qr_scan"}, "name": "8668e4242350cf593920925090190333", "is_reserved": 0}, {"is_disabled": 0, "fusion_lon": 0.0, "fusion_lat": 0.0, "lat": 38.910364333333334, "type": "electric_scooter", "lon": -77.043516, "bike_id": "89212cfcc9f6864457a79038fe63b400", "rental_uris": {"android": "https://dc.lft.to/lastmile_qr_scan", "ios": "https://dc.lft.to/lastmile_qr_scan"}, "name": "89212cfcc9f6864457a79038fe63b400", "is_reserved": 0}, {"is_disabled": 0, "fusion_lon": 0.0, "fusion_lat": 0.0, "lat": 38.907676, "type": "electric_scooter", "lon": -77.03190783333334, "bike_id": "22b71572d2232eb32dd3ea34305e1947", "rental_uris": {"android": "https://dc.lft.to/lastmile_qr_scan", "ios": "https://dc.lft.to/lastmile_qr_scan"}, "name": "22b71572d2232eb32dd3ea34305e1947", "is_reserved": 0}, {"is_disabled": 0, "fusion_lon": 0.0, "fusion_lat": 0.0, "lat": 38.90097516666667, "type": "electric_scooter", "lon": -77.01965066666666, "bike_id": "c3cfc044857045de3796a4cfbadfb50f", "rental_uris": {"android": "https://dc.lft.to/lastmile_qr_scan", "ios": "https://dc.lft.to/lastmile_qr_scan"}, "name": "c3cfc044857045de3796a4cfbadfb50f", "is_reserved": 0}, {"is_disabled": 0, "fusion_lon": 0.0, "fusion_lat": 0.0, "lat": 38.920002, "type": "electric_scooter", "lon": -77.03279116666667, "bike_id": "00c229d24c9623c666d5e96a49942b63", "rental_uris": {"android": "https://dc.lft.to/lastmile_qr_scan", "ios": "https://dc.lft.to/lastmile_qr_scan"}, "name": "00c229d24c9623c666d5e96a49942b63", "is_reserved": 0}, {"is_disabled": 0, "fusion_lon": 0.0, "fusion_lat": 0.0, "lat": 38.93602466666667, "type": "electric_scooter", "lon": -77.0366095, "bike_id": "0a6bb59d3edc2d2721e049630d00416b", "rental_uris": {"android": "https://dc.lft.to/lastmile_qr_scan", "ios": "https://dc.lft.to/lastmile_qr_scan"}, "name": "0a6bb59d3edc2d2721e049630d00416b", "is_reserved": 0}, {"is_disabled": 0, "fusion_lon": 0.0, "fusion_lat": 0.0, "lat": 38.941984, "type": "electric_scooter", "lon": -77.02411616666667, "bike_id": "e8d114adcb759b9dd0894ecf1db4eba6", "rental_uris": {"android": "https://dc.lft.to/lastmile_qr_scan", "ios": "https://dc.lft.to/lastmile_qr_scan"}, "name": "e8d114adcb759b9dd0894ecf1db4eba6", "is_reserved": 0}, {"is_disabled": 0, "fusion_lon": 0.0, "fusion_lat": 0.0, "lat": 38.905489, "type": "electric_scooter", "lon": -77.007231, "bike_id": "a8df43b0652ddb8a7e26daa1d585edfd", "rental_uris": {"android": "https://dc.lft.to/lastmile_qr_scan", "ios": "https://dc.lft.to/lastmile_qr_scan"}, "name": "a8df43b0652ddb8a7e26daa1d585edfd", "is_reserved": 0}, {"is_disabled": 0, "fusion_lon": 0.0, "fusion_lat": 0.0, "lat": 38.934914, "type": "electric_scooter", "lon": -77.02608333333333, "bike_id": "ec4f34f3f6c54d25b898aff5e02d14c6", "rental_uris": {"android": "https://dc.lft.to/lastmile_qr_scan", "ios": "https://dc.lft.to/lastmile_qr_scan"}, "name": "ec4f34f3f6c54d25b898aff5e02d14c6", "is_reserved": 0}, {"is_disabled": 0, "fusion_lon": 0.0, "fusion_lat": 0.0, "lat": 38.9064445, "type": "electric_scooter", "lon": -77.04339783333333, "bike_id": "d74c42f770d8b5271038157ee94d258f", "rental_uris": {"android": "https://dc.lft.to/lastmile_qr_scan", "ios": "https://dc.lft.to/lastmile_qr_scan"}, "name": "d74c42f770d8b5271038157ee94d258f", "is_reserved": 0}, {"is_disabled": 0, "fusion_lon": 0.0, "fusion_lat": 0.0, "lat": 38.86695616666667, "type": "electric_scooter", "lon": -76.987111, "bike_id": "45cfcb3aca08262e4aa6216b892393e1", "rental_uris": {"android": "https://dc.lft.to/lastmile_qr_scan", "ios": "https://dc.lft.to/lastmile_qr_scan"}, "name": "45cfcb3aca08262e4aa6216b892393e1", "is_reserved": 0}, {"is_disabled": 0, "fusion_lon": 0.0, "fusion_lat": 0.0, "lat": 38.91718216666666, "type": "electric_scooter", "lon": -77.03436883333333, "bike_id": "6cea4d02eebbb3b87d7063356571b40a", "rental_uris": {"android": "https://dc.lft.to/lastmile_qr_scan", "ios": "https://dc.lft.to/lastmile_qr_scan"}, "name": "6cea4d02eebbb3b87d7063356571b40a", "is_reserved": 0}, {"is_disabled": 0, "fusion_lon": 0.0, "fusion_lat": 0.0, "lat": 38.92614833333333, "type": "electric_scooter", "lon": -77.03693183333333, "bike_id": "a5c6773e5681f909e7cd5c3e6e5d9502", "rental_uris": {"android": "https://dc.lft.to/lastmile_qr_scan", "ios": "https://dc.lft.to/lastmile_qr_scan"}, "name": "a5c6773e5681f909e7cd5c3e6e5d9502", "is_reserved": 0}, {"is_disabled": 0, "fusion_lon": 0.0, "fusion_lat": 0.0, "lat": 38.9128365, "type": "electric_scooter", "lon": -77.03856966666666, "bike_id": "4ce160ae06c2811fb00c16898f11fa97", "rental_uris": {"android": "https://dc.lft.to/lastmile_qr_scan", "ios": "https://dc.lft.to/lastmile_qr_scan"}, "name": "4ce160ae06c2811fb00c16898f11fa97", "is_reserved": 0}, {"is_disabled": 0, "fusion_lon": 0.0, "fusion_lat": 0.0, "lat": 38.89833133333333, "type": "electric_scooter", "lon": -76.94636316666667, "bike_id": "ffacba97e77437dba3b2365498580754", "rental_uris": {"android": "https://dc.lft.to/lastmile_qr_scan", "ios": "https://dc.lft.to/lastmile_qr_scan"}, "name": "ffacba97e77437dba3b2365498580754", "is_reserved": 0}, {"is_disabled": 0, "fusion_lon": 0.0, "fusion_lat": 0.0, "lat": 38.91072616666666, "type": "electric_scooter", "lon": -77.02091133333333, "bike_id": "e54b9516a54c2187acd0f5a2e9ebd9ca", "rental_uris": {"android": "https://dc.lft.to/lastmile_qr_scan", "ios": "https://dc.lft.to/lastmile_qr_scan"}, "name": "e54b9516a54c2187acd0f5a2e9ebd9ca", "is_reserved": 0}, {"is_disabled": 0, "fusion_lon": 0.0, "fusion_lat": 0.0, "lat": 38.985926666666664, "type": "electric_bike", "lon": -77.03750516666666, "bike_id": "5afe745d9e76fc04fccea63cd46632db", "rental_uris": {"android": "https://dc.lft.to/lastmile_qr_scan", "ios": "https://dc.lft.to/lastmile_qr_scan"}, "name": "5afe745d9e76fc04fccea63cd46632db", "is_reserved": 0}, {"is_disabled": 0, "fusion_lon": 0.0, "fusion_lat": 0.0, "lat": 38.9311455, "type": "electric_scooter", "lon": -77.03028383333333, "bike_id": "d0d75c67e1b5ac32748bfe10c7bd8c0d", "rental_uris": {"android": "https://dc.lft.to/lastmile_qr_scan", "ios": "https://dc.lft.to/lastmile_qr_scan"}, "name": "d0d75c67e1b5ac32748bfe10c7bd8c0d", "is_reserved": 0}, {"is_disabled": 0, "fusion_lon": 0.0, "fusion_lat": 0.0, "lat": 38.941078, "type": "electric_scooter", "lon": -77.06136933333333, "bike_id": "ce2c843f4ea97a7557f9882e4867939a", "rental_uris": {"android": "https://dc.lft.to/lastmile_qr_scan", "ios": "https://dc.lft.to/lastmile_qr_scan"}, "name": "ce2c843f4ea97a7557f9882e4867939a", "is_reserved": 0}, {"is_disabled": 0, "fusion_lon": 0.0, "fusion_lat": 0.0, "lat": 38.9214105, "type": "electric_scooter", "lon": -77.0217945, "bike_id": "07ea9b123574d44eae3fda1ed7b88252", "rental_uris": {"android": "https://dc.lft.to/lastmile_qr_scan", "ios": "https://dc.lft.to/lastmile_qr_scan"}, "name": "07ea9b123574d44eae3fda1ed7b88252", "is_reserved": 0}, {"is_disabled": 0, "fusion_lon": 0.0, "fusion_lat": 0.0, "lat": 39.000145, "type": "electric_bike", "lon": -76.87283716666667, "bike_id": "31032fcdacbe9df4bf4b0b927a21bf71", "rental_uris": {"android": "https://dc.lft.to/lastmile_qr_scan", "ios": "https://dc.lft.to/lastmile_qr_scan"}, "name": "31032fcdacbe9df4bf4b0b927a21bf71", "is_reserved": 0}, {"is_disabled": 0, "fusion_lon": 0.0, "fusion_lat": 0.0, "lat": 38.918209833333336, "type": "electric_scooter", "lon": -77.04009683333334, "bike_id": "dc0934cf00be73dbfd2400873bd466ff", "rental_uris": {"android": "https://dc.lft.to/lastmile_qr_scan", "ios": "https://dc.lft.to/lastmile_qr_scan"}, "name": "dc0934cf00be73dbfd2400873bd466ff", "is_reserved": 0}, {"is_disabled": 0, "fusion_lon": 0.0, "fusion_lat": 0.0, "lat": 38.925503666666664, "type": "electric_scooter", "lon": -77.0529115, "bike_id": "0ca7bc22d214d4fda097fd0d9752214e", "rental_uris": {"android": "https://dc.lft.to/lastmile_qr_scan", "ios": "https://dc.lft.to/lastmile_qr_scan"}, "name": "0ca7bc22d214d4fda097fd0d9752214e", "is_reserved": 0}, {"is_disabled": 0, "fusion_lon": 0.0, "fusion_lat": 0.0, "lat": 38.917132333333335, "type": "electric_scooter", "lon": -77.0284545, "bike_id": "8a82fd11fd71d5fcddf8404d982586ae", "rental_uris": {"android": "https://dc.lft.to/lastmile_qr_scan", "ios": "https://dc.lft.to/lastmile_qr_scan"}, "name": "8a82fd11fd71d5fcddf8404d982586ae", "is_reserved": 0}, {"is_disabled": 0, "fusion_lon": 0.0, "fusion_lat": 0.0, "lat": 38.828725166666665, "type": "electric_bike", "lon": -77.11221066666667, "bike_id": "841c12508a4636af5d46ea0d9c2add0b", "rental_uris": {"android": "https://dc.lft.to/lastmile_qr_scan", "ios": "https://dc.lft.to/lastmile_qr_scan"}, "name": "841c12508a4636af5d46ea0d9c2add0b", "is_reserved": 0}, {"is_disabled": 0, "fusion_lon": 0.0, "fusion_lat": 0.0, "lat": 38.915653166666665, "type": "electric_scooter", "lon": -77.03232916666667, "bike_id": "7b925b358ef635bd043add6f6a428cf3", "rental_uris": {"android": "https://dc.lft.to/lastmile_qr_scan", "ios": "https://dc.lft.to/lastmile_qr_scan"}, "name": "7b925b358ef635bd043add6f6a428cf3", "is_reserved": 0}, {"is_disabled": 0, "fusion_lon": 0.0, "fusion_lat": 0.0, "lat": 38.902420166666666, "type": "electric_scooter", "lon": -77.06087683333334, "bike_id": "f3478523be15c083c2b7a5b7d3782f60", "rental_uris": {"android": "https://dc.lft.to/lastmile_qr_scan", "ios": "https://dc.lft.to/lastmile_qr_scan"}, "name": "f3478523be15c083c2b7a5b7d3782f60", "is_reserved": 0}, {"is_disabled": 0, "fusion_lon": 0.0, "fusion_lat": 0.0, "lat": 38.9170175, "type": "electric_bike", "lon": -77.09564733333333, "bike_id": "06ade9aa374b0034fa74822466b4f3fa", "rental_uris": {"android": "https://dc.lft.to/lastmile_qr_scan", "ios": "https://dc.lft.to/lastmile_qr_scan"}, "name": "06ade9aa374b0034fa74822466b4f3fa", "is_reserved": 0}, {"is_disabled": 0, "fusion_lon": 0.0, "fusion_lat": 0.0, "lat": 38.93363766666667, "type": "electric_scooter", "lon": -77.057447, "bike_id": "1fd671aa03321c6ad85ef22149652a69", "rental_uris": {"android": "https://dc.lft.to/lastmile_qr_scan", "ios": "https://dc.lft.to/lastmile_qr_scan"}, "name": "1fd671aa03321c6ad85ef22149652a69", "is_reserved": 0}, {"is_disabled": 0, "fusion_lon": 0.0, "fusion_lat": 0.0, "lat": 39.0526665, "type": "electric_bike", "lon": -77.0438425, "bike_id": "fd05419700f6a5b65360e326a426eadb", "rental_uris": {"android": "https://dc.lft.to/lastmile_qr_scan", "ios": "https://dc.lft.to/lastmile_qr_scan"}, "name": "fd05419700f6a5b65360e326a426eadb", "is_reserved": 0}, {"is_disabled": 0, "fusion_lon": 0.0, "fusion_lat": 0.0, "lat": 38.909649, "type": "electric_scooter", "lon": -77.039486, "bike_id": "316bcd1d221d8b5d94b0e45ef7da3f01", "rental_uris": {"android": "https://dc.lft.to/lastmile_qr_scan", "ios": "https://dc.lft.to/lastmile_qr_scan"}, "name": "316bcd1d221d8b5d94b0e45ef7da3f01", "is_reserved": 0}, {"is_disabled": 0, "fusion_lon": 0.0, "fusion_lat": 0.0, "lat": 38.9489295, "type": "electric_bike", "lon": -76.9637335, "bike_id": "c6fd860eeebc0a33f7d1a1edf1c4dc26", "rental_uris": {"android": "https://dc.lft.to/lastmile_qr_scan", "ios": "https://dc.lft.to/lastmile_qr_scan"}, "name": "c6fd860eeebc0a33f7d1a1edf1c4dc26", "is_reserved": 0}, {"is_disabled": 0, "fusion_lon": 0.0, "fusion_lat": 0.0, "lat": 38.928094, "type": "electric_scooter", "lon": -77.02343466666666, "bike_id": "f64797de3d2a483a86435a42662c5ad5", "rental_uris": {"android": "https://dc.lft.to/lastmile_qr_scan", "ios": "https://dc.lft.to/lastmile_qr_scan"}, "name": "f64797de3d2a483a86435a42662c5ad5", "is_reserved": 0}, {"is_disabled": 0, "fusion_lon": 0.0, "fusion_lat": 0.0, "lat": 38.92232666666666, "type": "electric_scooter", "lon": -77.04340216666667, "bike_id": "29feb343d691a3c0fa7f79991e5d717f", "rental_uris": {"android": "https://dc.lft.to/lastmile_qr_scan", "ios": "https://dc.lft.to/lastmile_qr_scan"}, "name": "29feb343d691a3c0fa7f79991e5d717f", "is_reserved": 0}, {"is_disabled": 0, "fusion_lon": 0.0, "fusion_lat": 0.0, "lat": 38.917029166666666, "type": "electric_scooter", "lon": -77.00115533333333, "bike_id": "588dcd65141b4f7b4f92dea13e4c1fcb", "rental_uris": {"android": "https://dc.lft.to/lastmile_qr_scan", "ios": "https://dc.lft.to/lastmile_qr_scan"}, "name": "588dcd65141b4f7b4f92dea13e4c1fcb", "is_reserved": 0}, {"is_disabled": 0, "fusion_lon": 0.0, "fusion_lat": 0.0, "lat": 38.918173333333336, "type": "electric_scooter", "lon": -77.025877, "bike_id": "01db8ce37441dd82d29db4f1c8929413", "rental_uris": {"android": "https://dc.lft.to/lastmile_qr_scan", "ios": "https://dc.lft.to/lastmile_qr_scan"}, "name": "01db8ce37441dd82d29db4f1c8929413", "is_reserved": 0}, {"is_disabled": 0, "fusion_lon": 0.0, "fusion_lat": 0.0, "lat": 38.934142, "type": "electric_scooter", "lon": -77.019673, "bike_id": "acced7f364a2b4661ba160db88b55b1d", "rental_uris": {"android": "https://dc.lft.to/lastmile_qr_scan", "ios": "https://dc.lft.to/lastmile_qr_scan"}, "name": "acced7f364a2b4661ba160db88b55b1d", "is_reserved": 0}, {"is_disabled": 0, "fusion_lon": 0.0, "fusion_lat": 0.0, "lat": 38.908553, "type": "electric_scooter", "lon": -77.06076433333334, "bike_id": "66a97bd7bc3d8caf612a661d9e8d096a", "rental_uris": {"android": "https://dc.lft.to/lastmile_qr_scan", "ios": "https://dc.lft.to/lastmile_qr_scan"}, "name": "66a97bd7bc3d8caf612a661d9e8d096a", "is_reserved": 0}, {"is_disabled": 0, "fusion_lon": 0.0, "fusion_lat": 0.0, "lat": 38.896268666666664, "type": "electric_scooter", "lon": -77.027213, "bike_id": "36a1ee4b8dd56ded186deceb88df276f", "rental_uris": {"android": "https://dc.lft.to/lastmile_qr_scan", "ios": "https://dc.lft.to/lastmile_qr_scan"}, "name": "36a1ee4b8dd56ded186deceb88df276f", "is_reserved": 0}, {"is_disabled": 0, "fusion_lon": 0.0, "fusion_lat": 0.0, "lat": 38.90474916666667, "type": "electric_scooter", "lon": -77.06221683333334, "bike_id": "45f2c1923cf238924c4059825464c451", "rental_uris": {"android": "https://dc.lft.to/lastmile_qr_scan", "ios": "https://dc.lft.to/lastmile_qr_scan"}, "name": "45f2c1923cf238924c4059825464c451", "is_reserved": 0}, {"is_disabled": 0, "fusion_lon": 0.0, "fusion_lat": 0.0, "lat": 38.91689783333333, "type": "electric_scooter", "lon": -77.03288616666667, "bike_id": "88055d90d1af8f0c253edef4fe654c8d", "rental_uris": {"android": "https://dc.lft.to/lastmile_qr_scan", "ios": "https://dc.lft.to/lastmile_qr_scan"}, "name": "88055d90d1af8f0c253edef4fe654c8d", "is_reserved": 0}, {"is_disabled": 0, "fusion_lon": 0.0, "fusion_lat": 0.0, "lat": 38.9363135, "type": "electric_scooter", "lon": -77.02698833333334, "bike_id": "587302d781e4a1d8d5f6e3d29717e90e", "rental_uris": {"android": "https://dc.lft.to/lastmile_qr_scan", "ios": "https://dc.lft.to/lastmile_qr_scan"}, "name": "587302d781e4a1d8d5f6e3d29717e90e", "is_reserved": 0}, {"is_disabled": 0, "fusion_lon": 0.0, "fusion_lat": 0.0, "lat": 38.91688116666667, "type": "electric_scooter", "lon": -77.04112383333333, "bike_id": "122384b727a0fd37b435dc8bb050bd03", "rental_uris": {"android": "https://dc.lft.to/lastmile_qr_scan", "ios": "https://dc.lft.to/lastmile_qr_scan"}, "name": "122384b727a0fd37b435dc8bb050bd03", "is_reserved": 0}, {"is_disabled": 0, "fusion_lon": 0.0, "fusion_lat": 0.0, "lat": 38.90565733333333, "type": "electric_scooter", "lon": -77.00577133333333, "bike_id": "4870deea08bce33a9949dbab152f0d53", "rental_uris": {"android": "https://dc.lft.to/lastmile_qr_scan", "ios": "https://dc.lft.to/lastmile_qr_scan"}, "name": "4870deea08bce33a9949dbab152f0d53", "is_reserved": 0}, {"is_disabled": 0, "fusion_lon": 0.0, "fusion_lat": 0.0, "lat": 38.892242333333336, "type": "electric_scooter", "lon": -77.03179633333333, "bike_id": "f049aa6f540ffeb76f657e73673a3fdf", "rental_uris": {"android": "https://dc.lft.to/lastmile_qr_scan", "ios": "https://dc.lft.to/lastmile_qr_scan"}, "name": "f049aa6f540ffeb76f657e73673a3fdf", "is_reserved": 0}, {"is_disabled": 0, "fusion_lon": 0.0, "fusion_lat": 0.0, "lat": 38.89785066666666, "type": "electric_scooter", "lon": -77.02778, "bike_id": "5959ef113fefa382f4708e890c150bcc", "rental_uris": {"android": "https://dc.lft.to/lastmile_qr_scan", "ios": "https://dc.lft.to/lastmile_qr_scan"}, "name": "5959ef113fefa382f4708e890c150bcc", "is_reserved": 0}, {"is_disabled": 0, "fusion_lon": 0.0, "fusion_lat": 0.0, "lat": 38.9352505, "type": "electric_scooter", "lon": -77.066339, "bike_id": "4e5ff334a9a095fb05605308f440efc5", "rental_uris": {"android": "https://dc.lft.to/lastmile_qr_scan", "ios": "https://dc.lft.to/lastmile_qr_scan"}, "name": "4e5ff334a9a095fb05605308f440efc5", "is_reserved": 0}, {"is_disabled": 0, "fusion_lon": 0.0, "fusion_lat": 0.0, "lat": 38.930782666666666, "type": "electric_scooter", "lon": -77.03632283333333, "bike_id": "459f0674f9875f167490b3ada1f536ff", "rental_uris": {"android": "https://dc.lft.to/lastmile_qr_scan", "ios": "https://dc.lft.to/lastmile_qr_scan"}, "name": "459f0674f9875f167490b3ada1f536ff", "is_reserved": 0}, {"is_disabled": 0, "fusion_lon": 0.0, "fusion_lat": 0.0, "lat": 38.86587766666667, "type": "electric_scooter", "lon": -77.01074616666666, "bike_id": "f23e24310713f1be74d0010f4286ba2a", "rental_uris": {"android": "https://dc.lft.to/lastmile_qr_scan", "ios": "https://dc.lft.to/lastmile_qr_scan"}, "name": "f23e24310713f1be74d0010f4286ba2a", "is_reserved": 0}, {"is_disabled": 0, "fusion_lon": 0.0, "fusion_lat": 0.0, "lat": 38.937078166666666, "type": "electric_scooter", "lon": -77.06107216666666, "bike_id": "f51846e266c05b0257c65b6536a8491f", "rental_uris": {"android": "https://dc.lft.to/lastmile_qr_scan", "ios": "https://dc.lft.to/lastmile_qr_scan"}, "name": "f51846e266c05b0257c65b6536a8491f", "is_reserved": 0}, {"is_disabled": 0, "fusion_lon": 0.0, "fusion_lat": 0.0, "lat": 38.8488135, "type": "electric_scooter", "lon": -77.00515966666667, "bike_id": "ef126d5d670444671b795648dbdd5896", "rental_uris": {"android": "https://dc.lft.to/lastmile_qr_scan", "ios": "https://dc.lft.to/lastmile_qr_scan"}, "name": "ef126d5d670444671b795648dbdd5896", "is_reserved": 0}, {"is_disabled": 0, "fusion_lon": 0.0, "fusion_lat": 0.0, "lat": 38.90561866666667, "type": "electric_scooter", "lon": -77.0043545, "bike_id": "c59d16b13b81b44faca9de712400d79b", "rental_uris": {"android": "https://dc.lft.to/lastmile_qr_scan", "ios": "https://dc.lft.to/lastmile_qr_scan"}, "name": "c59d16b13b81b44faca9de712400d79b", "is_reserved": 0}, {"is_disabled": 0, "fusion_lon": 0.0, "fusion_lat": 0.0, "lat": 38.9813135, "type": "electric_bike", "lon": -77.0076575, "bike_id": "4a885dae33009776dcbea601209615bb", "rental_uris": {"android": "https://dc.lft.to/lastmile_qr_scan", "ios": "https://dc.lft.to/lastmile_qr_scan"}, "name": "4a885dae33009776dcbea601209615bb", "is_reserved": 0}, {"is_disabled": 0, "fusion_lon": 0.0, "fusion_lat": 0.0, "lat": 38.90616283333333, "type": "electric_scooter", "lon": -77.02407416666667, "bike_id": "f672f00a050c7bc6a77d3dc5c08ac6ee", "rental_uris": {"android": "https://dc.lft.to/lastmile_qr_scan", "ios": "https://dc.lft.to/lastmile_qr_scan"}, "name": "f672f00a050c7bc6a77d3dc5c08ac6ee", "is_reserved": 0}, {"is_disabled": 0, "fusion_lon": 0.0, "fusion_lat": 0.0, "lat": 38.90054583333333, "type": "electric_scooter", "lon": -77.007614, "bike_id": "401d8443229f41da1d864cc3e03ef284", "rental_uris": {"android": "https://dc.lft.to/lastmile_qr_scan", "ios": "https://dc.lft.to/lastmile_qr_scan"}, "name": "401d8443229f41da1d864cc3e03ef284", "is_reserved": 0}, {"is_disabled": 0, "fusion_lon": 0.0, "fusion_lat": 0.0, "lat": 38.8900975, "type": "electric_scooter", "lon": -77.0332215, "bike_id": "eed995a4ce09bb53226e866beebc32e1", "rental_uris": {"android": "https://dc.lft.to/lastmile_qr_scan", "ios": "https://dc.lft.to/lastmile_qr_scan"}, "name": "eed995a4ce09bb53226e866beebc32e1", "is_reserved": 0}, {"is_disabled": 0, "fusion_lon": 0.0, "fusion_lat": 0.0, "lat": 38.91178566666667, "type": "electric_scooter", "lon": -77.0417015, "bike_id": "e1daa285ba3b51bb79d5500ed0a10f4e", "rental_uris": {"android": "https://dc.lft.to/lastmile_qr_scan", "ios": "https://dc.lft.to/lastmile_qr_scan"}, "name": "e1daa285ba3b51bb79d5500ed0a10f4e", "is_reserved": 0}, {"is_disabled": 0, "fusion_lon": 0.0, "fusion_lat": 0.0, "lat": 38.87777533333333, "type": "electric_scooter", "lon": -77.01436733333334, "bike_id": "29f7cd82d92ea42a45fa55abc1d6b71a", "rental_uris": {"android": "https://dc.lft.to/lastmile_qr_scan", "ios": "https://dc.lft.to/lastmile_qr_scan"}, "name": "29f7cd82d92ea42a45fa55abc1d6b71a", "is_reserved": 0}, {"is_disabled": 0, "fusion_lon": 0.0, "fusion_lat": 0.0, "lat": 38.9315005, "type": "electric_scooter", "lon": -77.04376683333334, "bike_id": "77db0b0192eff6ad8d1c2219349ac00e", "rental_uris": {"android": "https://dc.lft.to/lastmile_qr_scan", "ios": "https://dc.lft.to/lastmile_qr_scan"}, "name": "77db0b0192eff6ad8d1c2219349ac00e", "is_reserved": 0}, {"is_disabled": 0, "fusion_lon": 0.0, "fusion_lat": 0.0, "lat": 38.9462515, "type": "electric_bike", "lon": -76.9341275, "bike_id": "a5a3e5325ab62c38fcdbb1607b3e4dbc", "rental_uris": {"android": "https://dc.lft.to/lastmile_qr_scan", "ios": "https://dc.lft.to/lastmile_qr_scan"}, "name": "a5a3e5325ab62c38fcdbb1607b3e4dbc", "is_reserved": 0}, {"is_disabled": 0, "fusion_lon": 0.0, "fusion_lat": 0.0, "lat": 38.910471666666666, "type": "electric_scooter", "lon": -77.02291733333334, "bike_id": "59649024de22a9928e6cbfb12a5ce484", "rental_uris": {"android": "https://dc.lft.to/lastmile_qr_scan", "ios": "https://dc.lft.to/lastmile_qr_scan"}, "name": "59649024de22a9928e6cbfb12a5ce484", "is_reserved": 0}, {"is_disabled": 0, "fusion_lon": 0.0, "fusion_lat": 0.0, "lat": 38.922984, "type": "electric_scooter", "lon": -77.0403895, "bike_id": "d4ab6ebf84cd1dd47c13dbb801b93b24", "rental_uris": {"android": "https://dc.lft.to/lastmile_qr_scan", "ios": "https://dc.lft.to/lastmile_qr_scan"}, "name": "d4ab6ebf84cd1dd47c13dbb801b93b24", "is_reserved": 0}, {"is_disabled": 0, "fusion_lon": 0.0, "fusion_lat": 0.0, "lat": 38.87631066666667, "type": "electric_scooter", "lon": -77.01259283333333, "bike_id": "b10d933d8c0c360564a99df4f80d4f52", "rental_uris": {"android": "https://dc.lft.to/lastmile_qr_scan", "ios": "https://dc.lft.to/lastmile_qr_scan"}, "name": "b10d933d8c0c360564a99df4f80d4f52", "is_reserved": 0}, {"is_disabled": 0, "fusion_lon": 0.0, "fusion_lat": 0.0, "lat": 38.90387466666667, "type": "electric_scooter", "lon": -76.9900425, "bike_id": "8fce5e8a1165ecb5a9aa04d9f4f2b39a", "rental_uris": {"android": "https://dc.lft.to/lastmile_qr_scan", "ios": "https://dc.lft.to/lastmile_qr_scan"}, "name": "8fce5e8a1165ecb5a9aa04d9f4f2b39a", "is_reserved": 0}, {"is_disabled": 0, "fusion_lon": 0.0, "fusion_lat": 0.0, "lat": 38.92458633333333, "type": "electric_scooter", "lon": -77.02964466666667, "bike_id": "d5aff57c57fd9a87c380fdbf8684263d", "rental_uris": {"android": "https://dc.lft.to/lastmile_qr_scan", "ios": "https://dc.lft.to/lastmile_qr_scan"}, "name": "d5aff57c57fd9a87c380fdbf8684263d", "is_reserved": 0}, {"is_disabled": 0, "fusion_lon": 0.0, "fusion_lat": 0.0, "lat": 38.90281316666667, "type": "electric_scooter", "lon": -77.02400883333334, "bike_id": "d4c8ec5723a808d31d52145dc9b8eceb", "rental_uris": {"android": "https://dc.lft.to/lastmile_qr_scan", "ios": "https://dc.lft.to/lastmile_qr_scan"}, "name": "d4c8ec5723a808d31d52145dc9b8eceb", "is_reserved": 0}, {"is_disabled": 0, "fusion_lon": 0.0, "fusion_lat": 0.0, "lat": 38.9245515, "type": "electric_bike", "lon": -76.97560216666666, "bike_id": "aeb22eb32d0607fbcd5054838c9f4a12", "rental_uris": {"android": "https://dc.lft.to/lastmile_qr_scan", "ios": "https://dc.lft.to/lastmile_qr_scan"}, "name": "aeb22eb32d0607fbcd5054838c9f4a12", "is_reserved": 0}, {"is_disabled": 0, "fusion_lon": 0.0, "fusion_lat": 0.0, "lat": 38.91706216666667, "type": "electric_scooter", "lon": -77.02499133333333, "bike_id": "f628c1b63b64aad4e395988ac5ca29bc", "rental_uris": {"android": "https://dc.lft.to/lastmile_qr_scan", "ios": "https://dc.lft.to/lastmile_qr_scan"}, "name": "f628c1b63b64aad4e395988ac5ca29bc", "is_reserved": 0}, {"is_disabled": 0, "fusion_lon": 0.0, "fusion_lat": 0.0, "lat": 38.93708683333333, "type": "electric_scooter", "lon": -77.0245105, "bike_id": "0c93860d30586070e203cf60590676fa", "rental_uris": {"android": "https://dc.lft.to/lastmile_qr_scan", "ios": "https://dc.lft.to/lastmile_qr_scan"}, "name": "0c93860d30586070e203cf60590676fa", "is_reserved": 0}, {"is_disabled": 0, "fusion_lon": 0.0, "fusion_lat": 0.0, "lat": 38.928884333333336, "type": "electric_scooter", "lon": -77.03278883333333, "bike_id": "88d861079c0b0e8b61fe7cc67b88c710", "rental_uris": {"android": "https://dc.lft.to/lastmile_qr_scan", "ios": "https://dc.lft.to/lastmile_qr_scan"}, "name": "88d861079c0b0e8b61fe7cc67b88c710", "is_reserved": 0}, {"is_disabled": 0, "fusion_lon": 0.0, "fusion_lat": 0.0, "lat": 38.92442966666667, "type": "electric_bike", "lon": -76.96833366666667, "bike_id": "2e272ff2159abc922f6e1a1614e9e0f7", "rental_uris": {"android": "https://dc.lft.to/lastmile_qr_scan", "ios": "https://dc.lft.to/lastmile_qr_scan"}, "name": "2e272ff2159abc922f6e1a1614e9e0f7", "is_reserved": 0}, {"is_disabled": 0, "fusion_lon": 0.0, "fusion_lat": 0.0, "lat": 38.9028885, "type": "electric_scooter", "lon": -77.0425105, "bike_id": "3b3a062a013367261c842c21f986851c", "rental_uris": {"android": "https://dc.lft.to/lastmile_qr_scan", "ios": "https://dc.lft.to/lastmile_qr_scan"}, "name": "3b3a062a013367261c842c21f986851c", "is_reserved": 0}, {"is_disabled": 0, "fusion_lon": 0.0, "fusion_lat": 0.0, "lat": 39.105647166666664, "type": "electric_bike", "lon": -77.15267583333333, "bike_id": "72189d9ffe1adaa941f1185995d031ce", "rental_uris": {"android": "https://dc.lft.to/lastmile_qr_scan", "ios": "https://dc.lft.to/lastmile_qr_scan"}, "name": "72189d9ffe1adaa941f1185995d031ce", "is_reserved": 0}, {"is_disabled": 0, "fusion_lon": 0.0, "fusion_lat": 0.0, "lat": 38.893732166666666, "type": "electric_scooter", "lon": -76.94999083333333, "bike_id": "69e066470886fcdf07acac3257a4a8ce", "rental_uris": {"android": "https://dc.lft.to/lastmile_qr_scan", "ios": "https://dc.lft.to/lastmile_qr_scan"}, "name": "69e066470886fcdf07acac3257a4a8ce", "is_reserved": 0}, {"is_disabled": 0, "fusion_lon": 0.0, "fusion_lat": 0.0, "lat": 38.919719666666666, "type": "electric_scooter", "lon": -77.00021, "bike_id": "249d9c77de8efd22dee8bece3d21734c", "rental_uris": {"android": "https://dc.lft.to/lastmile_qr_scan", "ios": "https://dc.lft.to/lastmile_qr_scan"}, "name": "249d9c77de8efd22dee8bece3d21734c", "is_reserved": 0}, {"is_disabled": 0, "fusion_lon": 0.0, "fusion_lat": 0.0, "lat": 38.8987245, "type": "electric_scooter", "lon": -77.0207365, "bike_id": "0b4880d7acc916e73f9556118f1e5a09", "rental_uris": {"android": "https://dc.lft.to/lastmile_qr_scan", "ios": "https://dc.lft.to/lastmile_qr_scan"}, "name": "0b4880d7acc916e73f9556118f1e5a09", "is_reserved": 0}, {"is_disabled": 0, "fusion_lon": 0.0, "fusion_lat": 0.0, "lat": 38.887516, "type": "electric_bike", "lon": -76.90083316666667, "bike_id": "eca298b2a5030c4c064905f757138ed7", "rental_uris": {"android": "https://dc.lft.to/lastmile_qr_scan", "ios": "https://dc.lft.to/lastmile_qr_scan"}, "name": "eca298b2a5030c4c064905f757138ed7", "is_reserved": 0}, {"is_disabled": 0, "fusion_lon": 0.0, "fusion_lat": 0.0, "lat": 38.92964416666667, "type": "electric_scooter", "lon": -77.0327655, "bike_id": "d4bfddde8af087c6f7d87daff859443f", "rental_uris": {"android": "https://dc.lft.to/lastmile_qr_scan", "ios": "https://dc.lft.to/lastmile_qr_scan"}, "name": "d4bfddde8af087c6f7d87daff859443f", "is_reserved": 0}, {"is_disabled": 0, "fusion_lon": 0.0, "fusion_lat": 0.0, "lat": 38.92096133333333, "type": "electric_scooter", "lon": -76.99419333333333, "bike_id": "20b45072b508629397090133be22fb89", "rental_uris": {"android": "https://dc.lft.to/lastmile_qr_scan", "ios": "https://dc.lft.to/lastmile_qr_scan"}, "name": "20b45072b508629397090133be22fb89", "is_reserved": 0}, {"is_disabled": 0, "fusion_lon": 0.0, "fusion_lat": 0.0, "lat": 38.913332833333335, "type": "electric_scooter", "lon": -77.03039316666667, "bike_id": "6ad67f6d3e72bf2ac4ede57788c29b8b", "rental_uris": {"android": "https://dc.lft.to/lastmile_qr_scan", "ios": "https://dc.lft.to/lastmile_qr_scan"}, "name": "6ad67f6d3e72bf2ac4ede57788c29b8b", "is_reserved": 0},