{"data": {"bikes": [{"fusion_lat": 0.0, "name": "3f69a100df8b71c9b8fe7eb9e079738c", "is_disabled": 0, "rental_uris": {"android": "https://dc.lft.to/lastmile_qr_scan", "ios": "https://dc.lft.to/lastmile_qr_scan"}, "fusion_lon": 0.0, "lat": 38.94329833333333, "bike_id": "3f69a100df8b71c9b8fe7eb9e079738c", "type": "electric_scooter", "is_reserved": 0, "lon": -77.0155685}, {"fusion_lat": 0.0, "name": "9a8e73a5b771ddb4b5bfabdd191608c4", "is_disabled": 0, "rental_uris": {"android": "https://dc.lft.to/lastmile_qr_scan", "ios": "https://dc.lft.to/lastmile_qr_scan"}, "fusion_lon": 0.0, "lat": 38.89786133333333, "bike_id": "9a8e73a5b771ddb4b5bfabdd191608c4", "type": "electric_scooter", "is_reserved": 0, "lon": -77.0240765}, {"fusion_lat": 0.0, "name": "db66baca938e283eae7b2fa0ae621610", "is_disabled": 0, "rental_uris": {"android": "https://dc.lft.to/lastmile_qr_scan", "ios": "https://dc.lft.to/lastmile_qr_scan"}, "fusion_lon": 0.0, "lat": 38.89602416666666, "bike_id": "db66baca938e283eae7b2fa0ae621610", "type": "electric_scooter", "is_reserved": 0, "lon": -76.98112633333334}, {"fusion_lat": 0.0, "name": "a1cb612b8699feb884efd7ab283202b6", "is_disabled": 0, "rental_uris": {"android": "https://dc.lft.to/lastmile_qr_scan", "ios": "https://dc.lft.to/lastmile_qr_scan"}, "fusion_lon": 0.0, "lat": 38.902685, "bike_id": "a1cb612b8699feb884efd7ab283202b6", "type": "electric_scooter", "is_reserved": 0, "lon": -77.034362}, {"fusion_lat": 0.0, "name": "e1bcda18ab200ed1eb609d218f71e3c9", "is_disabled": 0, "rental_uris": {"android": "https://dc.lft.to/lastmile_qr_scan", "ios": "https://dc.lft.to/lastmile_qr_scan"}, "fusion_lon": 0.0, "lat": 38.941976333333336, "bike_id": "e1bcda18ab200ed1eb609d218f71e3c9", "type": "electric_scooter", "is_reserved": 0, "lon": -77.025686}, {"fusion_lat": 0.0, "name": "04ad591940d86d262254692731cad9c6", "is_disabled": 0, "rental_uris": {"android": "https://dc.lft.to/lastmile_qr_scan", "ios": "https://dc.lft.to/lastmile_qr_scan"}, "fusion_lon": 0.0, "lat": 38.911063, "bike_id": "04ad591940d86d262254692731cad9c6", "type": "electric_scooter", "is_reserved": 0, "lon": -77.01002916666667}, {"fusion_lat": 0.0, "name": "fa89cb16e0ff21df9cb3de36cd50e531", "is_disabled": 0, "rental_uris": {"android": "https://dc.lft.to/lastmile_qr_scan", "ios": "https://dc.lft.to/lastmile_qr_scan"}, "fusion_lon": 0.0, "lat": 38.916992666666665, "bike_id": "fa89cb16e0ff21df9cb3de36cd50e531", "type": "electric_scooter", "is_reserved": 0, "lon": -77.03472983333333}, {"fusion_lat": 0.0, "name": "d0f600478af7da7415193e411e8906b7", "is_disabled": 0, "rental_uris": {"android": "https://dc.lft.to/lastmile_qr_scan", "ios": "https://dc.lft.to/lastmile_qr_scan"}, "fusion_lon": 0.0, "lat": 38.923438166666664, "bike_id": "d0f600478af7da7415193e411e8906b7", "type": "electric_scooter", "is_reserved": 0, "lon": -77.05181116666667}, {"fusion_lat": 0.0, "name": "c8fae3f71c11e66d4964b05f507b4451", "is_disabled": 0, "rental_uris": {"android": "https://dc.lft.to/lastmile_qr_scan", "ios": "https://dc.lft.to/lastmile_qr_scan"}, "fusion_lon": 0.0, "lat": 38.89976733333334, "bike_id": "c8fae3f71c11e66d4964b05f507b4451", "type": "electric_scooter", "is_reserved": 0, "lon": -77.052673}, {"fusion_lat": 0.0, "name": "bcef70e504c3318700d6b35b4ed295fb", "is_disabled": 0, "rental_uris": {"android": "https://dc.lft.to/lastmile_qr_scan", "ios": "https://dc.lft.to/lastmile_qr_scan"}, "fusion_lon": 0.0, "lat": 38.905379833333335, "bike_id": "bcef70e504c3318700d6b35b4ed295fb", "type": "electric_scooter", "is_reserved": 0, "lon": -77.05914}, {"fusion_lat": 0.0, "name": "88475a630a06b952ed750b9558ace070", "is_disabled": 0, "rental_uris": {"android": "https://dc.lft.to/lastmile_qr_scan", "ios": "https://dc.lft.to/lastmile_qr_scan"}, "fusion_lon": 0.0, "lat": 38.93223166666667, "bike_id": "88475a630a06b952ed750b9558ace070", "type": "electric_scooter", "is_reserved": 0, "lon": -76.99493083333333}, {"fusion_lat": 0.0, "name": "5b1dc4743f0acb02bad6cfc5887cfa80", "is_disabled": 0, "rental_uris": {"android": "https://dc.lft.to/lastmile_qr_scan", "ios": "https://dc.lft.to/lastmile_qr_scan"}, "fusion_lon": 0.0, "lat": 38.905007499999996, "bike_id": "5b1dc4743f0acb02bad6cfc5887cfa80", "type": "electric_scooter", "is_reserved": 0, "lon": -77.02946016666667}, {"fusion_lat": 0.0, "name": "ae4518418297d04e0e1b6825e1319449", "is_disabled": 0, "rental_uris": {"android": "https://dc.lft.to/lastmile_qr_scan", "ios": "https://dc.lft.to/lastmile_qr_scan"}, "fusion_lon": 0.0, "lat": 38.89014233333333, "bike_id": "ae4518418297d04e0e1b6825e1319449", "type": "electric_scooter", "is_reserved": 0, "lon": -76.9373935}, {"fusion_lat": 0.0, "name": "017e89c3cda4768d1eb8b5e72af2f0f4", "is_disabled": 0, "rental_uris": {"android": "https://dc.lft.to/lastmile_qr_scan", "ios": "https://dc.lft.to/lastmile_qr_scan"}, "fusion_lon": 0.0, "lat": 38.90390383333333, "bike_id": "017e89c3cda4768d1eb8b5e72af2f0f4", "type": "electric_scooter", "is_reserved": 0, "lon": -77.06303416666667}, {"fusion_lat": 0.0, "name": "574a1d5d84052f65b0661c85e3a27a63", "is_disabled": 0, "rental_uris": {"android": "https://dc.lft.to/lastmile_qr_scan", "ios": "https://dc.lft.to/lastmile_qr_scan"}, "fusion_lon": 0.0, "lat": 38.9228695, "bike_id": "574a1d5d84052f65b0661c85e3a27a63", "type": "electric_scooter", "is_reserved": 0, "lon": -77.02970016666667}, {"fusion_lat": 0.0, "name": "17c65f3ee08ce66d5e2f9dfbb2dc690a", "is_disabled": 0, "rental_uris": {"android": "https://dc.lft.to/lastmile_qr_scan", "ios": "https://dc.lft.to/lastmile_qr_scan"}, "fusion_lon": 0.0, "lat": 38.904346833333335, "bike_id": "17c65f3ee08ce66d5e2f9dfbb2dc690a", "type": "electric_scooter", "is_reserved": 0, "lon": -77.048777}, {"fusion_lat": 0.0, "name": "18457e7049620ac73ed7e92f550afc3d", "is_disabled": 0, "rental_uris": {"android": "https://dc.lft.to/lastmile_qr_scan", "ios": "https://dc.lft.to/lastmile_qr_scan"}, "fusion_lon": 0.0, "lat": 38.90345833333333, "bike_id": "18457e7049620ac73ed7e92f550afc3d", "type": "electric_scooter", "is_reserved": 0, "lon": -76.97484666666666}, {"fusion_lat": 0.0, "name": "7f050fcc5a9c8c096ce022806b922064", "is_disabled": 0, "rental_uris": {"android": "https://dc.lft.to/lastmile_qr_scan", "ios": "https://dc.lft.to/lastmile_qr_scan"}, "fusion_lon": 0.0, "lat": 38.907444, "bike_id": "7f050fcc5a9c8c096ce022806b922064", "type": "electric_scooter", "is_reserved": 0, "lon": -77.04198116666667}, {"fusion_lat": 0.0, "name": "1754775850798fc67b215597e7d3184e", "is_disabled": 0, "rental_uris": {"android": "https://dc.lft.to/lastmile_qr_scan", "ios": "https://dc.lft.to/lastmile_qr_scan"}, "fusion_lon": 0.0, "lat": 38.91057433333334, "bike_id": "1754775850798fc67b215597e7d3184e", "type": "electric_scooter", "is_reserved": 0, "lon": -77.04422216666667}, {"fusion_lat": 0.0, "name": "00d3426c73c544974b533164fba31eb9", "is_disabled": 0, "rental_uris": {"android": "https://dc.lft.to/lastmile_qr_scan", "ios": "https://dc.lft.to/lastmile_qr_scan"}, "fusion_lon": 0.0, "lat": 38.97361883333333, "bike_id": "00d3426c73c544974b533164fba31eb9", "type": "electric_scooter", "is_reserved": 0, "lon": -77.01294616666667}, {"fusion_lat": 0.0, "name": "f7079c67118c3753d996cdc8e3a16bdf", "is_disabled": 0, "rental_uris": {"android": "https://dc.lft.to/lastmile_qr_scan", "ios": "https://dc.lft.to/lastmile_qr_scan"}, "fusion_lon": 0.0, "lat": 38.91201233333334, "bike_id": "f7079c67118c3753d996cdc8e3a16bdf", "type": "electric_scooter", "is_reserved": 0, "lon": -77.031919}, {"fusion_lat": 0.0, "name": "a3d94c29f6ca077ce36955cf21b1957f", "is_disabled": 0, "rental_uris": {"android": "https://dc.lft.to/lastmile_qr_scan", "ios": "https://dc.lft.to/lastmile_qr_scan"}, "fusion_lon": 0.0, "lat": 38.9030895, "bike_id": "a3d94c29f6ca077ce36955cf21b1957f", "type": "electric_scooter", "is_reserved": 0, "lon": -76.978073}, {"fusion_lat": 0.0, "name": "c89b0a6adf452fbee4d0cd6c2b2a27b4", "is_disabled": 0, "rental_uris": {"android": "https://dc.lft.to/lastmile_qr_scan", "ios": "https://dc.lft.to/lastmile_qr_scan"}, "fusion_lon": 0.0, "lat": 38.923463, "bike_id": "c89b0a6adf452fbee4d0cd6c2b2a27b4", "type": "electric_scooter", "is_reserved": 0, "lon": -77.0518175}, {"fusion_lat": 0.0, "name": "cebd233b40fab2293333f412da3250f5", "is_disabled": 0, "rental_uris": {"android": "https://dc.lft.to/lastmile_qr_scan", "ios": "https://dc.lft.to/lastmile_qr_scan"}, "fusion_lon": 0.0, "lat": 38.918372166666664, "bike_id": "cebd233b40fab2293333f412da3250f5", "type": "electric_scooter", "is_reserved": 0, "lon": -77.063691}, {"fusion_lat": 0.0, "name": "982fb2a35d1e5a3b9fbb8c7a61464d29", "is_disabled": 0, "rental_uris": {"android": "https://dc.lft.to/lastmile_qr_scan", "ios": "https://dc.lft.to/lastmile_qr_scan"}, "fusion_lon": 0.0, "lat": 38.88397666666667, "bike_id": "982fb2a35d1e5a3b9fbb8c7a61464d29", "type": "electric_scooter", "is_reserved": 0, "lon": -77.00829033333333}, {"fusion_lat": 0.0, "name": "b23575d461aba8d0b5878d8264e1c6b8", "is_disabled": 0, "rental_uris": {"android": "https://dc.lft.to/lastmile_qr_scan", "ios": "https://dc.lft.to/lastmile_qr_scan"}, "fusion_lon": 0.0, "lat": 38.9141195, "bike_id": "b23575d461aba8d0b5878d8264e1c6b8", "type": "electric_scooter", "is_reserved": 0, "lon": -77.0107805}, {"fusion_lat": 0.0, "name": "9a0d647aba5c213c0bd965031b1ab1c4", "is_disabled": 0, "rental_uris": {"android": "https://dc.lft.to/lastmile_qr_scan", "ios": "https://dc.lft.to/lastmile_qr_scan"}, "fusion_lon": 0.0, "lat": 38.90773816666667, "bike_id": "9a0d647aba5c213c0bd965031b1ab1c4", "type": "electric_scooter", "is_reserved": 0, "lon": -77.003774}, {"fusion_lat": 0.0, "name": "2f1f2dbfc595102c6eaeef4f5bc21e91", "is_disabled": 0, "rental_uris": {"android": "https://dc.lft.to/lastmile_qr_scan", "ios": "https://dc.lft.to/lastmile_qr_scan"}, "fusion_lon": 0.0, "lat": 38.887223666666664, "bike_id": "2f1f2dbfc595102c6eaeef4f5bc21e91", "type": "electric_scooter", "is_reserved": 0, "lon": -77.03180433333333}, {"fusion_lat": 0.0, "name": "29a361c4c949bcbd3fe581383005f49c", "is_disabled": 0, "rental_uris": {"android": "https://dc.lft.to/lastmile_qr_scan", "ios": "https://dc.lft.to/lastmile_qr_scan"}, "fusion_lon": 0.0, "lat": 38.863878666666665, "bike_id": "29a361c4c949bcbd3fe581383005f49c", "type": "electric_bike", "is_reserved": 0, "lon": -76.9900435}, {"fusion_lat": 0.0, "name": "40e5e90430e52e0f3a9f722525a6e3e7", "is_disabled": 0, "rental_uris": {"android": "https://dc.lft.to/lastmile_qr_scan", "ios": "https://dc.lft.to/lastmile_qr_scan"}, "fusion_lon": 0.0, "lat": 38.921674333333335, "bike_id": "40e5e90430e52e0f3a9f722525a6e3e7", "type": "electric_scooter", "is_reserved": 0, "lon": -77.03836}, {"fusion_lat": 0.0, "name": "396f84baa1d20d254f052657784c0501", "is_disabled": 0, "rental_uris": {"android": "https://dc.lft.to/lastmile_qr_scan", "ios": "https://dc.lft.to/lastmile_qr_scan"}, "fusion_lon": 0.0, "lat": 38.92227316666666, "bike_id": "396f84baa1d20d254f052657784c0501", "type": "electric_scooter", "is_reserved": 0, "lon": -77.02981633333333}, {"fusion_lat": 0.0, "name": "cb6986e1a9453b44c23c20b39f04fc8f", "is_disabled": 0, "rental_uris": {"android": "https://dc.lft.to/lastmile_qr_scan", "ios": "https://dc.lft.to/lastmile_qr_scan"}, "fusion_lon": 0.0, "lat": 38.90952816666667, "bike_id": "cb6986e1a9453b44c23c20b39f04fc8f", "type": "electric_scooter", "is_reserved": 0, "lon": -77.03947333333333}, {"fusion_lat": 0.0, "name": "a24662167c8c418fb0661c9f23daf970", "is_disabled": 0, "rental_uris": {"android": "https://dc.lft.to/lastmile_qr_scan", "ios": "https://dc.lft.to/lastmile_qr_scan"}, "fusion_lon": 0.0, "lat": 38.9166955, "bike_id": "a24662167c8c418fb0661c9f23daf970", "type": "electric_scooter", "is_reserved": 0, "lon": -77.02288}, {"fusion_lat": 0.0, "name": "965887bd5eaf00b9fbea5cc67cdfdb99", "is_disabled": 0, "rental_uris": {"android": "https://dc.lft.to/lastmile_qr_scan", "ios": "https://dc.lft.to/lastmile_qr_scan"}, "fusion_lon": 0.0, "lat": 38.9199035, "bike_id": "965887bd5eaf00b9fbea5cc67cdfdb99", "type": "electric_scooter", "is_reserved": 0, "lon": -77.03289416666667}, {"fusion_lat": 0.0, "name": "2f4d5b3d83f285d50c2c2648bb319443", "is_disabled": 0, "rental_uris": {"android": "https://dc.lft.to/lastmile_qr_scan", "ios": "https://dc.lft.to/lastmile_qr_scan"}, "fusion_lon": 0.0, "lat": 38.91563416666666, "bike_id": "2f4d5b3d83f285d50c2c2648bb319443", "type": "electric_scooter", "is_reserved": 0, "lon": -77.03142366666667}, {"fusion_lat": 0.0, "name": "8d7fac71a201495260f55c7860dbdcd8", "is_disabled": 0, "rental_uris": {"android": "https://dc.lft.to/lastmile_qr_scan", "ios": "https://dc.lft.to/lastmile_qr_scan"}, "fusion_lon": 0.0, "lat": 38.915638666666666, "bike_id": "8d7fac71a201495260f55c7860dbdcd8", "type": "electric_scooter", "is_reserved": 0, "lon": -77.01051383333333}, {"fusion_lat": 0.0, "name": "29cc8ff09954418d3b76f9624a21a551", "is_disabled": 0, "rental_uris": {"android": "https://dc.lft.to/lastmile_qr_scan", "ios": "https://dc.lft.to/lastmile_qr_scan"}, "fusion_lon": 0.0, "lat": 38.89218, "bike_id": "29cc8ff09954418d3b76f9624a21a551", "type": "electric_scooter", "is_reserved": 0, "lon": -77.0205425}, {"fusion_lat": 0.0, "name": "5a7c3226856d2370eda1e66e0b52d552", "is_disabled": 0, "rental_uris": {"android": "https://dc.lft.to/lastmile_qr_scan", "ios": "https://dc.lft.to/lastmile_qr_scan"}, "fusion_lon": 0.0, "lat": 38.90406683333333, "bike_id": "5a7c3226856d2370eda1e66e0b52d552", "type": "electric_scooter", "is_reserved": 0, "lon": -77.024969}, {"fusion_lat": 0.0, "name": "ddbe01d561079b0b85944553fe456f23", "is_disabled": 0, "rental_uris": {"android": "https://dc.lft.to/lastmile_qr_scan", "ios": "https://dc.lft.to/lastmile_qr_scan"}, "fusion_lon": 0.0, "lat": 38.916982, "bike_id": "ddbe01d561079b0b85944553fe456f23", "type": "electric_scooter", "is_reserved": 0, "lon": -77.02414016666667}, {"fusion_lat": 0.0, "name": "8871728a562c2779db907397283e12ac", "is_disabled": 0, "rental_uris": {"android": "https://dc.lft.to/lastmile_qr_scan", "ios": "https://dc.lft.to/lastmile_qr_scan"}, "fusion_lon": 0.0, "lat": 38.90166, "bike_id": "8871728a562c2779db907397283e12ac", "type": "electric_scooter", "is_reserved": 0, "lon": -77.0600615}, {"fusion_lat": 0.0, "name": "f5db9c7f45c2c41a4616f8a8e14a19f9", "is_disabled": 0, "rental_uris": {"android": "https://dc.lft.to/lastmile_qr_scan", "ios": "https://dc.lft.to/lastmile_qr_scan"}, "fusion_lon": 0.0, "lat": 38.8862345, "bike_id": "f5db9c7f45c2c41a4616f8a8e14a19f9", "type": "electric_scooter", "is_reserved": 0, "lon": -77.02829083333333}, {"fusion_lat": 0.0, "name": "a6a0aa17a31876152e7197e40cf9ce85", "is_disabled": 0, "rental_uris": {"android": "https://dc.lft.to/lastmile_qr_scan", "ios": "https://dc.lft.to/lastmile_qr_scan"}, "fusion_lon": 0.0, "lat": 38.89821116666667, "bike_id": "a6a0aa17a31876152e7197e40cf9ce85", "type": "electric_scooter", "is_reserved": 0, "lon": -77.03332466666667}, {"fusion_lat": 0.0, "name": "197102d321df326bce5ffce0217c30e8", "is_disabled": 0, "rental_uris": {"android": "https://dc.lft.to/lastmile_qr_scan", "ios": "https://dc.lft.to/lastmile_qr_scan"}, "fusion_lon": 0.0, "lat": 38.8849305, "bike_id": "197102d321df326bce5ffce0217c30e8", "type": "electric_scooter", "is_reserved": 0, "lon": -76.98062216666666}, {"fusion_lat": 0.0, "name": "42933ad91337ca717aaadce17728eb38", "is_disabled": 0, "rental_uris": {"android": "https://dc.lft.to/lastmile_qr_scan", "ios": "https://dc.lft.to/lastmile_qr_scan"}, "fusion_lon": 0.0, "lat": 38.920343333333335, "bike_id": "42933ad91337ca717aaadce17728eb38", "type": "electric_bike", "is_reserved": 0, "lon": -76.97964716666667}, {"fusion_lat": 0.0, "name": "1501b1cdce45d6384c714a8b22954ab1", "is_disabled": 0, "rental_uris": {"android": "https://dc.lft.to/lastmile_qr_scan", "ios": "https://dc.lft.to/lastmile_qr_scan"}, "fusion_lon": 0.0, "lat": 38.919099833333334, "bike_id": "1501b1cdce45d6384c714a8b22954ab1", "type": "electric_scooter", "is_reserved": 0, "lon": -77.02821983333334}, {"fusion_lat": 0.0, "name": "1b04f231ad4596ccdc4cbdc505434390", "is_disabled": 0, "rental_uris": {"android": "https://dc.lft.to/lastmile_qr_scan", "ios": "https://dc.lft.to/lastmile_qr_scan"}, "fusion_lon": 0.0, "lat": 38.900671, "bike_id": "1b04f231ad4596ccdc4cbdc505434390", "type": "electric_scooter", "is_reserved": 0, "lon": -76.92746416666667}, {"fusion_lat": 0.0, "name": "fcd6064a489f4938b1153d83541f8804", "is_disabled": 0, "rental_uris": {"android": "https://dc.lft.to/lastmile_qr_scan", "ios": "https://dc.lft.to/lastmile_qr_scan"}, "fusion_lon": 0.0, "lat": 38.887293666666665, "bike_id": "fcd6064a489f4938b1153d83541f8804", "type": "electric_scooter", "is_reserved": 0, "lon": -77.01516266666667}, {"fusion_lat": 0.0, "name": "3a8db71d3bedb8b96f785df26ccb8d23", "is_disabled": 0, "rental_uris": {"android": "https://dc.lft.to/lastmile_qr_scan", "ios": "https://dc.lft.to/lastmile_qr_scan"}, "fusion_lon": 0.0, "lat": 38.92354916666667, "bike_id": "3a8db71d3bedb8b96f785df26ccb8d23", "type": "electric_scooter", "is_reserved": 0, "lon": -77.05123983333333}, {"fusion_lat": 0.0, "name": "38802945b824085b7407bc517558023f", "is_disabled": 0, "rental_uris": {"android": "https://dc.lft.to/lastmile_qr_scan", "ios": "https://dc.lft.to/lastmile_qr_scan"}, "fusion_lon": 0.0, "lat": 38.8964805, "bike_id": "38802945b824085b7407bc517558023f", "type": "electric_scooter", "is_reserved": 0, "lon": -77.05100566666667}, {"fusion_lat": 0.0, "name": "cedb07bff4905983c6e45ce8fec3fe92", "is_disabled": 0, "rental_uris": {"android": "https://dc.lft.to/lastmile_qr_scan", "ios": "https://dc.lft.to/lastmile_qr_scan"}, "fusion_lon": 0.0, "lat": 38.91096233333333, "bike_id": "cedb07bff4905983c6e45ce8fec3fe92", "type": "electric_scooter", "is_reserved": 0, "lon": -77.04487233333333}, {"fusion_lat": 0.0, "name": "d6451901cfc6c1835320327206dae9ca", "is_disabled": 0, "rental_uris": {"android": "https://dc.lft.to/lastmile_qr_scan", "ios": "https://dc.lft.to/lastmile_qr_scan"}, "fusion_lon": 0.0, "lat": 38.9011285, "bike_id": "d6451901cfc6c1835320327206dae9ca", "type": "electric_scooter", "is_reserved": 0, "lon": -77.00216066666667}, {"fusion_lat": 0.0, "name": "4115f4925f828bfcc6a1a1ad73b70ac9", "is_disabled": 0, "rental_uris": {"android": "https://dc.lft.to/lastmile_qr_scan", "ios": "https://dc.lft.to/lastmile_qr_scan"}, "fusion_lon": 0.0, "lat": 38.89549183333333, "bike_id": "4115f4925f828bfcc6a1a1ad73b70ac9", "type": "electric_scooter", "is_reserved": 0, "lon": -76.9494975}, {"fusion_lat": 0.0, "name": "6270d33045163ff34cc60615e29e56ef", "is_disabled": 0, "rental_uris": {"android": "https://dc.lft.to/lastmile_qr_scan", "ios": "https://dc.lft.to/lastmile_qr_scan"}, "fusion_lon": 0.0, "lat": 38.918079, "bike_id": "6270d33045163ff34cc60615e29e56ef", "type": "electric_scooter", "is_reserved": 0, "lon": -77.028814}, {"fusion_lat": 0.0, "name": "d57e95fce5660ea9560c2a3fcd3a76c2", "is_disabled": 0, "rental_uris": {"android": "https://dc.lft.to/lastmile_qr_scan", "ios": "https://dc.lft.to/lastmile_qr_scan"}, "fusion_lon": 0.0, "lat": 38.875311833333335, "bike_id": "d57e95fce5660ea9560c2a3fcd3a76c2", "type": "electric_scooter", "is_reserved": 0, "lon": -77.00514133333333}, {"fusion_lat": 0.0, "name": "5723d3fd45423b9509f806d9b81197f5", "is_disabled": 0, "rental_uris": {"android": "https://dc.lft.to/lastmile_qr_scan", "ios": "https://dc.lft.to/lastmile_qr_scan"}, "fusion_lon": 0.0, "lat": 38.887207833333335, "bike_id": "5723d3fd45423b9509f806d9b81197f5", "type": "electric_scooter", "is_reserved": 0, "lon": -77.03166666666667}, {"fusion_lat": 0.0, "name": "ce7f2f900edfc9e71885b929ab09292b", "is_disabled": 0, "rental_uris": {"android": "https://dc.lft.to/lastmile_qr_scan", "ios": "https://dc.lft.to/lastmile_qr_scan"}, "fusion_lon": 0.0, "lat": 38.927556, "bike_id": "ce7f2f900edfc9e71885b929ab09292b", "type": "electric_scooter", "is_reserved": 0, "lon": -77.02430133333333}, {"fusion_lat": 0.0, "name": "924cf7c32ed9d0df0ae12ab96ac3338b", "is_disabled": 0, "rental_uris": {"android": "https://dc.lft.to/lastmile_qr_scan", "ios": "https://dc.lft.to/lastmile_qr_scan"}, "fusion_lon": 0.0, "lat": 38.92299333333333, "bike_id": "924cf7c32ed9d0df0ae12ab96ac3338b", "type": "electric_scooter", "is_reserved": 0, "lon": -77.0422875}, {"fusion_lat": 0.0, "name": "3cf3a9c8d229e7d0b41373902228e783", "is_disabled": 0, "rental_uris": {"android": "https://dc.lft.to/lastmile_qr_scan", "ios": "https://dc.lft.to/lastmile_qr_scan"}, "fusion_lon": 0.0, "lat": 38.80764833333333, "bike_id": "3cf3a9c8d229e7d0b41373902228e783", "type": "electric_bike", "is_reserved": 0, "lon": -77.12987233333334}, {"fusion_lat": 0.0, "name": "5a8aa9c7ff5fa65fe2c000562756b431", "is_disabled": 0, "rental_uris": {"android": "https://dc.lft.to/lastmile_qr_scan", "ios": "https://dc.lft.to/lastmile_qr_scan"}, "fusion_lon": 0.0, "lat": 38.871786, "bike_id": "5a8aa9c7ff5fa65fe2c000562756b431", "type": "electric_scooter", "is_reserved": 0, "lon": -77.0061405}, {"fusion_lat": 0.0, "name": "b61443e89073b3dd2fa8830dc18bef7c", "is_disabled": 0, "rental_uris": {"android": "https://dc.lft.to/lastmile_qr_scan", "ios": "https://dc.lft.to/lastmile_qr_scan"}, "fusion_lon": 0.0, "lat": 38.95755183333333, "bike_id": "b61443e89073b3dd2fa8830dc18bef7c", "type": "electric_scooter", "is_reserved": 0, "lon": -77.0205885}, {"fusion_lat": 0.0, "name": "020400958540bde00c5897bd8d413f6d", "is_disabled": 0, "rental_uris": {"android": "https://dc.lft.to/lastmile_qr_scan", "ios": "https://dc.lft.to/lastmile_qr_scan"}, "fusion_lon": 0.0, "lat": 38.920638, "bike_id": "020400958540bde00c5897bd8d413f6d", "type": "electric_scooter", "is_reserved": 0, "lon": -77.043583}, {"fusion_lat": 0.0, "name": "39c96e53a36faf924235cd907b9b345d", "is_disabled": 0, "rental_uris": {"android": "https://dc.lft.to/lastmile_qr_scan", "ios": "https://dc.lft.to/lastmile_qr_scan"}, "fusion_lon": 0.0, "lat": 38.895836, "bike_id": "39c96e53a36faf924235cd907b9b345d", "type": "electric_scooter", "is_reserved": 0, "lon": -77.02209416666666}, {"fusion_lat": 0.0, "name": "bd38691d6e5d16b1f772ee60c556cb81", "is_disabled": 0, "rental_uris": {"android": "https://dc.lft.to/lastmile_qr_scan", "ios": "https://dc.lft.to/lastmile_qr_scan"}, "fusion_lon": 0.0, "lat": 38.90619916666667, "bike_id": "bd38691d6e5d16b1f772ee60c556cb81", "type": "electric_scooter", "is_reserved": 0, "lon": -77.0500815}, {"fusion_lat": 0.0, "name": "c16066f940687d68f82c91ca0de17df6", "is_disabled": 0, "rental_uris": {"android": "https://dc.lft.to/lastmile_qr_scan", "ios": "https://dc.lft.to/lastmile_qr_scan"}, "fusion_lon": 0.0, "lat": 38.87748116666667, "bike_id": "c16066f940687d68f82c91ca0de17df6", "type": "electric_scooter", "is_reserved": 0, "lon": -77.00268533333333}, {"fusion_lat": 0.0, "name": "692dbbf2ef9ac91be06a5bf238b9fe54", "is_disabled": 0, "rental_uris": {"android": "https://dc.lft.to/lastmile_qr_scan", "ios": "https://dc.lft.to/lastmile_qr_scan"}, "fusion_lon": 0.0, "lat": 38.897406333333336, "bike_id": "692dbbf2ef9ac91be06a5bf238b9fe54", "type": "electric_scooter", "is_reserved": 0, "lon": -76.94721416666667}, {"fusion_lat": 0.0, "name": "8a48da0042065d612acd9fa400edcd01", "is_disabled": 0, "rental_uris": {"android": "https://dc.lft.to/lastmile_qr_scan", "ios": "https://dc.lft.to/lastmile_qr_scan"}, "fusion_lon": 0.0, "lat": 38.924772833333336, "bike_id": "8a48da0042065d612acd9fa400edcd01", "type": "electric_scooter", "is_reserved": 0, "lon": -77.03560983333334}, {"fusion_lat": 0.0, "name": "2c43241b8d21326ddfcd5677cbba15e1", "is_disabled": 0, "rental_uris": {"android": "https://dc.lft.to/lastmile_qr_scan", "ios": "https://dc.lft.to/lastmile_qr_scan"}, "fusion_lon": 0.0, "lat": 38.933397666666664, "bike_id": "2c43241b8d21326ddfcd5677cbba15e1", "type": "electric_scooter", "is_reserved": 0, "lon": -77.06199983333333}, {"fusion_lat": 0.0, "name": "4d66614b5c5f99a13840c04adafe759b", "is_disabled": 0, "rental_uris": {"android": "https://dc.lft.to/lastmile_qr_scan", "ios": "https://dc.lft.to/lastmile_qr_scan"}, "fusion_lon": 0.0, "lat": 38.89209483333333, "bike_id": "4d66614b5c5f99a13840c04adafe759b", "type": "electric_scooter", "is_reserved": 0, "lon": -77.02649883333333}, {"fusion_lat": 0.0, "name": "224113c4f2b8f663f032f659bbccfd1e", "is_disabled": 0, "rental_uris": {"android": "https://dc.lft.to/lastmile_qr_scan", "ios": "https://dc.lft.to/lastmile_qr_scan"}, "fusion_lon": 0.0, "lat": 38.874674666666664, "bike_id": "224113c4f2b8f663f032f659bbccfd1e", "type": "electric_scooter", "is_reserved": 0, "lon": -77.0047145}, {"fusion_lat": 0.0, "name": "64ac4fadfde606e3e5e2dd702f380b8c", "is_disabled": 0, "rental_uris": {"android": "https://dc.lft.to/lastmile_qr_scan", "ios": "https://dc.lft.to/lastmile_qr_scan"}, "fusion_lon": 0.0, "lat": 38.96993, "bike_id": "64ac4fadfde606e3e5e2dd702f380b8c", "type": "electric_scooter", "is_reserved": 0, "lon": -77.011638}, {"fusion_lat": 0.0, "name": "d17c4240941b11febc30eb46182ff290", "is_disabled": 0, "rental_uris": {"android": "https://dc.lft.to/lastmile_qr_scan", "ios": "https://dc.lft.to/lastmile_qr_scan"}, "fusion_lon": 0.0, "lat": 38.90717883333333, "bike_id": "d17c4240941b11febc30eb46182ff290", "type": "electric_scooter", "is_reserved": 0, "lon": -77.025064}, {"fusion_lat": 0.0, "name": "c15a54e9c91df46c7f8960e7b5a8cc14", "is_disabled": 0, "rental_uris": {"android": "https://dc.lft.to/lastmile_qr_scan", "ios": "https://dc.lft.to/lastmile_qr_scan"}, "fusion_lon": 0.0, "lat": 38.874516166666666, "bike_id": "c15a54e9c91df46c7f8960e7b5a8cc14", "type": "electric_scooter", "is_reserved": 0, "lon": -77.0188925}, {"fusion_lat": 0.0, "name": "a2c705ade2d1116527b15dcb5ca2e0ea", "is_disabled": 0, "rental_uris": {"android": "https://dc.lft.to/lastmile_qr_scan", "ios": "https://dc.lft.to/lastmile_qr_scan"}, "fusion_lon": 0.0, "lat": 38.88418266666667, "bike_id": "a2c705ade2d1116527b15dcb5ca2e0ea", "type": "electric_scooter", "is_reserved": 0, "lon": -77.028994}, {"fusion_lat": 0.0, "name": "7b4c5182063be7675e9e93c3e467f218", "is_disabled": 0, "rental_uris": {"android": "https://dc.lft.to/lastmile_qr_scan", "ios": "https://dc.lft.to/lastmile_qr_scan"}, "fusion_lon": 0.0, "lat": 38.940902333333334, "bike_id": "7b4c5182063be7675e9e93c3e467f218", "type": "electric_scooter", "is_reserved": 0, "lon": -77.02322666666667}, {"fusion_lat": 0.0, "name": "b056f22577dd72324c13a807091b82db", "is_disabled": 0, "rental_uris": {"android": "https://dc.lft.to/lastmile_qr_scan", "ios": "https://dc.lft.to/lastmile_qr_scan"}, "fusion_lon": 0.0, "lat": 38.925866166666665, "bike_id": "b056f22577dd72324c13a807091b82db", "type": "electric_scooter", "is_reserved": 0, "lon": -77.03741366666667}, {"fusion_lat": 0.0, "name": "cfbc54d72b644bcf98dbde4f60d183ea", "is_disabled": 0, "rental_uris": {"android": "https://dc.lft.to/lastmile_qr_scan", "ios": "https://dc.lft.to/lastmile_qr_scan"}, "fusion_lon": 0.0, "lat": 38.896664666666666, "bike_id": "cfbc54d72b644bcf98dbde4f60d183ea", "type": "electric_scooter", "is_reserved": 0, "lon": -77.05051383333333}, {"fusion_lat": 0.0, "name": "8950bd322e4395706275bff7382d9bc7", "is_disabled": 0, "rental_uris": {"android": "https://dc.lft.to/lastmile_qr_scan", "ios": "https://dc.lft.to/lastmile_qr_scan"}, "fusion_lon": 0.0, "lat": 38.88724883333333, "bike_id": "8950bd322e4395706275bff7382d9bc7", "type": "electric_scooter", "is_reserved": 0, "lon": -77.01341583333334}, {"fusion_lat": 0.0, "name": "0c41c21d8427b0e4d8c86e4a339eb975", "is_disabled": 0, "rental_uris": {"android": "https://dc.lft.to/lastmile_qr_scan", "ios": "https://dc.lft.to/lastmile_qr_scan"}, "fusion_lon": 0.0, "lat": 38.90069783333333, "bike_id": "0c41c21d8427b0e4d8c86e4a339eb975", "type": "electric_scooter", "is_reserved": 0, "lon": -77.02187666666667}, {"fusion_lat": 0.0, "name": "a61c683e8fcfca40a4a868e0f172e6dc", "is_disabled": 0, "rental_uris": {"android": "https://dc.lft.to/lastmile_qr_scan", "ios": "https://dc.lft.to/lastmile_qr_scan"}, "fusion_lon": 0.0, "lat": 38.93202733333333, "bike_id": "a61c683e8fcfca40a4a868e0f172e6dc", "type": "electric_scooter", "is_reserved": 0, "lon": -77.0349675}, {"fusion_lat": 0.0, "name": "8ebaae880bb665f6981327912c277fe6", "is_disabled": 0, "rental_uris": {"android": "https://dc.lft.to/lastmile_qr_scan", "ios": "https://dc.lft.to/lastmile_qr_scan"}, "fusion_lon": 0.0, "lat": 38.92756833333333, "bike_id": "8ebaae880bb665f6981327912c277fe6", "type": "electric_scooter", "is_reserved": 0, "lon": -77.05282}, {"fusion_lat": 0.0, "name": "d6d8a4aebfc841fccb52ebbed539e9c1", "is_disabled": 0, "rental_uris": {"android": "https://dc.lft.to/lastmile_qr_scan", "ios": "https://dc.lft.to/lastmile_qr_scan"}, "fusion_lon": 0.0, "lat": 38.937549, "bike_id": "d6d8a4aebfc841fccb52ebbed539e9c1", "type": "electric_scooter", "is_reserved": 0, "lon": -77.03263666666666}, {"fusion_lat": 0.0, "name": "de932f02d318e9f0c595d29613d0cea1", "is_disabled": 0, "rental_uris": {"android": "https://dc.lft.to/lastmile_qr_scan", "ios": "https://dc.lft.to/lastmile_qr_scan"}, "fusion_lon": 0.0, "lat": 38.9001115, "bike_id": "de932f02d318e9f0c595d29613d0cea1", "type": "electric_scooter", "is_reserved": 0, "lon": -76.9881445}, {"fusion_lat": 0.0, "name": "7232b3fd4a7a63815de7b1778749cf44", "is_disabled": 0, "rental_uris": {"android": "https://dc.lft.to/lastmile_qr_scan", "ios": "https://dc.lft.to/lastmile_qr_scan"}, "fusion_lon": 0.0, "lat": 38.925262333333336, "bike_id": "7232b3fd4a7a63815de7b1778749cf44", "type": "electric_scooter", "is_reserved": 0, "lon": -77.050402}, {"fusion_lat": 0.0, "name": "164f4e3d4eb3c5103208dfa04b4d346c", "is_disabled": 0, "rental_uris": {"android": "https://dc.lft.to/lastmile_qr_scan", "ios": "https://dc.lft.to/lastmile_qr_scan"}, "fusion_lon": 0.0, "lat": 38.90715216666667, "bike_id": "164f4e3d4eb3c5103208dfa04b4d346c", "type": "electric_scooter", "is_reserved": 0, "lon": -77.02411183333334}, {"fusion_lat": 0.0, "name": "eef42ad0d0c1a0a9ce25243783686692", "is_disabled": 0, "rental_uris": {"android": "https://dc.lft.to/lastmile_qr_scan", "ios": "https://dc.lft.to/lastmile_qr_scan"}, "fusion_lon": 0.0, "lat": 38.92778416666667, "bike_id": "eef42ad0d0c1a0a9ce25243783686692", "type": "electric_scooter", "is_reserved": 0, "lon": -77.05322416666667}, {"fusion_lat": 0.0, "name": "8af34c29638d8af48e17b61c0787a669", "is_disabled": 0, "rental_uris": {"android": "https://dc.lft.to/lastmile_qr_scan", "ios": "https://dc.lft.to/lastmile_qr_scan"}, "fusion_lon": 0.0, "lat": 38.906181833333335, "bike_id": "8af34c29638d8af48e17b61c0787a669", "type": "electric_scooter", "is_reserved": 0, "lon": -77.00563133333333}, {"fusion_lat": 0.0, "name": "ea0e566b46d2f47ba97f0145902da521", "is_disabled": 0, "rental_uris": {"android": "https://dc.lft.to/lastmile_qr_scan", "ios": "https://dc.lft.to/lastmile_qr_scan"}, "fusion_lon": 0.0, "lat": 38.92143633333333, "bike_id": "ea0e566b46d2f47ba97f0145902da521", "type": "electric_scooter", "is_reserved": 0, "lon": -77.01928866666667}, {"fusion_lat": 0.0, "name": "8dac4ae1a09cd1c938b4e0b4fabf240d", "is_disabled": 0, "rental_uris": {"android": "https://dc.lft.to/lastmile_qr_scan", "ios": "https://dc.lft.to/lastmile_qr_scan"}, "fusion_lon": 0.0, "lat": 38.91968383333333, "bike_id": "8dac4ae1a09cd1c938b4e0b4fabf240d", "type": "electric_scooter", "is_reserved": 0, "lon": -77.02376983333333}, {"fusion_lat": 0.0, "name": "f03f18ba62fb1cca4b53e5ed68967d95", "is_disabled": 0, "rental_uris": {"android": "https://dc.lft.to/lastmile_qr_scan", "ios": "https://dc.lft.to/lastmile_qr_scan"}, "fusion_lon": 0.0, "lat": 38.8973685, "bike_id": "f03f18ba62fb1cca4b53e5ed68967d95", "type": "electric_scooter", "is_reserved": 0, "lon": -77.04426566666666}, {"fusion_lat": 0.0, "name": "3be3041f4cc265cd2140421e6248f112", "is_disabled": 0, "rental_uris": {"android": "https://dc.lft.to/lastmile_qr_scan", "ios": "https://dc.lft.to/lastmile_qr_scan"}, "fusion_lon": 0.0, "lat": 38.90502166666667, "bike_id": "3be3041f4cc265cd2140421e6248f112", "type": "electric_scooter", "is_reserved": 0, "lon": -77.02949816666667}, {"fusion_lat": 0.0, "name": "18bfc203ef1628a304c3ef996b84f309", "is_disabled": 0, "rental_uris": {"android": "https://dc.lft.to/lastmile_qr_scan", "ios": "https://dc.lft.to/lastmile_qr_scan"}, "fusion_lon": 0.0, "lat": 38.90240816666667, "bike_id": "18bfc203ef1628a304c3ef996b84f309", "type": "electric_scooter", "is_reserved": 0, "lon": -77.01888083333333}, {"fusion_lat": 0.0, "name": "4f8f52df9ea43f7d5b36477e14a3ceb6", "is_disabled": 0, "rental_uris": {"android": "https://dc.lft.to/lastmile_qr_scan", "ios": "https://dc.lft.to/lastmile_qr_scan"}, "fusion_lon": 0.0, "lat": 38.90106216666667, "bike_id": "4f8f52df9ea43f7d5b36477e14a3ceb6", "type": "electric_scooter", "is_reserved": 0, "lon": -77.026191}, {"fusion_lat": 0.0, "name": "a7a9bca4748bb7c9b886bcd8634919bb", "is_disabled": 0, "rental_uris": {"android": "https://dc.lft.to/lastmile_qr_scan", "ios": "https://dc.lft.to/lastmile_qr_scan"}, "fusion_lon": 0.0, "lat": 38.9046865, "bike_id": "a7a9bca4748bb7c9b886bcd8634919bb", "type": "electric_scooter", "is_reserved": 0, "lon": -77.03580783333334}, {"fusion_lat": 0.0, "name": "eaab2e567b67c3f8869c6acad27379c1", "is_disabled": 0, "rental_uris": {"android": "https://dc.lft.to/lastmile_qr_scan", "ios": "https://dc.lft.to/lastmile_qr_scan"}, "fusion_lon": 0.0, "lat": 38.909614, "bike_id": "eaab2e567b67c3f8869c6acad27379c1", "type": "electric_scooter", "is_reserved": 0, "lon": -77.03421733333333}, {"fusion_lat": 0.0, "name": "a62fa0f36bef9471e2758569c5c1336b", "is_disabled": 0, "rental_uris": {"android": "https://dc.lft.to/lastmile_qr_scan", "ios": "https://dc.lft.to/lastmile_qr_scan"}, "fusion_lon": 0.0, "lat": 38.90955733333333, "bike_id": "a62fa0f36bef9471e2758569c5c1336b", "type": "electric_scooter", "is_reserved": 0, "lon": -77.0394575}, {"fusion_lat": 0.0, "name": "e5e532234b7b56bf305c031e9e9ef4d4", "is_disabled": 0, "rental_uris": {"android": "https://dc.lft.to/lastmile_qr_scan", "ios": "https://dc.lft.to/lastmile_qr_scan"}, "fusion_lon": 0.0, "lat": 38.856049666666664, "bike_id": "e5e532234b7b56bf305c031e9e9ef4d4", "type": "electric_bike", "is_reserved": 0, "lon": -77.10810683333334}, {"fusion_lat": 0.0, "name": "7e4b9b53ea7c400419f23ee580f4a777", "is_disabled": 0, "rental_uris": {"android": "https://dc.lft.to/lastmile_qr_scan", "ios": "https://dc.lft.to/lastmile_qr_scan"}, "fusion_lon": 0.0, "lat": 38.914609, "bike_id": "7e4b9b53ea7c400419f23ee580f4a777", "type": "electric_scooter", "is_reserved": 0, "lon": -77.01561966666667}, {"fusion_lat": 0.0, "name": "f235128bb4194299ff75d1da0192e935", "is_disabled": 0, "rental_uris": {"android": "https://dc.lft.to/lastmile_qr_scan", "ios": "https://dc.lft.to/lastmile_qr_scan"}, "fusion_lon": 0.0, "lat": 38.8776775, "bike_id": "f235128bb4194299ff75d1da0192e935", "type": "electric_scooter", "is_reserved": 0, "lon": -77.00351866666666}, {"fusion_lat": 0.0, "name": "e5b13447b002686e79d10c81a9b8ff2f", "is_disabled": 0, "rental_uris": {"android": "https://dc.lft.to/lastmile_qr_scan", "ios": "https://dc.lft.to/lastmile_qr_scan"}, "fusion_lon": 0.0, "lat": 38.91224233333333, "bike_id": "e5b13447b002686e79d10c81a9b8ff2f", "type": "electric_scooter", "is_reserved": 0, "lon": -77.04781366666667}, {"fusion_lat": 0.0, "name": "b9d4fd85483698d31e2eee4ebfbd1ead", "is_disabled": 0, "rental_uris": {"android": "https://dc.lft.to/lastmile_qr_scan", "ios": "https://dc.lft.to/lastmile_qr_scan"}, "fusion_lon": 0.0, "lat": 38.905096, "bike_id": "b9d4fd85483698d31e2eee4ebfbd1ead", "type": "electric_scooter", "is_reserved": 0, "lon": -77.017154}, {"fusion_lat": 0.0, "name": "5275dfdd5cffaa24a09d6da64c091ac0", "is_disabled": 0, "rental_uris": {"android": "https://dc.lft.to/lastmile_qr_scan", "ios": "https://dc.lft.to/lastmile_qr_scan"}, "fusion_lon": 0.0, "lat": 38.899120333333336, "bike_id": "5275dfdd5cffaa24a09d6da64c091ac0", "type": "electric_scooter", "is_reserved": 0, "lon": -77.0513225}, {"fusion_lat": 0.0, "name": "58444bd8b2f6a9cea3a990b7990a0e58", "is_disabled": 0, "rental_uris": {"android": "https://dc.lft.to/lastmile_qr_scan", "ios": "https://dc.lft.to/lastmile_qr_scan"}, "fusion_lon": 0.0, "lat": 38.9027, "bike_id": "58444bd8b2f6a9cea3a990b7990a0e58", "type": "electric_scooter", "is_reserved": 0, "lon": -76.98988283333334}, {"fusion_lat": 0.0, "name": "8d2c5c8931059d568c2858f4718ed30d", "is_disabled": 0, "rental_uris": {"android": "https://dc.lft.to/lastmile_qr_scan", "ios": "https://dc.lft.to/lastmile_qr_scan"}, "fusion_lon": 0.0, "lat": 38.90015366666667, "bike_id": "8d2c5c8931059d568c2858f4718ed30d", "type": "electric_scooter", "is_reserved": 0, "lon": -77.02972183333333}, {"fusion_lat": 0.0, "name": "beac5a0a2387e8175c58d0ab6b0f436b", "is_disabled": 0, "rental_uris": {"android": "https://dc.lft.to/lastmile_qr_scan", "ios": "https://dc.lft.to/lastmile_qr_scan"}, "fusion_lon": 0.0, "lat": 38.89497883333333, "bike_id": "beac5a0a2387e8175c58d0ab6b0f436b", "type": "electric_scooter", "is_reserved": 0, "lon": -77.002213}, {"fusion_lat": 0.0, "name": "74f82383bc99a4d20ccc782a9378d0a4", "is_disabled": 0, "rental_uris": {"android": "https://dc.lft.to/lastmile_qr_scan", "ios": "https://dc.lft.to/lastmile_qr_scan"}, "fusion_lon": 0.0, "lat": 38.91214933333333, "bike_id": "74f82383bc99a4d20ccc782a9378d0a4", "type": "electric_scooter", "is_reserved": 0, "lon": -77.01986366666667}, {"fusion_lat": 0.0, "name": "28b8f653d681dae05aaa816d87dabe57", "is_disabled": 0, "rental_uris": {"android": "https://dc.lft.to/lastmile_qr_scan", "ios": "https://dc.lft.to/lastmile_qr_scan"}, "fusion_lon": 0.0, "lat": 38.92620816666667, "bike_id": "28b8f653d681dae05aaa816d87dabe57", "type": "electric_scooter", "is_reserved": 0, "lon": -77.0419455}, {"fusion_lat": 0.0, "name": "382d8d7bcfef2ac4a933a2a3a738bb71", "is_disabled": 0, "rental_uris": {"android": "https://dc.lft.to/lastmile_qr_scan", "ios": "https://dc.lft.to/lastmile_qr_scan"}, "fusion_lon": 0.0, "lat": 38.907093, "bike_id": "382d8d7bcfef2ac4a933a2a3a738bb71", "type": "electric_scooter", "is_reserved": 0, "lon": -77.0075535}, {"fusion_lat": 0.0, "name": "500d1c6ca928b364acabf7036804ce26", "is_disabled": 0, "rental_uris": {"android": "https://dc.lft.to/lastmile_qr_scan", "ios": "https://dc.lft.to/lastmile_qr_scan"}, "fusion_lon": 0.0, "lat": 38.839335166666665, "bike_id": "500d1c6ca928b364acabf7036804ce26", "type": "electric_bike", "is_reserved": 0, "lon": -77.0790765}, {"fusion_lat": 0.0, "name": "5ae8967d645ec70085f1031a2f7d55fe", "is_disabled": 0, "rental_uris": {"android": "https://dc.lft.to/lastmile_qr_scan", "ios": "https://dc.lft.to/lastmile_qr_scan"}, "fusion_lon": 0.0, "lat": 38.93357966666667, "bike_id": "5ae8967d645ec70085f1031a2f7d55fe", "type": "electric_scooter", "is_reserved": 0, "lon": -77.03875266666667}, {"fusion_lat": 0.0, "name": "6ed840e1ad0843483d42dd77bb086ed9", "is_disabled": 0, "rental_uris": {"android": "https://dc.lft.to/lastmile_qr_scan", "ios": "https://dc.lft.to/lastmile_qr_scan"}, "fusion_lon": 0.0, "lat": 38.877328166666665, "bike_id": "6ed840e1ad0843483d42dd77bb086ed9", "type": "electric_scooter", "is_reserved": 0, "lon": -77.0215375}, {"fusion_lat": 0.0, "name": "66a46ead61b6d62a4edbf1024a38d19d", "is_disabled": 0, "rental_uris": {"android": "https://dc.lft.to/lastmile_qr_scan", "ios": "https://dc.lft.to/lastmile_qr_scan"}, "fusion_lon": 0.0, "lat": 38.89499816666667, "bike_id": "66a46ead61b6d62a4edbf1024a38d19d", "type": "electric_scooter", "is_reserved": 0, "lon": -77.00333133333334}, {"fusion_lat": 0.0, "name": "89ff20e13147b982baa0404b0bc01e3f", "is_disabled": 0, "rental_uris": {"android": "https://dc.lft.to/lastmile_qr_scan", "ios": "https://dc.lft.to/lastmile_qr_scan"}, "fusion_lon": 0.0, "lat": 38.92599633333333, "bike_id": "89ff20e13147b982baa0404b0bc01e3f", "type": "electric_scooter", "is_reserved": 0, "lon": -77.02401966666666}, {"fusion_lat": 0.0, "name": "41f2dfde86f53dfc518d61f8686fd36b", "is_disabled": 0, "rental_uris": {"android": "https://dc.lft.to/lastmile_qr_scan", "ios": "https://dc.lft.to/lastmile_qr_scan"}, "fusion_lon": 0.0, "lat": 38.93041783333334, "bike_id": "41f2dfde86f53dfc518d61f8686fd36b", "type": "electric_scooter", "is_reserved": 0, "lon": -77.03220566666667}, {"fusion_lat": 0.0, "name": "73f426efe561aa097a7c500d8c25bc11", "is_disabled": 0, "rental_uris": {"android": "https://dc.lft.to/lastmile_qr_scan", "ios": "https://dc.lft.to/lastmile_qr_scan"}, "fusion_lon": 0.0, "lat": 38.878855333333334, "bike_id": "73f426efe561aa097a7c500d8c25bc11", "type": "electric_bike", "is_reserved": 0, "lon": -76.99170183333334}, {"fusion_lat": 0.0, "name": "1029c0655b48bcfe620b7cb1600206a4", "is_disabled": 0, "rental_uris": {"android": "https://dc.lft.to/lastmile_qr_scan", "ios": "https://dc.lft.to/lastmile_qr_scan"}, "fusion_lon": 0.0, "lat": 38.923167, "bike_id": "1029c0655b48bcfe620b7cb1600206a4", "type": "electric_scooter", "is_reserved": 0, "lon": -77.04138916666666}, {"fusion_lat": 0.0, "name": "88c9e5f6308453b206f8ecf3110df7d1", "is_disabled": 0, "rental_uris": {"android": "https://dc.lft.to/lastmile_qr_scan", "ios": "https://dc.lft.to/lastmile_qr_scan"}, "fusion_lon": 0.0, "lat": 38.91701466666667, "bike_id": "88c9e5f6308453b206f8ecf3110df7d1", "type": "electric_scooter", "is_reserved": 0, "lon": -77.024377}, {"fusion_lat": 0.0, "name": "aefbb5d35d9f2d3ec4dbc1107a4804cf", "is_disabled": 0, "rental_uris": {"android": "https://dc.lft.to/lastmile_qr_scan", "ios": "https://dc.lft.to/lastmile_qr_scan"}, "fusion_lon": 0.0, "lat": 38.914118, "bike_id": "aefbb5d35d9f2d3ec4dbc1107a4804cf", "type": "electric_scooter", "is_reserved": 0, "lon": -77.02821983333334}, {"fusion_lat": 0.0, "name": "0ddc473e23f97a5fb79a5d90855e1140", "is_disabled": 0, "rental_uris": {"android": "https://dc.lft.to/lastmile_qr_scan", "ios": "https://dc.lft.to/lastmile_qr_scan"}, "fusion_lon": 0.0, "lat": 38.901467333333336, "bike_id": "0ddc473e23f97a5fb79a5d90855e1140", "type": "electric_scooter", "is_reserved": 0, "lon": -76.93073316666667}, {"fusion_lat": 0.0, "name": "9852a4162972161abcabed65c51c8236", "is_disabled": 0, "rental_uris": {"android": "https://dc.lft.to/lastmile_qr_scan", "ios": "https://dc.lft.to/lastmile_qr_scan"}, "fusion_lon": 0.0, "lat": 38.9194265, "bike_id": "9852a4162972161abcabed65c51c8236", "type": "electric_scooter", "is_reserved": 0, "lon": -77.0235895}, {"fusion_lat": 0.0, "name": "f46e3d0107ba551666a848647a793bd3", "is_disabled": 0, "rental_uris": {"android": "https://dc.lft.to/lastmile_qr_scan", "ios": "https://dc.lft.to/lastmile_qr_scan"}, "fusion_lon": 0.0, "lat": 38.92232, "bike_id": "f46e3d0107ba551666a848647a793bd3", "type": "electric_scooter", "is_reserved": 0, "lon": -77.042485}, {"fusion_lat": 0.0, "name": "c6bcf807e17f7fb19b157fc5ef13e9ce", "is_disabled": 0, "rental_uris": {"android": "https://dc.lft.to/lastmile_qr_scan", "ios": "https://dc.lft.to/lastmile_qr_scan"}, "fusion_lon": 0.0, "lat": 38.89856, "bike_id": "c6bcf807e17f7fb19b157fc5ef13e9ce", "type": "electric_bike", "is_reserved": 0, "lon": -77.01526166666666}, {"fusion_lat": 0.0, "name": "366f07d36ff8f6028e24f853ad59d9ed", "is_disabled": 0, "rental_uris": {"android": "https://dc.lft.to/lastmile_qr_scan", "ios": "https://dc.lft.to/lastmile_qr_scan"}, "fusion_lon": 0.0, "lat": 38.92859383333333, "bike_id": "366f07d36ff8f6028e24f853ad59d9ed", "type": "electric_scooter", "is_reserved": 0, "lon": -77.03448583333333}, {"fusion_lat": 0.0, "name": "c0b5018d6ff4a20aceca1634c004b231", "is_disabled": 0, "rental_uris": {"android": "https://dc.lft.to/lastmile_qr_scan", "ios": "https://dc.lft.to/lastmile_qr_scan"}, "fusion_lon": 0.0, "lat": 38.908538, "bike_id": "c0b5018d6ff4a20aceca1634c004b231", "type": "electric_scooter", "is_reserved": 0, "lon": -76.99766316666667}, {"fusion_lat": 0.0, "name": "3f4180fc0cb3ae340299e2ee2a5d50e8", "is_disabled": 0, "rental_uris": {"android": "https://dc.lft.to/lastmile_qr_scan", "ios": "https://dc.lft.to/lastmile_qr_scan"}, "fusion_lon": 0.0, "lat": 38.90679383333333, "bike_id": "3f4180fc0cb3ae340299e2ee2a5d50e8", "type": "electric_bike", "is_reserved": 0, "lon": -76.944968}, {"fusion_lat": 0.0, "name": "108fc7bdf9a16c8d627b30552aff6633", "is_disabled": 0, "rental_uris": {"android": "https://dc.lft.to/lastmile_qr_scan", "ios": "https://dc.lft.to/lastmile_qr_scan"}, "fusion_lon": 0.0, "lat": 38.92404716666667, "bike_id": "108fc7bdf9a16c8d627b30552aff6633", "type": "electric_scooter", "is_reserved": 0, "lon": -77.0516875}, {"fusion_lat": 0.0, "name": "063ac4c9695d6b15c9d00c948cc906b5", "is_disabled": 0, "rental_uris": {"android": "https://dc.lft.to/lastmile_qr_scan", "ios": "https://dc.lft.to/lastmile_qr_scan"}, "fusion_lon": 0.0, "lat": 38.91550016666667, "bike_id": "063ac4c9695d6b15c9d00c948cc906b5", "type": "electric_scooter", "is_reserved": 0, "lon": -77.0298865}, {"fusion_lat": 0.0, "name": "92873f3d805c5323cc0f80238424c938", "is_disabled": 0, "rental_uris": {"android": "https://dc.lft.to/lastmile_qr_scan", "ios": "https://dc.lft.to/lastmile_qr_scan"}, "fusion_lon": 0.0, "lat": 38.871492833333335, "bike_id": "92873f3d805c5323cc0f80238424c938", "type": "electric_bike", "is_reserved": 0, "lon": -77.131546}, {"fusion_lat": 0.0, "name": "c007c166b21b232bcb0f9d19b6e1d7eb", "is_disabled": 0, "rental_uris": {"android": "https://dc.lft.to/lastmile_qr_scan", "ios": "https://dc.lft.to/lastmile_qr_scan"}, "fusion_lon": 0.0, "lat": 38.93236383333333, "bike_id": "c007c166b21b232bcb0f9d19b6e1d7eb", "type": "electric_scooter", "is_reserved": 0, "lon": -77.0340985}, {"fusion_lat": 0.0, "name": "8d01cb1552ff3fd1f43bad1a18c4575e", "is_disabled": 0, "rental_uris": {"android": "https://dc.lft.to/lastmile_qr_scan", "ios": "https://dc.lft.to/lastmile_qr_scan"}, "fusion_lon": 0.0, "lat": 38.932057, "bike_id": "8d01cb1552ff3fd1f43bad1a18c4575e", "type": "electric_scooter", "is_reserved": 0, "lon": -77.038596}, {"fusion_lat": 0.0, "name": "fa95560b7f5c051525e1450bf10c7903", "is_disabled": 0, "rental_uris": {"android": "https://dc.lft.to/lastmile_qr_scan", "ios": "https://dc.lft.to/lastmile_qr_scan"}, "fusion_lon": 0.0, "lat": 38.919142666666666, "bike_id": "fa95560b7f5c051525e1450bf10c7903", "type": "electric_scooter", "is_reserved": 0, "lon": -77.033467}, {"fusion_lat": 0.0, "name": "fc06d8c8e256e4983960c1e5917a14f1", "is_disabled": 0, "rental_uris": {"android": "https://dc.lft.to/lastmile_qr_scan", "ios": "https://dc.lft.to/lastmile_qr_scan"}, "fusion_lon": 0.0, "lat": 38.905908833333335, "bike_id": "fc06d8c8e256e4983960c1e5917a14f1", "type": "electric_scooter", "is_reserved": 0, "lon": -77.04184616666667}, {"fusion_lat": 0.0, "name": "0139c2a3fb2fa19e4919e07ebe0ffd5d", "is_disabled": 0, "rental_uris": {"android": "https://dc.lft.to/lastmile_qr_scan", "ios": "https://dc.lft.to/lastmile_qr_scan"}, "fusion_lon": 0.0, "lat": 38.898738333333334, "bike_id": "0139c2a3fb2fa19e4919e07ebe0ffd5d", "type": "electric_scooter", "is_reserved": 0, "lon": -77.0091075}, {"fusion_lat": 0.0, "name": "cde23dde6305f6fb05d2e867a5335bf7", "is_disabled": 0, "rental_uris": {"android": "https://dc.lft.to/lastmile_qr_scan", "ios": "https://dc.lft.to/lastmile_qr_scan"}, "fusion_lon": 0.0, "lat": 38.900232, "bike_id": "cde23dde6305f6fb05d2e867a5335bf7", "type": "electric_scooter", "is_reserved": 0, "lon": -76.97404283333333}, {"fusion_lat": 0.0, "name": "9cd27503484cf62848ddd45881fce980", "is_disabled": 0, "rental_uris": {"android": "https://dc.lft.to/lastmile_qr_scan", "ios": "https://dc.lft.to/lastmile_qr_scan"}, "fusion_lon": 0.0, "lat": 38.887625166666666, "bike_id": "9cd27503484cf62848ddd45881fce980", "type": "electric_scooter", "is_reserved": 0, "lon": -77.03351716666667}, {"fusion_lat": 0.0, "name": "89e1b451e3bd3062433d2fa300f9c8a9", "is_disabled": 0, "rental_uris": {"android": "https://dc.lft.to/lastmile_qr_scan", "ios": "https://dc.lft.to/lastmile_qr_scan"}, "fusion_lon": 0.0, "lat": 38.91515583333333, "bike_id": "89e1b451e3bd3062433d2fa300f9c8a9", "type": "electric_scooter", "is_reserved": 0, "lon": -77.01226216666667}, {"fusion_lat": 0.0, "name": "a00971ea22f6cc44d8879a5340b2a2aa", "is_disabled": 0, "rental_uris": {"android": "https://dc.lft.to/lastmile_qr_scan", "ios": "https://dc.lft.to/lastmile_qr_scan"}, "fusion_lon": 0.0, "lat": 38.929629166666665, "bike_id": "a00971ea22f6cc44d8879a5340b2a2aa", "type": "electric_scooter", "is_reserved": 0, "lon": -77.05523533333333}, {"fusion_lat": 0.0, "name": "1bb1a7c2107e954eadced862b426335b", "is_disabled": 0, "rental_uris": {"android": "https://dc.lft.to/lastmile_qr_scan", "ios": "https://dc.lft.to/lastmile_qr_scan"}, "fusion_lon": 0.0, "lat": 38.916994, "bike_id": "1bb1a7c2107e954eadced862b426335b", "type": "electric_scooter", "is_reserved": 0, "lon": -77.0262455}, {"fusion_lat": 0.0, "name": "a9f1fa9764b9f2ef77c06d5313ce3a38", "is_disabled": 0, "rental_uris": {"android": "https://dc.lft.to/lastmile_qr_scan", "ios": "https://dc.lft.to/lastmile_qr_scan"}, "fusion_lon": 0.0, "lat": 38.892259333333335, "bike_id": "a9f1fa9764b9f2ef77c06d5313ce3a38", "type": "electric_scooter", "is_reserved": 0, "lon": -77.0486645}, {"fusion_lat": 0.0, "name": "d4e7cd06deea8c837ca95f6f14b19ec1", "is_disabled": 0, "rental_uris": {"android": "https://dc.lft.to/lastmile_qr_scan", "ios": "https://dc.lft.to/lastmile_qr_scan"}, "fusion_lon": 0.0, "lat": 38.898304833333334, "bike_id": "d4e7cd06deea8c837ca95f6f14b19ec1", "type": "electric_scooter", "is_reserved": 0, "lon": -77.024844}, {"fusion_lat": 0.0, "name": "18c19446ca653759a92ac3ea96aef05c", "is_disabled": 0, "rental_uris": {"android": "https://dc.lft.to/lastmile_qr_scan", "ios": "https://dc.lft.to/lastmile_qr_scan"}, "fusion_lon": 0.0, "lat": 38.923313666666665, "bike_id": "18c19446ca653759a92ac3ea96aef05c", "type": "electric_scooter", "is_reserved": 0, "lon": -77.056815}, {"fusion_lat": 0.0, "name": "8c8296d97d74ae4a60f9a38867c331d5", "is_disabled": 0, "rental_uris": {"android": "https://dc.lft.to/lastmile_qr_scan", "ios": "https://dc.lft.to/lastmile_qr_scan"}, "fusion_lon": 0.0, "lat": 38.91607883333333, "bike_id": "8c8296d97d74ae4a60f9a38867c331d5", "type": "electric_scooter", "is_reserved": 0, "lon": -77.02303933333333}, {"fusion_lat": 0.0, "name": "b2f3e566e93b8e46c1dfa50ea9830bbb", "is_disabled": 0, "rental_uris": {"android": "https://dc.lft.to/lastmile_qr_scan", "ios": "https://dc.lft.to/lastmile_qr_scan"}, "fusion_lon": 0.0, "lat": 38.90940416666667, "bike_id": "b2f3e566e93b8e46c1dfa50ea9830bbb", "type": "electric_scooter", "is_reserved": 0, "lon": -76.987746}, {"fusion_lat": 0.0, "name": "b9d8019559b98836731df600bb1b33b8", "is_disabled": 0, "rental_uris": {"android": "https://dc.lft.to/lastmile_qr_scan", "ios": "https://dc.lft.to/lastmile_qr_scan"}, "fusion_lon": 0.0, "lat": 38.906669666666666, "bike_id": "b9d8019559b98836731df600bb1b33b8", "type": "electric_scooter", "is_reserved": 0, "lon": -76.9996365}, {"fusion_lat": 0.0, "name": "088de860ed0ff3826a45437ac15cb531", "is_disabled": 0, "rental_uris": {"android": "https://dc.lft.to/lastmile_qr_scan", "ios": "https://dc.lft.to/lastmile_qr_scan"}, "fusion_lon": 0.0, "lat": 38.91350116666667, "bike_id": "088de860ed0ff3826a45437ac15cb531", "type": "electric_scooter", "is_reserved": 0, "lon": -77.02061066666667}, {"fusion_lat": 0.0, "name": "d854731d4972cde0e9c13afbe97007c1", "is_disabled": 0, "rental_uris": {"android": "https://dc.lft.to/lastmile_qr_scan", "ios": "https://dc.lft.to/lastmile_qr_scan"}, "fusion_lon": 0.0, "lat": 38.92225416666667, "bike_id": "d854731d4972cde0e9c13afbe97007c1", "type": "electric_bike", "is_reserved": 0, "lon": -77.0233885}, {"fusion_lat": 0.0, "name": "0b965b6265e030574e8853a5d10e1138", "is_disabled": 0, "rental_uris": {"android": "https://dc.lft.to/lastmile_qr_scan", "ios": "https://dc.lft.to/lastmile_qr_scan"}, "fusion_lon": 0.0, "lat": 38.90095766666666, "bike_id": "0b965b6265e030574e8853a5d10e1138", "type": "electric_scooter", "is_reserved": 0, "lon": -77.02592933333334}, {"fusion_lat": 0.0, "name": "8f0c2c74164771d8828e1fdea407d93e", "is_disabled": 0, "rental_uris": {"android": "https://dc.lft.to/lastmile_qr_scan", "ios": "https://dc.lft.to/lastmile_qr_scan"}, "fusion_lon": 0.0, "lat": 38.90156983333333, "bike_id": "8f0c2c74164771d8828e1fdea407d93e", "type": "electric_scooter", "is_reserved": 0, "lon": -77.04181683333333}, {"fusion_lat": 0.0, "name": "2ba3dae27ebb1ecee67985eccd4f528f", "is_disabled": 0, "rental_uris": {"android": "https://dc.lft.to/lastmile_qr_scan", "ios": "https://dc.lft.to/lastmile_qr_scan"}, "fusion_lon": 0.0, "lat": 38.9666545, "bike_id": "2ba3dae27ebb1ecee67985eccd4f528f", "type": "electric_scooter", "is_reserved": 0, "lon": -77.02551133333333}, {"fusion_lat": 0.0, "name": "89f4bff64b34a56ee1bd1d81d9ad7a41", "is_disabled": 0, "rental_uris": {"android": "https://dc.lft.to/lastmile_qr_scan", "ios": "https://dc.lft.to/lastmile_qr_scan"}, "fusion_lon": 0.0, "lat": 38.88729683333333, "bike_id": "89f4bff64b34a56ee1bd1d81d9ad7a41", "type": "electric_scooter", "is_reserved": 0, "lon": -77.0221725}, {"fusion_lat": 0.0, "name": "d78f093c09fb48dbd61548d570dd80f5", "is_disabled": 0, "rental_uris": {"android": "https://dc.lft.to/lastmile_qr_scan", "ios": "https://dc.lft.to/lastmile_qr_scan"}, "fusion_lon": 0.0, "lat": 38.905551833333334, "bike_id": "d78f093c09fb48dbd61548d570dd80f5", "type": "electric_scooter", "is_reserved": 0, "lon": -77.049952}, {"fusion_lat": 0.0, "name": "325b77ac948136a3ecb82923550571d1", "is_disabled": 0, "rental_uris": {"android": "https://dc.lft.to/lastmile_qr_scan", "ios": "https://dc.lft.to/lastmile_qr_scan"}, "fusion_lon": 0.0, "lat": 38.934107, "bike_id": "325b77ac948136a3ecb82923550571d1", "type": "electric_bike", "is_reserved": 0, "lon": -77.043106}, {"fusion_lat": 0.0, "name": "a2ea10a3ca21bea64c958862f74acfa6", "is_disabled": 0, "rental_uris": {"android": "https://dc.lft.to/lastmile_qr_scan", "ios": "https://dc.lft.to/lastmile_qr_scan"}, "fusion_lon": 0.0, "lat": 38.91562783333333, "bike_id": "a2ea10a3ca21bea64c958862f74acfa6", "type": "electric_scooter", "is_reserved": 0, "lon": -77.03113966666666}, {"fusion_lat": 0.0, "name": "2206b29057acad4de0e3a1ca07308d71", "is_disabled": 0, "rental_uris": {"android": "https://dc.lft.to/lastmile_qr_scan", "ios": "https://dc.lft.to/lastmile_qr_scan"}, "fusion_lon": 0.0, "lat": 38.91405866666667, "bike_id": "2206b29057acad4de0e3a1ca07308d71", "type": "electric_scooter", "is_reserved": 0, "lon": -77.045089}, {"fusion_lat": 0.0, "name": "29826f3e15a60a58da39ab9c33abfbc2", "is_disabled": 0, "rental_uris": {"android": "https://dc.lft.to/lastmile_qr_scan", "ios": "https://dc.lft.to/lastmile_qr_scan"}, "fusion_lon": 0.0, "lat": 38.876242, "bike_id": "29826f3e15a60a58da39ab9c33abfbc2", "type": "electric_scooter", "is_reserved": 0, "lon": -77.00123233333333}, {"fusion_lat": 0.0, "name": "9d04485a3b7585842887c8481b7822ae", "is_disabled": 0, "rental_uris": {"android": "https://dc.lft.to/lastmile_qr_scan", "ios": "https://dc.lft.to/lastmile_qr_scan"}, "fusion_lon": 0.0, "lat": 38.91809683333334, "bike_id": "9d04485a3b7585842887c8481b7822ae", "type": "electric_scooter", "is_reserved": 0, "lon": -77.026808}, {"fusion_lat": 0.0, "name": "e1d002bf69ec2ba9498ca2e4fee8e45d", "is_disabled": 0, "rental_uris": {"android": "https://dc.lft.to/lastmile_qr_scan", "ios": "https://dc.lft.to/lastmile_qr_scan"}, "fusion_lon": 0.0, "lat": 38.925055, "bike_id": "e1d002bf69ec2ba9498ca2e4fee8e45d", "type": "electric_scooter", "is_reserved": 0, "lon": -77.021687}, {"fusion_lat": 0.0, "name": "eff5b4e4954ea317061e3c355ddb8ca4", "is_disabled": 0, "rental_uris": {"android": "https://dc.lft.to/lastmile_qr_scan", "ios": "https://dc.lft.to/lastmile_qr_scan"}, "fusion_lon": 0.0, "lat": 38.90581816666667, "bike_id": "eff5b4e4954ea317061e3c355ddb8ca4", "type": "electric_scooter", "is_reserved": 0, "lon": -77.04445466666667}, {"fusion_lat": 0.0, "name": "74ace287c6aacebc1bbb3256b3a3682b", "is_disabled": 0, "rental_uris": {"android": "https://dc.lft.to/lastmile_qr_scan", "ios": "https://dc.lft.to/lastmile_qr_scan"}, "fusion_lon": 0.0, "lat": 38.926205, "bike_id": "74ace287c6aacebc1bbb3256b3a3682b", "type": "electric_scooter", "is_reserved": 0, "lon": -77.04324916666667}, {"fusion_lat": 0.0, "name": "e79644c8de612953f01208dfa510f14b", "is_disabled": 0, "rental_uris": {"android": "https://dc.lft.to/lastmile_qr_scan", "ios": "https://dc.lft.to/lastmile_qr_scan"}, "fusion_lon": 0.0, "lat": 38.925473333333336, "bike_id": "e79644c8de612953f01208dfa510f14b", "type": "electric_scooter", "is_reserved": 0, "lon": -77.042964}, {"fusion_lat": 0.0, "name": "99ca01b694d7c132acb0de19e6b01e3e", "is_disabled": 0, "rental_uris": {"android": "https://dc.lft.to/lastmile_qr_scan", "ios": "https://dc.lft.to/lastmile_qr_scan"}, "fusion_lon": 0.0, "lat": 38.93100833333333, "bike_id": "99ca01b694d7c132acb0de19e6b01e3e", "type": "electric_scooter", "is_reserved": 0, "lon": -77.0381855}, {"fusion_lat": 0.0, "name": "3afbe696191f26dd8adda2859194a854", "is_disabled": 0, "rental_uris": {"android": "https://dc.lft.to/lastmile_qr_scan", "ios": "https://dc.lft.to/lastmile_qr_scan"}, "fusion_lon": 0.0, "lat": 38.918140666666666, "bike_id": "3afbe696191f26dd8adda2859194a854", "type": "electric_scooter", "is_reserved": 0, "lon": -77.0375955}, {"fusion_lat": 0.0, "name": "310e2152148c4dd7a3237a27e2e89aa4", "is_disabled": 0, "rental_uris": {"android": "https://dc.lft.to/lastmile_qr_scan", "ios": "https://dc.lft.to/lastmile_qr_scan"}, "fusion_lon": 0.0, "lat": 38.91810233333333, "bike_id": "310e2152148c4dd7a3237a27e2e89aa4", "type": "electric_scooter", "is_reserved": 0, "lon": -77.03076216666666}, {"fusion_lat": 0.0, "name": "ec06882215f43422032315e0ae629211", "is_disabled": 0, "rental_uris": {"android": "https://dc.lft.to/lastmile_qr_scan", "ios": "https://dc.lft.to/lastmile_qr_scan"}, "fusion_lon": 0.0, "lat": 38.900953333333334, "bike_id": "ec06882215f43422032315e0ae629211", "type": "electric_scooter", "is_reserved": 0, "lon": -77.02585216666667}, {"fusion_lat": 0.0, "name": "72e28f8cecfe9575ce147aa40bfc5c9b", "is_disabled": 0, "rental_uris": {"android": "https://dc.lft.to/lastmile_qr_scan", "ios": "https://dc.lft.to/lastmile_qr_scan"}, "fusion_lon": 0.0, "lat": 38.9133415, "bike_id": "72e28f8cecfe9575ce147aa40bfc5c9b", "type": "electric_scooter", "is_reserved": 0, "lon": -77.0479255}, {"fusion_lat": 0.0, "name": "dd343629b98fa0943c08042b830ef38f", "is_disabled": 0, "rental_uris": {"android": "https://dc.lft.to/lastmile_qr_scan", "ios": "https://dc.lft.to/lastmile_qr_scan"}, "fusion_lon": 0.0, "lat": 38.91774983333333, "bike_id": "dd343629b98fa0943c08042b830ef38f", "type": "electric_scooter", "is_reserved": 0, "lon": -77.02321283333333}, {"fusion_lat": 0.0, "name": "cd2d6adfa45fc16b1af8cff1f472c744", "is_disabled": 0, "rental_uris": {"android": "https://dc.lft.to/lastmile_qr_scan", "ios": "https://dc.lft.to/lastmile_qr_scan"}, "fusion_lon": 0.0, "lat": 38.8773975, "bike_id": "cd2d6adfa45fc16b1af8cff1f472c744", "type": "electric_scooter", "is_reserved": 0, "lon": -77.00762233333333}, {"fusion_lat": 0.0, "name": "c69286b6a3ff2ba5a16443d8ca121cb8", "is_disabled": 0, "rental_uris": {"android": "https://dc.lft.to/lastmile_qr_scan", "ios": "https://dc.lft.to/lastmile_qr_scan"}, "fusion_lon": 0.0, "lat": 38.81908166666667, "bike_id": "c69286b6a3ff2ba5a16443d8ca121cb8", "type": "electric_bike", "is_reserved": 0, "lon": -77.04793133333334}, {"fusion_lat": 0.0, "name": "676e38db129a0a1da2e21fc11b24c39e", "is_disabled": 0, "rental_uris": {"android": "https://dc.lft.to/lastmile_qr_scan", "ios": "https://dc.lft.to/lastmile_qr_scan"}, "fusion_lon": 0.0, "lat": 38.9223375, "bike_id": "676e38db129a0a1da2e21fc11b24c39e", "type": "electric_scooter", "is_reserved": 0, "lon": -77.042486}, {"fusion_lat": 0.0, "name": "d15f6d4048ad3cc5a556dcae9a9ba430", "is_disabled": 0, "rental_uris": {"android": "https://dc.lft.to/lastmile_qr_scan", "ios": "https://dc.lft.to/lastmile_qr_scan"}, "fusion_lon": 0.0, "lat": 38.927221, "bike_id": "d15f6d4048ad3cc5a556dcae9a9ba430", "type": "electric_scooter", "is_reserved": 0, "lon": -77.03068083333334}, {"fusion_lat": 0.0, "name": "cdea74a60303e87c4a4f2371049d6bb0", "is_disabled": 0, "rental_uris": {"android": "https://dc.lft.to/lastmile_qr_scan", "ios": "https://dc.lft.to/lastmile_qr_scan"}, "fusion_lon": 0.0, "lat": 38.81244183333333, "bike_id": "cdea74a60303e87c4a4f2371049d6bb0", "type": "electric_bike", "is_reserved": 0, "lon": -77.11778566666666}, {"fusion_lat": 0.0, "name": "5c4c5b445f874b9e4cf8acc53ec796d5", "is_disabled": 0, "rental_uris": {"android": "https://dc.lft.to/lastmile_qr_scan", "ios": "https://dc.lft.to/lastmile_qr_scan"}, "fusion_lon": 0.0, "lat": 38.88309433333333, "bike_id": "5c4c5b445f874b9e4cf8acc53ec796d5", "type": "electric_scooter", "is_reserved": 0, "lon": -76.94869633333333}, {"fusion_lat": 0.0, "name": "c40a5ee5350b97c83d609ccb0b314392", "is_disabled": 0, "rental_uris": {"android": "https://dc.lft.to/lastmile_qr_scan", "ios": "https://dc.lft.to/lastmile_qr_scan"}, "fusion_lon": 0.0, "lat": 38.917127666666666, "bike_id": "c40a5ee5350b97c83d609ccb0b314392", "type": "electric_scooter", "is_reserved": 0, "lon": -77.03877483333333}, {"fusion_lat": 0.0, "name": "8cd1cdc20d4061cd2ebd7fc929c2160c", "is_disabled": 0, "rental_uris": {"android": "https://dc.lft.to/lastmile_qr_scan", "ios": "https://dc.lft.to/lastmile_qr_scan"}, "fusion_lon": 0.0, "lat": 38.90391133333333, "bike_id": "8cd1cdc20d4061cd2ebd7fc929c2160c", "type": "electric_scooter", "is_reserved": 0, "lon": -77.068183}, {"fusion_lat": 0.0, "name": "2fc263c02d51e995fe322cc0c9c8376a", "is_disabled": 0, "rental_uris": {"android": "https://dc.lft.to/lastmile_qr_scan", "ios": "https://dc.lft.to/lastmile_qr_scan"}, "fusion_lon": 0.0, "lat": 38.90736166666667, "bike_id": "2fc263c02d51e995fe322cc0c9c8376a", "type": "electric_scooter", "is_reserved": 0, "lon": -76.9355025}, {"fusion_lat": 0.0, "name": "b80f133cf3fb7b24cd8c26acb70bd769", "is_disabled": 0, "rental_uris": {"android": "https://dc.lft.to/lastmile_qr_scan", "ios": "https://dc.lft.to/lastmile_qr_scan"}, "fusion_lon": 0.0, "lat": 38.92538733333333, "bike_id": "b80f133cf3fb7b24cd8c26acb70bd769", "type": "electric_scooter", "is_reserved": 0, "lon": -77.007622}, {"fusion_lat": 0.0, "name": "f88d829d1540cd0898949b2223fad0b0", "is_disabled": 0, "rental_uris": {"android": "https://dc.lft.to/lastmile_qr_scan", "ios": "https://dc.lft.to/lastmile_qr_scan"}, "fusion_lon": 0.0, "lat": 38.80705733333333, "bike_id": "f88d829d1540cd0898949b2223fad0b0", "type": "electric_bike", "is_reserved": 0, "lon": -77.06181816666667}, {"fusion_lat": 0.0, "name": "f00c71711d6f676e61f33144f7cda8e7", "is_disabled": 0, "rental_uris": {"android": "https://dc.lft.to/lastmile_qr_scan", "ios": "https://dc.lft.to/lastmile_qr_scan"}, "fusion_lon": 0.0, "lat": 38.9005195, "bike_id": "f00c71711d6f676e61f33144f7cda8e7", "type": "electric_scooter", "is_reserved": 0, "lon": -77.01630116666666}, {"fusion_lat": 0.0, "name": "451e1c8d503f87cd483e909c62b49a60", "is_disabled": 0, "rental_uris": {"android": "https://dc.lft.to/lastmile_qr_scan", "ios": "https://dc.lft.to/lastmile_qr_scan"}, "fusion_lon": 0.0, "lat": 38.922872166666664, "bike_id": "451e1c8d503f87cd483e909c62b49a60", "type": "electric_scooter", "is_reserved": 0, "lon": -77.04210983333333}, {"fusion_lat": 0.0, "name": "3eecfdbc2007bb46cc2ef9c9c6a275da", "is_disabled": 0, "rental_uris": {"android": "https://dc.lft.to/lastmile_qr_scan", "ios": "https://dc.lft.to/lastmile_qr_scan"}, "fusion_lon": 0.0, "lat": 38.9101, "bike_id": "3eecfdbc2007bb46cc2ef9c9c6a275da", "type": "electric_scooter", "is_reserved": 0, "lon": -77.05271333333333}, {"fusion_lat": 0.0, "name": "d4207667b9cb8b4a695cfd2f1442ae59", "is_disabled": 0, "rental_uris": {"android": "https://dc.lft.to/lastmile_qr_scan", "ios": "https://dc.lft.to/lastmile_qr_scan"}, "fusion_lon": 0.0, "lat": 38.8840185, "bike_id": "d4207667b9cb8b4a695cfd2f1442ae59", "type": "electric_scooter", "is_reserved": 0, "lon": -76.93044433333333}, {"fusion_lat": 0.0, "name": "75296147718f35b433e3d578b6557a5d", "is_disabled": 0, "rental_uris": {"android": "https://dc.lft.to/lastmile_qr_scan", "ios": "https://dc.lft.to/lastmile_qr_scan"}, "fusion_lon": 0.0, "lat": 38.930261333333334, "bike_id": "75296147718f35b433e3d578b6557a5d", "type": "electric_scooter", "is_reserved": 0, "lon": -77.0379305}, {"fusion_lat": 0.0, "name": "9dfbf6ba28dea7cd216e2201fba77de4", "is_disabled": 0, "rental_uris": {"android": "https://dc.lft.to/lastmile_qr_scan", "ios": "https://dc.lft.to/lastmile_qr_scan"}, "fusion_lon": 0.0, "lat": 38.88363283333333, "bike_id": "9dfbf6ba28dea7cd216e2201fba77de4", "type": "electric_scooter", "is_reserved": 0, "lon": -77.013644}, {"fusion_lat": 0.0, "name": "1caf85b48f5468bad8638b7edae6e856", "is_disabled": 0, "rental_uris": {"android": "https://dc.lft.to/lastmile_qr_scan", "ios": "https://dc.lft.to/lastmile_qr_scan"}, "fusion_lon": 0.0, "lat": 38.907183833333335, "bike_id": "1caf85b48f5468bad8638b7edae6e856", "type": "electric_scooter", "is_reserved": 0, "lon": -77.043626}, {"fusion_lat": 0.0, "name": "e255402c86800723992e8f85a82dd04f", "is_disabled": 0, "rental_uris": {"android": "https://dc.lft.to/lastmile_qr_scan", "ios": "https://dc.lft.to/lastmile_qr_scan"}, "fusion_lon": 0.0, "lat": 38.90509, "bike_id": "e255402c86800723992e8f85a82dd04f", "type": "electric_scooter", "is_reserved": 0, "lon": -77.06775383333333}, {"fusion_lat": 0.0, "name": "0f925968b00e1dc2f6926fccdec9e5e8", "is_disabled": 0, "rental_uris": {"android": "https://dc.lft.to/lastmile_qr_scan", "ios": "https://dc.lft.to/lastmile_qr_scan"}, "fusion_lon": 0.0, "lat": 38.897399166666666, "bike_id": "0f925968b00e1dc2f6926fccdec9e5e8", "type": "electric_scooter", "is_reserved": 0, "lon": -77.00209266666667}, {"fusion_lat": 0.0, "name": "a79767ef63c27c7a0d0316f2a1c30d37", "is_disabled": 0, "rental_uris": {"android": "https://dc.lft.to/lastmile_qr_scan", "ios": "https://dc.lft.to/lastmile_qr_scan"}, "fusion_lon": 0.0, "lat": 38.9192405, "bike_id": "a79767ef63c27c7a0d0316f2a1c30d37", "type": "electric_scooter", "is_reserved": 0, "lon": -77.02665633333334}, {"fusion_lat": 0.0, "name": "b4e8323612bf56e827b9dd093e709160", "is_disabled": 0, "rental_uris": {"android": "https://dc.lft.to/lastmile_qr_scan", "ios": "https://dc.lft.to/lastmile_qr_scan"}, "fusion_lon": 0.0, "lat": 38.888957, "bike_id": "b4e8323612bf56e827b9dd093e709160", "type": "electric_scooter", "is_reserved": 0, "lon": -76.99211566666666}, {"fusion_lat": 0.0, "name": "93b5363c1b1bb49add386c83dd51a933", "is_disabled": 0, "rental_uris": {"android": "https://dc.lft.to/lastmile_qr_scan", "ios": "https://dc.lft.to/lastmile_qr_scan"}, "fusion_lon": 0.0, "lat": 38.89755016666667, "bike_id": "93b5363c1b1bb49add386c83dd51a933", "type": "electric_scooter", "is_reserved": 0, "lon": -77.03174066666666}, {"fusion_lat": 0.0, "name": "b6e3ae0166926ea9d5ebe8c85284658e", "is_disabled": 0, "rental_uris": {"android": "https://dc.lft.to/lastmile_qr_scan", "ios": "https://dc.lft.to/lastmile_qr_scan"}, "fusion_lon": 0.0, "lat": 38.89847316666667, "bike_id": "b6e3ae0166926ea9d5ebe8c85284658e", "type": "electric_scooter", "is_reserved": 0, "lon": -76.990372}, {"fusion_lat": 0.0, "name": "1f5b3b136eb2280d97ae7d99a80f664e", "is_disabled": 0, "rental_uris": {"android": "https://dc.lft.to/lastmile_qr_scan", "ios": "https://dc.lft.to/lastmile_qr_scan"}, "fusion_lon": 0.0, "lat": 38.878216, "bike_id": "1f5b3b136eb2280d97ae7d99a80f664e", "type": "electric_scooter", "is_reserved": 0, "lon": -77.0013605}, {"fusion_lat": 0.0, "name": "58ecfaf28f6eb0a8a729d19107feced3", "is_disabled": 0, "rental_uris": {"android": "https://dc.lft.to/lastmile_qr_scan", "ios": "https://dc.lft.to/lastmile_qr_scan"}, "fusion_lon": 0.0, "lat": 38.931116, "bike_id": "58ecfaf28f6eb0a8a729d19107feced3", "type": "electric_scooter", "is_reserved": 0, "lon": -77.03029333333333}, {"fusion_lat": 0.0, "name": "05fac6b20161b1fc61bcca94979d0253", "is_disabled": 0, "rental_uris": {"android": "https://dc.lft.to/lastmile_qr_scan", "ios": "https://dc.lft.to/lastmile_qr_scan"}, "fusion_lon": 0.0, "lat": 38.91834433333333, "bike_id": "05fac6b20161b1fc61bcca94979d0253", "type": "electric_scooter", "is_reserved": 0, "lon": -77.02382383333334}, {"fusion_lat": 0.0, "name": "34c2701ccd9bc9db671f8afd54af4c1b", "is_disabled": 0, "rental_uris": {"android": "https://dc.lft.to/lastmile_qr_scan", "ios": "https://dc.lft.to/lastmile_qr_scan"}, "fusion_lon": 0.0, "lat": 38.917032166666665, "bike_id": "34c2701ccd9bc9db671f8afd54af4c1b", "type": "electric_scooter", "is_reserved": 0, "lon": -77.03205766666666}, {"fusion_lat": 0.0, "name": "92a29b9407a5e4dcf45b2e859ee6286f", "is_disabled": 0, "rental_uris": {"android": "https://dc.lft.to/lastmile_qr_scan", "ios": "https://dc.lft.to/lastmile_qr_scan"}, "fusion_lon": 0.0, "lat": 38.91640966666667, "bike_id": "92a29b9407a5e4dcf45b2e859ee6286f", "type": "electric_scooter", "is_reserved": 0, "lon": -77.0320595}, {"fusion_lat": 0.0, "name": "4dd6b02f042426684d0811c54bf9f04d", "is_disabled": 0, "rental_uris": {"android": "https://dc.lft.to/lastmile_qr_scan", "ios": "https://dc.lft.to/lastmile_qr_scan"}, "fusion_lon": 0.0, "lat": 38.86507433333333, "bike_id": "4dd6b02f042426684d0811c54bf9f04d", "type": "electric_bike", "is_reserved": 0, "lon": -76.97323466666667}, {"fusion_lat": 0.0, "name": "91e89f879b49fc7f5355addcdc9c2d83", "is_disabled": 0, "rental_uris": {"android": "https://dc.lft.to/lastmile_qr_scan", "ios": "https://dc.lft.to/lastmile_qr_scan"}, "fusion_lon": 0.0, "lat": 38.88745566666667, "bike_id": "91e89f879b49fc7f5355addcdc9c2d83", "type": "electric_scooter", "is_reserved": 0, "lon": -77.022654}, {"fusion_lat": 0.0, "name": "3587bf55c00de1af13339a0257118386", "is_disabled": 0, "rental_uris": {"android": "https://dc.lft.to/lastmile_qr_scan", "ios": "https://dc.lft.to/lastmile_qr_scan"}, "fusion_lon": 0.0, "lat": 38.91658833333334, "bike_id": "3587bf55c00de1af13339a0257118386", "type": "electric_scooter", "is_reserved": 0, "lon": -77.038592}, {"fusion_lat": 0.0, "name": "0e4c2c6ba629023c28f39cf6a55f81a2", "is_disabled": 0, "rental_uris": {"android": "https://dc.lft.to/lastmile_qr_scan", "ios": "https://dc.lft.to/lastmile_qr_scan"}, "fusion_lon": 0.0, "lat": 38.91984083333333, "bike_id": "0e4c2c6ba629023c28f39cf6a55f81a2", "type": "electric_scooter", "is_reserved": 0, "lon": -77.04165166666667}, {"fusion_lat": 0.0, "name": "93e8781b79cab368ff7f23d136f816fa", "is_disabled": 0, "rental_uris": {"android": "https://dc.lft.to/lastmile_qr_scan", "ios": "https://dc.lft.to/lastmile_qr_scan"}, "fusion_lon": 0.0, "lat": 38.849144833333334, "bike_id": "93e8781b79cab368ff7f23d136f816fa", "type": "electric_bike", "is_reserved": 0, "lon": -77.09987333333333}, {"fusion_lat": 0.0, "name": "f023b4e8c3584c0d2c5b96f1b9b7d552", "is_disabled": 0, "rental_uris": {"android": "https://dc.lft.to/lastmile_qr_scan", "ios": "https://dc.lft.to/lastmile_qr_scan"}, "fusion_lon": 0.0, "lat": 38.91567116666667, "bike_id": "f023b4e8c3584c0d2c5b96f1b9b7d552", "type": "electric_scooter", "is_reserved": 0, "lon": -77.04488833333333}, {"fusion_lat": 0.0, "name": "f4fc212815bf394546313d4a866b6796", "is_disabled": 0, "rental_uris": {"android": "https://dc.lft.to/lastmile_qr_scan", "ios": "https://dc.lft.to/lastmile_qr_scan"}, "fusion_lon": 0.0, "lat": 38.900163, "bike_id": "f4fc212815bf394546313d4a866b6796", "type": "electric_scooter", "is_reserved": 0, "lon": -76.99622633333334}, {"fusion_lat": 0.0, "name": "21fdb50891084d9b76c39c0caf5c3586", "is_disabled": 0, "rental_uris": {"android": "https://dc.lft.to/lastmile_qr_scan", "ios": "https://dc.lft.to/lastmile_qr_scan"}, "fusion_lon": 0.0, "lat": 38.9007765, "bike_id": "21fdb50891084d9b76c39c0caf5c3586", "type": "electric_scooter", "is_reserved": 0, "lon": -77.01384783333333}, {"fusion_lat": 0.0, "name": "ccfcac18b02ed24c30f608b5e71f09f9", "is_disabled": 0, "rental_uris": {"android": "https://dc.lft.to/lastmile_qr_scan", "ios": "https://dc.lft.to/lastmile_qr_scan"}, "fusion_lon": 0.0, "lat": 38.91643233333333, "bike_id": "ccfcac18b02ed24c30f608b5e71f09f9", "type": "electric_scooter", "is_reserved": 0, "lon": -77.0477785}, {"fusion_lat": 0.0, "name": "0f93c75600409ed3ccb419566e8e9267", "is_disabled": 0, "rental_uris": {"android": "https://dc.lft.to/lastmile_qr_scan", "ios": "https://dc.lft.to/lastmile_qr_scan"}, "fusion_lon": 0.0, "lat": 38.945101333333334, "bike_id": "0f93c75600409ed3ccb419566e8e9267", "type": "electric_bike", "is_reserved": 0, "lon": -77.006732}, {"fusion_lat": 0.0, "name": "a5403170a8c72d1ce2c332a677042fc7", "is_disabled": 0, "rental_uris": {"android": "https://dc.lft.to/lastmile_qr_scan", "ios": "https://dc.lft.to/lastmile_qr_scan"}, "fusion_lon": 0.0, "lat": 38.9527515, "bike_id": "a5403170a8c72d1ce2c332a677042fc7", "type": "electric_scooter", "is_reserved": 0, "lon": -77.06867733333333}, {"fusion_lat": 0.0, "name": "08cbf7398565988d9e202cf5ab2e5440", "is_disabled": 0, "rental_uris": {"android": "https://dc.lft.to/lastmile_qr_scan", "ios": "https://dc.lft.to/lastmile_qr_scan"}, "fusion_lon": 0.0, "lat": 38.898088, "bike_id": "08cbf7398565988d9e202cf5ab2e5440", "type": "electric_scooter", "is_reserved": 0, "lon": -77.03348233333334}, {"fusion_lat": 0.0, "name": "fec30080e023770b0f6c8077e9d5d30e", "is_disabled": 0, "rental_uris": {"android": "https://dc.lft.to/lastmile_qr_scan", "ios": "https://dc.lft.to/lastmile_qr_scan"}, "fusion_lon": 0.0, "lat": 38.9161085, "bike_id": "fec30080e023770b0f6c8077e9d5d30e", "type": "electric_scooter", "is_reserved": 0, "lon": -77.0231105}, {"fusion_lat": 0.0, "name": "5154f1b9c85ca4ce550258406825ebf1", "is_disabled": 0, "rental_uris": {"android": "https://dc.lft.to/lastmile_qr_scan", "ios": "https://dc.lft.to/lastmile_qr_scan"}, "fusion_lon": 0.0, "lat": 38.907007166666666, "bike_id": "5154f1b9c85ca4ce550258406825ebf1", "type": "electric_scooter", "is_reserved": 0, "lon": -77.03598733333334}, {"fusion_lat": 0.0, "name": "9358a98c5ba49edd2e364508dee5166a", "is_disabled": 0, "rental_uris": {"android": "https://dc.lft.to/lastmile_qr_scan", "ios": "https://dc.lft.to/lastmile_qr_scan"}, "fusion_lon": 0.0, "lat": 38.90596033333333, "bike_id": "9358a98c5ba49edd2e364508dee5166a", "type": "electric_scooter", "is_reserved": 0, "lon": -77.06284133333334}, {"fusion_lat": 0.0, "name": "8aca0362a293ccbc48f42bf735fefb6f", "is_disabled": 0, "rental_uris": {"android": "https://dc.lft.to/lastmile_qr_scan", "ios": "https://dc.lft.to/lastmile_qr_scan"}, "fusion_lon": 0.0, "lat": 38.88492266666667, "bike_id": "8aca0362a293ccbc48f42bf735fefb6f", "type": "electric_scooter", "is_reserved": 0, "lon": -77.01494666666666}, {"fusion_lat": 0.0, "name": "d481b19f4cea1ea9fb52d456a61d9bb1", "is_disabled": 0, "rental_uris": {"android": "https://dc.lft.to/lastmile_qr_scan", "ios": "https://dc.lft.to/lastmile_qr_scan"}, "fusion_lon": 0.0, "lat": 38.95087016666667, "bike_id": "d481b19f4cea1ea9fb52d456a61d9bb1", "type": "electric_scooter", "is_reserved": 0, "lon": -77.02714583333334}, {"fusion_lat": 0.0, "name": "ecbff6b2d1a618dee4b04bb23f146758", "is_disabled": 0, "rental_uris": {"android": "https://dc.lft.to/lastmile_qr_scan", "ios": "https://dc.lft.to/lastmile_qr_scan"}, "fusion_lon": 0.0, "lat": 38.921646833333334, "bike_id": "ecbff6b2d1a618dee4b04bb23f146758", "type": "electric_scooter", "is_reserved": 0, "lon": -77.03848366666666}, {"fusion_lat": 0.0, "name": "c1fef3dcf503c258eca7a8b57473768d", "is_disabled": 0, "rental_uris": {"android": "https://dc.lft.to/lastmile_qr_scan", "ios": "https://dc.lft.to/lastmile_qr_scan"}, "fusion_lon": 0.0, "lat": 38.92892416666667, "bike_id": "c1fef3dcf503c258eca7a8b57473768d", "type": "electric_scooter", "is_reserved": 0, "lon": -77.03284316666667}, {"fusion_lat": 0.0, "name": "fb18ca8d78b6d589e91e22f68ba73f7e", "is_disabled": 0, "rental_uris": {"android": "https://dc.lft.to/lastmile_qr_scan", "ios": "https://dc.lft.to/lastmile_qr_scan"}, "fusion_lon": 0.0, "lat": 38.923737, "bike_id": "fb18ca8d78b6d589e91e22f68ba73f7e", "type": "electric_scooter", "is_reserved": 0, "lon": -77.05153166666666}, {"fusion_lat": 0.0, "name": "8d64fa877825ed1c6fdf4d37f2809d8a", "is_disabled": 0, "rental_uris": {"android": "https://dc.lft.to/lastmile_qr_scan", "ios": "https://dc.lft.to/lastmile_qr_scan"}, "fusion_lon": 0.0, "lat": 38.919358833333334, "bike_id": "8d64fa877825ed1c6fdf4d37f2809d8a", "type": "electric_scooter", "is_reserved": 0, "lon": -77.04905833333333}, {"fusion_lat": 0.0, "name": "f630309cdbf21fc4324bed1ceef496ea", "is_disabled": 0, "rental_uris": {"android": "https://dc.lft.to/lastmile_qr_scan", "ios": "https://dc.lft.to/lastmile_qr_scan"}, "fusion_lon": 0.0, "lat": 38.955490833333336, "bike_id": "f630309cdbf21fc4324bed1ceef496ea", "type": "electric_bike", "is_reserved": 0, "lon": -77.06940983333334}, {"fusion_lat": 0.0, "name": "771fb41b9f2d9d127d64430b4ed4936e", "is_disabled": 0, "rental_uris": {"android": "https://dc.lft.to/lastmile_qr_scan", "ios": "https://dc.lft.to/lastmile_qr_scan"}, "fusion_lon": 0.0, "lat": 38.895577833333334, "bike_id": "771fb41b9f2d9d127d64430b4ed4936e", "type": "electric_scooter", "is_reserved": 0, "lon": -77.02168366666666}, {"fusion_lat": 0.0, "name": "d0184914ed42e12bed3e03cb853c7aff", "is_disabled": 0, "rental_uris": {"android": "https://dc.lft.to/lastmile_qr_scan", "ios": "https://dc.lft.to/lastmile_qr_scan"}, "fusion_lon": 0.0, "lat": 38.8864735, "bike_id": "d0184914ed42e12bed3e03cb853c7aff", "type": "electric_scooter", "is_reserved": 0, "lon": -77.001986}, {"fusion_lat": 0.0, "name": "b8fb72fdbf639e6203b6ebf023701e27", "is_disabled": 0, "rental_uris": {"android": "https://dc.lft.to/lastmile_qr_scan", "ios": "https://dc.lft.to/lastmile_qr_scan"}, "fusion_lon": 0.0, "lat": 38.87375816666667, "bike_id": "b8fb72fdbf639e6203b6ebf023701e27", "type": "electric_scooter", "is_reserved": 0, "lon": -77.00067316666667}, {"fusion_lat": 0.0, "name": "978fc0394960445c4d23640ce8a35674", "is_disabled": 0, "rental_uris": {"android": "https://dc.lft.to/lastmile_qr_scan", "ios": "https://dc.lft.to/lastmile_qr_scan"}, "fusion_lon": 0.0, "lat": 38.901411333333336, "bike_id": "978fc0394960445c4d23640ce8a35674", "type": "electric_scooter", "is_reserved": 0, "lon": -76.9912135}, {"fusion_lat": 0.0, "name": "150bf9445a256282bb3394be16afc465", "is_disabled": 0, "rental_uris": {"android": "https://dc.lft.to/lastmile_qr_scan", "ios": "https://dc.lft.to/lastmile_qr_scan"}, "fusion_lon": 0.0, "lat": 38.92073516666667, "bike_id": "150bf9445a256282bb3394be16afc465", "type": "electric_scooter", "is_reserved": 0, "lon": -77.023186}, {"fusion_lat": 0.0, "name": "c1d505ad82df513babe206b6ffed5e02", "is_disabled": 0, "rental_uris": {"android": "https://dc.lft.to/lastmile_qr_scan", "ios": "https://dc.lft.to/lastmile_qr_scan"}, "fusion_lon": 0.0, "lat": 38.926496666666665, "bike_id": "c1d505ad82df513babe206b6ffed5e02", "type": "electric_scooter", "is_reserved": 0, "lon": -77.03398466666667}, {"fusion_lat": 0.0, "name": "b2cdb5df51e5aca86460b5b51b1de3ef", "is_disabled": 0, "rental_uris": {"android": "https://dc.lft.to/lastmile_qr_scan", "ios": "https://dc.lft.to/lastmile_qr_scan"}, "fusion_lon": 0.0, "lat": 38.88762916666667, "bike_id": "b2cdb5df51e5aca86460b5b51b1de3ef", "type": "electric_scooter", "is_reserved": 0, "lon": -77.02947833333333}, {"fusion_lat": 0.0, "name": "c4fafdb20477d521c7cc713f5a3f2d59", "is_disabled": 0, "rental_uris": {"android": "https://dc.lft.to/lastmile_qr_scan", "ios": "https://dc.lft.to/lastmile_qr_scan"}, "fusion_lon": 0.0, "lat": 38.913439333333336, "bike_id": "c4fafdb20477d521c7cc713f5a3f2d59", "type": "electric_bike", "is_reserved": 0, "lon": -76.98900883333333}, {"fusion_lat": 0.0, "name": "4e62a9f36270b8e73c957669f9dc9d66", "is_disabled": 0, "rental_uris": {"android": "https://dc.lft.to/lastmile_qr_scan", "ios": "https://dc.lft.to/lastmile_qr_scan"}, "fusion_lon": 0.0, "lat": 38.91200466666667, "bike_id": "4e62a9f36270b8e73c957669f9dc9d66", "type": "electric_scooter", "is_reserved": 0, "lon": -77.03183733333333}, {"fusion_lat": 0.0, "name": "2e3c8ceec809aea4882e69b65d737061", "is_disabled": 0, "rental_uris": {"android": "https://dc.lft.to/lastmile_qr_scan", "ios": "https://dc.lft.to/lastmile_qr_scan"}, "fusion_lon": 0.0, "lat": 38.91674, "bike_id": "2e3c8ceec809aea4882e69b65d737061", "type": "electric_scooter", "is_reserved": 0, "lon": -77.02721733333334}, {"fusion_lat": 0.0, "name": "a6b7f474ae8fd44a045a79814dd2b93a", "is_disabled": 0, "rental_uris": {"android": "https://dc.lft.to/lastmile_qr_scan", "ios": "https://dc.lft.to/lastmile_qr_scan"}, "fusion_lon": 0.0, "lat": 38.942439666666665, "bike_id": "a6b7f474ae8fd44a045a79814dd2b93a", "type": "electric_scooter", "is_reserved": 0, "lon": -77.0363555}, {"fusion_lat": 0.0, "name": "ec27558f76b685ec37eca2a80cf02087", "is_disabled": 0, "rental_uris": {"android": "https://dc.lft.to/lastmile_qr_scan", "ios": "https://dc.lft.to/lastmile_qr_scan"}, "fusion_lon": 0.0, "lat": 38.903839, "bike_id": "ec27558f76b685ec37eca2a80cf02087", "type": "electric_scooter", "is_reserved": 0, "lon": -77.04870833333334}, {"fusion_lat": 0.0, "name": "356b046370b57fcefad8daf5e5159b3f", "is_disabled": 0, "rental_uris": {"android": "https://dc.lft.to/lastmile_qr_scan", "ios": "https://dc.lft.to/lastmile_qr_scan"}, "fusion_lon": 0.0, "lat": 38.892171833333336, "bike_id": "356b046370b57fcefad8daf5e5159b3f", "type": "electric_scooter", "is_reserved": 0, "lon": -77.025075}, {"fusion_lat": 0.0, "name": "6b9a6cb40274c5655a4ebe513c6040ae", "is_disabled": 0, "rental_uris": {"android": "https://dc.lft.to/lastmile_qr_scan", "ios": "https://dc.lft.to/lastmile_qr_scan"}, "fusion_lon": 0.0, "lat": 38.920821333333336, "bike_id": "6b9a6cb40274c5655a4ebe513c6040ae", "type": "electric_scooter", "is_reserved": 0, "lon": -77.01396666666666}, {"fusion_lat": 0.0, "name": "698746a2c3c4ac4fd1782883bf3fc94f", "is_disabled": 0, "rental_uris": {"android": "https://dc.lft.to/lastmile_qr_scan", "ios": "https://dc.lft.to/lastmile_qr_scan"}, "fusion_lon": 0.0, "lat": 38.905448666666665, "bike_id": "698746a2c3c4ac4fd1782883bf3fc94f", "type": "electric_scooter", "is_reserved": 0, "lon": -77.04285466666667}, {"fusion_lat": 0.0, "name": "b3e76f339706019695b5fe87993ee3d4", "is_disabled": 0, "rental_uris": {"android": "https://dc.lft.to/lastmile_qr_scan", "ios": "https://dc.lft.to/lastmile_qr_scan"}, "fusion_lon": 0.0, "lat": 38.853302166666666, "bike_id": "b3e76f339706019695b5fe87993ee3d4", "type": "electric_scooter", "is_reserved": 0, "lon": -76.98024883333333}, {"fusion_lat": 0.0, "name": "b1e802bc693631015e87f1533556799a", "is_disabled": 0, "rental_uris": {"android": "https://dc.lft.to/lastmile_qr_scan", "ios": "https://dc.lft.to/lastmile_qr_scan"}, "fusion_lon": 0.0, "lat": 38.90130683333334, "bike_id": "b1e802bc693631015e87f1533556799a", "type": "electric_scooter", "is_reserved": 0, "lon": -77.04197583333334}, {"fusion_lat": 0.0, "name": "ce7a6f90e9115801cdd8eb6a9740e228", "is_disabled": 0, "rental_uris": {"android": "https://dc.lft.to/lastmile_qr_scan", "ios": "https://dc.lft.to/lastmile_qr_scan"}, "fusion_lon": 0.0, "lat": 38.93471383333333, "bike_id": "ce7a6f90e9115801cdd8eb6a9740e228", "type": "electric_scooter", "is_reserved": 0, "lon": -77.07210983333333}, {"fusion_lat": 0.0, "name": "b691afbca3aff7d1d8e4d51e2a9a1b4c", "is_disabled": 0, "rental_uris": {"android": "https://dc.lft.to/lastmile_qr_scan", "ios": "https://dc.lft.to/lastmile_qr_scan"}, "fusion_lon": 0.0, "lat": 38.90223816666666, "bike_id": "b691afbca3aff7d1d8e4d51e2a9a1b4c", "type": "electric_scooter", "is_reserved": 0, "lon": -77.04560666666667}, {"fusion_lat": 0.0, "name": "e8e0cf7e123a9e9f5f16132727e9b653", "is_disabled": 0, "rental_uris": {"android": "https://dc.lft.to/lastmile_qr_scan", "ios": "https://dc.lft.to/lastmile_qr_scan"}, "fusion_lon": 0.0, "lat": 38.90090283333333, "bike_id": "e8e0cf7e123a9e9f5f16132727e9b653", "type": "electric_scooter", "is_reserved": 0, "lon": -76.98333733333334}, {"fusion_lat": 0.0, "name": "829383a52ae99f6b3a4a9177e40219eb", "is_disabled": 0, "rental_uris": {"android": "https://dc.lft.to/lastmile_qr_scan", "ios": "https://dc.lft.to/lastmile_qr_scan"}, "fusion_lon": 0.0, "lat": 38.895026333333334, "bike_id": "829383a52ae99f6b3a4a9177e40219eb", "type": "electric_scooter", "is_reserved": 0, "lon": -77.003358}, {"fusion_lat": 0.0, "name": "6b51227abcfd9fb4abc521a12c8e1549", "is_disabled": 0, "rental_uris": {"android": "https://dc.lft.to/lastmile_qr_scan", "ios": "https://dc.lft.to/lastmile_qr_scan"}, "fusion_lon": 0.0, "lat": 38.931364333333335, "bike_id": "6b51227abcfd9fb4abc521a12c8e1549", "type": "electric_scooter", "is_reserved": 0, "lon": -77.02832716666667}, {"fusion_lat": 0.0, "name": "9024ba62a13da8f2793ee6acac146f35", "is_disabled": 0, "rental_uris": {"android": "https://dc.lft.to/lastmile_qr_scan", "ios": "https://dc.lft.to/lastmile_qr_scan"}, "fusion_lon": 0.0, "lat": 38.91378266666667, "bike_id": "9024ba62a13da8f2793ee6acac146f35", "type": "electric_scooter", "is_reserved": 0, "lon": -77.04564283333333}, {"fusion_lat": 0.0, "name": "08ee21bdc9817e62c75657b6fb5eaeef", "is_disabled": 0, "rental_uris": {"android": "https://dc.lft.to/lastmile_qr_scan", "ios": "https://dc.lft.to/lastmile_qr_scan"}, "fusion_lon": 0.0, "lat": 38.91483016666667, "bike_id": "08ee21bdc9817e62c75657b6fb5eaeef", "type": "electric_scooter", "is_reserved": 0, "lon": -77.04250133333333}, {"fusion_lat": 0.0, "name": "e2cf135d59bd43320ff02a4c53994517", "is_disabled": 0, "rental_uris": {"android": "https://dc.lft.to/lastmile_qr_scan", "ios": "https://dc.lft.to/lastmile_qr_scan"}, "fusion_lon": 0.0, "lat": 39.07047883333333, "bike_id": "e2cf135d59bd43320ff02a4c53994517", "type": "electric_bike", "is_reserved": 0, "lon": -77.11488783333333}, {"fusion_lat": 0.0, "name": "68ca50b4fd2809077c84430f3665aaf7", "is_disabled": 0, "rental_uris": {"android": "https://dc.lft.to/lastmile_qr_scan", "ios": "https://dc.lft.to/lastmile_qr_scan"}, "fusion_lon": 0.0, "lat": 38.89980383333334, "bike_id": "68ca50b4fd2809077c84430f3665aaf7", "type": "electric_scooter", "is_reserved": 0, "lon": -77.02281466666666}, {"fusion_lat": 0.0, "name": "fad1ec95d9ef644ec720d2fe075e3ac9", "is_disabled": 0, "rental_uris": {"android": "https://dc.lft.to/lastmile_qr_scan", "ios": "https://dc.lft.to/lastmile_qr_scan"}, "fusion_lon": 0.0, "lat": 38.904026, "bike_id": "fad1ec95d9ef644ec720d2fe075e3ac9", "type": "electric_scooter", "is_reserved": 0, "lon": -77.02026983333333}, {"fusion_lat": 0.0, "name": "27f19bafc679ed4da5068b24455deb27", "is_disabled": 0, "rental_uris": {"android": "https://dc.lft.to/lastmile_qr_scan", "ios": "https://dc.lft.to/lastmile_qr_scan"}, "fusion_lon": 0.0, "lat": 38.88657966666667, "bike_id": "27f19bafc679ed4da5068b24455deb27", "type": "electric_scooter", "is_reserved": 0, "lon": -76.98574033333334}, {"fusion_lat": 0.0, "name": "3651c086adbfc497c67c19c81a628071", "is_disabled": 0, "rental_uris": {"android": "https://dc.lft.to/lastmile_qr_scan", "ios": "https://dc.lft.to/lastmile_qr_scan"}, "fusion_lon": 0.0, "lat": 38.89837166666667, "bike_id": "3651c086adbfc497c67c19c81a628071", "type": "electric_scooter", "is_reserved": 0, "lon": -77.00748116666666}, {"fusion_lat": 0.0, "name": "67153978b59054f6756d07e0434c5daf", "is_disabled": 0, "rental_uris": {"android": "https://dc.lft.to/lastmile_qr_scan", "ios": "https://dc.lft.to/lastmile_qr_scan"}, "fusion_lon": 0.0, "lat": 38.92062166666667, "bike_id": "67153978b59054f6756d07e0434c5daf", "type": "electric_scooter", "is_reserved": 0, "lon": -77.02310983333334}, {"fusion_lat": 0.0, "name": "b795c30e04744f807bfae6e87fb9aad4", "is_disabled": 0, "rental_uris": {"android": "https://dc.lft.to/lastmile_qr_scan", "ios": "https://dc.lft.to/lastmile_qr_scan"}, "fusion_lon": 0.0, "lat": 38.94119033333333, "bike_id": "b795c30e04744f807bfae6e87fb9aad4", "type": "electric_bike", "is_reserved": 0, "lon": -76.99037333333334}, {"fusion_lat": 0.0, "name": "6821f5d9446b009a62083c21b01eb2e5", "is_disabled": 0, "rental_uris": {"android": "https://dc.lft.to/lastmile_qr_scan", "ios": "https://dc.lft.to/lastmile_qr_scan"}, "fusion_lon": 0.0, "lat": 38.90468633333333, "bike_id": "6821f5d9446b009a62083c21b01eb2e5", "type": "electric_scooter", "is_reserved": 0, "lon": -77.03929416666666}, {"fusion_lat": 0.0, "name": "5821697d04a2ac92d1dc93219310227d", "is_disabled": 0, "rental_uris": {"android": "https://dc.lft.to/lastmile_qr_scan", "ios": "https://dc.lft.to/lastmile_qr_scan"}, "fusion_lon": 0.0, "lat": 38.93869083333333, "bike_id": "5821697d04a2ac92d1dc93219310227d", "type": "electric_scooter", "is_reserved": 0, "lon": -77.02950866666667}, {"fusion_lat": 0.0, "name": "e8422b72c4df26b4fc4608edadfe8414", "is_disabled": 0, "rental_uris": {"android": "https://dc.lft.to/lastmile_qr_scan", "ios": "https://dc.lft.to/lastmile_qr_scan"}, "fusion_lon": 0.0, "lat": 38.9002775, "bike_id": "e8422b72c4df26b4fc4608edadfe8414", "type": "electric_scooter", "is_reserved": 0, "lon": -77.00190116666667}, {"fusion_lat": 0.0, "name": "fc4fc5fe0d00fa11658c741ca6786e2f", "is_disabled": 0, "rental_uris": {"android": "https://dc.lft.to/lastmile_qr_scan", "ios": "https://dc.lft.to/lastmile_qr_scan"}, "fusion_lon": 0.0, "lat": 38.917388, "bike_id": "fc4fc5fe0d00fa11658c741ca6786e2f", "type": "electric_scooter", "is_reserved": 0, "lon": -77.0345585}, {"fusion_lat": 0.0, "name": "67df84415b82905b07cf7513b5e509b3", "is_disabled": 0, "rental_uris": {"android": "https://dc.lft.to/lastmile_qr_scan", "ios": "https://dc.lft.to/lastmile_qr_scan"}, "fusion_lon": 0.0, "lat": 38.90393383333333, "bike_id": "67df84415b82905b07cf7513b5e509b3", "type": "electric_scooter", "is_reserved": 0, "lon": -77.0384935}, {"fusion_lat": 0.0, "name": "0905be33de41de042a6679cd1e296576", "is_disabled": 0, "rental_uris": {"android": "https://dc.lft.to/lastmile_qr_scan", "ios": "https://dc.lft.to/lastmile_qr_scan"}, "fusion_lon": 0.0, "lat": 38.9804755, "bike_id": "0905be33de41de042a6679cd1e296576", "type": "electric_bike", "is_reserved": 0, "lon": -76.9580485}, {"fusion_lat": 0.0, "name": "860bee07aa7ba1e30925c21290e67d32", "is_disabled": 0, "rental_uris": {"android": "https://dc.lft.to/lastmile_qr_scan", "ios": "https://dc.lft.to/lastmile_qr_scan"}, "fusion_lon": 0.0, "lat": 38.92367383333333, "bike_id": "860bee07aa7ba1e30925c21290e67d32", "type": "electric_scooter", "is_reserved": 0, "lon": -77.040982}, {"fusion_lat": 0.0, "name": "b3e9522ac1b0541820116e6d69027001", "is_disabled": 0, "rental_uris": {"android": "https://dc.lft.to/lastmile_qr_scan", "ios": "https://dc.lft.to/lastmile_qr_scan"}, "fusion_lon": 0.0, "lat": 38.96592283333333, "bike_id": "b3e9522ac1b0541820116e6d69027001", "type": "electric_scooter", "is_reserved": 0, "lon": -77.01596466666666}, {"fusion_lat": 0.0, "name": "928e1ebe9bae8940a1c0cb5efb069ac0", "is_disabled": 0, "rental_uris": {"android": "https://dc.lft.to/lastmile_qr_scan", "ios": "https://dc.lft.to/lastmile_qr_scan"}, "fusion_lon": 0.0, "lat": 38.90272016666667, "bike_id": "928e1ebe9bae8940a1c0cb5efb069ac0", "type": "electric_scooter", "is_reserved": 0, "lon": -77.02614216666667}, {"fusion_lat": 0.0, "name": "e7beb79a798f75d0f9741d7af49598e7", "is_disabled": 0, "rental_uris": {"android": "https://dc.lft.to/lastmile_qr_scan", "ios": "https://dc.lft.to/lastmile_qr_scan"}, "fusion_lon": 0.0, "lat": 38.912738, "bike_id": "e7beb79a798f75d0f9741d7af49598e7", "type": "electric_scooter", "is_reserved": 0, "lon": -77.04528216666667}, {"fusion_lat": 0.0, "name": "12051984e659e528987129e2e4e90a2b", "is_disabled": 0, "rental_uris": {"android": "https://dc.lft.to/lastmile_qr_scan", "ios": "https://dc.lft.to/lastmile_qr_scan"}, "fusion_lon": 0.0, "lat": 38.9338045, "bike_id": "12051984e659e528987129e2e4e90a2b", "type": "electric_scooter", "is_reserved": 0, "lon": -77.0388815}, {"fusion_lat": 0.0, "name": "c69b37ab79177e7697a5d0e367a2bc02", "is_disabled": 0, "rental_uris": {"android": "https://dc.lft.to/lastmile_qr_scan", "ios": "https://dc.lft.to/lastmile_qr_scan"}, "fusion_lon": 0.0, "lat": 38.92631566666667, "bike_id": "c69b37ab79177e7697a5d0e367a2bc02", "type": "electric_scooter", "is_reserved": 0, "lon": -77.0350835}, {"fusion_lat": 0.0, "name": "31554b9fec9ea02c8538be567e98f17a", "is_disabled": 0, "rental_uris": {"android": "https://dc.lft.to/lastmile_qr_scan", "ios": "https://dc.lft.to/lastmile_qr_scan"}, "fusion_lon": 0.0, "lat": 38.9100255, "bike_id": "31554b9fec9ea02c8538be567e98f17a", "type": "electric_scooter", "is_reserved": 0, "lon": -77.04916016666667}, {"fusion_lat": 0.0, "name": "135e9db0822a125e68f0a27435145e3a", "is_disabled": 0, "rental_uris": {"android": "https://dc.lft.to/lastmile_qr_scan", "ios": "https://dc.lft.to/lastmile_qr_scan"}, "fusion_lon": 0.0, "lat": 38.888676333333336, "bike_id": "135e9db0822a125e68f0a27435145e3a", "type": "electric_scooter", "is_reserved": 0, "lon": -77.02900466666667}, {"fusion_lat": 0.0, "name": "7635191b5c7e2b4b290f57307b553776", "is_disabled": 0, "rental_uris": {"android": "https://dc.lft.to/lastmile_qr_scan", "ios": "https://dc.lft.to/lastmile_qr_scan"}, "fusion_lon": 0.0, "lat": 38.898152833333334, "bike_id": "7635191b5c7e2b4b290f57307b553776", "type": "electric_scooter", "is_reserved": 0, "lon": -77.02526016666667}, {"fusion_lat": 0.0, "name": "9837e6502c42eba1456e67f78c8e4787", "is_disabled": 0, "rental_uris": {"android": "https://dc.lft.to/lastmile_qr_scan", "ios": "https://dc.lft.to/lastmile_qr_scan"}, "fusion_lon": 0.0, "lat": 38.89708183333333, "bike_id": "9837e6502c42eba1456e67f78c8e4787", "type": "electric_scooter", "is_reserved": 0, "lon": -77.02777066666667}, {"fusion_lat": 0.0, "name": "c6c61e7a17699f3a077cd456fbeb0d8a", "is_disabled": 0, "rental_uris": {"android": "https://dc.lft.to/lastmile_qr_scan", "ios": "https://dc.lft.to/lastmile_qr_scan"}, "fusion_lon": 0.0, "lat": 38.90781, "bike_id": "c6c61e7a17699f3a077cd456fbeb0d8a", "type": "electric_scooter", "is_reserved": 0, "lon": -77.011136}, {"fusion_lat": 0.0, "name": "14df514d45d3c1798b216baddb2b1c8c", "is_disabled": 0, "rental_uris": {"android": "https://dc.lft.to/lastmile_qr_scan", "ios": "https://dc.lft.to/lastmile_qr_scan"}, "fusion_lon": 0.0, "lat": 38.924578333333336, "bike_id": "14df514d45d3c1798b216baddb2b1c8c", "type": "electric_scooter", "is_reserved": 0, "lon": -76.999177}, {"fusion_lat": 0.0, "name": "cff38222be402377e42c31f46b69a3d1", "is_disabled": 0, "rental_uris": {"android": "https://dc.lft.to/lastmile_qr_scan", "ios": "https://dc.lft.to/lastmile_qr_scan"}, "fusion_lon": 0.0, "lat": 38.922331666666665, "bike_id": "cff38222be402377e42c31f46b69a3d1", "type": "electric_scooter", "is_reserved": 0, "lon": -77.04254233333333}, {"fusion_lat": 0.0, "name": "3749275ebc038ae562dd232fea48a014", "is_disabled": 0, "rental_uris": {"android": "https://dc.lft.to/lastmile_qr_scan", "ios": "https://dc.lft.to/lastmile_qr_scan"}, "fusion_lon": 0.0, "lat": 38.927402, "bike_id": "3749275ebc038ae562dd232fea48a014", "type": "electric_scooter", "is_reserved": 0, "lon": -77.03243966666666}, {"fusion_lat": 0.0, "name": "88687154dfce01b1f39d1a3c8520517f", "is_disabled": 0, "rental_uris": {"android": "https://dc.lft.to/lastmile_qr_scan", "ios": "https://dc.lft.to/lastmile_qr_scan"}, "fusion_lon": 0.0, "lat": 38.89223883333333, "bike_id": "88687154dfce01b1f39d1a3c8520517f", "type": "electric_scooter", "is_reserved": 0, "lon": -77.04323166666667}, {"fusion_lat": 0.0, "name": "66c64c273ae059aa43db8e4f4be2e22f", "is_disabled": 0, "rental_uris": {"android": "https://dc.lft.to/lastmile_qr_scan", "ios": "https://dc.lft.to/lastmile_qr_scan"}, "fusion_lon": 0.0, "lat": 38.90650216666667, "bike_id": "66c64c273ae059aa43db8e4f4be2e22f", "type": "electric_scooter", "is_reserved": 0, "lon": -77.0432845}, {"fusion_lat": 0.0, "name": "3b0af33e891d33776bec287e6b684dd8", "is_disabled": 0, "rental_uris": {"android": "https://dc.lft.to/lastmile_qr_scan", "ios": "https://dc.lft.to/lastmile_qr_scan"}, "fusion_lon": 0.0, "lat": 38.9051395, "bike_id": "3b0af33e891d33776bec287e6b684dd8", "type": "electric_scooter", "is_reserved": 0, "lon": -77.0615875}, {"fusion_lat": 0.0, "name": "4f5e0f34b65a531e9b142f5fddae0c98", "is_disabled": 0, "rental_uris": {"android": "https://dc.lft.to/lastmile_qr_scan", "ios": "https://dc.lft.to/lastmile_qr_scan"}, "fusion_lon": 0.0, "lat": 38.911149333333334, "bike_id": "4f5e0f34b65a531e9b142f5fddae0c98", "type": "electric_scooter", "is_reserved": 0, "lon": -77.04365666666666}, {"fusion_lat": 0.0, "name": "70142a9721606fec2cd3fba528c4ae07", "is_disabled": 0, "rental_uris": {"android": "https://dc.lft.to/lastmile_qr_scan", "ios": "https://dc.lft.to/lastmile_qr_scan"}, "fusion_lon": 0.0, "lat": 38.892219833333336, "bike_id": "70142a9721606fec2cd3fba528c4ae07", "type": "electric_scooter", "is_reserved": 0, "lon": -77.04867766666666}, {"fusion_lat": 0.0, "name": "4e6dbeb9d20a6e0d725a9c1bc469d2c9", "is_disabled": 0, "rental_uris": {"android": "https://dc.lft.to/lastmile_qr_scan", "ios": "https://dc.lft.to/lastmile_qr_scan"}, "fusion_lon": 0.0, "lat": 38.99477666666667, "bike_id": "4e6dbeb9d20a6e0d725a9c1bc469d2c9", "type": "electric_bike", "is_reserved": 0, "lon": -77.02905266666667}, {"fusion_lat": 0.0, "name": "c887d23387b8b0a2a7f13d4b26923283", "is_disabled": 0, "rental_uris": {"android": "https://dc.lft.to/lastmile_qr_scan", "ios": "https://dc.lft.to/lastmile_qr_scan"}, "fusion_lon": 0.0, "lat": 38.90747116666667, "bike_id": "c887d23387b8b0a2a7f13d4b26923283", "type": "electric_scooter", "is_reserved": 0, "lon": -77.03595883333334}, {"fusion_lat": 0.0, "name": "c7a1973ea6ff6ba82fc71d42543a91c2", "is_disabled": 0, "rental_uris": {"android": "https://dc.lft.to/lastmile_qr_scan", "ios": "https://dc.lft.to/lastmile_qr_scan"}, "fusion_lon": 0.0, "lat": 38.90565933333333, "bike_id": "c7a1973ea6ff6ba82fc71d42543a91c2", "type": "electric_scooter", "is_reserved": 0, "lon": -77.00814633333333}, {"fusion_lat": 0.0, "name": "38df153ab878944b7eb13a856388d0a6", "is_disabled": 0, "rental_uris": {"android": "https://dc.lft.to/lastmile_qr_scan", "ios": "https://dc.lft.to/lastmile_qr_scan"}, "fusion_lon": 0.0, "lat": 38.9147215, "bike_id": "38df153ab878944b7eb13a856388d0a6", "type": "electric_scooter", "is_reserved": 0, "lon": -77.0425975}, {"fusion_lat": 0.0, "name": "1cacc36970ddd6b791a270cc076d7501", "is_disabled": 0, "rental_uris": {"android": "https://dc.lft.to/lastmile_qr_scan", "ios": "https://dc.lft.to/lastmile_qr_scan"}, "fusion_lon": 0.0, "lat": 38.897391999999996, "bike_id": "1cacc36970ddd6b791a270cc076d7501", "type": "electric_scooter", "is_reserved": 0, "lon": -77.003714}, {"fusion_lat": 0.0, "name": "b2fdf30792eba58312b950e63979cc01", "is_disabled": 0, "rental_uris": {"android": "https://dc.lft.to/lastmile_qr_scan", "ios": "https://dc.lft.to/lastmile_qr_scan"}, "fusion_lon": 0.0, "lat": 38.92149933333334, "bike_id": "b2fdf30792eba58312b950e63979cc01", "type": "electric_scooter", "is_reserved": 0, "lon": -77.04361216666666}, {"fusion_lat": 0.0, "name": "619df4b78848c5f30b73b7d2007c912e", "is_disabled": 0, "rental_uris": {"android": "https://dc.lft.to/lastmile_qr_scan", "ios": "https://dc.lft.to/lastmile_qr_scan"}, "fusion_lon": 0.0, "lat": 38.912647666666665, "bike_id": "619df4b78848c5f30b73b7d2007c912e", "type": "electric_scooter", "is_reserved": 0, "lon": -77.04063433333333}, {"fusion_lat": 0.0, "name": "e139276306603bbda430e01b09ffd3a1", "is_disabled": 0, "rental_uris": {"android": "https://dc.lft.to/lastmile_qr_scan", "ios": "https://dc.lft.to/lastmile_qr_scan"}, "fusion_lon": 0.0, "lat": 38.903525333333334, "bike_id": "e139276306603bbda430e01b09ffd3a1", "type": "electric_scooter", "is_reserved": 0, "lon": -77.017268}, {"fusion_lat": 0.0, "name": "ecf8df316f60d70b53946066b28f3297", "is_disabled": 0, "rental_uris": {"android": "https://dc.lft.to/lastmile_qr_scan", "ios": "https://dc.lft.to/lastmile_qr_scan"}, "fusion_lon": 0.0, "lat": 38.93354216666667, "bike_id": "ecf8df316f60d70b53946066b28f3297", "type": "electric_scooter", "is_reserved": 0, "lon": -77.02497666666666}, {"fusion_lat": 0.0, "name": "379a8b3c06020866ad28b806dfe128a7", "is_disabled": 0, "rental_uris": {"android": "https://dc.lft.to/lastmile_qr_scan", "ios": "https://dc.lft.to/lastmile_qr_scan"}, "fusion_lon": 0.0, "lat": 38.804946666666666, "bike_id": "379a8b3c06020866ad28b806dfe128a7", "type": "electric_bike", "is_reserved": 0, "lon": -77.10161166666667},