{"data": {"bikes": [{"lat": 38.913598, "is_disabled": 0, "type": "electric_scooter", "lon": -77.06922383333334, "bike_id": "ad21674c20940b762115357ca4b8b276", "fusion_lat": 0.0, "name": "ad21674c20940b762115357ca4b8b276", "is_reserved": 0, "rental_uris": {"android": "https://dc.lft.to/lastmile_qr_scan", "ios": "https://dc.lft.to/lastmile_qr_scan"}, "fusion_lon": 0.0}, {"lat": 38.86658166666667, "is_disabled": 0, "type": "electric_scooter", "lon": -76.9888185, "bike_id": "94d11d296d44e162e23e3b5f34c259e0", "fusion_lat": 0.0, "name": "94d11d296d44e162e23e3b5f34c259e0", "is_reserved": 0, "rental_uris": {"android": "https://dc.lft.to/lastmile_qr_scan", "ios": "https://dc.lft.to/lastmile_qr_scan"}, "fusion_lon": 0.0}, {"lat": 38.9215165, "is_disabled": 0, "type": "electric_scooter", "lon": -77.033415, "bike_id": "24ced7669067182fbd918690b588c8e3", "fusion_lat": 0.0, "name": "24ced7669067182fbd918690b588c8e3", "is_reserved": 0, "rental_uris": {"android": "https://dc.lft.to/lastmile_qr_scan", "ios": "https://dc.lft.to/lastmile_qr_scan"}, "fusion_lon": 0.0}, {"lat": 38.92313433333333, "is_disabled": 0, "type": "electric_scooter", "lon": -77.039593, "bike_id": "9559213809f0e7a1803f77c92270fa49", "fusion_lat": 0.0, "name": "9559213809f0e7a1803f77c92270fa49", "is_reserved": 0, "rental_uris": {"android": "https://dc.lft.to/lastmile_qr_scan", "ios": "https://dc.lft.to/lastmile_qr_scan"}, "fusion_lon": 0.0}, {"lat": 38.90566366666667, "is_disabled": 0, "type": "electric_scooter", "lon": -77.029666, "bike_id": "fd6e005c2b9468ce144a5366b1f77b60", "fusion_lat": 0.0, "name": "fd6e005c2b9468ce144a5366b1f77b60", "is_reserved": 0, "rental_uris": {"android": "https://dc.lft.to/lastmile_qr_scan", "ios": "https://dc.lft.to/lastmile_qr_scan"}, "fusion_lon": 0.0}, {"lat": 38.85208566666667, "is_disabled": 0, "type": "electric_bike", "lon": -77.10126833333334, "bike_id": "df6a4ec608deecd7e33196a2192d98bd", "fusion_lat": 0.0, "name": "df6a4ec608deecd7e33196a2192d98bd", "is_reserved": 0, "rental_uris": {"android": "https://dc.lft.to/lastmile_qr_scan", "ios": "https://dc.lft.to/lastmile_qr_scan"}, "fusion_lon": 0.0}, {"lat": 38.895179166666665, "is_disabled": 0, "type": "electric_scooter", "lon": -76.94894233333333, "bike_id": "b62b10623c96edf9e212a028de4e49e8", "fusion_lat": 0.0, "name": "b62b10623c96edf9e212a028de4e49e8", "is_reserved": 0, "rental_uris": {"android": "https://dc.lft.to/lastmile_qr_scan", "ios": "https://dc.lft.to/lastmile_qr_scan"}, "fusion_lon": 0.0}, {"lat": 38.916997333333335, "is_disabled": 0, "type": "electric_scooter", "lon": -77.0346365, "bike_id": "125a4c9d82f01a7bd5c732e5fdf0f81e", "fusion_lat": 0.0, "name": "125a4c9d82f01a7bd5c732e5fdf0f81e", "is_reserved": 0, "rental_uris": {"android": "https://dc.lft.to/lastmile_qr_scan", "ios": "https://dc.lft.to/lastmile_qr_scan"}, "fusion_lon": 0.0}, {"lat": 38.920761666666664, "is_disabled": 0, "type": "electric_scooter", "lon": -77.04203733333334, "bike_id": "34f7762723e56aade7be027cbf4ba20a", "fusion_lat": 0.0, "name": "34f7762723e56aade7be027cbf4ba20a", "is_reserved": 0, "rental_uris": {"android": "https://dc.lft.to/lastmile_qr_scan", "ios": "https://dc.lft.to/lastmile_qr_scan"}, "fusion_lon": 0.0}, {"lat": 38.926793833333335, "is_disabled": 0, "type": "electric_scooter", "lon": -77.02856666666666, "bike_id": "8a56d234aa7e00c7e2c53f715c0db8c2", "fusion_lat": 0.0, "name": "8a56d234aa7e00c7e2c53f715c0db8c2", "is_reserved": 0, "rental_uris": {"android": "https://dc.lft.to/lastmile_qr_scan", "ios": "https://dc.lft.to/lastmile_qr_scan"}, "fusion_lon": 0.0}, {"lat": 38.92327566666667, "is_disabled": 0, "type": "electric_scooter", "lon": -77.03571833333334, "bike_id": "0da9d3477ba1db3a092cf7311489894c", "fusion_lat": 0.0, "name": "0da9d3477ba1db3a092cf7311489894c", "is_reserved": 0, "rental_uris": {"android": "https://dc.lft.to/lastmile_qr_scan", "ios": "https://dc.lft.to/lastmile_qr_scan"}, "fusion_lon": 0.0}, {"lat": 38.970892, "is_disabled": 0, "type": "electric_bike", "lon": -77.06965833333334, "bike_id": "54530bef798415289bb14b6f0bc6a69c", "fusion_lat": 0.0, "name": "54530bef798415289bb14b6f0bc6a69c", "is_reserved": 0, "rental_uris": {"android": "https://dc.lft.to/lastmile_qr_scan", "ios": "https://dc.lft.to/lastmile_qr_scan"}, "fusion_lon": 0.0}, {"lat": 38.913449666666665, "is_disabled": 0, "type": "electric_scooter", "lon": -76.97366133333334, "bike_id": "158504ea8b79da0f28f154349b1bc864", "fusion_lat": 0.0, "name": "158504ea8b79da0f28f154349b1bc864", "is_reserved": 0, "rental_uris": {"android": "https://dc.lft.to/lastmile_qr_scan", "ios": "https://dc.lft.to/lastmile_qr_scan"}, "fusion_lon": 0.0}, {"lat": 38.90393, "is_disabled": 0, "type": "electric_scooter", "lon": -77.0164235, "bike_id": "f598184d2dac9b5fc661c4c79303d3a8", "fusion_lat": 0.0, "name": "f598184d2dac9b5fc661c4c79303d3a8", "is_reserved": 0, "rental_uris": {"android": "https://dc.lft.to/lastmile_qr_scan", "ios": "https://dc.lft.to/lastmile_qr_scan"}, "fusion_lon": 0.0}, {"lat": 38.877361666666665, "is_disabled": 0, "type": "electric_bike", "lon": -77.11847733333333, "bike_id": "f8aa15cab4cf3e3ee8a38c00689f1b05", "fusion_lat": 0.0, "name": "f8aa15cab4cf3e3ee8a38c00689f1b05", "is_reserved": 0, "rental_uris": {"android": "https://dc.lft.to/lastmile_qr_scan", "ios": "https://dc.lft.to/lastmile_qr_scan"}, "fusion_lon": 0.0}, {"lat": 38.86256933333333, "is_disabled": 0, "type": "electric_scooter", "lon": -76.98696766666667, "bike_id": "edba8a119330cdbf3a3ee0a879e2bd62", "fusion_lat": 0.0, "name": "edba8a119330cdbf3a3ee0a879e2bd62", "is_reserved": 0, "rental_uris": {"android": "https://dc.lft.to/lastmile_qr_scan", "ios": "https://dc.lft.to/lastmile_qr_scan"}, "fusion_lon": 0.0}, {"lat": 38.9206595, "is_disabled": 0, "type": "electric_scooter", "lon": -77.04372533333333, "bike_id": "bdbf84ebe84314ce8c375f1d7b3c0f75", "fusion_lat": 0.0, "name": "bdbf84ebe84314ce8c375f1d7b3c0f75", "is_reserved": 0, "rental_uris": {"android": "https://dc.lft.to/lastmile_qr_scan", "ios": "https://dc.lft.to/lastmile_qr_scan"}, "fusion_lon": 0.0}, {"lat": 38.91053133333333, "is_disabled": 0, "type": "electric_scooter", "lon": -77.01525833333334, "bike_id": "4d2fdafa97e07f575c48cb6121fcb231", "fusion_lat": 0.0, "name": "4d2fdafa97e07f575c48cb6121fcb231", "is_reserved": 0, "rental_uris": {"android": "https://dc.lft.to/lastmile_qr_scan", "ios": "https://dc.lft.to/lastmile_qr_scan"}, "fusion_lon": 0.0}, {"lat": 38.9518445, "is_disabled": 0, "type": "electric_bike", "lon": -76.93546966666666, "bike_id": "27862adc5f52a4e5767b57a8343bd51f", "fusion_lat": 0.0, "name": "27862adc5f52a4e5767b57a8343bd51f", "is_reserved": 0, "rental_uris": {"android": "https://dc.lft.to/lastmile_qr_scan", "ios": "https://dc.lft.to/lastmile_qr_scan"}, "fusion_lon": 0.0}, {"lat": 38.93911033333333, "is_disabled": 0, "type": "electric_scooter", "lon": -77.02470333333333, "bike_id": "67088f4b2ca436d91b41b36921fa4e2c", "fusion_lat": 0.0, "name": "67088f4b2ca436d91b41b36921fa4e2c", "is_reserved": 0, "rental_uris": {"android": "https://dc.lft.to/lastmile_qr_scan", "ios": "https://dc.lft.to/lastmile_qr_scan"}, "fusion_lon": 0.0}, {"lat": 38.907326166666664, "is_disabled": 0, "type": "electric_scooter", "lon": -77.04197233333333, "bike_id": "96764ea507bfd4a20d694fed93fac4b5", "fusion_lat": 0.0, "name": "96764ea507bfd4a20d694fed93fac4b5", "is_reserved": 0, "rental_uris": {"android": "https://dc.lft.to/lastmile_qr_scan", "ios": "https://dc.lft.to/lastmile_qr_scan"}, "fusion_lon": 0.0}, {"lat": 38.92725466666667, "is_disabled": 0, "type": "electric_scooter", "lon": -77.02100366666667, "bike_id": "de931192ff64b364b442cc222fc4c609", "fusion_lat": 0.0, "name": "de931192ff64b364b442cc222fc4c609", "is_reserved": 0, "rental_uris": {"android": "https://dc.lft.to/lastmile_qr_scan", "ios": "https://dc.lft.to/lastmile_qr_scan"}, "fusion_lon": 0.0}, {"lat": 38.836958833333334, "is_disabled": 0, "type": "electric_scooter", "lon": -77.103053, "bike_id": "00fb7faead30adb06bdb5a9f4e74e37f", "fusion_lat": 0.0, "name": "00fb7faead30adb06bdb5a9f4e74e37f", "is_reserved": 0, "rental_uris": {"android": "https://dc.lft.to/lastmile_qr_scan", "ios": "https://dc.lft.to/lastmile_qr_scan"}, "fusion_lon": 0.0}, {"lat": 38.9309685, "is_disabled": 0, "type": "electric_scooter", "lon": -77.0251665, "bike_id": "daace6c8f375074398f480c7353fd4af", "fusion_lat": 0.0, "name": "daace6c8f375074398f480c7353fd4af", "is_reserved": 0, "rental_uris": {"android": "https://dc.lft.to/lastmile_qr_scan", "ios": "https://dc.lft.to/lastmile_qr_scan"}, "fusion_lon": 0.0}, {"lat": 38.8714585, "is_disabled": 0, "type": "electric_bike", "lon": -76.93708383333333, "bike_id": "fca136efaa8b5467d2a48a49aec6ee69", "fusion_lat": 0.0, "name": "fca136efaa8b5467d2a48a49aec6ee69", "is_reserved": 0, "rental_uris": {"android": "https://dc.lft.to/lastmile_qr_scan", "ios": "https://dc.lft.to/lastmile_qr_scan"}, "fusion_lon": 0.0}, {"lat": 38.872371666666666, "is_disabled": 0, "type": "electric_scooter", "lon": -77.012079, "bike_id": "dcd8043cbb1e6c166dc7a4af67d9a417", "fusion_lat": 0.0, "name": "dcd8043cbb1e6c166dc7a4af67d9a417", "is_reserved": 0, "rental_uris": {"android": "https://dc.lft.to/lastmile_qr_scan", "ios": "https://dc.lft.to/lastmile_qr_scan"}, "fusion_lon": 0.0}, {"lat": 38.90066766666666, "is_disabled": 0, "type": "electric_scooter", "lon": -77.05063666666666, "bike_id": "bb955dd9933fad69dd3b21ff1a79ee48", "fusion_lat": 0.0, "name": "bb955dd9933fad69dd3b21ff1a79ee48", "is_reserved": 0, "rental_uris": {"android": "https://dc.lft.to/lastmile_qr_scan", "ios": "https://dc.lft.to/lastmile_qr_scan"}, "fusion_lon": 0.0}, {"lat": 38.88116633333333, "is_disabled": 0, "type": "electric_scooter", "lon": -76.983342, "bike_id": "37be6a453a14b31817425e51c8d10a90", "fusion_lat": 0.0, "name": "37be6a453a14b31817425e51c8d10a90", "is_reserved": 0, "rental_uris": {"android": "https://dc.lft.to/lastmile_qr_scan", "ios": "https://dc.lft.to/lastmile_qr_scan"}, "fusion_lon": 0.0}, {"lat": 38.91610083333333, "is_disabled": 0, "type": "electric_scooter", "lon": -77.0326685, "bike_id": "60e354b452c14c73e26b2d349b5efffe", "fusion_lat": 0.0, "name": "60e354b452c14c73e26b2d349b5efffe", "is_reserved": 0, "rental_uris": {"android": "https://dc.lft.to/lastmile_qr_scan", "ios": "https://dc.lft.to/lastmile_qr_scan"}, "fusion_lon": 0.0}, {"lat": 38.8456715, "is_disabled": 0, "type": "electric_bike", "lon": -77.09621433333334, "bike_id": "93f7b06e5e4a0b90012a1b3f8e04bd09", "fusion_lat": 0.0, "name": "93f7b06e5e4a0b90012a1b3f8e04bd09", "is_reserved": 0, "rental_uris": {"android": "https://dc.lft.to/lastmile_qr_scan", "ios": "https://dc.lft.to/lastmile_qr_scan"}, "fusion_lon": 0.0}, {"lat": 38.936683, "is_disabled": 0, "type": "electric_scooter", "lon": -77.05932433333334, "bike_id": "9423e5e3907254772acb03f19ac5a7c1", "fusion_lat": 0.0, "name": "9423e5e3907254772acb03f19ac5a7c1", "is_reserved": 0, "rental_uris": {"android": "https://dc.lft.to/lastmile_qr_scan", "ios": "https://dc.lft.to/lastmile_qr_scan"}, "fusion_lon": 0.0}, {"lat": 38.9056005, "is_disabled": 0, "type": "electric_scooter", "lon": -77.04351266666667, "bike_id": "218e06a4aceba77f9f9bd2a378904dbd", "fusion_lat": 0.0, "name": "218e06a4aceba77f9f9bd2a378904dbd", "is_reserved": 0, "rental_uris": {"android": "https://dc.lft.to/lastmile_qr_scan", "ios": "https://dc.lft.to/lastmile_qr_scan"}, "fusion_lon": 0.0}, {"lat": 38.908122166666665, "is_disabled": 0, "type": "electric_scooter", "lon": -77.03434216666666, "bike_id": "d829bd70a2a722590b09f96fa11f2d03", "fusion_lat": 0.0, "name": "d829bd70a2a722590b09f96fa11f2d03", "is_reserved": 0, "rental_uris": {"android": "https://dc.lft.to/lastmile_qr_scan", "ios": "https://dc.lft.to/lastmile_qr_scan"}, "fusion_lon": 0.0}, {"lat": 38.867136, "is_disabled": 0, "type": "electric_scooter", "lon": -76.98725366666666, "bike_id": "c169bb38137193b4bdfbf902b5ea60f0", "fusion_lat": 0.0, "name": "c169bb38137193b4bdfbf902b5ea60f0", "is_reserved": 0, "rental_uris": {"android": "https://dc.lft.to/lastmile_qr_scan", "ios": "https://dc.lft.to/lastmile_qr_scan"}, "fusion_lon": 0.0}, {"lat": 38.850516, "is_disabled": 0, "type": "electric_bike", "lon": -76.97318466666667, "bike_id": "8619eb103a301fe7115f1aba94b8c7eb", "fusion_lat": 0.0, "name": "8619eb103a301fe7115f1aba94b8c7eb", "is_reserved": 0, "rental_uris": {"android": "https://dc.lft.to/lastmile_qr_scan", "ios": "https://dc.lft.to/lastmile_qr_scan"}, "fusion_lon": 0.0}, {"lat": 38.922404, "is_disabled": 0, "type": "electric_scooter", "lon": -77.045732, "bike_id": "08f463ca53317fca891c60f41076b38f", "fusion_lat": 0.0, "name": "08f463ca53317fca891c60f41076b38f", "is_reserved": 0, "rental_uris": {"android": "https://dc.lft.to/lastmile_qr_scan", "ios": "https://dc.lft.to/lastmile_qr_scan"}, "fusion_lon": 0.0}, {"lat": 38.93338766666667, "is_disabled": 0, "type": "electric_bike", "lon": -77.042019, "bike_id": "247a485941f5480f94732c2c8ac4e2fc", "fusion_lat": 0.0, "name": "247a485941f5480f94732c2c8ac4e2fc", "is_reserved": 0, "rental_uris": {"android": "https://dc.lft.to/lastmile_qr_scan", "ios": "https://dc.lft.to/lastmile_qr_scan"}, "fusion_lon": 0.0}, {"lat": 38.90677916666667, "is_disabled": 0, "type": "electric_scooter", "lon": -77.03748766666666, "bike_id": "64279c20a76f58bcd713a53d37b31da6", "fusion_lat": 0.0, "name": "64279c20a76f58bcd713a53d37b31da6", "is_reserved": 0, "rental_uris": {"android": "https://dc.lft.to/lastmile_qr_scan", "ios": "https://dc.lft.to/lastmile_qr_scan"}, "fusion_lon": 0.0}, {"lat": 38.9003595, "is_disabled": 0, "type": "electric_scooter", "lon": -77.02607983333333, "bike_id": "b3712c2acb491d6e82e18d4f8563087b", "fusion_lat": 0.0, "name": "b3712c2acb491d6e82e18d4f8563087b", "is_reserved": 0, "rental_uris": {"android": "https://dc.lft.to/lastmile_qr_scan", "ios": "https://dc.lft.to/lastmile_qr_scan"}, "fusion_lon": 0.0}, {"lat": 38.90181783333333, "is_disabled": 0, "type": "electric_scooter", "lon": -77.02511383333334, "bike_id": "dab5fd81bb1304729c589efb83f453f1", "fusion_lat": 0.0, "name": "dab5fd81bb1304729c589efb83f453f1", "is_reserved": 0, "rental_uris": {"android": "https://dc.lft.to/lastmile_qr_scan", "ios": "https://dc.lft.to/lastmile_qr_scan"}, "fusion_lon": 0.0}, {"lat": 38.932376, "is_disabled": 0, "type": "electric_scooter", "lon": -76.99602433333334, "bike_id": "d3b473f3f5cbff20fa093cfc85ae3411", "fusion_lat": 0.0, "name": "d3b473f3f5cbff20fa093cfc85ae3411", "is_reserved": 0, "rental_uris": {"android": "https://dc.lft.to/lastmile_qr_scan", "ios": "https://dc.lft.to/lastmile_qr_scan"}, "fusion_lon": 0.0}, {"lat": 38.906722, "is_disabled": 0, "type": "electric_scooter", "lon": -77.02710933333333, "bike_id": "0f5d4f60ed588354e556839fdab55fcc", "fusion_lat": 0.0, "name": "0f5d4f60ed588354e556839fdab55fcc", "is_reserved": 0, "rental_uris": {"android": "https://dc.lft.to/lastmile_qr_scan", "ios": "https://dc.lft.to/lastmile_qr_scan"}, "fusion_lon": 0.0}, {"lat": 38.89734933333333, "is_disabled": 0, "type": "electric_scooter", "lon": -77.0476555, "bike_id": "cff459d5fb89720e4175c59e7955b700", "fusion_lat": 0.0, "name": "cff459d5fb89720e4175c59e7955b700", "is_reserved": 0, "rental_uris": {"android": "https://dc.lft.to/lastmile_qr_scan", "ios": "https://dc.lft.to/lastmile_qr_scan"}, "fusion_lon": 0.0}, {"lat": 38.9082585, "is_disabled": 0, "type": "electric_scooter", "lon": -77.06382533333333, "bike_id": "7f1b4b25f1ac5005f36fa9259b47af2c", "fusion_lat": 0.0, "name": "7f1b4b25f1ac5005f36fa9259b47af2c", "is_reserved": 0, "rental_uris": {"android": "https://dc.lft.to/lastmile_qr_scan", "ios": "https://dc.lft.to/lastmile_qr_scan"}, "fusion_lon": 0.0}, {"lat": 38.918223, "is_disabled": 0, "type": "electric_scooter", "lon": -77.04174516666667, "bike_id": "61fa5cfe8308b8c00d2cdae33c9b6357", "fusion_lat": 0.0, "name": "61fa5cfe8308b8c00d2cdae33c9b6357", "is_reserved": 0, "rental_uris": {"android": "https://dc.lft.to/lastmile_qr_scan", "ios": "https://dc.lft.to/lastmile_qr_scan"}, "fusion_lon": 0.0}, {"lat": 38.898883166666664, "is_disabled": 0, "type": "electric_scooter", "lon": -76.9317255, "bike_id": "422486cb62b14410a1893de90aa9d158", "fusion_lat": 0.0, "name": "422486cb62b14410a1893de90aa9d158", "is_reserved": 0, "rental_uris": {"android": "https://dc.lft.to/lastmile_qr_scan", "ios": "https://dc.lft.to/lastmile_qr_scan"}, "fusion_lon": 0.0}, {"lat": 38.907757833333335, "is_disabled": 0, "type": "electric_scooter", "lon": -77.03859733333333, "bike_id": "ddd9e2d7a1a47d5dcf3a7c5dc9f2aec8", "fusion_lat": 0.0, "name": "ddd9e2d7a1a47d5dcf3a7c5dc9f2aec8", "is_reserved": 0, "rental_uris": {"android": "https://dc.lft.to/lastmile_qr_scan", "ios": "https://dc.lft.to/lastmile_qr_scan"}, "fusion_lon": 0.0}, {"lat": 38.868910666666665, "is_disabled": 0, "type": "electric_scooter", "lon": -76.983109, "bike_id": "f3e457a014124d86cf93afba75eedb94", "fusion_lat": 0.0, "name": "f3e457a014124d86cf93afba75eedb94", "is_reserved": 0, "rental_uris": {"android": "https://dc.lft.to/lastmile_qr_scan", "ios": "https://dc.lft.to/lastmile_qr_scan"}, "fusion_lon": 0.0}, {"lat": 38.90566183333333, "is_disabled": 0, "type": "electric_scooter", "lon": -77.00828, "bike_id": "1ad38ab153429ce9ddb15071d0e41447", "fusion_lat": 0.0, "name": "1ad38ab153429ce9ddb15071d0e41447", "is_reserved": 0, "rental_uris": {"android": "https://dc.lft.to/lastmile_qr_scan", "ios": "https://dc.lft.to/lastmile_qr_scan"}, "fusion_lon": 0.0}, {"lat": 38.903855166666666, "is_disabled": 0, "type": "electric_scooter", "lon": -77.01633716666667, "bike_id": "1e65d9ddf68173333dc2d478c0c6ef84", "fusion_lat": 0.0, "name": "1e65d9ddf68173333dc2d478c0c6ef84", "is_reserved": 0, "rental_uris": {"android": "https://dc.lft.to/lastmile_qr_scan", "ios": "https://dc.lft.to/lastmile_qr_scan"}, "fusion_lon": 0.0}, {"lat": 38.900506, "is_disabled": 0, "type": "electric_scooter", "lon": -77.01305133333334, "bike_id": "5bdd10278349269599268664030be414", "fusion_lat": 0.0, "name": "5bdd10278349269599268664030be414", "is_reserved": 0, "rental_uris": {"android": "https://dc.lft.to/lastmile_qr_scan", "ios": "https://dc.lft.to/lastmile_qr_scan"}, "fusion_lon": 0.0}, {"lat": 38.906607666666666, "is_disabled": 0, "type": "electric_scooter", "lon": -77.03846116666666, "bike_id": "2708750f0700457a2ce8b43b8e8022e9", "fusion_lat": 0.0, "name": "2708750f0700457a2ce8b43b8e8022e9", "is_reserved": 0, "rental_uris": {"android": "https://dc.lft.to/lastmile_qr_scan", "ios": "https://dc.lft.to/lastmile_qr_scan"}, "fusion_lon": 0.0}, {"lat": 38.90001316666667, "is_disabled": 0, "type": "electric_scooter", "lon": -77.04038316666667, "bike_id": "12707e8221d902014e9f23c52d8513a8", "fusion_lat": 0.0, "name": "12707e8221d902014e9f23c52d8513a8", "is_reserved": 0, "rental_uris": {"android": "https://dc.lft.to/lastmile_qr_scan", "ios": "https://dc.lft.to/lastmile_qr_scan"}, "fusion_lon": 0.0}, {"lat": 38.87708466666667, "is_disabled": 0, "type": "electric_scooter", "lon": -77.00340033333333, "bike_id": "f1a7bff4c5ce2511db34a4d73f388948", "fusion_lat": 0.0, "name": "f1a7bff4c5ce2511db34a4d73f388948", "is_reserved": 0, "rental_uris": {"android": "https://dc.lft.to/lastmile_qr_scan", "ios": "https://dc.lft.to/lastmile_qr_scan"}, "fusion_lon": 0.0}, {"lat": 38.8989815, "is_disabled": 0, "type": "electric_scooter", "lon": -76.99726833333334, "bike_id": "e7ad72f8e92656c882ab29313f8fd8e4", "fusion_lat": 0.0, "name": "e7ad72f8e92656c882ab29313f8fd8e4", "is_reserved": 0, "rental_uris": {"android": "https://dc.lft.to/lastmile_qr_scan", "ios": "https://dc.lft.to/lastmile_qr_scan"}, "fusion_lon": 0.0}, {"lat": 38.911863833333335, "is_disabled": 0, "type": "electric_scooter", "lon": -77.00251966666667, "bike_id": "713b598935dd336f08288ca891a3050e", "fusion_lat": 0.0, "name": "713b598935dd336f08288ca891a3050e", "is_reserved": 0, "rental_uris": {"android": "https://dc.lft.to/lastmile_qr_scan", "ios": "https://dc.lft.to/lastmile_qr_scan"}, "fusion_lon": 0.0}, {"lat": 38.99998566666667, "is_disabled": 0, "type": "electric_bike", "lon": -76.92503133333334, "bike_id": "58d52c57055e2bfc16a48b4f2a8b9187", "fusion_lat": 0.0, "name": "58d52c57055e2bfc16a48b4f2a8b9187", "is_reserved": 0, "rental_uris": {"android": "https://dc.lft.to/lastmile_qr_scan", "ios": "https://dc.lft.to/lastmile_qr_scan"}, "fusion_lon": 0.0}, {"lat": 38.9522125, "is_disabled": 0, "type": "electric_scooter", "lon": -77.0860195, "bike_id": "8ffbaa777d1211cdacbbf7b3fbdd6ba3", "fusion_lat": 0.0, "name": "8ffbaa777d1211cdacbbf7b3fbdd6ba3", "is_reserved": 0, "rental_uris": {"android": "https://dc.lft.to/lastmile_qr_scan", "ios": "https://dc.lft.to/lastmile_qr_scan"}, "fusion_lon": 0.0}, {"lat": 38.913348666666664, "is_disabled": 0, "type": "electric_scooter", "lon": -77.03043683333334, "bike_id": "15faaf1c7e9e5703bc499a689ea86a61", "fusion_lat": 0.0, "name": "15faaf1c7e9e5703bc499a689ea86a61", "is_reserved": 0, "rental_uris": {"android": "https://dc.lft.to/lastmile_qr_scan", "ios": "https://dc.lft.to/lastmile_qr_scan"}, "fusion_lon": 0.0}, {"lat": 38.922759666666664, "is_disabled": 0, "type": "electric_scooter", "lon": -77.042411, "bike_id": "cf827abafd785b1ed11e126d41a05d95", "fusion_lat": 0.0, "name": "cf827abafd785b1ed11e126d41a05d95", "is_reserved": 0, "rental_uris": {"android": "https://dc.lft.to/lastmile_qr_scan", "ios": "https://dc.lft.to/lastmile_qr_scan"}, "fusion_lon": 0.0}, {"lat": 38.91845766666667, "is_disabled": 0, "type": "electric_scooter", "lon": -77.03529283333333, "bike_id": "fa2becc3181af6649bfe3d39694a330b", "fusion_lat": 0.0, "name": "fa2becc3181af6649bfe3d39694a330b", "is_reserved": 0, "rental_uris": {"android": "https://dc.lft.to/lastmile_qr_scan", "ios": "https://dc.lft.to/lastmile_qr_scan"}, "fusion_lon": 0.0}, {"lat": 38.89095616666667, "is_disabled": 0, "type": "electric_scooter", "lon": -76.95266416666666, "bike_id": "8540bcfc40b04e1619feb23c1dfd6802", "fusion_lat": 0.0, "name": "8540bcfc40b04e1619feb23c1dfd6802", "is_reserved": 0, "rental_uris": {"android": "https://dc.lft.to/lastmile_qr_scan", "ios": "https://dc.lft.to/lastmile_qr_scan"}, "fusion_lon": 0.0}, {"lat": 38.90505183333333, "is_disabled": 0, "type": "electric_scooter", "lon": -77.02952366666666, "bike_id": "b90159b822a693fe35b758b45e611a07", "fusion_lat": 0.0, "name": "b90159b822a693fe35b758b45e611a07", "is_reserved": 0, "rental_uris": {"android": "https://dc.lft.to/lastmile_qr_scan", "ios": "https://dc.lft.to/lastmile_qr_scan"}, "fusion_lon": 0.0}, {"lat": 38.90738183333333, "is_disabled": 0, "type": "electric_scooter", "lon": -77.02948366666666, "bike_id": "3d528ec9c655f2054ec9a484aacd5401", "fusion_lat": 0.0, "name": "3d528ec9c655f2054ec9a484aacd5401", "is_reserved": 0, "rental_uris": {"android": "https://dc.lft.to/lastmile_qr_scan", "ios": "https://dc.lft.to/lastmile_qr_scan"}, "fusion_lon": 0.0}, {"lat": 38.92809033333333, "is_disabled": 0, "type": "electric_scooter", "lon": -77.05421616666666, "bike_id": "34b8d1cb71b44884c91c87d4a9a0de1c", "fusion_lat": 0.0, "name": "34b8d1cb71b44884c91c87d4a9a0de1c", "is_reserved": 0, "rental_uris": {"android": "https://dc.lft.to/lastmile_qr_scan", "ios": "https://dc.lft.to/lastmile_qr_scan"}, "fusion_lon": 0.0}, {"lat": 39.075018666666665, "is_disabled": 0, "type": "electric_bike", "lon": -77.11895566666666, "bike_id": "95ca90f9cfcfe551e16ace00ca9b12b5", "fusion_lat": 0.0, "name": "95ca90f9cfcfe551e16ace00ca9b12b5", "is_reserved": 0, "rental_uris": {"android": "https://dc.lft.to/lastmile_qr_scan", "ios": "https://dc.lft.to/lastmile_qr_scan"}, "fusion_lon": 0.0}, {"lat": 38.921088833333336, "is_disabled": 0, "type": "electric_scooter", "lon": -77.04572016666667, "bike_id": "28467ef8bd746363c4d038b20d60bc4e", "fusion_lat": 0.0, "name": "28467ef8bd746363c4d038b20d60bc4e", "is_reserved": 0, "rental_uris": {"android": "https://dc.lft.to/lastmile_qr_scan", "ios": "https://dc.lft.to/lastmile_qr_scan"}, "fusion_lon": 0.0}, {"lat": 38.862883, "is_disabled": 0, "type": "electric_scooter", "lon": -76.99237033333333, "bike_id": "dae4ab94a9a6bb121d93e65506ade921", "fusion_lat": 0.0, "name": "dae4ab94a9a6bb121d93e65506ade921", "is_reserved": 0, "rental_uris": {"android": "https://dc.lft.to/lastmile_qr_scan", "ios": "https://dc.lft.to/lastmile_qr_scan"}, "fusion_lon": 0.0}, {"lat": 38.925876, "is_disabled": 0, "type": "electric_scooter", "lon": -77.05286183333334, "bike_id": "97d02b756901911192db0cbfd77e0086", "fusion_lat": 0.0, "name": "97d02b756901911192db0cbfd77e0086", "is_reserved": 0, "rental_uris": {"android": "https://dc.lft.to/lastmile_qr_scan", "ios": "https://dc.lft.to/lastmile_qr_scan"}, "fusion_lon": 0.0}, {"lat": 38.89842383333333, "is_disabled": 0, "type": "electric_scooter", "lon": -76.94460733333334, "bike_id": "e322c39f6357fd10d2c40fc94d991836", "fusion_lat": 0.0, "name": "e322c39f6357fd10d2c40fc94d991836", "is_reserved": 0, "rental_uris": {"android": "https://dc.lft.to/lastmile_qr_scan", "ios": "https://dc.lft.to/lastmile_qr_scan"}, "fusion_lon": 0.0}, {"lat": 38.91486716666667, "is_disabled": 0, "type": "electric_scooter", "lon": -77.03257083333334, "bike_id": "dd2a4be41f92ea32bad885ad80e1b382", "fusion_lat": 0.0, "name": "dd2a4be41f92ea32bad885ad80e1b382", "is_reserved": 0, "rental_uris": {"android": "https://dc.lft.to/lastmile_qr_scan", "ios": "https://dc.lft.to/lastmile_qr_scan"}, "fusion_lon": 0.0}, {"lat": 38.921936333333335, "is_disabled": 0, "type": "electric_scooter", "lon": -77.04136233333334, "bike_id": "73924aa846c290fe48af9628a20910d6", "fusion_lat": 0.0, "name": "73924aa846c290fe48af9628a20910d6", "is_reserved": 0, "rental_uris": {"android": "https://dc.lft.to/lastmile_qr_scan", "ios": "https://dc.lft.to/lastmile_qr_scan"}, "fusion_lon": 0.0}, {"lat": 38.94706733333334, "is_disabled": 0, "type": "electric_scooter", "lon": -77.0193735, "bike_id": "d7ec6b99313e08f74ccd36a60090e800", "fusion_lat": 0.0, "name": "d7ec6b99313e08f74ccd36a60090e800", "is_reserved": 0, "rental_uris": {"android": "https://dc.lft.to/lastmile_qr_scan", "ios": "https://dc.lft.to/lastmile_qr_scan"}, "fusion_lon": 0.0}, {"lat": 38.908046, "is_disabled": 0, "type": "electric_scooter", "lon": -77.06361633333333, "bike_id": "0d3eb14f7fa019b200fec3222c31d902", "fusion_lat": 0.0, "name": "0d3eb14f7fa019b200fec3222c31d902", "is_reserved": 0, "rental_uris": {"android": "https://dc.lft.to/lastmile_qr_scan", "ios": "https://dc.lft.to/lastmile_qr_scan"}, "fusion_lon": 0.0}, {"lat": 38.884880833333334, "is_disabled": 0, "type": "electric_scooter", "lon": -77.0347265, "bike_id": "4dea5c303cadff23aa8b81220c91891a", "fusion_lat": 0.0, "name": "4dea5c303cadff23aa8b81220c91891a", "is_reserved": 0, "rental_uris": {"android": "https://dc.lft.to/lastmile_qr_scan", "ios": "https://dc.lft.to/lastmile_qr_scan"}, "fusion_lon": 0.0}, {"lat": 38.92854916666667, "is_disabled": 0, "type": "electric_bike", "lon": -77.1067825, "bike_id": "47a1bd05083bfece995ee49d856be471", "fusion_lat": 0.0, "name": "47a1bd05083bfece995ee49d856be471", "is_reserved": 0, "rental_uris": {"android": "https://dc.lft.to/lastmile_qr_scan", "ios": "https://dc.lft.to/lastmile_qr_scan"}, "fusion_lon": 0.0}, {"lat": 38.9205915, "is_disabled": 0, "type": "electric_scooter", "lon": -76.97611083333334, "bike_id": "ead9b59cad504ec08b4ac9e6a0e7c6ba", "fusion_lat": 0.0, "name": "ead9b59cad504ec08b4ac9e6a0e7c6ba", "is_reserved": 0, "rental_uris": {"android": "https://dc.lft.to/lastmile_qr_scan", "ios": "https://dc.lft.to/lastmile_qr_scan"}, "fusion_lon": 0.0}, {"lat": 38.807483500000004, "is_disabled": 0, "type": "electric_bike", "lon": -77.09426666666667, "bike_id": "d8e81fb359e1c3e8910e82c79002cb61", "fusion_lat": 0.0, "name": "d8e81fb359e1c3e8910e82c79002cb61", "is_reserved": 0, "rental_uris": {"android": "https://dc.lft.to/lastmile_qr_scan", "ios": "https://dc.lft.to/lastmile_qr_scan"}, "fusion_lon": 0.0}, {"lat": 38.9253855, "is_disabled": 0, "type": "electric_scooter", "lon": -77.04428683333333, "bike_id": "f98311025078ae18da7bca596117e55a", "fusion_lat": 0.0, "name": "f98311025078ae18da7bca596117e55a", "is_reserved": 0, "rental_uris": {"android": "https://dc.lft.to/lastmile_qr_scan", "ios": "https://dc.lft.to/lastmile_qr_scan"}, "fusion_lon": 0.0}, {"lat": 38.911171333333336, "is_disabled": 0, "type": "electric_scooter", "lon": -77.03252466666666, "bike_id": "26b1442366ed162e8ef8af04f0cad003", "fusion_lat": 0.0, "name": "26b1442366ed162e8ef8af04f0cad003", "is_reserved": 0, "rental_uris": {"android": "https://dc.lft.to/lastmile_qr_scan", "ios": "https://dc.lft.to/lastmile_qr_scan"}, "fusion_lon": 0.0}, {"lat": 38.93761033333333, "is_disabled": 0, "type": "electric_scooter", "lon": -77.03139816666666, "bike_id": "2b6d5f29f3654a8542cc786a5ff336ba", "fusion_lat": 0.0, "name": "2b6d5f29f3654a8542cc786a5ff336ba", "is_reserved": 0, "rental_uris": {"android": "https://dc.lft.to/lastmile_qr_scan", "ios": "https://dc.lft.to/lastmile_qr_scan"}, "fusion_lon": 0.0}, {"lat": 38.90039266666667, "is_disabled": 0, "type": "electric_scooter", "lon": -76.99378783333333, "bike_id": "379c79eed695d820c63dd30d05c68bd6", "fusion_lat": 0.0, "name": "379c79eed695d820c63dd30d05c68bd6", "is_reserved": 0, "rental_uris": {"android": "https://dc.lft.to/lastmile_qr_scan", "ios": "https://dc.lft.to/lastmile_qr_scan"}, "fusion_lon": 0.0}, {"lat": 38.92356683333333, "is_disabled": 0, "type": "electric_scooter", "lon": -77.04149033333333, "bike_id": "0dc8909eb3e7f3c59e76037289e755f3", "fusion_lat": 0.0, "name": "0dc8909eb3e7f3c59e76037289e755f3", "is_reserved": 0, "rental_uris": {"android": "https://dc.lft.to/lastmile_qr_scan", "ios": "https://dc.lft.to/lastmile_qr_scan"}, "fusion_lon": 0.0}, {"lat": 38.946291, "is_disabled": 0, "type": "electric_scooter", "lon": -77.0252745, "bike_id": "3dcc57e06ed7ea850a08c6ac444dc8fb", "fusion_lat": 0.0, "name": "3dcc57e06ed7ea850a08c6ac444dc8fb", "is_reserved": 0, "rental_uris": {"android": "https://dc.lft.to/lastmile_qr_scan", "ios": "https://dc.lft.to/lastmile_qr_scan"}, "fusion_lon": 0.0}, {"lat": 38.8975135, "is_disabled": 0, "type": "electric_scooter", "lon": -77.04670583333333, "bike_id": "c6e0843fe06bddc0b19aa0ec29b14b90", "fusion_lat": 0.0, "name": "c6e0843fe06bddc0b19aa0ec29b14b90", "is_reserved": 0, "rental_uris": {"android": "https://dc.lft.to/lastmile_qr_scan", "ios": "https://dc.lft.to/lastmile_qr_scan"}, "fusion_lon": 0.0}, {"lat": 38.9230085, "is_disabled": 0, "type": "electric_scooter", "lon": -77.042686, "bike_id": "709c94d2247b17d1206b2051485480ad", "fusion_lat": 0.0, "name": "709c94d2247b17d1206b2051485480ad", "is_reserved": 0, "rental_uris": {"android": "https://dc.lft.to/lastmile_qr_scan", "ios": "https://dc.lft.to/lastmile_qr_scan"}, "fusion_lon": 0.0}, {"lat": 38.90124016666667, "is_disabled": 0, "type": "electric_scooter", "lon": -76.987217, "bike_id": "5ee85a2676cd91b7e43f47bdb8e8cce0", "fusion_lat": 0.0, "name": "5ee85a2676cd91b7e43f47bdb8e8cce0", "is_reserved": 0, "rental_uris": {"android": "https://dc.lft.to/lastmile_qr_scan", "ios": "https://dc.lft.to/lastmile_qr_scan"}, "fusion_lon": 0.0}, {"lat": 38.927493166666665, "is_disabled": 0, "type": "electric_scooter", "lon": -77.02420766666667, "bike_id": "53b5cca64264ac8c79227fbd48e6d558", "fusion_lat": 0.0, "name": "53b5cca64264ac8c79227fbd48e6d558", "is_reserved": 0, "rental_uris": {"android": "https://dc.lft.to/lastmile_qr_scan", "ios": "https://dc.lft.to/lastmile_qr_scan"}, "fusion_lon": 0.0}, {"lat": 38.927430333333334, "is_disabled": 0, "type": "electric_bike", "lon": -77.03419333333333, "bike_id": "899800e3f02bf11aa08b56d0e5490987", "fusion_lat": 0.0, "name": "899800e3f02bf11aa08b56d0e5490987", "is_reserved": 0, "rental_uris": {"android": "https://dc.lft.to/lastmile_qr_scan", "ios": "https://dc.lft.to/lastmile_qr_scan"}, "fusion_lon": 0.0}, {"lat": 38.881837166666664, "is_disabled": 0, "type": "electric_scooter", "lon": -77.035725, "bike_id": "c57bf270b70142935f1ea5b6656952cb", "fusion_lat": 0.0, "name": "c57bf270b70142935f1ea5b6656952cb", "is_reserved": 0, "rental_uris": {"android": "https://dc.lft.to/lastmile_qr_scan", "ios": "https://dc.lft.to/lastmile_qr_scan"}, "fusion_lon": 0.0}, {"lat": 38.9573465, "is_disabled": 0, "type": "electric_scooter", "lon": -77.02399566666666, "bike_id": "927c7a3e547548c80fd2121ae67c9269", "fusion_lat": 0.0, "name": "927c7a3e547548c80fd2121ae67c9269", "is_reserved": 0, "rental_uris": {"android": "https://dc.lft.to/lastmile_qr_scan", "ios": "https://dc.lft.to/lastmile_qr_scan"}, "fusion_lon": 0.0}, {"lat": 38.911827833333334, "is_disabled": 0, "type": "electric_scooter", "lon": -77.03179533333333, "bike_id": "2fab80cccb9722447c67f0f3aac23543", "fusion_lat": 0.0, "name": "2fab80cccb9722447c67f0f3aac23543", "is_reserved": 0, "rental_uris": {"android": "https://dc.lft.to/lastmile_qr_scan", "ios": "https://dc.lft.to/lastmile_qr_scan"}, "fusion_lon": 0.0}, {"lat": 38.882826333333334, "is_disabled": 0, "type": "electric_bike", "lon": -76.93243583333333, "bike_id": "37be290c1fcc74b0d8e5faad3766389b", "fusion_lat": 0.0, "name": "37be290c1fcc74b0d8e5faad3766389b", "is_reserved": 0, "rental_uris": {"android": "https://dc.lft.to/lastmile_qr_scan", "ios": "https://dc.lft.to/lastmile_qr_scan"}, "fusion_lon": 0.0}, {"lat": 38.95742533333333, "is_disabled": 0, "type": "electric_scooter", "lon": -77.02382383333334, "bike_id": "19b385864132f22a74b7be945564dc76", "fusion_lat": 0.0, "name": "19b385864132f22a74b7be945564dc76", "is_reserved": 0, "rental_uris": {"android": "https://dc.lft.to/lastmile_qr_scan", "ios": "https://dc.lft.to/lastmile_qr_scan"}, "fusion_lon": 0.0}, {"lat": 38.86224416666667, "is_disabled": 0, "type": "electric_scooter", "lon": -76.983542, "bike_id": "0c117f05d281befb2e3e4a76cf8ea387", "fusion_lat": 0.0, "name": "0c117f05d281befb2e3e4a76cf8ea387", "is_reserved": 0, "rental_uris": {"android": "https://dc.lft.to/lastmile_qr_scan", "ios": "https://dc.lft.to/lastmile_qr_scan"}, "fusion_lon": 0.0}, {"lat": 38.887708, "is_disabled": 0, "type": "electric_scooter", "lon": -76.98352416666667, "bike_id": "5d0da3a369a27219545fa2ed8f4cfb97", "fusion_lat": 0.0, "name": "5d0da3a369a27219545fa2ed8f4cfb97", "is_reserved": 0, "rental_uris": {"android": "https://dc.lft.to/lastmile_qr_scan", "ios": "https://dc.lft.to/lastmile_qr_scan"}, "fusion_lon": 0.0}, {"lat": 38.935821, "is_disabled": 0, "type": "electric_scooter", "lon": -77.037505, "bike_id": "2f23353256720383e2ba57e38a759edd", "fusion_lat": 0.0, "name": "2f23353256720383e2ba57e38a759edd", "is_reserved": 0, "rental_uris": {"android": "https://dc.lft.to/lastmile_qr_scan", "ios": "https://dc.lft.to/lastmile_qr_scan"}, "fusion_lon": 0.0}, {"lat": 38.908053833333334, "is_disabled": 0, "type": "electric_scooter", "lon": -77.031273, "bike_id": "979ecdbdecb5e17591f131cd094c0881", "fusion_lat": 0.0, "name": "979ecdbdecb5e17591f131cd094c0881", "is_reserved": 0, "rental_uris": {"android": "https://dc.lft.to/lastmile_qr_scan", "ios": "https://dc.lft.to/lastmile_qr_scan"}, "fusion_lon": 0.0}, {"lat": 38.903436, "is_disabled": 0, "type": "electric_scooter", "lon": -76.9705815, "bike_id": "f54353fa9266a187573f9d7cbff46df3", "fusion_lat": 0.0, "name": "f54353fa9266a187573f9d7cbff46df3", "is_reserved": 0, "rental_uris": {"android": "https://dc.lft.to/lastmile_qr_scan", "ios": "https://dc.lft.to/lastmile_qr_scan"}, "fusion_lon": 0.0}, {"lat": 38.907479, "is_disabled": 0, "type": "electric_scooter", "lon": -77.04168383333334, "bike_id": "25b223cc33d285ae72e404d57ceb429e", "fusion_lat": 0.0, "name": "25b223cc33d285ae72e404d57ceb429e", "is_reserved": 0, "rental_uris": {"android": "https://dc.lft.to/lastmile_qr_scan", "ios": "https://dc.lft.to/lastmile_qr_scan"}, "fusion_lon": 0.0}, {"lat": 38.950773833333336, "is_disabled": 0, "type": "electric_bike", "lon": -77.01194116666667, "bike_id": "ea223d17091e10ac351982f617f0ac1a", "fusion_lat": 0.0, "name": "ea223d17091e10ac351982f617f0ac1a", "is_reserved": 0, "rental_uris": {"android": "https://dc.lft.to/lastmile_qr_scan", "ios": "https://dc.lft.to/lastmile_qr_scan"}, "fusion_lon": 0.0}, {"lat": 38.91201, "is_disabled": 0, "type": "electric_scooter", "lon": -77.04468216666666, "bike_id": "295d3ceac33c7663da388b79bc26e75e", "fusion_lat": 0.0, "name": "295d3ceac33c7663da388b79bc26e75e", "is_reserved": 0, "rental_uris": {"android": "https://dc.lft.to/lastmile_qr_scan", "ios": "https://dc.lft.to/lastmile_qr_scan"}, "fusion_lon": 0.0}, {"lat": 38.90085533333333, "is_disabled": 0, "type": "electric_scooter", "lon": -77.05054466666667, "bike_id": "4d52fbe233687b6b7c1eaed2887a7acd", "fusion_lat": 0.0, "name": "4d52fbe233687b6b7c1eaed2887a7acd", "is_reserved": 0, "rental_uris": {"android": "https://dc.lft.to/lastmile_qr_scan", "ios": "https://dc.lft.to/lastmile_qr_scan"}, "fusion_lon": 0.0}, {"lat": 38.866196333333335, "is_disabled": 0, "type": "electric_scooter", "lon": -76.9866245, "bike_id": "99032175ec832cb1e9d9176dbcee9326", "fusion_lat": 0.0, "name": "99032175ec832cb1e9d9176dbcee9326", "is_reserved": 0, "rental_uris": {"android": "https://dc.lft.to/lastmile_qr_scan", "ios": "https://dc.lft.to/lastmile_qr_scan"}, "fusion_lon": 0.0}, {"lat": 38.91564916666667, "is_disabled": 0, "type": "electric_scooter", "lon": -77.00981216666666, "bike_id": "a26eb6b64a55e809c34e60d4992afba5", "fusion_lat": 0.0, "name": "a26eb6b64a55e809c34e60d4992afba5", "is_reserved": 0, "rental_uris": {"android": "https://dc.lft.to/lastmile_qr_scan", "ios": "https://dc.lft.to/lastmile_qr_scan"}, "fusion_lon": 0.0}, {"lat": 38.908516166666665, "is_disabled": 0, "type": "electric_scooter", "lon": -77.01015133333334, "bike_id": "ed6dc657082a964f02308589934466c2", "fusion_lat": 0.0, "name": "ed6dc657082a964f02308589934466c2", "is_reserved": 0, "rental_uris": {"android": "https://dc.lft.to/lastmile_qr_scan", "ios": "https://dc.lft.to/lastmile_qr_scan"}, "fusion_lon": 0.0}, {"lat": 38.90886, "is_disabled": 0, "type": "electric_scooter", "lon": -77.03667, "bike_id": "01ceb0bf0dc8f106aba76f307d275c03", "fusion_lat": 0.0, "name": "01ceb0bf0dc8f106aba76f307d275c03", "is_reserved": 0, "rental_uris": {"android": "https://dc.lft.to/lastmile_qr_scan", "ios": "https://dc.lft.to/lastmile_qr_scan"}, "fusion_lon": 0.0}, {"lat": 38.914985, "is_disabled": 0, "type": "electric_scooter", "lon": -76.98365216666667, "bike_id": "0e60e9f2f9c3b7ce629eeee23bf98594", "fusion_lat": 0.0, "name": "0e60e9f2f9c3b7ce629eeee23bf98594", "is_reserved": 0, "rental_uris": {"android": "https://dc.lft.to/lastmile_qr_scan", "ios": "https://dc.lft.to/lastmile_qr_scan"}, "fusion_lon": 0.0}, {"lat": 38.894326666666664, "is_disabled": 0, "type": "electric_scooter", "lon": -77.02091833333333, "bike_id": "2777cc2ce74b55f08a9083f14b12c234", "fusion_lat": 0.0, "name": "2777cc2ce74b55f08a9083f14b12c234", "is_reserved": 0, "rental_uris": {"android": "https://dc.lft.to/lastmile_qr_scan", "ios": "https://dc.lft.to/lastmile_qr_scan"}, "fusion_lon": 0.0}, {"lat": 38.909719, "is_disabled": 0, "type": "electric_scooter", "lon": -77.03900733333333, "bike_id": "c253976e9ed3c708f04bbe8ed7e8dab9", "fusion_lat": 0.0, "name": "c253976e9ed3c708f04bbe8ed7e8dab9", "is_reserved": 0, "rental_uris": {"android": "https://dc.lft.to/lastmile_qr_scan", "ios": "https://dc.lft.to/lastmile_qr_scan"}, "fusion_lon": 0.0}, {"lat": 38.87148, "is_disabled": 0, "type": "electric_bike", "lon": -76.9370195, "bike_id": "e10d595671e587b9eff0d6c68a4c53d3", "fusion_lat": 0.0, "name": "e10d595671e587b9eff0d6c68a4c53d3", "is_reserved": 0, "rental_uris": {"android": "https://dc.lft.to/lastmile_qr_scan", "ios": "https://dc.lft.to/lastmile_qr_scan"}, "fusion_lon": 0.0}, {"lat": 38.89979733333333, "is_disabled": 0, "type": "electric_scooter", "lon": -77.02246566666666, "bike_id": "c8e738481dd49fcc0c3c8297833f3326", "fusion_lat": 0.0, "name": "c8e738481dd49fcc0c3c8297833f3326", "is_reserved": 0, "rental_uris": {"android": "https://dc.lft.to/lastmile_qr_scan", "ios": "https://dc.lft.to/lastmile_qr_scan"}, "fusion_lon": 0.0}, {"lat": 38.907377, "is_disabled": 0, "type": "electric_scooter", "lon": -77.03445166666667, "bike_id": "dc12b9adfc8bd8f4f6b9a654dc59cf03", "fusion_lat": 0.0, "name": "dc12b9adfc8bd8f4f6b9a654dc59cf03", "is_reserved": 0, "rental_uris": {"android": "https://dc.lft.to/lastmile_qr_scan", "ios": "https://dc.lft.to/lastmile_qr_scan"}, "fusion_lon": 0.0}, {"lat": 38.86452, "is_disabled": 0, "type": "electric_bike", "lon": -76.945404, "bike_id": "0315e0e3cb658e21ec6a3edb2bc949aa", "fusion_lat": 0.0, "name": "0315e0e3cb658e21ec6a3edb2bc949aa", "is_reserved": 0, "rental_uris": {"android": "https://dc.lft.to/lastmile_qr_scan", "ios": "https://dc.lft.to/lastmile_qr_scan"}, "fusion_lon": 0.0}, {"lat": 38.961361833333335, "is_disabled": 0, "type": "electric_scooter", "lon": -77.02234383333334, "bike_id": "265dc4ee22578906139c2ab91591623d", "fusion_lat": 0.0, "name": "265dc4ee22578906139c2ab91591623d", "is_reserved": 0, "rental_uris": {"android": "https://dc.lft.to/lastmile_qr_scan", "ios": "https://dc.lft.to/lastmile_qr_scan"}, "fusion_lon": 0.0}, {"lat": 38.915687166666665, "is_disabled": 0, "type": "electric_scooter", "lon": -77.03160483333333, "bike_id": "f2e24d26ea93b1155c850a00ad572df8", "fusion_lat": 0.0, "name": "f2e24d26ea93b1155c850a00ad572df8", "is_reserved": 0, "rental_uris": {"android": "https://dc.lft.to/lastmile_qr_scan", "ios": "https://dc.lft.to/lastmile_qr_scan"}, "fusion_lon": 0.0}, {"lat": 38.89949633333333, "is_disabled": 0, "type": "electric_scooter", "lon": -77.02150566666667, "bike_id": "b9c18add5806880d895e1a29b0c1cd25", "fusion_lat": 0.0, "name": "b9c18add5806880d895e1a29b0c1cd25", "is_reserved": 0, "rental_uris": {"android": "https://dc.lft.to/lastmile_qr_scan", "ios": "https://dc.lft.to/lastmile_qr_scan"}, "fusion_lon": 0.0}, {"lat": 38.8607905, "is_disabled": 0, "type": "electric_scooter", "lon": -76.99265983333333, "bike_id": "71e58e6a55732f282f4853f8d1c93e7f", "fusion_lat": 0.0, "name": "71e58e6a55732f282f4853f8d1c93e7f", "is_reserved": 0, "rental_uris": {"android": "https://dc.lft.to/lastmile_qr_scan", "ios": "https://dc.lft.to/lastmile_qr_scan"}, "fusion_lon": 0.0}, {"lat": 38.922531, "is_disabled": 0, "type": "electric_scooter", "lon": -77.02725416666667, "bike_id": "bfdd8a1ad77101efc5f823e117bd9356", "fusion_lat": 0.0, "name": "bfdd8a1ad77101efc5f823e117bd9356", "is_reserved": 0, "rental_uris": {"android": "https://dc.lft.to/lastmile_qr_scan", "ios": "https://dc.lft.to/lastmile_qr_scan"}, "fusion_lon": 0.0}, {"lat": 38.92975466666667, "is_disabled": 0, "type": "electric_scooter", "lon": -77.013012, "bike_id": "8375742cd1998fc8b055285bb83b6aa5", "fusion_lat": 0.0, "name": "8375742cd1998fc8b055285bb83b6aa5", "is_reserved": 0, "rental_uris": {"android": "https://dc.lft.to/lastmile_qr_scan", "ios": "https://dc.lft.to/lastmile_qr_scan"}, "fusion_lon": 0.0}, {"lat": 38.900025166666666, "is_disabled": 0, "type": "electric_scooter", "lon": -77.02296333333334, "bike_id": "bc3b14b1fa9a02c18c7bf2c7e960aa1d", "fusion_lat": 0.0, "name": "bc3b14b1fa9a02c18c7bf2c7e960aa1d", "is_reserved": 0, "rental_uris": {"android": "https://dc.lft.to/lastmile_qr_scan", "ios": "https://dc.lft.to/lastmile_qr_scan"}, "fusion_lon": 0.0}, {"lat": 38.94174316666667, "is_disabled": 0, "type": "electric_scooter", "lon": -77.03279783333333, "bike_id": "1244dc0c64cce67fac79848af6d7a5ba", "fusion_lat": 0.0, "name": "1244dc0c64cce67fac79848af6d7a5ba", "is_reserved": 0, "rental_uris": {"android": "https://dc.lft.to/lastmile_qr_scan", "ios": "https://dc.lft.to/lastmile_qr_scan"}, "fusion_lon": 0.0}, {"lat": 38.94155633333333, "is_disabled": 0, "type": "electric_scooter", "lon": -77.03288466666666, "bike_id": "6571285638d001a84ea7d4d507110282", "fusion_lat": 0.0, "name": "6571285638d001a84ea7d4d507110282", "is_reserved": 0, "rental_uris": {"android": "https://dc.lft.to/lastmile_qr_scan", "ios": "https://dc.lft.to/lastmile_qr_scan"}, "fusion_lon": 0.0}, {"lat": 38.873448833333335, "is_disabled": 0, "type": "electric_scooter", "lon": -76.99160416666666, "bike_id": "c38f2e8e2c41bb17b59fa1ebf19ff981", "fusion_lat": 0.0, "name": "c38f2e8e2c41bb17b59fa1ebf19ff981", "is_reserved": 0, "rental_uris": {"android": "https://dc.lft.to/lastmile_qr_scan", "ios": "https://dc.lft.to/lastmile_qr_scan"}, "fusion_lon": 0.0}, {"lat": 38.902470666666666, "is_disabled": 0, "type": "electric_scooter", "lon": -77.02595266666667, "bike_id": "cf18b7d0fc28a4b66b7603c3c1181399", "fusion_lat": 0.0, "name": "cf18b7d0fc28a4b66b7603c3c1181399", "is_reserved": 0, "rental_uris": {"android": "https://dc.lft.to/lastmile_qr_scan", "ios": "https://dc.lft.to/lastmile_qr_scan"}, "fusion_lon": 0.0}, {"lat": 38.90120966666667, "is_disabled": 0, "type": "electric_scooter", "lon": -77.03296616666667, "bike_id": "5ef182475c8878a2136cd192c6564510", "fusion_lat": 0.0, "name": "5ef182475c8878a2136cd192c6564510", "is_reserved": 0, "rental_uris": {"android": "https://dc.lft.to/lastmile_qr_scan", "ios": "https://dc.lft.to/lastmile_qr_scan"}, "fusion_lon": 0.0}, {"lat": 38.9507365, "is_disabled": 0, "type": "electric_scooter", "lon": -77.06654233333333, "bike_id": "16156a56285fc293e1da950711a67303", "fusion_lat": 0.0, "name": "16156a56285fc293e1da950711a67303", "is_reserved": 0, "rental_uris": {"android": "https://dc.lft.to/lastmile_qr_scan", "ios": "https://dc.lft.to/lastmile_qr_scan"}, "fusion_lon": 0.0}, {"lat": 38.8763065, "is_disabled": 0, "type": "electric_scooter", "lon": -76.96524333333333, "bike_id": "c6be7eaf9311ffe9f3512cb792986d83", "fusion_lat": 0.0, "name": "c6be7eaf9311ffe9f3512cb792986d83", "is_reserved": 0, "rental_uris": {"android": "https://dc.lft.to/lastmile_qr_scan", "ios": "https://dc.lft.to/lastmile_qr_scan"}, "fusion_lon": 0.0}, {"lat": 38.903708, "is_disabled": 0, "type": "electric_scooter", "lon": -77.04351316666667, "bike_id": "e077a24622c563ac81449ff25805a972", "fusion_lat": 0.0, "name": "e077a24622c563ac81449ff25805a972", "is_reserved": 0, "rental_uris": {"android": "https://dc.lft.to/lastmile_qr_scan", "ios": "https://dc.lft.to/lastmile_qr_scan"}, "fusion_lon": 0.0}, {"lat": 38.897737166666666, "is_disabled": 0, "type": "electric_scooter", "lon": -77.02478333333333, "bike_id": "fad72aa6203209fbecf75b9ccbc94ac9", "fusion_lat": 0.0, "name": "fad72aa6203209fbecf75b9ccbc94ac9", "is_reserved": 0, "rental_uris": {"android": "https://dc.lft.to/lastmile_qr_scan", "ios": "https://dc.lft.to/lastmile_qr_scan"}, "fusion_lon": 0.0}, {"lat": 38.90039933333333, "is_disabled": 0, "type": "electric_scooter", "lon": -77.044135, "bike_id": "768342b7558eb19aea51860a1f676ea9", "fusion_lat": 0.0, "name": "768342b7558eb19aea51860a1f676ea9", "is_reserved": 0, "rental_uris": {"android": "https://dc.lft.to/lastmile_qr_scan", "ios": "https://dc.lft.to/lastmile_qr_scan"}, "fusion_lon": 0.0}, {"lat": 38.907332833333335, "is_disabled": 0, "type": "electric_scooter", "lon": -77.04778616666667, "bike_id": "0955bd0155f2f0042929b5287a8f5e64", "fusion_lat": 0.0, "name": "0955bd0155f2f0042929b5287a8f5e64", "is_reserved": 0, "rental_uris": {"android": "https://dc.lft.to/lastmile_qr_scan", "ios": "https://dc.lft.to/lastmile_qr_scan"}, "fusion_lon": 0.0}, {"lat": 38.92250666666666, "is_disabled": 0, "type": "electric_scooter", "lon": -77.03084666666666, "bike_id": "c912317fe3acc0bb33c3936306cb08a5", "fusion_lat": 0.0, "name": "c912317fe3acc0bb33c3936306cb08a5", "is_reserved": 0, "rental_uris": {"android": "https://dc.lft.to/lastmile_qr_scan", "ios": "https://dc.lft.to/lastmile_qr_scan"}, "fusion_lon": 0.0}, {"lat": 38.90507433333333, "is_disabled": 0, "type": "electric_scooter", "lon": -77.064674, "bike_id": "afdffa699e4fce765b8b8b8e48a8285b", "fusion_lat": 0.0, "name": "afdffa699e4fce765b8b8b8e48a8285b", "is_reserved": 0, "rental_uris": {"android": "https://dc.lft.to/lastmile_qr_scan", "ios": "https://dc.lft.to/lastmile_qr_scan"}, "fusion_lon": 0.0}, {"lat": 38.921404833333334, "is_disabled": 0, "type": "electric_scooter", "lon": -77.04123, "bike_id": "e5f77eba88dbba51fb26bbc0ca0e2054", "fusion_lat": 0.0, "name": "e5f77eba88dbba51fb26bbc0ca0e2054", "is_reserved": 0, "rental_uris": {"android": "https://dc.lft.to/lastmile_qr_scan", "ios": "https://dc.lft.to/lastmile_qr_scan"}, "fusion_lon": 0.0}, {"lat": 38.904579166666664, "is_disabled": 0, "type": "electric_scooter", "lon": -76.99458083333333, "bike_id": "953195ca211519b1e304ace17df335f2", "fusion_lat": 0.0, "name": "953195ca211519b1e304ace17df335f2", "is_reserved": 0, "rental_uris": {"android": "https://dc.lft.to/lastmile_qr_scan", "ios": "https://dc.lft.to/lastmile_qr_scan"}, "fusion_lon": 0.0}, {"lat": 38.91888466666666, "is_disabled": 0, "type": "electric_scooter", "lon": -77.039091, "bike_id": "c5abc4924a20b3e668dfa37770163c4f", "fusion_lat": 0.0, "name": "c5abc4924a20b3e668dfa37770163c4f", "is_reserved": 0, "rental_uris": {"android": "https://dc.lft.to/lastmile_qr_scan", "ios": "https://dc.lft.to/lastmile_qr_scan"}, "fusion_lon": 0.0}, {"lat": 38.89563866666667, "is_disabled": 0, "type": "electric_bike", "lon": -77.12729483333334, "bike_id": "7c8448e98d230435f21d472cb39acbff", "fusion_lat": 0.0, "name": "7c8448e98d230435f21d472cb39acbff", "is_reserved": 0, "rental_uris": {"android": "https://dc.lft.to/lastmile_qr_scan", "ios": "https://dc.lft.to/lastmile_qr_scan"}, "fusion_lon": 0.0}, {"lat": 38.9300445, "is_disabled": 0, "type": "electric_scooter", "lon": -77.021099, "bike_id": "aa05151057362785d73aa7c74c60e018", "fusion_lat": 0.0, "name": "aa05151057362785d73aa7c74c60e018", "is_reserved": 0, "rental_uris": {"android": "https://dc.lft.to/lastmile_qr_scan", "ios": "https://dc.lft.to/lastmile_qr_scan"}, "fusion_lon": 0.0}, {"lat": 38.9132875, "is_disabled": 0, "type": "electric_scooter", "lon": -77.04536766666666, "bike_id": "3d22dfa6f1aec5dc9f09e7144dffb754", "fusion_lat": 0.0, "name": "3d22dfa6f1aec5dc9f09e7144dffb754", "is_reserved": 0, "rental_uris": {"android": "https://dc.lft.to/lastmile_qr_scan", "ios": "https://dc.lft.to/lastmile_qr_scan"}, "fusion_lon": 0.0}, {"lat": 38.89664, "is_disabled": 0, "type": "electric_scooter", "lon": -77.03974933333333, "bike_id": "e2ce728925980de106ea6235aa28500e", "fusion_lat": 0.0, "name": "e2ce728925980de106ea6235aa28500e", "is_reserved": 0, "rental_uris": {"android": "https://dc.lft.to/lastmile_qr_scan", "ios": "https://dc.lft.to/lastmile_qr_scan"}, "fusion_lon": 0.0}, {"lat": 38.90059383333333, "is_disabled": 0, "type": "electric_scooter", "lon": -77.0020815, "bike_id": "0d79ea7777f77315a8f8622e6d2c9d89", "fusion_lat": 0.0, "name": "0d79ea7777f77315a8f8622e6d2c9d89", "is_reserved": 0, "rental_uris": {"android": "https://dc.lft.to/lastmile_qr_scan", "ios": "https://dc.lft.to/lastmile_qr_scan"}, "fusion_lon": 0.0}, {"lat": 38.90579416666667, "is_disabled": 0, "type": "electric_scooter", "lon": -77.00881866666667, "bike_id": "14ae1b198c73e89c258e429279fb4cdb", "fusion_lat": 0.0, "name": "14ae1b198c73e89c258e429279fb4cdb", "is_reserved": 0, "rental_uris": {"android": "https://dc.lft.to/lastmile_qr_scan", "ios": "https://dc.lft.to/lastmile_qr_scan"}, "fusion_lon": 0.0}, {"lat": 38.93118666666667, "is_disabled": 0, "type": "electric_scooter", "lon": -77.03028033333334, "bike_id": "62a4910641fa45394c41ac969d5ff90d", "fusion_lat": 0.0, "name": "62a4910641fa45394c41ac969d5ff90d", "is_reserved": 0, "rental_uris": {"android": "https://dc.lft.to/lastmile_qr_scan", "ios": "https://dc.lft.to/lastmile_qr_scan"}, "fusion_lon": 0.0}, {"lat": 38.8849595, "is_disabled": 0, "type": "electric_scooter", "lon": -77.00722166666667, "bike_id": "dc6f65367647a7515ead66579f638c11", "fusion_lat": 0.0, "name": "dc6f65367647a7515ead66579f638c11", "is_reserved": 0, "rental_uris": {"android": "https://dc.lft.to/lastmile_qr_scan", "ios": "https://dc.lft.to/lastmile_qr_scan"}, "fusion_lon": 0.0}, {"lat": 38.91705433333333, "is_disabled": 0, "type": "electric_scooter", "lon": -77.00113, "bike_id": "07f5c6cbae6675c5a63646e73c200009", "fusion_lat": 0.0, "name": "07f5c6cbae6675c5a63646e73c200009", "is_reserved": 0, "rental_uris": {"android": "https://dc.lft.to/lastmile_qr_scan", "ios": "https://dc.lft.to/lastmile_qr_scan"}, "fusion_lon": 0.0}, {"lat": 38.89558016666667, "is_disabled": 0, "type": "electric_scooter", "lon": -76.93076383333333, "bike_id": "739611fed167ee0accf94c94af13a39f", "fusion_lat": 0.0, "name": "739611fed167ee0accf94c94af13a39f", "is_reserved": 0, "rental_uris": {"android": "https://dc.lft.to/lastmile_qr_scan", "ios": "https://dc.lft.to/lastmile_qr_scan"}, "fusion_lon": 0.0}, {"lat": 38.902791, "is_disabled": 0, "type": "electric_scooter", "lon": -77.03852166666667, "bike_id": "8d3796e285461958f60c11553a3e3cd6", "fusion_lat": 0.0, "name": "8d3796e285461958f60c11553a3e3cd6", "is_reserved": 0, "rental_uris": {"android": "https://dc.lft.to/lastmile_qr_scan", "ios": "https://dc.lft.to/lastmile_qr_scan"}, "fusion_lon": 0.0}, {"lat": 38.93961516666667, "is_disabled": 0, "type": "electric_bike", "lon": -77.36097066666666, "bike_id": "42a2f8521c909c408a79eeca8963b7d4", "fusion_lat": 0.0, "name": "42a2f8521c909c408a79eeca8963b7d4", "is_reserved": 0, "rental_uris": {"android": "https://dc.lft.to/lastmile_qr_scan", "ios": "https://dc.lft.to/lastmile_qr_scan"}, "fusion_lon": 0.0}, {"lat": 38.9354055, "is_disabled": 0, "type": "electric_scooter", "lon": -77.023433, "bike_id": "ecd2f7ffb42c1952b75779311d1e26f1", "fusion_lat": 0.0, "name": "ecd2f7ffb42c1952b75779311d1e26f1", "is_reserved": 0, "rental_uris": {"android": "https://dc.lft.to/lastmile_qr_scan", "ios": "https://dc.lft.to/lastmile_qr_scan"}, "fusion_lon": 0.0}, {"lat": 38.956449, "is_disabled": 0, "type": "electric_bike", "lon": -77.02253233333333, "bike_id": "68a26d42e0034b20e8f06f4eed6af43b", "fusion_lat": 0.0, "name": "68a26d42e0034b20e8f06f4eed6af43b", "is_reserved": 0, "rental_uris": {"android": "https://dc.lft.to/lastmile_qr_scan", "ios": "https://dc.lft.to/lastmile_qr_scan"}, "fusion_lon": 0.0}, {"lat": 38.91019083333333, "is_disabled": 0, "type": "electric_scooter", "lon": -77.02203366666667, "bike_id": "a7772d0dc2c7143c73c974c00caa97f4", "fusion_lat": 0.0, "name": "a7772d0dc2c7143c73c974c00caa97f4", "is_reserved": 0, "rental_uris": {"android": "https://dc.lft.to/lastmile_qr_scan", "ios": "https://dc.lft.to/lastmile_qr_scan"}, "fusion_lon": 0.0}, {"lat": 38.917075, "is_disabled": 0, "type": "electric_scooter", "lon": -77.02557216666666, "bike_id": "12d2388eaf11ba5c503897ef07f39840", "fusion_lat": 0.0, "name": "12d2388eaf11ba5c503897ef07f39840", "is_reserved": 0, "rental_uris": {"android": "https://dc.lft.to/lastmile_qr_scan", "ios": "https://dc.lft.to/lastmile_qr_scan"}, "fusion_lon": 0.0}, {"lat": 38.95292966666667, "is_disabled": 0, "type": "electric_bike", "lon": -76.94597516666667, "bike_id": "323a650fecc0c5f95033e31d1a335f54", "fusion_lat": 0.0, "name": "323a650fecc0c5f95033e31d1a335f54", "is_reserved": 0, "rental_uris": {"android": "https://dc.lft.to/lastmile_qr_scan", "ios": "https://dc.lft.to/lastmile_qr_scan"}, "fusion_lon": 0.0}, {"lat": 38.8922475, "is_disabled": 0, "type": "electric_bike", "lon": -77.10779966666666, "bike_id": "5ee2a3526ad91e93dd4c3c97ea38a0f0", "fusion_lat": 0.0, "name": "5ee2a3526ad91e93dd4c3c97ea38a0f0", "is_reserved": 0, "rental_uris": {"android": "https://dc.lft.to/lastmile_qr_scan", "ios": "https://dc.lft.to/lastmile_qr_scan"}, "fusion_lon": 0.0}, {"lat": 38.913416166666664, "is_disabled": 0, "type": "electric_scooter", "lon": -77.012652, "bike_id": "9fb92c4f80d77d32d80a1d25c5a6e896", "fusion_lat": 0.0, "name": "9fb92c4f80d77d32d80a1d25c5a6e896", "is_reserved": 0, "rental_uris": {"android": "https://dc.lft.to/lastmile_qr_scan", "ios": "https://dc.lft.to/lastmile_qr_scan"}, "fusion_lon": 0.0}, {"lat": 38.909754, "is_disabled": 0, "type": "electric_scooter", "lon": -77.03213183333334, "bike_id": "ad31dc61738fa47af80f2c5c4d25f1c9", "fusion_lat": 0.0, "name": "ad31dc61738fa47af80f2c5c4d25f1c9", "is_reserved": 0, "rental_uris": {"android": "https://dc.lft.to/lastmile_qr_scan", "ios": "https://dc.lft.to/lastmile_qr_scan"}, "fusion_lon": 0.0}, {"lat": 38.9267945, "is_disabled": 0, "type": "electric_scooter", "lon": -77.00741366666666, "bike_id": "ea6452679e8b473268871c4f5d47194a", "fusion_lat": 0.0, "name": "ea6452679e8b473268871c4f5d47194a", "is_reserved": 0, "rental_uris": {"android": "https://dc.lft.to/lastmile_qr_scan", "ios": "https://dc.lft.to/lastmile_qr_scan"}, "fusion_lon": 0.0}, {"lat": 38.90669033333333, "is_disabled": 0, "type": "electric_scooter", "lon": -77.03841033333333, "bike_id": "9fd20ad281d4256efe595f84b104cf2c", "fusion_lat": 0.0, "name": "9fd20ad281d4256efe595f84b104cf2c", "is_reserved": 0, "rental_uris": {"android": "https://dc.lft.to/lastmile_qr_scan", "ios": "https://dc.lft.to/lastmile_qr_scan"}, "fusion_lon": 0.0}, {"lat": 38.93534266666666, "is_disabled": 0, "type": "electric_scooter", "lon": -77.02345433333333, "bike_id": "b0681f78f53c03dd90442f94b08e40cc", "fusion_lat": 0.0, "name": "b0681f78f53c03dd90442f94b08e40cc", "is_reserved": 0, "rental_uris": {"android": "https://dc.lft.to/lastmile_qr_scan", "ios": "https://dc.lft.to/lastmile_qr_scan"}, "fusion_lon": 0.0}, {"lat": 38.886926833333334, "is_disabled": 0, "type": "electric_scooter", "lon": -77.01763216666667, "bike_id": "6a0e7b633be796fd050488c637c92e71", "fusion_lat": 0.0, "name": "6a0e7b633be796fd050488c637c92e71", "is_reserved": 0, "rental_uris": {"android": "https://dc.lft.to/lastmile_qr_scan", "ios": "https://dc.lft.to/lastmile_qr_scan"}, "fusion_lon": 0.0}, {"lat": 38.931988833333335, "is_disabled": 0, "type": "electric_scooter", "lon": -77.02352616666667, "bike_id": "695bc716cdc6b46b1acfe6bacdb7de44", "fusion_lat": 0.0, "name": "695bc716cdc6b46b1acfe6bacdb7de44", "is_reserved": 0, "rental_uris": {"android": "https://dc.lft.to/lastmile_qr_scan", "ios": "https://dc.lft.to/lastmile_qr_scan"}, "fusion_lon": 0.0}, {"lat": 38.962307333333335, "is_disabled": 0, "type": "electric_bike", "lon": -77.02632066666666, "bike_id": "920e128d06be0643a3bf8bce2ac63292", "fusion_lat": 0.0, "name": "920e128d06be0643a3bf8bce2ac63292", "is_reserved": 0, "rental_uris": {"android": "https://dc.lft.to/lastmile_qr_scan", "ios": "https://dc.lft.to/lastmile_qr_scan"}, "fusion_lon": 0.0}, {"lat": 38.895020833333334, "is_disabled": 0, "type": "electric_scooter", "lon": -77.00212283333333, "bike_id": "80152eddc771368f88318bd7ece28ee9", "fusion_lat": 0.0, "name": "80152eddc771368f88318bd7ece28ee9", "is_reserved": 0, "rental_uris": {"android": "https://dc.lft.to/lastmile_qr_scan", "ios": "https://dc.lft.to/lastmile_qr_scan"}, "fusion_lon": 0.0}, {"lat": 38.8984615, "is_disabled": 0, "type": "electric_scooter", "lon": -76.99504816666666, "bike_id": "4b339f28c8223d1e70cdbb9e1b9c8063", "fusion_lat": 0.0, "name": "4b339f28c8223d1e70cdbb9e1b9c8063", "is_reserved": 0, "rental_uris": {"android": "https://dc.lft.to/lastmile_qr_scan", "ios": "https://dc.lft.to/lastmile_qr_scan"}, "fusion_lon": 0.0}, {"lat": 38.903982166666665, "is_disabled": 0, "type": "electric_scooter", "lon": -76.98465716666666, "bike_id": "ea007019e8cebfbb0d7c2627b2fde85a", "fusion_lat": 0.0, "name": "ea007019e8cebfbb0d7c2627b2fde85a", "is_reserved": 0, "rental_uris": {"android": "https://dc.lft.to/lastmile_qr_scan", "ios": "https://dc.lft.to/lastmile_qr_scan"}, "fusion_lon": 0.0}, {"lat": 38.893569166666666, "is_disabled": 0, "type": "electric_scooter", "lon": -77.03994566666667, "bike_id": "c0d3f5810721cf02af971cae59ebfd34", "fusion_lat": 0.0, "name": "c0d3f5810721cf02af971cae59ebfd34", "is_reserved": 0, "rental_uris": {"android": "https://dc.lft.to/lastmile_qr_scan", "ios": "https://dc.lft.to/lastmile_qr_scan"}, "fusion_lon": 0.0}, {"lat": 38.91321416666667, "is_disabled": 0, "type": "electric_bike", "lon": -77.02209583333334, "bike_id": "9949c3345a5c58b5df24704b5372d8c1", "fusion_lat": 0.0, "name": "9949c3345a5c58b5df24704b5372d8c1", "is_reserved": 0, "rental_uris": {"android": "https://dc.lft.to/lastmile_qr_scan", "ios": "https://dc.lft.to/lastmile_qr_scan"}, "fusion_lon": 0.0}, {"lat": 38.94821233333333, "is_disabled": 0, "type": "electric_scooter", "lon": -76.999058, "bike_id": "108a7c1873a99a43c740c7056586d7f5", "fusion_lat": 0.0, "name": "108a7c1873a99a43c740c7056586d7f5", "is_reserved": 0, "rental_uris": {"android": "https://dc.lft.to/lastmile_qr_scan", "ios": "https://dc.lft.to/lastmile_qr_scan"}, "fusion_lon": 0.0}, {"lat": 38.916831, "is_disabled": 0, "type": "electric_scooter", "lon": -77.0269635, "bike_id": "9c3b2bba806405733ee72a5b3d6ed61f", "fusion_lat": 0.0, "name": "9c3b2bba806405733ee72a5b3d6ed61f", "is_reserved": 0, "rental_uris": {"android": "https://dc.lft.to/lastmile_qr_scan", "ios": "https://dc.lft.to/lastmile_qr_scan"}, "fusion_lon": 0.0}, {"lat": 38.91198333333333, "is_disabled": 0, "type": "electric_scooter", "lon": -77.00449066666667, "bike_id": "dc6b91b37d8dd4b3231ad6b6758046a6", "fusion_lat": 0.0, "name": "dc6b91b37d8dd4b3231ad6b6758046a6", "is_reserved": 0, "rental_uris": {"android": "https://dc.lft.to/lastmile_qr_scan", "ios": "https://dc.lft.to/lastmile_qr_scan"}, "fusion_lon": 0.0}, {"lat": 38.897439, "is_disabled": 0, "type": "electric_scooter", "lon": -76.9472065, "bike_id": "ccb61b0a128803c46f3a7966e289baee", "fusion_lat": 0.0, "name": "ccb61b0a128803c46f3a7966e289baee", "is_reserved": 0, "rental_uris": {"android": "https://dc.lft.to/lastmile_qr_scan", "ios": "https://dc.lft.to/lastmile_qr_scan"}, "fusion_lon": 0.0}, {"lat": 38.96226766666667, "is_disabled": 0, "type": "electric_bike", "lon": -77.0262545, "bike_id": "a13823073b4fdf3b4c6f43316d209e0b", "fusion_lat": 0.0, "name": "a13823073b4fdf3b4c6f43316d209e0b", "is_reserved": 0, "rental_uris": {"android": "https://dc.lft.to/lastmile_qr_scan", "ios": "https://dc.lft.to/lastmile_qr_scan"}, "fusion_lon": 0.0}, {"lat": 38.865092833333335, "is_disabled": 0, "type": "electric_scooter", "lon": -76.99007, "bike_id": "6ca6ce3253576bf49971561c591cbd10", "fusion_lat": 0.0, "name": "6ca6ce3253576bf49971561c591cbd10", "is_reserved": 0, "rental_uris": {"android": "https://dc.lft.to/lastmile_qr_scan", "ios": "https://dc.lft.to/lastmile_qr_scan"}, "fusion_lon": 0.0}, {"lat": 38.9133225, "is_disabled": 0, "type": "electric_scooter", "lon": -77.03194, "bike_id": "49b23d78934015f7d44792558432150c", "fusion_lat": 0.0, "name": "49b23d78934015f7d44792558432150c", "is_reserved": 0, "rental_uris": {"android": "https://dc.lft.to/lastmile_qr_scan", "ios": "https://dc.lft.to/lastmile_qr_scan"}, "fusion_lon": 0.0}, {"lat": 38.92966283333333, "is_disabled": 0, "type": "electric_scooter", "lon": -77.02790733333333, "bike_id": "b9450af96dd4c40e7f85def6896e92a3", "fusion_lat": 0.0, "name": "b9450af96dd4c40e7f85def6896e92a3", "is_reserved": 0, "rental_uris": {"android": "https://dc.lft.to/lastmile_qr_scan", "ios": "https://dc.lft.to/lastmile_qr_scan"}, "fusion_lon": 0.0}, {"lat": 38.916243333333334, "is_disabled": 0, "type": "electric_scooter", "lon": -77.03738233333333, "bike_id": "b9ee8400b0d41acd2bbff13856c5fde9", "fusion_lat": 0.0, "name": "b9ee8400b0d41acd2bbff13856c5fde9", "is_reserved": 0, "rental_uris": {"android": "https://dc.lft.to/lastmile_qr_scan", "ios": "https://dc.lft.to/lastmile_qr_scan"}, "fusion_lon": 0.0}, {"lat": 38.896767833333335, "is_disabled": 0, "type": "electric_scooter", "lon": -77.00516633333334, "bike_id": "a51277cb9ca4bcfe34f79071fd1af4f2", "fusion_lat": 0.0, "name": "a51277cb9ca4bcfe34f79071fd1af4f2", "is_reserved": 0, "rental_uris": {"android": "https://dc.lft.to/lastmile_qr_scan", "ios": "https://dc.lft.to/lastmile_qr_scan"}, "fusion_lon": 0.0}, {"lat": 38.87642266666667, "is_disabled": 0, "type": "electric_scooter", "lon": -77.00560816666666, "bike_id": "ead5e16119fc08998cadaa46955dd1b8", "fusion_lat": 0.0, "name": "ead5e16119fc08998cadaa46955dd1b8", "is_reserved": 0, "rental_uris": {"android": "https://dc.lft.to/lastmile_qr_scan", "ios": "https://dc.lft.to/lastmile_qr_scan"}, "fusion_lon": 0.0}, {"lat": 38.904056833333335, "is_disabled": 0, "type": "electric_scooter", "lon": -76.99281633333334, "bike_id": "e58899e0c1839f34396f38f036686d52", "fusion_lat": 0.0, "name": "e58899e0c1839f34396f38f036686d52", "is_reserved": 0, "rental_uris": {"android": "https://dc.lft.to/lastmile_qr_scan", "ios": "https://dc.lft.to/lastmile_qr_scan"}, "fusion_lon": 0.0}, {"lat": 38.92107016666667, "is_disabled": 0, "type": "electric_scooter", "lon": -77.04694383333333, "bike_id": "d8295cefd2476c9355c33607deeff9bf", "fusion_lat": 0.0, "name": "d8295cefd2476c9355c33607deeff9bf", "is_reserved": 0, "rental_uris": {"android": "https://dc.lft.to/lastmile_qr_scan", "ios": "https://dc.lft.to/lastmile_qr_scan"}, "fusion_lon": 0.0}, {"lat": 38.919680166666666, "is_disabled": 0, "type": "electric_scooter", "lon": -77.03335016666666, "bike_id": "d94b50b57a1a7cc3754efc3f900fbc24", "fusion_lat": 0.0, "name": "d94b50b57a1a7cc3754efc3f900fbc24", "is_reserved": 0, "rental_uris": {"android": "https://dc.lft.to/lastmile_qr_scan", "ios": "https://dc.lft.to/lastmile_qr_scan"}, "fusion_lon": 0.0}, {"lat": 38.863643833333334, "is_disabled": 0, "type": "electric_scooter", "lon": -76.99034233333333, "bike_id": "62c2d91c5afb69d63c612aa950fe6fef", "fusion_lat": 0.0, "name": "62c2d91c5afb69d63c612aa950fe6fef", "is_reserved": 0, "rental_uris": {"android": "https://dc.lft.to/lastmile_qr_scan", "ios": "https://dc.lft.to/lastmile_qr_scan"}, "fusion_lon": 0.0}, {"lat": 38.933829, "is_disabled": 0, "type": "electric_scooter", "lon": -76.99512933333334, "bike_id": "baaf86e3a80ade9852f630779f6d4edc", "fusion_lat": 0.0, "name": "baaf86e3a80ade9852f630779f6d4edc", "is_reserved": 0, "rental_uris": {"android": "https://dc.lft.to/lastmile_qr_scan", "ios": "https://dc.lft.to/lastmile_qr_scan"}, "fusion_lon": 0.0}, {"lat": 38.91135766666667, "is_disabled": 0, "type": "electric_scooter", "lon": -77.03181266666667, "bike_id": "d8ea7ce52a8db3dd10db90ab4a1170c9", "fusion_lat": 0.0, "name": "d8ea7ce52a8db3dd10db90ab4a1170c9", "is_reserved": 0, "rental_uris": {"android": "https://dc.lft.to/lastmile_qr_scan", "ios": "https://dc.lft.to/lastmile_qr_scan"}, "fusion_lon": 0.0}, {"lat": 38.920518333333334, "is_disabled": 0, "type": "electric_scooter", "lon": -77.02426383333334, "bike_id": "24b435526bd6f7d80e6434053acee3ea", "fusion_lat": 0.0, "name": "24b435526bd6f7d80e6434053acee3ea", "is_reserved": 0, "rental_uris": {"android": "https://dc.lft.to/lastmile_qr_scan", "ios": "https://dc.lft.to/lastmile_qr_scan"}, "fusion_lon": 0.0}, {"lat": 38.80227816666667, "is_disabled": 0, "type": "electric_bike", "lon": -77.07916766666666, "bike_id": "cbcf7d7251228677d95eaf0b30f35856", "fusion_lat": 0.0, "name": "cbcf7d7251228677d95eaf0b30f35856", "is_reserved": 0, "rental_uris": {"android": "https://dc.lft.to/lastmile_qr_scan", "ios": "https://dc.lft.to/lastmile_qr_scan"}, "fusion_lon": 0.0}, {"lat": 38.88234466666667, "is_disabled": 0, "type": "electric_scooter", "lon": -76.99088616666667, "bike_id": "ebc338165407740c13d4d22213146c6e", "fusion_lat": 0.0, "name": "ebc338165407740c13d4d22213146c6e", "is_reserved": 0, "rental_uris": {"android": "https://dc.lft.to/lastmile_qr_scan", "ios": "https://dc.lft.to/lastmile_qr_scan"}, "fusion_lon": 0.0}, {"lat": 38.89744733333333, "is_disabled": 0, "type": "electric_scooter", "lon": -77.02236283333333, "bike_id": "4978d9d87d045287aa03e022d83ba648", "fusion_lat": 0.0, "name": "4978d9d87d045287aa03e022d83ba648", "is_reserved": 0, "rental_uris": {"android": "https://dc.lft.to/lastmile_qr_scan", "ios": "https://dc.lft.to/lastmile_qr_scan"}, "fusion_lon": 0.0}, {"lat": 38.899587833333335, "is_disabled": 0, "type": "electric_scooter", "lon": -77.05202016666667, "bike_id": "2823a10f7a0126a99df2ea69570973b5", "fusion_lat": 0.0, "name": "2823a10f7a0126a99df2ea69570973b5", "is_reserved": 0, "rental_uris": {"android": "https://dc.lft.to/lastmile_qr_scan", "ios": "https://dc.lft.to/lastmile_qr_scan"}, "fusion_lon": 0.0}, {"lat": 38.94457766666667, "is_disabled": 0, "type": "electric_scooter", "lon": -77.06034766666667, "bike_id": "24039ed4ea50fb0113e80823a4ecc1b4", "fusion_lat": 0.0, "name": "24039ed4ea50fb0113e80823a4ecc1b4", "is_reserved": 0, "rental_uris": {"android": "https://dc.lft.to/lastmile_qr_scan", "ios": "https://dc.lft.to/lastmile_qr_scan"}, "fusion_lon": 0.0}, {"lat": 38.90960483333333, "is_disabled": 0, "type": "electric_scooter", "lon": -77.03736616666667, "bike_id": "b50fb6afaca1a0f54ceb88f3f1382701", "fusion_lat": 0.0, "name": "b50fb6afaca1a0f54ceb88f3f1382701", "is_reserved": 0, "rental_uris": {"android": "https://dc.lft.to/lastmile_qr_scan", "ios": "https://dc.lft.to/lastmile_qr_scan"}, "fusion_lon": 0.0}, {"lat": 38.9040655, "is_disabled": 0, "type": "electric_bike", "lon": -77.06523966666667, "bike_id": "f105079e00cd332d38529bb1b6d2b999", "fusion_lat": 0.0, "name": "f105079e00cd332d38529bb1b6d2b999", "is_reserved": 0, "rental_uris": {"android": "https://dc.lft.to/lastmile_qr_scan", "ios": "https://dc.lft.to/lastmile_qr_scan"}, "fusion_lon": 0.0}, {"lat": 38.85808816666667, "is_disabled": 0, "type": "electric_scooter", "lon": -76.98653133333333, "bike_id": "159bbda2d73949a2e229238ab63552d6", "fusion_lat": 0.0, "name": "159bbda2d73949a2e229238ab63552d6", "is_reserved": 0, "rental_uris": {"android": "https://dc.lft.to/lastmile_qr_scan", "ios": "https://dc.lft.to/lastmile_qr_scan"}, "fusion_lon": 0.0}, {"lat": 38.87423033333334, "is_disabled": 0, "type": "electric_bike", "lon": -77.08576133333334, "bike_id": "f52027f7c77164600643e5bd4d1d5edd", "fusion_lat": 0.0, "name": "f52027f7c77164600643e5bd4d1d5edd", "is_reserved": 0, "rental_uris": {"android": "https://dc.lft.to/lastmile_qr_scan", "ios": "https://dc.lft.to/lastmile_qr_scan"}, "fusion_lon": 0.0}, {"lat": 38.90383766666667, "is_disabled": 0, "type": "electric_scooter", "lon": -77.04369016666666, "bike_id": "2f40d8bb1bff1e76ceb2f9d8d001433f", "fusion_lat": 0.0, "name": "2f40d8bb1bff1e76ceb2f9d8d001433f", "is_reserved": 0, "rental_uris": {"android": "https://dc.lft.to/lastmile_qr_scan", "ios": "https://dc.lft.to/lastmile_qr_scan"}, "fusion_lon": 0.0}, {"lat": 38.92465166666667, "is_disabled": 0, "type": "electric_bike", "lon": -77.20840983333333, "bike_id": "0b1636c0b6843273f75c0bb4f0106815", "fusion_lat": 0.0, "name": "0b1636c0b6843273f75c0bb4f0106815", "is_reserved": 0, "rental_uris": {"android": "https://dc.lft.to/lastmile_qr_scan", "ios": "https://dc.lft.to/lastmile_qr_scan"}, "fusion_lon": 0.0}, {"lat": 38.936, "is_disabled": 0, "type": "electric_scooter", "lon": -77.03528966666667, "bike_id": "1c91313e55e36b850f7edd93c7b3d109", "fusion_lat": 0.0, "name": "1c91313e55e36b850f7edd93c7b3d109", "is_reserved": 0, "rental_uris": {"android": "https://dc.lft.to/lastmile_qr_scan", "ios": "https://dc.lft.to/lastmile_qr_scan"}, "fusion_lon": 0.0}, {"lat": 38.91706666666666, "is_disabled": 0, "type": "electric_scooter", "lon": -77.0427355, "bike_id": "beb273d7070ad0ffbb244d85b2d21c2b", "fusion_lat": 0.0, "name": "beb273d7070ad0ffbb244d85b2d21c2b", "is_reserved": 0, "rental_uris": {"android": "https://dc.lft.to/lastmile_qr_scan", "ios": "https://dc.lft.to/lastmile_qr_scan"}, "fusion_lon": 0.0}, {"lat": 38.91504533333333, "is_disabled": 0, "type": "electric_scooter", "lon": -77.01723733333333, "bike_id": "db567398fae67f5fae4b352823bcef20", "fusion_lat": 0.0, "name": "db567398fae67f5fae4b352823bcef20", "is_reserved": 0, "rental_uris": {"android": "https://dc.lft.to/lastmile_qr_scan", "ios": "https://dc.lft.to/lastmile_qr_scan"}, "fusion_lon": 0.0}, {"lat": 38.925716, "is_disabled": 0, "type": "electric_scooter", "lon": -77.025655, "bike_id": "bef0eb0cc41dfba56c426de0bf5542ee", "fusion_lat": 0.0, "name": "bef0eb0cc41dfba56c426de0bf5542ee", "is_reserved": 0, "rental_uris": {"android": "https://dc.lft.to/lastmile_qr_scan", "ios": "https://dc.lft.to/lastmile_qr_scan"}, "fusion_lon": 0.0}, {"lat": 38.900364333333336, "is_disabled": 0, "type": "electric_scooter", "lon": -77.00585533333333, "bike_id": "da090cdfcfa206b661313e1354870b10", "fusion_lat": 0.0, "name": "da090cdfcfa206b661313e1354870b10", "is_reserved": 0, "rental_uris": {"android": "https://dc.lft.to/lastmile_qr_scan", "ios": "https://dc.lft.to/lastmile_qr_scan"}, "fusion_lon": 0.0}, {"lat": 38.91405266666666, "is_disabled": 0, "type": "electric_scooter", "lon": -76.98947966666667, "bike_id": "625a5f12864b6c93cc7eeb15ffa4ae5d", "fusion_lat": 0.0, "name": "625a5f12864b6c93cc7eeb15ffa4ae5d", "is_reserved": 0, "rental_uris": {"android": "https://dc.lft.to/lastmile_qr_scan", "ios": "https://dc.lft.to/lastmile_qr_scan"}, "fusion_lon": 0.0}, {"lat": 38.92450266666667, "is_disabled": 0, "type": "electric_scooter", "lon": -76.99332433333333, "bike_id": "4cd3e766669d78f910a7a7973738ca4e", "fusion_lat": 0.0, "name": "4cd3e766669d78f910a7a7973738ca4e", "is_reserved": 0, "rental_uris": {"android": "https://dc.lft.to/lastmile_qr_scan", "ios": "https://dc.lft.to/lastmile_qr_scan"}, "fusion_lon": 0.0}, {"lat": 38.92159, "is_disabled": 0, "type": "electric_scooter", "lon": -77.03848616666667, "bike_id": "4c1a63ab48b14897cd152a1e2ca795ee", "fusion_lat": 0.0, "name": "4c1a63ab48b14897cd152a1e2ca795ee", "is_reserved": 0, "rental_uris": {"android": "https://dc.lft.to/lastmile_qr_scan", "ios": "https://dc.lft.to/lastmile_qr_scan"}, "fusion_lon": 0.0}, {"lat": 38.8923275, "is_disabled": 0, "type": "electric_scooter", "lon": -77.049991, "bike_id": "4af30c67e2ce51ce3549b9faa0146bdf", "fusion_lat": 0.0, "name": "4af30c67e2ce51ce3549b9faa0146bdf", "is_reserved": 0, "rental_uris": {"android": "https://dc.lft.to/lastmile_qr_scan", "ios": "https://dc.lft.to/lastmile_qr_scan"}, "fusion_lon": 0.0}, {"lat": 38.91006816666667, "is_disabled": 0, "type": "electric_scooter", "lon": -76.98619183333334, "bike_id": "168bc6f73c721fdb4991fb886c9a453c", "fusion_lat": 0.0, "name": "168bc6f73c721fdb4991fb886c9a453c", "is_reserved": 0, "rental_uris": {"android": "https://dc.lft.to/lastmile_qr_scan", "ios": "https://dc.lft.to/lastmile_qr_scan"}, "fusion_lon": 0.0}, {"lat": 38.9242785, "is_disabled": 0, "type": "electric_scooter", "lon": -77.02978383333334, "bike_id": "7b647b46d5a8fc83ce6b3d6f00c2e85e", "fusion_lat": 0.0, "name": "7b647b46d5a8fc83ce6b3d6f00c2e85e", "is_reserved": 0, "rental_uris": {"android": "https://dc.lft.to/lastmile_qr_scan", "ios": "https://dc.lft.to/lastmile_qr_scan"}, "fusion_lon": 0.0}, {"lat": 38.901418166666666, "is_disabled": 0, "type": "electric_scooter", "lon": -77.0157375, "bike_id": "ddaedeab7791bd79a157e507f2d05738", "fusion_lat": 0.0, "name": "ddaedeab7791bd79a157e507f2d05738", "is_reserved": 0, "rental_uris": {"android": "https://dc.lft.to/lastmile_qr_scan", "ios": "https://dc.lft.to/lastmile_qr_scan"}, "fusion_lon": 0.0}, {"lat": 38.93541533333333, "is_disabled": 0, "type": "electric_scooter", "lon": -77.03404366666666, "bike_id": "fe4a599bbd2f639ec87e09deb4260a04", "fusion_lat": 0.0, "name": "fe4a599bbd2f639ec87e09deb4260a04", "is_reserved": 0, "rental_uris": {"android": "https://dc.lft.to/lastmile_qr_scan", "ios": "https://dc.lft.to/lastmile_qr_scan"}, "fusion_lon": 0.0}, {"lat": 38.9525925, "is_disabled": 0, "type": "electric_bike", "lon": -77.0238705, "bike_id": "082fd9582342c7ef9c3fd8b1877710e8", "fusion_lat": 0.0, "name": "082fd9582342c7ef9c3fd8b1877710e8", "is_reserved": 0, "rental_uris": {"android": "https://dc.lft.to/lastmile_qr_scan", "ios": "https://dc.lft.to/lastmile_qr_scan"}, "fusion_lon": 0.0}, {"lat": 38.89973833333333, "is_disabled": 0, "type": "electric_scooter", "lon": -77.03380516666667, "bike_id": "44ce3aa042f0974a6cc786c915abb74a", "fusion_lat": 0.0, "name": "44ce3aa042f0974a6cc786c915abb74a", "is_reserved": 0, "rental_uris": {"android": "https://dc.lft.to/lastmile_qr_scan", "ios": "https://dc.lft.to/lastmile_qr_scan"}, "fusion_lon": 0.0}, {"lat": 38.86703583333333, "is_disabled": 0, "type": "electric_scooter", "lon": -76.98713366666667, "bike_id": "88be02c8f8e3ef1321f8b4e789858171", "fusion_lat": 0.0, "name": "88be02c8f8e3ef1321f8b4e789858171", "is_reserved": 0, "rental_uris": {"android": "https://dc.lft.to/lastmile_qr_scan", "ios": "https://dc.lft.to/lastmile_qr_scan"}, "fusion_lon": 0.0}, {"lat": 38.93090466666666, "is_disabled": 0, "type": "electric_scooter", "lon": -77.07748883333333, "bike_id": "3db3dec64c114739fd9e79f88ee22d57", "fusion_lat": 0.0, "name": "3db3dec64c114739fd9e79f88ee22d57", "is_reserved": 0, "rental_uris": {"android": "https://dc.lft.to/lastmile_qr_scan", "ios": "https://dc.lft.to/lastmile_qr_scan"}, "fusion_lon": 0.0}, {"lat": 38.88886266666667, "is_disabled": 0, "type": "electric_scooter", "lon": -76.9315705, "bike_id": "37068eca9ab5d60803f537af2694f8ce", "fusion_lat": 0.0, "name": "37068eca9ab5d60803f537af2694f8ce", "is_reserved": 0, "rental_uris": {"android": "https://dc.lft.to/lastmile_qr_scan", "ios": "https://dc.lft.to/lastmile_qr_scan"}, "fusion_lon": 0.0}, {"lat": 38.911888, "is_disabled": 0, "type": "electric_scooter", "lon": -77.04297966666667, "bike_id": "b8250bc518c7c5c1945220084acd81e8", "fusion_lat": 0.0, "name": "b8250bc518c7c5c1945220084acd81e8", "is_reserved": 0, "rental_uris": {"android": "https://dc.lft.to/lastmile_qr_scan", "ios": "https://dc.lft.to/lastmile_qr_scan"}, "fusion_lon": 0.0}, {"lat": 38.93175333333333, "is_disabled": 0, "type": "electric_scooter", "lon": -77.0281445, "bike_id": "215f31a820e8ea5e220a9f2a2a9279cb", "fusion_lat": 0.0, "name": "215f31a820e8ea5e220a9f2a2a9279cb", "is_reserved": 0, "rental_uris": {"android": "https://dc.lft.to/lastmile_qr_scan", "ios": "https://dc.lft.to/lastmile_qr_scan"}, "fusion_lon": 0.0}, {"lat": 39.056373666666666, "is_disabled": 0, "type": "electric_bike", "lon": -77.12528666666667, "bike_id": "aaffb3c0ed677ab8ce23274b0ced5bdd", "fusion_lat": 0.0, "name": "aaffb3c0ed677ab8ce23274b0ced5bdd", "is_reserved": 0, "rental_uris": {"android": "https://dc.lft.to/lastmile_qr_scan", "ios": "https://dc.lft.to/lastmile_qr_scan"}, "fusion_lon": 0.0}, {"lat": 38.96139066666667, "is_disabled": 0, "type": "electric_scooter", "lon": -77.02795033333334, "bike_id": "4212d8dc997adcb6e534d78dd636b401", "fusion_lat": 0.0, "name": "4212d8dc997adcb6e534d78dd636b401", "is_reserved": 0, "rental_uris": {"android": "https://dc.lft.to/lastmile_qr_scan", "ios": "https://dc.lft.to/lastmile_qr_scan"}, "fusion_lon": 0.0}, {"lat": 38.89438, "is_disabled": 0, "type": "electric_scooter", "lon": -76.949846, "bike_id": "2507d28736354ac3cbc43c8a03f24fa0", "fusion_lat": 0.0, "name": "2507d28736354ac3cbc43c8a03f24fa0", "is_reserved": 0, "rental_uris": {"android": "https://dc.lft.to/lastmile_qr_scan", "ios": "https://dc.lft.to/lastmile_qr_scan"}, "fusion_lon": 0.0}, {"lat": 38.907295500000004, "is_disabled": 0, "type": "electric_scooter", "lon": -77.04646516666666, "bike_id": "c5a2e542a586ebdc3131a8072a397eb8", "fusion_lat": 0.0, "name": "c5a2e542a586ebdc3131a8072a397eb8", "is_reserved": 0, "rental_uris": {"android": "https://dc.lft.to/lastmile_qr_scan", "ios": "https://dc.lft.to/lastmile_qr_scan"}, "fusion_lon": 0.0}, {"lat": 38.88423916666667, "is_disabled": 0, "type": "electric_bike", "lon": -76.954184, "bike_id": "698ce5eb317a2e8ed62eddc9aac60684", "fusion_lat": 0.0, "name": "698ce5eb317a2e8ed62eddc9aac60684", "is_reserved": 0, "rental_uris": {"android": "https://dc.lft.to/lastmile_qr_scan", "ios": "https://dc.lft.to/lastmile_qr_scan"}, "fusion_lon": 0.0}, {"lat": 38.92550883333333, "is_disabled": 0, "type": "electric_scooter", "lon": -77.033408, "bike_id": "6d43962bf99e7a43fa1c96b624b22eb7", "fusion_lat": 0.0, "name": "6d43962bf99e7a43fa1c96b624b22eb7", "is_reserved": 0, "rental_uris": {"android": "https://dc.lft.to/lastmile_qr_scan", "ios": "https://dc.lft.to/lastmile_qr_scan"}, "fusion_lon": 0.0}, {"lat": 38.89820266666667, "is_disabled": 0, "type": "electric_scooter", "lon": -76.99689483333333, "bike_id": "236736dab9129a011d68844fafbde3bb", "fusion_lat": 0.0, "name": "236736dab9129a011d68844fafbde3bb", "is_reserved": 0, "rental_uris": {"android": "https://dc.lft.to/lastmile_qr_scan", "ios": "https://dc.lft.to/lastmile_qr_scan"}, "fusion_lon": 0.0}, {"lat": 38.924786, "is_disabled": 0, "type": "electric_scooter", "lon": -77.02838933333334, "bike_id": "55a5329588171e00de3e61ff7acf4ea4", "fusion_lat": 0.0, "name": "55a5329588171e00de3e61ff7acf4ea4", "is_reserved": 0, "rental_uris": {"android": "https://dc.lft.to/lastmile_qr_scan", "ios": "https://dc.lft.to/lastmile_qr_scan"}, "fusion_lon": 0.0}, {"lat": 38.887392, "is_disabled": 0, "type": "electric_scooter", "lon": -77.01534566666666, "bike_id": "a3688f33e97b29b278097075288df0c5", "fusion_lat": 0.0, "name": "a3688f33e97b29b278097075288df0c5", "is_reserved": 0, "rental_uris": {"android": "https://dc.lft.to/lastmile_qr_scan", "ios": "https://dc.lft.to/lastmile_qr_scan"}, "fusion_lon": 0.0}, {"lat": 38.910137166666665, "is_disabled": 0, "type": "electric_scooter", "lon": -77.04364883333334, "bike_id": "049cf82d750ac2635b3d17f2aa4540ad", "fusion_lat": 0.0, "name": "049cf82d750ac2635b3d17f2aa4540ad", "is_reserved": 0, "rental_uris": {"android": "https://dc.lft.to/lastmile_qr_scan", "ios": "https://dc.lft.to/lastmile_qr_scan"}, "fusion_lon": 0.0}, {"lat": 38.930994, "is_disabled": 0, "type": "electric_scooter", "lon": -77.02471616666666, "bike_id": "829384a063320de4c411942111442129", "fusion_lat": 0.0, "name": "829384a063320de4c411942111442129", "is_reserved": 0, "rental_uris": {"android": "https://dc.lft.to/lastmile_qr_scan", "ios": "https://dc.lft.to/lastmile_qr_scan"}, "fusion_lon": 0.0}, {"lat": 38.908521666666665, "is_disabled": 0, "type": "electric_scooter", "lon": -77.04769916666666, "bike_id": "67cdd24ae9ccff64b6cdfc8dab819a8d", "fusion_lat": 0.0, "name": "67cdd24ae9ccff64b6cdfc8dab819a8d", "is_reserved": 0, "rental_uris": {"android": "https://dc.lft.to/lastmile_qr_scan", "ios": "https://dc.lft.to/lastmile_qr_scan"}, "fusion_lon": 0.0}, {"lat": 38.870151666666665, "is_disabled": 0, "type": "electric_bike", "lon": -76.96024383333334, "bike_id": "c91f3906333e752e20e16f79076863e9", "fusion_lat": 0.0, "name": "c91f3906333e752e20e16f79076863e9", "is_reserved": 0, "rental_uris": {"android": "https://dc.lft.to/lastmile_qr_scan", "ios": "https://dc.lft.to/lastmile_qr_scan"}, "fusion_lon": 0.0}, {"lat": 38.90866883333333, "is_disabled": 0, "type": "electric_scooter", "lon": -77.045935, "bike_id": "c8d554109c49891afa743b5de397756f", "fusion_lat": 0.0, "name": "c8d554109c49891afa743b5de397756f", "is_reserved": 0, "rental_uris": {"android": "https://dc.lft.to/lastmile_qr_scan", "ios": "https://dc.lft.to/lastmile_qr_scan"}, "fusion_lon": 0.0}, {"lat": 38.953677666666664, "is_disabled": 0, "type": "electric_bike", "lon": -76.97977383333334, "bike_id": "7628b06942e5f68456bafc91fe89b0e8", "fusion_lat": 0.0, "name": "7628b06942e5f68456bafc91fe89b0e8", "is_reserved": 0, "rental_uris": {"android": "https://dc.lft.to/lastmile_qr_scan", "ios": "https://dc.lft.to/lastmile_qr_scan"}, "fusion_lon": 0.0}, {"lat": 38.83670583333333, "is_disabled": 0, "type": "electric_scooter", "lon": -77.005825, "bike_id": "44b6ae998ae2297bf0cabc25a46bc8c2", "fusion_lat": 0.0, "name": "44b6ae998ae2297bf0cabc25a46bc8c2", "is_reserved": 0, "rental_uris": {"android": "https://dc.lft.to/lastmile_qr_scan", "ios": "https://dc.lft.to/lastmile_qr_scan"}, "fusion_lon": 0.0}, {"lat": 38.919179666666665, "is_disabled": 0, "type": "electric_scooter", "lon": -77.0134345, "bike_id": "c2bb91f90a6b8a7c1df8316e48939ec4", "fusion_lat": 0.0, "name": "c2bb91f90a6b8a7c1df8316e48939ec4", "is_reserved": 0, "rental_uris": {"android": "https://dc.lft.to/lastmile_qr_scan", "ios": "https://dc.lft.to/lastmile_qr_scan"}, "fusion_lon": 0.0}, {"lat": 38.90608133333333, "is_disabled": 0, "type": "electric_scooter", "lon": -77.06298583333333, "bike_id": "031f9addaba2de40d6697bb86b8ad257", "fusion_lat": 0.0, "name": "031f9addaba2de40d6697bb86b8ad257", "is_reserved": 0, "rental_uris": {"android": "https://dc.lft.to/lastmile_qr_scan", "ios": "https://dc.lft.to/lastmile_qr_scan"}, "fusion_lon": 0.0}, {"lat": 38.9011065, "is_disabled": 0, "type": "electric_scooter", "lon": -77.05902383333333, "bike_id": "45374a01416f32d31270575baa6f8566", "fusion_lat": 0.0, "name": "45374a01416f32d31270575baa6f8566", "is_reserved": 0, "rental_uris": {"android": "https://dc.lft.to/lastmile_qr_scan", "ios": "https://dc.lft.to/lastmile_qr_scan"}, "fusion_lon": 0.0}, {"lat": 38.916906833333336, "is_disabled": 0, "type": "electric_scooter", "lon": -77.04601433333333, "bike_id": "6fc946f25b57c813eee731cc97a9b86a", "fusion_lat": 0.0, "name": "6fc946f25b57c813eee731cc97a9b86a", "is_reserved": 0, "rental_uris": {"android": "https://dc.lft.to/lastmile_qr_scan", "ios": "https://dc.lft.to/lastmile_qr_scan"}, "fusion_lon": 0.0}, {"lat": 38.923026166666666, "is_disabled": 0, "type": "electric_scooter", "lon": -77.02329016666667, "bike_id": "b12ed6ae9ed1c6be70c466e1afde2826", "fusion_lat": 0.0, "name": "b12ed6ae9ed1c6be70c466e1afde2826", "is_reserved": 0, "rental_uris": {"android": "https://dc.lft.to/lastmile_qr_scan", "ios": "https://dc.lft.to/lastmile_qr_scan"}, "fusion_lon": 0.0}, {"lat": 38.87371366666667, "is_disabled": 0, "type": "electric_bike", "lon": -77.000594, "bike_id": "2bcc27780158a14893b3682c30ec85cb", "fusion_lat": 0.0, "name": "2bcc27780158a14893b3682c30ec85cb", "is_reserved": 0, "rental_uris": {"android": "https://dc.lft.to/lastmile_qr_scan", "ios": "https://dc.lft.to/lastmile_qr_scan"}, "fusion_lon": 0.0}, {"lat": 38.938625333333334, "is_disabled": 0, "type": "electric_scooter", "lon": -77.023231, "bike_id": "e2f531bd8f4aab57a734356c056ca537", "fusion_lat": 0.0, "name": "e2f531bd8f4aab57a734356c056ca537", "is_reserved": 0, "rental_uris": {"android": "https://dc.lft.to/lastmile_qr_scan", "ios": "https://dc.lft.to/lastmile_qr_scan"}, "fusion_lon": 0.0}, {"lat": 38.9203585, "is_disabled": 0, "type": "electric_scooter", "lon": -77.0258565, "bike_id": "b5bc486b98ca817bd9d24faa2214c6bd", "fusion_lat": 0.0, "name": "b5bc486b98ca817bd9d24faa2214c6bd", "is_reserved": 0, "rental_uris": {"android": "https://dc.lft.to/lastmile_qr_scan", "ios": "https://dc.lft.to/lastmile_qr_scan"}, "fusion_lon": 0.0}, {"lat": 38.907396166666665, "is_disabled": 0, "type": "electric_scooter", "lon": -77.02949266666667, "bike_id": "c01ffc50372dd3bb37e467a20851a1d4", "fusion_lat": 0.0, "name": "c01ffc50372dd3bb37e467a20851a1d4", "is_reserved": 0, "rental_uris": {"android": "https://dc.lft.to/lastmile_qr_scan", "ios": "https://dc.lft.to/lastmile_qr_scan"}, "fusion_lon": 0.0}, {"lat": 38.89893, "is_disabled": 0, "type": "electric_scooter", "lon": -77.07235666666666, "bike_id": "23084daaa2adb4bd9878d22ca320d0c1", "fusion_lat": 0.0, "name": "23084daaa2adb4bd9878d22ca320d0c1", "is_reserved": 0, "rental_uris": {"android": "https://dc.lft.to/lastmile_qr_scan", "ios": "https://dc.lft.to/lastmile_qr_scan"}, "fusion_lon": 0.0}, {"lat": 38.87291716666667, "is_disabled": 0, "type": "electric_scooter", "lon": -77.00925266666667, "bike_id": "8383150dbb218b32aa5d3cbc9954f530", "fusion_lat": 0.0, "name": "8383150dbb218b32aa5d3cbc9954f530", "is_reserved": 0, "rental_uris": {"android": "https://dc.lft.to/lastmile_qr_scan", "ios": "https://dc.lft.to/lastmile_qr_scan"}, "fusion_lon": 0.0}, {"lat": 38.9124745, "is_disabled": 0, "type": "electric_scooter", "lon": -77.04653516666667, "bike_id": "f5c0b1d4540c738cc37cfca16e170d49", "fusion_lat": 0.0, "name": "f5c0b1d4540c738cc37cfca16e170d49", "is_reserved": 0, "rental_uris": {"android": "https://dc.lft.to/lastmile_qr_scan", "ios": "https://dc.lft.to/lastmile_qr_scan"}, "fusion_lon": 0.0}, {"lat": 38.91119833333333, "is_disabled": 0, "type": "electric_scooter", "lon": -77.038342, "bike_id": "9c1aaef994643b5159248ce326dd634c", "fusion_lat": 0.0, "name": "9c1aaef994643b5159248ce326dd634c", "is_reserved": 0, "rental_uris": {"android": "https://dc.lft.to/lastmile_qr_scan", "ios": "https://dc.lft.to/lastmile_qr_scan"}, "fusion_lon": 0.0}, {"lat": 38.91819783333333, "is_disabled": 0, "type": "electric_scooter", "lon": -77.0138715, "bike_id": "4ae608d7cf47721dd911b9ae7b28f0da", "fusion_lat": 0.0, "name": "4ae608d7cf47721dd911b9ae7b28f0da", "is_reserved": 0, "rental_uris": {"android": "https://dc.lft.to/lastmile_qr_scan", "ios": "https://dc.lft.to/lastmile_qr_scan"}, "fusion_lon": 0.0}, {"lat": 38.949218333333334, "is_disabled": 0, "type": "electric_scooter", "lon": -77.00865983333334, "bike_id": "92e886f0c00b3662b3cffa9b3be975d9", "fusion_lat": 0.0, "name": "92e886f0c00b3662b3cffa9b3be975d9", "is_reserved": 0, "rental_uris": {"android": "https://dc.lft.to/lastmile_qr_scan", "ios": "https://dc.lft.to/lastmile_qr_scan"}, "fusion_lon": 0.0}, {"lat": 38.85974983333333, "is_disabled": 0, "type": "electric_bike", "lon": -77.056733, "bike_id": "383cb19dd4f4f2da7152ba71263eeb67", "fusion_lat": 0.0, "name": "383cb19dd4f4f2da7152ba71263eeb67", "is_reserved": 0, "rental_uris": {"android": "https://dc.lft.to/lastmile_qr_scan", "ios": "https://dc.lft.to/lastmile_qr_scan"}, "fusion_lon": 0.0}, {"lat": 38.906457, "is_disabled": 0, "type": "electric_scooter", "lon": -77.03384916666667, "bike_id": "2404c0d9953b3ba903a254a875446395", "fusion_lat": 0.0, "name": "2404c0d9953b3ba903a254a875446395", "is_reserved": 0, "rental_uris": {"android": "https://dc.lft.to/lastmile_qr_scan", "ios": "https://dc.lft.to/lastmile_qr_scan"}, "fusion_lon": 0.0}, {"lat": 38.89736633333333, "is_disabled": 0, "type": "electric_scooter", "lon": -77.0498925, "bike_id": "dc82da91a4aaf89acf652695512a14c2", "fusion_lat": 0.0, "name": "dc82da91a4aaf89acf652695512a14c2", "is_reserved": 0, "rental_uris": {"android": "https://dc.lft.to/lastmile_qr_scan", "ios": "https://dc.lft.to/lastmile_qr_scan"}, "fusion_lon": 0.0}, {"lat": 38.936583, "is_disabled": 0, "type": "electric_bike", "lon": -76.952226, "bike_id": "44add072da22b0eb09b68aca078e3c2a", "fusion_lat": 0.0, "name": "44add072da22b0eb09b68aca078e3c2a", "is_reserved": 0, "rental_uris": {"android": "https://dc.lft.to/lastmile_qr_scan", "ios": "https://dc.lft.to/lastmile_qr_scan"}, "fusion_lon": 0.0}, {"lat": 38.93534833333333, "is_disabled": 0, "type": "electric_scooter", "lon": -77.02359016666666, "bike_id": "e568ce8b3214311e9df59a2ffa0e1d22", "fusion_lat": 0.0, "name": "e568ce8b3214311e9df59a2ffa0e1d22", "is_reserved": 0, "rental_uris": {"android": "https://dc.lft.to/lastmile_qr_scan", "ios": "https://dc.lft.to/lastmile_qr_scan"}, "fusion_lon": 0.0}, {"lat": 38.91649533333333, "is_disabled": 0, "type": "electric_scooter", "lon": -77.041582, "bike_id": "a4dfd45650ad5ebcf8e5875ee29bc627", "fusion_lat": 0.0, "name": "a4dfd45650ad5ebcf8e5875ee29bc627", "is_reserved": 0, "rental_uris": {"android": "https://dc.lft.to/lastmile_qr_scan", "ios": "https://dc.lft.to/lastmile_qr_scan"}, "fusion_lon": 0.0}, {"lat": 39.034227666666666, "is_disabled": 0, "type": "electric_bike", "lon": -77.04318983333333, "bike_id": "19dc520d1dbc440dd1af9a7df54f9cb1", "fusion_lat": 0.0, "name": "19dc520d1dbc440dd1af9a7df54f9cb1", "is_reserved": 0, "rental_uris": {"android": "https://dc.lft.to/lastmile_qr_scan", "ios": "https://dc.lft.to/lastmile_qr_scan"}, "fusion_lon": 0.0}, {"lat": 38.91771933333333, "is_disabled": 0, "type": "electric_scooter", "lon": -77.01471666666667, "bike_id": "b8733ccf82201a34218f07f00d06183e", "fusion_lat": 0.0, "name": "b8733ccf82201a34218f07f00d06183e", "is_reserved": 0, "rental_uris": {"android": "https://dc.lft.to/lastmile_qr_scan", "ios": "https://dc.lft.to/lastmile_qr_scan"}, "fusion_lon": 0.0}, {"lat": 38.91697883333333, "is_disabled": 0, "type": "electric_scooter", "lon": -76.982255, "bike_id": "9e43153a5558fe132cc96834021501ae", "fusion_lat": 0.0, "name": "9e43153a5558fe132cc96834021501ae", "is_reserved": 0, "rental_uris": {"android": "https://dc.lft.to/lastmile_qr_scan", "ios": "https://dc.lft.to/lastmile_qr_scan"}, "fusion_lon": 0.0}, {"lat": 38.900376666666666, "is_disabled": 0, "type": "electric_scooter", "lon": -76.99632433333333, "bike_id": "47be9fbc7aba2226044699a21e2cf8d9", "fusion_lat": 0.0, "name": "47be9fbc7aba2226044699a21e2cf8d9", "is_reserved": 0, "rental_uris": {"android": "https://dc.lft.to/lastmile_qr_scan", "ios": "https://dc.lft.to/lastmile_qr_scan"}, "fusion_lon": 0.0}, {"lat": 38.91270166666666, "is_disabled": 0, "type": "electric_scooter", "lon": -77.03229916666666, "bike_id": "0ef4b86e8606081960c0a359b0c7dd71", "fusion_lat": 0.0, "name": "0ef4b86e8606081960c0a359b0c7dd71", "is_reserved": 0, "rental_uris": {"android": "https://dc.lft.to/lastmile_qr_scan", "ios": "https://dc.lft.to/lastmile_qr_scan"}, "fusion_lon": 0.0}, {"lat": 38.90740516666666, "is_disabled": 0, "type": "electric_scooter", "lon": -77.04149766666667, "bike_id": "fcb68f34389809e3bf80a75c37748cec", "fusion_lat": 0.0, "name": "fcb68f34389809e3bf80a75c37748cec", "is_reserved": 0, "rental_uris": {"android": "https://dc.lft.to/lastmile_qr_scan", "ios": "https://dc.lft.to/lastmile_qr_scan"}, "fusion_lon": 0.0}, {"lat": 38.93739133333333, "is_disabled": 0, "type": "electric_scooter", "lon": -77.03619416666666, "bike_id": "ef0169c9bd6729a6ec6564cb7dca9b62", "fusion_lat": 0.0, "name": "ef0169c9bd6729a6ec6564cb7dca9b62", "is_reserved": 0, "rental_uris": {"android": "https://dc.lft.to/lastmile_qr_scan", "ios": "https://dc.lft.to/lastmile_qr_scan"}, "fusion_lon": 0.0}, {"lat": 38.9643355, "is_disabled": 0, "type": "electric_bike", "lon": -77.0214745, "bike_id": "e39098917480801796756ff2887bf971", "fusion_lat": 0.0, "name": "e39098917480801796756ff2887bf971", "is_reserved": 0, "rental_uris": {"android": "https://dc.lft.to/lastmile_qr_scan", "ios": "https://dc.lft.to/lastmile_qr_scan"}, "fusion_lon": 0.0}, {"lat": 38.84438083333333, "is_disabled": 0, "type": "electric_scooter", "lon": -76.99659833333334, "bike_id": "09614a1439bb0d0bdfc5f747c9e2b369", "fusion_lat": 0.0, "name": "09614a1439bb0d0bdfc5f747c9e2b369", "is_reserved": 0, "rental_uris": {"android": "https://dc.lft.to/lastmile_qr_scan", "ios": "https://dc.lft.to/lastmile_qr_scan"}, "fusion_lon": 0.0}, {"lat": 38.851895666666664, "is_disabled": 0, "type": "electric_scooter", "lon": -76.976241, "bike_id": "6e39840a7e130766632befbd2d8caf12", "fusion_lat": 0.0, "name": "6e39840a7e130766632befbd2d8caf12", "is_reserved": 0, "rental_uris": {"android": "https://dc.lft.to/lastmile_qr_scan", "ios": "https://dc.lft.to/lastmile_qr_scan"}, "fusion_lon": 0.0}, {"lat": 38.8748625, "is_disabled": 0, "type": "electric_scooter", "lon": -77.00272183333334, "bike_id": "274a12f3ed310f2afdeb659bf64d8ac3", "fusion_lat": 0.0, "name": "274a12f3ed310f2afdeb659bf64d8ac3", "is_reserved": 0, "rental_uris": {"android": "https://dc.lft.to/lastmile_qr_scan", "ios": "https://dc.lft.to/lastmile_qr_scan"}, "fusion_lon": 0.0}, {"lat": 38.910123, "is_disabled": 0, "type": "electric_scooter", "lon": -77.043659, "bike_id": "5b176d12b357b26f66639f627cec07d7", "fusion_lat": 0.0, "name": "5b176d12b357b26f66639f627cec07d7", "is_reserved": 0, "rental_uris": {"android": "https://dc.lft.to/lastmile_qr_scan", "ios": "https://dc.lft.to/lastmile_qr_scan"}, "fusion_lon": 0.0}, {"lat": 38.925853333333336, "is_disabled": 0, "type": "electric_scooter", "lon": -77.04412766666667, "bike_id": "7d7c15be7468a56aa5151816de54783c", "fusion_lat": 0.0, "name": "7d7c15be7468a56aa5151816de54783c", "is_reserved": 0, "rental_uris": {"android": "https://dc.lft.to/lastmile_qr_scan", "ios": "https://dc.lft.to/lastmile_qr_scan"}, "fusion_lon": 0.0}, {"lat": 38.86259866666666, "is_disabled": 0, "type": "electric_scooter", "lon": -76.99519083333334, "bike_id": "a503fe9bd4438bbe1da0db7387c9f772", "fusion_lat": 0.0, "name": "a503fe9bd4438bbe1da0db7387c9f772", "is_reserved": 0, "rental_uris": {"android": "https://dc.lft.to/lastmile_qr_scan", "ios": "https://dc.lft.to/lastmile_qr_scan"}, "fusion_lon": 0.0}, {"lat": 38.94550366666667, "is_disabled": 0, "type": "electric_bike", "lon": -76.89535516666666, "bike_id": "76eebffeaf3ef240e44dc19b2f0a6205", "fusion_lat": 0.0, "name": "76eebffeaf3ef240e44dc19b2f0a6205", "is_reserved": 0, "rental_uris": {"android": "https://dc.lft.to/lastmile_qr_scan", "ios": "https://dc.lft.to/lastmile_qr_scan"}, "fusion_lon": 0.0}, {"lat": 38.9338085, "is_disabled": 0, "type": "electric_scooter", "lon": -77.03556616666667, "bike_id": "801c91b82420c5f72a8c40bf186b6898", "fusion_lat": 0.0, "name": "801c91b82420c5f72a8c40bf186b6898", "is_reserved": 0, "rental_uris": {"android": "https://dc.lft.to/lastmile_qr_scan", "ios": "https://dc.lft.to/lastmile_qr_scan"}, "fusion_lon": 0.0}, {"lat": 38.9154005, "is_disabled": 0, "type": "electric_scooter", "lon": -77.0319175, "bike_id": "4b34e9da0b47dca4b77cf7566d9155bd", "fusion_lat": 0.0, "name": "4b34e9da0b47dca4b77cf7566d9155bd", "is_reserved": 0, "rental_uris": {"android": "https://dc.lft.to/lastmile_qr_scan", "ios": "https://dc.lft.to/lastmile_qr_scan"}, "fusion_lon": 0.0}, {"lat": 38.886211333333335, "is_disabled": 0, "type": "electric_scooter", "lon": -77.018939, "bike_id": "e2f530526de878019284fa54e11fe8a0", "fusion_lat": 0.0, "name": "e2f530526de878019284fa54e11fe8a0", "is_reserved": 0, "rental_uris": {"android": "https://dc.lft.to/lastmile_qr_scan", "ios": "https://dc.lft.to/lastmile_qr_scan"}, "fusion_lon": 0.0}, {"lat": 38.915532, "is_disabled": 0, "type": "electric_scooter", "lon": -77.03206666666667, "bike_id": "72c531772fc66872ebbb46c45446c70a", "fusion_lat": 0.0, "name": "72c531772fc66872ebbb46c45446c70a", "is_reserved": 0, "rental_uris": {"android": "https://dc.lft.to/lastmile_qr_scan", "ios": "https://dc.lft.to/lastmile_qr_scan"}, "fusion_lon": 0.0}, {"lat": 38.919630166666664, "is_disabled": 0, "type": "electric_scooter", "lon": -77.01439633333334, "bike_id": "91e76aaa36e531db92a678e0af51f965", "fusion_lat": 0.0, "name": "91e76aaa36e531db92a678e0af51f965", "is_reserved": 0, "rental_uris": {"android": "https://dc.lft.to/lastmile_qr_scan", "ios": "https://dc.lft.to/lastmile_qr_scan"}, "fusion_lon": 0.0}, {"lat": 38.95711333333333, "is_disabled": 0, "type": "electric_scooter", "lon": -77.02400383333334, "bike_id": "dedaef14dbf8fcbd9ae8659f1eafe9c8", "fusion_lat": 0.0, "name": "dedaef14dbf8fcbd9ae8659f1eafe9c8", "is_reserved": 0, "rental_uris": {"android": "https://dc.lft.to/lastmile_qr_scan", "ios": "https://dc.lft.to/lastmile_qr_scan"}, "fusion_lon": 0.0}, {"lat": 38.885488333333335, "is_disabled": 0, "type": "electric_bike", "lon": -77.117847, "bike_id": "e9d6e0cc10975373e9a21129a7d7cbc9", "fusion_lat": 0.0, "name": "e9d6e0cc10975373e9a21129a7d7cbc9", "is_reserved": 0, "rental_uris": {"android": "https://dc.lft.to/lastmile_qr_scan", "ios": "https://dc.lft.to/lastmile_qr_scan"}, "fusion_lon": 0.0}, {"lat": 38.899923333333334, "is_disabled": 0, "type": "electric_scooter", "lon": -77.042245, "bike_id": "c1520e885c85063ab4ec44bdf8687ede", "fusion_lat": 0.0, "name": "c1520e885c85063ab4ec44bdf8687ede", "is_reserved": 0, "rental_uris": {"android": "https://dc.lft.to/lastmile_qr_scan", "ios": "https://dc.lft.to/lastmile_qr_scan"}, "fusion_lon": 0.0}, {"lat": 38.934362, "is_disabled": 0, "type": "electric_scooter", "lon": -76.96508316666667, "bike_id": "409a09bca92271347749c854fd3d7ae9", "fusion_lat": 0.0, "name": "409a09bca92271347749c854fd3d7ae9", "is_reserved": 0, "rental_uris": {"android": "https://dc.lft.to/lastmile_qr_scan", "ios": "https://dc.lft.to/lastmile_qr_scan"}, "fusion_lon": 0.0}, {"lat": 38.907263666666665, "is_disabled": 0, "type": "electric_scooter", "lon": -77.03196133333333, "bike_id": "acb9c23c3c4b6699c1fdb49a70f00b6e", "fusion_lat": 0.0, "name": "acb9c23c3c4b6699c1fdb49a70f00b6e", "is_reserved": 0, "rental_uris": {"android": "https://dc.lft.to/lastmile_qr_scan", "ios": "https://dc.lft.to/lastmile_qr_scan"}, "fusion_lon": 0.0}, {"lat": 38.94823183333333, "is_disabled": 0, "type": "electric_scooter", "lon": -76.99904733333334, "bike_id": "c17ddd4abb83968f1b475e01cc7161b2", "fusion_lat": 0.0, "name": "c17ddd4abb83968f1b475e01cc7161b2", "is_reserved": 0, "rental_uris": {"android": "https://dc.lft.to/lastmile_qr_scan", "ios": "https://dc.lft.to/lastmile_qr_scan"}, "fusion_lon": 0.0}, {"lat": 38.8867895, "is_disabled": 0, "type": "electric_bike", "lon": -77.1623835, "bike_id": "07b668d33dd5f0d7c0ef7ccf6c2eb6b2", "fusion_lat": 0.0, "name": "07b668d33dd5f0d7c0ef7ccf6c2eb6b2", "is_reserved": 0, "rental_uris": {"android": "https://dc.lft.to/lastmile_qr_scan", "ios": "https://dc.lft.to/lastmile_qr_scan"}, "fusion_lon": 0.0}, {"lat": 38.88439783333333, "is_disabled": 0, "type": "electric_scooter", "lon": -76.929569, "bike_id": "6e4ecb244147319328529df9d52ed093", "fusion_lat": 0.0, "name": "6e4ecb244147319328529df9d52ed093", "is_reserved": 0, "rental_uris": {"android": "https://dc.lft.to/lastmile_qr_scan", "ios": "https://dc.lft.to/lastmile_qr_scan"}, "fusion_lon": 0.0},