{"data": {"bikes": [{"type": "electric_bike", "name": "ab13f26f53f41090bea855f2dd63dc83", "fusion_lat": 0.0, "fusion_lon": 0.0, "lon": -76.941675, "is_disabled": 0, "bike_id": "ab13f26f53f41090bea855f2dd63dc83", "is_reserved": 0, "rental_uris": {"android": "https://dc.lft.to/lastmile_qr_scan", "ios": "https://dc.lft.to/lastmile_qr_scan"}, "lat": 38.865537833333335}, {"type": "electric_bike", "name": "3842a1145a7bb9261b4ec568c77555d1", "fusion_lat": 0.0, "fusion_lon": 0.0, "lon": -77.00000233333333, "is_disabled": 0, "bike_id": "3842a1145a7bb9261b4ec568c77555d1", "is_reserved": 0, "rental_uris": {"android": "https://dc.lft.to/lastmile_qr_scan", "ios": "https://dc.lft.to/lastmile_qr_scan"}, "lat": 38.923888833333336}, {"type": "electric_scooter", "name": "37612044517a81228b408f1736530866", "fusion_lat": 0.0, "fusion_lon": 0.0, "lon": -77.0174255, "is_disabled": 0, "bike_id": "37612044517a81228b408f1736530866", "is_reserved": 0, "rental_uris": {"android": "https://dc.lft.to/lastmile_qr_scan", "ios": "https://dc.lft.to/lastmile_qr_scan"}, "lat": 38.91244566666667}, {"type": "electric_scooter", "name": "bd0ace322a5c0a024f88756dd1076e53", "fusion_lat": 0.0, "fusion_lon": 0.0, "lon": -77.01841533333334, "is_disabled": 0, "bike_id": "bd0ace322a5c0a024f88756dd1076e53", "is_reserved": 0, "rental_uris": {"android": "https://dc.lft.to/lastmile_qr_scan", "ios": "https://dc.lft.to/lastmile_qr_scan"}, "lat": 38.9095585}, {"type": "electric_scooter", "name": "b709bf5cd8eb8af9708d98ac6a5dd3a8", "fusion_lat": 0.0, "fusion_lon": 0.0, "lon": -77.0326465, "is_disabled": 0, "bike_id": "b709bf5cd8eb8af9708d98ac6a5dd3a8", "is_reserved": 0, "rental_uris": {"android": "https://dc.lft.to/lastmile_qr_scan", "ios": "https://dc.lft.to/lastmile_qr_scan"}, "lat": 38.933088166666664}, {"type": "electric_scooter", "name": "c4bc99418bc092741d8170f6ffddb19e", "fusion_lat": 0.0, "fusion_lon": 0.0, "lon": -77.0098775, "is_disabled": 0, "bike_id": "c4bc99418bc092741d8170f6ffddb19e", "is_reserved": 0, "rental_uris": {"android": "https://dc.lft.to/lastmile_qr_scan", "ios": "https://dc.lft.to/lastmile_qr_scan"}, "lat": 38.8728425}, {"type": "electric_scooter", "name": "beab2d752eb827b9b2a12a6e20259287", "fusion_lat": 0.0, "fusion_lon": 0.0, "lon": -77.04177066666666, "is_disabled": 0, "bike_id": "beab2d752eb827b9b2a12a6e20259287", "is_reserved": 0, "rental_uris": {"android": "https://dc.lft.to/lastmile_qr_scan", "ios": "https://dc.lft.to/lastmile_qr_scan"}, "lat": 38.919791000000004}, {"type": "electric_scooter", "name": "37c52b095e6dc168df909cea32961737", "fusion_lat": 0.0, "fusion_lon": 0.0, "lon": -77.03448716666666, "is_disabled": 0, "bike_id": "37c52b095e6dc168df909cea32961737", "is_reserved": 0, "rental_uris": {"android": "https://dc.lft.to/lastmile_qr_scan", "ios": "https://dc.lft.to/lastmile_qr_scan"}, "lat": 38.9222615}, {"type": "electric_bike", "name": "e0636fd14bc9b01c1f46757951b80748", "fusion_lat": 0.0, "fusion_lon": 0.0, "lon": -77.10617416666666, "is_disabled": 0, "bike_id": "e0636fd14bc9b01c1f46757951b80748", "is_reserved": 0, "rental_uris": {"android": "https://dc.lft.to/lastmile_qr_scan", "ios": "https://dc.lft.to/lastmile_qr_scan"}, "lat": 38.8372455}, {"type": "electric_scooter", "name": "86550959702b00791282f2fa00825a86", "fusion_lat": 0.0, "fusion_lon": 0.0, "lon": -77.05221716666667, "is_disabled": 0, "bike_id": "86550959702b00791282f2fa00825a86", "is_reserved": 0, "rental_uris": {"android": "https://dc.lft.to/lastmile_qr_scan", "ios": "https://dc.lft.to/lastmile_qr_scan"}, "lat": 38.8995405}, {"type": "electric_scooter", "name": "2a5c4a30dc7ac53abf2dbb00de07f6c2", "fusion_lat": 0.0, "fusion_lon": 0.0, "lon": -77.03527016666666, "is_disabled": 0, "bike_id": "2a5c4a30dc7ac53abf2dbb00de07f6c2", "is_reserved": 0, "rental_uris": {"android": "https://dc.lft.to/lastmile_qr_scan", "ios": "https://dc.lft.to/lastmile_qr_scan"}, "lat": 38.9234685}, {"type": "electric_scooter", "name": "d193fdaac9045e164da00bec054201c2", "fusion_lat": 0.0, "fusion_lon": 0.0, "lon": -77.03449666666667, "is_disabled": 0, "bike_id": "d193fdaac9045e164da00bec054201c2", "is_reserved": 0, "rental_uris": {"android": "https://dc.lft.to/lastmile_qr_scan", "ios": "https://dc.lft.to/lastmile_qr_scan"}, "lat": 38.92075333333333}, {"type": "electric_scooter", "name": "6ea222c9aa0ce200e25c913e4519942a", "fusion_lat": 0.0, "fusion_lon": 0.0, "lon": -77.00582816666666, "is_disabled": 0, "bike_id": "6ea222c9aa0ce200e25c913e4519942a", "is_reserved": 0, "rental_uris": {"android": "https://dc.lft.to/lastmile_qr_scan", "ios": "https://dc.lft.to/lastmile_qr_scan"}, "lat": 38.905717}, {"type": "electric_scooter", "name": "75f04664e77d94ee1e4688642987aae2", "fusion_lat": 0.0, "fusion_lon": 0.0, "lon": -77.03662633333333, "is_disabled": 0, "bike_id": "75f04664e77d94ee1e4688642987aae2", "is_reserved": 0, "rental_uris": {"android": "https://dc.lft.to/lastmile_qr_scan", "ios": "https://dc.lft.to/lastmile_qr_scan"}, "lat": 38.921192833333336}, {"type": "electric_bike", "name": "6e6c04b6e4d1748e53559b6de15143ee", "fusion_lat": 0.0, "fusion_lon": 0.0, "lon": -77.2219195, "is_disabled": 0, "bike_id": "6e6c04b6e4d1748e53559b6de15143ee", "is_reserved": 0, "rental_uris": {"android": "https://dc.lft.to/lastmile_qr_scan", "ios": "https://dc.lft.to/lastmile_qr_scan"}, "lat": 38.87174316666667}, {"type": "electric_scooter", "name": "8b150446e300d6752b9290c7614c9cc5", "fusion_lat": 0.0, "fusion_lon": 0.0, "lon": -77.03527833333334, "is_disabled": 0, "bike_id": "8b150446e300d6752b9290c7614c9cc5", "is_reserved": 0, "rental_uris": {"android": "https://dc.lft.to/lastmile_qr_scan", "ios": "https://dc.lft.to/lastmile_qr_scan"}, "lat": 38.902318}, {"type": "electric_scooter", "name": "33816a163bcd7cc634baa009daa49a73", "fusion_lat": 0.0, "fusion_lon": 0.0, "lon": -77.0006625, "is_disabled": 0, "bike_id": "33816a163bcd7cc634baa009daa49a73", "is_reserved": 0, "rental_uris": {"android": "https://dc.lft.to/lastmile_qr_scan", "ios": "https://dc.lft.to/lastmile_qr_scan"}, "lat": 38.881137}, {"type": "electric_scooter", "name": "9a29229aa57cb317e68d3a1d3431bc6a", "fusion_lat": 0.0, "fusion_lon": 0.0, "lon": -76.99961033333334, "is_disabled": 0, "bike_id": "9a29229aa57cb317e68d3a1d3431bc6a", "is_reserved": 0, "rental_uris": {"android": "https://dc.lft.to/lastmile_qr_scan", "ios": "https://dc.lft.to/lastmile_qr_scan"}, "lat": 38.901081833333336}, {"type": "electric_scooter", "name": "7d2180da2f6188c8ce7012c6ff6459d6", "fusion_lat": 0.0, "fusion_lon": 0.0, "lon": -77.04454866666667, "is_disabled": 0, "bike_id": "7d2180da2f6188c8ce7012c6ff6459d6", "is_reserved": 0, "rental_uris": {"android": "https://dc.lft.to/lastmile_qr_scan", "ios": "https://dc.lft.to/lastmile_qr_scan"}, "lat": 38.918746166666665}, {"type": "electric_scooter", "name": "38085feab2e4e8791fffe2c078fa7eff", "fusion_lat": 0.0, "fusion_lon": 0.0, "lon": -77.0232515, "is_disabled": 0, "bike_id": "38085feab2e4e8791fffe2c078fa7eff", "is_reserved": 0, "rental_uris": {"android": "https://dc.lft.to/lastmile_qr_scan", "ios": "https://dc.lft.to/lastmile_qr_scan"}, "lat": 38.930554}, {"type": "electric_scooter", "name": "ae33d74639ff6c81f079323bbb11f551", "fusion_lat": 0.0, "fusion_lon": 0.0, "lon": -77.03450516666666, "is_disabled": 0, "bike_id": "ae33d74639ff6c81f079323bbb11f551", "is_reserved": 0, "rental_uris": {"android": "https://dc.lft.to/lastmile_qr_scan", "ios": "https://dc.lft.to/lastmile_qr_scan"}, "lat": 38.9205125}, {"type": "electric_scooter", "name": "29f1609a0aa8b5c7c7df3b6e5eb04b40", "fusion_lat": 0.0, "fusion_lon": 0.0, "lon": -77.0413645, "is_disabled": 0, "bike_id": "29f1609a0aa8b5c7c7df3b6e5eb04b40", "is_reserved": 0, "rental_uris": {"android": "https://dc.lft.to/lastmile_qr_scan", "ios": "https://dc.lft.to/lastmile_qr_scan"}, "lat": 38.930649333333335}, {"type": "electric_scooter", "name": "e4719e9e64cb3955cc31270854a1c8e9", "fusion_lat": 0.0, "fusion_lon": 0.0, "lon": -77.03848583333334, "is_disabled": 0, "bike_id": "e4719e9e64cb3955cc31270854a1c8e9", "is_reserved": 0, "rental_uris": {"android": "https://dc.lft.to/lastmile_qr_scan", "ios": "https://dc.lft.to/lastmile_qr_scan"}, "lat": 38.90989966666667}, {"type": "electric_scooter", "name": "3dd05ca9bbcd392bdbee24fc3e7d6130", "fusion_lat": 0.0, "fusion_lon": 0.0, "lon": -77.02577716666667, "is_disabled": 0, "bike_id": "3dd05ca9bbcd392bdbee24fc3e7d6130", "is_reserved": 0, "rental_uris": {"android": "https://dc.lft.to/lastmile_qr_scan", "ios": "https://dc.lft.to/lastmile_qr_scan"}, "lat": 38.92513366666667}, {"type": "electric_scooter", "name": "e83fe924f6a0099d38ba076f4598a0a8", "fusion_lat": 0.0, "fusion_lon": 0.0, "lon": -77.046151, "is_disabled": 0, "bike_id": "e83fe924f6a0099d38ba076f4598a0a8", "is_reserved": 0, "rental_uris": {"android": "https://dc.lft.to/lastmile_qr_scan", "ios": "https://dc.lft.to/lastmile_qr_scan"}, "lat": 38.90663883333333}, {"type": "electric_scooter", "name": "9e6e8cecf2fb2665f1d929a52d8c5bca", "fusion_lat": 0.0, "fusion_lon": 0.0, "lon": -77.00197016666667, "is_disabled": 0, "bike_id": "9e6e8cecf2fb2665f1d929a52d8c5bca", "is_reserved": 0, "rental_uris": {"android": "https://dc.lft.to/lastmile_qr_scan", "ios": "https://dc.lft.to/lastmile_qr_scan"}, "lat": 38.90237966666667}, {"type": "electric_scooter", "name": "3f256d51b5347ec61b373fadfdf20f1d", "fusion_lat": 0.0, "fusion_lon": 0.0, "lon": -77.02110883333333, "is_disabled": 0, "bike_id": "3f256d51b5347ec61b373fadfdf20f1d", "is_reserved": 0, "rental_uris": {"android": "https://dc.lft.to/lastmile_qr_scan", "ios": "https://dc.lft.to/lastmile_qr_scan"}, "lat": 38.896077166666664}, {"type": "electric_scooter", "name": "9f3d1405f50384bb7c9685cdfa2e6e6a", "fusion_lat": 0.0, "fusion_lon": 0.0, "lon": -77.03830016666667, "is_disabled": 0, "bike_id": "9f3d1405f50384bb7c9685cdfa2e6e6a", "is_reserved": 0, "rental_uris": {"android": "https://dc.lft.to/lastmile_qr_scan", "ios": "https://dc.lft.to/lastmile_qr_scan"}, "lat": 38.92560433333333}, {"type": "electric_scooter", "name": "6456ba28d9332172b4f9e7b8dde3ce99", "fusion_lat": 0.0, "fusion_lon": 0.0, "lon": -77.04564266666667, "is_disabled": 0, "bike_id": "6456ba28d9332172b4f9e7b8dde3ce99", "is_reserved": 0, "rental_uris": {"android": "https://dc.lft.to/lastmile_qr_scan", "ios": "https://dc.lft.to/lastmile_qr_scan"}, "lat": 38.90368933333333}, {"type": "electric_scooter", "name": "201e7037e842f58cc9ebfd52e683b777", "fusion_lat": 0.0, "fusion_lon": 0.0, "lon": -77.0242875, "is_disabled": 0, "bike_id": "201e7037e842f58cc9ebfd52e683b777", "is_reserved": 0, "rental_uris": {"android": "https://dc.lft.to/lastmile_qr_scan", "ios": "https://dc.lft.to/lastmile_qr_scan"}, "lat": 38.91550733333333}, {"type": "electric_scooter", "name": "3c76293cac009987a8d9a2d0420368c6", "fusion_lat": 0.0, "fusion_lon": 0.0, "lon": -76.99013533333333, "is_disabled": 0, "bike_id": "3c76293cac009987a8d9a2d0420368c6", "is_reserved": 0, "rental_uris": {"android": "https://dc.lft.to/lastmile_qr_scan", "ios": "https://dc.lft.to/lastmile_qr_scan"}, "lat": 38.90389033333334}, {"type": "electric_bike", "name": "8ba1fa62443482119a21deb0074a1953", "fusion_lat": 0.0, "fusion_lon": 0.0, "lon": -77.04995666666667, "is_disabled": 0, "bike_id": "8ba1fa62443482119a21deb0074a1953", "is_reserved": 0, "rental_uris": {"android": "https://dc.lft.to/lastmile_qr_scan", "ios": "https://dc.lft.to/lastmile_qr_scan"}, "lat": 38.80529416666667}, {"type": "electric_scooter", "name": "c24b417b290e341d769c56b9c3830345", "fusion_lat": 0.0, "fusion_lon": 0.0, "lon": -76.998727, "is_disabled": 0, "bike_id": "c24b417b290e341d769c56b9c3830345", "is_reserved": 0, "rental_uris": {"android": "https://dc.lft.to/lastmile_qr_scan", "ios": "https://dc.lft.to/lastmile_qr_scan"}, "lat": 38.900322833333334}, {"type": "electric_scooter", "name": "ecc78b62421bf639396a4d3d59cf0a37", "fusion_lat": 0.0, "fusion_lon": 0.0, "lon": -77.02403766666667, "is_disabled": 0, "bike_id": "ecc78b62421bf639396a4d3d59cf0a37", "is_reserved": 0, "rental_uris": {"android": "https://dc.lft.to/lastmile_qr_scan", "ios": "https://dc.lft.to/lastmile_qr_scan"}, "lat": 38.92087033333333}, {"type": "electric_scooter", "name": "5cab032bee60d73a225b28d3fcf8bcb7", "fusion_lat": 0.0, "fusion_lon": 0.0, "lon": -77.02631883333333, "is_disabled": 0, "bike_id": "5cab032bee60d73a225b28d3fcf8bcb7", "is_reserved": 0, "rental_uris": {"android": "https://dc.lft.to/lastmile_qr_scan", "ios": "https://dc.lft.to/lastmile_qr_scan"}, "lat": 38.938658333333336}, {"type": "electric_scooter", "name": "8c2d6bc350dd38919a67384446458ee7", "fusion_lat": 0.0, "fusion_lon": 0.0, "lon": -76.99768616666667, "is_disabled": 0, "bike_id": "8c2d6bc350dd38919a67384446458ee7", "is_reserved": 0, "rental_uris": {"android": "https://dc.lft.to/lastmile_qr_scan", "ios": "https://dc.lft.to/lastmile_qr_scan"}, "lat": 38.911135}, {"type": "electric_scooter", "name": "05bb50a27b55ede8caf796a5d5cced88", "fusion_lat": 0.0, "fusion_lon": 0.0, "lon": -77.00062283333334, "is_disabled": 0, "bike_id": "05bb50a27b55ede8caf796a5d5cced88", "is_reserved": 0, "rental_uris": {"android": "https://dc.lft.to/lastmile_qr_scan", "ios": "https://dc.lft.to/lastmile_qr_scan"}, "lat": 38.878795833333335}, {"type": "electric_scooter", "name": "0cbc7273f9c86196fcded5770cddfbe9", "fusion_lat": 0.0, "fusion_lon": 0.0, "lon": -77.04150483333333, "is_disabled": 0, "bike_id": "0cbc7273f9c86196fcded5770cddfbe9", "is_reserved": 0, "rental_uris": {"android": "https://dc.lft.to/lastmile_qr_scan", "ios": "https://dc.lft.to/lastmile_qr_scan"}, "lat": 38.923551333333336}, {"type": "electric_scooter", "name": "4becf38fbb6aa22471ef8a1a0bf5aacd", "fusion_lat": 0.0, "fusion_lon": 0.0, "lon": -77.03656316666667, "is_disabled": 0, "bike_id": "4becf38fbb6aa22471ef8a1a0bf5aacd", "is_reserved": 0, "rental_uris": {"android": "https://dc.lft.to/lastmile_qr_scan", "ios": "https://dc.lft.to/lastmile_qr_scan"}, "lat": 38.9212015}, {"type": "electric_scooter", "name": "744254814ae9219a720addb52fd17128", "fusion_lat": 0.0, "fusion_lon": 0.0, "lon": -76.9940865, "is_disabled": 0, "bike_id": "744254814ae9219a720addb52fd17128", "is_reserved": 0, "rental_uris": {"android": "https://dc.lft.to/lastmile_qr_scan", "ios": "https://dc.lft.to/lastmile_qr_scan"}, "lat": 38.8779195}, {"type": "electric_scooter", "name": "d4d07441823a3a7bfb5ce64134bbf2dd", "fusion_lat": 0.0, "fusion_lon": 0.0, "lon": -77.01138683333333, "is_disabled": 0, "bike_id": "d4d07441823a3a7bfb5ce64134bbf2dd", "is_reserved": 0, "rental_uris": {"android": "https://dc.lft.to/lastmile_qr_scan", "ios": "https://dc.lft.to/lastmile_qr_scan"}, "lat": 38.91700383333333}, {"type": "electric_scooter", "name": "cf8563348f2f4565e1cb3a5be1230f8e", "fusion_lat": 0.0, "fusion_lon": 0.0, "lon": -76.99850833333333, "is_disabled": 0, "bike_id": "cf8563348f2f4565e1cb3a5be1230f8e", "is_reserved": 0, "rental_uris": {"android": "https://dc.lft.to/lastmile_qr_scan", "ios": "https://dc.lft.to/lastmile_qr_scan"}, "lat": 38.903310833333336}, {"type": "electric_scooter", "name": "a0c076986d1dd833a5679feb5705dd67", "fusion_lat": 0.0, "fusion_lon": 0.0, "lon": -77.0467255, "is_disabled": 0, "bike_id": "a0c076986d1dd833a5679feb5705dd67", "is_reserved": 0, "rental_uris": {"android": "https://dc.lft.to/lastmile_qr_scan", "ios": "https://dc.lft.to/lastmile_qr_scan"}, "lat": 38.897493833333336}, {"type": "electric_scooter", "name": "732d87dfc3d5f672d1900bfce2abaa40", "fusion_lat": 0.0, "fusion_lon": 0.0, "lon": -77.0021235, "is_disabled": 0, "bike_id": "732d87dfc3d5f672d1900bfce2abaa40", "is_reserved": 0, "rental_uris": {"android": "https://dc.lft.to/lastmile_qr_scan", "ios": "https://dc.lft.to/lastmile_qr_scan"}, "lat": 38.914608666666666}, {"type": "electric_scooter", "name": "6a3f34378381c77c8ee65fbc51ae7264", "fusion_lat": 0.0, "fusion_lon": 0.0, "lon": -76.99844583333334, "is_disabled": 0, "bike_id": "6a3f34378381c77c8ee65fbc51ae7264", "is_reserved": 0, "rental_uris": {"android": "https://dc.lft.to/lastmile_qr_scan", "ios": "https://dc.lft.to/lastmile_qr_scan"}, "lat": 38.90644133333333}, {"type": "electric_scooter", "name": "a46692cd98c0d7889e80bfd63717524e", "fusion_lat": 0.0, "fusion_lon": 0.0, "lon": -77.05999733333333, "is_disabled": 0, "bike_id": "a46692cd98c0d7889e80bfd63717524e", "is_reserved": 0, "rental_uris": {"android": "https://dc.lft.to/lastmile_qr_scan", "ios": "https://dc.lft.to/lastmile_qr_scan"}, "lat": 38.938236833333335}, {"type": "electric_bike", "name": "c3374c99a3c4d671747b2c570b3858b4", "fusion_lat": 0.0, "fusion_lon": 0.0, "lon": -76.903007, "is_disabled": 0, "bike_id": "c3374c99a3c4d671747b2c570b3858b4", "is_reserved": 0, "rental_uris": {"android": "https://dc.lft.to/lastmile_qr_scan", "ios": "https://dc.lft.to/lastmile_qr_scan"}, "lat": 39.00296616666667}, {"type": "electric_bike", "name": "ba23eac4fedf3a73a0a376055bf619e5", "fusion_lat": 0.0, "fusion_lon": 0.0, "lon": -77.03428283333334, "is_disabled": 0, "bike_id": "ba23eac4fedf3a73a0a376055bf619e5", "is_reserved": 0, "rental_uris": {"android": "https://dc.lft.to/lastmile_qr_scan", "ios": "https://dc.lft.to/lastmile_qr_scan"}, "lat": 38.96620216666667}, {"type": "electric_scooter", "name": "a7863a9dc0cd0db09a54eed3ae2ecbda", "fusion_lat": 0.0, "fusion_lon": 0.0, "lon": -77.024029, "is_disabled": 0, "bike_id": "a7863a9dc0cd0db09a54eed3ae2ecbda", "is_reserved": 0, "rental_uris": {"android": "https://dc.lft.to/lastmile_qr_scan", "ios": "https://dc.lft.to/lastmile_qr_scan"}, "lat": 38.93095433333333}, {"type": "electric_scooter", "name": "67ef4cb4471438fb8fb07007a9018294", "fusion_lat": 0.0, "fusion_lon": 0.0, "lon": -76.99002933333334, "is_disabled": 0, "bike_id": "67ef4cb4471438fb8fb07007a9018294", "is_reserved": 0, "rental_uris": {"android": "https://dc.lft.to/lastmile_qr_scan", "ios": "https://dc.lft.to/lastmile_qr_scan"}, "lat": 38.8643235}, {"type": "electric_bike", "name": "a14f62129f566298546f511cc0583cdd", "fusion_lat": 0.0, "fusion_lon": 0.0, "lon": -77.07473416666667, "is_disabled": 0, "bike_id": "a14f62129f566298546f511cc0583cdd", "is_reserved": 0, "rental_uris": {"android": "https://dc.lft.to/lastmile_qr_scan", "ios": "https://dc.lft.to/lastmile_qr_scan"}, "lat": 38.920678333333335}, {"type": "electric_scooter", "name": "018213add888f6e810e60418d19fe92f", "fusion_lat": 0.0, "fusion_lon": 0.0, "lon": -77.01613833333333, "is_disabled": 0, "bike_id": "018213add888f6e810e60418d19fe92f", "is_reserved": 0, "rental_uris": {"android": "https://dc.lft.to/lastmile_qr_scan", "ios": "https://dc.lft.to/lastmile_qr_scan"}, "lat": 38.906080333333335}, {"type": "electric_scooter", "name": "1952da180cb7627494184565c27011a1", "fusion_lat": 0.0, "fusion_lon": 0.0, "lon": -77.02449233333333, "is_disabled": 0, "bike_id": "1952da180cb7627494184565c27011a1", "is_reserved": 0, "rental_uris": {"android": "https://dc.lft.to/lastmile_qr_scan", "ios": "https://dc.lft.to/lastmile_qr_scan"}, "lat": 38.94978716666667}, {"type": "electric_scooter", "name": "f9e7476f56c27d9ef914949ca4da3605", "fusion_lat": 0.0, "fusion_lon": 0.0, "lon": -77.02873116666666, "is_disabled": 0, "bike_id": "f9e7476f56c27d9ef914949ca4da3605", "is_reserved": 0, "rental_uris": {"android": "https://dc.lft.to/lastmile_qr_scan", "ios": "https://dc.lft.to/lastmile_qr_scan"}, "lat": 38.91262783333333}, {"type": "electric_scooter", "name": "9ef92998d63caad276bd10d57882f351", "fusion_lat": 0.0, "fusion_lon": 0.0, "lon": -77.02715433333333, "is_disabled": 0, "bike_id": "9ef92998d63caad276bd10d57882f351", "is_reserved": 0, "rental_uris": {"android": "https://dc.lft.to/lastmile_qr_scan", "ios": "https://dc.lft.to/lastmile_qr_scan"}, "lat": 38.92233933333333}, {"type": "electric_scooter", "name": "cbee554ee1d147edcce5e8c260543cc3", "fusion_lat": 0.0, "fusion_lon": 0.0, "lon": -76.96525733333333, "is_disabled": 0, "bike_id": "cbee554ee1d147edcce5e8c260543cc3", "is_reserved": 0, "rental_uris": {"android": "https://dc.lft.to/lastmile_qr_scan", "ios": "https://dc.lft.to/lastmile_qr_scan"}, "lat": 38.876258}, {"type": "electric_scooter", "name": "3b9f91752811200cc13db13734088e5d", "fusion_lat": 0.0, "fusion_lon": 0.0, "lon": -76.98314283333333, "is_disabled": 0, "bike_id": "3b9f91752811200cc13db13734088e5d", "is_reserved": 0, "rental_uris": {"android": "https://dc.lft.to/lastmile_qr_scan", "ios": "https://dc.lft.to/lastmile_qr_scan"}, "lat": 38.86887216666667}, {"type": "electric_scooter", "name": "dc7ed39654bcc454df990a22ef55df64", "fusion_lat": 0.0, "fusion_lon": 0.0, "lon": -76.9951535, "is_disabled": 0, "bike_id": "dc7ed39654bcc454df990a22ef55df64", "is_reserved": 0, "rental_uris": {"android": "https://dc.lft.to/lastmile_qr_scan", "ios": "https://dc.lft.to/lastmile_qr_scan"}, "lat": 38.88788516666666}, {"type": "electric_scooter", "name": "bc247093ab51d4ed5307f12a74d5f401", "fusion_lat": 0.0, "fusion_lon": 0.0, "lon": -77.03852083333334, "is_disabled": 0, "bike_id": "bc247093ab51d4ed5307f12a74d5f401", "is_reserved": 0, "rental_uris": {"android": "https://dc.lft.to/lastmile_qr_scan", "ios": "https://dc.lft.to/lastmile_qr_scan"}, "lat": 38.911243666666664}, {"type": "electric_scooter", "name": "a7b389ad5ae99ef0a976b0d143b72c16", "fusion_lat": 0.0, "fusion_lon": 0.0, "lon": -77.03329916666667, "is_disabled": 0, "bike_id": "a7b389ad5ae99ef0a976b0d143b72c16", "is_reserved": 0, "rental_uris": {"android": "https://dc.lft.to/lastmile_qr_scan", "ios": "https://dc.lft.to/lastmile_qr_scan"}, "lat": 38.919110833333335}, {"type": "electric_scooter", "name": "ffa1aa4eba6ec6a28828a305dfd9cc52", "fusion_lat": 0.0, "fusion_lon": 0.0, "lon": -77.034075, "is_disabled": 0, "bike_id": "ffa1aa4eba6ec6a28828a305dfd9cc52", "is_reserved": 0, "rental_uris": {"android": "https://dc.lft.to/lastmile_qr_scan", "ios": "https://dc.lft.to/lastmile_qr_scan"}, "lat": 38.90131383333333}, {"type": "electric_bike", "name": "dcce18c6e6ec4302c0e1cfa3bd71664a", "fusion_lat": 0.0, "fusion_lon": 0.0, "lon": -77.10287883333334, "is_disabled": 0, "bike_id": "dcce18c6e6ec4302c0e1cfa3bd71664a", "is_reserved": 0, "rental_uris": {"android": "https://dc.lft.to/lastmile_qr_scan", "ios": "https://dc.lft.to/lastmile_qr_scan"}, "lat": 38.85252366666667}, {"type": "electric_scooter", "name": "8afb23e3cacf8b9dbe2cca257abe6dc7", "fusion_lat": 0.0, "fusion_lon": 0.0, "lon": -77.02972633333333, "is_disabled": 0, "bike_id": "8afb23e3cacf8b9dbe2cca257abe6dc7", "is_reserved": 0, "rental_uris": {"android": "https://dc.lft.to/lastmile_qr_scan", "ios": "https://dc.lft.to/lastmile_qr_scan"}, "lat": 38.92445383333333}, {"type": "electric_scooter", "name": "5649911f7df4be19bc18470daf10faa6", "fusion_lat": 0.0, "fusion_lon": 0.0, "lon": -77.03831516666666, "is_disabled": 0, "bike_id": "5649911f7df4be19bc18470daf10faa6", "is_reserved": 0, "rental_uris": {"android": "https://dc.lft.to/lastmile_qr_scan", "ios": "https://dc.lft.to/lastmile_qr_scan"}, "lat": 38.911857833333336}, {"type": "electric_bike", "name": "622457ecf20a6ad96bd376a9906d7288", "fusion_lat": 0.0, "fusion_lon": 0.0, "lon": -77.231775, "is_disabled": 0, "bike_id": "622457ecf20a6ad96bd376a9906d7288", "is_reserved": 0, "rental_uris": {"android": "https://dc.lft.to/lastmile_qr_scan", "ios": "https://dc.lft.to/lastmile_qr_scan"}, "lat": 38.92895816666667}, {"type": "electric_scooter", "name": "2326df8c74e4f4d1fe3a4ef7c1698e28", "fusion_lat": 0.0, "fusion_lon": 0.0, "lon": -76.9463715, "is_disabled": 0, "bike_id": "2326df8c74e4f4d1fe3a4ef7c1698e28", "is_reserved": 0, "rental_uris": {"android": "https://dc.lft.to/lastmile_qr_scan", "ios": "https://dc.lft.to/lastmile_qr_scan"}, "lat": 38.8986765}, {"type": "electric_scooter", "name": "f06b6db0091e1fd9d600800039aba0ea", "fusion_lat": 0.0, "fusion_lon": 0.0, "lon": -77.0150205, "is_disabled": 0, "bike_id": "f06b6db0091e1fd9d600800039aba0ea", "is_reserved": 0, "rental_uris": {"android": "https://dc.lft.to/lastmile_qr_scan", "ios": "https://dc.lft.to/lastmile_qr_scan"}, "lat": 38.906491}, {"type": "electric_scooter", "name": "afd11eff5e328dbca06edce40aee564a", "fusion_lat": 0.0, "fusion_lon": 0.0, "lon": -77.02570766666666, "is_disabled": 0, "bike_id": "afd11eff5e328dbca06edce40aee564a", "is_reserved": 0, "rental_uris": {"android": "https://dc.lft.to/lastmile_qr_scan", "ios": "https://dc.lft.to/lastmile_qr_scan"}, "lat": 38.94850383333333}, {"type": "electric_scooter", "name": "886d4e6fccd3c7027e42c8c206b8fb58", "fusion_lat": 0.0, "fusion_lon": 0.0, "lon": -77.02446033333334, "is_disabled": 0, "bike_id": "886d4e6fccd3c7027e42c8c206b8fb58", "is_reserved": 0, "rental_uris": {"android": "https://dc.lft.to/lastmile_qr_scan", "ios": "https://dc.lft.to/lastmile_qr_scan"}, "lat": 38.949743166666664}, {"type": "electric_scooter", "name": "f0ab2f4a5312a30656ea6f5fa463072b", "fusion_lat": 0.0, "fusion_lon": 0.0, "lon": -77.02007166666667, "is_disabled": 0, "bike_id": "f0ab2f4a5312a30656ea6f5fa463072b", "is_reserved": 0, "rental_uris": {"android": "https://dc.lft.to/lastmile_qr_scan", "ios": "https://dc.lft.to/lastmile_qr_scan"}, "lat": 38.92802783333333}, {"type": "electric_scooter", "name": "becb123c9649a218a499c16f5c48f672", "fusion_lat": 0.0, "fusion_lon": 0.0, "lon": -77.01058033333334, "is_disabled": 0, "bike_id": "becb123c9649a218a499c16f5c48f672", "is_reserved": 0, "rental_uris": {"android": "https://dc.lft.to/lastmile_qr_scan", "ios": "https://dc.lft.to/lastmile_qr_scan"}, "lat": 38.929911}, {"type": "electric_scooter", "name": "fc842365842b09294ca46827edb3f16d", "fusion_lat": 0.0, "fusion_lon": 0.0, "lon": -77.031699, "is_disabled": 0, "bike_id": "fc842365842b09294ca46827edb3f16d", "is_reserved": 0, "rental_uris": {"android": "https://dc.lft.to/lastmile_qr_scan", "ios": "https://dc.lft.to/lastmile_qr_scan"}, "lat": 38.9209215}, {"type": "electric_scooter", "name": "816873623ee66e4de4d8c48ef0b6dfab", "fusion_lat": 0.0, "fusion_lon": 0.0, "lon": -76.92309316666666, "is_disabled": 0, "bike_id": "816873623ee66e4de4d8c48ef0b6dfab", "is_reserved": 0, "rental_uris": {"android": "https://dc.lft.to/lastmile_qr_scan", "ios": "https://dc.lft.to/lastmile_qr_scan"}, "lat": 38.89385333333333}, {"type": "electric_scooter", "name": "b4c5e8c9c2b3761be3eb6795301d5af4", "fusion_lat": 0.0, "fusion_lon": 0.0, "lon": -77.00549083333334, "is_disabled": 0, "bike_id": "b4c5e8c9c2b3761be3eb6795301d5af4", "is_reserved": 0, "rental_uris": {"android": "https://dc.lft.to/lastmile_qr_scan", "ios": "https://dc.lft.to/lastmile_qr_scan"}, "lat": 38.876669666666665}, {"type": "electric_scooter", "name": "01b057fd79ef17a924250fec442adf3c", "fusion_lat": 0.0, "fusion_lon": 0.0, "lon": -77.000711, "is_disabled": 0, "bike_id": "01b057fd79ef17a924250fec442adf3c", "is_reserved": 0, "rental_uris": {"android": "https://dc.lft.to/lastmile_qr_scan", "ios": "https://dc.lft.to/lastmile_qr_scan"}, "lat": 38.90140433333333}, {"type": "electric_bike", "name": "0aa326cc9206123c0f29c00bc0311098", "fusion_lat": 0.0, "fusion_lon": 0.0, "lon": -76.97955016666667, "is_disabled": 0, "bike_id": "0aa326cc9206123c0f29c00bc0311098", "is_reserved": 0, "rental_uris": {"android": "https://dc.lft.to/lastmile_qr_scan", "ios": "https://dc.lft.to/lastmile_qr_scan"}, "lat": 38.9203415}, {"type": "electric_scooter", "name": "dbb52e8f843e5a3e8855be9702b3ba16", "fusion_lat": 0.0, "fusion_lon": 0.0, "lon": -77.02794916666667, "is_disabled": 0, "bike_id": "dbb52e8f843e5a3e8855be9702b3ba16", "is_reserved": 0, "rental_uris": {"android": "https://dc.lft.to/lastmile_qr_scan", "ios": "https://dc.lft.to/lastmile_qr_scan"}, "lat": 38.92693416666667}, {"type": "electric_scooter", "name": "463fe16bc370a8b98c4d41f9feb6a17f", "fusion_lat": 0.0, "fusion_lon": 0.0, "lon": -76.98359216666667, "is_disabled": 0, "bike_id": "463fe16bc370a8b98c4d41f9feb6a17f", "is_reserved": 0, "rental_uris": {"android": "https://dc.lft.to/lastmile_qr_scan", "ios": "https://dc.lft.to/lastmile_qr_scan"}, "lat": 38.88732616666667}, {"type": "electric_scooter", "name": "5e206f28c84da5629909b94aeecd45be", "fusion_lat": 0.0, "fusion_lon": 0.0, "lon": -77.01637583333333, "is_disabled": 0, "bike_id": "5e206f28c84da5629909b94aeecd45be", "is_reserved": 0, "rental_uris": {"android": "https://dc.lft.to/lastmile_qr_scan", "ios": "https://dc.lft.to/lastmile_qr_scan"}, "lat": 38.929424}, {"type": "electric_scooter", "name": "b0a448eb0822d0961ebc2754c4770bad", "fusion_lat": 0.0, "fusion_lon": 0.0, "lon": -77.04477116666666, "is_disabled": 0, "bike_id": "b0a448eb0822d0961ebc2754c4770bad", "is_reserved": 0, "rental_uris": {"android": "https://dc.lft.to/lastmile_qr_scan", "ios": "https://dc.lft.to/lastmile_qr_scan"}, "lat": 38.913551166666664}, {"type": "electric_scooter", "name": "e5313fead5b3cf691024dcb40eae8f82", "fusion_lat": 0.0, "fusion_lon": 0.0, "lon": -77.063838, "is_disabled": 0, "bike_id": "e5313fead5b3cf691024dcb40eae8f82", "is_reserved": 0, "rental_uris": {"android": "https://dc.lft.to/lastmile_qr_scan", "ios": "https://dc.lft.to/lastmile_qr_scan"}, "lat": 38.9053475}, {"type": "electric_bike", "name": "431fa5ca2836770b9f0fbaf0ab55c0eb", "fusion_lat": 0.0, "fusion_lon": 0.0, "lon": -77.07898833333333, "is_disabled": 0, "bike_id": "431fa5ca2836770b9f0fbaf0ab55c0eb", "is_reserved": 0, "rental_uris": {"android": "https://dc.lft.to/lastmile_qr_scan", "ios": "https://dc.lft.to/lastmile_qr_scan"}, "lat": 38.839349}, {"type": "electric_scooter", "name": "18cc19a058c5ac779da6d997ab7f28dd", "fusion_lat": 0.0, "fusion_lon": 0.0, "lon": -77.023104, "is_disabled": 0, "bike_id": "18cc19a058c5ac779da6d997ab7f28dd", "is_reserved": 0, "rental_uris": {"android": "https://dc.lft.to/lastmile_qr_scan", "ios": "https://dc.lft.to/lastmile_qr_scan"}, "lat": 38.916218}, {"type": "electric_bike", "name": "1edeea19f5a2e79f75e320998f265f17", "fusion_lat": 0.0, "fusion_lon": 0.0, "lon": -77.0200695, "is_disabled": 0, "bike_id": "1edeea19f5a2e79f75e320998f265f17", "is_reserved": 0, "rental_uris": {"android": "https://dc.lft.to/lastmile_qr_scan", "ios": "https://dc.lft.to/lastmile_qr_scan"}, "lat": 39.026233833333336}, {"type": "electric_scooter", "name": "f933eb4eaf9d7441ba8f4b4188fd2f5c", "fusion_lat": 0.0, "fusion_lon": 0.0, "lon": -77.008245, "is_disabled": 0, "bike_id": "f933eb4eaf9d7441ba8f4b4188fd2f5c", "is_reserved": 0, "rental_uris": {"android": "https://dc.lft.to/lastmile_qr_scan", "ios": "https://dc.lft.to/lastmile_qr_scan"}, "lat": 38.91561816666667}, {"type": "electric_scooter", "name": "a4a2355fdb140bed69151e000369fbf9", "fusion_lat": 0.0, "fusion_lon": 0.0, "lon": -77.02448766666667, "is_disabled": 0, "bike_id": "a4a2355fdb140bed69151e000369fbf9", "is_reserved": 0, "rental_uris": {"android": "https://dc.lft.to/lastmile_qr_scan", "ios": "https://dc.lft.to/lastmile_qr_scan"}, "lat": 38.93415066666667}, {"type": "electric_scooter", "name": "086d8f35a905c04c34c9e01b76b92178", "fusion_lat": 0.0, "fusion_lon": 0.0, "lon": -77.02942016666667, "is_disabled": 0, "bike_id": "086d8f35a905c04c34c9e01b76b92178", "is_reserved": 0, "rental_uris": {"android": "https://dc.lft.to/lastmile_qr_scan", "ios": "https://dc.lft.to/lastmile_qr_scan"}, "lat": 38.898261166666664}, {"type": "electric_bike", "name": "ce1496ef164f4a46991a4314b9828284", "fusion_lat": 0.0, "fusion_lon": 0.0, "lon": -77.11287866666666, "is_disabled": 0, "bike_id": "ce1496ef164f4a46991a4314b9828284", "is_reserved": 0, "rental_uris": {"android": "https://dc.lft.to/lastmile_qr_scan", "ios": "https://dc.lft.to/lastmile_qr_scan"}, "lat": 38.8310415}, {"type": "electric_scooter", "name": "1da9745ab9308149eb29e5797e952a68", "fusion_lat": 0.0, "fusion_lon": 0.0, "lon": -77.0342595, "is_disabled": 0, "bike_id": "1da9745ab9308149eb29e5797e952a68", "is_reserved": 0, "rental_uris": {"android": "https://dc.lft.to/lastmile_qr_scan", "ios": "https://dc.lft.to/lastmile_qr_scan"}, "lat": 38.914061833333335}, {"type": "electric_scooter", "name": "81d9f5f8fe6d998fb899249ba6e965f7", "fusion_lat": 0.0, "fusion_lon": 0.0, "lon": -77.02694383333333, "is_disabled": 0, "bike_id": "81d9f5f8fe6d998fb899249ba6e965f7", "is_reserved": 0, "rental_uris": {"android": "https://dc.lft.to/lastmile_qr_scan", "ios": "https://dc.lft.to/lastmile_qr_scan"}, "lat": 38.9307995}, {"type": "electric_bike", "name": "2992638c34c3771296374513bd63510e", "fusion_lat": 0.0, "fusion_lon": 0.0, "lon": -77.02806566666666, "is_disabled": 0, "bike_id": "2992638c34c3771296374513bd63510e", "is_reserved": 0, "rental_uris": {"android": "https://dc.lft.to/lastmile_qr_scan", "ios": "https://dc.lft.to/lastmile_qr_scan"}, "lat": 38.919543}, {"type": "electric_scooter", "name": "905a3a67fef804d1e76229a751579493", "fusion_lat": 0.0, "fusion_lon": 0.0, "lon": -77.0062445, "is_disabled": 0, "bike_id": "905a3a67fef804d1e76229a751579493", "is_reserved": 0, "rental_uris": {"android": "https://dc.lft.to/lastmile_qr_scan", "ios": "https://dc.lft.to/lastmile_qr_scan"}, "lat": 38.87909916666667}, {"type": "electric_bike", "name": "38fc64af3c8b28c8c67cf04f6b27210d", "fusion_lat": 0.0, "fusion_lon": 0.0, "lon": -77.08186166666667, "is_disabled": 0, "bike_id": "38fc64af3c8b28c8c67cf04f6b27210d", "is_reserved": 0, "rental_uris": {"android": "https://dc.lft.to/lastmile_qr_scan", "ios": "https://dc.lft.to/lastmile_qr_scan"}, "lat": 38.92211116666667}, {"type": "electric_scooter", "name": "455d412aba877f34f3635696beed0cf7", "fusion_lat": 0.0, "fusion_lon": 0.0, "lon": -76.98364916666667, "is_disabled": 0, "bike_id": "455d412aba877f34f3635696beed0cf7", "is_reserved": 0, "rental_uris": {"android": "https://dc.lft.to/lastmile_qr_scan", "ios": "https://dc.lft.to/lastmile_qr_scan"}, "lat": 38.887289}, {"type": "electric_scooter", "name": "1a80e1d7991b35cedf60fae532a12714", "fusion_lat": 0.0, "fusion_lon": 0.0, "lon": -76.94715116666667, "is_disabled": 0, "bike_id": "1a80e1d7991b35cedf60fae532a12714", "is_reserved": 0, "rental_uris": {"android": "https://dc.lft.to/lastmile_qr_scan", "ios": "https://dc.lft.to/lastmile_qr_scan"}, "lat": 38.890853666666665}, {"type": "electric_scooter", "name": "1c817f18d09b317bad43f24f4020578c", "fusion_lat": 0.0, "fusion_lon": 0.0, "lon": -77.04367083333334, "is_disabled": 0, "bike_id": "1c817f18d09b317bad43f24f4020578c", "is_reserved": 0, "rental_uris": {"android": "https://dc.lft.to/lastmile_qr_scan", "ios": "https://dc.lft.to/lastmile_qr_scan"}, "lat": 38.901176666666665}, {"type": "electric_bike", "name": "125666bbde18a04f2dc3fda05b8be4a0", "fusion_lat": 0.0, "fusion_lon": 0.0, "lon": -76.95743083333333, "is_disabled": 0, "bike_id": "125666bbde18a04f2dc3fda05b8be4a0", "is_reserved": 0, "rental_uris": {"android": "https://dc.lft.to/lastmile_qr_scan", "ios": "https://dc.lft.to/lastmile_qr_scan"}, "lat": 38.88854766666667}, {"type": "electric_scooter", "name": "58c82f9b25b763590a982f71f9babcf2", "fusion_lat": 0.0, "fusion_lon": 0.0, "lon": -76.9886065, "is_disabled": 0, "bike_id": "58c82f9b25b763590a982f71f9babcf2", "is_reserved": 0, "rental_uris": {"android": "https://dc.lft.to/lastmile_qr_scan", "ios": "https://dc.lft.to/lastmile_qr_scan"}, "lat": 38.900296166666664}, {"type": "electric_scooter", "name": "6025b91b61fcc7a584d05529c9a178ca", "fusion_lat": 0.0, "fusion_lon": 0.0, "lon": -77.0385005, "is_disabled": 0, "bike_id": "6025b91b61fcc7a584d05529c9a178ca", "is_reserved": 0, "rental_uris": {"android": "https://dc.lft.to/lastmile_qr_scan", "ios": "https://dc.lft.to/lastmile_qr_scan"}, "lat": 38.910023333333335}, {"type": "electric_scooter", "name": "057d3b06a7fabf32f2a5d9bfd8546117", "fusion_lat": 0.0, "fusion_lon": 0.0, "lon": -77.04219916666666, "is_disabled": 0, "bike_id": "057d3b06a7fabf32f2a5d9bfd8546117", "is_reserved": 0, "rental_uris": {"android": "https://dc.lft.to/lastmile_qr_scan", "ios": "https://dc.lft.to/lastmile_qr_scan"}, "lat": 38.92153416666667}, {"type": "electric_scooter", "name": "4be6860d28cd88625446b40ddeb9289b", "fusion_lat": 0.0, "fusion_lon": 0.0, "lon": -77.03837233333333, "is_disabled": 0, "bike_id": "4be6860d28cd88625446b40ddeb9289b", "is_reserved": 0, "rental_uris": {"android": "https://dc.lft.to/lastmile_qr_scan", "ios": "https://dc.lft.to/lastmile_qr_scan"}, "lat": 38.91188783333333}, {"type": "electric_bike", "name": "f979393f1adf5764ddd26dbc6a266833", "fusion_lat": 0.0, "fusion_lon": 0.0, "lon": -77.08955883333333, "is_disabled": 0, "bike_id": "f979393f1adf5764ddd26dbc6a266833", "is_reserved": 0, "rental_uris": {"android": "https://dc.lft.to/lastmile_qr_scan", "ios": "https://dc.lft.to/lastmile_qr_scan"}, "lat": 38.8411955}, {"type": "electric_scooter", "name": "e9f4868669659b98126261b5f7302f55", "fusion_lat": 0.0, "fusion_lon": 0.0, "lon": -77.03717533333334, "is_disabled": 0, "bike_id": "e9f4868669659b98126261b5f7302f55", "is_reserved": 0, "rental_uris": {"android": "https://dc.lft.to/lastmile_qr_scan", "ios": "https://dc.lft.to/lastmile_qr_scan"}, "lat": 38.91562916666667}, {"type": "electric_scooter", "name": "348af3df8bb9e370417da34203994c9a", "fusion_lat": 0.0, "fusion_lon": 0.0, "lon": -76.9988205, "is_disabled": 0, "bike_id": "348af3df8bb9e370417da34203994c9a", "is_reserved": 0, "rental_uris": {"android": "https://dc.lft.to/lastmile_qr_scan", "ios": "https://dc.lft.to/lastmile_qr_scan"}, "lat": 38.907525}, {"type": "electric_scooter", "name": "c0af42c774f13bb4ee7a6e8c634d7df9", "fusion_lat": 0.0, "fusion_lon": 0.0, "lon": -77.02244983333334, "is_disabled": 0, "bike_id": "c0af42c774f13bb4ee7a6e8c634d7df9", "is_reserved": 0, "rental_uris": {"android": "https://dc.lft.to/lastmile_qr_scan", "ios": "https://dc.lft.to/lastmile_qr_scan"}, "lat": 38.908673}, {"type": "electric_bike", "name": "fdb13414c43ee5a171affd1ce9017f8e", "fusion_lat": 0.0, "fusion_lon": 0.0, "lon": -77.12728466666667, "is_disabled": 0, "bike_id": "fdb13414c43ee5a171affd1ce9017f8e", "is_reserved": 0, "rental_uris": {"android": "https://dc.lft.to/lastmile_qr_scan", "ios": "https://dc.lft.to/lastmile_qr_scan"}, "lat": 38.895582166666664}, {"type": "electric_scooter", "name": "13bc101bd7dba6056f11e7ad72f092ae", "fusion_lat": 0.0, "fusion_lon": 0.0, "lon": -76.999143, "is_disabled": 0, "bike_id": "13bc101bd7dba6056f11e7ad72f092ae", "is_reserved": 0, "rental_uris": {"android": "https://dc.lft.to/lastmile_qr_scan", "ios": "https://dc.lft.to/lastmile_qr_scan"}, "lat": 38.92457066666667}, {"type": "electric_scooter", "name": "69600af0e49b69606dd014373d7fb40e", "fusion_lat": 0.0, "fusion_lon": 0.0, "lon": -77.03996283333333, "is_disabled": 0, "bike_id": "69600af0e49b69606dd014373d7fb40e", "is_reserved": 0, "rental_uris": {"android": "https://dc.lft.to/lastmile_qr_scan", "ios": "https://dc.lft.to/lastmile_qr_scan"}, "lat": 38.905840833333336}, {"type": "electric_scooter", "name": "f922d420e26c7945983e0e63a4d99fce", "fusion_lat": 0.0, "fusion_lon": 0.0, "lon": -76.98852983333333, "is_disabled": 0, "bike_id": "f922d420e26c7945983e0e63a4d99fce", "is_reserved": 0, "rental_uris": {"android": "https://dc.lft.to/lastmile_qr_scan", "ios": "https://dc.lft.to/lastmile_qr_scan"}, "lat": 38.8916165}, {"type": "electric_scooter", "name": "e646682c5b3c3601a08f92b2dc42b698", "fusion_lat": 0.0, "fusion_lon": 0.0, "lon": -77.01797033333334, "is_disabled": 0, "bike_id": "e646682c5b3c3601a08f92b2dc42b698", "is_reserved": 0, "rental_uris": {"android": "https://dc.lft.to/lastmile_qr_scan", "ios": "https://dc.lft.to/lastmile_qr_scan"}, "lat": 38.919434833333334}, {"type": "electric_scooter", "name": "709efda70a94eed4ea1d285a00ea6a40", "fusion_lat": 0.0, "fusion_lon": 0.0, "lon": -77.02942633333333, "is_disabled": 0, "bike_id": "709efda70a94eed4ea1d285a00ea6a40", "is_reserved": 0, "rental_uris": {"android": "https://dc.lft.to/lastmile_qr_scan", "ios": "https://dc.lft.to/lastmile_qr_scan"}, "lat": 38.91683283333333}, {"type": "electric_scooter", "name": "a5cbb6f566134467c1c1f8be97103e0c", "fusion_lat": 0.0, "fusion_lon": 0.0, "lon": -77.0279155, "is_disabled": 0, "bike_id": "a5cbb6f566134467c1c1f8be97103e0c", "is_reserved": 0, "rental_uris": {"android": "https://dc.lft.to/lastmile_qr_scan", "ios": "https://dc.lft.to/lastmile_qr_scan"}, "lat": 38.93186883333333}, {"type": "electric_bike", "name": "532ffbb3ac2c7928767e26d2b78623fa", "fusion_lat": 0.0, "fusion_lon": 0.0, "lon": -77.09013816666666, "is_disabled": 0, "bike_id": "532ffbb3ac2c7928767e26d2b78623fa", "is_reserved": 0, "rental_uris": {"android": "https://dc.lft.to/lastmile_qr_scan", "ios": "https://dc.lft.to/lastmile_qr_scan"}, "lat": 38.926443666666664}, {"type": "electric_bike", "name": "0967971fff95d5018608d1a269b36868", "fusion_lat": 0.0, "fusion_lon": 0.0, "lon": -76.95693816666666, "is_disabled": 0, "bike_id": "0967971fff95d5018608d1a269b36868", "is_reserved": 0, "rental_uris": {"android": "https://dc.lft.to/lastmile_qr_scan", "ios": "https://dc.lft.to/lastmile_qr_scan"}, "lat": 38.8509015}, {"type": "electric_scooter", "name": "a01ac4e0b440e19f64f6b2a1844ea5c2", "fusion_lat": 0.0, "fusion_lon": 0.0, "lon": -77.03361266666667, "is_disabled": 0, "bike_id": "a01ac4e0b440e19f64f6b2a1844ea5c2", "is_reserved": 0, "rental_uris": {"android": "https://dc.lft.to/lastmile_qr_scan", "ios": "https://dc.lft.to/lastmile_qr_scan"}, "lat": 38.900348666666666}, {"type": "electric_scooter", "name": "668c5c1bae5e92c7d9c94ef46b7c4192", "fusion_lat": 0.0, "fusion_lon": 0.0, "lon": -77.00588533333334, "is_disabled": 0, "bike_id": "668c5c1bae5e92c7d9c94ef46b7c4192", "is_reserved": 0, "rental_uris": {"android": "https://dc.lft.to/lastmile_qr_scan", "ios": "https://dc.lft.to/lastmile_qr_scan"}, "lat": 38.905676}, {"type": "electric_scooter", "name": "7aea346fd765376ff9e021b9a78a699f", "fusion_lat": 0.0, "fusion_lon": 0.0, "lon": -76.957398, "is_disabled": 0, "bike_id": "7aea346fd765376ff9e021b9a78a699f", "is_reserved": 0, "rental_uris": {"android": "https://dc.lft.to/lastmile_qr_scan", "ios": "https://dc.lft.to/lastmile_qr_scan"}, "lat": 38.883870333333334}, {"type": "electric_scooter", "name": "8635210c8b72b28718642b4d3b70e0cc", "fusion_lat": 0.0, "fusion_lon": 0.0, "lon": -77.0146435, "is_disabled": 0, "bike_id": "8635210c8b72b28718642b4d3b70e0cc", "is_reserved": 0, "rental_uris": {"android": "https://dc.lft.to/lastmile_qr_scan", "ios": "https://dc.lft.to/lastmile_qr_scan"}, "lat": 38.91752566666667}, {"type": "electric_scooter", "name": "4007bb850817b886da0a9057a9491c7b", "fusion_lat": 0.0, "fusion_lon": 0.0, "lon": -77.02604416666667, "is_disabled": 0, "bike_id": "4007bb850817b886da0a9057a9491c7b", "is_reserved": 0, "rental_uris": {"android": "https://dc.lft.to/lastmile_qr_scan", "ios": "https://dc.lft.to/lastmile_qr_scan"}, "lat": 38.9016195}, {"type": "electric_scooter", "name": "677710198f709d6b15a4b320b68c68ee", "fusion_lat": 0.0, "fusion_lon": 0.0, "lon": -77.02287383333334, "is_disabled": 0, "bike_id": "677710198f709d6b15a4b320b68c68ee", "is_reserved": 0, "rental_uris": {"android": "https://dc.lft.to/lastmile_qr_scan", "ios": "https://dc.lft.to/lastmile_qr_scan"}, "lat": 38.91705866666667}, {"type": "electric_scooter", "name": "fccaae040dc317215db05af0972b246a", "fusion_lat": 0.0, "fusion_lon": 0.0, "lon": -77.03364366666666, "is_disabled": 0, "bike_id": "fccaae040dc317215db05af0972b246a", "is_reserved": 0, "rental_uris": {"android": "https://dc.lft.to/lastmile_qr_scan", "ios": "https://dc.lft.to/lastmile_qr_scan"}, "lat": 38.92752216666667}, {"type": "electric_scooter", "name": "2ee388518fc7e1d9addc82d463851a11", "fusion_lat": 0.0, "fusion_lon": 0.0, "lon": -77.03131883333333, "is_disabled": 0, "bike_id": "2ee388518fc7e1d9addc82d463851a11", "is_reserved": 0, "rental_uris": {"android": "https://dc.lft.to/lastmile_qr_scan", "ios": "https://dc.lft.to/lastmile_qr_scan"}, "lat": 38.893227833333334}, {"type": "electric_scooter", "name": "56f33584378fd4b66a46bfeec16f6a7e", "fusion_lat": 0.0, "fusion_lon": 0.0, "lon": -76.98631416666667, "is_disabled": 0, "bike_id": "56f33584378fd4b66a46bfeec16f6a7e", "is_reserved": 0, "rental_uris": {"android": "https://dc.lft.to/lastmile_qr_scan", "ios": "https://dc.lft.to/lastmile_qr_scan"}, "lat": 38.85509166666667}, {"type": "electric_scooter", "name": "9539426d7a7064fd1d664f8074e7ca4d", "fusion_lat": 0.0, "fusion_lon": 0.0, "lon": -76.9916325, "is_disabled": 0, "bike_id": "9539426d7a7064fd1d664f8074e7ca4d", "is_reserved": 0, "rental_uris": {"android": "https://dc.lft.to/lastmile_qr_scan", "ios": "https://dc.lft.to/lastmile_qr_scan"}, "lat": 38.88819633333333}, {"type": "electric_scooter", "name": "644e0ca2c59dfb742400e4c35d8a5ae0", "fusion_lat": 0.0, "fusion_lon": 0.0, "lon": -77.04610733333334, "is_disabled": 0, "bike_id": "644e0ca2c59dfb742400e4c35d8a5ae0", "is_reserved": 0, "rental_uris": {"android": "https://dc.lft.to/lastmile_qr_scan", "ios": "https://dc.lft.to/lastmile_qr_scan"}, "lat": 38.90658066666667}, {"type": "electric_scooter", "name": "15e73a564c388876f1287aa985b06de0", "fusion_lat": 0.0, "fusion_lon": 0.0, "lon": -76.98350333333333, "is_disabled": 0, "bike_id": "15e73a564c388876f1287aa985b06de0", "is_reserved": 0, "rental_uris": {"android": "https://dc.lft.to/lastmile_qr_scan", "ios": "https://dc.lft.to/lastmile_qr_scan"}, "lat": 38.912563166666665}, {"type": "electric_scooter", "name": "1fc658a7943e9056dc17772d9d8c3ce2", "fusion_lat": 0.0, "fusion_lon": 0.0, "lon": -76.94654566666667, "is_disabled": 0, "bike_id": "1fc658a7943e9056dc17772d9d8c3ce2", "is_reserved": 0, "rental_uris": {"android": "https://dc.lft.to/lastmile_qr_scan", "ios": "https://dc.lft.to/lastmile_qr_scan"}, "lat": 38.898249666666665}, {"type": "electric_scooter", "name": "cd345af7e4f11ec14fc428fd9e57caee", "fusion_lat": 0.0, "fusion_lon": 0.0, "lon": -77.0352425, "is_disabled": 0, "bike_id": "cd345af7e4f11ec14fc428fd9e57caee", "is_reserved": 0, "rental_uris": {"android": "https://dc.lft.to/lastmile_qr_scan", "ios": "https://dc.lft.to/lastmile_qr_scan"}, "lat": 38.92232766666667}, {"type": "electric_scooter", "name": "5bc537fd7339ad8c0ad2844efc77405a", "fusion_lat": 0.0, "fusion_lon": 0.0, "lon": -77.02228266666667, "is_disabled": 0, "bike_id": "5bc537fd7339ad8c0ad2844efc77405a", "is_reserved": 0, "rental_uris": {"android": "https://dc.lft.to/lastmile_qr_scan", "ios": "https://dc.lft.to/lastmile_qr_scan"}, "lat": 38.912704833333336}, {"type": "electric_scooter", "name": "3ff01b4eea89c030f329337195d5a6d5", "fusion_lat": 0.0, "fusion_lon": 0.0, "lon": -77.01718933333333, "is_disabled": 0, "bike_id": "3ff01b4eea89c030f329337195d5a6d5", "is_reserved": 0, "rental_uris": {"android": "https://dc.lft.to/lastmile_qr_scan", "ios": "https://dc.lft.to/lastmile_qr_scan"}, "lat": 38.90467483333333}, {"type": "electric_scooter", "name": "d702e48795f3eda8e803b1ae5db283fa", "fusion_lat": 0.0, "fusion_lon": 0.0, "lon": -77.03420883333334, "is_disabled": 0, "bike_id": "d702e48795f3eda8e803b1ae5db283fa", "is_reserved": 0, "rental_uris": {"android": "https://dc.lft.to/lastmile_qr_scan", "ios": "https://dc.lft.to/lastmile_qr_scan"}, "lat": 38.906331333333334}, {"type": "electric_bike", "name": "3711dfd3690530c31310ffabeaa421c3", "fusion_lat": 0.0, "fusion_lon": 0.0, "lon": -77.01228666666667, "is_disabled": 0, "bike_id": "3711dfd3690530c31310ffabeaa421c3", "is_reserved": 0, "rental_uris": {"android": "https://dc.lft.to/lastmile_qr_scan", "ios": "https://dc.lft.to/lastmile_qr_scan"}, "lat": 38.9508465}, {"type": "electric_scooter", "name": "6e8774ead158855e0a5402df17b7718d", "fusion_lat": 0.0, "fusion_lon": 0.0, "lon": -77.03209933333333, "is_disabled": 0, "bike_id": "6e8774ead158855e0a5402df17b7718d", "is_reserved": 0, "rental_uris": {"android": "https://dc.lft.to/lastmile_qr_scan", "ios": "https://dc.lft.to/lastmile_qr_scan"}, "lat": 38.91562116666667}, {"type": "electric_scooter", "name": "1f7ee01496d751644bb87b83b751e1b0", "fusion_lat": 0.0, "fusion_lon": 0.0, "lon": -77.027798, "is_disabled": 0, "bike_id": "1f7ee01496d751644bb87b83b751e1b0", "is_reserved": 0, "rental_uris": {"android": "https://dc.lft.to/lastmile_qr_scan", "ios": "https://dc.lft.to/lastmile_qr_scan"}, "lat": 38.90103466666667}, {"type": "electric_scooter", "name": "f50fa8abfc5409e0c6873fa8c45157e5", "fusion_lat": 0.0, "fusion_lon": 0.0, "lon": -77.012226, "is_disabled": 0, "bike_id": "f50fa8abfc5409e0c6873fa8c45157e5", "is_reserved": 0, "rental_uris": {"android": "https://dc.lft.to/lastmile_qr_scan", "ios": "https://dc.lft.to/lastmile_qr_scan"}, "lat": 38.91544783333333}, {"type": "electric_scooter", "name": "9d8b2975c1a3949c3674939be32e74d0", "fusion_lat": 0.0, "fusion_lon": 0.0, "lon": -77.01219716666667, "is_disabled": 0, "bike_id": "9d8b2975c1a3949c3674939be32e74d0", "is_reserved": 0, "rental_uris": {"android": "https://dc.lft.to/lastmile_qr_scan", "ios": "https://dc.lft.to/lastmile_qr_scan"}, "lat": 38.91547716666667}, {"type": "electric_scooter", "name": "adfa4be0385c505ebc538c96fa26721e", "fusion_lat": 0.0, "fusion_lon": 0.0, "lon": -76.984071, "is_disabled": 0, "bike_id": "adfa4be0385c505ebc538c96fa26721e", "is_reserved": 0, "rental_uris": {"android": "https://dc.lft.to/lastmile_qr_scan", "ios": "https://dc.lft.to/lastmile_qr_scan"}, "lat": 38.860595833333335}, {"type": "electric_scooter", "name": "7df878c680a7fcaf0db4bb33a4d45d3f", "fusion_lat": 0.0, "fusion_lon": 0.0, "lon": -77.02803233333333, "is_disabled": 0, "bike_id": "7df878c680a7fcaf0db4bb33a4d45d3f", "is_reserved": 0, "rental_uris": {"android": "https://dc.lft.to/lastmile_qr_scan", "ios": "https://dc.lft.to/lastmile_qr_scan"}, "lat": 38.89904083333333}, {"type": "electric_scooter", "name": "69e58b7919ffa9e6ab656435eb32250b", "fusion_lat": 0.0, "fusion_lon": 0.0, "lon": -77.03359516666667, "is_disabled": 0, "bike_id": "69e58b7919ffa9e6ab656435eb32250b", "is_reserved": 0, "rental_uris": {"android": "https://dc.lft.to/lastmile_qr_scan", "ios": "https://dc.lft.to/lastmile_qr_scan"}, "lat": 38.902908833333335}, {"type": "electric_bike", "name": "b1065900b7cb950f2efff02e7f0b3445", "fusion_lat": 0.0, "fusion_lon": 0.0, "lon": -77.0369735, "is_disabled": 0, "bike_id": "b1065900b7cb950f2efff02e7f0b3445", "is_reserved": 0, "rental_uris": {"android": "https://dc.lft.to/lastmile_qr_scan", "ios": "https://dc.lft.to/lastmile_qr_scan"}, "lat": 38.93561183333333}, {"type": "electric_scooter", "name": "faf42e084d9518fdb5e1dade7585d981", "fusion_lat": 0.0, "fusion_lon": 0.0, "lon": -77.04869933333333, "is_disabled": 0, "bike_id": "faf42e084d9518fdb5e1dade7585d981", "is_reserved": 0, "rental_uris": {"android": "https://dc.lft.to/lastmile_qr_scan", "ios": "https://dc.lft.to/lastmile_qr_scan"}, "lat": 38.892304333333335}, {"type": "electric_scooter", "name": "42faf5f96781ffcefc3b228c1397770e", "fusion_lat": 0.0, "fusion_lon": 0.0, "lon": -77.03346383333333, "is_disabled": 0, "bike_id": "42faf5f96781ffcefc3b228c1397770e", "is_reserved": 0, "rental_uris": {"android": "https://dc.lft.to/lastmile_qr_scan", "ios": "https://dc.lft.to/lastmile_qr_scan"}, "lat": 38.898376166666665}, {"type": "electric_scooter", "name": "ffb646d04a75165f746625baf561ed52", "fusion_lat": 0.0, "fusion_lon": 0.0, "lon": -77.02762166666666, "is_disabled": 0, "bike_id": "ffb646d04a75165f746625baf561ed52", "is_reserved": 0, "rental_uris": {"android": "https://dc.lft.to/lastmile_qr_scan", "ios": "https://dc.lft.to/lastmile_qr_scan"}, "lat": 38.93465166666667}, {"type": "electric_scooter", "name": "f6e7619e3e471158d83a045ac98ce460", "fusion_lat": 0.0, "fusion_lon": 0.0, "lon": -76.98538366666666, "is_disabled": 0, "bike_id": "f6e7619e3e471158d83a045ac98ce460", "is_reserved": 0, "rental_uris": {"android": "https://dc.lft.to/lastmile_qr_scan", "ios": "https://dc.lft.to/lastmile_qr_scan"}, "lat": 38.912829333333335}, {"type": "electric_scooter", "name": "7b632eab6bdb26b0bf793cf250431767", "fusion_lat": 0.0, "fusion_lon": 0.0, "lon": -77.04332666666667, "is_disabled": 0, "bike_id": "7b632eab6bdb26b0bf793cf250431767", "is_reserved": 0, "rental_uris": {"android": "https://dc.lft.to/lastmile_qr_scan", "ios": "https://dc.lft.to/lastmile_qr_scan"}, "lat": 38.91305583333333}, {"type": "electric_scooter", "name": "7f84b55fe1310086f7dfd133b3773a1a", "fusion_lat": 0.0, "fusion_lon": 0.0, "lon": -77.022822, "is_disabled": 0, "bike_id": "7f84b55fe1310086f7dfd133b3773a1a", "is_reserved": 0, "rental_uris": {"android": "https://dc.lft.to/lastmile_qr_scan", "ios": "https://dc.lft.to/lastmile_qr_scan"}, "lat": 38.926861}, {"type": "electric_scooter", "name": "80086cab99aeef0243af11b91e06230a", "fusion_lat": 0.0, "fusion_lon": 0.0, "lon": -77.031902, "is_disabled": 0, "bike_id": "80086cab99aeef0243af11b91e06230a", "is_reserved": 0, "rental_uris": {"android": "https://dc.lft.to/lastmile_qr_scan", "ios": "https://dc.lft.to/lastmile_qr_scan"}, "lat": 38.913106166666665}, {"type": "electric_scooter", "name": "c90119929634b6a02b826df7b82974d8", "fusion_lat": 0.0, "fusion_lon": 0.0, "lon": -76.99626866666667, "is_disabled": 0, "bike_id": "c90119929634b6a02b826df7b82974d8", "is_reserved": 0, "rental_uris": {"android": "https://dc.lft.to/lastmile_qr_scan", "ios": "https://dc.lft.to/lastmile_qr_scan"}, "lat": 38.905350166666665}, {"type": "electric_scooter", "name": "8e3abb54c34afe7d6beae9c950eb3247", "fusion_lat": 0.0, "fusion_lon": 0.0, "lon": -77.0327055, "is_disabled": 0, "bike_id": "8e3abb54c34afe7d6beae9c950eb3247", "is_reserved": 0, "rental_uris": {"android": "https://dc.lft.to/lastmile_qr_scan", "ios": "https://dc.lft.to/lastmile_qr_scan"}, "lat": 38.919836333333336}, {"type": "electric_scooter", "name": "ee81bb90dc1472667261c0fc9c606ccf", "fusion_lat": 0.0, "fusion_lon": 0.0, "lon": -77.0340575, "is_disabled": 0, "bike_id": "ee81bb90dc1472667261c0fc9c606ccf", "is_reserved": 0, "rental_uris": {"android": "https://dc.lft.to/lastmile_qr_scan", "ios": "https://dc.lft.to/lastmile_qr_scan"}, "lat": 38.925468333333335}, {"type": "electric_scooter", "name": "34470968f1ffc6bc3f2782ad1706bed6", "fusion_lat": 0.0, "fusion_lon": 0.0, "lon": -77.03073216666667, "is_disabled": 0, "bike_id": "34470968f1ffc6bc3f2782ad1706bed6", "is_reserved": 0, "rental_uris": {"android": "https://dc.lft.to/lastmile_qr_scan", "ios": "https://dc.lft.to/lastmile_qr_scan"}, "lat": 38.92249533333333}, {"type": "electric_scooter", "name": "d4a960ccad4a0c03e5bde2f59a4dcb8a", "fusion_lat": 0.0, "fusion_lon": 0.0, "lon": -77.04176116666666, "is_disabled": 0, "bike_id": "d4a960ccad4a0c03e5bde2f59a4dcb8a", "is_reserved": 0, "rental_uris": {"android": "https://dc.lft.to/lastmile_qr_scan", "ios": "https://dc.lft.to/lastmile_qr_scan"}, "lat": 38.915462}, {"type": "electric_scooter", "name": "10b8075f181d59d5708795f468b6869e", "fusion_lat": 0.0, "fusion_lon": 0.0, "lon": -76.98103683333333, "is_disabled": 0, "bike_id": "10b8075f181d59d5708795f468b6869e", "is_reserved": 0, "rental_uris": {"android": "https://dc.lft.to/lastmile_qr_scan", "ios": "https://dc.lft.to/lastmile_qr_scan"}, "lat": 38.857149666666665}, {"type": "electric_scooter", "name": "eaa32a87aba4b8f5456760649212fe8a", "fusion_lat": 0.0, "fusion_lon": 0.0, "lon": -76.99096166666666, "is_disabled": 0, "bike_id": "eaa32a87aba4b8f5456760649212fe8a", "is_reserved": 0, "rental_uris": {"android": "https://dc.lft.to/lastmile_qr_scan", "ios": "https://dc.lft.to/lastmile_qr_scan"}, "lat": 38.857275666666666}, {"type": "electric_scooter", "name": "243ea02c0c8b6aba7db211ef6a695652", "fusion_lat": 0.0, "fusion_lon": 0.0, "lon": -77.04251583333334, "is_disabled": 0, "bike_id": "243ea02c0c8b6aba7db211ef6a695652", "is_reserved": 0, "rental_uris": {"android": "https://dc.lft.to/lastmile_qr_scan", "ios": "https://dc.lft.to/lastmile_qr_scan"}, "lat": 38.91956366666667}, {"type": "electric_scooter", "name": "bfbe279df46a32031e3c763eb84c70a2", "fusion_lat": 0.0, "fusion_lon": 0.0, "lon": -77.05132533333334, "is_disabled": 0, "bike_id": "bfbe279df46a32031e3c763eb84c70a2", "is_reserved": 0, "rental_uris": {"android": "https://dc.lft.to/lastmile_qr_scan", "ios": "https://dc.lft.to/lastmile_qr_scan"}, "lat": 38.923631}, {"type": "electric_scooter", "name": "f496008d3d2a147e776ee0e54a3c22fc", "fusion_lat": 0.0, "fusion_lon": 0.0, "lon": -77.04352, "is_disabled": 0, "bike_id": "f496008d3d2a147e776ee0e54a3c22fc", "is_reserved": 0, "rental_uris": {"android": "https://dc.lft.to/lastmile_qr_scan", "ios": "https://dc.lft.to/lastmile_qr_scan"}, "lat": 38.921597166666665}, {"type": "electric_scooter", "name": "fe44bb9e0cd9afa75518670bb75f954a", "fusion_lat": 0.0, "fusion_lon": 0.0, "lon": -77.00592216666666, "is_disabled": 0, "bike_id": "fe44bb9e0cd9afa75518670bb75f954a", "is_reserved": 0, "rental_uris": {"android": "https://dc.lft.to/lastmile_qr_scan", "ios": "https://dc.lft.to/lastmile_qr_scan"}, "lat": 38.90571116666667}, {"type": "electric_scooter", "name": "52469b9e080a5b1a1c56a3d9436979ed", "fusion_lat": 0.0, "fusion_lon": 0.0, "lon": -77.03423533333333, "is_disabled": 0, "bike_id": "52469b9e080a5b1a1c56a3d9436979ed", "is_reserved": 0, "rental_uris": {"android": "https://dc.lft.to/lastmile_qr_scan", "ios": "https://dc.lft.to/lastmile_qr_scan"}, "lat": 38.9025135}, {"type": "electric_scooter", "name": "b70ee0ae77b919d2d4c13fdd7ea3eab9", "fusion_lat": 0.0, "fusion_lon": 0.0, "lon": -77.0432805, "is_disabled": 0, "bike_id": "b70ee0ae77b919d2d4c13fdd7ea3eab9", "is_reserved": 0, "rental_uris": {"android": "https://dc.lft.to/lastmile_qr_scan", "ios": "https://dc.lft.to/lastmile_qr_scan"}, "lat": 38.9222435}, {"type": "electric_scooter", "name": "f163232cc3ed05ce47033dcb4075c646", "fusion_lat": 0.0, "fusion_lon": 0.0, "lon": -77.04398916666666, "is_disabled": 0, "bike_id": "f163232cc3ed05ce47033dcb4075c646", "is_reserved": 0, "rental_uris": {"android": "https://dc.lft.to/lastmile_qr_scan", "ios": "https://dc.lft.to/lastmile_qr_scan"}, "lat": 38.9206055}, {"type": "electric_scooter", "name": "23e87267c1b6a0139ddbc8824533354d", "fusion_lat": 0.0, "fusion_lon": 0.0, "lon": -77.00554483333333, "is_disabled": 0, "bike_id": "23e87267c1b6a0139ddbc8824533354d", "is_reserved": 0, "rental_uris": {"android": "https://dc.lft.to/lastmile_qr_scan", "ios": "https://dc.lft.to/lastmile_qr_scan"}, "lat": 38.876405166666665}, {"type": "electric_scooter", "name": "0c4630bdc87696bfb309da44d29c6b62", "fusion_lat": 0.0, "fusion_lon": 0.0, "lon": -77.00589933333333, "is_disabled": 0, "bike_id": "0c4630bdc87696bfb309da44d29c6b62", "is_reserved": 0, "rental_uris": {"android": "https://dc.lft.to/lastmile_qr_scan", "ios": "https://dc.lft.to/lastmile_qr_scan"}, "lat": 38.905649333333336}, {"type": "electric_scooter", "name": "114d07934939ffa273d06e4b2d0475da", "fusion_lat": 0.0, "fusion_lon": 0.0, "lon": -77.025066, "is_disabled": 0, "bike_id": "114d07934939ffa273d06e4b2d0475da", "is_reserved": 0, "rental_uris": {"android": "https://dc.lft.to/lastmile_qr_scan", "ios": "https://dc.lft.to/lastmile_qr_scan"}, "lat": 38.93547983333333}, {"type": "electric_bike", "name": "36b6d6fa7d5d748bf99af855fc28e990", "fusion_lat": 0.0, "fusion_lon": 0.0, "lon": -77.12673133333334, "is_disabled": 0, "bike_id": "36b6d6fa7d5d748bf99af855fc28e990", "is_reserved": 0, "rental_uris": {"android": "https://dc.lft.to/lastmile_qr_scan", "ios": "https://dc.lft.to/lastmile_qr_scan"}, "lat": 38.81919833333333}, {"type": "electric_bike", "name": "137e71084edd1712040c3123e59c4794", "fusion_lat": 0.0, "fusion_lon": 0.0, "lon": -77.0853105, "is_disabled": 0, "bike_id": "137e71084edd1712040c3123e59c4794", "is_reserved": 0, "rental_uris": {"android": "https://dc.lft.to/lastmile_qr_scan", "ios": "https://dc.lft.to/lastmile_qr_scan"}, "lat": 38.85652916666667}, {"type": "electric_scooter", "name": "550cd872ddf587e2e3494f32387486c0", "fusion_lat": 0.0, "fusion_lon": 0.0, "lon": -77.03426716666667, "is_disabled": 0, "bike_id": "550cd872ddf587e2e3494f32387486c0", "is_reserved": 0, "rental_uris": {"android": "https://dc.lft.to/lastmile_qr_scan", "ios": "https://dc.lft.to/lastmile_qr_scan"}, "lat": 38.90973733333333}, {"type": "electric_scooter", "name": "2b11ff241dec8fd8968c15ee734af456", "fusion_lat": 0.0, "fusion_lon": 0.0, "lon": -77.03190416666666, "is_disabled": 0, "bike_id": "2b11ff241dec8fd8968c15ee734af456", "is_reserved": 0, "rental_uris": {"android": "https://dc.lft.to/lastmile_qr_scan", "ios": "https://dc.lft.to/lastmile_qr_scan"}, "lat": 38.913091333333334}, {"type": "electric_scooter", "name": "c8317c24c130f3f0f046f06437907af2", "fusion_lat": 0.0, "fusion_lon": 0.0, "lon": -77.03932366666666, "is_disabled": 0, "bike_id": "c8317c24c130f3f0f046f06437907af2", "is_reserved": 0, "rental_uris": {"android": "https://dc.lft.to/lastmile_qr_scan", "ios": "https://dc.lft.to/lastmile_qr_scan"}, "lat": 38.913962}, {"type": "electric_bike", "name": "ce406469cd37482dcfa9455d7f73fca1", "fusion_lat": 0.0, "fusion_lon": 0.0, "lon": -76.97324633333334, "is_disabled": 0, "bike_id": "ce406469cd37482dcfa9455d7f73fca1", "is_reserved": 0, "rental_uris": {"android": "https://dc.lft.to/lastmile_qr_scan", "ios": "https://dc.lft.to/lastmile_qr_scan"}, "lat": 38.85782666666667}, {"type": "electric_scooter", "name": "fa1d5d722403cf0c665409d577b65eaf", "fusion_lat": 0.0, "fusion_lon": 0.0, "lon": -77.062966, "is_disabled": 0, "bike_id": "fa1d5d722403cf0c665409d577b65eaf", "is_reserved": 0, "rental_uris": {"android": "https://dc.lft.to/lastmile_qr_scan", "ios": "https://dc.lft.to/lastmile_qr_scan"}, "lat": 38.905995}, {"type": "electric_scooter", "name": "01f88721c1014ac0e89cfdc9bba143d4", "fusion_lat": 0.0, "fusion_lon": 0.0, "lon": -77.00162633333333, "is_disabled": 0, "bike_id": "01f88721c1014ac0e89cfdc9bba143d4", "is_reserved": 0, "rental_uris": {"android": "https://dc.lft.to/lastmile_qr_scan", "ios": "https://dc.lft.to/lastmile_qr_scan"}, "lat": 38.9073785}, {"type": "electric_scooter", "name": "57428f52c81e374afe66684abb894a73", "fusion_lat": 0.0, "fusion_lon": 0.0, "lon": -77.02986166666666, "is_disabled": 0, "bike_id": "57428f52c81e374afe66684abb894a73", "is_reserved": 0, "rental_uris": {"android": "https://dc.lft.to/lastmile_qr_scan", "ios": "https://dc.lft.to/lastmile_qr_scan"}, "lat": 38.9072125}, {"type": "electric_scooter", "name": "d5b8fdd056a9e133667b95a2d37e7bcf", "fusion_lat": 0.0, "fusion_lon": 0.0, "lon": -76.99445866666667, "is_disabled": 0, "bike_id": "d5b8fdd056a9e133667b95a2d37e7bcf", "is_reserved": 0, "rental_uris": {"android": "https://dc.lft.to/lastmile_qr_scan", "ios": "https://dc.lft.to/lastmile_qr_scan"}, "lat": 38.8276745}, {"type": "electric_scooter", "name": "e058e1190186ea41ca5f91a94aa27770", "fusion_lat": 0.0, "fusion_lon": 0.0, "lon": -76.983794, "is_disabled": 0, "bike_id": "e058e1190186ea41ca5f91a94aa27770", "is_reserved": 0, "rental_uris": {"android": "https://dc.lft.to/lastmile_qr_scan", "ios": "https://dc.lft.to/lastmile_qr_scan"}, "lat": 38.9128035}, {"type": "electric_scooter", "name": "280f4420b12207d97823b035bc666932", "fusion_lat": 0.0, "fusion_lon": 0.0, "lon": -77.03657416666667, "is_disabled": 0, "bike_id": "280f4420b12207d97823b035bc666932", "is_reserved": 0, "rental_uris": {"android": "https://dc.lft.to/lastmile_qr_scan", "ios": "https://dc.lft.to/lastmile_qr_scan"}, "lat": 38.936259666666665}, {"type": "electric_scooter", "name": "41807c08fbd570388c8ea845bfa34d40", "fusion_lat": 0.0, "fusion_lon": 0.0, "lon": -77.011816, "is_disabled": 0, "bike_id": "41807c08fbd570388c8ea845bfa34d40", "is_reserved": 0, "rental_uris": {"android": "https://dc.lft.to/lastmile_qr_scan", "ios": "https://dc.lft.to/lastmile_qr_scan"}, "lat": 38.90026966666667}, {"type": "electric_scooter", "name": "d5a6187683bc6d7e55b47296f13a9269", "fusion_lat": 0.0, "fusion_lon": 0.0, "lon": -77.0371575, "is_disabled": 0, "bike_id": "d5a6187683bc6d7e55b47296f13a9269", "is_reserved": 0, "rental_uris": {"android": "https://dc.lft.to/lastmile_qr_scan", "ios": "https://dc.lft.to/lastmile_qr_scan"}, "lat": 38.914863833333335}, {"type": "electric_scooter", "name": "55ca799b71eb5f7a4906e90a8cca5a96", "fusion_lat": 0.0, "fusion_lon": 0.0, "lon": -77.03048833333334, "is_disabled": 0, "bike_id": "55ca799b71eb5f7a4906e90a8cca5a96", "is_reserved": 0, "rental_uris": {"android": "https://dc.lft.to/lastmile_qr_scan", "ios": "https://dc.lft.to/lastmile_qr_scan"}, "lat": 38.9903105}, {"type": "electric_scooter", "name": "4c25fb34e64eef10cad00421fbb110f8", "fusion_lat": 0.0, "fusion_lon": 0.0, "lon": -77.02571583333334, "is_disabled": 0, "bike_id": "4c25fb34e64eef10cad00421fbb110f8", "is_reserved": 0, "rental_uris": {"android": "https://dc.lft.to/lastmile_qr_scan", "ios": "https://dc.lft.to/lastmile_qr_scan"}, "lat": 38.91257816666667}, {"type": "electric_scooter", "name": "0204b801dfd9e0ddc9f5d5c166392bbb", "fusion_lat": 0.0, "fusion_lon": 0.0, "lon": -77.0570115, "is_disabled": 0, "bike_id": "0204b801dfd9e0ddc9f5d5c166392bbb", "is_reserved": 0, "rental_uris": {"android": "https://dc.lft.to/lastmile_qr_scan", "ios": "https://dc.lft.to/lastmile_qr_scan"}, "lat": 38.937132166666665}, {"type": "electric_scooter", "name": "f9579eb747c4dde84b245d8c55727130", "fusion_lat": 0.0, "fusion_lon": 0.0, "lon": -77.055142, "is_disabled": 0, "bike_id": "f9579eb747c4dde84b245d8c55727130", "is_reserved": 0, "rental_uris": {"android": "https://dc.lft.to/lastmile_qr_scan", "ios": "https://dc.lft.to/lastmile_qr_scan"}, "lat": 38.9283725}, {"type": "electric_scooter", "name": "592d29d3d17252333c8e153010cc8f98", "fusion_lat": 0.0, "fusion_lon": 0.0, "lon": -77.03097016666666, "is_disabled": 0, "bike_id": "592d29d3d17252333c8e153010cc8f98", "is_reserved": 0, "rental_uris": {"android": "https://dc.lft.to/lastmile_qr_scan", "ios": "https://dc.lft.to/lastmile_qr_scan"}, "lat": 38.89536916666667}, {"type": "electric_scooter", "name": "3fb7d561c09fd9a44149c1250416e2f1", "fusion_lat": 0.0, "fusion_lon": 0.0, "lon": -77.00424233333334, "is_disabled": 0, "bike_id": "3fb7d561c09fd9a44149c1250416e2f1", "is_reserved": 0, "rental_uris": {"android": "https://dc.lft.to/lastmile_qr_scan", "ios": "https://dc.lft.to/lastmile_qr_scan"}, "lat": 38.929556}, {"type": "electric_scooter", "name": "2ab0f4cd144fc5765847b9101bb0390a", "fusion_lat": 0.0, "fusion_lon": 0.0, "lon": -77.02979816666667, "is_disabled": 0, "bike_id": "2ab0f4cd144fc5765847b9101bb0390a", "is_reserved": 0, "rental_uris": {"android": "https://dc.lft.to/lastmile_qr_scan", "ios": "https://dc.lft.to/lastmile_qr_scan"}, "lat": 38.926447833333334}, {"type": "electric_scooter", "name": "527d8729db6b42f474e3c71fb143cb0a", "fusion_lat": 0.0, "fusion_lon": 0.0, "lon": -77.02546783333334, "is_disabled": 0, "bike_id": "527d8729db6b42f474e3c71fb143cb0a", "is_reserved": 0, "rental_uris": {"android": "https://dc.lft.to/lastmile_qr_scan", "ios": "https://dc.lft.to/lastmile_qr_scan"}, "lat": 38.93517}, {"type": "electric_scooter", "name": "47bb8c97af81da628b511f79aaed172f", "fusion_lat": 0.0, "fusion_lon": 0.0, "lon": -77.03656016666666, "is_disabled": 0, "bike_id": "47bb8c97af81da628b511f79aaed172f", "is_reserved": 0, "rental_uris": {"android": "https://dc.lft.to/lastmile_qr_scan", "ios": "https://dc.lft.to/lastmile_qr_scan"}, "lat": 38.91066133333333}, {"type": "electric_scooter", "name": "55861d7493c3fdab0b1cf3c0fcf32b56", "fusion_lat": 0.0, "fusion_lon": 0.0, "lon": -77.02279566666667, "is_disabled": 0, "bike_id": "55861d7493c3fdab0b1cf3c0fcf32b56", "is_reserved": 0, "rental_uris": {"android": "https://dc.lft.to/lastmile_qr_scan", "ios": "https://dc.lft.to/lastmile_qr_scan"}, "lat": 38.89838966666667}, {"type": "electric_scooter", "name": "c2a06259dcc248e7d9f7f87158042f31", "fusion_lat": 0.0, "fusion_lon": 0.0, "lon": -76.9991005, "is_disabled": 0, "bike_id": "c2a06259dcc248e7d9f7f87158042f31", "is_reserved": 0, "rental_uris": {"android": "https://dc.lft.to/lastmile_qr_scan", "ios": "https://dc.lft.to/lastmile_qr_scan"}, "lat": 38.924569166666664}, {"type": "electric_scooter", "name": "bf48deafb4d7b9736d18b8932f2ed5a6", "fusion_lat": 0.0, "fusion_lon": 0.0, "lon": -77.04294266666666, "is_disabled": 0, "bike_id": "bf48deafb4d7b9736d18b8932f2ed5a6", "is_reserved": 0, "rental_uris": {"android": "https://dc.lft.to/lastmile_qr_scan", "ios": "https://dc.lft.to/lastmile_qr_scan"}, "lat": 38.931764666666666}, {"type": "electric_scooter", "name": "1cb0e43fced4efb4cfc017a8e468092f", "fusion_lat": 0.0, "fusion_lon": 0.0, "lon": -77.0044485, "is_disabled": 0, "bike_id": "1cb0e43fced4efb4cfc017a8e468092f", "is_reserved": 0, "rental_uris": {"android": "https://dc.lft.to/lastmile_qr_scan", "ios": "https://dc.lft.to/lastmile_qr_scan"}, "lat": 38.8782855}, {"type": "electric_scooter", "name": "59c61680a7ffc0c6f4c2a85860d9185e", "fusion_lat": 0.0, "fusion_lon": 0.0, "lon": -77.01988366666667, "is_disabled": 0, "bike_id": "59c61680a7ffc0c6f4c2a85860d9185e", "is_reserved": 0, "rental_uris": {"android": "https://dc.lft.to/lastmile_qr_scan", "ios": "https://dc.lft.to/lastmile_qr_scan"}, "lat": 38.87603883333333}, {"type": "electric_scooter", "name": "6a583ff9d7768bf0371789577ea91990", "fusion_lat": 0.0, "fusion_lon": 0.0, "lon": -77.0044805, "is_disabled": 0, "bike_id": "6a583ff9d7768bf0371789577ea91990", "is_reserved": 0, "rental_uris": {"android": "https://dc.lft.to/lastmile_qr_scan", "ios": "https://dc.lft.to/lastmile_qr_scan"}, "lat": 38.911927}, {"type": "electric_scooter", "name": "07402b01ed334e6751b29c723eeaae81", "fusion_lat": 0.0, "fusion_lon": 0.0, "lon": -77.0395925, "is_disabled": 0, "bike_id": "07402b01ed334e6751b29c723eeaae81", "is_reserved": 0, "rental_uris": {"android": "https://dc.lft.to/lastmile_qr_scan", "ios": "https://dc.lft.to/lastmile_qr_scan"}, "lat": 38.892418666666664}, {"type": "electric_scooter", "name": "3dff7091ce71bb2dc1aae2465ebea09f", "fusion_lat": 0.0, "fusion_lon": 0.0, "lon": -76.99741133333333, "is_disabled": 0, "bike_id": "3dff7091ce71bb2dc1aae2465ebea09f", "is_reserved": 0, "rental_uris": {"android": "https://dc.lft.to/lastmile_qr_scan", "ios": "https://dc.lft.to/lastmile_qr_scan"}, "lat": 38.900295166666666}, {"type": "electric_scooter", "name": "df61c9cf7fa80cbf1cdc091bcf1a1d3e", "fusion_lat": 0.0, "fusion_lon": 0.0, "lon": -77.01093016666667, "is_disabled": 0, "bike_id": "df61c9cf7fa80cbf1cdc091bcf1a1d3e", "is_reserved": 0, "rental_uris": {"android": "https://dc.lft.to/lastmile_qr_scan", "ios": "https://dc.lft.to/lastmile_qr_scan"}, "lat": 38.91629233333333}, {"type": "electric_bike", "name": "44283aa846a733e96daf260876f9160c", "fusion_lat": 0.0, "fusion_lon": 0.0, "lon": -77.12840983333334, "is_disabled": 0, "bike_id": "44283aa846a733e96daf260876f9160c", "is_reserved": 0, "rental_uris": {"android": "https://dc.lft.to/lastmile_qr_scan", "ios": "https://dc.lft.to/lastmile_qr_scan"}, "lat": 38.800533}, {"type": "electric_scooter", "name": "68fd9ce8e77fb4c9c8c739bc91efed59", "fusion_lat": 0.0, "fusion_lon": 0.0, "lon": -77.0443965, "is_disabled": 0, "bike_id": "68fd9ce8e77fb4c9c8c739bc91efed59", "is_reserved": 0, "rental_uris": {"android": "https://dc.lft.to/lastmile_qr_scan", "ios": "https://dc.lft.to/lastmile_qr_scan"}, "lat": 38.922274333333334}, {"type": "electric_bike", "name": "e800bc3ff9b15413e0387331b34fd055", "fusion_lat": 0.0, "fusion_lon": 0.0, "lon": -77.1140075, "is_disabled": 0, "bike_id": "e800bc3ff9b15413e0387331b34fd055", "is_reserved": 0, "rental_uris": {"android": "https://dc.lft.to/lastmile_qr_scan", "ios": "https://dc.lft.to/lastmile_qr_scan"}, "lat": 38.873238}, {"type": "electric_scooter", "name": "64e7f24d2fe83ca0a06826d1e9f9c128", "fusion_lat": 0.0, "fusion_lon": 0.0, "lon": -77.0209565, "is_disabled": 0, "bike_id": "64e7f24d2fe83ca0a06826d1e9f9c128", "is_reserved": 0, "rental_uris": {"android": "https://dc.lft.to/lastmile_qr_scan", "ios": "https://dc.lft.to/lastmile_qr_scan"}, "lat": 38.93010833333334}, {"type": "electric_scooter", "name": "da5ab81f9752f8e9db0a3edc2111915f", "fusion_lat": 0.0, "fusion_lon": 0.0, "lon": -77.03671016666667, "is_disabled": 0, "bike_id": "da5ab81f9752f8e9db0a3edc2111915f", "is_reserved": 0, "rental_uris": {"android": "https://dc.lft.to/lastmile_qr_scan", "ios": "https://dc.lft.to/lastmile_qr_scan"}, "lat": 38.918114333333335}, {"type": "electric_scooter", "name": "c6b27e9b56fbda217d6fa14aa141f74d", "fusion_lat": 0.0, "fusion_lon": 0.0, "lon": -77.04331166666667, "is_disabled": 0, "bike_id": "c6b27e9b56fbda217d6fa14aa141f74d", "is_reserved": 0, "rental_uris": {"android": "https://dc.lft.to/lastmile_qr_scan", "ios": "https://dc.lft.to/lastmile_qr_scan"}, "lat": 38.934100666666666}, {"type": "electric_scooter", "name": "fd7afcca311e3f8ce25a4ba5ebdc43f7", "fusion_lat": 0.0, "fusion_lon": 0.0, "lon": -77.0220715, "is_disabled": 0, "bike_id": "fd7afcca311e3f8ce25a4ba5ebdc43f7", "is_reserved": 0, "rental_uris": {"android": "https://dc.lft.to/lastmile_qr_scan", "ios": "https://dc.lft.to/lastmile_qr_scan"}, "lat": 38.91438733333333}, {"type": "electric_scooter", "name": "690c3d5d71fb9f2808a5f6dc008281ed", "fusion_lat": 0.0, "fusion_lon": 0.0, "lon": -77.00624566666667, "is_disabled": 0, "bike_id": "690c3d5d71fb9f2808a5f6dc008281ed", "is_reserved": 0, "rental_uris": {"android": "https://dc.lft.to/lastmile_qr_scan", "ios": "https://dc.lft.to/lastmile_qr_scan"}, "lat": 38.87192733333333}, {"type": "electric_scooter", "name": "d7bd4737abfaaa8144b92ffc56945e96", "fusion_lat": 0.0, "fusion_lon": 0.0, "lon": -77.0488605, "is_disabled": 0, "bike_id": "d7bd4737abfaaa8144b92ffc56945e96", "is_reserved": 0, "rental_uris": {"android": "https://dc.lft.to/lastmile_qr_scan", "ios": "https://dc.lft.to/lastmile_qr_scan"}, "lat": 38.910574833333335}, {"type": "electric_scooter", "name": "2885f447d6290b2e0a9551642fd4a9fc", "fusion_lat": 0.0, "fusion_lon": 0.0, "lon": -77.02295083333334, "is_disabled": 0, "bike_id": "2885f447d6290b2e0a9551642fd4a9fc", "is_reserved": 0, "rental_uris": {"android": "https://dc.lft.to/lastmile_qr_scan", "ios": "https://dc.lft.to/lastmile_qr_scan"}, "lat": 38.916985333333336}, {"type": "electric_scooter", "name": "1b39aea466bfce9b7916bfd68f76e692", "fusion_lat": 0.0, "fusion_lon": 0.0, "lon": -77.04873583333334, "is_disabled": 0, "bike_id": "1b39aea466bfce9b7916bfd68f76e692", "is_reserved": 0, "rental_uris": {"android": "https://dc.lft.to/lastmile_qr_scan", "ios": "https://dc.lft.to/lastmile_qr_scan"}, "lat": 38.912636166666665}, {"type": "electric_scooter", "name": "6d5172980c49361fbc2474db4b2037f0", "fusion_lat": 0.0, "fusion_lon": 0.0, "lon": -76.98368866666667, "is_disabled": 0, "bike_id": "6d5172980c49361fbc2474db4b2037f0", "is_reserved": 0, "rental_uris": {"android": "https://dc.lft.to/lastmile_qr_scan", "ios": "https://dc.lft.to/lastmile_qr_scan"}, "lat": 38.89139}, {"type": "electric_scooter", "name": "72ad75f0603307908619b71cc0b1ea3b", "fusion_lat": 0.0, "fusion_lon": 0.0, "lon": -77.06694683333333, "is_disabled": 0, "bike_id": "72ad75f0603307908619b71cc0b1ea3b", "is_reserved": 0, "rental_uris": {"android": "https://dc.lft.to/lastmile_qr_scan", "ios": "https://dc.lft.to/lastmile_qr_scan"}, "lat": 38.95009433333333}, {"type": "electric_scooter", "name": "76cea4dfef4bbdd7639ac8ca8b41687e", "fusion_lat": 0.0, "fusion_lon": 0.0, "lon": -77.01800616666667, "is_disabled": 0, "bike_id": "76cea4dfef4bbdd7639ac8ca8b41687e", "is_reserved": 0, "rental_uris": {"android": "https://dc.lft.to/lastmile_qr_scan", "ios": "https://dc.lft.to/lastmile_qr_scan"}, "lat": 38.91940966666667}, {"type": "electric_scooter", "name": "6769e2ea48f1907db3a677e5bfafaa22", "fusion_lat": 0.0, "fusion_lon": 0.0, "lon": -77.02189933333334, "is_disabled": 0, "bike_id": "6769e2ea48f1907db3a677e5bfafaa22", "is_reserved": 0, "rental_uris": {"android": "https://dc.lft.to/lastmile_qr_scan", "ios": "https://dc.lft.to/lastmile_qr_scan"}, "lat": 38.90546633333334}, {"type": "electric_scooter", "name": "5f7249c1ac0ed9946ba7ed1cc9f61103", "fusion_lat": 0.0, "fusion_lon": 0.0, "lon": -77.03351166666667, "is_disabled": 0, "bike_id": "5f7249c1ac0ed9946ba7ed1cc9f61103", "is_reserved": 0, "rental_uris": {"android": "https://dc.lft.to/lastmile_qr_scan", "ios": "https://dc.lft.to/lastmile_qr_scan"}, "lat": 38.923448666666665}, {"type": "electric_scooter", "name": "4101964e8da1a79a87e9400b4659614a", "fusion_lat": 0.0, "fusion_lon": 0.0, "lon": -76.98337216666667, "is_disabled": 0, "bike_id": "4101964e8da1a79a87e9400b4659614a", "is_reserved": 0, "rental_uris": {"android": "https://dc.lft.to/lastmile_qr_scan", "ios": "https://dc.lft.to/lastmile_qr_scan"}, "lat": 38.89541966666667}, {"type": "electric_scooter", "name": "9eac25e6aed301534f9ae719e0468296", "fusion_lat": 0.0, "fusion_lon": 0.0, "lon": -77.01794, "is_disabled": 0, "bike_id": "9eac25e6aed301534f9ae719e0468296", "is_reserved": 0, "rental_uris": {"android": "https://dc.lft.to/lastmile_qr_scan", "ios": "https://dc.lft.to/lastmile_qr_scan"}, "lat": 38.91989183333333}, {"type": "electric_scooter", "name": "158563c2d9257d8759d105665cf681a3", "fusion_lat": 0.0, "fusion_lon": 0.0, "lon": -77.0034785, "is_disabled": 0, "bike_id": "158563c2d9257d8759d105665cf681a3", "is_reserved": 0, "rental_uris": {"android": "https://dc.lft.to/lastmile_qr_scan", "ios": "https://dc.lft.to/lastmile_qr_scan"}, "lat": 38.91619333333333}, {"type": "electric_scooter", "name": "7b92591d1b9069c8d97120006f7c5eba", "fusion_lat": 0.0, "fusion_lon": 0.0, "lon": -77.00741183333334, "is_disabled": 0, "bike_id": "7b92591d1b9069c8d97120006f7c5eba", "is_reserved": 0, "rental_uris": {"android": "https://dc.lft.to/lastmile_qr_scan", "ios": "https://dc.lft.to/lastmile_qr_scan"}, "lat": 38.904706166666664}, {"type": "electric_scooter", "name": "385c7f3d744f641fcd7f43d0334fdc78", "fusion_lat": 0.0, "fusion_lon": 0.0, "lon": -77.02734183333334, "is_disabled": 0, "bike_id": "385c7f3d744f641fcd7f43d0334fdc78", "is_reserved": 0, "rental_uris": {"android": "https://dc.lft.to/lastmile_qr_scan", "ios": "https://dc.lft.to/lastmile_qr_scan"}, "lat": 38.924782}, {"type": "electric_scooter", "name": "4c2ae424d14ebe1c7ff2609a61ba7f1b", "fusion_lat": 0.0, "fusion_lon": 0.0, "lon": -77.041188, "is_disabled": 0, "bike_id": "4c2ae424d14ebe1c7ff2609a61ba7f1b", "is_reserved": 0, "rental_uris": {"android": "https://dc.lft.to/lastmile_qr_scan", "ios": "https://dc.lft.to/lastmile_qr_scan"}, "lat": 38.9211155}, {"type": "electric_bike", "name": "0de25f20f93bac6ee8ace4bad8aa38cb", "fusion_lat": 0.0, "fusion_lon": 0.0, "lon": -76.98182983333334, "is_disabled": 0, "bike_id": "0de25f20f93bac6ee8ace4bad8aa38cb", "is_reserved": 0, "rental_uris": {"android": "https://dc.lft.to/lastmile_qr_scan", "ios": "https://dc.lft.to/lastmile_qr_scan"}, "lat": 38.88402816666667}, {"type": "electric_scooter", "name": "abcb74c1f36f672cc69fe087760f55df", "fusion_lat": 0.0, "fusion_lon": 0.0, "lon": -77.06289533333333, "is_disabled": 0, "bike_id": "abcb74c1f36f672cc69fe087760f55df", "is_reserved": 0, "rental_uris": {"android": "https://dc.lft.to/lastmile_qr_scan", "ios": "https://dc.lft.to/lastmile_qr_scan"}, "lat": 38.90458433333333}, {"type": "electric_scooter", "name": "e4d05c0e6be0fefc51e32a5178912b58", "fusion_lat": 0.0, "fusion_lon": 0.0, "lon": -76.990304, "is_disabled": 0, "bike_id": "e4d05c0e6be0fefc51e32a5178912b58", "is_reserved": 0, "rental_uris": {"android": "https://dc.lft.to/lastmile_qr_scan", "ios": "https://dc.lft.to/lastmile_qr_scan"}, "lat": 38.88874366666667}, {"type": "electric_scooter", "name": "f42293ae241683809a20b08981c400a4", "fusion_lat": 0.0, "fusion_lon": 0.0, "lon": -77.0038495, "is_disabled": 0, "bike_id": "f42293ae241683809a20b08981c400a4", "is_reserved": 0, "rental_uris": {"android": "https://dc.lft.to/lastmile_qr_scan", "ios": "https://dc.lft.to/lastmile_qr_scan"}, "lat": 38.876028}, {"type": "electric_scooter", "name": "3f954f62566459a904be1bd0d7f0bf58", "fusion_lat": 0.0, "fusion_lon": 0.0, "lon": -77.016446, "is_disabled": 0, "bike_id": "3f954f62566459a904be1bd0d7f0bf58", "is_reserved": 0, "rental_uris": {"android": "https://dc.lft.to/lastmile_qr_scan", "ios": "https://dc.lft.to/lastmile_qr_scan"}, "lat": 38.9158845}, {"type": "electric_scooter", "name": "259f34d2ce9161d55b63374ff039ed9d", "fusion_lat": 0.0, "fusion_lon": 0.0, "lon": -77.00478216666667, "is_disabled": 0, "bike_id": "259f34d2ce9161d55b63374ff039ed9d", "is_reserved": 0, "rental_uris": {"android": "https://dc.lft.to/lastmile_qr_scan", "ios": "https://dc.lft.to/lastmile_qr_scan"}, "lat": 38.8745715}, {"type": "electric_scooter", "name": "10410edcb48cdc05ae956ab77faede87", "fusion_lat": 0.0, "fusion_lon": 0.0, "lon": -77.0317555, "is_disabled": 0, "bike_id": "10410edcb48cdc05ae956ab77faede87", "is_reserved": 0, "rental_uris": {"android": "https://dc.lft.to/lastmile_qr_scan", "ios": "https://dc.lft.to/lastmile_qr_scan"}, "lat": 38.924893833333336}, {"type": "electric_scooter", "name": "85ddb12e3ea220bb71c8626b657f6a80", "fusion_lat": 0.0, "fusion_lon": 0.0, "lon": -77.07199783333333, "is_disabled": 0, "bike_id": "85ddb12e3ea220bb71c8626b657f6a80", "is_reserved": 0, "rental_uris": {"android": "https://dc.lft.to/lastmile_qr_scan", "ios": "https://dc.lft.to/lastmile_qr_scan"}, "lat": 38.912569166666664}, {"type": "electric_scooter", "name": "0084c5b0079005251bcbe87bbc04ac47", "fusion_lat": 0.0, "fusion_lon": 0.0, "lon": -77.02188733333334, "is_disabled": 0, "bike_id": "0084c5b0079005251bcbe87bbc04ac47", "is_reserved": 0, "rental_uris": {"android": "https://dc.lft.to/lastmile_qr_scan", "ios": "https://dc.lft.to/lastmile_qr_scan"}, "lat": 38.9019405}, {"type": "electric_scooter", "name": "0a695bf1992fc3ff05d92cff91e8dff2", "fusion_lat": 0.0, "fusion_lon": 0.0, "lon": -77.0234965, "is_disabled": 0, "bike_id": "0a695bf1992fc3ff05d92cff91e8dff2", "is_reserved": 0, "rental_uris": {"android": "https://dc.lft.to/lastmile_qr_scan", "ios": "https://dc.lft.to/lastmile_qr_scan"}, "lat": 38.881277}, {"type": "electric_scooter", "name": "2fbaabb0cc2e620841d9bf1a2b8c1f79", "fusion_lat": 0.0, "fusion_lon": 0.0, "lon": -77.03660966666666, "is_disabled": 0, "bike_id": "2fbaabb0cc2e620841d9bf1a2b8c1f79", "is_reserved": 0, "rental_uris": {"android": "https://dc.lft.to/lastmile_qr_scan", "ios": "https://dc.lft.to/lastmile_qr_scan"}, "lat": 38.92090966666667}, {"type": "electric_scooter", "name": "728b23a42d83063030801923ffeba51b", "fusion_lat": 0.0, "fusion_lon": 0.0, "lon": -77.01841633333333, "is_disabled": 0, "bike_id": "728b23a42d83063030801923ffeba51b", "is_reserved": 0, "rental_uris": {"android": "https://dc.lft.to/lastmile_qr_scan", "ios": "https://dc.lft.to/lastmile_qr_scan"}, "lat": 38.92143216666667}, {"type": "electric_scooter", "name": "d96247ed2340536c6996487b99391291", "fusion_lat": 0.0, "fusion_lon": 0.0, "lon": -77.01583916666667, "is_disabled": 0, "bike_id": "d96247ed2340536c6996487b99391291", "is_reserved": 0, "rental_uris": {"android": "https://dc.lft.to/lastmile_qr_scan", "ios": "https://dc.lft.to/lastmile_qr_scan"}, "lat": 38.91683733333333}, {"type": "electric_scooter", "name": "505c21d3aa731d926bde51ffa6cd1583", "fusion_lat": 0.0, "fusion_lon": 0.0, "lon": -76.98546166666667, "is_disabled": 0, "bike_id": "505c21d3aa731d926bde51ffa6cd1583", "is_reserved": 0, "rental_uris": {"android": "https://dc.lft.to/lastmile_qr_scan", "ios": "https://dc.lft.to/lastmile_qr_scan"}, "lat": 38.906959}, {"type": "electric_scooter", "name": "e79aaa122d7763c52e9b09fa480d308a", "fusion_lat": 0.0, "fusion_lon": 0.0, "lon": -77.02214933333333, "is_disabled": 0, "bike_id": "e79aaa122d7763c52e9b09fa480d308a", "is_reserved": 0, "rental_uris": {"android": "https://dc.lft.to/lastmile_qr_scan", "ios": "https://dc.lft.to/lastmile_qr_scan"}, "lat": 38.914365333333336}, {"type": "electric_scooter", "name": "edd636e6e01b7d74485c17b2fe39e990", "fusion_lat": 0.0, "fusion_lon": 0.0, "lon": -77.04006733333334, "is_disabled": 0, "bike_id": "edd636e6e01b7d74485c17b2fe39e990", "is_reserved": 0, "rental_uris": {"android": "https://dc.lft.to/lastmile_qr_scan", "ios": "https://dc.lft.to/lastmile_qr_scan"}, "lat": 38.90997983333333}, {"type": "electric_scooter", "name": "7823b7395c349542043787057c9f66e1", "fusion_lat": 0.0, "fusion_lon": 0.0, "lon": -76.98185116666667, "is_disabled": 0, "bike_id": "7823b7395c349542043787057c9f66e1", "is_reserved": 0, "rental_uris": {"android": "https://dc.lft.to/lastmile_qr_scan", "ios": "https://dc.lft.to/lastmile_qr_scan"}, "lat": 38.90579016666667}, {"type": "electric_scooter", "name": "8adc6c5edd77de2ecce8b3b1aaa94e9e", "fusion_lat": 0.0, "fusion_lon": 0.0, "lon": -77.0732535, "is_disabled": 0, "bike_id": "8adc6c5edd77de2ecce8b3b1aaa94e9e", "is_reserved": 0, "rental_uris": {"android": "https://dc.lft.to/lastmile_qr_scan", "ios": "https://dc.lft.to/lastmile_qr_scan"}, "lat": 38.926060666666665}, {"type": "electric_scooter", "name": "7d766186e0a26c2038e5973168ae0318", "fusion_lat": 0.0, "fusion_lon": 0.0, "lon": -77.01990683333334, "is_disabled": 0, "bike_id": "7d766186e0a26c2038e5973168ae0318", "is_reserved": 0, "rental_uris": {"android": "https://dc.lft.to/lastmile_qr_scan", "ios": "https://dc.lft.to/lastmile_qr_scan"}, "lat": 38.93049516666667}, {"type": "electric_scooter", "name": "cb2a6dde296a97ba6aefa49e67212f1b", "fusion_lat": 0.0, "fusion_lon": 0.0, "lon": -77.00208733333334, "is_disabled": 0, "bike_id": "cb2a6dde296a97ba6aefa49e67212f1b", "is_reserved": 0, "rental_uris": {"android": "https://dc.lft.to/lastmile_qr_scan", "ios": "https://dc.lft.to/lastmile_qr_scan"}, "lat": 38.90033616666667}, {"type": "electric_scooter", "name": "3d9f32c761d0e65418a46be0e40f2578", "fusion_lat": 0.0, "fusion_lon": 0.0, "lon": -77.015609, "is_disabled": 0, "bike_id": "3d9f32c761d0e65418a46be0e40f2578", "is_reserved": 0, "rental_uris": {"android": "https://dc.lft.to/lastmile_qr_scan", "ios": "https://dc.lft.to/lastmile_qr_scan"}, "lat": 38.88315166666667}, {"type": "electric_scooter", "name": "3bc23b251876904acbdb9c38a7370294", "fusion_lat": 0.0, "fusion_lon": 0.0, "lon": -77.041677, "is_disabled": 0, "bike_id": "3bc23b251876904acbdb9c38a7370294", "is_reserved": 0, "rental_uris": {"android": "https://dc.lft.to/lastmile_qr_scan", "ios": "https://dc.lft.to/lastmile_qr_scan"}, "lat": 38.91401366666667}, {"type": "electric_scooter", "name": "ba96abd0807dec06b0738b25053c4fd8", "fusion_lat": 0.0, "fusion_lon": 0.0, "lon": -77.0348515, "is_disabled": 0, "bike_id": "ba96abd0807dec06b0738b25053c4fd8", "is_reserved": 0, "rental_uris": {"android": "https://dc.lft.to/lastmile_qr_scan", "ios": "https://dc.lft.to/lastmile_qr_scan"}, "lat": 38.92476633333333}, {"type": "electric_scooter", "name": "dba6dbd7ad532860931b3842d9811a55", "fusion_lat": 0.0, "fusion_lon": 0.0, "lon": -77.02360433333334, "is_disabled": 0, "bike_id": "dba6dbd7ad532860931b3842d9811a55", "is_reserved": 0, "rental_uris": {"android": "https://dc.lft.to/lastmile_qr_scan", "ios": "https://dc.lft.to/lastmile_qr_scan"}, "lat": 38.945239}, {"type": "electric_bike", "name": "69dda0a738946c39743d9b8d098a5316", "fusion_lat": 0.0, "fusion_lon": 0.0, "lon": -76.95061766666667, "is_disabled": 0, "bike_id": "69dda0a738946c39743d9b8d098a5316", "is_reserved": 0, "rental_uris": {"android": "https://dc.lft.to/lastmile_qr_scan", "ios": "https://dc.lft.to/lastmile_qr_scan"}, "lat": 39.08504516666667}, {"type": "electric_scooter", "name": "a7c76f054080f9e2911f3bc7141d532f", "fusion_lat": 0.0, "fusion_lon": 0.0, "lon": -77.01646833333334, "is_disabled": 0, "bike_id": "a7c76f054080f9e2911f3bc7141d532f", "is_reserved": 0, "rental_uris": {"android": "https://dc.lft.to/lastmile_qr_scan", "ios": "https://dc.lft.to/lastmile_qr_scan"}, "lat": 38.903689}, {"type": "electric_scooter", "name": "faab615166fcadb1d1b8e07a75e64cfe", "fusion_lat": 0.0, "fusion_lon": 0.0, "lon": -77.03959066666667, "is_disabled": 0, "bike_id": "faab615166fcadb1d1b8e07a75e64cfe", "is_reserved": 0, "rental_uris": {"android": "https://dc.lft.to/lastmile_qr_scan", "ios": "https://dc.lft.to/lastmile_qr_scan"}, "lat": 38.90143066666667}, {"type": "electric_scooter", "name": "8b9b0532ff01d98b80b8d4a12e8ec5c7", "fusion_lat": 0.0, "fusion_lon": 0.0, "lon": -77.02949, "is_disabled": 0, "bike_id": "8b9b0532ff01d98b80b8d4a12e8ec5c7", "is_reserved": 0, "rental_uris": {"android": "https://dc.lft.to/lastmile_qr_scan", "ios": "https://dc.lft.to/lastmile_qr_scan"}, "lat": 38.9167095}, {"type": "electric_scooter", "name": "c95b59e32423fa55b02dce44b82c5f38", "fusion_lat": 0.0, "fusion_lon": 0.0, "lon": -77.06566366666667, "is_disabled": 0, "bike_id": "c95b59e32423fa55b02dce44b82c5f38", "is_reserved": 0, "rental_uris": {"android": "https://dc.lft.to/lastmile_qr_scan", "ios": "https://dc.lft.to/lastmile_qr_scan"}, "lat": 38.883374333333336}, {"type": "electric_scooter", "name": "355f8fd19cbc263317b81166b91bea49", "fusion_lat": 0.0, "fusion_lon": 0.0, "lon": -77.02278483333333, "is_disabled": 0, "bike_id": "355f8fd19cbc263317b81166b91bea49", "is_reserved": 0, "rental_uris": {"android": "https://dc.lft.to/lastmile_qr_scan", "ios": "https://dc.lft.to/lastmile_qr_scan"}, "lat": 38.89883566666666}, {"type": "electric_bike", "name": "03ddaa76b9392f65b0208b2ea794d00f", "fusion_lat": 0.0, "fusion_lon": 0.0, "lon": -77.00726633333333, "is_disabled": 0, "bike_id": "03ddaa76b9392f65b0208b2ea794d00f", "is_reserved": 0, "rental_uris": {"android": "https://dc.lft.to/lastmile_qr_scan", "ios": "https://dc.lft.to/lastmile_qr_scan"}, "lat": 38.995118833333336}, {"type": "electric_scooter", "name": "b55dfd39be10de50a17c23cbcb212235", "fusion_lat": 0.0, "fusion_lon": 0.0, "lon": -76.99626016666667, "is_disabled": 0, "bike_id": "b55dfd39be10de50a17c23cbcb212235", "is_reserved": 0, "rental_uris": {"android": "https://dc.lft.to/lastmile_qr_scan", "ios": "https://dc.lft.to/lastmile_qr_scan"}, "lat": 38.877359}, {"type": "electric_scooter", "name": "4dda9c4855a185ded4b1d372fbf8a13d", "fusion_lat": 0.0, "fusion_lon": 0.0, "lon": -77.03991616666667, "is_disabled": 0, "bike_id": "4dda9c4855a185ded4b1d372fbf8a13d", "is_reserved": 0, "rental_uris": {"android": "https://dc.lft.to/lastmile_qr_scan", "ios": "https://dc.lft.to/lastmile_qr_scan"}, "lat": 38.898901}, {"type": "electric_scooter", "name": "af91442fca523695a37df93bc787463e", "fusion_lat": 0.0, "fusion_lon": 0.0, "lon": -76.998514, "is_disabled": 0, "bike_id": "af91442fca523695a37df93bc787463e", "is_reserved": 0, "rental_uris": {"android": "https://dc.lft.to/lastmile_qr_scan", "ios": "https://dc.lft.to/lastmile_qr_scan"}, "lat": 38.891884166666664}, {"type": "electric_scooter", "name": "3932b11c9c4d4c2009116bde22d2defc", "fusion_lat": 0.0, "fusion_lon": 0.0, "lon": -77.049044, "is_disabled": 0, "bike_id": "3932b11c9c4d4c2009116bde22d2defc", "is_reserved": 0, "rental_uris": {"android": "https://dc.lft.to/lastmile_qr_scan", "ios": "https://dc.lft.to/lastmile_qr_scan"}, "lat": 38.8972975}, {"type": "electric_bike", "name": "f5ef1ec2fc0f196008f468e6402fd92d", "fusion_lat": 0.0, "fusion_lon": 0.0, "lon": -77.052697, "is_disabled": 0, "bike_id": "f5ef1ec2fc0f196008f468e6402fd92d", "is_reserved": 0, "rental_uris": {"android": "https://dc.lft.to/lastmile_qr_scan", "ios": "https://dc.lft.to/lastmile_qr_scan"}, "lat": 38.94087966666667}, {"type": "electric_scooter", "name": "9115e0d0d9491753b447664e60d1c125", "fusion_lat": 0.0, "fusion_lon": 0.0, "lon": -77.02834683333333, "is_disabled": 0, "bike_id": "9115e0d0d9491753b447664e60d1c125", "is_reserved": 0, "rental_uris": {"android": "https://dc.lft.to/lastmile_qr_scan", "ios": "https://dc.lft.to/lastmile_qr_scan"}, "lat": 38.887318666666665}, {"type": "electric_scooter", "name": "0d4220488dab2f752fd5deebbd37651a", "fusion_lat": 0.0, "fusion_lon": 0.0, "lon": -77.02557166666666, "is_disabled": 0, "bike_id": "0d4220488dab2f752fd5deebbd37651a", "is_reserved": 0, "rental_uris": {"android": "https://dc.lft.to/lastmile_qr_scan", "ios": "https://dc.lft.to/lastmile_qr_scan"}, "lat": 38.95393416666667}, {"type": "electric_scooter", "name": "1fa7c21b7d6da6eece34b5e4dbb904d5", "fusion_lat": 0.0, "fusion_lon": 0.0, "lon": -77.04210633333334, "is_disabled": 0, "bike_id": "1fa7c21b7d6da6eece34b5e4dbb904d5", "is_reserved": 0, "rental_uris": {"android": "https://dc.lft.to/lastmile_qr_scan", "ios": "https://dc.lft.to/lastmile_qr_scan"}, "lat": 38.920511}, {"type": "electric_scooter", "name": "5030476459c927d757e44874731f08e8", "fusion_lat": 0.0, "fusion_lon": 0.0, "lon": -77.02723483333334, "is_disabled": 0, "bike_id": "5030476459c927d757e44874731f08e8", "is_reserved": 0, "rental_uris": {"android": "https://dc.lft.to/lastmile_qr_scan", "ios": "https://dc.lft.to/lastmile_qr_scan"}, "lat": 38.897771}, {"type": "electric_scooter", "name": "cfc0a415a77bad2235afd16c6863d46c", "fusion_lat": 0.0, "fusion_lon": 0.0, "lon": -77.0075305, "is_disabled": 0, "bike_id": "cfc0a415a77bad2235afd16c6863d46c", "is_reserved": 0, "rental_uris": {"android": "https://dc.lft.to/lastmile_qr_scan", "ios": "https://dc.lft.to/lastmile_qr_scan"}, "lat": 38.876544833333334}, {"type": "electric_scooter", "name": "87e9b5edbb6e08ad624de831031c79fc", "fusion_lat": 0.0, "fusion_lon": 0.0, "lon": -76.96525666666666, "is_disabled": 0, "bike_id": "87e9b5edbb6e08ad624de831031c79fc", "is_reserved": 0, "rental_uris": {"android": "https://dc.lft.to/lastmile_qr_scan", "ios": "https://dc.lft.to/lastmile_qr_scan"}, "lat": 38.876299}, {"type": "electric_scooter", "name": "15e34d1fd9c945857bddb0744f68ae32", "fusion_lat": 0.0, "fusion_lon": 0.0, "lon": -77.03572266666667, "is_disabled": 0, "bike_id": "15e34d1fd9c945857bddb0744f68ae32", "is_reserved": 0, "rental_uris": {"android": "https://dc.lft.to/lastmile_qr_scan", "ios": "https://dc.lft.to/lastmile_qr_scan"}, "lat": 38.909578833333335}, {"type": "electric_scooter", "name": "f6316fef874f4b8ef41e42815fca665c", "fusion_lat": 0.0, "fusion_lon": 0.0, "lon": -76.94108433333334, "is_disabled": 0, "bike_id": "f6316fef874f4b8ef41e42815fca665c", "is_reserved": 0, "rental_uris": {"android": "https://dc.lft.to/lastmile_qr_scan", "ios": "https://dc.lft.to/lastmile_qr_scan"}, "lat": 38.893615833333335}, {"type": "electric_scooter", "name": "1de2e177bacf2de4cd34fb866dfdd2a1", "fusion_lat": 0.0, "fusion_lon": 0.0, "lon": -77.02315416666667, "is_disabled": 0, "bike_id": "1de2e177bacf2de4cd34fb866dfdd2a1", "is_reserved": 0, "rental_uris": {"android": "https://dc.lft.to/lastmile_qr_scan", "ios": "https://dc.lft.to/lastmile_qr_scan"}, "lat": 38.917922}, {"type": "electric_bike", "name": "93cf129823c8e751aea774004df5d2c5", "fusion_lat": 0.0, "fusion_lon": 0.0, "lon": -76.97314133333333, "is_disabled": 0, "bike_id": "93cf129823c8e751aea774004df5d2c5", "is_reserved": 0, "rental_uris": {"android": "https://dc.lft.to/lastmile_qr_scan", "ios": "https://dc.lft.to/lastmile_qr_scan"}, "lat": 38.91760716666667}, {"type": "electric_scooter", "name": "b85e25e35184e68ab3c545084dbbfea0", "fusion_lat": 0.0, "fusion_lon": 0.0, "lon": -77.01766683333334, "is_disabled": 0, "bike_id": "b85e25e35184e68ab3c545084dbbfea0", "is_reserved": 0, "rental_uris": {"android": "https://dc.lft.to/lastmile_qr_scan", "ios": "https://dc.lft.to/lastmile_qr_scan"}, "lat": 38.921139}, {"type": "electric_bike", "name": "15b2d6b9b6fd9564460f2a9b9849646c", "fusion_lat": 0.0, "fusion_lon": 0.0, "lon": -77.077511, "is_disabled": 0, "bike_id": "15b2d6b9b6fd9564460f2a9b9849646c", "is_reserved": 0, "rental_uris": {"android": "https://dc.lft.to/lastmile_qr_scan", "ios": "https://dc.lft.to/lastmile_qr_scan"}, "lat": 38.8419275}, {"type": "electric_scooter", "name": "ac5395529d00dbe5abf3f5accfd8c639", "fusion_lat": 0.0, "fusion_lon": 0.0, "lon": -77.01615633333333, "is_disabled": 0, "bike_id": "ac5395529d00dbe5abf3f5accfd8c639", "is_reserved": 0, "rental_uris": {"android": "https://dc.lft.to/lastmile_qr_scan", "ios": "https://dc.lft.to/lastmile_qr_scan"}, "lat": 38.91589033333333}, {"type": "electric_scooter", "name": "1b1715d991530dde42b72b7c73ae5770", "fusion_lat": 0.0, "fusion_lon": 0.0, "lon": -77.053277, "is_disabled": 0, "bike_id": "1b1715d991530dde42b72b7c73ae5770", "is_reserved": 0, "rental_uris": {"android": "https://dc.lft.to/lastmile_qr_scan", "ios": "https://dc.lft.to/lastmile_qr_scan"}, "lat": 38.906498666666664}, {"type": "electric_bike", "name": "44a6f1dab3621b46dedafddb1cb65e51", "fusion_lat": 0.0, "fusion_lon": 0.0, "lon": -76.960863, "is_disabled": 0, "bike_id": "44a6f1dab3621b46dedafddb1cb65e51", "is_reserved": 0, "rental_uris": {"android": "https://dc.lft.to/lastmile_qr_scan", "ios": "https://dc.lft.to/lastmile_qr_scan"}, "lat": 38.91852866666667}, {"type": "electric_scooter", "name": "dc8c6315ee3b0f2979bf80367459efc9", "fusion_lat": 0.0, "fusion_lon": 0.0, "lon": -76.99252016666667, "is_disabled": 0, "bike_id": "dc8c6315ee3b0f2979bf80367459efc9", "is_reserved": 0, "rental_uris": {"android": "https://dc.lft.to/lastmile_qr_scan", "ios": "https://dc.lft.to/lastmile_qr_scan"}, "lat": 38.94067583333333}, {"type": "electric_bike", "name": "fe50010966e657f5b362bbda8af889cf", "fusion_lat": 0.0, "fusion_lon": 0.0, "lon": -77.045981, "is_disabled": 0, "bike_id": "fe50010966e657f5b362bbda8af889cf", "is_reserved": 0, "rental_uris": {"android": "https://dc.lft.to/lastmile_qr_scan", "ios": "https://dc.lft.to/lastmile_qr_scan"}, "lat": 38.93306316666666}, {"type": "electric_scooter", "name": "5e3940f5a1f541c8a29aafe7ef934423", "fusion_lat": 0.0, "fusion_lon": 0.0, "lon": -77.0172465, "is_disabled": 0, "bike_id": "5e3940f5a1f541c8a29aafe7ef934423", "is_reserved": 0, "rental_uris": {"android": "https://dc.lft.to/lastmile_qr_scan", "ios": "https://dc.lft.to/lastmile_qr_scan"}, "lat": 38.90460383333333}, {"type": "electric_scooter", "name": "c4283293b696a482808c1f7c9e337724", "fusion_lat": 0.0, "fusion_lon": 0.0, "lon": -77.01755483333334, "is_disabled": 0, "bike_id": "c4283293b696a482808c1f7c9e337724", "is_reserved": 0, "rental_uris": {"android": "https://dc.lft.to/lastmile_qr_scan", "ios": "https://dc.lft.to/lastmile_qr_scan"}, "lat": 38.87682266666667}, {"type": "electric_scooter", "name": "f177af37b7c67086a289b1a09b0babe2", "fusion_lat": 0.0, "fusion_lon": 0.0, "lon": -77.03934166666667, "is_disabled": 0, "bike_id": "f177af37b7c67086a289b1a09b0babe2", "is_reserved": 0, "rental_uris": {"android": "https://dc.lft.to/lastmile_qr_scan", "ios": "https://dc.lft.to/lastmile_qr_scan"}, "lat": 38.92107883333333}, {"type": "electric_scooter", "name": "9cd5dc72f8ce51e40fbd7df5a5f869b0", "fusion_lat": 0.0, "fusion_lon": 0.0, "lon": -76.92628083333334, "is_disabled": 0, "bike_id": "9cd5dc72f8ce51e40fbd7df5a5f869b0", "is_reserved": 0, "rental_uris": {"android": "https://dc.lft.to/lastmile_qr_scan", "ios": "https://dc.lft.to/lastmile_qr_scan"}, "lat": 38.88372583333334}, {"type": "electric_scooter", "name": "f384948d289e36e93052aa3aa007a49d", "fusion_lat": 0.0, "fusion_lon": 0.0, "lon": -77.03640866666667, "is_disabled": 0, "bike_id": "f384948d289e36e93052aa3aa007a49d", "is_reserved": 0, "rental_uris": {"android": "https://dc.lft.to/lastmile_qr_scan", "ios": "https://dc.lft.to/lastmile_qr_scan"}, "lat": 38.903614}, {"type": "electric_scooter", "name": "e0293278924f7ab8005c2e983a598b81", "fusion_lat": 0.0, "fusion_lon": 0.0, "lon": -77.0258945, "is_disabled": 0, "bike_id": "e0293278924f7ab8005c2e983a598b81", "is_reserved": 0, "rental_uris": {"android": "https://dc.lft.to/lastmile_qr_scan", "ios": "https://dc.lft.to/lastmile_qr_scan"}, "lat": 38.90158783333333}, {"type": "electric_scooter", "name": "ebe971a437cdd7a6a5c3715b05f9dd8c", "fusion_lat": 0.0, "fusion_lon": 0.0, "lon": -76.94888883333333, "is_disabled": 0, "bike_id": "ebe971a437cdd7a6a5c3715b05f9dd8c", "is_reserved": 0, "rental_uris": {"android": "https://dc.lft.to/lastmile_qr_scan", "ios": "https://dc.lft.to/lastmile_qr_scan"}, "lat": 38.895377833333335}, {"type": "electric_scooter", "name": "73dcfb756968095f51bcf4d19960a334", "fusion_lat": 0.0, "fusion_lon": 0.0, "lon": -77.0363545, "is_disabled": 0, "bike_id": "73dcfb756968095f51bcf4d19960a334", "is_reserved": 0, "rental_uris": {"android": "https://dc.lft.to/lastmile_qr_scan", "ios": "https://dc.lft.to/lastmile_qr_scan"}, "lat": 38.93314483333333}, {"type": "electric_scooter", "name": "151a7738eba819f8a9f89379ef3a7d44", "fusion_lat": 0.0, "fusion_lon": 0.0, "lon": -77.047826, "is_disabled": 0, "bike_id": "151a7738eba819f8a9f89379ef3a7d44", "is_reserved": 0, "rental_uris": {"android": "https://dc.lft.to/lastmile_qr_scan", "ios": "https://dc.lft.to/lastmile_qr_scan"}, "lat": 38.908659666666665}, {"type": "electric_scooter", "name": "9a9f9d50b1567acac263773e3c5ff0b7", "fusion_lat": 0.0, "fusion_lon": 0.0, "lon": -77.0250685, "is_disabled": 0, "bike_id": "9a9f9d50b1567acac263773e3c5ff0b7", "is_reserved": 0, "rental_uris": {"android": "https://dc.lft.to/lastmile_qr_scan", "ios": "https://dc.lft.to/lastmile_qr_scan"}, "lat": 38.9196125}, {"type": "electric_scooter", "name": "86b18687ec9518eec6bdcb37f5f89427", "fusion_lat": 0.0, "fusion_lon": 0.0, "lon": -77.01705716666666, "is_disabled": 0, "bike_id": "86b18687ec9518eec6bdcb37f5f89427", "is_reserved": 0, "rental_uris": {"android": "https://dc.lft.to/lastmile_qr_scan", "ios": "https://dc.lft.to/lastmile_qr_scan"}, "lat": 38.87292566666667},