{"data": {"bikes": [{"lat": 38.897124, "is_disabled": 0, "type": "electric_scooter", "lon": -77.0080165, "bike_id": "ea18bcda4550337e3e6047c571a720ad", "fusion_lat": 0.0, "name": "ea18bcda4550337e3e6047c571a720ad", "is_reserved": 0, "rental_uris": {"android": "https://dc.lft.to/lastmile_qr_scan", "ios": "https://dc.lft.to/lastmile_qr_scan"}, "fusion_lon": 0.0}, {"lat": 38.92911683333333, "is_disabled": 0, "type": "electric_scooter", "lon": -77.03260333333333, "bike_id": "7adeb15685fd6406ff42995f2c7750f0", "fusion_lat": 0.0, "name": "7adeb15685fd6406ff42995f2c7750f0", "is_reserved": 0, "rental_uris": {"android": "https://dc.lft.to/lastmile_qr_scan", "ios": "https://dc.lft.to/lastmile_qr_scan"}, "fusion_lon": 0.0}, {"lat": 38.92574033333333, "is_disabled": 0, "type": "electric_scooter", "lon": -77.0577185, "bike_id": "a29c0d218367e6e43f5cfc54e7fbbd2c", "fusion_lat": 0.0, "name": "a29c0d218367e6e43f5cfc54e7fbbd2c", "is_reserved": 0, "rental_uris": {"android": "https://dc.lft.to/lastmile_qr_scan", "ios": "https://dc.lft.to/lastmile_qr_scan"}, "fusion_lon": 0.0}, {"lat": 38.896117833333335, "is_disabled": 0, "type": "electric_scooter", "lon": -77.02956316666666, "bike_id": "c5bb77f5e67420d6adf9524d9ead2ac8", "fusion_lat": 0.0, "name": "c5bb77f5e67420d6adf9524d9ead2ac8", "is_reserved": 0, "rental_uris": {"android": "https://dc.lft.to/lastmile_qr_scan", "ios": "https://dc.lft.to/lastmile_qr_scan"}, "fusion_lon": 0.0}, {"lat": 38.88422166666667, "is_disabled": 0, "type": "electric_scooter", "lon": -77.03039416666667, "bike_id": "56b30fa2705004934889d42d5121c61d", "fusion_lat": 0.0, "name": "56b30fa2705004934889d42d5121c61d", "is_reserved": 0, "rental_uris": {"android": "https://dc.lft.to/lastmile_qr_scan", "ios": "https://dc.lft.to/lastmile_qr_scan"}, "fusion_lon": 0.0}, {"lat": 38.90174733333333, "is_disabled": 0, "type": "electric_scooter", "lon": -77.00009716666666, "bike_id": "475ff28e5568cc8361514561c4603aa6", "fusion_lat": 0.0, "name": "475ff28e5568cc8361514561c4603aa6", "is_reserved": 0, "rental_uris": {"android": "https://dc.lft.to/lastmile_qr_scan", "ios": "https://dc.lft.to/lastmile_qr_scan"}, "fusion_lon": 0.0}, {"lat": 38.93204733333334, "is_disabled": 0, "type": "electric_bike", "lon": -76.97431566666667, "bike_id": "6afcb4a4909890b84d874205409ba37e", "fusion_lat": 0.0, "name": "6afcb4a4909890b84d874205409ba37e", "is_reserved": 0, "rental_uris": {"android": "https://dc.lft.to/lastmile_qr_scan", "ios": "https://dc.lft.to/lastmile_qr_scan"}, "fusion_lon": 0.0}, {"lat": 38.90314433333333, "is_disabled": 0, "type": "electric_scooter", "lon": -77.0346685, "bike_id": "41363edeeb4a5e128638a8310bfa6d41", "fusion_lat": 0.0, "name": "41363edeeb4a5e128638a8310bfa6d41", "is_reserved": 0, "rental_uris": {"android": "https://dc.lft.to/lastmile_qr_scan", "ios": "https://dc.lft.to/lastmile_qr_scan"}, "fusion_lon": 0.0}, {"lat": 38.915751666666665, "is_disabled": 0, "type": "electric_scooter", "lon": -77.0123585, "bike_id": "eacd86b446cc23b99e63349681ba9540", "fusion_lat": 0.0, "name": "eacd86b446cc23b99e63349681ba9540", "is_reserved": 0, "rental_uris": {"android": "https://dc.lft.to/lastmile_qr_scan", "ios": "https://dc.lft.to/lastmile_qr_scan"}, "fusion_lon": 0.0}, {"lat": 38.87224483333333, "is_disabled": 0, "type": "electric_scooter", "lon": -77.01764433333334, "bike_id": "c5d3a22c825857536b359118b79eb6fd", "fusion_lat": 0.0, "name": "c5d3a22c825857536b359118b79eb6fd", "is_reserved": 0, "rental_uris": {"android": "https://dc.lft.to/lastmile_qr_scan", "ios": "https://dc.lft.to/lastmile_qr_scan"}, "fusion_lon": 0.0}, {"lat": 38.92362333333333, "is_disabled": 0, "type": "electric_scooter", "lon": -77.05759783333333, "bike_id": "1f2c01ec57a92f76c463bd4dede2ac3c", "fusion_lat": 0.0, "name": "1f2c01ec57a92f76c463bd4dede2ac3c", "is_reserved": 0, "rental_uris": {"android": "https://dc.lft.to/lastmile_qr_scan", "ios": "https://dc.lft.to/lastmile_qr_scan"}, "fusion_lon": 0.0}, {"lat": 38.897177166666665, "is_disabled": 0, "type": "electric_scooter", "lon": -77.02168083333333, "bike_id": "b8abdd86e997e90290ed801cd10d18a0", "fusion_lat": 0.0, "name": "b8abdd86e997e90290ed801cd10d18a0", "is_reserved": 0, "rental_uris": {"android": "https://dc.lft.to/lastmile_qr_scan", "ios": "https://dc.lft.to/lastmile_qr_scan"}, "fusion_lon": 0.0}, {"lat": 38.91244983333333, "is_disabled": 0, "type": "electric_bike", "lon": -77.02228633333333, "bike_id": "cc09c36d48947882d59ead362d71acfc", "fusion_lat": 0.0, "name": "cc09c36d48947882d59ead362d71acfc", "is_reserved": 0, "rental_uris": {"android": "https://dc.lft.to/lastmile_qr_scan", "ios": "https://dc.lft.to/lastmile_qr_scan"}, "fusion_lon": 0.0}, {"lat": 38.88488616666667, "is_disabled": 0, "type": "electric_bike", "lon": -77.0060365, "bike_id": "8377ff34554a4d7680bbee2f80a01caa", "fusion_lat": 0.0, "name": "8377ff34554a4d7680bbee2f80a01caa", "is_reserved": 0, "rental_uris": {"android": "https://dc.lft.to/lastmile_qr_scan", "ios": "https://dc.lft.to/lastmile_qr_scan"}, "fusion_lon": 0.0}, {"lat": 38.9192405, "is_disabled": 0, "type": "electric_scooter", "lon": -77.03380516666667, "bike_id": "02288c90dbd260edd4e9f4511dd6a57c", "fusion_lat": 0.0, "name": "02288c90dbd260edd4e9f4511dd6a57c", "is_reserved": 0, "rental_uris": {"android": "https://dc.lft.to/lastmile_qr_scan", "ios": "https://dc.lft.to/lastmile_qr_scan"}, "fusion_lon": 0.0}, {"lat": 38.87532683333333, "is_disabled": 0, "type": "electric_scooter", "lon": -77.00513616666667, "bike_id": "dc50bc6674ba3f7eb41037241bb16085", "fusion_lat": 0.0, "name": "dc50bc6674ba3f7eb41037241bb16085", "is_reserved": 0, "rental_uris": {"android": "https://dc.lft.to/lastmile_qr_scan", "ios": "https://dc.lft.to/lastmile_qr_scan"}, "fusion_lon": 0.0}, {"lat": 38.92018983333333, "is_disabled": 0, "type": "electric_scooter", "lon": -77.03144333333333, "bike_id": "9b3355afea533feb987094ca38cc58c3", "fusion_lat": 0.0, "name": "9b3355afea533feb987094ca38cc58c3", "is_reserved": 0, "rental_uris": {"android": "https://dc.lft.to/lastmile_qr_scan", "ios": "https://dc.lft.to/lastmile_qr_scan"}, "fusion_lon": 0.0}, {"lat": 38.89812116666667, "is_disabled": 0, "type": "electric_scooter", "lon": -77.03307333333333, "bike_id": "447e56c4981774a7ad150101fa477afb", "fusion_lat": 0.0, "name": "447e56c4981774a7ad150101fa477afb", "is_reserved": 0, "rental_uris": {"android": "https://dc.lft.to/lastmile_qr_scan", "ios": "https://dc.lft.to/lastmile_qr_scan"}, "fusion_lon": 0.0}, {"lat": 38.91658066666667, "is_disabled": 0, "type": "electric_scooter", "lon": -77.04211833333333, "bike_id": "824714eda80d095ba856b7d87a31e83b", "fusion_lat": 0.0, "name": "824714eda80d095ba856b7d87a31e83b", "is_reserved": 0, "rental_uris": {"android": "https://dc.lft.to/lastmile_qr_scan", "ios": "https://dc.lft.to/lastmile_qr_scan"}, "fusion_lon": 0.0}, {"lat": 38.8578245, "is_disabled": 0, "type": "electric_bike", "lon": -76.987515, "bike_id": "b965e7ed0b645ae3e6c07cec5d509200", "fusion_lat": 0.0, "name": "b965e7ed0b645ae3e6c07cec5d509200", "is_reserved": 0, "rental_uris": {"android": "https://dc.lft.to/lastmile_qr_scan", "ios": "https://dc.lft.to/lastmile_qr_scan"}, "fusion_lon": 0.0}, {"lat": 38.87372383333334, "is_disabled": 0, "type": "electric_scooter", "lon": -77.00095833333333, "bike_id": "8b7d50e36232b17c91366031e269e78d", "fusion_lat": 0.0, "name": "8b7d50e36232b17c91366031e269e78d", "is_reserved": 0, "rental_uris": {"android": "https://dc.lft.to/lastmile_qr_scan", "ios": "https://dc.lft.to/lastmile_qr_scan"}, "fusion_lon": 0.0}, {"lat": 38.91817066666667, "is_disabled": 0, "type": "electric_scooter", "lon": -77.00476483333334, "bike_id": "873ad0d441c6d864733dd9f5f8718296", "fusion_lat": 0.0, "name": "873ad0d441c6d864733dd9f5f8718296", "is_reserved": 0, "rental_uris": {"android": "https://dc.lft.to/lastmile_qr_scan", "ios": "https://dc.lft.to/lastmile_qr_scan"}, "fusion_lon": 0.0}, {"lat": 38.90524, "is_disabled": 0, "type": "electric_scooter", "lon": -77.065431, "bike_id": "871defafcd51c38991257848896ec247", "fusion_lat": 0.0, "name": "871defafcd51c38991257848896ec247", "is_reserved": 0, "rental_uris": {"android": "https://dc.lft.to/lastmile_qr_scan", "ios": "https://dc.lft.to/lastmile_qr_scan"}, "fusion_lon": 0.0}, {"lat": 38.89660283333333, "is_disabled": 0, "type": "electric_scooter", "lon": -76.980986, "bike_id": "40ec9df3182c274db655d7835635394a", "fusion_lat": 0.0, "name": "40ec9df3182c274db655d7835635394a", "is_reserved": 0, "rental_uris": {"android": "https://dc.lft.to/lastmile_qr_scan", "ios": "https://dc.lft.to/lastmile_qr_scan"}, "fusion_lon": 0.0}, {"lat": 38.912532666666664, "is_disabled": 0, "type": "electric_scooter", "lon": -77.03632033333334, "bike_id": "b6ced0b250a12755843e5e3d1f176e80", "fusion_lat": 0.0, "name": "b6ced0b250a12755843e5e3d1f176e80", "is_reserved": 0, "rental_uris": {"android": "https://dc.lft.to/lastmile_qr_scan", "ios": "https://dc.lft.to/lastmile_qr_scan"}, "fusion_lon": 0.0}, {"lat": 38.8711185, "is_disabled": 0, "type": "electric_scooter", "lon": -77.0107735, "bike_id": "e9ddcd4c9dd0b889f0d2f88b6fd36f7f", "fusion_lat": 0.0, "name": "e9ddcd4c9dd0b889f0d2f88b6fd36f7f", "is_reserved": 0, "rental_uris": {"android": "https://dc.lft.to/lastmile_qr_scan", "ios": "https://dc.lft.to/lastmile_qr_scan"}, "fusion_lon": 0.0}, {"lat": 38.95181566666667, "is_disabled": 0, "type": "electric_bike", "lon": -76.93549233333333, "bike_id": "9c93affabde52e01ae4066905dd2c4ee", "fusion_lat": 0.0, "name": "9c93affabde52e01ae4066905dd2c4ee", "is_reserved": 0, "rental_uris": {"android": "https://dc.lft.to/lastmile_qr_scan", "ios": "https://dc.lft.to/lastmile_qr_scan"}, "fusion_lon": 0.0}, {"lat": 38.939317333333335, "is_disabled": 0, "type": "electric_scooter", "lon": -77.02222766666667, "bike_id": "3d9f7cb73f878bc8ef3a942ef0635793", "fusion_lat": 0.0, "name": "3d9f7cb73f878bc8ef3a942ef0635793", "is_reserved": 0, "rental_uris": {"android": "https://dc.lft.to/lastmile_qr_scan", "ios": "https://dc.lft.to/lastmile_qr_scan"}, "fusion_lon": 0.0}, {"lat": 38.877297666666664, "is_disabled": 0, "type": "electric_bike", "lon": -77.11853733333334, "bike_id": "582bee7b53093c613b140593f80dbf97", "fusion_lat": 0.0, "name": "582bee7b53093c613b140593f80dbf97", "is_reserved": 0, "rental_uris": {"android": "https://dc.lft.to/lastmile_qr_scan", "ios": "https://dc.lft.to/lastmile_qr_scan"}, "fusion_lon": 0.0}, {"lat": 38.9247905, "is_disabled": 0, "type": "electric_scooter", "lon": -77.02723533333334, "bike_id": "41c647a27ded9971d0ff09b6ee86e636", "fusion_lat": 0.0, "name": "41c647a27ded9971d0ff09b6ee86e636", "is_reserved": 0, "rental_uris": {"android": "https://dc.lft.to/lastmile_qr_scan", "ios": "https://dc.lft.to/lastmile_qr_scan"}, "fusion_lon": 0.0}, {"lat": 38.863696166666664, "is_disabled": 0, "type": "electric_scooter", "lon": -76.9905145, "bike_id": "3083472889ebdadae9ec199bb0dc8888", "fusion_lat": 0.0, "name": "3083472889ebdadae9ec199bb0dc8888", "is_reserved": 0, "rental_uris": {"android": "https://dc.lft.to/lastmile_qr_scan", "ios": "https://dc.lft.to/lastmile_qr_scan"}, "fusion_lon": 0.0}, {"lat": 38.93978416666667, "is_disabled": 0, "type": "electric_scooter", "lon": -77.03273616666667, "bike_id": "7620d8ce508dceb3b628982732114dd9", "fusion_lat": 0.0, "name": "7620d8ce508dceb3b628982732114dd9", "is_reserved": 0, "rental_uris": {"android": "https://dc.lft.to/lastmile_qr_scan", "ios": "https://dc.lft.to/lastmile_qr_scan"}, "fusion_lon": 0.0}, {"lat": 38.865615, "is_disabled": 0, "type": "electric_scooter", "lon": -76.98954683333334, "bike_id": "3fbb6fa78e89464f2abfdcb4c5873f23", "fusion_lat": 0.0, "name": "3fbb6fa78e89464f2abfdcb4c5873f23", "is_reserved": 0, "rental_uris": {"android": "https://dc.lft.to/lastmile_qr_scan", "ios": "https://dc.lft.to/lastmile_qr_scan"}, "fusion_lon": 0.0}, {"lat": 38.948303333333335, "is_disabled": 0, "type": "electric_scooter", "lon": -77.02555116666667, "bike_id": "9b5cf92fd8b45f91cc1b30d8dc84abc1", "fusion_lat": 0.0, "name": "9b5cf92fd8b45f91cc1b30d8dc84abc1", "is_reserved": 0, "rental_uris": {"android": "https://dc.lft.to/lastmile_qr_scan", "ios": "https://dc.lft.to/lastmile_qr_scan"}, "fusion_lon": 0.0}, {"lat": 38.91763433333333, "is_disabled": 0, "type": "electric_scooter", "lon": -77.03200933333333, "bike_id": "3327415aebc8d692befd40c2207c764d", "fusion_lat": 0.0, "name": "3327415aebc8d692befd40c2207c764d", "is_reserved": 0, "rental_uris": {"android": "https://dc.lft.to/lastmile_qr_scan", "ios": "https://dc.lft.to/lastmile_qr_scan"}, "fusion_lon": 0.0}, {"lat": 38.892283166666665, "is_disabled": 0, "type": "electric_scooter", "lon": -77.0283445, "bike_id": "4255d4c5f02625148d6dc53b89b8a21e", "fusion_lat": 0.0, "name": "4255d4c5f02625148d6dc53b89b8a21e", "is_reserved": 0, "rental_uris": {"android": "https://dc.lft.to/lastmile_qr_scan", "ios": "https://dc.lft.to/lastmile_qr_scan"}, "fusion_lon": 0.0}, {"lat": 38.900317, "is_disabled": 0, "type": "electric_scooter", "lon": -77.0433, "bike_id": "2b3d01989460b2dada56b20444900149", "fusion_lat": 0.0, "name": "2b3d01989460b2dada56b20444900149", "is_reserved": 0, "rental_uris": {"android": "https://dc.lft.to/lastmile_qr_scan", "ios": "https://dc.lft.to/lastmile_qr_scan"}, "fusion_lon": 0.0}, {"lat": 38.8910175, "is_disabled": 0, "type": "electric_scooter", "lon": -77.00192516666667, "bike_id": "80e84789b2055af1829cb487886c7e1f", "fusion_lat": 0.0, "name": "80e84789b2055af1829cb487886c7e1f", "is_reserved": 0, "rental_uris": {"android": "https://dc.lft.to/lastmile_qr_scan", "ios": "https://dc.lft.to/lastmile_qr_scan"}, "fusion_lon": 0.0}, {"lat": 38.89839716666667, "is_disabled": 0, "type": "electric_scooter", "lon": -77.0073525, "bike_id": "372e52850573dc691ef246df016705f5", "fusion_lat": 0.0, "name": "372e52850573dc691ef246df016705f5", "is_reserved": 0, "rental_uris": {"android": "https://dc.lft.to/lastmile_qr_scan", "ios": "https://dc.lft.to/lastmile_qr_scan"}, "fusion_lon": 0.0}, {"lat": 38.946271, "is_disabled": 0, "type": "electric_scooter", "lon": -77.01845, "bike_id": "42965ec1bf1aeddb0485360034e24380", "fusion_lat": 0.0, "name": "42965ec1bf1aeddb0485360034e24380", "is_reserved": 0, "rental_uris": {"android": "https://dc.lft.to/lastmile_qr_scan", "ios": "https://dc.lft.to/lastmile_qr_scan"}, "fusion_lon": 0.0}, {"lat": 38.929995, "is_disabled": 0, "type": "electric_scooter", "lon": -77.056714, "bike_id": "51290eee2d14361e38c4a19f04a2615a", "fusion_lat": 0.0, "name": "51290eee2d14361e38c4a19f04a2615a", "is_reserved": 0, "rental_uris": {"android": "https://dc.lft.to/lastmile_qr_scan", "ios": "https://dc.lft.to/lastmile_qr_scan"}, "fusion_lon": 0.0}, {"lat": 38.866568666666666, "is_disabled": 0, "type": "electric_scooter", "lon": -76.98903166666666, "bike_id": "769d582e89e82d420931ec358ab24113", "fusion_lat": 0.0, "name": "769d582e89e82d420931ec358ab24113", "is_reserved": 0, "rental_uris": {"android": "https://dc.lft.to/lastmile_qr_scan", "ios": "https://dc.lft.to/lastmile_qr_scan"}, "fusion_lon": 0.0}, {"lat": 38.89051166666667, "is_disabled": 0, "type": "electric_scooter", "lon": -76.93760633333333, "bike_id": "9e30dcb76555c948c946b90c41350397", "fusion_lat": 0.0, "name": "9e30dcb76555c948c946b90c41350397", "is_reserved": 0, "rental_uris": {"android": "https://dc.lft.to/lastmile_qr_scan", "ios": "https://dc.lft.to/lastmile_qr_scan"}, "fusion_lon": 0.0}, {"lat": 38.865236833333334, "is_disabled": 0, "type": "electric_scooter", "lon": -76.99031133333334, "bike_id": "6367c943ac246eac6df77a12acf4b964", "fusion_lat": 0.0, "name": "6367c943ac246eac6df77a12acf4b964", "is_reserved": 0, "rental_uris": {"android": "https://dc.lft.to/lastmile_qr_scan", "ios": "https://dc.lft.to/lastmile_qr_scan"}, "fusion_lon": 0.0}, {"lat": 38.919585833333336, "is_disabled": 0, "type": "electric_scooter", "lon": -77.02712083333333, "bike_id": "23ee3b2d37310ce46e5a7cc9f46e8024", "fusion_lat": 0.0, "name": "23ee3b2d37310ce46e5a7cc9f46e8024", "is_reserved": 0, "rental_uris": {"android": "https://dc.lft.to/lastmile_qr_scan", "ios": "https://dc.lft.to/lastmile_qr_scan"}, "fusion_lon": 0.0}, {"lat": 38.8762785, "is_disabled": 0, "type": "electric_scooter", "lon": -76.96531933333333, "bike_id": "0ca7c5c37ed8844d3b9215c0ea64fceb", "fusion_lat": 0.0, "name": "0ca7c5c37ed8844d3b9215c0ea64fceb", "is_reserved": 0, "rental_uris": {"android": "https://dc.lft.to/lastmile_qr_scan", "ios": "https://dc.lft.to/lastmile_qr_scan"}, "fusion_lon": 0.0}, {"lat": 38.900555, "is_disabled": 0, "type": "electric_scooter", "lon": -77.024589, "bike_id": "c3e88c7e93e763347767008ee4faf7dd", "fusion_lat": 0.0, "name": "c3e88c7e93e763347767008ee4faf7dd", "is_reserved": 0, "rental_uris": {"android": "https://dc.lft.to/lastmile_qr_scan", "ios": "https://dc.lft.to/lastmile_qr_scan"}, "fusion_lon": 0.0}, {"lat": 38.904479, "is_disabled": 0, "type": "electric_scooter", "lon": -77.03645933333334, "bike_id": "5616d8e00d951833ebb9b97b0417cab0", "fusion_lat": 0.0, "name": "5616d8e00d951833ebb9b97b0417cab0", "is_reserved": 0, "rental_uris": {"android": "https://dc.lft.to/lastmile_qr_scan", "ios": "https://dc.lft.to/lastmile_qr_scan"}, "fusion_lon": 0.0}, {"lat": 38.906418, "is_disabled": 0, "type": "electric_scooter", "lon": -77.04861616666666, "bike_id": "1f347f6d3805f9ff62e40901efd6b974", "fusion_lat": 0.0, "name": "1f347f6d3805f9ff62e40901efd6b974", "is_reserved": 0, "rental_uris": {"android": "https://dc.lft.to/lastmile_qr_scan", "ios": "https://dc.lft.to/lastmile_qr_scan"}, "fusion_lon": 0.0}, {"lat": 38.954019333333335, "is_disabled": 0, "type": "electric_scooter", "lon": -77.02747416666666, "bike_id": "678a3284b2aa9a5fb0567b376cc7e7df", "fusion_lat": 0.0, "name": "678a3284b2aa9a5fb0567b376cc7e7df", "is_reserved": 0, "rental_uris": {"android": "https://dc.lft.to/lastmile_qr_scan", "ios": "https://dc.lft.to/lastmile_qr_scan"}, "fusion_lon": 0.0}, {"lat": 38.9154985, "is_disabled": 0, "type": "electric_scooter", "lon": -77.04614416666666, "bike_id": "76298257b1c134a1437fa0685a8c2258", "fusion_lat": 0.0, "name": "76298257b1c134a1437fa0685a8c2258", "is_reserved": 0, "rental_uris": {"android": "https://dc.lft.to/lastmile_qr_scan", "ios": "https://dc.lft.to/lastmile_qr_scan"}, "fusion_lon": 0.0}, {"lat": 38.95402516666667, "is_disabled": 0, "type": "electric_scooter", "lon": -77.02750983333334, "bike_id": "c277cd8aefc1951e408d9ae326e994ce", "fusion_lat": 0.0, "name": "c277cd8aefc1951e408d9ae326e994ce", "is_reserved": 0, "rental_uris": {"android": "https://dc.lft.to/lastmile_qr_scan", "ios": "https://dc.lft.to/lastmile_qr_scan"}, "fusion_lon": 0.0}, {"lat": 38.929979833333334, "is_disabled": 0, "type": "electric_scooter", "lon": -77.03658633333333, "bike_id": "8205c9eee60035e1c06b8db8a5fcb1b1", "fusion_lat": 0.0, "name": "8205c9eee60035e1c06b8db8a5fcb1b1", "is_reserved": 0, "rental_uris": {"android": "https://dc.lft.to/lastmile_qr_scan", "ios": "https://dc.lft.to/lastmile_qr_scan"}, "fusion_lon": 0.0}, {"lat": 38.90074633333333, "is_disabled": 0, "type": "electric_scooter", "lon": -77.01726266666667, "bike_id": "9ad39ccdbd9b35ddd88d9a4835d5c9ac", "fusion_lat": 0.0, "name": "9ad39ccdbd9b35ddd88d9a4835d5c9ac", "is_reserved": 0, "rental_uris": {"android": "https://dc.lft.to/lastmile_qr_scan", "ios": "https://dc.lft.to/lastmile_qr_scan"}, "fusion_lon": 0.0}, {"lat": 38.898190166666666, "is_disabled": 0, "type": "electric_bike", "lon": -77.04332083333334, "bike_id": "9ac1f95e12d2c5c1691754c9269b3a81", "fusion_lat": 0.0, "name": "9ac1f95e12d2c5c1691754c9269b3a81", "is_reserved": 0, "rental_uris": {"android": "https://dc.lft.to/lastmile_qr_scan", "ios": "https://dc.lft.to/lastmile_qr_scan"}, "fusion_lon": 0.0}, {"lat": 38.9038495, "is_disabled": 0, "type": "electric_scooter", "lon": -77.039642, "bike_id": "e05fa2df2cf5b742b3aa0112683ade71", "fusion_lat": 0.0, "name": "e05fa2df2cf5b742b3aa0112683ade71", "is_reserved": 0, "rental_uris": {"android": "https://dc.lft.to/lastmile_qr_scan", "ios": "https://dc.lft.to/lastmile_qr_scan"}, "fusion_lon": 0.0}, {"lat": 38.905548833333334, "is_disabled": 0, "type": "electric_scooter", "lon": -77.05692883333333, "bike_id": "3f18af725aa5dccdbbac9472fc92a5a5", "fusion_lat": 0.0, "name": "3f18af725aa5dccdbbac9472fc92a5a5", "is_reserved": 0, "rental_uris": {"android": "https://dc.lft.to/lastmile_qr_scan", "ios": "https://dc.lft.to/lastmile_qr_scan"}, "fusion_lon": 0.0}, {"lat": 38.902099666666665, "is_disabled": 0, "type": "electric_scooter", "lon": -77.048299, "bike_id": "6a49d60a6818674b4b44ca5546a131d7", "fusion_lat": 0.0, "name": "6a49d60a6818674b4b44ca5546a131d7", "is_reserved": 0, "rental_uris": {"android": "https://dc.lft.to/lastmile_qr_scan", "ios": "https://dc.lft.to/lastmile_qr_scan"}, "fusion_lon": 0.0}, {"lat": 38.922182666666664, "is_disabled": 0, "type": "electric_scooter", "lon": -77.042473, "bike_id": "5a555ee8fb6d78bb1c6d86be43d5d950", "fusion_lat": 0.0, "name": "5a555ee8fb6d78bb1c6d86be43d5d950", "is_reserved": 0, "rental_uris": {"android": "https://dc.lft.to/lastmile_qr_scan", "ios": "https://dc.lft.to/lastmile_qr_scan"}, "fusion_lon": 0.0}, {"lat": 38.888094833333334, "is_disabled": 0, "type": "electric_bike", "lon": -77.03832233333333, "bike_id": "6df95f8334735583223b967631308d36", "fusion_lat": 0.0, "name": "6df95f8334735583223b967631308d36", "is_reserved": 0, "rental_uris": {"android": "https://dc.lft.to/lastmile_qr_scan", "ios": "https://dc.lft.to/lastmile_qr_scan"}, "fusion_lon": 0.0}, {"lat": 38.93430883333333, "is_disabled": 0, "type": "electric_scooter", "lon": -77.0238205, "bike_id": "914bb213eaceca25933c9630a71660e4", "fusion_lat": 0.0, "name": "914bb213eaceca25933c9630a71660e4", "is_reserved": 0, "rental_uris": {"android": "https://dc.lft.to/lastmile_qr_scan", "ios": "https://dc.lft.to/lastmile_qr_scan"}, "fusion_lon": 0.0}, {"lat": 38.916429666666666, "is_disabled": 0, "type": "electric_scooter", "lon": -77.0006675, "bike_id": "8c5196d6cb60edbe6eda1c3bf4c001cf", "fusion_lat": 0.0, "name": "8c5196d6cb60edbe6eda1c3bf4c001cf", "is_reserved": 0, "rental_uris": {"android": "https://dc.lft.to/lastmile_qr_scan", "ios": "https://dc.lft.to/lastmile_qr_scan"}, "fusion_lon": 0.0}, {"lat": 38.9032425, "is_disabled": 0, "type": "electric_scooter", "lon": -77.033181, "bike_id": "f58007d66217ca12e306f34c2912ed59", "fusion_lat": 0.0, "name": "f58007d66217ca12e306f34c2912ed59", "is_reserved": 0, "rental_uris": {"android": "https://dc.lft.to/lastmile_qr_scan", "ios": "https://dc.lft.to/lastmile_qr_scan"}, "fusion_lon": 0.0}, {"lat": 38.90605033333333, "is_disabled": 0, "type": "electric_scooter", "lon": -77.0586125, "bike_id": "0de98a6587dd87b2b5a3d89800abebc3", "fusion_lat": 0.0, "name": "0de98a6587dd87b2b5a3d89800abebc3", "is_reserved": 0, "rental_uris": {"android": "https://dc.lft.to/lastmile_qr_scan", "ios": "https://dc.lft.to/lastmile_qr_scan"}, "fusion_lon": 0.0}, {"lat": 38.9055, "is_disabled": 0, "type": "electric_scooter", "lon": -77.00603983333333, "bike_id": "ea6e1601d353b795a85ede1319c3bf4f", "fusion_lat": 0.0, "name": "ea6e1601d353b795a85ede1319c3bf4f", "is_reserved": 0, "rental_uris": {"android": "https://dc.lft.to/lastmile_qr_scan", "ios": "https://dc.lft.to/lastmile_qr_scan"}, "fusion_lon": 0.0}, {"lat": 38.9223645, "is_disabled": 0, "type": "electric_scooter", "lon": -77.02988316666666, "bike_id": "8cbccffae5b98988cba5d940991d4940", "fusion_lat": 0.0, "name": "8cbccffae5b98988cba5d940991d4940", "is_reserved": 0, "rental_uris": {"android": "https://dc.lft.to/lastmile_qr_scan", "ios": "https://dc.lft.to/lastmile_qr_scan"}, "fusion_lon": 0.0}, {"lat": 38.8919515, "is_disabled": 0, "type": "electric_scooter", "lon": -77.01538933333333, "bike_id": "5cc2cd6188b29c034a863bf4610e4a33", "fusion_lat": 0.0, "name": "5cc2cd6188b29c034a863bf4610e4a33", "is_reserved": 0, "rental_uris": {"android": "https://dc.lft.to/lastmile_qr_scan", "ios": "https://dc.lft.to/lastmile_qr_scan"}, "fusion_lon": 0.0}, {"lat": 38.918158166666664, "is_disabled": 0, "type": "electric_scooter", "lon": -77.0247935, "bike_id": "9bdadace27073fb73639f31bb5f9d88a", "fusion_lat": 0.0, "name": "9bdadace27073fb73639f31bb5f9d88a", "is_reserved": 0, "rental_uris": {"android": "https://dc.lft.to/lastmile_qr_scan", "ios": "https://dc.lft.to/lastmile_qr_scan"}, "fusion_lon": 0.0}, {"lat": 38.8842675, "is_disabled": 0, "type": "electric_bike", "lon": -76.98090716666667, "bike_id": "b706c2fe1b020e7e22b7adda0f0005ea", "fusion_lat": 0.0, "name": "b706c2fe1b020e7e22b7adda0f0005ea", "is_reserved": 0, "rental_uris": {"android": "https://dc.lft.to/lastmile_qr_scan", "ios": "https://dc.lft.to/lastmile_qr_scan"}, "fusion_lon": 0.0}, {"lat": 38.929989, "is_disabled": 0, "type": "electric_scooter", "lon": -76.995003, "bike_id": "7692681ad78a5bc646bf6efd657139f7", "fusion_lat": 0.0, "name": "7692681ad78a5bc646bf6efd657139f7", "is_reserved": 0, "rental_uris": {"android": "https://dc.lft.to/lastmile_qr_scan", "ios": "https://dc.lft.to/lastmile_qr_scan"}, "fusion_lon": 0.0}, {"lat": 38.931423, "is_disabled": 0, "type": "electric_scooter", "lon": -77.07849483333334, "bike_id": "8e4a3cacb0216f7ab1a91023a13365d4", "fusion_lat": 0.0, "name": "8e4a3cacb0216f7ab1a91023a13365d4", "is_reserved": 0, "rental_uris": {"android": "https://dc.lft.to/lastmile_qr_scan", "ios": "https://dc.lft.to/lastmile_qr_scan"}, "fusion_lon": 0.0}, {"lat": 38.9492115, "is_disabled": 0, "type": "electric_bike", "lon": -77.078363, "bike_id": "613fc7525e87d238c67deb76d2d225ba", "fusion_lat": 0.0, "name": "613fc7525e87d238c67deb76d2d225ba", "is_reserved": 0, "rental_uris": {"android": "https://dc.lft.to/lastmile_qr_scan", "ios": "https://dc.lft.to/lastmile_qr_scan"}, "fusion_lon": 0.0}, {"lat": 38.914454666666664, "is_disabled": 0, "type": "electric_scooter", "lon": -77.038479, "bike_id": "835f8e021accadd59e7dcb4e0966ec1c", "fusion_lat": 0.0, "name": "835f8e021accadd59e7dcb4e0966ec1c", "is_reserved": 0, "rental_uris": {"android": "https://dc.lft.to/lastmile_qr_scan", "ios": "https://dc.lft.to/lastmile_qr_scan"}, "fusion_lon": 0.0}, {"lat": 38.90523866666667, "is_disabled": 0, "type": "electric_scooter", "lon": -77.067876, "bike_id": "79333d20c00faedda08e76913ef85ca1", "fusion_lat": 0.0, "name": "79333d20c00faedda08e76913ef85ca1", "is_reserved": 0, "rental_uris": {"android": "https://dc.lft.to/lastmile_qr_scan", "ios": "https://dc.lft.to/lastmile_qr_scan"}, "fusion_lon": 0.0}, {"lat": 38.908938, "is_disabled": 0, "type": "electric_scooter", "lon": -77.0863195, "bike_id": "1405ce5fa59b8e375e971df65cbad073", "fusion_lat": 0.0, "name": "1405ce5fa59b8e375e971df65cbad073", "is_reserved": 0, "rental_uris": {"android": "https://dc.lft.to/lastmile_qr_scan", "ios": "https://dc.lft.to/lastmile_qr_scan"}, "fusion_lon": 0.0}, {"lat": 38.907007, "is_disabled": 0, "type": "electric_scooter", "lon": -77.04395283333334, "bike_id": "c15dbc82f59939ce12f271eb78b0f815", "fusion_lat": 0.0, "name": "c15dbc82f59939ce12f271eb78b0f815", "is_reserved": 0, "rental_uris": {"android": "https://dc.lft.to/lastmile_qr_scan", "ios": "https://dc.lft.to/lastmile_qr_scan"}, "fusion_lon": 0.0}, {"lat": 38.88402833333333, "is_disabled": 0, "type": "electric_bike", "lon": -76.9820275, "bike_id": "f01287f7d2a23d18b4339ca9dd832b1e", "fusion_lat": 0.0, "name": "f01287f7d2a23d18b4339ca9dd832b1e", "is_reserved": 0, "rental_uris": {"android": "https://dc.lft.to/lastmile_qr_scan", "ios": "https://dc.lft.to/lastmile_qr_scan"}, "fusion_lon": 0.0}, {"lat": 38.923679, "is_disabled": 0, "type": "electric_scooter", "lon": -77.07692116666666, "bike_id": "de0fb765f537d6a2b978d4d97b0c2d58", "fusion_lat": 0.0, "name": "de0fb765f537d6a2b978d4d97b0c2d58", "is_reserved": 0, "rental_uris": {"android": "https://dc.lft.to/lastmile_qr_scan", "ios": "https://dc.lft.to/lastmile_qr_scan"}, "fusion_lon": 0.0}, {"lat": 38.9096615, "is_disabled": 0, "type": "electric_scooter", "lon": -77.0338485, "bike_id": "d3c3efdba1fc77bb8c5c495281df1948", "fusion_lat": 0.0, "name": "d3c3efdba1fc77bb8c5c495281df1948", "is_reserved": 0, "rental_uris": {"android": "https://dc.lft.to/lastmile_qr_scan", "ios": "https://dc.lft.to/lastmile_qr_scan"}, "fusion_lon": 0.0}, {"lat": 38.860543, "is_disabled": 0, "type": "electric_scooter", "lon": -76.9852005, "bike_id": "1747b3f2f7766d6eec04c00a7a00163b", "fusion_lat": 0.0, "name": "1747b3f2f7766d6eec04c00a7a00163b", "is_reserved": 0, "rental_uris": {"android": "https://dc.lft.to/lastmile_qr_scan", "ios": "https://dc.lft.to/lastmile_qr_scan"}, "fusion_lon": 0.0}, {"lat": 38.918701666666664, "is_disabled": 0, "type": "electric_scooter", "lon": -77.0220085, "bike_id": "6ed0acb09aae6ac5b2d4e0ec08a870af", "fusion_lat": 0.0, "name": "6ed0acb09aae6ac5b2d4e0ec08a870af", "is_reserved": 0, "rental_uris": {"android": "https://dc.lft.to/lastmile_qr_scan", "ios": "https://dc.lft.to/lastmile_qr_scan"}, "fusion_lon": 0.0}, {"lat": 38.89613, "is_disabled": 0, "type": "electric_scooter", "lon": -77.0267045, "bike_id": "1bc7bb151d63413bac6436d327cc3310", "fusion_lat": 0.0, "name": "1bc7bb151d63413bac6436d327cc3310", "is_reserved": 0, "rental_uris": {"android": "https://dc.lft.to/lastmile_qr_scan", "ios": "https://dc.lft.to/lastmile_qr_scan"}, "fusion_lon": 0.0}, {"lat": 38.84292033333333, "is_disabled": 0, "type": "electric_scooter", "lon": -76.99948183333333, "bike_id": "66f531d5127eb406220f4b4f3d41dfee", "fusion_lat": 0.0, "name": "66f531d5127eb406220f4b4f3d41dfee", "is_reserved": 0, "rental_uris": {"android": "https://dc.lft.to/lastmile_qr_scan", "ios": "https://dc.lft.to/lastmile_qr_scan"}, "fusion_lon": 0.0}, {"lat": 38.89931516666667, "is_disabled": 0, "type": "electric_scooter", "lon": -77.0407405, "bike_id": "09adc8eb456e64eb175a09ca4755fc8b", "fusion_lat": 0.0, "name": "09adc8eb456e64eb175a09ca4755fc8b", "is_reserved": 0, "rental_uris": {"android": "https://dc.lft.to/lastmile_qr_scan", "ios": "https://dc.lft.to/lastmile_qr_scan"}, "fusion_lon": 0.0}, {"lat": 38.91628566666667, "is_disabled": 0, "type": "electric_scooter", "lon": -77.03997716666667, "bike_id": "a3c07225dfdab751372f6a127a37eee0", "fusion_lat": 0.0, "name": "a3c07225dfdab751372f6a127a37eee0", "is_reserved": 0, "rental_uris": {"android": "https://dc.lft.to/lastmile_qr_scan", "ios": "https://dc.lft.to/lastmile_qr_scan"}, "fusion_lon": 0.0}, {"lat": 38.90728333333333, "is_disabled": 0, "type": "electric_scooter", "lon": -77.0478585, "bike_id": "c4ca4b43c7dc9e1a2cfb7e1ea061b2ec", "fusion_lat": 0.0, "name": "c4ca4b43c7dc9e1a2cfb7e1ea061b2ec", "is_reserved": 0, "rental_uris": {"android": "https://dc.lft.to/lastmile_qr_scan", "ios": "https://dc.lft.to/lastmile_qr_scan"}, "fusion_lon": 0.0}, {"lat": 38.94095216666667, "is_disabled": 0, "type": "electric_scooter", "lon": -77.03286616666666, "bike_id": "8f66f884cf129e9d67848377ab30d8db", "fusion_lat": 0.0, "name": "8f66f884cf129e9d67848377ab30d8db", "is_reserved": 0, "rental_uris": {"android": "https://dc.lft.to/lastmile_qr_scan", "ios": "https://dc.lft.to/lastmile_qr_scan"}, "fusion_lon": 0.0}, {"lat": 38.876265333333336, "is_disabled": 0, "type": "electric_scooter", "lon": -76.96527833333333, "bike_id": "1171e15038d7080985e888242298a095", "fusion_lat": 0.0, "name": "1171e15038d7080985e888242298a095", "is_reserved": 0, "rental_uris": {"android": "https://dc.lft.to/lastmile_qr_scan", "ios": "https://dc.lft.to/lastmile_qr_scan"}, "fusion_lon": 0.0}, {"lat": 38.912003, "is_disabled": 0, "type": "electric_scooter", "lon": -77.03646466666666, "bike_id": "7542d05e660293274b84fa4bff412f2a", "fusion_lat": 0.0, "name": "7542d05e660293274b84fa4bff412f2a", "is_reserved": 0, "rental_uris": {"android": "https://dc.lft.to/lastmile_qr_scan", "ios": "https://dc.lft.to/lastmile_qr_scan"}, "fusion_lon": 0.0}, {"lat": 38.90932083333333, "is_disabled": 0, "type": "electric_scooter", "lon": -77.04481316666667, "bike_id": "2e75e9e754a7a3afb5741ff2a17e06e2", "fusion_lat": 0.0, "name": "2e75e9e754a7a3afb5741ff2a17e06e2", "is_reserved": 0, "rental_uris": {"android": "https://dc.lft.to/lastmile_qr_scan", "ios": "https://dc.lft.to/lastmile_qr_scan"}, "fusion_lon": 0.0}, {"lat": 38.802221333333335, "is_disabled": 0, "type": "electric_bike", "lon": -77.07918433333333, "bike_id": "bd1435a02ab84a0f3b8acbd8096c4480", "fusion_lat": 0.0, "name": "bd1435a02ab84a0f3b8acbd8096c4480", "is_reserved": 0, "rental_uris": {"android": "https://dc.lft.to/lastmile_qr_scan", "ios": "https://dc.lft.to/lastmile_qr_scan"}, "fusion_lon": 0.0}, {"lat": 38.844205333333335, "is_disabled": 0, "type": "electric_scooter", "lon": -76.99784716666667, "bike_id": "d5ac62f77a34b8274b9c76b3ad4f687d", "fusion_lat": 0.0, "name": "d5ac62f77a34b8274b9c76b3ad4f687d", "is_reserved": 0, "rental_uris": {"android": "https://dc.lft.to/lastmile_qr_scan", "ios": "https://dc.lft.to/lastmile_qr_scan"}, "fusion_lon": 0.0}, {"lat": 38.907652666666664, "is_disabled": 0, "type": "electric_scooter", "lon": -77.0206445, "bike_id": "f383257886a725b8fc6964e3178bcff0", "fusion_lat": 0.0, "name": "f383257886a725b8fc6964e3178bcff0", "is_reserved": 0, "rental_uris": {"android": "https://dc.lft.to/lastmile_qr_scan", "ios": "https://dc.lft.to/lastmile_qr_scan"}, "fusion_lon": 0.0}, {"lat": 38.90679266666667, "is_disabled": 0, "type": "electric_bike", "lon": -76.951911, "bike_id": "26504a27d4a7bcbb00453d494f16bd42", "fusion_lat": 0.0, "name": "26504a27d4a7bcbb00453d494f16bd42", "is_reserved": 0, "rental_uris": {"android": "https://dc.lft.to/lastmile_qr_scan", "ios": "https://dc.lft.to/lastmile_qr_scan"}, "fusion_lon": 0.0}, {"lat": 38.9154895, "is_disabled": 0, "type": "electric_scooter", "lon": -77.03244816666667, "bike_id": "581ce075305eece8bfb9259e936e37ff", "fusion_lat": 0.0, "name": "581ce075305eece8bfb9259e936e37ff", "is_reserved": 0, "rental_uris": {"android": "https://dc.lft.to/lastmile_qr_scan", "ios": "https://dc.lft.to/lastmile_qr_scan"}, "fusion_lon": 0.0}, {"lat": 38.8624585, "is_disabled": 0, "type": "electric_scooter", "lon": -76.98704383333333, "bike_id": "472fe929e4a323d68b44476639337c34", "fusion_lat": 0.0, "name": "472fe929e4a323d68b44476639337c34", "is_reserved": 0, "rental_uris": {"android": "https://dc.lft.to/lastmile_qr_scan", "ios": "https://dc.lft.to/lastmile_qr_scan"}, "fusion_lon": 0.0}, {"lat": 38.92227166666667, "is_disabled": 0, "type": "electric_scooter", "lon": -77.03886216666666, "bike_id": "87dd57763a1b6ef2c6beaaad7555e7d2", "fusion_lat": 0.0, "name": "87dd57763a1b6ef2c6beaaad7555e7d2", "is_reserved": 0, "rental_uris": {"android": "https://dc.lft.to/lastmile_qr_scan", "ios": "https://dc.lft.to/lastmile_qr_scan"}, "fusion_lon": 0.0}, {"lat": 38.9566565, "is_disabled": 0, "type": "electric_bike", "lon": -77.0278665, "bike_id": "9d5bd94d2df3263516d0220261561089", "fusion_lat": 0.0, "name": "9d5bd94d2df3263516d0220261561089", "is_reserved": 0, "rental_uris": {"android": "https://dc.lft.to/lastmile_qr_scan", "ios": "https://dc.lft.to/lastmile_qr_scan"}, "fusion_lon": 0.0}, {"lat": 38.89219466666667, "is_disabled": 0, "type": "electric_scooter", "lon": -77.02847033333333, "bike_id": "3b787bfc670ebe47ec31336c5a606544", "fusion_lat": 0.0, "name": "3b787bfc670ebe47ec31336c5a606544", "is_reserved": 0, "rental_uris": {"android": "https://dc.lft.to/lastmile_qr_scan", "ios": "https://dc.lft.to/lastmile_qr_scan"}, "fusion_lon": 0.0}, {"lat": 38.8661815, "is_disabled": 0, "type": "electric_scooter", "lon": -76.98655633333334, "bike_id": "4c1ac4212426e6b011a553b988356724", "fusion_lat": 0.0, "name": "4c1ac4212426e6b011a553b988356724", "is_reserved": 0, "rental_uris": {"android": "https://dc.lft.to/lastmile_qr_scan", "ios": "https://dc.lft.to/lastmile_qr_scan"}, "fusion_lon": 0.0}, {"lat": 38.885907, "is_disabled": 0, "type": "electric_scooter", "lon": -76.99152050000001, "bike_id": "f28cf3bd97e0121863764bbb69b01251", "fusion_lat": 0.0, "name": "f28cf3bd97e0121863764bbb69b01251", "is_reserved": 0, "rental_uris": {"android": "https://dc.lft.to/lastmile_qr_scan", "ios": "https://dc.lft.to/lastmile_qr_scan"}, "fusion_lon": 0.0}, {"lat": 38.93232716666667, "is_disabled": 0, "type": "electric_scooter", "lon": -77.032714, "bike_id": "8a85e711e121f817076c085720ce4f93", "fusion_lat": 0.0, "name": "8a85e711e121f817076c085720ce4f93", "is_reserved": 0, "rental_uris": {"android": "https://dc.lft.to/lastmile_qr_scan", "ios": "https://dc.lft.to/lastmile_qr_scan"}, "fusion_lon": 0.0}, {"lat": 38.886475, "is_disabled": 0, "type": "electric_bike", "lon": -77.16235766666667, "bike_id": "b48223985c51a42aeeb5438fbec6f573", "fusion_lat": 0.0, "name": "b48223985c51a42aeeb5438fbec6f573", "is_reserved": 0, "rental_uris": {"android": "https://dc.lft.to/lastmile_qr_scan", "ios": "https://dc.lft.to/lastmile_qr_scan"}, "fusion_lon": 0.0}, {"lat": 38.90339616666667, "is_disabled": 0, "type": "electric_scooter", "lon": -77.02006766666666, "bike_id": "9baae425078abbcaf85184feeac88944", "fusion_lat": 0.0, "name": "9baae425078abbcaf85184feeac88944", "is_reserved": 0, "rental_uris": {"android": "https://dc.lft.to/lastmile_qr_scan", "ios": "https://dc.lft.to/lastmile_qr_scan"}, "fusion_lon": 0.0}, {"lat": 38.927561, "is_disabled": 0, "type": "electric_scooter", "lon": -77.03220566666667, "bike_id": "dcc29157cd5bf0aa50eedd5181305563", "fusion_lat": 0.0, "name": "dcc29157cd5bf0aa50eedd5181305563", "is_reserved": 0, "rental_uris": {"android": "https://dc.lft.to/lastmile_qr_scan", "ios": "https://dc.lft.to/lastmile_qr_scan"}, "fusion_lon": 0.0}, {"lat": 38.9214895, "is_disabled": 0, "type": "electric_scooter", "lon": -77.04234583333333, "bike_id": "87629c84adae17914a41e79fd9138d91", "fusion_lat": 0.0, "name": "87629c84adae17914a41e79fd9138d91", "is_reserved": 0, "rental_uris": {"android": "https://dc.lft.to/lastmile_qr_scan", "ios": "https://dc.lft.to/lastmile_qr_scan"}, "fusion_lon": 0.0}, {"lat": 38.904674166666666, "is_disabled": 0, "type": "electric_scooter", "lon": -77.00777533333333, "bike_id": "d4346947fca3b6c0e940cf03a5657a11", "fusion_lat": 0.0, "name": "d4346947fca3b6c0e940cf03a5657a11", "is_reserved": 0, "rental_uris": {"android": "https://dc.lft.to/lastmile_qr_scan", "ios": "https://dc.lft.to/lastmile_qr_scan"}, "fusion_lon": 0.0}, {"lat": 38.9187825, "is_disabled": 0, "type": "electric_scooter", "lon": -77.03914216666666, "bike_id": "3053b7f1d1f0d54eac3ecfd19e4f3e7c", "fusion_lat": 0.0, "name": "3053b7f1d1f0d54eac3ecfd19e4f3e7c", "is_reserved": 0, "rental_uris": {"android": "https://dc.lft.to/lastmile_qr_scan", "ios": "https://dc.lft.to/lastmile_qr_scan"}, "fusion_lon": 0.0}, {"lat": 38.923187, "is_disabled": 0, "type": "electric_scooter", "lon": -77.03734116666666, "bike_id": "875ea575b8ed84e6029a934b9fbcf2ed", "fusion_lat": 0.0, "name": "875ea575b8ed84e6029a934b9fbcf2ed", "is_reserved": 0, "rental_uris": {"android": "https://dc.lft.to/lastmile_qr_scan", "ios": "https://dc.lft.to/lastmile_qr_scan"}, "fusion_lon": 0.0}, {"lat": 38.937317166666666, "is_disabled": 0, "type": "electric_scooter", "lon": -77.03273233333333, "bike_id": "836dc55cb374527faa7003bce925db48", "fusion_lat": 0.0, "name": "836dc55cb374527faa7003bce925db48", "is_reserved": 0, "rental_uris": {"android": "https://dc.lft.to/lastmile_qr_scan", "ios": "https://dc.lft.to/lastmile_qr_scan"}, "fusion_lon": 0.0}, {"lat": 38.90215883333333, "is_disabled": 0, "type": "electric_scooter", "lon": -77.0471435, "bike_id": "9cfc2da5e4e6ae96b56a02bda0c65b76", "fusion_lat": 0.0, "name": "9cfc2da5e4e6ae96b56a02bda0c65b76", "is_reserved": 0, "rental_uris": {"android": "https://dc.lft.to/lastmile_qr_scan", "ios": "https://dc.lft.to/lastmile_qr_scan"}, "fusion_lon": 0.0}, {"lat": 38.91989983333333, "is_disabled": 0, "type": "electric_scooter", "lon": -77.04771833333334, "bike_id": "b87e4228be144a74251efbcb06035c51", "fusion_lat": 0.0, "name": "b87e4228be144a74251efbcb06035c51", "is_reserved": 0, "rental_uris": {"android": "https://dc.lft.to/lastmile_qr_scan", "ios": "https://dc.lft.to/lastmile_qr_scan"}, "fusion_lon": 0.0}, {"lat": 38.9214145, "is_disabled": 0, "type": "electric_scooter", "lon": -77.04341933333333, "bike_id": "3a26d6c439c31935970d49d98860c76b", "fusion_lat": 0.0, "name": "3a26d6c439c31935970d49d98860c76b", "is_reserved": 0, "rental_uris": {"android": "https://dc.lft.to/lastmile_qr_scan", "ios": "https://dc.lft.to/lastmile_qr_scan"}, "fusion_lon": 0.0}, {"lat": 38.92491733333333, "is_disabled": 0, "type": "electric_scooter", "lon": -77.02136466666667, "bike_id": "99208cc95ad134caba483d2424204444", "fusion_lat": 0.0, "name": "99208cc95ad134caba483d2424204444", "is_reserved": 0, "rental_uris": {"android": "https://dc.lft.to/lastmile_qr_scan", "ios": "https://dc.lft.to/lastmile_qr_scan"}, "fusion_lon": 0.0}, {"lat": 38.9009395, "is_disabled": 0, "type": "electric_scooter", "lon": -77.0260865, "bike_id": "aa864c78612b8bdd0315ac7971db8051", "fusion_lat": 0.0, "name": "aa864c78612b8bdd0315ac7971db8051", "is_reserved": 0, "rental_uris": {"android": "https://dc.lft.to/lastmile_qr_scan", "ios": "https://dc.lft.to/lastmile_qr_scan"}, "fusion_lon": 0.0}, {"lat": 38.923247, "is_disabled": 0, "type": "electric_scooter", "lon": -77.039571, "bike_id": "4353728134c478bb7723f05be43edbaa", "fusion_lat": 0.0, "name": "4353728134c478bb7723f05be43edbaa", "is_reserved": 0, "rental_uris": {"android": "https://dc.lft.to/lastmile_qr_scan", "ios": "https://dc.lft.to/lastmile_qr_scan"}, "fusion_lon": 0.0}, {"lat": 38.91404816666667, "is_disabled": 0, "type": "electric_scooter", "lon": -77.0306395, "bike_id": "52b0cf1152ba756f92c53bc79e8617c0", "fusion_lat": 0.0, "name": "52b0cf1152ba756f92c53bc79e8617c0", "is_reserved": 0, "rental_uris": {"android": "https://dc.lft.to/lastmile_qr_scan", "ios": "https://dc.lft.to/lastmile_qr_scan"}, "fusion_lon": 0.0}, {"lat": 38.8960525, "is_disabled": 0, "type": "electric_scooter", "lon": -76.95594916666667, "bike_id": "20ca225fcbe3186f9adab87610602801", "fusion_lat": 0.0, "name": "20ca225fcbe3186f9adab87610602801", "is_reserved": 0, "rental_uris": {"android": "https://dc.lft.to/lastmile_qr_scan", "ios": "https://dc.lft.to/lastmile_qr_scan"}, "fusion_lon": 0.0}, {"lat": 38.903986, "is_disabled": 0, "type": "electric_scooter", "lon": -77.04415266666666, "bike_id": "9ae0a3d0203220271a60fb77f24a4f20", "fusion_lat": 0.0, "name": "9ae0a3d0203220271a60fb77f24a4f20", "is_reserved": 0, "rental_uris": {"android": "https://dc.lft.to/lastmile_qr_scan", "ios": "https://dc.lft.to/lastmile_qr_scan"}, "fusion_lon": 0.0}, {"lat": 38.91561033333333, "is_disabled": 0, "type": "electric_scooter", "lon": -77.02179233333334, "bike_id": "55149239b797098eda7c5b02c2cf5e23", "fusion_lat": 0.0, "name": "55149239b797098eda7c5b02c2cf5e23", "is_reserved": 0, "rental_uris": {"android": "https://dc.lft.to/lastmile_qr_scan", "ios": "https://dc.lft.to/lastmile_qr_scan"}, "fusion_lon": 0.0}, {"lat": 38.910443666666666, "is_disabled": 0, "type": "electric_scooter", "lon": -77.04077966666667, "bike_id": "bed1fbd5188fe02aaab4e1a5448fef91", "fusion_lat": 0.0, "name": "bed1fbd5188fe02aaab4e1a5448fef91", "is_reserved": 0, "rental_uris": {"android": "https://dc.lft.to/lastmile_qr_scan", "ios": "https://dc.lft.to/lastmile_qr_scan"}, "fusion_lon": 0.0}, {"lat": 38.88581283333333, "is_disabled": 0, "type": "electric_scooter", "lon": -77.01230933333333, "bike_id": "61d9223d11862ac1e7d5ab29a426e763", "fusion_lat": 0.0, "name": "61d9223d11862ac1e7d5ab29a426e763", "is_reserved": 0, "rental_uris": {"android": "https://dc.lft.to/lastmile_qr_scan", "ios": "https://dc.lft.to/lastmile_qr_scan"}, "fusion_lon": 0.0}, {"lat": 39.0242345, "is_disabled": 0, "type": "electric_bike", "lon": -77.13104466666667, "bike_id": "4fed0b0ee1e4352a33e3a6e4d1a03da1", "fusion_lat": 0.0, "name": "4fed0b0ee1e4352a33e3a6e4d1a03da1", "is_reserved": 0, "rental_uris": {"android": "https://dc.lft.to/lastmile_qr_scan", "ios": "https://dc.lft.to/lastmile_qr_scan"}, "fusion_lon": 0.0}, {"lat": 38.9282185, "is_disabled": 0, "type": "electric_scooter", "lon": -77.0225805, "bike_id": "ed61a2f25621c0c2a8d2520d6f2c9da5", "fusion_lat": 0.0, "name": "ed61a2f25621c0c2a8d2520d6f2c9da5", "is_reserved": 0, "rental_uris": {"android": "https://dc.lft.to/lastmile_qr_scan", "ios": "https://dc.lft.to/lastmile_qr_scan"}, "fusion_lon": 0.0}, {"lat": 38.96486483333333, "is_disabled": 0, "type": "electric_bike", "lon": -76.93848516666667, "bike_id": "3d273cad02adbade7b8443bfcdf3db65", "fusion_lat": 0.0, "name": "3d273cad02adbade7b8443bfcdf3db65", "is_reserved": 0, "rental_uris": {"android": "https://dc.lft.to/lastmile_qr_scan", "ios": "https://dc.lft.to/lastmile_qr_scan"}, "fusion_lon": 0.0}, {"lat": 38.917284333333335, "is_disabled": 0, "type": "electric_scooter", "lon": -77.04176966666667, "bike_id": "6b3d24f24e1b511973b72fc546eefe5f", "fusion_lat": 0.0, "name": "6b3d24f24e1b511973b72fc546eefe5f", "is_reserved": 0, "rental_uris": {"android": "https://dc.lft.to/lastmile_qr_scan", "ios": "https://dc.lft.to/lastmile_qr_scan"}, "fusion_lon": 0.0}, {"lat": 38.930866, "is_disabled": 0, "type": "electric_scooter", "lon": -76.96724816666666, "bike_id": "d39ce98bd676ed4e009368d72c1929d0", "fusion_lat": 0.0, "name": "d39ce98bd676ed4e009368d72c1929d0", "is_reserved": 0, "rental_uris": {"android": "https://dc.lft.to/lastmile_qr_scan", "ios": "https://dc.lft.to/lastmile_qr_scan"}, "fusion_lon": 0.0}, {"lat": 38.90584783333333, "is_disabled": 0, "type": "electric_scooter", "lon": -77.06308666666666, "bike_id": "db09b13cd00ce52874f560d35ade88b6", "fusion_lat": 0.0, "name": "db09b13cd00ce52874f560d35ade88b6", "is_reserved": 0, "rental_uris": {"android": "https://dc.lft.to/lastmile_qr_scan", "ios": "https://dc.lft.to/lastmile_qr_scan"}, "fusion_lon": 0.0}, {"lat": 38.91826233333333, "is_disabled": 0, "type": "electric_scooter", "lon": -77.038494, "bike_id": "d307900b2b0c237409fcd71c1ce0576d", "fusion_lat": 0.0, "name": "d307900b2b0c237409fcd71c1ce0576d", "is_reserved": 0, "rental_uris": {"android": "https://dc.lft.to/lastmile_qr_scan", "ios": "https://dc.lft.to/lastmile_qr_scan"}, "fusion_lon": 0.0}, {"lat": 39.03037033333333, "is_disabled": 0, "type": "electric_bike", "lon": -77.09475683333334, "bike_id": "a26d6e08b53b80667525ee2ac0e54b3d", "fusion_lat": 0.0, "name": "a26d6e08b53b80667525ee2ac0e54b3d", "is_reserved": 0, "rental_uris": {"android": "https://dc.lft.to/lastmile_qr_scan", "ios": "https://dc.lft.to/lastmile_qr_scan"}, "fusion_lon": 0.0}, {"lat": 38.93612616666667, "is_disabled": 0, "type": "electric_scooter", "lon": -77.03216716666667, "bike_id": "89953aaea1d719e823eb28780b8dcbdc", "fusion_lat": 0.0, "name": "89953aaea1d719e823eb28780b8dcbdc", "is_reserved": 0, "rental_uris": {"android": "https://dc.lft.to/lastmile_qr_scan", "ios": "https://dc.lft.to/lastmile_qr_scan"}, "fusion_lon": 0.0}, {"lat": 38.902327666666665, "is_disabled": 0, "type": "electric_scooter", "lon": -77.048644, "bike_id": "6b9a7025e1b8a497040f91bf299c8b86", "fusion_lat": 0.0, "name": "6b9a7025e1b8a497040f91bf299c8b86", "is_reserved": 0, "rental_uris": {"android": "https://dc.lft.to/lastmile_qr_scan", "ios": "https://dc.lft.to/lastmile_qr_scan"}, "fusion_lon": 0.0}, {"lat": 38.89204983333333, "is_disabled": 0, "type": "electric_scooter", "lon": -77.01705316666667, "bike_id": "8e1af7a7186e92590ac046595363eb00", "fusion_lat": 0.0, "name": "8e1af7a7186e92590ac046595363eb00", "is_reserved": 0, "rental_uris": {"android": "https://dc.lft.to/lastmile_qr_scan", "ios": "https://dc.lft.to/lastmile_qr_scan"}, "fusion_lon": 0.0}, {"lat": 38.930834, "is_disabled": 0, "type": "electric_scooter", "lon": -77.02800283333333, "bike_id": "8b49e45b6c50c8f9bf4858ee6f019ea1", "fusion_lat": 0.0, "name": "8b49e45b6c50c8f9bf4858ee6f019ea1", "is_reserved": 0, "rental_uris": {"android": "https://dc.lft.to/lastmile_qr_scan", "ios": "https://dc.lft.to/lastmile_qr_scan"}, "fusion_lon": 0.0}, {"lat": 38.93341066666667, "is_disabled": 0, "type": "electric_scooter", "lon": -76.9949955, "bike_id": "2298041a9d45ccc3790f516a7176d72a", "fusion_lat": 0.0, "name": "2298041a9d45ccc3790f516a7176d72a", "is_reserved": 0, "rental_uris": {"android": "https://dc.lft.to/lastmile_qr_scan", "ios": "https://dc.lft.to/lastmile_qr_scan"}, "fusion_lon": 0.0}, {"lat": 38.863665166666664, "is_disabled": 0, "type": "electric_scooter", "lon": -76.99051316666667, "bike_id": "622d2f85da2ddd89c8ae11a3ac1fc6c7", "fusion_lat": 0.0, "name": "622d2f85da2ddd89c8ae11a3ac1fc6c7", "is_reserved": 0, "rental_uris": {"android": "https://dc.lft.to/lastmile_qr_scan", "ios": "https://dc.lft.to/lastmile_qr_scan"}, "fusion_lon": 0.0}, {"lat": 38.8962625, "is_disabled": 0, "type": "electric_scooter", "lon": -77.0329275, "bike_id": "acf3aec82b0bb75b65cbee0ee706914c", "fusion_lat": 0.0, "name": "acf3aec82b0bb75b65cbee0ee706914c", "is_reserved": 0, "rental_uris": {"android": "https://dc.lft.to/lastmile_qr_scan", "ios": "https://dc.lft.to/lastmile_qr_scan"}, "fusion_lon": 0.0}, {"lat": 38.912542, "is_disabled": 0, "type": "electric_scooter", "lon": -77.04477766666666, "bike_id": "a80e9b57b7ebef879bcd4ecf37713cdd", "fusion_lat": 0.0, "name": "a80e9b57b7ebef879bcd4ecf37713cdd", "is_reserved": 0, "rental_uris": {"android": "https://dc.lft.to/lastmile_qr_scan", "ios": "https://dc.lft.to/lastmile_qr_scan"}, "fusion_lon": 0.0}, {"lat": 38.917611666666666, "is_disabled": 0, "type": "electric_scooter", "lon": -77.03667316666667, "bike_id": "cb2812fc0d48b2a3508b89ccadc6b2d5", "fusion_lat": 0.0, "name": "cb2812fc0d48b2a3508b89ccadc6b2d5", "is_reserved": 0, "rental_uris": {"android": "https://dc.lft.to/lastmile_qr_scan", "ios": "https://dc.lft.to/lastmile_qr_scan"}, "fusion_lon": 0.0}, {"lat": 38.90415383333333, "is_disabled": 0, "type": "electric_scooter", "lon": -77.0450185, "bike_id": "04f537b075232d5fcdadeb47a6f93803", "fusion_lat": 0.0, "name": "04f537b075232d5fcdadeb47a6f93803", "is_reserved": 0, "rental_uris": {"android": "https://dc.lft.to/lastmile_qr_scan", "ios": "https://dc.lft.to/lastmile_qr_scan"}, "fusion_lon": 0.0}, {"lat": 38.874990833333335, "is_disabled": 0, "type": "electric_scooter", "lon": -77.00190633333334, "bike_id": "d9c6cc8bcbfb4f2f541ced5557e0f796", "fusion_lat": 0.0, "name": "d9c6cc8bcbfb4f2f541ced5557e0f796", "is_reserved": 0, "rental_uris": {"android": "https://dc.lft.to/lastmile_qr_scan", "ios": "https://dc.lft.to/lastmile_qr_scan"}, "fusion_lon": 0.0}, {"lat": 38.943309666666664, "is_disabled": 0, "type": "electric_scooter", "lon": -77.073928, "bike_id": "bd9875140303a733656aea5586f28773", "fusion_lat": 0.0, "name": "bd9875140303a733656aea5586f28773", "is_reserved": 0, "rental_uris": {"android": "https://dc.lft.to/lastmile_qr_scan", "ios": "https://dc.lft.to/lastmile_qr_scan"}, "fusion_lon": 0.0}, {"lat": 38.886982333333336, "is_disabled": 0, "type": "electric_scooter", "lon": -77.03190466666666, "bike_id": "d877ee069bf21517f625f4554894eade", "fusion_lat": 0.0, "name": "d877ee069bf21517f625f4554894eade", "is_reserved": 0, "rental_uris": {"android": "https://dc.lft.to/lastmile_qr_scan", "ios": "https://dc.lft.to/lastmile_qr_scan"}, "fusion_lon": 0.0}, {"lat": 38.91689133333333, "is_disabled": 0, "type": "electric_scooter", "lon": -77.02964783333333, "bike_id": "39ee7b94b8f99188a2bde27ef1cce101", "fusion_lat": 0.0, "name": "39ee7b94b8f99188a2bde27ef1cce101", "is_reserved": 0, "rental_uris": {"android": "https://dc.lft.to/lastmile_qr_scan", "ios": "https://dc.lft.to/lastmile_qr_scan"}, "fusion_lon": 0.0}, {"lat": 38.893132333333334, "is_disabled": 0, "type": "electric_scooter", "lon": -77.0449255, "bike_id": "0d73eae056af4b4181be93001819acd2", "fusion_lat": 0.0, "name": "0d73eae056af4b4181be93001819acd2", "is_reserved": 0, "rental_uris": {"android": "https://dc.lft.to/lastmile_qr_scan", "ios": "https://dc.lft.to/lastmile_qr_scan"}, "fusion_lon": 0.0}, {"lat": 38.8872385, "is_disabled": 0, "type": "electric_scooter", "lon": -77.02074033333334, "bike_id": "e1030f473af0df31b2130e244b65a11b", "fusion_lat": 0.0, "name": "e1030f473af0df31b2130e244b65a11b", "is_reserved": 0, "rental_uris": {"android": "https://dc.lft.to/lastmile_qr_scan", "ios": "https://dc.lft.to/lastmile_qr_scan"}, "fusion_lon": 0.0}, {"lat": 38.947570666666664, "is_disabled": 0, "type": "electric_scooter", "lon": -77.0656815, "bike_id": "a648e917b838caf747b33b26b91904ea", "fusion_lat": 0.0, "name": "a648e917b838caf747b33b26b91904ea", "is_reserved": 0, "rental_uris": {"android": "https://dc.lft.to/lastmile_qr_scan", "ios": "https://dc.lft.to/lastmile_qr_scan"}, "fusion_lon": 0.0}, {"lat": 38.9146315, "is_disabled": 0, "type": "electric_scooter", "lon": -77.02198416666667, "bike_id": "c73be01eccae1b1286620c9636e00d8f", "fusion_lat": 0.0, "name": "c73be01eccae1b1286620c9636e00d8f", "is_reserved": 0, "rental_uris": {"android": "https://dc.lft.to/lastmile_qr_scan", "ios": "https://dc.lft.to/lastmile_qr_scan"}, "fusion_lon": 0.0}, {"lat": 38.898302666666666, "is_disabled": 0, "type": "electric_scooter", "lon": -77.03337316666666, "bike_id": "63a7e8396d22a8864f816a62113f83c8", "fusion_lat": 0.0, "name": "63a7e8396d22a8864f816a62113f83c8", "is_reserved": 0, "rental_uris": {"android": "https://dc.lft.to/lastmile_qr_scan", "ios": "https://dc.lft.to/lastmile_qr_scan"}, "fusion_lon": 0.0}, {"lat": 38.918142, "is_disabled": 0, "type": "electric_scooter", "lon": -77.04171533333333, "bike_id": "65a46f1e9cbe823c62f2ddca829c055a", "fusion_lat": 0.0, "name": "65a46f1e9cbe823c62f2ddca829c055a", "is_reserved": 0, "rental_uris": {"android": "https://dc.lft.to/lastmile_qr_scan", "ios": "https://dc.lft.to/lastmile_qr_scan"}, "fusion_lon": 0.0}, {"lat": 38.93982033333333, "is_disabled": 0, "type": "electric_scooter", "lon": -77.02899916666667, "bike_id": "eec5c49b7e262b17cf08e1e1611ee483", "fusion_lat": 0.0, "name": "eec5c49b7e262b17cf08e1e1611ee483", "is_reserved": 0, "rental_uris": {"android": "https://dc.lft.to/lastmile_qr_scan", "ios": "https://dc.lft.to/lastmile_qr_scan"}, "fusion_lon": 0.0}, {"lat": 38.89729916666667, "is_disabled": 0, "type": "electric_scooter", "lon": -77.049949, "bike_id": "cc757cbc91b7ac7fb1370d70adb49d46", "fusion_lat": 0.0, "name": "cc757cbc91b7ac7fb1370d70adb49d46", "is_reserved": 0, "rental_uris": {"android": "https://dc.lft.to/lastmile_qr_scan", "ios": "https://dc.lft.to/lastmile_qr_scan"}, "fusion_lon": 0.0}, {"lat": 38.9307755, "is_disabled": 0, "type": "electric_scooter", "lon": -77.0311255, "bike_id": "ee87969bd12500d0e9e080f5d8747344", "fusion_lat": 0.0, "name": "ee87969bd12500d0e9e080f5d8747344", "is_reserved": 0, "rental_uris": {"android": "https://dc.lft.to/lastmile_qr_scan", "ios": "https://dc.lft.to/lastmile_qr_scan"}, "fusion_lon": 0.0}, {"lat": 38.916699333333334, "is_disabled": 0, "type": "electric_scooter", "lon": -77.027202, "bike_id": "880dcb57092f9c467a0097811c11e36c", "fusion_lat": 0.0, "name": "880dcb57092f9c467a0097811c11e36c", "is_reserved": 0, "rental_uris": {"android": "https://dc.lft.to/lastmile_qr_scan", "ios": "https://dc.lft.to/lastmile_qr_scan"}, "fusion_lon": 0.0}, {"lat": 38.949017, "is_disabled": 0, "type": "electric_bike", "lon": -76.97242366666667, "bike_id": "179ca3abc6a9665a4fa85d5c6f20db7f", "fusion_lat": 0.0, "name": "179ca3abc6a9665a4fa85d5c6f20db7f", "is_reserved": 0, "rental_uris": {"android": "https://dc.lft.to/lastmile_qr_scan", "ios": "https://dc.lft.to/lastmile_qr_scan"}, "fusion_lon": 0.0}, {"lat": 38.92711083333333, "is_disabled": 0, "type": "electric_scooter", "lon": -77.03654583333334, "bike_id": "98c783968f781818c059e33a854ea572", "fusion_lat": 0.0, "name": "98c783968f781818c059e33a854ea572", "is_reserved": 0, "rental_uris": {"android": "https://dc.lft.to/lastmile_qr_scan", "ios": "https://dc.lft.to/lastmile_qr_scan"}, "fusion_lon": 0.0}, {"lat": 38.91273966666667, "is_disabled": 0, "type": "electric_scooter", "lon": -77.0451665, "bike_id": "3f4af4a45b71ea338099a6b7ce0de85b", "fusion_lat": 0.0, "name": "3f4af4a45b71ea338099a6b7ce0de85b", "is_reserved": 0, "rental_uris": {"android": "https://dc.lft.to/lastmile_qr_scan", "ios": "https://dc.lft.to/lastmile_qr_scan"}, "fusion_lon": 0.0}, {"lat": 38.89664416666667, "is_disabled": 0, "type": "electric_scooter", "lon": -77.0334935, "bike_id": "986190db2fe5296d447dade8da39450c", "fusion_lat": 0.0, "name": "986190db2fe5296d447dade8da39450c", "is_reserved": 0, "rental_uris": {"android": "https://dc.lft.to/lastmile_qr_scan", "ios": "https://dc.lft.to/lastmile_qr_scan"}, "fusion_lon": 0.0}, {"lat": 38.90611116666667, "is_disabled": 0, "type": "electric_scooter", "lon": -77.03964166666667, "bike_id": "356c64af69f263323c9de1fae2aad105", "fusion_lat": 0.0, "name": "356c64af69f263323c9de1fae2aad105", "is_reserved": 0, "rental_uris": {"android": "https://dc.lft.to/lastmile_qr_scan", "ios": "https://dc.lft.to/lastmile_qr_scan"}, "fusion_lon": 0.0}, {"lat": 38.90317483333333, "is_disabled": 0, "type": "electric_scooter", "lon": -77.037805, "bike_id": "418954c9cb74cc82db0345c4cf5ee8b5", "fusion_lat": 0.0, "name": "418954c9cb74cc82db0345c4cf5ee8b5", "is_reserved": 0, "rental_uris": {"android": "https://dc.lft.to/lastmile_qr_scan", "ios": "https://dc.lft.to/lastmile_qr_scan"}, "fusion_lon": 0.0}, {"lat": 38.91549033333333, "is_disabled": 0, "type": "electric_scooter", "lon": -77.0385055, "bike_id": "8aaa1488bd57858a0f7d9c02559f56da", "fusion_lat": 0.0, "name": "8aaa1488bd57858a0f7d9c02559f56da", "is_reserved": 0, "rental_uris": {"android": "https://dc.lft.to/lastmile_qr_scan", "ios": "https://dc.lft.to/lastmile_qr_scan"}, "fusion_lon": 0.0}, {"lat": 38.8605005, "is_disabled": 0, "type": "electric_scooter", "lon": -77.05773116666667, "bike_id": "117f6fb69eca5a3d674b0d1ddd3576b9", "fusion_lat": 0.0, "name": "117f6fb69eca5a3d674b0d1ddd3576b9", "is_reserved": 0, "rental_uris": {"android": "https://dc.lft.to/lastmile_qr_scan", "ios": "https://dc.lft.to/lastmile_qr_scan"}, "fusion_lon": 0.0}, {"lat": 38.920319, "is_disabled": 0, "type": "electric_scooter", "lon": -76.97907233333333, "bike_id": "a4bca006af01bf39ed411ad591e21087", "fusion_lat": 0.0, "name": "a4bca006af01bf39ed411ad591e21087", "is_reserved": 0, "rental_uris": {"android": "https://dc.lft.to/lastmile_qr_scan", "ios": "https://dc.lft.to/lastmile_qr_scan"}, "fusion_lon": 0.0}, {"lat": 38.92281716666667, "is_disabled": 0, "type": "electric_scooter", "lon": -77.03660766666667, "bike_id": "ced8b5e8a3a4b5cbdb57dfa183790253", "fusion_lat": 0.0, "name": "ced8b5e8a3a4b5cbdb57dfa183790253", "is_reserved": 0, "rental_uris": {"android": "https://dc.lft.to/lastmile_qr_scan", "ios": "https://dc.lft.to/lastmile_qr_scan"}, "fusion_lon": 0.0}, {"lat": 38.91683033333333, "is_disabled": 0, "type": "electric_scooter", "lon": -77.02745633333333, "bike_id": "e15a51ec11f00e466aa2e3dd272b010d", "fusion_lat": 0.0, "name": "e15a51ec11f00e466aa2e3dd272b010d", "is_reserved": 0, "rental_uris": {"android": "https://dc.lft.to/lastmile_qr_scan", "ios": "https://dc.lft.to/lastmile_qr_scan"}, "fusion_lon": 0.0}, {"lat": 38.9051765, "is_disabled": 0, "type": "electric_scooter", "lon": -77.04771783333334, "bike_id": "a8f43689e395b240caba15cea841402e", "fusion_lat": 0.0, "name": "a8f43689e395b240caba15cea841402e", "is_reserved": 0, "rental_uris": {"android": "https://dc.lft.to/lastmile_qr_scan", "ios": "https://dc.lft.to/lastmile_qr_scan"}, "fusion_lon": 0.0}, {"lat": 38.93343216666667, "is_disabled": 0, "type": "electric_scooter", "lon": -77.05868966666667, "bike_id": "911f4f57152a6bc7be95874f19857e9f", "fusion_lat": 0.0, "name": "911f4f57152a6bc7be95874f19857e9f", "is_reserved": 0, "rental_uris": {"android": "https://dc.lft.to/lastmile_qr_scan", "ios": "https://dc.lft.to/lastmile_qr_scan"}, "fusion_lon": 0.0}, {"lat": 38.8974205, "is_disabled": 0, "type": "electric_scooter", "lon": -77.03189166666667, "bike_id": "cf2a69d21bb03ad812c69640930986c2", "fusion_lat": 0.0, "name": "cf2a69d21bb03ad812c69640930986c2", "is_reserved": 0, "rental_uris": {"android": "https://dc.lft.to/lastmile_qr_scan", "ios": "https://dc.lft.to/lastmile_qr_scan"}, "fusion_lon": 0.0}, {"lat": 38.931544, "is_disabled": 0, "type": "electric_scooter", "lon": -77.03640166666666, "bike_id": "c7c37459881a8dd0449f975c3f77423d", "fusion_lat": 0.0, "name": "c7c37459881a8dd0449f975c3f77423d", "is_reserved": 0, "rental_uris": {"android": "https://dc.lft.to/lastmile_qr_scan", "ios": "https://dc.lft.to/lastmile_qr_scan"}, "fusion_lon": 0.0}, {"lat": 38.9002585, "is_disabled": 0, "type": "electric_scooter", "lon": -77.0117615, "bike_id": "2627023d7ba1e5a80aa4ebad61f476a2", "fusion_lat": 0.0, "name": "2627023d7ba1e5a80aa4ebad61f476a2", "is_reserved": 0, "rental_uris": {"android": "https://dc.lft.to/lastmile_qr_scan", "ios": "https://dc.lft.to/lastmile_qr_scan"}, "fusion_lon": 0.0}, {"lat": 38.898445833333334, "is_disabled": 0, "type": "electric_scooter", "lon": -77.02880783333333, "bike_id": "38fd6c1b8ac2163bd8c5121e364e9246", "fusion_lat": 0.0, "name": "38fd6c1b8ac2163bd8c5121e364e9246", "is_reserved": 0, "rental_uris": {"android": "https://dc.lft.to/lastmile_qr_scan", "ios": "https://dc.lft.to/lastmile_qr_scan"}, "fusion_lon": 0.0}, {"lat": 38.90548366666667, "is_disabled": 0, "type": "electric_scooter", "lon": -77.04481116666666, "bike_id": "32ce5f707a9068e4fe2549ee4b6dde6f", "fusion_lat": 0.0, "name": "32ce5f707a9068e4fe2549ee4b6dde6f", "is_reserved": 0, "rental_uris": {"android": "https://dc.lft.to/lastmile_qr_scan", "ios": "https://dc.lft.to/lastmile_qr_scan"}, "fusion_lon": 0.0}, {"lat": 38.923107333333334, "is_disabled": 0, "type": "electric_scooter", "lon": -77.03967966666667, "bike_id": "cf5c3dac0073bacacda4033f760c1187", "fusion_lat": 0.0, "name": "cf5c3dac0073bacacda4033f760c1187", "is_reserved": 0, "rental_uris": {"android": "https://dc.lft.to/lastmile_qr_scan", "ios": "https://dc.lft.to/lastmile_qr_scan"}, "fusion_lon": 0.0}, {"lat": 38.92464966666667, "is_disabled": 0, "type": "electric_scooter", "lon": -77.02834066666667, "bike_id": "986b64775e1fd0e0a9c4aaf950b8d853", "fusion_lat": 0.0, "name": "986b64775e1fd0e0a9c4aaf950b8d853", "is_reserved": 0, "rental_uris": {"android": "https://dc.lft.to/lastmile_qr_scan", "ios": "https://dc.lft.to/lastmile_qr_scan"}, "fusion_lon": 0.0}, {"lat": 38.918208, "is_disabled": 0, "type": "electric_scooter", "lon": -77.02510883333333, "bike_id": "8ee08796b39e91686ecea844c0c5fb15", "fusion_lat": 0.0, "name": "8ee08796b39e91686ecea844c0c5fb15", "is_reserved": 0, "rental_uris": {"android": "https://dc.lft.to/lastmile_qr_scan", "ios": "https://dc.lft.to/lastmile_qr_scan"}, "fusion_lon": 0.0}, {"lat": 38.894915, "is_disabled": 0, "type": "electric_scooter", "lon": -77.0229065, "bike_id": "561491f5fbbdc0a16520e9bbc9d9e4dd", "fusion_lat": 0.0, "name": "561491f5fbbdc0a16520e9bbc9d9e4dd", "is_reserved": 0, "rental_uris": {"android": "https://dc.lft.to/lastmile_qr_scan", "ios": "https://dc.lft.to/lastmile_qr_scan"}, "fusion_lon": 0.0}, {"lat": 38.89344, "is_disabled": 0, "type": "electric_scooter", "lon": -76.94934483333333, "bike_id": "2565f8fd048592d4e410beda2c39ff38", "fusion_lat": 0.0, "name": "2565f8fd048592d4e410beda2c39ff38", "is_reserved": 0, "rental_uris": {"android": "https://dc.lft.to/lastmile_qr_scan", "ios": "https://dc.lft.to/lastmile_qr_scan"}, "fusion_lon": 0.0}, {"lat": 38.921578833333335, "is_disabled": 0, "type": "electric_scooter", "lon": -77.03388166666667, "bike_id": "895330503c072bd3484002579e66e46a", "fusion_lat": 0.0, "name": "895330503c072bd3484002579e66e46a", "is_reserved": 0, "rental_uris": {"android": "https://dc.lft.to/lastmile_qr_scan", "ios": "https://dc.lft.to/lastmile_qr_scan"}, "fusion_lon": 0.0}, {"lat": 38.934729833333336, "is_disabled": 0, "type": "electric_scooter", "lon": -77.019267, "bike_id": "c033e98e826a2f6e585bc10763ce2255", "fusion_lat": 0.0, "name": "c033e98e826a2f6e585bc10763ce2255", "is_reserved": 0, "rental_uris": {"android": "https://dc.lft.to/lastmile_qr_scan", "ios": "https://dc.lft.to/lastmile_qr_scan"}, "fusion_lon": 0.0}, {"lat": 38.9027245, "is_disabled": 0, "type": "electric_scooter", "lon": -77.0385815, "bike_id": "484d9634a5b339fd888a3da871bc41a0", "fusion_lat": 0.0, "name": "484d9634a5b339fd888a3da871bc41a0", "is_reserved": 0, "rental_uris": {"android": "https://dc.lft.to/lastmile_qr_scan", "ios": "https://dc.lft.to/lastmile_qr_scan"}, "fusion_lon": 0.0}, {"lat": 38.944284833333334, "is_disabled": 0, "type": "electric_scooter", "lon": -76.99209933333333, "bike_id": "c948284199a133f79eee520a08b71c50", "fusion_lat": 0.0, "name": "c948284199a133f79eee520a08b71c50", "is_reserved": 0, "rental_uris": {"android": "https://dc.lft.to/lastmile_qr_scan", "ios": "https://dc.lft.to/lastmile_qr_scan"}, "fusion_lon": 0.0}, {"lat": 38.8849925, "is_disabled": 0, "type": "electric_scooter", "lon": -77.0056965, "bike_id": "73faf52f5fee3666e3d5f8bd09c0d24f", "fusion_lat": 0.0, "name": "73faf52f5fee3666e3d5f8bd09c0d24f", "is_reserved": 0, "rental_uris": {"android": "https://dc.lft.to/lastmile_qr_scan", "ios": "https://dc.lft.to/lastmile_qr_scan"}, "fusion_lon": 0.0}, {"lat": 38.88618116666667, "is_disabled": 0, "type": "electric_scooter", "lon": -77.02174233333334, "bike_id": "1e22cedf7522ead64058a459dbfcf28f", "fusion_lat": 0.0, "name": "1e22cedf7522ead64058a459dbfcf28f", "is_reserved": 0, "rental_uris": {"android": "https://dc.lft.to/lastmile_qr_scan", "ios": "https://dc.lft.to/lastmile_qr_scan"}, "fusion_lon": 0.0}, {"lat": 38.93228833333333, "is_disabled": 0, "type": "electric_scooter", "lon": -77.03860116666667, "bike_id": "35351dc61029190a9d720042fc1f09bc", "fusion_lat": 0.0, "name": "35351dc61029190a9d720042fc1f09bc", "is_reserved": 0, "rental_uris": {"android": "https://dc.lft.to/lastmile_qr_scan", "ios": "https://dc.lft.to/lastmile_qr_scan"}, "fusion_lon": 0.0}, {"lat": 38.8939735, "is_disabled": 0, "type": "electric_scooter", "lon": -77.01083783333333, "bike_id": "f553e1ab88d4b756683604526adf7c84", "fusion_lat": 0.0, "name": "f553e1ab88d4b756683604526adf7c84", "is_reserved": 0, "rental_uris": {"android": "https://dc.lft.to/lastmile_qr_scan", "ios": "https://dc.lft.to/lastmile_qr_scan"}, "fusion_lon": 0.0}, {"lat": 38.91946083333333, "is_disabled": 0, "type": "electric_scooter", "lon": -77.041522, "bike_id": "4c89f928a0f9bf98b895173d4302b601", "fusion_lat": 0.0, "name": "4c89f928a0f9bf98b895173d4302b601", "is_reserved": 0, "rental_uris": {"android": "https://dc.lft.to/lastmile_qr_scan", "ios": "https://dc.lft.to/lastmile_qr_scan"}, "fusion_lon": 0.0}, {"lat": 38.905880833333335, "is_disabled": 0, "type": "electric_scooter", "lon": -77.04113216666667, "bike_id": "e63b271f07aa2183d9638bc0e32fe1d6", "fusion_lat": 0.0, "name": "e63b271f07aa2183d9638bc0e32fe1d6", "is_reserved": 0, "rental_uris": {"android": "https://dc.lft.to/lastmile_qr_scan", "ios": "https://dc.lft.to/lastmile_qr_scan"}, "fusion_lon": 0.0}, {"lat": 38.912554666666665, "is_disabled": 0, "type": "electric_scooter", "lon": -77.044462, "bike_id": "996e2887803b0b4e487ee86e2e63c2e3", "fusion_lat": 0.0, "name": "996e2887803b0b4e487ee86e2e63c2e3", "is_reserved": 0, "rental_uris": {"android": "https://dc.lft.to/lastmile_qr_scan", "ios": "https://dc.lft.to/lastmile_qr_scan"}, "fusion_lon": 0.0}, {"lat": 38.9238805, "is_disabled": 0, "type": "electric_scooter", "lon": -77.040794, "bike_id": "20e2ff9a7054bdb1513c90f7e6ab67cc", "fusion_lat": 0.0, "name": "20e2ff9a7054bdb1513c90f7e6ab67cc", "is_reserved": 0, "rental_uris": {"android": "https://dc.lft.to/lastmile_qr_scan", "ios": "https://dc.lft.to/lastmile_qr_scan"}, "fusion_lon": 0.0}, {"lat": 38.890616333333334, "is_disabled": 0, "type": "electric_scooter", "lon": -76.94341266666666, "bike_id": "b184a1a3374f695ea90f4990797de2b4", "fusion_lat": 0.0, "name": "b184a1a3374f695ea90f4990797de2b4", "is_reserved": 0, "rental_uris": {"android": "https://dc.lft.to/lastmile_qr_scan", "ios": "https://dc.lft.to/lastmile_qr_scan"}, "fusion_lon": 0.0}, {"lat": 38.93081983333333, "is_disabled": 0, "type": "electric_scooter", "lon": -77.02798066666666, "bike_id": "f683962cf4c191005286d4d311a97c82", "fusion_lat": 0.0, "name": "f683962cf4c191005286d4d311a97c82", "is_reserved": 0, "rental_uris": {"android": "https://dc.lft.to/lastmile_qr_scan", "ios": "https://dc.lft.to/lastmile_qr_scan"}, "fusion_lon": 0.0}, {"lat": 38.9072185, "is_disabled": 0, "type": "electric_scooter", "lon": -77.02327266666667, "bike_id": "e8ca40bd3414a2283aa361cb8a384055", "fusion_lat": 0.0, "name": "e8ca40bd3414a2283aa361cb8a384055", "is_reserved": 0, "rental_uris": {"android": "https://dc.lft.to/lastmile_qr_scan", "ios": "https://dc.lft.to/lastmile_qr_scan"}, "fusion_lon": 0.0}, {"lat": 38.91001633333333, "is_disabled": 0, "type": "electric_scooter", "lon": -77.034679, "bike_id": "a22ff188938ccd638e01275c0a98dead", "fusion_lat": 0.0, "name": "a22ff188938ccd638e01275c0a98dead", "is_reserved": 0, "rental_uris": {"android": "https://dc.lft.to/lastmile_qr_scan", "ios": "https://dc.lft.to/lastmile_qr_scan"}, "fusion_lon": 0.0}, {"lat": 38.9639, "is_disabled": 0, "type": "electric_scooter", "lon": -77.02599283333333, "bike_id": "033c9b108f5beeb3a3c83d2f2e4181bf", "fusion_lat": 0.0, "name": "033c9b108f5beeb3a3c83d2f2e4181bf", "is_reserved": 0, "rental_uris": {"android": "https://dc.lft.to/lastmile_qr_scan", "ios": "https://dc.lft.to/lastmile_qr_scan"}, "fusion_lon": 0.0}, {"lat": 38.924564, "is_disabled": 0, "type": "electric_bike", "lon": -77.2083995, "bike_id": "e2650174eebf996c06af421c1ba04183", "fusion_lat": 0.0, "name": "e2650174eebf996c06af421c1ba04183", "is_reserved": 0, "rental_uris": {"android": "https://dc.lft.to/lastmile_qr_scan", "ios": "https://dc.lft.to/lastmile_qr_scan"}, "fusion_lon": 0.0}, {"lat": 38.908513666666664, "is_disabled": 0, "type": "electric_scooter", "lon": -76.99953533333333, "bike_id": "60c8ea820f6ed067d9f0bfeb71eed6dc", "fusion_lat": 0.0, "name": "60c8ea820f6ed067d9f0bfeb71eed6dc", "is_reserved": 0, "rental_uris": {"android": "https://dc.lft.to/lastmile_qr_scan", "ios": "https://dc.lft.to/lastmile_qr_scan"}, "fusion_lon": 0.0}, {"lat": 38.951812, "is_disabled": 0, "type": "electric_scooter", "lon": -77.02619733333333, "bike_id": "819366c97a7e279c02f1592e97b23e09", "fusion_lat": 0.0, "name": "819366c97a7e279c02f1592e97b23e09", "is_reserved": 0, "rental_uris": {"android": "https://dc.lft.to/lastmile_qr_scan", "ios": "https://dc.lft.to/lastmile_qr_scan"}, "fusion_lon": 0.0}, {"lat": 38.9366055, "is_disabled": 0, "type": "electric_scooter", "lon": -77.03645233333333, "bike_id": "0a3c1bee3eadbbe3c004c720e16398c2", "fusion_lat": 0.0, "name": "0a3c1bee3eadbbe3c004c720e16398c2", "is_reserved": 0, "rental_uris": {"android": "https://dc.lft.to/lastmile_qr_scan", "ios": "https://dc.lft.to/lastmile_qr_scan"}, "fusion_lon": 0.0}, {"lat": 38.900369, "is_disabled": 0, "type": "electric_scooter", "lon": -77.0056875, "bike_id": "af10d4680b02f2c407d18a4d427b79b8", "fusion_lat": 0.0, "name": "af10d4680b02f2c407d18a4d427b79b8", "is_reserved": 0, "rental_uris": {"android": "https://dc.lft.to/lastmile_qr_scan", "ios": "https://dc.lft.to/lastmile_qr_scan"}, "fusion_lon": 0.0}, {"lat": 38.905232166666664, "is_disabled": 0, "type": "electric_scooter", "lon": -77.067843, "bike_id": "73445ec352e0957a4d15cb8475f98b5d", "fusion_lat": 0.0, "name": "73445ec352e0957a4d15cb8475f98b5d", "is_reserved": 0, "rental_uris": {"android": "https://dc.lft.to/lastmile_qr_scan", "ios": "https://dc.lft.to/lastmile_qr_scan"}, "fusion_lon": 0.0}, {"lat": 38.893659, "is_disabled": 0, "type": "electric_scooter", "lon": -77.04803933333334, "bike_id": "b3312229e7298dab3baf657d7291b959", "fusion_lat": 0.0, "name": "b3312229e7298dab3baf657d7291b959", "is_reserved": 0, "rental_uris": {"android": "https://dc.lft.to/lastmile_qr_scan", "ios": "https://dc.lft.to/lastmile_qr_scan"}, "fusion_lon": 0.0}, {"lat": 38.90775466666667, "is_disabled": 0, "type": "electric_scooter", "lon": -77.03836633333333, "bike_id": "39f4b0c17dd8cd888c7e3643de7c248f", "fusion_lat": 0.0, "name": "39f4b0c17dd8cd888c7e3643de7c248f", "is_reserved": 0, "rental_uris": {"android": "https://dc.lft.to/lastmile_qr_scan", "ios": "https://dc.lft.to/lastmile_qr_scan"}, "fusion_lon": 0.0}, {"lat": 38.8918365, "is_disabled": 0, "type": "electric_bike", "lon": -77.12260366666666, "bike_id": "cbad5555738792885b51e0a085442ff8", "fusion_lat": 0.0, "name": "cbad5555738792885b51e0a085442ff8", "is_reserved": 0, "rental_uris": {"android": "https://dc.lft.to/lastmile_qr_scan", "ios": "https://dc.lft.to/lastmile_qr_scan"}, "fusion_lon": 0.0}, {"lat": 38.85808183333333, "is_disabled": 0, "type": "electric_scooter", "lon": -76.98655916666667, "bike_id": "a25d4cfd644c9b7c7e1a8b091774a862", "fusion_lat": 0.0, "name": "a25d4cfd644c9b7c7e1a8b091774a862", "is_reserved": 0, "rental_uris": {"android": "https://dc.lft.to/lastmile_qr_scan", "ios": "https://dc.lft.to/lastmile_qr_scan"}, "fusion_lon": 0.0}, {"lat": 38.90774, "is_disabled": 0, "type": "electric_scooter", "lon": -77.038366, "bike_id": "e43776c7738043a6bc19764c644759c9", "fusion_lat": 0.0, "name": "e43776c7738043a6bc19764c644759c9", "is_reserved": 0, "rental_uris": {"android": "https://dc.lft.to/lastmile_qr_scan", "ios": "https://dc.lft.to/lastmile_qr_scan"}, "fusion_lon": 0.0}, {"lat": 38.92758933333333, "is_disabled": 0, "type": "electric_scooter", "lon": -77.03222116666667, "bike_id": "fa07fe6f03008d5b88ac16a6d7179476", "fusion_lat": 0.0, "name": "fa07fe6f03008d5b88ac16a6d7179476", "is_reserved": 0, "rental_uris": {"android": "https://dc.lft.to/lastmile_qr_scan", "ios": "https://dc.lft.to/lastmile_qr_scan"}, "fusion_lon": 0.0}, {"lat": 38.90262833333333, "is_disabled": 0, "type": "electric_scooter", "lon": -77.03857166666667, "bike_id": "004b3b909de04ede9626ba8471579b73", "fusion_lat": 0.0, "name": "004b3b909de04ede9626ba8471579b73", "is_reserved": 0, "rental_uris": {"android": "https://dc.lft.to/lastmile_qr_scan", "ios": "https://dc.lft.to/lastmile_qr_scan"}, "fusion_lon": 0.0}, {"lat": 38.95608133333333, "is_disabled": 0, "type": "electric_scooter", "lon": -77.02763216666666, "bike_id": "2a39370d772ecbef44f83f77a5ee7ee9", "fusion_lat": 0.0, "name": "2a39370d772ecbef44f83f77a5ee7ee9", "is_reserved": 0, "rental_uris": {"android": "https://dc.lft.to/lastmile_qr_scan", "ios": "https://dc.lft.to/lastmile_qr_scan"}, "fusion_lon": 0.0}, {"lat": 38.93075566666667, "is_disabled": 0, "type": "electric_scooter", "lon": -77.03734683333333, "bike_id": "217a08c53fd8dec885f025c51132a54e", "fusion_lat": 0.0, "name": "217a08c53fd8dec885f025c51132a54e", "is_reserved": 0, "rental_uris": {"android": "https://dc.lft.to/lastmile_qr_scan", "ios": "https://dc.lft.to/lastmile_qr_scan"}, "fusion_lon": 0.0}, {"lat": 38.886391333333336, "is_disabled": 0, "type": "electric_bike", "lon": -76.95476116666667, "bike_id": "40cfc8efbe0989abee9247344c6e1af0", "fusion_lat": 0.0, "name": "40cfc8efbe0989abee9247344c6e1af0", "is_reserved": 0, "rental_uris": {"android": "https://dc.lft.to/lastmile_qr_scan", "ios": "https://dc.lft.to/lastmile_qr_scan"}, "fusion_lon": 0.0}, {"lat": 38.9012515, "is_disabled": 0, "type": "electric_scooter", "lon": -77.02887266666667, "bike_id": "978014c4915f679ce77e5c222029c6ea", "fusion_lat": 0.0, "name": "978014c4915f679ce77e5c222029c6ea", "is_reserved": 0, "rental_uris": {"android": "https://dc.lft.to/lastmile_qr_scan", "ios": "https://dc.lft.to/lastmile_qr_scan"}, "fusion_lon": 0.0}, {"lat": 38.88517083333333, "is_disabled": 0, "type": "electric_scooter", "lon": -77.00572416666667, "bike_id": "4281eafa9cf6feb54bff49da1c333366", "fusion_lat": 0.0, "name": "4281eafa9cf6feb54bff49da1c333366", "is_reserved": 0, "rental_uris": {"android": "https://dc.lft.to/lastmile_qr_scan", "ios": "https://dc.lft.to/lastmile_qr_scan"}, "fusion_lon": 0.0}, {"lat": 38.89816366666667, "is_disabled": 0, "type": "electric_scooter", "lon": -76.99699183333334, "bike_id": "c6ddc5d9bda72869768473470aa80a00", "fusion_lat": 0.0, "name": "c6ddc5d9bda72869768473470aa80a00", "is_reserved": 0, "rental_uris": {"android": "https://dc.lft.to/lastmile_qr_scan", "ios": "https://dc.lft.to/lastmile_qr_scan"}, "fusion_lon": 0.0}, {"lat": 38.91403233333333, "is_disabled": 0, "type": "electric_scooter", "lon": -77.03898583333333, "bike_id": "eb8cf645adedba7770f59bbb2606bd77", "fusion_lat": 0.0, "name": "eb8cf645adedba7770f59bbb2606bd77", "is_reserved": 0, "rental_uris": {"android": "https://dc.lft.to/lastmile_qr_scan", "ios": "https://dc.lft.to/lastmile_qr_scan"}, "fusion_lon": 0.0}, {"lat": 39.05634466666667, "is_disabled": 0, "type": "electric_bike", "lon": -77.12527816666666, "bike_id": "34d4fd45aa28032601478d1e2a20fc9e", "fusion_lat": 0.0, "name": "34d4fd45aa28032601478d1e2a20fc9e", "is_reserved": 0, "rental_uris": {"android": "https://dc.lft.to/lastmile_qr_scan", "ios": "https://dc.lft.to/lastmile_qr_scan"}, "fusion_lon": 0.0}, {"lat": 38.89277216666667, "is_disabled": 0, "type": "electric_scooter", "lon": -76.9423805, "bike_id": "b9291b334a9f2b34a2975691cdddf096", "fusion_lat": 0.0, "name": "b9291b334a9f2b34a2975691cdddf096", "is_reserved": 0, "rental_uris": {"android": "https://dc.lft.to/lastmile_qr_scan", "ios": "https://dc.lft.to/lastmile_qr_scan"}, "fusion_lon": 0.0}, {"lat": 38.9001045, "is_disabled": 0, "type": "electric_scooter", "lon": -77.0451145, "bike_id": "2c2b864884e105e3a9e3c31cbf81ad68", "fusion_lat": 0.0, "name": "2c2b864884e105e3a9e3c31cbf81ad68", "is_reserved": 0, "rental_uris": {"android": "https://dc.lft.to/lastmile_qr_scan", "ios": "https://dc.lft.to/lastmile_qr_scan"}, "fusion_lon": 0.0}, {"lat": 38.960181, "is_disabled": 0, "type": "electric_scooter", "lon": -77.02828233333334, "bike_id": "7efa1654478db0b50c49ee6ed864cf6f", "fusion_lat": 0.0, "name": "7efa1654478db0b50c49ee6ed864cf6f", "is_reserved": 0, "rental_uris": {"android": "https://dc.lft.to/lastmile_qr_scan", "ios": "https://dc.lft.to/lastmile_qr_scan"}, "fusion_lon": 0.0}, {"lat": 38.92184866666667, "is_disabled": 0, "type": "electric_scooter", "lon": -77.03799916666667, "bike_id": "09b0465449771d5138ed80eb0a7ea3fb", "fusion_lat": 0.0, "name": "09b0465449771d5138ed80eb0a7ea3fb", "is_reserved": 0, "rental_uris": {"android": "https://dc.lft.to/lastmile_qr_scan", "ios": "https://dc.lft.to/lastmile_qr_scan"}, "fusion_lon": 0.0}, {"lat": 38.91417883333333, "is_disabled": 0, "type": "electric_scooter", "lon": -77.01289, "bike_id": "81e54f3c991fbe5d57cd0b1316821f60", "fusion_lat": 0.0, "name": "81e54f3c991fbe5d57cd0b1316821f60", "is_reserved": 0, "rental_uris": {"android": "https://dc.lft.to/lastmile_qr_scan", "ios": "https://dc.lft.to/lastmile_qr_scan"}, "fusion_lon": 0.0}, {"lat": 38.897341, "is_disabled": 0, "type": "electric_scooter", "lon": -77.04502666666667, "bike_id": "6b0a034bfc99f95e37b5e16b23b69690", "fusion_lat": 0.0, "name": "6b0a034bfc99f95e37b5e16b23b69690", "is_reserved": 0, "rental_uris": {"android": "https://dc.lft.to/lastmile_qr_scan", "ios": "https://dc.lft.to/lastmile_qr_scan"}, "fusion_lon": 0.0}, {"lat": 38.900179666666666, "is_disabled": 0, "type": "electric_scooter", "lon": -76.986469, "bike_id": "8cdee171c684d41ad5afb31d12a60db9", "fusion_lat": 0.0, "name": "8cdee171c684d41ad5afb31d12a60db9", "is_reserved": 0, "rental_uris": {"android": "https://dc.lft.to/lastmile_qr_scan", "ios": "https://dc.lft.to/lastmile_qr_scan"}, "fusion_lon": 0.0}, {"lat": 38.9169585, "is_disabled": 0, "type": "electric_scooter", "lon": -77.03015266666667, "bike_id": "4da3ba6ef099856150ea7f3381b29b5a", "fusion_lat": 0.0, "name": "4da3ba6ef099856150ea7f3381b29b5a", "is_reserved": 0, "rental_uris": {"android": "https://dc.lft.to/lastmile_qr_scan", "ios": "https://dc.lft.to/lastmile_qr_scan"}, "fusion_lon": 0.0}, {"lat": 38.90419766666667, "is_disabled": 0, "type": "electric_scooter", "lon": -76.99069416666667, "bike_id": "d89c11c495c94c1ff17945db70932d43", "fusion_lat": 0.0, "name": "d89c11c495c94c1ff17945db70932d43", "is_reserved": 0, "rental_uris": {"android": "https://dc.lft.to/lastmile_qr_scan", "ios": "https://dc.lft.to/lastmile_qr_scan"}, "fusion_lon": 0.0}, {"lat": 38.90521733333333, "is_disabled": 0, "type": "electric_scooter", "lon": -77.062596, "bike_id": "e169898afd0fed51ea67522d11ff640f", "fusion_lat": 0.0, "name": "e169898afd0fed51ea67522d11ff640f", "is_reserved": 0, "rental_uris": {"android": "https://dc.lft.to/lastmile_qr_scan", "ios": "https://dc.lft.to/lastmile_qr_scan"}, "fusion_lon": 0.0}, {"lat": 38.8788475, "is_disabled": 0, "type": "electric_scooter", "lon": -77.00576883333333, "bike_id": "99c8fc8f70b5a0a185c810a2795e668b", "fusion_lat": 0.0, "name": "99c8fc8f70b5a0a185c810a2795e668b", "is_reserved": 0, "rental_uris": {"android": "https://dc.lft.to/lastmile_qr_scan", "ios": "https://dc.lft.to/lastmile_qr_scan"}, "fusion_lon": 0.0}, {"lat": 38.874679, "is_disabled": 0, "type": "electric_scooter", "lon": -77.00552783333333, "bike_id": "f5511b8c079296e4179089a3b9223c19", "fusion_lat": 0.0, "name": "f5511b8c079296e4179089a3b9223c19", "is_reserved": 0, "rental_uris": {"android": "https://dc.lft.to/lastmile_qr_scan", "ios": "https://dc.lft.to/lastmile_qr_scan"}, "fusion_lon": 0.0}, {"lat": 38.91958483333333, "is_disabled": 0, "type": "electric_scooter", "lon": -77.0320335, "bike_id": "000b58cdc066456673d1bb3e89a8d580", "fusion_lat": 0.0, "name": "000b58cdc066456673d1bb3e89a8d580", "is_reserved": 0, "rental_uris": {"android": "https://dc.lft.to/lastmile_qr_scan", "ios": "https://dc.lft.to/lastmile_qr_scan"}, "fusion_lon": 0.0}, {"lat": 38.91786583333333, "is_disabled": 0, "type": "electric_scooter", "lon": -77.04433733333333, "bike_id": "8266aa8b66da73528fdae46121240aa3", "fusion_lat": 0.0, "name": "8266aa8b66da73528fdae46121240aa3", "is_reserved": 0, "rental_uris": {"android": "https://dc.lft.to/lastmile_qr_scan", "ios": "https://dc.lft.to/lastmile_qr_scan"}, "fusion_lon": 0.0}, {"lat": 38.93410766666667, "is_disabled": 0, "type": "electric_bike", "lon": -77.02515416666667, "bike_id": "0dcbbe619776a8da328071b8fb15bd22", "fusion_lat": 0.0, "name": "0dcbbe619776a8da328071b8fb15bd22", "is_reserved": 0, "rental_uris": {"android": "https://dc.lft.to/lastmile_qr_scan", "ios": "https://dc.lft.to/lastmile_qr_scan"}, "fusion_lon": 0.0}, {"lat": 38.874818833333336, "is_disabled": 0, "type": "electric_scooter", "lon": -77.00118983333333, "bike_id": "80546ff63416f02607dcd86d9cd8d278", "fusion_lat": 0.0, "name": "80546ff63416f02607dcd86d9cd8d278", "is_reserved": 0, "rental_uris": {"android": "https://dc.lft.to/lastmile_qr_scan", "ios": "https://dc.lft.to/lastmile_qr_scan"}, "fusion_lon": 0.0}, {"lat": 38.88010666666667, "is_disabled": 0, "type": "electric_bike", "lon": -77.00571983333333, "bike_id": "459f123326388b940aabc64a3cf4ecc1", "fusion_lat": 0.0, "name": "459f123326388b940aabc64a3cf4ecc1", "is_reserved": 0, "rental_uris": {"android": "https://dc.lft.to/lastmile_qr_scan", "ios": "https://dc.lft.to/lastmile_qr_scan"}, "fusion_lon": 0.0}, {"lat": 38.92147883333333, "is_disabled": 0, "type": "electric_scooter", "lon": -77.04243666666666, "bike_id": "8286e6e424424a953b5d9bd096101740", "fusion_lat": 0.0, "name": "8286e6e424424a953b5d9bd096101740", "is_reserved": 0, "rental_uris": {"android": "https://dc.lft.to/lastmile_qr_scan", "ios": "https://dc.lft.to/lastmile_qr_scan"}, "fusion_lon": 0.0}, {"lat": 38.89997533333333, "is_disabled": 0, "type": "electric_scooter", "lon": -77.0403235, "bike_id": "05a9fcf0b3888523a12df1de642a2c45", "fusion_lat": 0.0, "name": "05a9fcf0b3888523a12df1de642a2c45", "is_reserved": 0, "rental_uris": {"android": "https://dc.lft.to/lastmile_qr_scan", "ios": "https://dc.lft.to/lastmile_qr_scan"}, "fusion_lon": 0.0}, {"lat": 38.89220066666667, "is_disabled": 0, "type": "electric_scooter", "lon": -77.03223766666666, "bike_id": "454c727e294033173a4fcb92a9d77692", "fusion_lat": 0.0, "name": "454c727e294033173a4fcb92a9d77692", "is_reserved": 0, "rental_uris": {"android": "https://dc.lft.to/lastmile_qr_scan", "ios": "https://dc.lft.to/lastmile_qr_scan"}, "fusion_lon": 0.0}, {"lat": 38.936097333333336, "is_disabled": 0, "type": "electric_scooter", "lon": -77.057293, "bike_id": "f172df8b0d761a95b0e2398032ff8a82", "fusion_lat": 0.0, "name": "f172df8b0d761a95b0e2398032ff8a82", "is_reserved": 0, "rental_uris": {"android": "https://dc.lft.to/lastmile_qr_scan", "ios": "https://dc.lft.to/lastmile_qr_scan"}, "fusion_lon": 0.0}, {"lat": 38.922283166666666, "is_disabled": 0, "type": "electric_scooter", "lon": -77.0334855, "bike_id": "242e56aa4cb0aa8e033ae19e54bedd12", "fusion_lat": 0.0, "name": "242e56aa4cb0aa8e033ae19e54bedd12", "is_reserved": 0, "rental_uris": {"android": "https://dc.lft.to/lastmile_qr_scan", "ios": "https://dc.lft.to/lastmile_qr_scan"}, "fusion_lon": 0.0}, {"lat": 38.92065016666667, "is_disabled": 0, "type": "electric_scooter", "lon": -77.04281083333333, "bike_id": "a47d1c6b4470febee7a67c2b25a41d9b", "fusion_lat": 0.0, "name": "a47d1c6b4470febee7a67c2b25a41d9b", "is_reserved": 0, "rental_uris": {"android": "https://dc.lft.to/lastmile_qr_scan", "ios": "https://dc.lft.to/lastmile_qr_scan"}, "fusion_lon": 0.0}, {"lat": 38.93247733333333, "is_disabled": 0, "type": "electric_bike", "lon": -76.99643933333333, "bike_id": "7e18d7187611118b97c0ccc509369e69", "fusion_lat": 0.0, "name": "7e18d7187611118b97c0ccc509369e69", "is_reserved": 0, "rental_uris": {"android": "https://dc.lft.to/lastmile_qr_scan", "ios": "https://dc.lft.to/lastmile_qr_scan"}, "fusion_lon": 0.0}, {"lat": 38.9267285, "is_disabled": 0, "type": "electric_scooter", "lon": -77.09563033333333, "bike_id": "3daa97a6d4a872eea40d82ca09909061", "fusion_lat": 0.0, "name": "3daa97a6d4a872eea40d82ca09909061", "is_reserved": 0, "rental_uris": {"android": "https://dc.lft.to/lastmile_qr_scan", "ios": "https://dc.lft.to/lastmile_qr_scan"}, "fusion_lon": 0.0}, {"lat": 38.88605183333333, "is_disabled": 0, "type": "electric_scooter", "lon": -77.02167933333334, "bike_id": "dbfc95ee1407336b414058bf2458f235", "fusion_lat": 0.0, "name": "dbfc95ee1407336b414058bf2458f235", "is_reserved": 0, "rental_uris": {"android": "https://dc.lft.to/lastmile_qr_scan", "ios": "https://dc.lft.to/lastmile_qr_scan"}, "fusion_lon": 0.0}, {"lat": 38.92071966666666, "is_disabled": 0, "type": "electric_scooter", "lon": -77.02312833333333, "bike_id": "b0f5d0f83faeda48ec59137662675086", "fusion_lat": 0.0, "name": "b0f5d0f83faeda48ec59137662675086", "is_reserved": 0, "rental_uris": {"android": "https://dc.lft.to/lastmile_qr_scan", "ios": "https://dc.lft.to/lastmile_qr_scan"}, "fusion_lon": 0.0}, {"lat": 38.9049285, "is_disabled": 0, "type": "electric_scooter", "lon": -77.05146833333333, "bike_id": "26b4989a1c6658bc4317fa7bd2aa4b2d", "fusion_lat": 0.0, "name": "26b4989a1c6658bc4317fa7bd2aa4b2d", "is_reserved": 0, "rental_uris": {"android": "https://dc.lft.to/lastmile_qr_scan", "ios": "https://dc.lft.to/lastmile_qr_scan"}, "fusion_lon": 0.0}, {"lat": 38.917053, "is_disabled": 0, "type": "electric_scooter", "lon": -77.0296535, "bike_id": "cf1c8877455f44d9f7923cf948d21a65", "fusion_lat": 0.0, "name": "cf1c8877455f44d9f7923cf948d21a65", "is_reserved": 0, "rental_uris": {"android": "https://dc.lft.to/lastmile_qr_scan", "ios": "https://dc.lft.to/lastmile_qr_scan"}, "fusion_lon": 0.0}, {"lat": 38.93007983333333, "is_disabled": 0, "type": "electric_scooter", "lon": -77.05528616666666, "bike_id": "1eaad80841b202c6834647b7e812510c", "fusion_lat": 0.0, "name": "1eaad80841b202c6834647b7e812510c", "is_reserved": 0, "rental_uris": {"android": "https://dc.lft.to/lastmile_qr_scan", "ios": "https://dc.lft.to/lastmile_qr_scan"}, "fusion_lon": 0.0}, {"lat": 38.91677816666667, "is_disabled": 0, "type": "electric_scooter", "lon": -77.03687183333334, "bike_id": "d4033d02ccfa3b128cb2493adfd3996e", "fusion_lat": 0.0, "name": "d4033d02ccfa3b128cb2493adfd3996e", "is_reserved": 0, "rental_uris": {"android": "https://dc.lft.to/lastmile_qr_scan", "ios": "https://dc.lft.to/lastmile_qr_scan"}, "fusion_lon": 0.0}, {"lat": 38.918093999999996, "is_disabled": 0, "type": "electric_scooter", "lon": -77.02794233333333, "bike_id": "e12df983c045e1f475c48d862b77cbb9", "fusion_lat": 0.0, "name": "e12df983c045e1f475c48d862b77cbb9", "is_reserved": 0, "rental_uris": {"android": "https://dc.lft.to/lastmile_qr_scan", "ios": "https://dc.lft.to/lastmile_qr_scan"}, "fusion_lon": 0.0}, {"lat": 38.91812316666667, "is_disabled": 0, "type": "electric_scooter", "lon": -77.031872, "bike_id": "eb37485d7466bcfe594bd9c6c3dd82a4", "fusion_lat": 0.0, "name": "eb37485d7466bcfe594bd9c6c3dd82a4", "is_reserved": 0, "rental_uris": {"android": "https://dc.lft.to/lastmile_qr_scan", "ios": "https://dc.lft.to/lastmile_qr_scan"}, "fusion_lon": 0.0}, {"lat": 38.9133735, "is_disabled": 0, "type": "electric_scooter", "lon": -77.0107745, "bike_id": "e083801679a46efa334de31aaf9fd216", "fusion_lat": 0.0, "name": "e083801679a46efa334de31aaf9fd216", "is_reserved": 0, "rental_uris": {"android": "https://dc.lft.to/lastmile_qr_scan", "ios": "https://dc.lft.to/lastmile_qr_scan"}, "fusion_lon": 0.0}, {"lat": 38.90214816666666, "is_disabled": 0, "type": "electric_scooter", "lon": -77.03478183333333, "bike_id": "db99307b8deae03a22a2f6eed3841c0a", "fusion_lat": 0.0, "name": "db99307b8deae03a22a2f6eed3841c0a", "is_reserved": 0, "rental_uris": {"android": "https://dc.lft.to/lastmile_qr_scan", "ios": "https://dc.lft.to/lastmile_qr_scan"}, "fusion_lon": 0.0}, {"lat": 38.946286, "is_disabled": 0, "type": "electric_scooter", "lon": -77.025235, "bike_id": "003391dc4338e2396587de521263f25e", "fusion_lat": 0.0, "name": "003391dc4338e2396587de521263f25e", "is_reserved": 0, "rental_uris": {"android": "https://dc.lft.to/lastmile_qr_scan", "ios": "https://dc.lft.to/lastmile_qr_scan"}, "fusion_lon": 0.0}, {"lat": 38.89222866666667, "is_disabled": 0, "type": "electric_scooter", "lon": -77.04803033333333, "bike_id": "2c95aff45b2eb50484e3571c3bdcfc81", "fusion_lat": 0.0, "name": "2c95aff45b2eb50484e3571c3bdcfc81", "is_reserved": 0, "rental_uris": {"android": "https://dc.lft.to/lastmile_qr_scan", "ios": "https://dc.lft.to/lastmile_qr_scan"}, "fusion_lon": 0.0}, {"lat": 38.90326133333333, "is_disabled": 0, "type": "electric_scooter", "lon": -76.97059816666666, "bike_id": "f53ff68e060baee83daa3592eac7609a", "fusion_lat": 0.0, "name": "f53ff68e060baee83daa3592eac7609a", "is_reserved": 0, "rental_uris": {"android": "https://dc.lft.to/lastmile_qr_scan", "ios": "https://dc.lft.to/lastmile_qr_scan"}, "fusion_lon": 0.0}, {"lat": 38.88584683333333, "is_disabled": 0, "type": "electric_scooter", "lon": -77.000719, "bike_id": "fd3682c03498400f7191c7b614926557", "fusion_lat": 0.0, "name": "fd3682c03498400f7191c7b614926557", "is_reserved": 0, "rental_uris": {"android": "https://dc.lft.to/lastmile_qr_scan", "ios": "https://dc.lft.to/lastmile_qr_scan"}, "fusion_lon": 0.0}, {"lat": 38.894813666666664, "is_disabled": 0, "type": "electric_scooter", "lon": -76.94960216666666, "bike_id": "cc02998174698b9a4b5734f11c2192f7", "fusion_lat": 0.0, "name": "cc02998174698b9a4b5734f11c2192f7", "is_reserved": 0, "rental_uris": {"android": "https://dc.lft.to/lastmile_qr_scan", "ios": "https://dc.lft.to/lastmile_qr_scan"}, "fusion_lon": 0.0}, {"lat": 38.91987433333333, "is_disabled": 0, "type": "electric_scooter", "lon": -77.02377116666666, "bike_id": "39c588faa81cf662178009885249371a", "fusion_lat": 0.0, "name": "39c588faa81cf662178009885249371a", "is_reserved": 0, "rental_uris": {"android": "https://dc.lft.to/lastmile_qr_scan", "ios": "https://dc.lft.to/lastmile_qr_scan"}, "fusion_lon": 0.0}, {"lat": 38.910113833333334, "is_disabled": 0, "type": "electric_scooter", "lon": -76.99394016666666, "bike_id": "1c07155da2b4e03907871c4bed51104e", "fusion_lat": 0.0, "name": "1c07155da2b4e03907871c4bed51104e", "is_reserved": 0, "rental_uris": {"android": "https://dc.lft.to/lastmile_qr_scan", "ios": "https://dc.lft.to/lastmile_qr_scan"}, "fusion_lon": 0.0}, {"lat": 38.904452, "is_disabled": 0, "type": "electric_scooter", "lon": -77.05921616666667, "bike_id": "0c44535f44912605f494cce71a6c8d10", "fusion_lat": 0.0, "name": "0c44535f44912605f494cce71a6c8d10", "is_reserved": 0, "rental_uris": {"android": "https://dc.lft.to/lastmile_qr_scan", "ios": "https://dc.lft.to/lastmile_qr_scan"}, "fusion_lon": 0.0}, {"lat": 38.922399, "is_disabled": 0, "type": "electric_scooter", "lon": -77.02913316666667, "bike_id": "5c6db1b44d0e78e5dc8b884fdecdc065", "fusion_lat": 0.0, "name": "5c6db1b44d0e78e5dc8b884fdecdc065", "is_reserved": 0, "rental_uris": {"android": "https://dc.lft.to/lastmile_qr_scan", "ios": "https://dc.lft.to/lastmile_qr_scan"}, "fusion_lon": 0.0}, {"lat": 38.918091, "is_disabled": 0, "type": "electric_scooter", "lon": -77.027966, "bike_id": "e74274b95a04cd2b1b4a148e18df8f5c", "fusion_lat": 0.0, "name": "e74274b95a04cd2b1b4a148e18df8f5c", "is_reserved": 0, "rental_uris": {"android": "https://dc.lft.to/lastmile_qr_scan", "ios": "https://dc.lft.to/lastmile_qr_scan"}, "fusion_lon": 0.0}, {"lat": 38.895465333333334, "is_disabled": 0, "type": "electric_scooter", "lon": -77.0297605, "bike_id": "9e3c47b240515a59e0db8f8400fecbdb", "fusion_lat": 0.0, "name": "9e3c47b240515a59e0db8f8400fecbdb", "is_reserved": 0, "rental_uris": {"android": "https://dc.lft.to/lastmile_qr_scan", "ios": "https://dc.lft.to/lastmile_qr_scan"}, "fusion_lon": 0.0}, {"lat": 38.9167675, "is_disabled": 0, "type": "electric_scooter", "lon": -77.02965733333333, "bike_id": "1df8aa577e1e036fb9c6dfe272854bee", "fusion_lat": 0.0, "name": "1df8aa577e1e036fb9c6dfe272854bee", "is_reserved": 0, "rental_uris": {"android": "https://dc.lft.to/lastmile_qr_scan", "ios": "https://dc.lft.to/lastmile_qr_scan"}, "fusion_lon": 0.0}, {"lat": 38.892216, "is_disabled": 0, "type": "electric_scooter", "lon": -77.04376166666667, "bike_id": "f84d463a72f39c30f16c6001b6e5354f", "fusion_lat": 0.0, "name": "f84d463a72f39c30f16c6001b6e5354f", "is_reserved": 0, "rental_uris": {"android": "https://dc.lft.to/lastmile_qr_scan", "ios": "https://dc.lft.to/lastmile_qr_scan"}, "fusion_lon": 0.0}, {"lat": 38.898642, "is_disabled": 0, "type": "electric_scooter", "lon": -77.0294685, "bike_id": "068dcf04cd198d98ac2e3dbb30b0f434", "fusion_lat": 0.0, "name": "068dcf04cd198d98ac2e3dbb30b0f434", "is_reserved": 0, "rental_uris": {"android": "https://dc.lft.to/lastmile_qr_scan", "ios": "https://dc.lft.to/lastmile_qr_scan"}, "fusion_lon": 0.0}, {"lat": 38.912675, "is_disabled": 0, "type": "electric_scooter", "lon": -77.03512266666667, "bike_id": "4d9ab09eff654574c1b3ec9447a634bd", "fusion_lat": 0.0, "name": "4d9ab09eff654574c1b3ec9447a634bd", "is_reserved": 0, "rental_uris": {"android": "https://dc.lft.to/lastmile_qr_scan", "ios": "https://dc.lft.to/lastmile_qr_scan"}, "fusion_lon": 0.0}, {"lat": 38.90137933333333, "is_disabled": 0, "type": "electric_scooter", "lon": -76.94156483333333, "bike_id": "4fd8cbad27f293f30f122391905ef4fc", "fusion_lat": 0.0, "name": "4fd8cbad27f293f30f122391905ef4fc", "is_reserved": 0, "rental_uris": {"android": "https://dc.lft.to/lastmile_qr_scan", "ios": "https://dc.lft.to/lastmile_qr_scan"}, "fusion_lon": 0.0}, {"lat": 38.961388166666666, "is_disabled": 0, "type": "electric_bike", "lon": -77.032365, "bike_id": "b389aa53f94e310d8d907e6917a1510c", "fusion_lat": 0.0, "name": "b389aa53f94e310d8d907e6917a1510c", "is_reserved": 0, "rental_uris": {"android": "https://dc.lft.to/lastmile_qr_scan", "ios": "https://dc.lft.to/lastmile_qr_scan"}, "fusion_lon": 0.0}, {"lat": 38.90266616666667, "is_disabled": 0, "type": "electric_scooter", "lon": -77.05322616666666, "bike_id": "d78a87f8f55122945676134a06ba947e", "fusion_lat": 0.0, "name": "d78a87f8f55122945676134a06ba947e", "is_reserved": 0, "rental_uris": {"android": "https://dc.lft.to/lastmile_qr_scan", "ios": "https://dc.lft.to/lastmile_qr_scan"}, "fusion_lon": 0.0}, {"lat": 38.8661755, "is_disabled": 0, "type": "electric_scooter", "lon": -76.9866695, "bike_id": "0c1513b3f317bd8449b47bee39f0104c", "fusion_lat": 0.0, "name": "0c1513b3f317bd8449b47bee39f0104c", "is_reserved": 0, "rental_uris": {"android": "https://dc.lft.to/lastmile_qr_scan", "ios": "https://dc.lft.to/lastmile_qr_scan"}, "fusion_lon": 0.0}, {"lat": 38.916751, "is_disabled": 0, "type": "electric_scooter", "lon": -77.02721766666667, "bike_id": "d795cd9ee8c417e1b7265bf3ded60311", "fusion_lat": 0.0, "name": "d795cd9ee8c417e1b7265bf3ded60311", "is_reserved": 0, "rental_uris": {"android": "https://dc.lft.to/lastmile_qr_scan", "ios": "https://dc.lft.to/lastmile_qr_scan"}, "fusion_lon": 0.0}, {"lat": 38.93567, "is_disabled": 0, "type": "electric_scooter", "lon": -77.03744916666666, "bike_id": "adb8306844343a4680da6c4a69128eb0", "fusion_lat": 0.0, "name": "adb8306844343a4680da6c4a69128eb0", "is_reserved": 0, "rental_uris": {"android": "https://dc.lft.to/lastmile_qr_scan", "ios": "https://dc.lft.to/lastmile_qr_scan"}, "fusion_lon": 0.0}, {"lat": 38.9096215, "is_disabled": 0, "type": "electric_scooter", "lon": -77.046356, "bike_id": "2b11d4cc6110669d010dbe5ec585cb80", "fusion_lat": 0.0, "name": "2b11d4cc6110669d010dbe5ec585cb80", "is_reserved": 0, "rental_uris": {"android": "https://dc.lft.to/lastmile_qr_scan", "ios": "https://dc.lft.to/lastmile_qr_scan"}, "fusion_lon": 0.0}, {"lat": 38.911075, "is_disabled": 0, "type": "electric_scooter", "lon": -77.04510833333333, "bike_id": "da07a1cc0c8e90ad2f4676cd18f05f40", "fusion_lat": 0.0, "name": "da07a1cc0c8e90ad2f4676cd18f05f40", "is_reserved": 0, "rental_uris": {"android": "https://dc.lft.to/lastmile_qr_scan", "ios": "https://dc.lft.to/lastmile_qr_scan"}, "fusion_lon": 0.0}, {"lat": 38.915999166666666, "is_disabled": 0, "type": "electric_scooter", "lon": -77.0230545, "bike_id": "9e3988adb4b1052af9c7371fea0944de", "fusion_lat": 0.0, "name": "9e3988adb4b1052af9c7371fea0944de", "is_reserved": 0, "rental_uris": {"android": "https://dc.lft.to/lastmile_qr_scan", "ios": "https://dc.lft.to/lastmile_qr_scan"}, "fusion_lon": 0.0}, {"lat": 38.92250533333333, "is_disabled": 0, "type": "electric_scooter", "lon": -77.0329265, "bike_id": "5c4c1ba5fb167e597bf27fb639b7791f", "fusion_lat": 0.0, "name": "5c4c1ba5fb167e597bf27fb639b7791f", "is_reserved": 0, "rental_uris": {"android": "https://dc.lft.to/lastmile_qr_scan", "ios": "https://dc.lft.to/lastmile_qr_scan"}, "fusion_lon": 0.0}, {"lat": 38.90620166666667, "is_disabled": 0, "type": "electric_scooter", "lon": -77.04321333333333, "bike_id": "f50ff4ceff2e4941ebca0353f3c7393f", "fusion_lat": 0.0, "name": "f50ff4ceff2e4941ebca0353f3c7393f", "is_reserved": 0, "rental_uris": {"android": "https://dc.lft.to/lastmile_qr_scan", "ios": "https://dc.lft.to/lastmile_qr_scan"}, "fusion_lon": 0.0}, {"lat": 38.905430333333335, "is_disabled": 0, "type": "electric_scooter", "lon": -77.0062265, "bike_id": "27715053483649efbadcf82df392a229", "fusion_lat": 0.0, "name": "27715053483649efbadcf82df392a229", "is_reserved": 0, "rental_uris": {"android": "https://dc.lft.to/lastmile_qr_scan", "ios": "https://dc.lft.to/lastmile_qr_scan"}, "fusion_lon": 0.0}, {"lat": 38.891412, "is_disabled": 0, "type": "electric_bike", "lon": -77.11305766666666, "bike_id": "2bad047a7f82dc939325ba7f62bcbf7d", "fusion_lat": 0.0, "name": "2bad047a7f82dc939325ba7f62bcbf7d", "is_reserved": 0, "rental_uris": {"android": "https://dc.lft.to/lastmile_qr_scan", "ios": "https://dc.lft.to/lastmile_qr_scan"}, "fusion_lon": 0.0}, {"lat": 38.88456016666667, "is_disabled": 0, "type": "electric_scooter", "lon": -77.01524416666666, "bike_id": "265ab174129d4bc81d2ff1261ecf165d", "fusion_lat": 0.0, "name": "265ab174129d4bc81d2ff1261ecf165d", "is_reserved": 0, "rental_uris": {"android": "https://dc.lft.to/lastmile_qr_scan", "ios": "https://dc.lft.to/lastmile_qr_scan"}, "fusion_lon": 0.0}, {"lat": 38.911202333333335, "is_disabled": 0, "type": "electric_scooter", "lon": -77.02195516666667, "bike_id": "6c9ea8b52a6f4ebaf114e06fb22790c2", "fusion_lat": 0.0, "name": "6c9ea8b52a6f4ebaf114e06fb22790c2", "is_reserved": 0, "rental_uris": {"android": "https://dc.lft.to/lastmile_qr_scan", "ios": "https://dc.lft.to/lastmile_qr_scan"}, "fusion_lon": 0.0}, {"lat": 38.904218166666666, "is_disabled": 0, "type": "electric_scooter", "lon": -77.0245045, "bike_id": "592ae61d131f6bd3f1590e9b15ad9d59", "fusion_lat": 0.0, "name": "592ae61d131f6bd3f1590e9b15ad9d59", "is_reserved": 0, "rental_uris": {"android": "https://dc.lft.to/lastmile_qr_scan", "ios": "https://dc.lft.to/lastmile_qr_scan"}, "fusion_lon": 0.0}, {"lat": 38.920658, "is_disabled": 0, "type": "electric_scooter", "lon": -77.02315433333334, "bike_id": "0570e3aed91e1302ac0fa474803ad6b9", "fusion_lat": 0.0, "name": "0570e3aed91e1302ac0fa474803ad6b9", "is_reserved": 0, "rental_uris": {"android": "https://dc.lft.to/lastmile_qr_scan", "ios": "https://dc.lft.to/lastmile_qr_scan"}, "fusion_lon": 0.0},