{"data": {"bikes": [{"rental_uris": {"ios": "https://dc.lft.to/lastmile_qr_scan", "android": "https://dc.lft.to/lastmile_qr_scan"}, "lon": -76.95759283333334, "type": "electric_scooter", "fusion_lat": 0.0, "lat": 38.88426466666667, "name": "6c1f4a8a04bb89a8b460e5db07198853", "fusion_lon": 0.0, "bike_id": "6c1f4a8a04bb89a8b460e5db07198853", "is_disabled": 0, "is_reserved": 0}, {"rental_uris": {"ios": "https://dc.lft.to/lastmile_qr_scan", "android": "https://dc.lft.to/lastmile_qr_scan"}, "lon": -77.0756135, "type": "electric_scooter", "fusion_lat": 0.0, "lat": 38.92081116666667, "name": "5f07c8d62dbd05dbe99f0c95bc5df4b8", "fusion_lon": 0.0, "bike_id": "5f07c8d62dbd05dbe99f0c95bc5df4b8", "is_disabled": 0, "is_reserved": 0}, {"rental_uris": {"ios": "https://dc.lft.to/lastmile_qr_scan", "android": "https://dc.lft.to/lastmile_qr_scan"}, "lon": -77.055054, "type": "electric_scooter", "fusion_lat": 0.0, "lat": 38.92981233333333, "name": "c362f875da30609d9c43943c61d7547e", "fusion_lon": 0.0, "bike_id": "c362f875da30609d9c43943c61d7547e", "is_disabled": 0, "is_reserved": 0}, {"rental_uris": {"ios": "https://dc.lft.to/lastmile_qr_scan", "android": "https://dc.lft.to/lastmile_qr_scan"}, "lon": -77.125081, "type": "electric_bike", "fusion_lat": 0.0, "lat": 39.02425366666667, "name": "59f22e344177c08b8aceca298ca74b03", "fusion_lon": 0.0, "bike_id": "59f22e344177c08b8aceca298ca74b03", "is_disabled": 0, "is_reserved": 0}, {"rental_uris": {"ios": "https://dc.lft.to/lastmile_qr_scan", "android": "https://dc.lft.to/lastmile_qr_scan"}, "lon": -77.031985, "type": "electric_scooter", "fusion_lat": 0.0, "lat": 38.917926333333334, "name": "60cd6abdfaa2727bb0085036fec4e3a1", "fusion_lon": 0.0, "bike_id": "60cd6abdfaa2727bb0085036fec4e3a1", "is_disabled": 0, "is_reserved": 0}, {"rental_uris": {"ios": "https://dc.lft.to/lastmile_qr_scan", "android": "https://dc.lft.to/lastmile_qr_scan"}, "lon": -77.00489283333333, "type": "electric_scooter", "fusion_lat": 0.0, "lat": 38.90729266666666, "name": "6318d00585f35d33942057358ac2c785", "fusion_lon": 0.0, "bike_id": "6318d00585f35d33942057358ac2c785", "is_disabled": 0, "is_reserved": 0}, {"rental_uris": {"ios": "https://dc.lft.to/lastmile_qr_scan", "android": "https://dc.lft.to/lastmile_qr_scan"}, "lon": -77.02627866666667, "type": "electric_scooter", "fusion_lat": 0.0, "lat": 38.898352, "name": "c6040bd087f7a3966817902ae5b02f4c", "fusion_lon": 0.0, "bike_id": "c6040bd087f7a3966817902ae5b02f4c", "is_disabled": 0, "is_reserved": 0}, {"rental_uris": {"ios": "https://dc.lft.to/lastmile_qr_scan", "android": "https://dc.lft.to/lastmile_qr_scan"}, "lon": -77.02967666666666, "type": "electric_scooter", "fusion_lat": 0.0, "lat": 38.8922255, "name": "58bdb2eb6247c4bc4672867900210a1b", "fusion_lon": 0.0, "bike_id": "58bdb2eb6247c4bc4672867900210a1b", "is_disabled": 0, "is_reserved": 0}, {"rental_uris": {"ios": "https://dc.lft.to/lastmile_qr_scan", "android": "https://dc.lft.to/lastmile_qr_scan"}, "lon": -77.03134866666667, "type": "electric_scooter", "fusion_lat": 0.0, "lat": 38.910380833333335, "name": "5f7cce8389770768a26f3e6a1eb8793d", "fusion_lon": 0.0, "bike_id": "5f7cce8389770768a26f3e6a1eb8793d", "is_disabled": 0, "is_reserved": 0}, {"rental_uris": {"ios": "https://dc.lft.to/lastmile_qr_scan", "android": "https://dc.lft.to/lastmile_qr_scan"}, "lon": -77.12629416666667, "type": "electric_bike", "fusion_lat": 0.0, "lat": 39.058111333333336, "name": "2a7e52fc781ea5a5045ac3c6ac62c4b5", "fusion_lon": 0.0, "bike_id": "2a7e52fc781ea5a5045ac3c6ac62c4b5", "is_disabled": 0, "is_reserved": 0}, {"rental_uris": {"ios": "https://dc.lft.to/lastmile_qr_scan", "android": "https://dc.lft.to/lastmile_qr_scan"}, "lon": -77.02602583333334, "type": "electric_scooter", "fusion_lat": 0.0, "lat": 38.887379333333335, "name": "38acd0efa9793180cf7809147af53f8b", "fusion_lon": 0.0, "bike_id": "38acd0efa9793180cf7809147af53f8b", "is_disabled": 0, "is_reserved": 0}, {"rental_uris": {"ios": "https://dc.lft.to/lastmile_qr_scan", "android": "https://dc.lft.to/lastmile_qr_scan"}, "lon": -77.03949633333333, "type": "electric_scooter", "fusion_lat": 0.0, "lat": 38.898558, "name": "7a972fd1b603b9be6ffdbc72c75a525f", "fusion_lon": 0.0, "bike_id": "7a972fd1b603b9be6ffdbc72c75a525f", "is_disabled": 0, "is_reserved": 0}, {"rental_uris": {"ios": "https://dc.lft.to/lastmile_qr_scan", "android": "https://dc.lft.to/lastmile_qr_scan"}, "lon": -76.98399333333333, "type": "electric_bike", "fusion_lat": 0.0, "lat": 38.922017833333335, "name": "8c047d514c27edb01c7c1b449d278323", "fusion_lon": 0.0, "bike_id": "8c047d514c27edb01c7c1b449d278323", "is_disabled": 0, "is_reserved": 0}, {"rental_uris": {"ios": "https://dc.lft.to/lastmile_qr_scan", "android": "https://dc.lft.to/lastmile_qr_scan"}, "lon": -77.02694783333334, "type": "electric_scooter", "fusion_lat": 0.0, "lat": 38.90623016666667, "name": "73a877454b9a97895bea496d167e280d", "fusion_lon": 0.0, "bike_id": "73a877454b9a97895bea496d167e280d", "is_disabled": 0, "is_reserved": 0}, {"rental_uris": {"ios": "https://dc.lft.to/lastmile_qr_scan", "android": "https://dc.lft.to/lastmile_qr_scan"}, "lon": -77.00034783333334, "type": "electric_scooter", "fusion_lat": 0.0, "lat": 38.874494, "name": "8865daa8b3beac6634d8bd46ee19d8fa", "fusion_lon": 0.0, "bike_id": "8865daa8b3beac6634d8bd46ee19d8fa", "is_disabled": 0, "is_reserved": 0}, {"rental_uris": {"ios": "https://dc.lft.to/lastmile_qr_scan", "android": "https://dc.lft.to/lastmile_qr_scan"}, "lon": -77.061917, "type": "electric_scooter", "fusion_lat": 0.0, "lat": 38.90286716666667, "name": "1cd04b55eb3f8a1e6a774946e9b2a1af", "fusion_lon": 0.0, "bike_id": "1cd04b55eb3f8a1e6a774946e9b2a1af", "is_disabled": 0, "is_reserved": 0}, {"rental_uris": {"ios": "https://dc.lft.to/lastmile_qr_scan", "android": "https://dc.lft.to/lastmile_qr_scan"}, "lon": -77.0341965, "type": "electric_scooter", "fusion_lat": 0.0, "lat": 38.93535283333333, "name": "f54ce95d7c9a37eeefc98e33636aafd3", "fusion_lon": 0.0, "bike_id": "f54ce95d7c9a37eeefc98e33636aafd3", "is_disabled": 0, "is_reserved": 0}, {"rental_uris": {"ios": "https://dc.lft.to/lastmile_qr_scan", "android": "https://dc.lft.to/lastmile_qr_scan"}, "lon": -76.97830533333334, "type": "electric_bike", "fusion_lat": 0.0, "lat": 38.8460715, "name": "6e2fc9c6904ca49f66844f1816812753", "fusion_lon": 0.0, "bike_id": "6e2fc9c6904ca49f66844f1816812753", "is_disabled": 0, "is_reserved": 0}, {"rental_uris": {"ios": "https://dc.lft.to/lastmile_qr_scan", "android": "https://dc.lft.to/lastmile_qr_scan"}, "lon": -77.01982083333333, "type": "electric_scooter", "fusion_lat": 0.0, "lat": 38.91523316666667, "name": "2e80566462d9782159e7694b7d6a3c46", "fusion_lon": 0.0, "bike_id": "2e80566462d9782159e7694b7d6a3c46", "is_disabled": 0, "is_reserved": 0}, {"rental_uris": {"ios": "https://dc.lft.to/lastmile_qr_scan", "android": "https://dc.lft.to/lastmile_qr_scan"}, "lon": -77.0379525, "type": "electric_scooter", "fusion_lat": 0.0, "lat": 38.926322, "name": "868caa8c71426be1aa9e3c6e989448dc", "fusion_lon": 0.0, "bike_id": "868caa8c71426be1aa9e3c6e989448dc", "is_disabled": 0, "is_reserved": 0}, {"rental_uris": {"ios": "https://dc.lft.to/lastmile_qr_scan", "android": "https://dc.lft.to/lastmile_qr_scan"}, "lon": -77.002057, "type": "electric_scooter", "fusion_lat": 0.0, "lat": 38.90030433333333, "name": "278585bf130e5bd5fd71393cea51b273", "fusion_lon": 0.0, "bike_id": "278585bf130e5bd5fd71393cea51b273", "is_disabled": 0, "is_reserved": 0}, {"rental_uris": {"ios": "https://dc.lft.to/lastmile_qr_scan", "android": "https://dc.lft.to/lastmile_qr_scan"}, "lon": -77.02409833333333, "type": "electric_scooter", "fusion_lat": 0.0, "lat": 38.93105216666667, "name": "d354f5dfe2a45d17120c92bb0b9cf427", "fusion_lon": 0.0, "bike_id": "d354f5dfe2a45d17120c92bb0b9cf427", "is_disabled": 0, "is_reserved": 0}, {"rental_uris": {"ios": "https://dc.lft.to/lastmile_qr_scan", "android": "https://dc.lft.to/lastmile_qr_scan"}, "lon": -77.0108365, "type": "electric_bike", "fusion_lat": 0.0, "lat": 38.95649433333333, "name": "94fbc70e8d29b81ab9e0a0e0dc4cd288", "fusion_lon": 0.0, "bike_id": "94fbc70e8d29b81ab9e0a0e0dc4cd288", "is_disabled": 0, "is_reserved": 0}, {"rental_uris": {"ios": "https://dc.lft.to/lastmile_qr_scan", "android": "https://dc.lft.to/lastmile_qr_scan"}, "lon": -76.9985105, "type": "electric_scooter", "fusion_lat": 0.0, "lat": 38.8948795, "name": "0f4b5fbeff95629a9f9d03c865ddec3b", "fusion_lon": 0.0, "bike_id": "0f4b5fbeff95629a9f9d03c865ddec3b", "is_disabled": 0, "is_reserved": 0}, {"rental_uris": {"ios": "https://dc.lft.to/lastmile_qr_scan", "android": "https://dc.lft.to/lastmile_qr_scan"}, "lon": -77.04470166666667, "type": "electric_scooter", "fusion_lat": 0.0, "lat": 38.903336333333336, "name": "4c70ada7b5005ccc6a9b50cf901bf46e", "fusion_lon": 0.0, "bike_id": "4c70ada7b5005ccc6a9b50cf901bf46e", "is_disabled": 0, "is_reserved": 0}, {"rental_uris": {"ios": "https://dc.lft.to/lastmile_qr_scan", "android": "https://dc.lft.to/lastmile_qr_scan"}, "lon": -77.04306766666667, "type": "electric_scooter", "fusion_lat": 0.0, "lat": 38.922282, "name": "6b7511d209bb93519bc9030fb2d9e695", "fusion_lon": 0.0, "bike_id": "6b7511d209bb93519bc9030fb2d9e695", "is_disabled": 0, "is_reserved": 0}, {"rental_uris": {"ios": "https://dc.lft.to/lastmile_qr_scan", "android": "https://dc.lft.to/lastmile_qr_scan"}, "lon": -77.002646, "type": "electric_scooter", "fusion_lat": 0.0, "lat": 38.89895666666666, "name": "3777c8d704b1ee914eda4fab858e796f", "fusion_lon": 0.0, "bike_id": "3777c8d704b1ee914eda4fab858e796f", "is_disabled": 0, "is_reserved": 0}, {"rental_uris": {"ios": "https://dc.lft.to/lastmile_qr_scan", "android": "https://dc.lft.to/lastmile_qr_scan"}, "lon": -77.038594, "type": "electric_scooter", "fusion_lat": 0.0, "lat": 38.916847833333335, "name": "c9d32e3819271ac5eab7f0595535b7ab", "fusion_lon": 0.0, "bike_id": "c9d32e3819271ac5eab7f0595535b7ab", "is_disabled": 0, "is_reserved": 0}, {"rental_uris": {"ios": "https://dc.lft.to/lastmile_qr_scan", "android": "https://dc.lft.to/lastmile_qr_scan"}, "lon": -77.033704, "type": "electric_scooter", "fusion_lat": 0.0, "lat": 38.8995095, "name": "552e17660596ba445cf341ddf75ebfdc", "fusion_lon": 0.0, "bike_id": "552e17660596ba445cf341ddf75ebfdc", "is_disabled": 0, "is_reserved": 0}, {"rental_uris": {"ios": "https://dc.lft.to/lastmile_qr_scan", "android": "https://dc.lft.to/lastmile_qr_scan"}, "lon": -77.0238715, "type": "electric_scooter", "fusion_lat": 0.0, "lat": 38.91961383333334, "name": "204a586ead78be8b8065d901845dc5e4", "fusion_lon": 0.0, "bike_id": "204a586ead78be8b8065d901845dc5e4", "is_disabled": 0, "is_reserved": 0}, {"rental_uris": {"ios": "https://dc.lft.to/lastmile_qr_scan", "android": "https://dc.lft.to/lastmile_qr_scan"}, "lon": -77.03671966666667, "type": "electric_scooter", "fusion_lat": 0.0, "lat": 38.91813666666667, "name": "f74cb07029401375587dbf9b9f5d2ff2", "fusion_lon": 0.0, "bike_id": "f74cb07029401375587dbf9b9f5d2ff2", "is_disabled": 0, "is_reserved": 0}, {"rental_uris": {"ios": "https://dc.lft.to/lastmile_qr_scan", "android": "https://dc.lft.to/lastmile_qr_scan"}, "lon": -77.03211583333334, "type": "electric_scooter", "fusion_lat": 0.0, "lat": 38.92578616666667, "name": "73476286bb2fc353cb860f826da18cae", "fusion_lon": 0.0, "bike_id": "73476286bb2fc353cb860f826da18cae", "is_disabled": 0, "is_reserved": 0}, {"rental_uris": {"ios": "https://dc.lft.to/lastmile_qr_scan", "android": "https://dc.lft.to/lastmile_qr_scan"}, "lon": -77.0448125, "type": "electric_scooter", "fusion_lat": 0.0, "lat": 38.90077733333333, "name": "16fda4392831afdd65097ff93018559a", "fusion_lon": 0.0, "bike_id": "16fda4392831afdd65097ff93018559a", "is_disabled": 0, "is_reserved": 0}, {"rental_uris": {"ios": "https://dc.lft.to/lastmile_qr_scan", "android": "https://dc.lft.to/lastmile_qr_scan"}, "lon": -77.00336816666666, "type": "electric_scooter", "fusion_lat": 0.0, "lat": 38.874960333333334, "name": "bc6c7611c4d57751b486788bbbdb9818", "fusion_lon": 0.0, "bike_id": "bc6c7611c4d57751b486788bbbdb9818", "is_disabled": 0, "is_reserved": 0}, {"rental_uris": {"ios": "https://dc.lft.to/lastmile_qr_scan", "android": "https://dc.lft.to/lastmile_qr_scan"}, "lon": -77.11317283333334, "type": "electric_bike", "fusion_lat": 0.0, "lat": 38.855666166666666, "name": "5f111dc800b669865794647eb9914ee3", "fusion_lon": 0.0, "bike_id": "5f111dc800b669865794647eb9914ee3", "is_disabled": 0, "is_reserved": 0}, {"rental_uris": {"ios": "https://dc.lft.to/lastmile_qr_scan", "android": "https://dc.lft.to/lastmile_qr_scan"}, "lon": -77.00759816666667, "type": "electric_scooter", "fusion_lat": 0.0, "lat": 38.91024933333333, "name": "1a6713dc4262d5dfc8b00d3c40647432", "fusion_lon": 0.0, "bike_id": "1a6713dc4262d5dfc8b00d3c40647432", "is_disabled": 0, "is_reserved": 0}, {"rental_uris": {"ios": "https://dc.lft.to/lastmile_qr_scan", "android": "https://dc.lft.to/lastmile_qr_scan"}, "lon": -77.06878016666667, "type": "electric_scooter", "fusion_lat": 0.0, "lat": 38.90513283333333, "name": "ac1ef03464def4ca0bd28a0036c85a16", "fusion_lon": 0.0, "bike_id": "ac1ef03464def4ca0bd28a0036c85a16", "is_disabled": 0, "is_reserved": 0}, {"rental_uris": {"ios": "https://dc.lft.to/lastmile_qr_scan", "android": "https://dc.lft.to/lastmile_qr_scan"}, "lon": -76.9882955, "type": "electric_scooter", "fusion_lat": 0.0, "lat": 38.8802285, "name": "3620f3b6382c4a7842d38f692929b0a5", "fusion_lon": 0.0, "bike_id": "3620f3b6382c4a7842d38f692929b0a5", "is_disabled": 0, "is_reserved": 0}, {"rental_uris": {"ios": "https://dc.lft.to/lastmile_qr_scan", "android": "https://dc.lft.to/lastmile_qr_scan"}, "lon": -77.0385235, "type": "electric_scooter", "fusion_lat": 0.0, "lat": 38.9312915, "name": "bec112ddcc64fa99fb1658b999653d53", "fusion_lon": 0.0, "bike_id": "bec112ddcc64fa99fb1658b999653d53", "is_disabled": 0, "is_reserved": 0}, {"rental_uris": {"ios": "https://dc.lft.to/lastmile_qr_scan", "android": "https://dc.lft.to/lastmile_qr_scan"}, "lon": -77.0236885, "type": "electric_scooter", "fusion_lat": 0.0, "lat": 38.8846005, "name": "8adae1aee2e219f3a041e36888ed7d36", "fusion_lon": 0.0, "bike_id": "8adae1aee2e219f3a041e36888ed7d36", "is_disabled": 0, "is_reserved": 0}, {"rental_uris": {"ios": "https://dc.lft.to/lastmile_qr_scan", "android": "https://dc.lft.to/lastmile_qr_scan"}, "lon": -76.995393, "type": "electric_bike", "fusion_lat": 0.0, "lat": 38.84737883333333, "name": "cdf1cd37da37fd83074e864ef5d3266a", "fusion_lon": 0.0, "bike_id": "cdf1cd37da37fd83074e864ef5d3266a", "is_disabled": 0, "is_reserved": 0}, {"rental_uris": {"ios": "https://dc.lft.to/lastmile_qr_scan", "android": "https://dc.lft.to/lastmile_qr_scan"}, "lon": -77.041925, "type": "electric_scooter", "fusion_lat": 0.0, "lat": 38.905355666666665, "name": "1875d4c6ec9240914a5490c1fd24219b", "fusion_lon": 0.0, "bike_id": "1875d4c6ec9240914a5490c1fd24219b", "is_disabled": 0, "is_reserved": 0}, {"rental_uris": {"ios": "https://dc.lft.to/lastmile_qr_scan", "android": "https://dc.lft.to/lastmile_qr_scan"}, "lon": -77.041098, "type": "electric_scooter", "fusion_lat": 0.0, "lat": 38.92443166666666, "name": "7622bc799641f9d47c6093cd20d59f1e", "fusion_lon": 0.0, "bike_id": "7622bc799641f9d47c6093cd20d59f1e", "is_disabled": 0, "is_reserved": 0}, {"rental_uris": {"ios": "https://dc.lft.to/lastmile_qr_scan", "android": "https://dc.lft.to/lastmile_qr_scan"}, "lon": -77.03145283333333, "type": "electric_scooter", "fusion_lat": 0.0, "lat": 38.91833583333333, "name": "98de49f6af0eef48f9a6df0463811ea6", "fusion_lon": 0.0, "bike_id": "98de49f6af0eef48f9a6df0463811ea6", "is_disabled": 0, "is_reserved": 0}, {"rental_uris": {"ios": "https://dc.lft.to/lastmile_qr_scan", "android": "https://dc.lft.to/lastmile_qr_scan"}, "lon": -76.99860916666667, "type": "electric_scooter", "fusion_lat": 0.0, "lat": 38.89996433333334, "name": "9f34e5946c0ead47aa2857cf5b605365", "fusion_lon": 0.0, "bike_id": "9f34e5946c0ead47aa2857cf5b605365", "is_disabled": 0, "is_reserved": 0}, {"rental_uris": {"ios": "https://dc.lft.to/lastmile_qr_scan", "android": "https://dc.lft.to/lastmile_qr_scan"}, "lon": -76.97935516666666, "type": "electric_scooter", "fusion_lat": 0.0, "lat": 38.90670583333333, "name": "6e4be66c1421a25d6aeae780b8b9a476", "fusion_lon": 0.0, "bike_id": "6e4be66c1421a25d6aeae780b8b9a476", "is_disabled": 0, "is_reserved": 0}, {"rental_uris": {"ios": "https://dc.lft.to/lastmile_qr_scan", "android": "https://dc.lft.to/lastmile_qr_scan"}, "lon": -77.03346883333333, "type": "electric_scooter", "fusion_lat": 0.0, "lat": 38.911809166666664, "name": "93aea09b2a9d66df23290cb299a01ddd", "fusion_lon": 0.0, "bike_id": "93aea09b2a9d66df23290cb299a01ddd", "is_disabled": 0, "is_reserved": 0}, {"rental_uris": {"ios": "https://dc.lft.to/lastmile_qr_scan", "android": "https://dc.lft.to/lastmile_qr_scan"}, "lon": -77.03473316666667, "type": "electric_scooter", "fusion_lat": 0.0, "lat": 38.912663, "name": "dafaeeb1328129455b62d7f463193bd9", "fusion_lon": 0.0, "bike_id": "dafaeeb1328129455b62d7f463193bd9", "is_disabled": 0, "is_reserved": 0}, {"rental_uris": {"ios": "https://dc.lft.to/lastmile_qr_scan", "android": "https://dc.lft.to/lastmile_qr_scan"}, "lon": -76.9740905, "type": "electric_scooter", "fusion_lat": 0.0, "lat": 38.90156116666667, "name": "f9f4ddddc2db15c4ba0bf2d363478ed4", "fusion_lon": 0.0, "bike_id": "f9f4ddddc2db15c4ba0bf2d363478ed4", "is_disabled": 0, "is_reserved": 0}, {"rental_uris": {"ios": "https://dc.lft.to/lastmile_qr_scan", "android": "https://dc.lft.to/lastmile_qr_scan"}, "lon": -77.033632, "type": "electric_scooter", "fusion_lat": 0.0, "lat": 38.919727, "name": "7107fa93756e9e6c27925893d8122a68", "fusion_lon": 0.0, "bike_id": "7107fa93756e9e6c27925893d8122a68", "is_disabled": 0, "is_reserved": 0}, {"rental_uris": {"ios": "https://dc.lft.to/lastmile_qr_scan", "android": "https://dc.lft.to/lastmile_qr_scan"}, "lon": -77.03311033333334, "type": "electric_scooter", "fusion_lat": 0.0, "lat": 38.90013116666667, "name": "85a0b01eacfac22f4d1baedc2658c371", "fusion_lon": 0.0, "bike_id": "85a0b01eacfac22f4d1baedc2658c371", "is_disabled": 0, "is_reserved": 0}, {"rental_uris": {"ios": "https://dc.lft.to/lastmile_qr_scan", "android": "https://dc.lft.to/lastmile_qr_scan"}, "lon": -76.9749555, "type": "electric_bike", "fusion_lat": 0.0, "lat": 38.92003416666667, "name": "b39f0faf0e2c8845bad4e67d42303ce1", "fusion_lon": 0.0, "bike_id": "b39f0faf0e2c8845bad4e67d42303ce1", "is_disabled": 0, "is_reserved": 0}, {"rental_uris": {"ios": "https://dc.lft.to/lastmile_qr_scan", "android": "https://dc.lft.to/lastmile_qr_scan"}, "lon": -77.00224183333333, "type": "electric_scooter", "fusion_lat": 0.0, "lat": 38.91176516666667, "name": "4a4da7bba98bb0a2a2f8685830ff00d3", "fusion_lon": 0.0, "bike_id": "4a4da7bba98bb0a2a2f8685830ff00d3", "is_disabled": 0, "is_reserved": 0}, {"rental_uris": {"ios": "https://dc.lft.to/lastmile_qr_scan", "android": "https://dc.lft.to/lastmile_qr_scan"}, "lon": -77.01793166666667, "type": "electric_scooter", "fusion_lat": 0.0, "lat": 38.89235583333333, "name": "4ef6da0ae4d412cfbadb76cc77811f7c", "fusion_lon": 0.0, "bike_id": "4ef6da0ae4d412cfbadb76cc77811f7c", "is_disabled": 0, "is_reserved": 0}, {"rental_uris": {"ios": "https://dc.lft.to/lastmile_qr_scan", "android": "https://dc.lft.to/lastmile_qr_scan"}, "lon": -76.937176, "type": "electric_scooter", "fusion_lat": 0.0, "lat": 38.895871666666665, "name": "7241bac05795c7b0460276a4ba83c494", "fusion_lon": 0.0, "bike_id": "7241bac05795c7b0460276a4ba83c494", "is_disabled": 0, "is_reserved": 0}, {"rental_uris": {"ios": "https://dc.lft.to/lastmile_qr_scan", "android": "https://dc.lft.to/lastmile_qr_scan"}, "lon": -77.02468133333333, "type": "electric_scooter", "fusion_lat": 0.0, "lat": 38.9025215, "name": "698f0d0f6057a7e616b26125ce3f92ae", "fusion_lon": 0.0, "bike_id": "698f0d0f6057a7e616b26125ce3f92ae", "is_disabled": 0, "is_reserved": 0}, {"rental_uris": {"ios": "https://dc.lft.to/lastmile_qr_scan", "android": "https://dc.lft.to/lastmile_qr_scan"}, "lon": -77.0397465, "type": "electric_scooter", "fusion_lat": 0.0, "lat": 38.90361383333333, "name": "f2e394c1053fed5626d31aaeec4599c2", "fusion_lon": 0.0, "bike_id": "f2e394c1053fed5626d31aaeec4599c2", "is_disabled": 0, "is_reserved": 0}, {"rental_uris": {"ios": "https://dc.lft.to/lastmile_qr_scan", "android": "https://dc.lft.to/lastmile_qr_scan"}, "lon": -77.01435633333334, "type": "electric_scooter", "fusion_lat": 0.0, "lat": 38.929884333333334, "name": "6415c56397d214db9a81a256ba5254a8", "fusion_lon": 0.0, "bike_id": "6415c56397d214db9a81a256ba5254a8", "is_disabled": 0, "is_reserved": 0}, {"rental_uris": {"ios": "https://dc.lft.to/lastmile_qr_scan", "android": "https://dc.lft.to/lastmile_qr_scan"}, "lon": -77.0500135, "type": "electric_scooter", "fusion_lat": 0.0, "lat": 38.90425483333333, "name": "df6cf9f08f5c5a71db65b4c5d3fb9656", "fusion_lon": 0.0, "bike_id": "df6cf9f08f5c5a71db65b4c5d3fb9656", "is_disabled": 0, "is_reserved": 0}, {"rental_uris": {"ios": "https://dc.lft.to/lastmile_qr_scan", "android": "https://dc.lft.to/lastmile_qr_scan"}, "lon": -76.965566, "type": "electric_bike", "fusion_lat": 0.0, "lat": 38.9510045, "name": "29ac96c1f5e78e51b566a0a96cf2db8c", "fusion_lon": 0.0, "bike_id": "29ac96c1f5e78e51b566a0a96cf2db8c", "is_disabled": 0, "is_reserved": 0}, {"rental_uris": {"ios": "https://dc.lft.to/lastmile_qr_scan", "android": "https://dc.lft.to/lastmile_qr_scan"}, "lon": -77.02178416666666, "type": "electric_scooter", "fusion_lat": 0.0, "lat": 38.8977185, "name": "74a23b3ee4031907ae3a9a1b1f00ccc0", "fusion_lon": 0.0, "bike_id": "74a23b3ee4031907ae3a9a1b1f00ccc0", "is_disabled": 0, "is_reserved": 0}, {"rental_uris": {"ios": "https://dc.lft.to/lastmile_qr_scan", "android": "https://dc.lft.to/lastmile_qr_scan"}, "lon": -77.00069733333333, "type": "electric_scooter", "fusion_lat": 0.0, "lat": 38.900502, "name": "daa01289ad8a022466a0e9bc9d9c34a5", "fusion_lon": 0.0, "bike_id": "daa01289ad8a022466a0e9bc9d9c34a5", "is_disabled": 0, "is_reserved": 0}, {"rental_uris": {"ios": "https://dc.lft.to/lastmile_qr_scan", "android": "https://dc.lft.to/lastmile_qr_scan"}, "lon": -76.99547066666666, "type": "electric_scooter", "fusion_lat": 0.0, "lat": 38.885943833333336, "name": "9a6171499b22b52a552854ad710fa64e", "fusion_lon": 0.0, "bike_id": "9a6171499b22b52a552854ad710fa64e", "is_disabled": 0, "is_reserved": 0}, {"rental_uris": {"ios": "https://dc.lft.to/lastmile_qr_scan", "android": "https://dc.lft.to/lastmile_qr_scan"}, "lon": -77.051589, "type": "electric_scooter", "fusion_lat": 0.0, "lat": 38.8977905, "name": "3fb84c74d7ba639bd15159c79da2c2ba", "fusion_lon": 0.0, "bike_id": "3fb84c74d7ba639bd15159c79da2c2ba", "is_disabled": 0, "is_reserved": 0}, {"rental_uris": {"ios": "https://dc.lft.to/lastmile_qr_scan", "android": "https://dc.lft.to/lastmile_qr_scan"}, "lon": -77.01777033333333, "type": "electric_scooter", "fusion_lat": 0.0, "lat": 38.877370166666665, "name": "453c96574699ab11978ce2d12d70d59d", "fusion_lon": 0.0, "bike_id": "453c96574699ab11978ce2d12d70d59d", "is_disabled": 0, "is_reserved": 0}, {"rental_uris": {"ios": "https://dc.lft.to/lastmile_qr_scan", "android": "https://dc.lft.to/lastmile_qr_scan"}, "lon": -77.03984866666667, "type": "electric_scooter", "fusion_lat": 0.0, "lat": 38.900379, "name": "cb88fb8ef239e9301082c1c4c1773645", "fusion_lon": 0.0, "bike_id": "cb88fb8ef239e9301082c1c4c1773645", "is_disabled": 0, "is_reserved": 0}, {"rental_uris": {"ios": "https://dc.lft.to/lastmile_qr_scan", "android": "https://dc.lft.to/lastmile_qr_scan"}, "lon": -77.00740466666667, "type": "electric_scooter", "fusion_lat": 0.0, "lat": 38.955235, "name": "60fa0f8f85d0a2af115aca3c54044f89", "fusion_lon": 0.0, "bike_id": "60fa0f8f85d0a2af115aca3c54044f89", "is_disabled": 0, "is_reserved": 0}, {"rental_uris": {"ios": "https://dc.lft.to/lastmile_qr_scan", "android": "https://dc.lft.to/lastmile_qr_scan"}, "lon": -77.00210333333334, "type": "electric_scooter", "fusion_lat": 0.0, "lat": 38.90220033333333, "name": "82ec065f17f086b6fbeea1adbbf08d69", "fusion_lon": 0.0, "bike_id": "82ec065f17f086b6fbeea1adbbf08d69", "is_disabled": 0, "is_reserved": 0}, {"rental_uris": {"ios": "https://dc.lft.to/lastmile_qr_scan", "android": "https://dc.lft.to/lastmile_qr_scan"}, "lon": -77.067807, "type": "electric_scooter", "fusion_lat": 0.0, "lat": 38.95204583333334, "name": "2b0f13a9a5a4ae113d4df4a316f7f278", "fusion_lon": 0.0, "bike_id": "2b0f13a9a5a4ae113d4df4a316f7f278", "is_disabled": 0, "is_reserved": 0}, {"rental_uris": {"ios": "https://dc.lft.to/lastmile_qr_scan", "android": "https://dc.lft.to/lastmile_qr_scan"}, "lon": -77.03211633333333, "type": "electric_scooter", "fusion_lat": 0.0, "lat": 38.912556333333335, "name": "bc46cb48a7bb832f1e3ef656970323b5", "fusion_lon": 0.0, "bike_id": "bc46cb48a7bb832f1e3ef656970323b5", "is_disabled": 0, "is_reserved": 0}, {"rental_uris": {"ios": "https://dc.lft.to/lastmile_qr_scan", "android": "https://dc.lft.to/lastmile_qr_scan"}, "lon": -77.0288175, "type": "electric_scooter", "fusion_lat": 0.0, "lat": 38.90726516666667, "name": "1ef0ba76f8190a3518d7d60bfae1e068", "fusion_lon": 0.0, "bike_id": "1ef0ba76f8190a3518d7d60bfae1e068", "is_disabled": 0, "is_reserved": 0}, {"rental_uris": {"ios": "https://dc.lft.to/lastmile_qr_scan", "android": "https://dc.lft.to/lastmile_qr_scan"}, "lon": -77.0417255, "type": "electric_scooter", "fusion_lat": 0.0, "lat": 38.91702216666667, "name": "b2ffcc8d2c0933309fa500412caa6b61", "fusion_lon": 0.0, "bike_id": "b2ffcc8d2c0933309fa500412caa6b61", "is_disabled": 0, "is_reserved": 0}, {"rental_uris": {"ios": "https://dc.lft.to/lastmile_qr_scan", "android": "https://dc.lft.to/lastmile_qr_scan"}, "lon": -77.031858, "type": "electric_scooter", "fusion_lat": 0.0, "lat": 38.918261333333334, "name": "edec6ccca0eab58c04ab22ca94232319", "fusion_lon": 0.0, "bike_id": "edec6ccca0eab58c04ab22ca94232319", "is_disabled": 0, "is_reserved": 0}, {"rental_uris": {"ios": "https://dc.lft.to/lastmile_qr_scan", "android": "https://dc.lft.to/lastmile_qr_scan"}, "lon": -77.01510783333333, "type": "electric_scooter", "fusion_lat": 0.0, "lat": 38.88741133333333, "name": "47ad1cdd7fb0f0b660573a56238412cf", "fusion_lon": 0.0, "bike_id": "47ad1cdd7fb0f0b660573a56238412cf", "is_disabled": 0, "is_reserved": 0}, {"rental_uris": {"ios": "https://dc.lft.to/lastmile_qr_scan", "android": "https://dc.lft.to/lastmile_qr_scan"}, "lon": -77.03227216666667, "type": "electric_scooter", "fusion_lat": 0.0, "lat": 38.91816216666667, "name": "3e3043849ff39e48d65f389532ff8c22", "fusion_lon": 0.0, "bike_id": "3e3043849ff39e48d65f389532ff8c22", "is_disabled": 0, "is_reserved": 0}, {"rental_uris": {"ios": "https://dc.lft.to/lastmile_qr_scan", "android": "https://dc.lft.to/lastmile_qr_scan"}, "lon": -77.0027935, "type": "electric_scooter", "fusion_lat": 0.0, "lat": 38.89742116666667, "name": "5f1c87ebe56fc45d5df7ac7ddf1ef39a", "fusion_lon": 0.0, "bike_id": "5f1c87ebe56fc45d5df7ac7ddf1ef39a", "is_disabled": 0, "is_reserved": 0}, {"rental_uris": {"ios": "https://dc.lft.to/lastmile_qr_scan", "android": "https://dc.lft.to/lastmile_qr_scan"}, "lon": -77.10509833333333, "type": "electric_bike", "fusion_lat": 0.0, "lat": 38.9284715, "name": "c794d9cb10519d30a7e3217ebfce8dc5", "fusion_lon": 0.0, "bike_id": "c794d9cb10519d30a7e3217ebfce8dc5", "is_disabled": 0, "is_reserved": 0}, {"rental_uris": {"ios": "https://dc.lft.to/lastmile_qr_scan", "android": "https://dc.lft.to/lastmile_qr_scan"}, "lon": -77.08951866666666, "type": "electric_bike", "fusion_lat": 0.0, "lat": 38.841053, "name": "4d3551f47a6efd9054cb74908015c9c5", "fusion_lon": 0.0, "bike_id": "4d3551f47a6efd9054cb74908015c9c5", "is_disabled": 0, "is_reserved": 0}, {"rental_uris": {"ios": "https://dc.lft.to/lastmile_qr_scan", "android": "https://dc.lft.to/lastmile_qr_scan"}, "lon": -77.00701516666666, "type": "electric_scooter", "fusion_lat": 0.0, "lat": 38.900144, "name": "8fcc024df22ac1f9de1176f91af7410b", "fusion_lon": 0.0, "bike_id": "8fcc024df22ac1f9de1176f91af7410b", "is_disabled": 0, "is_reserved": 0}, {"rental_uris": {"ios": "https://dc.lft.to/lastmile_qr_scan", "android": "https://dc.lft.to/lastmile_qr_scan"}, "lon": -77.05144466666667, "type": "electric_scooter", "fusion_lat": 0.0, "lat": 38.9053195, "name": "7c08bf3478c9f69eebabc3b7b8b55621", "fusion_lon": 0.0, "bike_id": "7c08bf3478c9f69eebabc3b7b8b55621", "is_disabled": 0, "is_reserved": 0}, {"rental_uris": {"ios": "https://dc.lft.to/lastmile_qr_scan", "android": "https://dc.lft.to/lastmile_qr_scan"}, "lon": -77.02664566666667, "type": "electric_scooter", "fusion_lat": 0.0, "lat": 38.892233166666664, "name": "c403659a191c01b3c20434843888ff6b", "fusion_lon": 0.0, "bike_id": "c403659a191c01b3c20434843888ff6b", "is_disabled": 0, "is_reserved": 0}, {"rental_uris": {"ios": "https://dc.lft.to/lastmile_qr_scan", "android": "https://dc.lft.to/lastmile_qr_scan"}, "lon": -77.0535405, "type": "electric_scooter", "fusion_lat": 0.0, "lat": 38.927077833333335, "name": "1851cee42ee5ce1ed931f6b498601081", "fusion_lon": 0.0, "bike_id": "1851cee42ee5ce1ed931f6b498601081", "is_disabled": 0, "is_reserved": 0}, {"rental_uris": {"ios": "https://dc.lft.to/lastmile_qr_scan", "android": "https://dc.lft.to/lastmile_qr_scan"}, "lon": -76.98412233333333, "type": "electric_scooter", "fusion_lat": 0.0, "lat": 38.859727666666664, "name": "1c5d21efbabad8e3d14e5d6f5c3cb691", "fusion_lon": 0.0, "bike_id": "1c5d21efbabad8e3d14e5d6f5c3cb691", "is_disabled": 0, "is_reserved": 0}, {"rental_uris": {"ios": "https://dc.lft.to/lastmile_qr_scan", "android": "https://dc.lft.to/lastmile_qr_scan"}, "lon": -77.044212, "type": "electric_scooter", "fusion_lat": 0.0, "lat": 38.91782883333333, "name": "548e605c21e6ae7cbdea00487703fa79", "fusion_lon": 0.0, "bike_id": "548e605c21e6ae7cbdea00487703fa79", "is_disabled": 0, "is_reserved": 0}, {"rental_uris": {"ios": "https://dc.lft.to/lastmile_qr_scan", "android": "https://dc.lft.to/lastmile_qr_scan"}, "lon": -77.04880583333333, "type": "electric_scooter", "fusion_lat": 0.0, "lat": 38.903578833333334, "name": "0bcf0152843523748f3d46525fedba1e", "fusion_lon": 0.0, "bike_id": "0bcf0152843523748f3d46525fedba1e", "is_disabled": 0, "is_reserved": 0}, {"rental_uris": {"ios": "https://dc.lft.to/lastmile_qr_scan", "android": "https://dc.lft.to/lastmile_qr_scan"}, "lon": -77.03271183333334, "type": "electric_scooter", "fusion_lat": 0.0, "lat": 38.94786366666666, "name": "93b5636dafbd28cbe5120e3f32db5c37", "fusion_lon": 0.0, "bike_id": "93b5636dafbd28cbe5120e3f32db5c37", "is_disabled": 0, "is_reserved": 0}, {"rental_uris": {"ios": "https://dc.lft.to/lastmile_qr_scan", "android": "https://dc.lft.to/lastmile_qr_scan"}, "lon": -77.02134366666667, "type": "electric_scooter", "fusion_lat": 0.0, "lat": 38.931074, "name": "50012460d70513de6199517dd4a14987", "fusion_lon": 0.0, "bike_id": "50012460d70513de6199517dd4a14987", "is_disabled": 0, "is_reserved": 0}, {"rental_uris": {"ios": "https://dc.lft.to/lastmile_qr_scan", "android": "https://dc.lft.to/lastmile_qr_scan"}, "lon": -77.03337633333334, "type": "electric_scooter", "fusion_lat": 0.0, "lat": 38.9181565, "name": "b2a58018ab5f1bf25d53090b961b45db", "fusion_lon": 0.0, "bike_id": "b2a58018ab5f1bf25d53090b961b45db", "is_disabled": 0, "is_reserved": 0}, {"rental_uris": {"ios": "https://dc.lft.to/lastmile_qr_scan", "android": "https://dc.lft.to/lastmile_qr_scan"}, "lon": -76.98681583333334, "type": "electric_scooter", "fusion_lat": 0.0, "lat": 38.882188166666666, "name": "9e6386f152a993f284589a480a773f2c", "fusion_lon": 0.0, "bike_id": "9e6386f152a993f284589a480a773f2c", "is_disabled": 0, "is_reserved": 0}, {"rental_uris": {"ios": "https://dc.lft.to/lastmile_qr_scan", "android": "https://dc.lft.to/lastmile_qr_scan"}, "lon": -77.05886616666666, "type": "electric_scooter", "fusion_lat": 0.0, "lat": 38.936345833333334, "name": "7fb6fb3069361d67a3adcc75336bb806", "fusion_lon": 0.0, "bike_id": "7fb6fb3069361d67a3adcc75336bb806", "is_disabled": 0, "is_reserved": 0}, {"rental_uris": {"ios": "https://dc.lft.to/lastmile_qr_scan", "android": "https://dc.lft.to/lastmile_qr_scan"}, "lon": -77.0431035, "type": "electric_scooter", "fusion_lat": 0.0, "lat": 38.9232775, "name": "40499646abd633f67d33b8b41aa8a898", "fusion_lon": 0.0, "bike_id": "40499646abd633f67d33b8b41aa8a898", "is_disabled": 0, "is_reserved": 0}, {"rental_uris": {"ios": "https://dc.lft.to/lastmile_qr_scan", "android": "https://dc.lft.to/lastmile_qr_scan"}, "lon": -76.97959466666667, "type": "electric_scooter", "fusion_lat": 0.0, "lat": 38.90376416666667, "name": "dd6de1dfa03efed19549b4fbe0aeb467", "fusion_lon": 0.0, "bike_id": "dd6de1dfa03efed19549b4fbe0aeb467", "is_disabled": 0, "is_reserved": 0}, {"rental_uris": {"ios": "https://dc.lft.to/lastmile_qr_scan", "android": "https://dc.lft.to/lastmile_qr_scan"}, "lon": -77.00289816666667, "type": "electric_scooter", "fusion_lat": 0.0, "lat": 38.894746833333336, "name": "d2c0fdfb66620fa0f3d724f7bbe43601", "fusion_lon": 0.0, "bike_id": "d2c0fdfb66620fa0f3d724f7bbe43601", "is_disabled": 0, "is_reserved": 0}, {"rental_uris": {"ios": "https://dc.lft.to/lastmile_qr_scan", "android": "https://dc.lft.to/lastmile_qr_scan"}, "lon": -77.02950983333334, "type": "electric_scooter", "fusion_lat": 0.0, "lat": 38.916006333333335, "name": "fe08da4ae3936f4d525b2db01158ba52", "fusion_lon": 0.0, "bike_id": "fe08da4ae3936f4d525b2db01158ba52", "is_disabled": 0, "is_reserved": 0}, {"rental_uris": {"ios": "https://dc.lft.to/lastmile_qr_scan", "android": "https://dc.lft.to/lastmile_qr_scan"}, "lon": -77.047461, "type": "electric_scooter", "fusion_lat": 0.0, "lat": 38.91285466666667, "name": "dc70e70d9411fa5ed974e9da5094352b", "fusion_lon": 0.0, "bike_id": "dc70e70d9411fa5ed974e9da5094352b", "is_disabled": 0, "is_reserved": 0}, {"rental_uris": {"ios": "https://dc.lft.to/lastmile_qr_scan", "android": "https://dc.lft.to/lastmile_qr_scan"}, "lon": -77.03746616666666, "type": "electric_scooter", "fusion_lat": 0.0, "lat": 38.93444816666667, "name": "94312d6afa5d15ae36489c69e68d7933", "fusion_lon": 0.0, "bike_id": "94312d6afa5d15ae36489c69e68d7933", "is_disabled": 0, "is_reserved": 0}, {"rental_uris": {"ios": "https://dc.lft.to/lastmile_qr_scan", "android": "https://dc.lft.to/lastmile_qr_scan"}, "lon": -77.04045433333333, "type": "electric_scooter", "fusion_lat": 0.0, "lat": 38.925621666666665, "name": "72843c3ae10191d2426ac9422a5893a4", "fusion_lon": 0.0, "bike_id": "72843c3ae10191d2426ac9422a5893a4", "is_disabled": 0, "is_reserved": 0}, {"rental_uris": {"ios": "https://dc.lft.to/lastmile_qr_scan", "android": "https://dc.lft.to/lastmile_qr_scan"}, "lon": -77.03169083333333, "type": "electric_scooter", "fusion_lat": 0.0, "lat": 38.896077, "name": "5bd06c7a09885c4b0c2af206a285070e", "fusion_lon": 0.0, "bike_id": "5bd06c7a09885c4b0c2af206a285070e", "is_disabled": 0, "is_reserved": 0}, {"rental_uris": {"ios": "https://dc.lft.to/lastmile_qr_scan", "android": "https://dc.lft.to/lastmile_qr_scan"}, "lon": -77.028381, "type": "electric_scooter", "fusion_lat": 0.0, "lat": 38.887703333333334, "name": "d4def0eca7069e4ce769637a7b52bc51", "fusion_lon": 0.0, "bike_id": "d4def0eca7069e4ce769637a7b52bc51", "is_disabled": 0, "is_reserved": 0}, {"rental_uris": {"ios": "https://dc.lft.to/lastmile_qr_scan", "android": "https://dc.lft.to/lastmile_qr_scan"}, "lon": -76.9877295, "type": "electric_scooter", "fusion_lat": 0.0, "lat": 38.91173033333333, "name": "a690a1eab641f3786aafe9441c5e55ce", "fusion_lon": 0.0, "bike_id": "a690a1eab641f3786aafe9441c5e55ce", "is_disabled": 0, "is_reserved": 0}, {"rental_uris": {"ios": "https://dc.lft.to/lastmile_qr_scan", "android": "https://dc.lft.to/lastmile_qr_scan"}, "lon": -77.06159416666667, "type": "electric_scooter", "fusion_lat": 0.0, "lat": 38.94233066666666, "name": "0662afd20472bb59589648aab8b2007e", "fusion_lon": 0.0, "bike_id": "0662afd20472bb59589648aab8b2007e", "is_disabled": 0, "is_reserved": 0}, {"rental_uris": {"ios": "https://dc.lft.to/lastmile_qr_scan", "android": "https://dc.lft.to/lastmile_qr_scan"}, "lon": -77.02622483333333, "type": "electric_scooter", "fusion_lat": 0.0, "lat": 38.93337133333333, "name": "13486730f27fcb19c91ec76782cfe39a", "fusion_lon": 0.0, "bike_id": "13486730f27fcb19c91ec76782cfe39a", "is_disabled": 0, "is_reserved": 0}, {"rental_uris": {"ios": "https://dc.lft.to/lastmile_qr_scan", "android": "https://dc.lft.to/lastmile_qr_scan"}, "lon": -77.03464866666667, "type": "electric_scooter", "fusion_lat": 0.0, "lat": 38.9166365, "name": "a236d6a79681c7012ed1b1435a1dd532", "fusion_lon": 0.0, "bike_id": "a236d6a79681c7012ed1b1435a1dd532", "is_disabled": 0, "is_reserved": 0}, {"rental_uris": {"ios": "https://dc.lft.to/lastmile_qr_scan", "android": "https://dc.lft.to/lastmile_qr_scan"}, "lon": -76.93965716666666, "type": "electric_bike", "fusion_lat": 0.0, "lat": 38.912432333333335, "name": "7058d15fa3342289f4eeaaf9932fd5db", "fusion_lon": 0.0, "bike_id": "7058d15fa3342289f4eeaaf9932fd5db", "is_disabled": 0, "is_reserved": 0}, {"rental_uris": {"ios": "https://dc.lft.to/lastmile_qr_scan", "android": "https://dc.lft.to/lastmile_qr_scan"}, "lon": -77.049482, "type": "electric_scooter", "fusion_lat": 0.0, "lat": 38.896688, "name": "e747da3039d1377caedfb857b93a415f", "fusion_lon": 0.0, "bike_id": "e747da3039d1377caedfb857b93a415f", "is_disabled": 0, "is_reserved": 0}, {"rental_uris": {"ios": "https://dc.lft.to/lastmile_qr_scan", "android": "https://dc.lft.to/lastmile_qr_scan"}, "lon": -76.978872, "type": "electric_scooter", "fusion_lat": 0.0, "lat": 38.916721833333334, "name": "8500c4da6007ed8ff0092a2f4c4fc83f", "fusion_lon": 0.0, "bike_id": "8500c4da6007ed8ff0092a2f4c4fc83f", "is_disabled": 0, "is_reserved": 0}, {"rental_uris": {"ios": "https://dc.lft.to/lastmile_qr_scan", "android": "https://dc.lft.to/lastmile_qr_scan"}, "lon": -77.04319666666666, "type": "electric_scooter", "fusion_lat": 0.0, "lat": 38.895903833333335, "name": "25354001a1d38d25b3084b6b11a5629a", "fusion_lon": 0.0, "bike_id": "25354001a1d38d25b3084b6b11a5629a", "is_disabled": 0, "is_reserved": 0}, {"rental_uris": {"ios": "https://dc.lft.to/lastmile_qr_scan", "android": "https://dc.lft.to/lastmile_qr_scan"}, "lon": -77.12739983333333, "type": "electric_bike", "fusion_lat": 0.0, "lat": 38.88823433333334, "name": "5447f5064bf988e0217c44d55d3c9a2c", "fusion_lon": 0.0, "bike_id": "5447f5064bf988e0217c44d55d3c9a2c", "is_disabled": 0, "is_reserved": 0}, {"rental_uris": {"ios": "https://dc.lft.to/lastmile_qr_scan", "android": "https://dc.lft.to/lastmile_qr_scan"}, "lon": -76.93809966666667, "type": "electric_scooter", "fusion_lat": 0.0, "lat": 38.91306466666666, "name": "079a1941ab536cb69c257cc4cb1323e4", "fusion_lon": 0.0, "bike_id": "079a1941ab536cb69c257cc4cb1323e4", "is_disabled": 0, "is_reserved": 0}, {"rental_uris": {"ios": "https://dc.lft.to/lastmile_qr_scan", "android": "https://dc.lft.to/lastmile_qr_scan"}, "lon": -77.02394183333334, "type": "electric_scooter", "fusion_lat": 0.0, "lat": 38.906648, "name": "e665277c9abc68a4fb64d686de37fe6c", "fusion_lon": 0.0, "bike_id": "e665277c9abc68a4fb64d686de37fe6c", "is_disabled": 0, "is_reserved": 0}, {"rental_uris": {"ios": "https://dc.lft.to/lastmile_qr_scan", "android": "https://dc.lft.to/lastmile_qr_scan"}, "lon": -76.946326, "type": "electric_scooter", "fusion_lat": 0.0, "lat": 38.89842816666667, "name": "e0354f989d3d82c598b2a975a7ac69ec", "fusion_lon": 0.0, "bike_id": "e0354f989d3d82c598b2a975a7ac69ec", "is_disabled": 0, "is_reserved": 0}, {"rental_uris": {"ios": "https://dc.lft.to/lastmile_qr_scan", "android": "https://dc.lft.to/lastmile_qr_scan"}, "lon": -77.0049885, "type": "electric_scooter", "fusion_lat": 0.0, "lat": 38.878891, "name": "9dc16387b3bc37dd9f883b6146be84d9", "fusion_lon": 0.0, "bike_id": "9dc16387b3bc37dd9f883b6146be84d9", "is_disabled": 0, "is_reserved": 0}, {"rental_uris": {"ios": "https://dc.lft.to/lastmile_qr_scan", "android": "https://dc.lft.to/lastmile_qr_scan"}, "lon": -77.04121833333333, "type": "electric_scooter", "fusion_lat": 0.0, "lat": 38.933984333333335, "name": "899e6df0d71dedfd078929dd0bd369f6", "fusion_lon": 0.0, "bike_id": "899e6df0d71dedfd078929dd0bd369f6", "is_disabled": 0, "is_reserved": 0}, {"rental_uris": {"ios": "https://dc.lft.to/lastmile_qr_scan", "android": "https://dc.lft.to/lastmile_qr_scan"}, "lon": -77.00349366666667, "type": "electric_scooter", "fusion_lat": 0.0, "lat": 38.89260933333333, "name": "543cb60a7191f52006c2afc01c5bd2f5", "fusion_lon": 0.0, "bike_id": "543cb60a7191f52006c2afc01c5bd2f5", "is_disabled": 0, "is_reserved": 0}, {"rental_uris": {"ios": "https://dc.lft.to/lastmile_qr_scan", "android": "https://dc.lft.to/lastmile_qr_scan"}, "lon": -77.00207166666667, "type": "electric_bike", "fusion_lat": 0.0, "lat": 38.903952, "name": "ec6d314377863b97aa125f6bd711beea", "fusion_lon": 0.0, "bike_id": "ec6d314377863b97aa125f6bd711beea", "is_disabled": 0, "is_reserved": 0}, {"rental_uris": {"ios": "https://dc.lft.to/lastmile_qr_scan", "android": "https://dc.lft.to/lastmile_qr_scan"}, "lon": -77.02938916666666, "type": "electric_scooter", "fusion_lat": 0.0, "lat": 38.899477, "name": "f9bceb85976a44f862f7f7108850dc8e", "fusion_lon": 0.0, "bike_id": "f9bceb85976a44f862f7f7108850dc8e", "is_disabled": 0, "is_reserved": 0}, {"rental_uris": {"ios": "https://dc.lft.to/lastmile_qr_scan", "android": "https://dc.lft.to/lastmile_qr_scan"}, "lon": -77.02873433333333, "type": "electric_scooter", "fusion_lat": 0.0, "lat": 38.93980783333333, "name": "0ac9c5cc86d361c6c7ea3ac6fb5e6f4e", "fusion_lon": 0.0, "bike_id": "0ac9c5cc86d361c6c7ea3ac6fb5e6f4e", "is_disabled": 0, "is_reserved": 0}, {"rental_uris": {"ios": "https://dc.lft.to/lastmile_qr_scan", "android": "https://dc.lft.to/lastmile_qr_scan"}, "lon": -77.03622183333333, "type": "electric_scooter", "fusion_lat": 0.0, "lat": 38.9373955, "name": "d649a6810dd747f889438e4b76e605f7", "fusion_lon": 0.0, "bike_id": "d649a6810dd747f889438e4b76e605f7", "is_disabled": 0, "is_reserved": 0}, {"rental_uris": {"ios": "https://dc.lft.to/lastmile_qr_scan", "android": "https://dc.lft.to/lastmile_qr_scan"}, "lon": -77.06463383333333, "type": "electric_scooter", "fusion_lat": 0.0, "lat": 38.91049966666667, "name": "2b2882da345d1a6bfbe9951a26368b62", "fusion_lon": 0.0, "bike_id": "2b2882da345d1a6bfbe9951a26368b62", "is_disabled": 0, "is_reserved": 0}, {"rental_uris": {"ios": "https://dc.lft.to/lastmile_qr_scan", "android": "https://dc.lft.to/lastmile_qr_scan"}, "lon": -77.03310833333333, "type": "electric_scooter", "fusion_lat": 0.0, "lat": 38.901506499999996, "name": "cbdd085f8c327bb46fa92cf35f523e13", "fusion_lon": 0.0, "bike_id": "cbdd085f8c327bb46fa92cf35f523e13", "is_disabled": 0, "is_reserved": 0}, {"rental_uris": {"ios": "https://dc.lft.to/lastmile_qr_scan", "android": "https://dc.lft.to/lastmile_qr_scan"}, "lon": -77.03878583333334, "type": "electric_scooter", "fusion_lat": 0.0, "lat": 38.908131833333336, "name": "7c4b288d23d3c8d1eec885ff915d253d", "fusion_lon": 0.0, "bike_id": "7c4b288d23d3c8d1eec885ff915d253d", "is_disabled": 0, "is_reserved": 0}, {"rental_uris": {"ios": "https://dc.lft.to/lastmile_qr_scan", "android": "https://dc.lft.to/lastmile_qr_scan"}, "lon": -77.06177616666666, "type": "electric_scooter", "fusion_lat": 0.0, "lat": 38.902589166666665, "name": "6fbc3be73e93eaf7e4829a5a7fe9ef8d", "fusion_lon": 0.0, "bike_id": "6fbc3be73e93eaf7e4829a5a7fe9ef8d", "is_disabled": 0, "is_reserved": 0}, {"rental_uris": {"ios": "https://dc.lft.to/lastmile_qr_scan", "android": "https://dc.lft.to/lastmile_qr_scan"}, "lon": -77.18300583333334, "type": "electric_bike", "fusion_lat": 0.0, "lat": 38.88344766666667, "name": "a23cb043a3a7f6e5a03cc948f03bb303", "fusion_lon": 0.0, "bike_id": "a23cb043a3a7f6e5a03cc948f03bb303", "is_disabled": 0, "is_reserved": 0}, {"rental_uris": {"ios": "https://dc.lft.to/lastmile_qr_scan", "android": "https://dc.lft.to/lastmile_qr_scan"}, "lon": -76.978214, "type": "electric_scooter", "fusion_lat": 0.0, "lat": 38.895179166666665, "name": "169e8042c26b1b154e04352ee64c62f9", "fusion_lon": 0.0, "bike_id": "169e8042c26b1b154e04352ee64c62f9", "is_disabled": 0, "is_reserved": 0}, {"rental_uris": {"ios": "https://dc.lft.to/lastmile_qr_scan", "android": "https://dc.lft.to/lastmile_qr_scan"}, "lon": -77.0417695, "type": "electric_scooter", "fusion_lat": 0.0, "lat": 38.919360166666664, "name": "958b642ab8816be4c7f83805bdbf86db", "fusion_lon": 0.0, "bike_id": "958b642ab8816be4c7f83805bdbf86db", "is_disabled": 0, "is_reserved": 0}, {"rental_uris": {"ios": "https://dc.lft.to/lastmile_qr_scan", "android": "https://dc.lft.to/lastmile_qr_scan"}, "lon": -77.0398205, "type": "electric_scooter", "fusion_lat": 0.0, "lat": 38.900179, "name": "0d1141a630a80079ff7bef0b664bb45a", "fusion_lon": 0.0, "bike_id": "0d1141a630a80079ff7bef0b664bb45a", "is_disabled": 0, "is_reserved": 0}, {"rental_uris": {"ios": "https://dc.lft.to/lastmile_qr_scan", "android": "https://dc.lft.to/lastmile_qr_scan"}, "lon": -77.017501, "type": "electric_scooter", "fusion_lat": 0.0, "lat": 38.90552366666667, "name": "e240c714d14bb292ffab70f465985d07", "fusion_lon": 0.0, "bike_id": "e240c714d14bb292ffab70f465985d07", "is_disabled": 0, "is_reserved": 0}, {"rental_uris": {"ios": "https://dc.lft.to/lastmile_qr_scan", "android": "https://dc.lft.to/lastmile_qr_scan"}, "lon": -76.94998566666666, "type": "electric_scooter", "fusion_lat": 0.0, "lat": 38.893702, "name": "8f78e30390b2bf65516516ce45a23af3", "fusion_lon": 0.0, "bike_id": "8f78e30390b2bf65516516ce45a23af3", "is_disabled": 0, "is_reserved": 0}, {"rental_uris": {"ios": "https://dc.lft.to/lastmile_qr_scan", "android": "https://dc.lft.to/lastmile_qr_scan"}, "lon": -77.03180966666666, "type": "electric_scooter", "fusion_lat": 0.0, "lat": 38.91715116666666, "name": "193da3a4a7caec1c9a6231c905ed2852", "fusion_lon": 0.0, "bike_id": "193da3a4a7caec1c9a6231c905ed2852", "is_disabled": 0, "is_reserved": 0}, {"rental_uris": {"ios": "https://dc.lft.to/lastmile_qr_scan", "android": "https://dc.lft.to/lastmile_qr_scan"}, "lon": -76.99021283333333, "type": "electric_scooter", "fusion_lat": 0.0, "lat": 38.85867316666667, "name": "21dbbf853a77ea7113a58850d4db7a4d", "fusion_lon": 0.0, "bike_id": "21dbbf853a77ea7113a58850d4db7a4d", "is_disabled": 0, "is_reserved": 0}, {"rental_uris": {"ios": "https://dc.lft.to/lastmile_qr_scan", "android": "https://dc.lft.to/lastmile_qr_scan"}, "lon": -77.0186135, "type": "electric_scooter", "fusion_lat": 0.0, "lat": 38.892650833333335, "name": "dd85b58952d5add6e8270126d0da8a1c", "fusion_lon": 0.0, "bike_id": "dd85b58952d5add6e8270126d0da8a1c", "is_disabled": 0, "is_reserved": 0}, {"rental_uris": {"ios": "https://dc.lft.to/lastmile_qr_scan", "android": "https://dc.lft.to/lastmile_qr_scan"}, "lon": -77.02542016666666, "type": "electric_scooter", "fusion_lat": 0.0, "lat": 38.8922535, "name": "8d180272eeae1ba0a7c5f0e932c052bd", "fusion_lon": 0.0, "bike_id": "8d180272eeae1ba0a7c5f0e932c052bd", "is_disabled": 0, "is_reserved": 0}, {"rental_uris": {"ios": "https://dc.lft.to/lastmile_qr_scan", "android": "https://dc.lft.to/lastmile_qr_scan"}, "lon": -77.0299, "type": "electric_scooter", "fusion_lat": 0.0, "lat": 38.95630666666667, "name": "86dc8ea6ea292134a14d8145c1e17631", "fusion_lon": 0.0, "bike_id": "86dc8ea6ea292134a14d8145c1e17631", "is_disabled": 0, "is_reserved": 0}, {"rental_uris": {"ios": "https://dc.lft.to/lastmile_qr_scan", "android": "https://dc.lft.to/lastmile_qr_scan"}, "lon": -77.02574183333333, "type": "electric_scooter", "fusion_lat": 0.0, "lat": 38.972408, "name": "168ca812491988d328feb9a31f3a98cd", "fusion_lon": 0.0, "bike_id": "168ca812491988d328feb9a31f3a98cd", "is_disabled": 0, "is_reserved": 0}, {"rental_uris": {"ios": "https://dc.lft.to/lastmile_qr_scan", "android": "https://dc.lft.to/lastmile_qr_scan"}, "lon": -76.99394883333333, "type": "electric_scooter", "fusion_lat": 0.0, "lat": 38.90059766666667, "name": "a0926baf23d4d7d5a98138f0e5c8baa9", "fusion_lon": 0.0, "bike_id": "a0926baf23d4d7d5a98138f0e5c8baa9", "is_disabled": 0, "is_reserved": 0}, {"rental_uris": {"ios": "https://dc.lft.to/lastmile_qr_scan", "android": "https://dc.lft.to/lastmile_qr_scan"}, "lon": -77.03197683333333, "type": "electric_scooter", "fusion_lat": 0.0, "lat": 38.918212, "name": "21c36f1da1665539daf86c6191400e58", "fusion_lon": 0.0, "bike_id": "21c36f1da1665539daf86c6191400e58", "is_disabled": 0, "is_reserved": 0}, {"rental_uris": {"ios": "https://dc.lft.to/lastmile_qr_scan", "android": "https://dc.lft.to/lastmile_qr_scan"}, "lon": -77.0366485, "type": "electric_scooter", "fusion_lat": 0.0, "lat": 38.922379, "name": "3fb7b8971ef509662ce2cb0b865aefba", "fusion_lon": 0.0, "bike_id": "3fb7b8971ef509662ce2cb0b865aefba", "is_disabled": 0, "is_reserved": 0}, {"rental_uris": {"ios": "https://dc.lft.to/lastmile_qr_scan", "android": "https://dc.lft.to/lastmile_qr_scan"}, "lon": -77.08945133333333, "type": "electric_bike", "fusion_lat": 0.0, "lat": 38.841055833333336, "name": "e308ed5746393065ded3dde559a3638d", "fusion_lon": 0.0, "bike_id": "e308ed5746393065ded3dde559a3638d", "is_disabled": 0, "is_reserved": 0}, {"rental_uris": {"ios": "https://dc.lft.to/lastmile_qr_scan", "android": "https://dc.lft.to/lastmile_qr_scan"}, "lon": -77.03855983333334, "type": "electric_scooter", "fusion_lat": 0.0, "lat": 38.931284166666664, "name": "e52a196d5a3252850abd93cd933a1e57", "fusion_lon": 0.0, "bike_id": "e52a196d5a3252850abd93cd933a1e57", "is_disabled": 0, "is_reserved": 0}, {"rental_uris": {"ios": "https://dc.lft.to/lastmile_qr_scan", "android": "https://dc.lft.to/lastmile_qr_scan"}, "lon": -77.02577316666667, "type": "electric_scooter", "fusion_lat": 0.0, "lat": 38.91815316666667, "name": "715f3038244d2411ba74ed53c87fbdf7", "fusion_lon": 0.0, "bike_id": "715f3038244d2411ba74ed53c87fbdf7", "is_disabled": 0, "is_reserved": 0}, {"rental_uris": {"ios": "https://dc.lft.to/lastmile_qr_scan", "android": "https://dc.lft.to/lastmile_qr_scan"}, "lon": -77.02615133333333, "type": "electric_scooter", "fusion_lat": 0.0, "lat": 38.951838, "name": "36f7c5277b65b68dd3a9cdadb3ed6bb0", "fusion_lon": 0.0, "bike_id": "36f7c5277b65b68dd3a9cdadb3ed6bb0", "is_disabled": 0, "is_reserved": 0}, {"rental_uris": {"ios": "https://dc.lft.to/lastmile_qr_scan", "android": "https://dc.lft.to/lastmile_qr_scan"}, "lon": -77.03957766666667, "type": "electric_scooter", "fusion_lat": 0.0, "lat": 38.92607733333333, "name": "2d0755c6ace91061e938493a0d0c5cac", "fusion_lon": 0.0, "bike_id": "2d0755c6ace91061e938493a0d0c5cac", "is_disabled": 0, "is_reserved": 0}, {"rental_uris": {"ios": "https://dc.lft.to/lastmile_qr_scan", "android": "https://dc.lft.to/lastmile_qr_scan"}, "lon": -77.03211, "type": "electric_scooter", "fusion_lat": 0.0, "lat": 38.912807666666666, "name": "7cc6018e35209ae31f61fe0176553efc", "fusion_lon": 0.0, "bike_id": "7cc6018e35209ae31f61fe0176553efc", "is_disabled": 0, "is_reserved": 0}, {"rental_uris": {"ios": "https://dc.lft.to/lastmile_qr_scan", "android": "https://dc.lft.to/lastmile_qr_scan"}, "lon": -77.02984716666667, "type": "electric_scooter", "fusion_lat": 0.0, "lat": 38.958324833333336, "name": "051ccf6ff8f6d6b8e1807a243e499749", "fusion_lon": 0.0, "bike_id": "051ccf6ff8f6d6b8e1807a243e499749", "is_disabled": 0, "is_reserved": 0}, {"rental_uris": {"ios": "https://dc.lft.to/lastmile_qr_scan", "android": "https://dc.lft.to/lastmile_qr_scan"}, "lon": -77.040769, "type": "electric_bike", "fusion_lat": 0.0, "lat": 38.81233666666667, "name": "97ea20fac452bb5fa777244bf10ba60e", "fusion_lon": 0.0, "bike_id": "97ea20fac452bb5fa777244bf10ba60e", "is_disabled": 0, "is_reserved": 0}, {"rental_uris": {"ios": "https://dc.lft.to/lastmile_qr_scan", "android": "https://dc.lft.to/lastmile_qr_scan"}, "lon": -76.93892533333333, "type": "electric_bike", "fusion_lat": 0.0, "lat": 38.88329066666667, "name": "12cc86b531191872b96a6c3071b4e7c6", "fusion_lon": 0.0, "bike_id": "12cc86b531191872b96a6c3071b4e7c6", "is_disabled": 0, "is_reserved": 0}, {"rental_uris": {"ios": "https://dc.lft.to/lastmile_qr_scan", "android": "https://dc.lft.to/lastmile_qr_scan"}, "lon": -77.023567, "type": "electric_scooter", "fusion_lat": 0.0, "lat": 38.93198066666667, "name": "775c67d98faf693969d0757665a493c4", "fusion_lon": 0.0, "bike_id": "775c67d98faf693969d0757665a493c4", "is_disabled": 0, "is_reserved": 0}, {"rental_uris": {"ios": "https://dc.lft.to/lastmile_qr_scan", "android": "https://dc.lft.to/lastmile_qr_scan"}, "lon": -77.033037, "type": "electric_scooter", "fusion_lat": 0.0, "lat": 38.9287445, "name": "3d06f5cd02cf997ce56883b3a89c836c", "fusion_lon": 0.0, "bike_id": "3d06f5cd02cf997ce56883b3a89c836c", "is_disabled": 0, "is_reserved": 0}, {"rental_uris": {"ios": "https://dc.lft.to/lastmile_qr_scan", "android": "https://dc.lft.to/lastmile_qr_scan"}, "lon": -77.0364535, "type": "electric_scooter", "fusion_lat": 0.0, "lat": 38.9161555, "name": "0fe1cfec06871729f1edc3a2f755dbce", "fusion_lon": 0.0, "bike_id": "0fe1cfec06871729f1edc3a2f755dbce", "is_disabled": 0, "is_reserved": 0}, {"rental_uris": {"ios": "https://dc.lft.to/lastmile_qr_scan", "android": "https://dc.lft.to/lastmile_qr_scan"}, "lon": -77.01607666666666, "type": "electric_scooter", "fusion_lat": 0.0, "lat": 38.899748333333335, "name": "e7e632851bab08fcf820276b68dba5fc", "fusion_lon": 0.0, "bike_id": "e7e632851bab08fcf820276b68dba5fc", "is_disabled": 0, "is_reserved": 0}, {"rental_uris": {"ios": "https://dc.lft.to/lastmile_qr_scan", "android": "https://dc.lft.to/lastmile_qr_scan"}, "lon": -77.04376433333333, "type": "electric_bike", "fusion_lat": 0.0, "lat": 38.927980833333336, "name": "c96202e6e71e57e428fb11eaf9542077", "fusion_lon": 0.0, "bike_id": "c96202e6e71e57e428fb11eaf9542077", "is_disabled": 0, "is_reserved": 0}, {"rental_uris": {"ios": "https://dc.lft.to/lastmile_qr_scan", "android": "https://dc.lft.to/lastmile_qr_scan"}, "lon": -76.96530783333333, "type": "electric_scooter", "fusion_lat": 0.0, "lat": 38.876249333333334, "name": "4bebccd3f7cefc0ce9f26f7272b7ebef", "fusion_lon": 0.0, "bike_id": "4bebccd3f7cefc0ce9f26f7272b7ebef", "is_disabled": 0, "is_reserved": 0}, {"rental_uris": {"ios": "https://dc.lft.to/lastmile_qr_scan", "android": "https://dc.lft.to/lastmile_qr_scan"}, "lon": -77.033018, "type": "electric_scooter", "fusion_lat": 0.0, "lat": 38.91107483333333, "name": "6e7a5d264f9ee44a59a72541b80f82d4", "fusion_lon": 0.0, "bike_id": "6e7a5d264f9ee44a59a72541b80f82d4", "is_disabled": 0, "is_reserved": 0}, {"rental_uris": {"ios": "https://dc.lft.to/lastmile_qr_scan", "android": "https://dc.lft.to/lastmile_qr_scan"}, "lon": -77.04350966666667, "type": "electric_scooter", "fusion_lat": 0.0, "lat": 38.906539, "name": "00ded60e14971efc46effdde7395e940", "fusion_lon": 0.0, "bike_id": "00ded60e14971efc46effdde7395e940", "is_disabled": 0, "is_reserved": 0}, {"rental_uris": {"ios": "https://dc.lft.to/lastmile_qr_scan", "android": "https://dc.lft.to/lastmile_qr_scan"}, "lon": -76.997997, "type": "electric_scooter", "fusion_lat": 0.0, "lat": 38.9084985, "name": "cc5795fe8892f556e2bf66926d82358b", "fusion_lon": 0.0, "bike_id": "cc5795fe8892f556e2bf66926d82358b", "is_disabled": 0, "is_reserved": 0}, {"rental_uris": {"ios": "https://dc.lft.to/lastmile_qr_scan", "android": "https://dc.lft.to/lastmile_qr_scan"}, "lon": -77.01115566666667, "type": "electric_scooter", "fusion_lat": 0.0, "lat": 38.90356533333333, "name": "3e2f0a456dc931682f506735ab6e3520", "fusion_lon": 0.0, "bike_id": "3e2f0a456dc931682f506735ab6e3520", "is_disabled": 0, "is_reserved": 0}, {"rental_uris": {"ios": "https://dc.lft.to/lastmile_qr_scan", "android": "https://dc.lft.to/lastmile_qr_scan"}, "lon": -77.02709083333333, "type": "electric_scooter", "fusion_lat": 0.0, "lat": 38.9499805, "name": "3909ac34b641751abe92573c59713eaf", "fusion_lon": 0.0, "bike_id": "3909ac34b641751abe92573c59713eaf", "is_disabled": 0, "is_reserved": 0}, {"rental_uris": {"ios": "https://dc.lft.to/lastmile_qr_scan", "android": "https://dc.lft.to/lastmile_qr_scan"}, "lon": -77.0514775, "type": "electric_scooter", "fusion_lat": 0.0, "lat": 38.92371083333333, "name": "0509f0bc50020aaa450a02234bd1ecd1", "fusion_lon": 0.0, "bike_id": "0509f0bc50020aaa450a02234bd1ecd1", "is_disabled": 0, "is_reserved": 0}, {"rental_uris": {"ios": "https://dc.lft.to/lastmile_qr_scan", "android": "https://dc.lft.to/lastmile_qr_scan"}, "lon": -77.03578466666667, "type": "electric_scooter", "fusion_lat": 0.0, "lat": 38.907707333333335, "name": "979d801cf2f7005b664adeba60c9f582", "fusion_lon": 0.0, "bike_id": "979d801cf2f7005b664adeba60c9f582", "is_disabled": 0, "is_reserved": 0}, {"rental_uris": {"ios": "https://dc.lft.to/lastmile_qr_scan", "android": "https://dc.lft.to/lastmile_qr_scan"}, "lon": -77.0383675, "type": "electric_scooter", "fusion_lat": 0.0, "lat": 38.9148585, "name": "cbe001ff596e0b31a9f77dafda83e34c", "fusion_lon": 0.0, "bike_id": "cbe001ff596e0b31a9f77dafda83e34c", "is_disabled": 0, "is_reserved": 0}, {"rental_uris": {"ios": "https://dc.lft.to/lastmile_qr_scan", "android": "https://dc.lft.to/lastmile_qr_scan"}, "lon": -77.0430755, "type": "electric_bike", "fusion_lat": 0.0, "lat": 39.05445616666667, "name": "d73db1f56486e8bebbc0ea5b422f513f", "fusion_lon": 0.0, "bike_id": "d73db1f56486e8bebbc0ea5b422f513f", "is_disabled": 0, "is_reserved": 0}, {"rental_uris": {"ios": "https://dc.lft.to/lastmile_qr_scan", "android": "https://dc.lft.to/lastmile_qr_scan"}, "lon": -77.02615083333333, "type": "electric_scooter", "fusion_lat": 0.0, "lat": 38.897419166666666, "name": "a8db13d7631816e1e6b923659c20e064", "fusion_lon": 0.0, "bike_id": "a8db13d7631816e1e6b923659c20e064", "is_disabled": 0, "is_reserved": 0}, {"rental_uris": {"ios": "https://dc.lft.to/lastmile_qr_scan", "android": "https://dc.lft.to/lastmile_qr_scan"}, "lon": -77.00194383333333, "type": "electric_scooter", "fusion_lat": 0.0, "lat": 38.900044666666666, "name": "367f0aac32336099647a6841118c165d", "fusion_lon": 0.0, "bike_id": "367f0aac32336099647a6841118c165d", "is_disabled": 0, "is_reserved": 0}, {"rental_uris": {"ios": "https://dc.lft.to/lastmile_qr_scan", "android": "https://dc.lft.to/lastmile_qr_scan"}, "lon": -76.95356266666667, "type": "electric_bike", "fusion_lat": 0.0, "lat": 38.9394995, "name": "348871e98f3888e15dfbcbcfc8bb5039", "fusion_lon": 0.0, "bike_id": "348871e98f3888e15dfbcbcfc8bb5039", "is_disabled": 0, "is_reserved": 0}, {"rental_uris": {"ios": "https://dc.lft.to/lastmile_qr_scan", "android": "https://dc.lft.to/lastmile_qr_scan"}, "lon": -77.17840716666667, "type": "electric_bike", "fusion_lat": 0.0, "lat": 39.088579333333335, "name": "d0b5ec9f78aeecc9225274e8e7cb8cba", "fusion_lon": 0.0, "bike_id": "d0b5ec9f78aeecc9225274e8e7cb8cba", "is_disabled": 0, "is_reserved": 0}, {"rental_uris": {"ios": "https://dc.lft.to/lastmile_qr_scan", "android": "https://dc.lft.to/lastmile_qr_scan"}, "lon": -76.9890265, "type": "electric_scooter", "fusion_lat": 0.0, "lat": 38.866913833333335, "name": "685e785c685ccc47633a6c0314af9a10", "fusion_lon": 0.0, "bike_id": "685e785c685ccc47633a6c0314af9a10", "is_disabled": 0, "is_reserved": 0}, {"rental_uris": {"ios": "https://dc.lft.to/lastmile_qr_scan", "android": "https://dc.lft.to/lastmile_qr_scan"}, "lon": -77.02711833333333, "type": "electric_scooter", "fusion_lat": 0.0, "lat": 38.88139666666667, "name": "33d489c3567ad8416030a0e8e71b5e7e", "fusion_lon": 0.0, "bike_id": "33d489c3567ad8416030a0e8e71b5e7e", "is_disabled": 0, "is_reserved": 0}, {"rental_uris": {"ios": "https://dc.lft.to/lastmile_qr_scan", "android": "https://dc.lft.to/lastmile_qr_scan"}, "lon": -76.93616666666667, "type": "electric_bike", "fusion_lat": 0.0, "lat": 38.970641666666666, "name": "4ab45862c1a4e355648ac7cf1cedafc2", "fusion_lon": 0.0, "bike_id": "4ab45862c1a4e355648ac7cf1cedafc2", "is_disabled": 0, "is_reserved": 0}, {"rental_uris": {"ios": "https://dc.lft.to/lastmile_qr_scan", "android": "https://dc.lft.to/lastmile_qr_scan"}, "lon": -77.0144285, "type": "electric_scooter", "fusion_lat": 0.0, "lat": 38.91958116666667, "name": "52ed13ecaebf2d04f2fdd5979e0ce769", "fusion_lon": 0.0, "bike_id": "52ed13ecaebf2d04f2fdd5979e0ce769", "is_disabled": 0, "is_reserved": 0}, {"rental_uris": {"ios": "https://dc.lft.to/lastmile_qr_scan", "android": "https://dc.lft.to/lastmile_qr_scan"}, "lon": -77.07908683333333, "type": "electric_bike", "fusion_lat": 0.0, "lat": 38.83938766666667, "name": "a092d86d39c58b0c5b985faba30982ab", "fusion_lon": 0.0, "bike_id": "a092d86d39c58b0c5b985faba30982ab", "is_disabled": 0, "is_reserved": 0}, {"rental_uris": {"ios": "https://dc.lft.to/lastmile_qr_scan", "android": "https://dc.lft.to/lastmile_qr_scan"}, "lon": -77.029756, "type": "electric_scooter", "fusion_lat": 0.0, "lat": 38.89565783333333, "name": "49405838bc191e8981b960da9657e200", "fusion_lon": 0.0, "bike_id": "49405838bc191e8981b960da9657e200", "is_disabled": 0, "is_reserved": 0}, {"rental_uris": {"ios": "https://dc.lft.to/lastmile_qr_scan", "android": "https://dc.lft.to/lastmile_qr_scan"}, "lon": -77.012603, "type": "electric_scooter", "fusion_lat": 0.0, "lat": 38.912654833333335, "name": "ad2e6643776093278ed4afbd8244289a", "fusion_lon": 0.0, "bike_id": "ad2e6643776093278ed4afbd8244289a", "is_disabled": 0, "is_reserved": 0}, {"rental_uris": {"ios": "https://dc.lft.to/lastmile_qr_scan", "android": "https://dc.lft.to/lastmile_qr_scan"}, "lon": -76.99508416666667, "type": "electric_scooter", "fusion_lat": 0.0, "lat": 38.87778633333333, "name": "590b161f75584736d202525a14ca3701", "fusion_lon": 0.0, "bike_id": "590b161f75584736d202525a14ca3701", "is_disabled": 0, "is_reserved": 0}, {"rental_uris": {"ios": "https://dc.lft.to/lastmile_qr_scan", "android": "https://dc.lft.to/lastmile_qr_scan"}, "lon": -77.02348833333333, "type": "electric_scooter", "fusion_lat": 0.0, "lat": 38.9338845, "name": "bc3c3dac05dc6f1e92dcddcb3cec8226", "fusion_lon": 0.0, "bike_id": "bc3c3dac05dc6f1e92dcddcb3cec8226", "is_disabled": 0, "is_reserved": 0}, {"rental_uris": {"ios": "https://dc.lft.to/lastmile_qr_scan", "android": "https://dc.lft.to/lastmile_qr_scan"}, "lon": -76.97261566666667, "type": "electric_bike", "fusion_lat": 0.0, "lat": 38.919161833333334, "name": "83470f0438be87fa6903b1350dd00932", "fusion_lon": 0.0, "bike_id": "83470f0438be87fa6903b1350dd00932", "is_disabled": 0, "is_reserved": 0}, {"rental_uris": {"ios": "https://dc.lft.to/lastmile_qr_scan", "android": "https://dc.lft.to/lastmile_qr_scan"}, "lon": -77.1190795, "type": "electric_bike", "fusion_lat": 0.0, "lat": 38.840937833333335, "name": "0b26af2a08f45b072f8b90ac64856926", "fusion_lon": 0.0, "bike_id": "0b26af2a08f45b072f8b90ac64856926", "is_disabled": 0, "is_reserved": 0}, {"rental_uris": {"ios": "https://dc.lft.to/lastmile_qr_scan", "android": "https://dc.lft.to/lastmile_qr_scan"}, "lon": -77.05325083333334, "type": "electric_scooter", "fusion_lat": 0.0, "lat": 38.93965, "name": "5367242671d4d8ee2cb5dfc0885cdbf8", "fusion_lon": 0.0, "bike_id": "5367242671d4d8ee2cb5dfc0885cdbf8", "is_disabled": 0, "is_reserved": 0}, {"rental_uris": {"ios": "https://dc.lft.to/lastmile_qr_scan", "android": "https://dc.lft.to/lastmile_qr_scan"}, "lon": -77.04703016666667, "type": "electric_scooter", "fusion_lat": 0.0, "lat": 38.9096015, "name": "02a65b9426c9a1cf30c6c469e39f76f0", "fusion_lon": 0.0, "bike_id": "02a65b9426c9a1cf30c6c469e39f76f0", "is_disabled": 0, "is_reserved": 0}, {"rental_uris": {"ios": "https://dc.lft.to/lastmile_qr_scan", "android": "https://dc.lft.to/lastmile_qr_scan"}, "lon": -76.94881316666667, "type": "electric_scooter", "fusion_lat": 0.0, "lat": 38.89501166666667, "name": "7cf3007642288632325b886f5ff2c47b", "fusion_lon": 0.0, "bike_id": "7cf3007642288632325b886f5ff2c47b", "is_disabled": 0, "is_reserved": 0}, {"rental_uris": {"ios": "https://dc.lft.to/lastmile_qr_scan", "android": "https://dc.lft.to/lastmile_qr_scan"}, "lon": -77.02150533333334, "type": "electric_scooter", "fusion_lat": 0.0, "lat": 38.9281935, "name": "c313faae50adabfebf5c5b1f73669880", "fusion_lon": 0.0, "bike_id": "c313faae50adabfebf5c5b1f73669880", "is_disabled": 0, "is_reserved": 0}, {"rental_uris": {"ios": "https://dc.lft.to/lastmile_qr_scan", "android": "https://dc.lft.to/lastmile_qr_scan"}, "lon": -77.02481633333333, "type": "electric_scooter", "fusion_lat": 0.0, "lat": 38.89758233333333, "name": "44f21496bad0903a1dfa0504542dc84d", "fusion_lon": 0.0, "bike_id": "44f21496bad0903a1dfa0504542dc84d", "is_disabled": 0, "is_reserved": 0}, {"rental_uris": {"ios": "https://dc.lft.to/lastmile_qr_scan", "android": "https://dc.lft.to/lastmile_qr_scan"}, "lon": -77.03330033333333, "type": "electric_scooter", "fusion_lat": 0.0, "lat": 38.901163333333336, "name": "56c8f77dcc4d9e11fd5bc15ed80fdf56", "fusion_lon": 0.0, "bike_id": "56c8f77dcc4d9e11fd5bc15ed80fdf56", "is_disabled": 0, "is_reserved": 0}, {"rental_uris": {"ios": "https://dc.lft.to/lastmile_qr_scan", "android": "https://dc.lft.to/lastmile_qr_scan"}, "lon": -77.00377183333333, "type": "electric_scooter", "fusion_lat": 0.0, "lat": 38.899942, "name": "9ba0f06807fb2f2b7a02b6115d8258bc", "fusion_lon": 0.0, "bike_id": "9ba0f06807fb2f2b7a02b6115d8258bc", "is_disabled": 0, "is_reserved": 0}, {"rental_uris": {"ios": "https://dc.lft.to/lastmile_qr_scan", "android": "https://dc.lft.to/lastmile_qr_scan"}, "lon": -77.01705583333333, "type": "electric_scooter", "fusion_lat": 0.0, "lat": 38.9053445, "name": "4de79d6442412df6d5e8fe04723b23a9", "fusion_lon": 0.0, "bike_id": "4de79d6442412df6d5e8fe04723b23a9", "is_disabled": 0, "is_reserved": 0}, {"rental_uris": {"ios": "https://dc.lft.to/lastmile_qr_scan", "android": "https://dc.lft.to/lastmile_qr_scan"}, "lon": -76.98851783333333, "type": "electric_scooter", "fusion_lat": 0.0, "lat": 38.903458666666666, "name": "5eafbb66dee1214e293c09fbd79642fe", "fusion_lon": 0.0, "bike_id": "5eafbb66dee1214e293c09fbd79642fe", "is_disabled": 0, "is_reserved": 0}, {"rental_uris": {"ios": "https://dc.lft.to/lastmile_qr_scan", "android": "https://dc.lft.to/lastmile_qr_scan"}, "lon": -77.076162, "type": "electric_scooter", "fusion_lat": 0.0, "lat": 38.912554666666665, "name": "0568b160a588c97bdc520e1e26e01798", "fusion_lon": 0.0, "bike_id": "0568b160a588c97bdc520e1e26e01798", "is_disabled": 0, "is_reserved": 0}, {"rental_uris": {"ios": "https://dc.lft.to/lastmile_qr_scan", "android": "https://dc.lft.to/lastmile_qr_scan"}, "lon": -77.0317595, "type": "electric_scooter", "fusion_lat": 0.0, "lat": 38.914152333333334, "name": "472e142c527d3a4354c91e4767a02500", "fusion_lon": 0.0, "bike_id": "472e142c527d3a4354c91e4767a02500", "is_disabled": 0, "is_reserved": 0}, {"rental_uris": {"ios": "https://dc.lft.to/lastmile_qr_scan", "android": "https://dc.lft.to/lastmile_qr_scan"}, "lon": -77.0418775, "type": "electric_scooter", "fusion_lat": 0.0, "lat": 38.9035545, "name": "c40030a7af8c29328b948beafdbf0e59", "fusion_lon": 0.0, "bike_id": "c40030a7af8c29328b948beafdbf0e59", "is_disabled": 0, "is_reserved": 0}, {"rental_uris": {"ios": "https://dc.lft.to/lastmile_qr_scan", "android": "https://dc.lft.to/lastmile_qr_scan"}, "lon": -77.02790316666666, "type": "electric_scooter", "fusion_lat": 0.0, "lat": 38.9237285, "name": "77a38feb66b0b9442b79521143dee697", "fusion_lon": 0.0, "bike_id": "77a38feb66b0b9442b79521143dee697", "is_disabled": 0, "is_reserved": 0}, {"rental_uris": {"ios": "https://dc.lft.to/lastmile_qr_scan", "android": "https://dc.lft.to/lastmile_qr_scan"}, "lon": -76.94719033333334, "type": "electric_scooter", "fusion_lat": 0.0, "lat": 38.896739833333335, "name": "126040631796f6bf5abc99b6d48db5ab", "fusion_lon": 0.0, "bike_id": "126040631796f6bf5abc99b6d48db5ab", "is_disabled": 0, "is_reserved": 0}, {"rental_uris": {"ios": "https://dc.lft.to/lastmile_qr_scan", "android": "https://dc.lft.to/lastmile_qr_scan"}, "lon": -77.0567825, "type": "electric_scooter", "fusion_lat": 0.0, "lat": 38.90517716666667, "name": "58496d046a893714ec24652ea35884d2", "fusion_lon": 0.0, "bike_id": "58496d046a893714ec24652ea35884d2", "is_disabled": 0, "is_reserved": 0}, {"rental_uris": {"ios": "https://dc.lft.to/lastmile_qr_scan", "android": "https://dc.lft.to/lastmile_qr_scan"}, "lon": -77.0318955, "type": "electric_scooter", "fusion_lat": 0.0, "lat": 38.91242916666667, "name": "da75e02d31fa4650ed309499216f50df", "fusion_lon": 0.0, "bike_id": "da75e02d31fa4650ed309499216f50df", "is_disabled": 0, "is_reserved": 0}, {"rental_uris": {"ios": "https://dc.lft.to/lastmile_qr_scan", "android": "https://dc.lft.to/lastmile_qr_scan"}, "lon": -77.0465925, "type": "electric_scooter", "fusion_lat": 0.0, "lat": 38.8964275, "name": "471e8ffae89816d66fa2fe232123c458", "fusion_lon": 0.0, "bike_id": "471e8ffae89816d66fa2fe232123c458", "is_disabled": 0, "is_reserved": 0}, {"rental_uris": {"ios": "https://dc.lft.to/lastmile_qr_scan", "android": "https://dc.lft.to/lastmile_qr_scan"}, "lon": -77.04645916666666, "type": "electric_scooter", "fusion_lat": 0.0, "lat": 38.91580066666667, "name": "161be1cae07376d21795fb7d6693e3ef", "fusion_lon": 0.0, "bike_id": "161be1cae07376d21795fb7d6693e3ef", "is_disabled": 0, "is_reserved": 0}, {"rental_uris": {"ios": "https://dc.lft.to/lastmile_qr_scan", "android": "https://dc.lft.to/lastmile_qr_scan"}, "lon": -76.97328116666667, "type": "electric_scooter", "fusion_lat": 0.0, "lat": 38.930313, "name": "b609710ced1173f6ab90b33a87fe5398", "fusion_lon": 0.0, "bike_id": "b609710ced1173f6ab90b33a87fe5398", "is_disabled": 0, "is_reserved": 0}, {"rental_uris": {"ios": "https://dc.lft.to/lastmile_qr_scan", "android": "https://dc.lft.to/lastmile_qr_scan"}, "lon": -76.985687, "type": "electric_scooter", "fusion_lat": 0.0, "lat": 38.861438166666666, "name": "28bd617464c46ccabb4f883b99447a54", "fusion_lon": 0.0, "bike_id": "28bd617464c46ccabb4f883b99447a54", "is_disabled": 0, "is_reserved": 0}, {"rental_uris": {"ios": "https://dc.lft.to/lastmile_qr_scan", "android": "https://dc.lft.to/lastmile_qr_scan"}, "lon": -76.97505316666667, "type": "electric_bike", "fusion_lat": 0.0, "lat": 38.91930966666666, "name": "1849a1b9a4436981faab3d9f2942d8fc", "fusion_lon": 0.0, "bike_id": "1849a1b9a4436981faab3d9f2942d8fc", "is_disabled": 0, "is_reserved": 0}, {"rental_uris": {"ios": "https://dc.lft.to/lastmile_qr_scan", "android": "https://dc.lft.to/lastmile_qr_scan"}, "lon": -77.057186, "type": "electric_scooter", "fusion_lat": 0.0, "lat": 38.90528316666666, "name": "99b0fbb581fc7c5ee0a869397dd572a4", "fusion_lon": 0.0, "bike_id": "99b0fbb581fc7c5ee0a869397dd572a4", "is_disabled": 0, "is_reserved": 0}, {"rental_uris": {"ios": "https://dc.lft.to/lastmile_qr_scan", "android": "https://dc.lft.to/lastmile_qr_scan"}, "lon": -76.996104, "type": "electric_scooter", "fusion_lat": 0.0, "lat": 38.8862425, "name": "586a4529f52ac1bdb335c4cf113fda2a", "fusion_lon": 0.0, "bike_id": "586a4529f52ac1bdb335c4cf113fda2a", "is_disabled": 0, "is_reserved": 0}, {"rental_uris": {"ios": "https://dc.lft.to/lastmile_qr_scan", "android": "https://dc.lft.to/lastmile_qr_scan"}, "lon": -76.9987435, "type": "electric_scooter", "fusion_lat": 0.0, "lat": 38.9002085, "name": "6170a17a364a04b9819953358a2d6392", "fusion_lon": 0.0, "bike_id": "6170a17a364a04b9819953358a2d6392", "is_disabled": 0, "is_reserved": 0}, {"rental_uris": {"ios": "https://dc.lft.to/lastmile_qr_scan", "android": "https://dc.lft.to/lastmile_qr_scan"}, "lon": -77.03200316666667, "type": "electric_scooter", "fusion_lat": 0.0, "lat": 38.91674833333333, "name": "89e051cb0175e179c1ed478c8b6aaed0", "fusion_lon": 0.0, "bike_id": "89e051cb0175e179c1ed478c8b6aaed0", "is_disabled": 0, "is_reserved": 0}, {"rental_uris": {"ios": "https://dc.lft.to/lastmile_qr_scan", "android": "https://dc.lft.to/lastmile_qr_scan"}, "lon": -77.05405083333333, "type": "electric_scooter", "fusion_lat": 0.0, "lat": 38.935097666666664, "name": "68d6b5a9e1aeb23e0f999a9a1774e181", "fusion_lon": 0.0, "bike_id": "68d6b5a9e1aeb23e0f999a9a1774e181", "is_disabled": 0, "is_reserved": 0}, {"rental_uris": {"ios": "https://dc.lft.to/lastmile_qr_scan", "android": "https://dc.lft.to/lastmile_qr_scan"}, "lon": -76.95242633333334, "type": "electric_bike", "fusion_lat": 0.0, "lat": 38.907016166666665, "name": "8bc40e0390c6d49a8f778172426a15ad", "fusion_lon": 0.0, "bike_id": "8bc40e0390c6d49a8f778172426a15ad", "is_disabled": 0, "is_reserved": 0}, {"rental_uris": {"ios": "https://dc.lft.to/lastmile_qr_scan", "android": "https://dc.lft.to/lastmile_qr_scan"}, "lon": -77.02832533333333, "type": "electric_scooter", "fusion_lat": 0.0, "lat": 38.892276833333334, "name": "09b6a159b56e318664d7813cd86918c9", "fusion_lon": 0.0, "bike_id": "09b6a159b56e318664d7813cd86918c9", "is_disabled": 0, "is_reserved": 0}, {"rental_uris": {"ios": "https://dc.lft.to/lastmile_qr_scan", "android": "https://dc.lft.to/lastmile_qr_scan"}, "lon": -77.07137683333333, "type": "electric_bike", "fusion_lat": 0.0, "lat": 38.92996516666667, "name": "58deabf90cb99648f3a534a3ad1379ea", "fusion_lon": 0.0, "bike_id": "58deabf90cb99648f3a534a3ad1379ea", "is_disabled": 0, "is_reserved": 0}, {"rental_uris": {"ios": "https://dc.lft.to/lastmile_qr_scan", "android": "https://dc.lft.to/lastmile_qr_scan"}, "lon": -76.98028266666667, "type": "electric_bike", "fusion_lat": 0.0, "lat": 38.89995916666667, "name": "efb429255362732d531676e32e65906e", "fusion_lon": 0.0, "bike_id": "efb429255362732d531676e32e65906e", "is_disabled": 0, "is_reserved": 0}, {"rental_uris": {"ios": "https://dc.lft.to/lastmile_qr_scan", "android": "https://dc.lft.to/lastmile_qr_scan"}, "lon": -77.0300895, "type": "electric_scooter", "fusion_lat": 0.0, "lat": 38.89224183333333, "name": "e16b13909067cbe88a913fd5d2fdb231", "fusion_lon": 0.0, "bike_id": "e16b13909067cbe88a913fd5d2fdb231", "is_disabled": 0, "is_reserved": 0}, {"rental_uris": {"ios": "https://dc.lft.to/lastmile_qr_scan", "android": "https://dc.lft.to/lastmile_qr_scan"}, "lon": -77.039152, "type": "electric_scooter", "fusion_lat": 0.0, "lat": 38.918396333333334, "name": "fa5ffa217684aea8dc2437c15ba708da", "fusion_lon": 0.0, "bike_id": "fa5ffa217684aea8dc2437c15ba708da", "is_disabled": 0, "is_reserved": 0}, {"rental_uris": {"ios": "https://dc.lft.to/lastmile_qr_scan", "android": "https://dc.lft.to/lastmile_qr_scan"}, "lon": -77.01315016666666, "type": "electric_scooter", "fusion_lat": 0.0, "lat": 38.897384333333335, "name": "f3bf63c0fa4e50a25208cfec72875137", "fusion_lon": 0.0, "bike_id": "f3bf63c0fa4e50a25208cfec72875137", "is_disabled": 0, "is_reserved": 0}, {"rental_uris": {"ios": "https://dc.lft.to/lastmile_qr_scan", "android": "https://dc.lft.to/lastmile_qr_scan"}, "lon": -77.0233205, "type": "electric_scooter", "fusion_lat": 0.0, "lat": 38.893950333333336, "name": "e4011b873c9d79a5fe7129e2829de775", "fusion_lon": 0.0, "bike_id": "e4011b873c9d79a5fe7129e2829de775", "is_disabled": 0, "is_reserved": 0}, {"rental_uris": {"ios": "https://dc.lft.to/lastmile_qr_scan", "android": "https://dc.lft.to/lastmile_qr_scan"}, "lon": -77.013636, "type": "electric_scooter", "fusion_lat": 0.0, "lat": 38.919847, "name": "509b7892413750f41a678bf4c9b393f1", "fusion_lon": 0.0, "bike_id": "509b7892413750f41a678bf4c9b393f1", "is_disabled": 0, "is_reserved": 0}, {"rental_uris": {"ios": "https://dc.lft.to/lastmile_qr_scan", "android": "https://dc.lft.to/lastmile_qr_scan"}, "lon": -77.04418816666667, "type": "electric_scooter", "fusion_lat": 0.0, "lat": 38.9131415, "name": "3d08b4d472e1e239c08b944f41fd7ea9", "fusion_lon": 0.0, "bike_id": "3d08b4d472e1e239c08b944f41fd7ea9", "is_disabled": 0, "is_reserved": 0}, {"rental_uris": {"ios": "https://dc.lft.to/lastmile_qr_scan", "android": "https://dc.lft.to/lastmile_qr_scan"}, "lon": -77.091434, "type": "electric_bike", "fusion_lat": 0.0, "lat": 38.804162833333336, "name": "a7eb13f9317d18161059cfc466277130", "fusion_lon": 0.0, "bike_id": "a7eb13f9317d18161059cfc466277130", "is_disabled": 0, "is_reserved": 0}, {"rental_uris": {"ios": "https://dc.lft.to/lastmile_qr_scan", "android": "https://dc.lft.to/lastmile_qr_scan"}, "lon": -77.0500075, "type": "electric_scooter", "fusion_lat": 0.0, "lat": 38.892286666666664, "name": "3f55ed8eab41fa2760739bc6c6a511cd", "fusion_lon": 0.0, "bike_id": "3f55ed8eab41fa2760739bc6c6a511cd", "is_disabled": 0, "is_reserved": 0}, {"rental_uris": {"ios": "https://dc.lft.to/lastmile_qr_scan", "android": "https://dc.lft.to/lastmile_qr_scan"}, "lon": -77.00147733333333, "type": "electric_scooter", "fusion_lat": 0.0, "lat": 38.87371816666667, "name": "27bb573bbf5683fe1cd20602b7ca4da7", "fusion_lon": 0.0, "bike_id": "27bb573bbf5683fe1cd20602b7ca4da7", "is_disabled": 0, "is_reserved": 0}, {"rental_uris": {"ios": "https://dc.lft.to/lastmile_qr_scan", "android": "https://dc.lft.to/lastmile_qr_scan"}, "lon": -77.0727725, "type": "electric_scooter", "fusion_lat": 0.0, "lat": 38.93479466666667, "name": "186d59530f56d9dc0d778aa38e97d638", "fusion_lon": 0.0, "bike_id": "186d59530f56d9dc0d778aa38e97d638", "is_disabled": 0, "is_reserved": 0}, {"rental_uris": {"ios": "https://dc.lft.to/lastmile_qr_scan", "android": "https://dc.lft.to/lastmile_qr_scan"}, "lon": -77.03421233333333, "type": "electric_scooter", "fusion_lat": 0.0, "lat": 38.919206333333335, "name": "77c524bc2e79f6c99790404515df499f", "fusion_lon": 0.0, "bike_id": "77c524bc2e79f6c99790404515df499f", "is_disabled": 0, "is_reserved": 0}, {"rental_uris": {"ios": "https://dc.lft.to/lastmile_qr_scan", "android": "https://dc.lft.to/lastmile_qr_scan"}, "lon": -77.03461066666667, "type": "electric_scooter", "fusion_lat": 0.0, "lat": 38.90895483333333, "name": "10dce614785c98ecef94bbda36b0f545", "fusion_lon": 0.0, "bike_id": "10dce614785c98ecef94bbda36b0f545", "is_disabled": 0, "is_reserved": 0}, {"rental_uris": {"ios": "https://dc.lft.to/lastmile_qr_scan", "android": "https://dc.lft.to/lastmile_qr_scan"}, "lon": -77.0246435, "type": "electric_scooter", "fusion_lat": 0.0, "lat": 38.90960033333333, "name": "e9d9224b8ab2056e6e16be1d848b036a", "fusion_lon": 0.0, "bike_id": "e9d9224b8ab2056e6e16be1d848b036a", "is_disabled": 0, "is_reserved": 0}, {"rental_uris": {"ios": "https://dc.lft.to/lastmile_qr_scan", "android": "https://dc.lft.to/lastmile_qr_scan"}, "lon": -77.03441466666666, "type": "electric_scooter", "fusion_lat": 0.0, "lat": 38.907028833333335, "name": "e3fc6bb9d5a8d20b5fbb3ea71ba498ff", "fusion_lon": 0.0, "bike_id": "e3fc6bb9d5a8d20b5fbb3ea71ba498ff", "is_disabled": 0, "is_reserved": 0}, {"rental_uris": {"ios": "https://dc.lft.to/lastmile_qr_scan", "android": "https://dc.lft.to/lastmile_qr_scan"}, "lon": -77.0060315, "type": "electric_scooter", "fusion_lat": 0.0, "lat": 38.90582716666667, "name": "b5fd974a9d4892f62edbeb4e18fd1a1d", "fusion_lon": 0.0, "bike_id": "b5fd974a9d4892f62edbeb4e18fd1a1d", "is_disabled": 0, "is_reserved": 0}, {"rental_uris": {"ios": "https://dc.lft.to/lastmile_qr_scan", "android": "https://dc.lft.to/lastmile_qr_scan"}, "lon": -77.0007885, "type": "electric_scooter", "fusion_lat": 0.0, "lat": 38.907616166666664, "name": "09c0af2c56c03be12065146d59a6a343", "fusion_lon": 0.0, "bike_id": "09c0af2c56c03be12065146d59a6a343", "is_disabled": 0, "is_reserved": 0}, {"rental_uris": {"ios": "https://dc.lft.to/lastmile_qr_scan", "android": "https://dc.lft.to/lastmile_qr_scan"}, "lon": -77.04028466666666, "type": "electric_scooter", "fusion_lat": 0.0, "lat": 38.923405, "name": "e4cff7dc0eaae57b4c0be62ab259e22c", "fusion_lon": 0.0, "bike_id": "e4cff7dc0eaae57b4c0be62ab259e22c", "is_disabled": 0, "is_reserved": 0}, {"rental_uris": {"ios": "https://dc.lft.to/lastmile_qr_scan", "android": "https://dc.lft.to/lastmile_qr_scan"}, "lon": -77.00257733333333, "type": "electric_scooter", "fusion_lat": 0.0, "lat": 38.9012825, "name": "ac30286c0edecae9ea82a81d00f6c4f4", "fusion_lon": 0.0, "bike_id": "ac30286c0edecae9ea82a81d00f6c4f4", "is_disabled": 0, "is_reserved": 0}, {"rental_uris": {"ios": "https://dc.lft.to/lastmile_qr_scan", "android": "https://dc.lft.to/lastmile_qr_scan"}, "lon": -76.999736, "type": "electric_scooter", "fusion_lat": 0.0, "lat": 38.838374, "name": "d19846e6a5a0759c302762c8e27c4bd5", "fusion_lon": 0.0, "bike_id": "d19846e6a5a0759c302762c8e27c4bd5", "is_disabled": 0, "is_reserved": 0}, {"rental_uris": {"ios": "https://dc.lft.to/lastmile_qr_scan", "android": "https://dc.lft.to/lastmile_qr_scan"}, "lon": -77.0353565, "type": "electric_scooter", "fusion_lat": 0.0, "lat": 38.921553, "name": "8686563bcf6904336e51c14a1b6614db", "fusion_lon": 0.0, "bike_id": "8686563bcf6904336e51c14a1b6614db", "is_disabled": 0, "is_reserved": 0}, {"rental_uris": {"ios": "https://dc.lft.to/lastmile_qr_scan", "android": "https://dc.lft.to/lastmile_qr_scan"}, "lon": -77.02722266666666, "type": "electric_scooter", "fusion_lat": 0.0, "lat": 38.91821066666667, "name": "5d9a8d60c9e3dbf6acf6f1825f86f06e", "fusion_lon": 0.0, "bike_id": "5d9a8d60c9e3dbf6acf6f1825f86f06e", "is_disabled": 0, "is_reserved": 0}, {"rental_uris": {"ios": "https://dc.lft.to/lastmile_qr_scan", "android": "https://dc.lft.to/lastmile_qr_scan"}, "lon": -77.0550245, "type": "electric_scooter", "fusion_lat": 0.0, "lat": 38.929776333333336, "name": "99b6179d7d06e22c9b90f4cc1bc25721", "fusion_lon": 0.0, "bike_id": "99b6179d7d06e22c9b90f4cc1bc25721", "is_disabled": 0, "is_reserved": 0}, {"rental_uris": {"ios": "https://dc.lft.to/lastmile_qr_scan", "android": "https://dc.lft.to/lastmile_qr_scan"}, "lon": -77.04815183333334, "type": "electric_scooter", "fusion_lat": 0.0, "lat": 38.913286, "name": "4e2cfdd7c0abb12dfa666734ae779f13", "fusion_lon": 0.0, "bike_id": "4e2cfdd7c0abb12dfa666734ae779f13", "is_disabled": 0, "is_reserved": 0}, {"rental_uris": {"ios": "https://dc.lft.to/lastmile_qr_scan", "android": "https://dc.lft.to/lastmile_qr_scan"}, "lon": -76.90816766666667, "type": "electric_bike", "fusion_lat": 0.0, "lat": 38.994494, "name": "7f6153ef806e6fac3f712362a60c4fbe", "fusion_lon": 0.0, "bike_id": "7f6153ef806e6fac3f712362a60c4fbe", "is_disabled": 0, "is_reserved": 0}, {"rental_uris": {"ios": "https://dc.lft.to/lastmile_qr_scan", "android": "https://dc.lft.to/lastmile_qr_scan"}, "lon": -77.04182016666667, "type": "electric_scooter", "fusion_lat": 0.0, "lat": 38.905630333333335, "name": "c78b34a7920f8535814760feccc8d898", "fusion_lon": 0.0, "bike_id": "c78b34a7920f8535814760feccc8d898", "is_disabled": 0, "is_reserved": 0}, {"rental_uris": {"ios": "https://dc.lft.to/lastmile_qr_scan", "android": "https://dc.lft.to/lastmile_qr_scan"}, "lon": -77.0265975, "type": "electric_scooter", "fusion_lat": 0.0, "lat": 38.892154, "name": "ade7699f572096a229a4dfc19a9a2766", "fusion_lon": 0.0, "bike_id": "ade7699f572096a229a4dfc19a9a2766", "is_disabled": 0, "is_reserved": 0}, {"rental_uris": {"ios": "https://dc.lft.to/lastmile_qr_scan", "android": "https://dc.lft.to/lastmile_qr_scan"}, "lon": -77.09565216666667, "type": "electric_bike", "fusion_lat": 0.0, "lat": 38.9169785, "name": "344be2ae5d54e136f4b5c258fb375df9", "fusion_lon": 0.0, "bike_id": "344be2ae5d54e136f4b5c258fb375df9", "is_disabled": 0, "is_reserved": 0}, {"rental_uris": {"ios": "https://dc.lft.to/lastmile_qr_scan", "android": "https://dc.lft.to/lastmile_qr_scan"}, "lon": -77.024894, "type": "electric_scooter", "fusion_lat": 0.0, "lat": 38.9024245, "name": "76af1f97d787e5e4b631b912c7e604aa", "fusion_lon": 0.0, "bike_id": "76af1f97d787e5e4b631b912c7e604aa", "is_disabled": 0, "is_reserved": 0}, {"rental_uris": {"ios": "https://dc.lft.to/lastmile_qr_scan", "android": "https://dc.lft.to/lastmile_qr_scan"}, "lon": -77.0653125, "type": "electric_scooter", "fusion_lat": 0.0, "lat": 38.93476033333334, "name": "80dd5f6347882645f819772730bde4a3", "fusion_lon": 0.0, "bike_id": "80dd5f6347882645f819772730bde4a3", "is_disabled": 0, "is_reserved": 0}, {"rental_uris": {"ios": "https://dc.lft.to/lastmile_qr_scan", "android": "https://dc.lft.to/lastmile_qr_scan"}, "lon": -77.03185783333333, "type": "electric_scooter", "fusion_lat": 0.0, "lat": 38.91426416666667, "name": "ddaa2b40b1641fdf7292d731cd49b7e9", "fusion_lon": 0.0, "bike_id": "ddaa2b40b1641fdf7292d731cd49b7e9", "is_disabled": 0, "is_reserved": 0}, {"rental_uris": {"ios": "https://dc.lft.to/lastmile_qr_scan", "android": "https://dc.lft.to/lastmile_qr_scan"}, "lon": -77.03531716666667, "type": "electric_scooter", "fusion_lat": 0.0, "lat": 38.914871166666664, "name": "f3cf5009d3c05a2f3503199d80377515", "fusion_lon": 0.0, "bike_id": "f3cf5009d3c05a2f3503199d80377515", "is_disabled": 0, "is_reserved": 0}, {"rental_uris": {"ios": "https://dc.lft.to/lastmile_qr_scan", "android": "https://dc.lft.to/lastmile_qr_scan"}, "lon": -76.995112, "type": "electric_scooter", "fusion_lat": 0.0, "lat": 38.881795333333336, "name": "f9e917b599886a7d0fcbf40600573796", "fusion_lon": 0.0, "bike_id": "f9e917b599886a7d0fcbf40600573796", "is_disabled": 0, "is_reserved": 0}, {"rental_uris": {"ios": "https://dc.lft.to/lastmile_qr_scan", "android": "https://dc.lft.to/lastmile_qr_scan"}, "lon": -76.96508416666667, "type": "electric_scooter", "fusion_lat": 0.0, "lat": 38.8764995, "name": "50955ef6e75927eefbb97d96aecd277c", "fusion_lon": 0.0, "bike_id": "50955ef6e75927eefbb97d96aecd277c", "is_disabled": 0, "is_reserved": 0}, {"rental_uris": {"ios": "https://dc.lft.to/lastmile_qr_scan", "android": "https://dc.lft.to/lastmile_qr_scan"}, "lon": -77.03141333333333, "type": "electric_scooter", "fusion_lat": 0.0, "lat": 38.9247545, "name": "361ed65745f30fb802d038254124058a", "fusion_lon": 0.0, "bike_id": "361ed65745f30fb802d038254124058a", "is_disabled": 0, "is_reserved": 0}, {"rental_uris": {"ios": "https://dc.lft.to/lastmile_qr_scan", "android": "https://dc.lft.to/lastmile_qr_scan"}, "lon": -77.15266216666667, "type": "electric_bike", "fusion_lat": 0.0, "lat": 39.1056415, "name": "784b60ba90a42bbf462530000e45b8fc", "fusion_lon": 0.0, "bike_id": "784b60ba90a42bbf462530000e45b8fc", "is_disabled": 0, "is_reserved": 0}, {"rental_uris": {"ios": "https://dc.lft.to/lastmile_qr_scan", "android": "https://dc.lft.to/lastmile_qr_scan"}, "lon": -77.03517966666666, "type": "electric_scooter", "fusion_lat": 0.0, "lat": 38.918389833333336, "name": "311d098ec5fe11eb93a58a761b53b010", "fusion_lon": 0.0, "bike_id": "311d098ec5fe11eb93a58a761b53b010", "is_disabled": 0, "is_reserved": 0}, {"rental_uris": {"ios": "https://dc.lft.to/lastmile_qr_scan", "android": "https://dc.lft.to/lastmile_qr_scan"}, "lon": -77.041861, "type": "electric_scooter", "fusion_lat": 0.0, "lat": 38.90348516666667, "name": "1370e342553a1defe5b22c2e43cf0898", "fusion_lon": 0.0, "bike_id": "1370e342553a1defe5b22c2e43cf0898", "is_disabled": 0, "is_reserved": 0}, {"rental_uris": {"ios": "https://dc.lft.to/lastmile_qr_scan", "android": "https://dc.lft.to/lastmile_qr_scan"}, "lon": -77.04334666666666, "type": "electric_scooter", "fusion_lat": 0.0, "lat": 38.90889516666667, "name": "1535f52c826f5ce501bea80727d009db", "fusion_lon": 0.0, "bike_id": "1535f52c826f5ce501bea80727d009db", "is_disabled": 0, "is_reserved": 0}, {"rental_uris": {"ios": "https://dc.lft.to/lastmile_qr_scan", "android": "https://dc.lft.to/lastmile_qr_scan"}, "lon": -76.94878283333334, "type": "electric_scooter", "fusion_lat": 0.0, "lat": 38.895003833333334, "name": "8d34e4cc12fa658ed43661b547ee9632", "fusion_lon": 0.0, "bike_id": "8d34e4cc12fa658ed43661b547ee9632", "is_disabled": 0, "is_reserved": 0}, {"rental_uris": {"ios": "https://dc.lft.to/lastmile_qr_scan", "android": "https://dc.lft.to/lastmile_qr_scan"}, "lon": -76.95757733333333, "type": "electric_scooter", "fusion_lat": 0.0, "lat": 38.88430966666667, "name": "e5fd963ec68b2b9b4fa85a305626af8e", "fusion_lon": 0.0, "bike_id": "e5fd963ec68b2b9b4fa85a305626af8e", "is_disabled": 0, "is_reserved": 0}, {"rental_uris": {"ios": "https://dc.lft.to/lastmile_qr_scan", "android": "https://dc.lft.to/lastmile_qr_scan"}, "lon": -77.02111066666667, "type": "electric_scooter", "fusion_lat": 0.0, "lat": 38.91307783333333, "name": "a94fe84048203c14e42dcdc50200f402", "fusion_lon": 0.0, "bike_id": "a94fe84048203c14e42dcdc50200f402", "is_disabled": 0, "is_reserved": 0}, {"rental_uris": {"ios": "https://dc.lft.to/lastmile_qr_scan", "android": "https://dc.lft.to/lastmile_qr_scan"}, "lon": -77.03920583333333, "type": "electric_scooter", "fusion_lat": 0.0, "lat": 38.903637833333335, "name": "f70d4737730051fd456ac647188226ad", "fusion_lon": 0.0, "bike_id": "f70d4737730051fd456ac647188226ad", "is_disabled": 0, "is_reserved": 0}, {"rental_uris": {"ios": "https://dc.lft.to/lastmile_qr_scan", "android": "https://dc.lft.to/lastmile_qr_scan"}, "lon": -76.9662945, "type": "electric_bike", "fusion_lat": 0.0, "lat": 38.942010833333335, "name": "a561e431186ca3f47d6f0a519a86e05e", "fusion_lon": 0.0, "bike_id": "a561e431186ca3f47d6f0a519a86e05e", "is_disabled": 0, "is_reserved": 0}, {"rental_uris": {"ios": "https://dc.lft.to/lastmile_qr_scan", "android": "https://dc.lft.to/lastmile_qr_scan"}, "lon": -77.0297565, "type": "electric_scooter", "fusion_lat": 0.0, "lat": 38.91683183333333, "name": "c472768489327e614bfbeacec904662d", "fusion_lon": 0.0, "bike_id": "c472768489327e614bfbeacec904662d", "is_disabled": 0, "is_reserved": 0}, {"rental_uris": {"ios": "https://dc.lft.to/lastmile_qr_scan", "android": "https://dc.lft.to/lastmile_qr_scan"}, "lon": -77.032859, "type": "electric_scooter", "fusion_lat": 0.0, "lat": 38.93879833333333, "name": "e6460882320213e1f0ae9421e9009b9e", "fusion_lon": 0.0, "bike_id": "e6460882320213e1f0ae9421e9009b9e", "is_disabled": 0, "is_reserved": 0}, {"rental_uris": {"ios": "https://dc.lft.to/lastmile_qr_scan", "android": "https://dc.lft.to/lastmile_qr_scan"}, "lon": -77.022984, "type": "electric_scooter", "fusion_lat": 0.0, "lat": 38.932949666666666, "name": "217ba519de5be54ef46d67cd95920632", "fusion_lon": 0.0, "bike_id": "217ba519de5be54ef46d67cd95920632", "is_disabled": 0, "is_reserved": 0}, {"rental_uris": {"ios": "https://dc.lft.to/lastmile_qr_scan", "android": "https://dc.lft.to/lastmile_qr_scan"}, "lon": -77.02395183333333, "type": "electric_scooter", "fusion_lat": 0.0, "lat": 38.952897166666666, "name": "812b252d68f9badce2912c0403f03d94", "fusion_lon": 0.0, "bike_id": "812b252d68f9badce2912c0403f03d94", "is_disabled": 0, "is_reserved": 0}, {"rental_uris": {"ios": "https://dc.lft.to/lastmile_qr_scan", "android": "https://dc.lft.to/lastmile_qr_scan"}, "lon": -77.00987966666666, "type": "electric_scooter", "fusion_lat": 0.0, "lat": 38.91483983333333, "name": "d6234ff3b59a6bd280921d39bedad9ab", "fusion_lon": 0.0, "bike_id": "d6234ff3b59a6bd280921d39bedad9ab", "is_disabled": 0, "is_reserved": 0}, {"rental_uris": {"ios": "https://dc.lft.to/lastmile_qr_scan", "android": "https://dc.lft.to/lastmile_qr_scan"}, "lon": -76.93803933333334, "type": "electric_scooter", "fusion_lat": 0.0, "lat": 38.8823585, "name": "7befe6d1323a2c565f39516c3477208c", "fusion_lon": 0.0, "bike_id": "7befe6d1323a2c565f39516c3477208c", "is_disabled": 0, "is_reserved": 0}, {"rental_uris": {"ios": "https://dc.lft.to/lastmile_qr_scan", "android": "https://dc.lft.to/lastmile_qr_scan"}, "lon": -77.01055933333333, "type": "electric_scooter", "fusion_lat": 0.0, "lat": 38.879313333333336, "name": "eae494476eb66825e4598c2a79b115b7", "fusion_lon": 0.0, "bike_id": "eae494476eb66825e4598c2a79b115b7", "is_disabled": 0, "is_reserved": 0}, {"rental_uris": {"ios": "https://dc.lft.to/lastmile_qr_scan", "android": "https://dc.lft.to/lastmile_qr_scan"}, "lon": -77.0176295, "type": "electric_scooter", "fusion_lat": 0.0, "lat": 38.900286, "name": "c1fe969e94ecce07226c952998d31e40", "fusion_lon": 0.0, "bike_id": "c1fe969e94ecce07226c952998d31e40", "is_disabled": 0, "is_reserved": 0}, {"rental_uris": {"ios": "https://dc.lft.to/lastmile_qr_scan", "android": "https://dc.lft.to/lastmile_qr_scan"}, "lon": -77.02596366666667, "type": "electric_scooter", "fusion_lat": 0.0, "lat": 38.89597466666667, "name": "76525f6d66ca68c4a66a9d0028420976", "fusion_lon": 0.0, "bike_id": "76525f6d66ca68c4a66a9d0028420976", "is_disabled": 0, "is_reserved": 0}, {"rental_uris": {"ios": "https://dc.lft.to/lastmile_qr_scan", "android": "https://dc.lft.to/lastmile_qr_scan"}, "lon": -77.0180695, "type": "electric_scooter", "fusion_lat": 0.0, "lat": 38.88745083333333, "name": "9a719fc0482154c427bea5be181c2b73", "fusion_lon": 0.0, "bike_id": "9a719fc0482154c427bea5be181c2b73", "is_disabled": 0, "is_reserved": 0}, {"rental_uris": {"ios": "https://dc.lft.to/lastmile_qr_scan", "android": "https://dc.lft.to/lastmile_qr_scan"}, "lon": -77.03010383333333, "type": "electric_scooter", "fusion_lat": 0.0, "lat": 38.904972, "name": "60840bcab2ef096c39eef02b77628bbc", "fusion_lon": 0.0, "bike_id": "60840bcab2ef096c39eef02b77628bbc", "is_disabled": 0, "is_reserved": 0}, {"rental_uris": {"ios": "https://dc.lft.to/lastmile_qr_scan", "android": "https://dc.lft.to/lastmile_qr_scan"}, "lon": -77.0330845, "type": "electric_scooter", "fusion_lat": 0.0, "lat": 38.926418166666664, "name": "e939927a4acdb4d1a1370e74134453b3", "fusion_lon": 0.0, "bike_id": "e939927a4acdb4d1a1370e74134453b3", "is_disabled": 0, "is_reserved": 0}, {"rental_uris": {"ios": "https://dc.lft.to/lastmile_qr_scan", "android": "https://dc.lft.to/lastmile_qr_scan"}, "lon": -77.02378666666667, "type": "electric_scooter", "fusion_lat": 0.0, "lat": 38.95238, "name": "3d4d48c5ef8b6d441349836722eb2483", "fusion_lon": 0.0, "bike_id": "3d4d48c5ef8b6d441349836722eb2483", "is_disabled": 0, "is_reserved": 0}, {"rental_uris": {"ios": "https://dc.lft.to/lastmile_qr_scan", "android": "https://dc.lft.to/lastmile_qr_scan"}, "lon": -76.9476325, "type": "electric_scooter", "fusion_lat": 0.0, "lat": 38.900529, "name": "4b499748f05ed8e2624062b8eb079c21", "fusion_lon": 0.0, "bike_id": "4b499748f05ed8e2624062b8eb079c21", "is_disabled": 0, "is_reserved": 0}, {"rental_uris": {"ios": "https://dc.lft.to/lastmile_qr_scan", "android": "https://dc.lft.to/lastmile_qr_scan"}, "lon": -77.0291715, "type": "electric_scooter", "fusion_lat": 0.0, "lat": 38.884073, "name": "7d44beb183a7505a550a36d66b516884", "fusion_lon": 0.0, "bike_id": "7d44beb183a7505a550a36d66b516884", "is_disabled": 0, "is_reserved": 0}, {"rental_uris": {"ios": "https://dc.lft.to/lastmile_qr_scan", "android": "https://dc.lft.to/lastmile_qr_scan"}, "lon": -77.0241635, "type": "electric_scooter", "fusion_lat": 0.0, "lat": 38.892287333333336, "name": "442680a831a7c36e76fe9a6628526c65", "fusion_lon": 0.0, "bike_id": "442680a831a7c36e76fe9a6628526c65", "is_disabled": 0, "is_reserved": 0}, {"rental_uris": {"ios": "https://dc.lft.to/lastmile_qr_scan", "android": "https://dc.lft.to/lastmile_qr_scan"}, "lon": -77.02137833333333, "type": "electric_scooter", "fusion_lat": 0.0, "lat": 38.937613, "name": "cec69d5f599e46203808723eec735d3e", "fusion_lon": 0.0, "bike_id": "cec69d5f599e46203808723eec735d3e", "is_disabled": 0, "is_reserved": 0}, {"rental_uris": {"ios": "https://dc.lft.to/lastmile_qr_scan", "android": "https://dc.lft.to/lastmile_qr_scan"}, "lon": -77.00809983333333, "type": "electric_scooter", "fusion_lat": 0.0, "lat": 38.877628, "name": "9582d2f800e2dc1fda471246aabc3b2c", "fusion_lon": 0.0, "bike_id": "9582d2f800e2dc1fda471246aabc3b2c", "is_disabled": 0, "is_reserved": 0}, {"rental_uris": {"ios": "https://dc.lft.to/lastmile_qr_scan", "android": "https://dc.lft.to/lastmile_qr_scan"}, "lon": -76.97669933333333, "type": "electric_scooter", "fusion_lat": 0.0, "lat": 38.8989025, "name": "d6b01a88b8b4defd961a87d411e8c07b", "fusion_lon": 0.0, "bike_id": "d6b01a88b8b4defd961a87d411e8c07b", "is_disabled": 0, "is_reserved": 0}, {"rental_uris": {"ios": "https://dc.lft.to/lastmile_qr_scan", "android": "https://dc.lft.to/lastmile_qr_scan"}, "lon": -77.03177483333333, "type": "electric_scooter", "fusion_lat": 0.0, "lat": 38.91922666666667, "name": "8b0bd73d4b0369746c3b039f6bf8a896", "fusion_lon": 0.0, "bike_id": "8b0bd73d4b0369746c3b039f6bf8a896", "is_disabled": 0, "is_reserved": 0}, {"rental_uris": {"ios": "https://dc.lft.to/lastmile_qr_scan", "android": "https://dc.lft.to/lastmile_qr_scan"}, "lon": -77.02016433333333, "type": "electric_scooter", "fusion_lat": 0.0, "lat": 38.89222483333333, "name": "c1e104510b9829ab2884f897ce68980c", "fusion_lon": 0.0, "bike_id": "c1e104510b9829ab2884f897ce68980c", "is_disabled": 0, "is_reserved": 0}, {"rental_uris": {"ios": "https://dc.lft.to/lastmile_qr_scan", "android": "https://dc.lft.to/lastmile_qr_scan"}, "lon": -77.03218733333334, "type": "electric_scooter", "fusion_lat": 0.0, "lat": 38.9624315, "name": "c4e3d9b05fb3180cd9b28a785bce5ce6", "fusion_lon": 0.0, "bike_id": "c4e3d9b05fb3180cd9b28a785bce5ce6", "is_disabled": 0, "is_reserved": 0}, {"rental_uris": {"ios": "https://dc.lft.to/lastmile_qr_scan", "android": "https://dc.lft.to/lastmile_qr_scan"}, "lon": -77.0397935, "type": "electric_scooter", "fusion_lat": 0.0, "lat": 38.924502, "name": "33b780d26f81fd8193ef10d8e8877045", "fusion_lon": 0.0, "bike_id": "33b780d26f81fd8193ef10d8e8877045", "is_disabled": 0, "is_reserved": 0}, {"rental_uris": {"ios": "https://dc.lft.to/lastmile_qr_scan", "android": "https://dc.lft.to/lastmile_qr_scan"}, "lon": -77.04908616666667, "type": "electric_bike", "fusion_lat": 0.0, "lat": 38.87497416666667, "name": "2c3cd0c262d23368269b0b2681591d90", "fusion_lon": 0.0, "bike_id": "2c3cd0c262d23368269b0b2681591d90", "is_disabled": 0, "is_reserved": 0}, {"rental_uris": {"ios": "https://dc.lft.to/lastmile_qr_scan", "android": "https://dc.lft.to/lastmile_qr_scan"}, "lon": -77.06281716666666, "type": "electric_scooter", "fusion_lat": 0.0, "lat": 38.90673816666666, "name": "f233650031604133c9b912199808c542", "fusion_lon": 0.0, "bike_id": "f233650031604133c9b912199808c542", "is_disabled": 0, "is_reserved": 0}, {"rental_uris": {"ios": "https://dc.lft.to/lastmile_qr_scan", "android": "https://dc.lft.to/lastmile_qr_scan"}, "lon": -77.10033183333333, "type": "electric_bike", "fusion_lat": 0.0, "lat": 38.9905845, "name": "4e5b01a9fb1dd67c1544463d4d7dd456", "fusion_lon": 0.0, "bike_id": "4e5b01a9fb1dd67c1544463d4d7dd456", "is_disabled": 0, "is_reserved": 0}, {"rental_uris": {"ios": "https://dc.lft.to/lastmile_qr_scan", "android": "https://dc.lft.to/lastmile_qr_scan"}, "lon": -76.99052933333333, "type": "electric_scooter", "fusion_lat": 0.0, "lat": 38.901346, "name": "b484a31936690cb9e24b5f4f71437f67", "fusion_lon": 0.0, "bike_id": "b484a31936690cb9e24b5f4f71437f67", "is_disabled": 0, "is_reserved": 0}, {"rental_uris": {"ios": "https://dc.lft.to/lastmile_qr_scan", "android": "https://dc.lft.to/lastmile_qr_scan"}, "lon": -77.02192583333333, "type": "electric_scooter", "fusion_lat": 0.0, "lat": 38.91046716666666, "name": "73814ab20a817f9d0af21d325c130596", "fusion_lon": 0.0, "bike_id": "73814ab20a817f9d0af21d325c130596", "is_disabled": 0, "is_reserved": 0}, {"rental_uris": {"ios": "https://dc.lft.to/lastmile_qr_scan", "android": "https://dc.lft.to/lastmile_qr_scan"}, "lon": -77.04182883333333, "type": "electric_scooter", "fusion_lat": 0.0, "lat": 38.9230355, "name": "9151e70528207974eeef44184a868412", "fusion_lon": 0.0, "bike_id": "9151e70528207974eeef44184a868412", "is_disabled": 0, "is_reserved": 0}, {"rental_uris": {"ios": "https://dc.lft.to/lastmile_qr_scan", "android": "https://dc.lft.to/lastmile_qr_scan"}, "lon": -76.94655116666667, "type": "electric_scooter", "fusion_lat": 0.0, "lat": 38.8982565, "name": "d00392423d03f8885f08e769bb40cad1", "fusion_lon": 0.0, "bike_id": "d00392423d03f8885f08e769bb40cad1", "is_disabled": 0, "is_reserved": 0}, {"rental_uris": {"ios": "https://dc.lft.to/lastmile_qr_scan", "android": "https://dc.lft.to/lastmile_qr_scan"}, "lon": -77.00357583333333, "type": "electric_scooter", "fusion_lat": 0.0, "lat": 38.897646, "name": "c9fd282b01b264226a126b317757780e", "fusion_lon": 0.0, "bike_id": "c9fd282b01b264226a126b317757780e", "is_disabled": 0, "is_reserved": 0}, {"rental_uris": {"ios": "https://dc.lft.to/lastmile_qr_scan", "android": "https://dc.lft.to/lastmile_qr_scan"}, "lon": -76.98571833333334, "type": "electric_scooter", "fusion_lat": 0.0, "lat": 38.89886, "name": "4345fde533e2c918a671f6c02b69c6c3", "fusion_lon": 0.0, "bike_id": "4345fde533e2c918a671f6c02b69c6c3", "is_disabled": 0, "is_reserved": 0}, {"rental_uris": {"ios": "https://dc.lft.to/lastmile_qr_scan", "android": "https://dc.lft.to/lastmile_qr_scan"}, "lon": -77.02781416666667, "type": "electric_scooter", "fusion_lat": 0.0, "lat": 38.9181355, "name": "c5e0d3cb6029daf0d663c4c5e91d3bca", "fusion_lon": 0.0, "bike_id": "c5e0d3cb6029daf0d663c4c5e91d3bca", "is_disabled": 0, "is_reserved": 0}, {"rental_uris": {"ios": "https://dc.lft.to/lastmile_qr_scan", "android": "https://dc.lft.to/lastmile_qr_scan"},