{"data": {"bikes": [{"fusion_lat": 0.0, "fusion_lon": 0.0, "rental_uris": {"android": "https://dc.lft.to/lastmile_qr_scan", "ios": "https://dc.lft.to/lastmile_qr_scan"}, "lon": -77.0502725, "name": "4d1a4d4e79d827dc7917ff8417dd7904", "is_disabled": 0, "is_reserved": 0, "bike_id": "4d1a4d4e79d827dc7917ff8417dd7904", "lat": 38.89750983333333, "type": "electric_scooter"}, {"fusion_lat": 0.0, "fusion_lon": 0.0, "rental_uris": {"android": "https://dc.lft.to/lastmile_qr_scan", "ios": "https://dc.lft.to/lastmile_qr_scan"}, "lon": -77.07883833333334, "name": "37e0a2343bd08be2998cc4e795795d5e", "is_disabled": 0, "is_reserved": 0, "bike_id": "37e0a2343bd08be2998cc4e795795d5e", "lat": 38.84254, "type": "electric_bike"}, {"fusion_lat": 0.0, "fusion_lon": 0.0, "rental_uris": {"android": "https://dc.lft.to/lastmile_qr_scan", "ios": "https://dc.lft.to/lastmile_qr_scan"}, "lon": -77.04271116666666, "name": "3720c6978aec3882ac730e8c2713d56e", "is_disabled": 0, "is_reserved": 0, "bike_id": "3720c6978aec3882ac730e8c2713d56e", "lat": 38.90720316666667, "type": "electric_scooter"}, {"fusion_lat": 0.0, "fusion_lon": 0.0, "rental_uris": {"android": "https://dc.lft.to/lastmile_qr_scan", "ios": "https://dc.lft.to/lastmile_qr_scan"}, "lon": -77.03566833333333, "name": "e1cf8f2464537df2235d93f377e8b893", "is_disabled": 0, "is_reserved": 0, "bike_id": "e1cf8f2464537df2235d93f377e8b893", "lat": 38.92691533333333, "type": "electric_scooter"}, {"fusion_lat": 0.0, "fusion_lon": 0.0, "rental_uris": {"android": "https://dc.lft.to/lastmile_qr_scan", "ios": "https://dc.lft.to/lastmile_qr_scan"}, "lon": -76.98654066666667, "name": "98e436b10e1c8d7f693bf95b9cf13308", "is_disabled": 0, "is_reserved": 0, "bike_id": "98e436b10e1c8d7f693bf95b9cf13308", "lat": 38.858051, "type": "electric_scooter"}, {"fusion_lat": 0.0, "fusion_lon": 0.0, "rental_uris": {"android": "https://dc.lft.to/lastmile_qr_scan", "ios": "https://dc.lft.to/lastmile_qr_scan"}, "lon": -77.03202383333333, "name": "2fe72a8960f7d89bcbcab0b7d57cf7be", "is_disabled": 0, "is_reserved": 0, "bike_id": "2fe72a8960f7d89bcbcab0b7d57cf7be", "lat": 38.913255166666666, "type": "electric_scooter"}, {"fusion_lat": 0.0, "fusion_lon": 0.0, "rental_uris": {"android": "https://dc.lft.to/lastmile_qr_scan", "ios": "https://dc.lft.to/lastmile_qr_scan"}, "lon": -77.048956, "name": "b3515fe017bf91757d07ad3c35a836c7", "is_disabled": 0, "is_reserved": 0, "bike_id": "b3515fe017bf91757d07ad3c35a836c7", "lat": 38.899961166666664, "type": "electric_bike"}, {"fusion_lat": 0.0, "fusion_lon": 0.0, "rental_uris": {"android": "https://dc.lft.to/lastmile_qr_scan", "ios": "https://dc.lft.to/lastmile_qr_scan"}, "lon": -77.03187966666667, "name": "f4fd636f9b0e2bfa90aecb0f3a9d7d52", "is_disabled": 0, "is_reserved": 0, "bike_id": "f4fd636f9b0e2bfa90aecb0f3a9d7d52", "lat": 38.91755633333333, "type": "electric_scooter"}, {"fusion_lat": 0.0, "fusion_lon": 0.0, "rental_uris": {"android": "https://dc.lft.to/lastmile_qr_scan", "ios": "https://dc.lft.to/lastmile_qr_scan"}, "lon": -76.983751, "name": "53425b64c5dd46d214ed807c9f7e1f2f", "is_disabled": 0, "is_reserved": 0, "bike_id": "53425b64c5dd46d214ed807c9f7e1f2f", "lat": 38.9064585, "type": "electric_scooter"}, {"fusion_lat": 0.0, "fusion_lon": 0.0, "rental_uris": {"android": "https://dc.lft.to/lastmile_qr_scan", "ios": "https://dc.lft.to/lastmile_qr_scan"}, "lon": -76.96264783333334, "name": "041f342e9741870d9ecd14f97b43b305", "is_disabled": 0, "is_reserved": 0, "bike_id": "041f342e9741870d9ecd14f97b43b305", "lat": 38.882408166666664, "type": "electric_bike"}, {"fusion_lat": 0.0, "fusion_lon": 0.0, "rental_uris": {"android": "https://dc.lft.to/lastmile_qr_scan", "ios": "https://dc.lft.to/lastmile_qr_scan"}, "lon": -76.9764005, "name": "48c82612ee4cf1d9bccdafdcafa02813", "is_disabled": 0, "is_reserved": 0, "bike_id": "48c82612ee4cf1d9bccdafdcafa02813", "lat": 38.886869833333336, "type": "electric_scooter"}, {"fusion_lat": 0.0, "fusion_lon": 0.0, "rental_uris": {"android": "https://dc.lft.to/lastmile_qr_scan", "ios": "https://dc.lft.to/lastmile_qr_scan"}, "lon": -77.03842366666667, "name": "a7ba6c1e8ca6af1575f536118006b915", "is_disabled": 0, "is_reserved": 0, "bike_id": "a7ba6c1e8ca6af1575f536118006b915", "lat": 38.903224333333334, "type": "electric_scooter"}, {"fusion_lat": 0.0, "fusion_lon": 0.0, "rental_uris": {"android": "https://dc.lft.to/lastmile_qr_scan", "ios": "https://dc.lft.to/lastmile_qr_scan"}, "lon": -77.04358066666667, "name": "6cf4b075c2641ad2b535c61be5c0e5a0", "is_disabled": 0, "is_reserved": 0, "bike_id": "6cf4b075c2641ad2b535c61be5c0e5a0", "lat": 38.9040835, "type": "electric_scooter"}, {"fusion_lat": 0.0, "fusion_lon": 0.0, "rental_uris": {"android": "https://dc.lft.to/lastmile_qr_scan", "ios": "https://dc.lft.to/lastmile_qr_scan"}, "lon": -77.02714783333333, "name": "bf8f458dcc3c5249e9b628662a004dd3", "is_disabled": 0, "is_reserved": 0, "bike_id": "bf8f458dcc3c5249e9b628662a004dd3", "lat": 38.90787666666667, "type": "electric_scooter"}, {"fusion_lat": 0.0, "fusion_lon": 0.0, "rental_uris": {"android": "https://dc.lft.to/lastmile_qr_scan", "ios": "https://dc.lft.to/lastmile_qr_scan"}, "lon": -76.96015666666666, "name": "8db17aa8531d1efbf37ee7f6c09cde7e", "is_disabled": 0, "is_reserved": 0, "bike_id": "8db17aa8531d1efbf37ee7f6c09cde7e", "lat": 38.8693025, "type": "electric_scooter"}, {"fusion_lat": 0.0, "fusion_lon": 0.0, "rental_uris": {"android": "https://dc.lft.to/lastmile_qr_scan", "ios": "https://dc.lft.to/lastmile_qr_scan"}, "lon": -77.04530966666667, "name": "8f186e404653876ab2eca100f798be29", "is_disabled": 0, "is_reserved": 0, "bike_id": "8f186e404653876ab2eca100f798be29", "lat": 38.89471433333333, "type": "electric_scooter"}, {"fusion_lat": 0.0, "fusion_lon": 0.0, "rental_uris": {"android": "https://dc.lft.to/lastmile_qr_scan", "ios": "https://dc.lft.to/lastmile_qr_scan"}, "lon": -77.01197216666667, "name": "d314e0fe46788536c48b69acd23e67c7", "is_disabled": 0, "is_reserved": 0, "bike_id": "d314e0fe46788536c48b69acd23e67c7", "lat": 38.917050833333334, "type": "electric_scooter"}, {"fusion_lat": 0.0, "fusion_lon": 0.0, "rental_uris": {"android": "https://dc.lft.to/lastmile_qr_scan", "ios": "https://dc.lft.to/lastmile_qr_scan"}, "lon": -77.025078, "name": "dad07988c226e033c388e8a9eb644ea4", "is_disabled": 0, "is_reserved": 0, "bike_id": "dad07988c226e033c388e8a9eb644ea4", "lat": 38.91803433333333, "type": "electric_scooter"}, {"fusion_lat": 0.0, "fusion_lon": 0.0, "rental_uris": {"android": "https://dc.lft.to/lastmile_qr_scan", "ios": "https://dc.lft.to/lastmile_qr_scan"}, "lon": -76.93730966666666, "name": "d838aa8a5436b681b5d1a5b2c4049131", "is_disabled": 0, "is_reserved": 0, "bike_id": "d838aa8a5436b681b5d1a5b2c4049131", "lat": 38.89015466666667, "type": "electric_scooter"}, {"fusion_lat": 0.0, "fusion_lon": 0.0, "rental_uris": {"android": "https://dc.lft.to/lastmile_qr_scan", "ios": "https://dc.lft.to/lastmile_qr_scan"}, "lon": -77.043613, "name": "544f1d7d844524d0373bf2f57bf3bc3d", "is_disabled": 0, "is_reserved": 0, "bike_id": "544f1d7d844524d0373bf2f57bf3bc3d", "lat": 38.90624283333333, "type": "electric_scooter"}, {"fusion_lat": 0.0, "fusion_lon": 0.0, "rental_uris": {"android": "https://dc.lft.to/lastmile_qr_scan", "ios": "https://dc.lft.to/lastmile_qr_scan"}, "lon": -77.02714183333333, "name": "292c1b4672d8a7cbec730f1bfb03a68b", "is_disabled": 0, "is_reserved": 0, "bike_id": "292c1b4672d8a7cbec730f1bfb03a68b", "lat": 38.917194333333335, "type": "electric_scooter"}, {"fusion_lat": 0.0, "fusion_lon": 0.0, "rental_uris": {"android": "https://dc.lft.to/lastmile_qr_scan", "ios": "https://dc.lft.to/lastmile_qr_scan"}, "lon": -77.0459735, "name": "0ea9dc625637b8cf403113d56739a9bb", "is_disabled": 0, "is_reserved": 0, "bike_id": "0ea9dc625637b8cf403113d56739a9bb", "lat": 38.9214275, "type": "electric_scooter"}, {"fusion_lat": 0.0, "fusion_lon": 0.0, "rental_uris": {"android": "https://dc.lft.to/lastmile_qr_scan", "ios": "https://dc.lft.to/lastmile_qr_scan"}, "lon": -77.02018316666667, "name": "9a4915443b157d32b2991ca2067fa57d", "is_disabled": 0, "is_reserved": 0, "bike_id": "9a4915443b157d32b2991ca2067fa57d", "lat": 38.897871333333335, "type": "electric_scooter"}, {"fusion_lat": 0.0, "fusion_lon": 0.0, "rental_uris": {"android": "https://dc.lft.to/lastmile_qr_scan", "ios": "https://dc.lft.to/lastmile_qr_scan"}, "lon": -77.03124133333333, "name": "05430116527a3e666b7d486d9dd1ce92", "is_disabled": 0, "is_reserved": 0, "bike_id": "05430116527a3e666b7d486d9dd1ce92", "lat": 38.91916883333333, "type": "electric_scooter"}, {"fusion_lat": 0.0, "fusion_lon": 0.0, "rental_uris": {"android": "https://dc.lft.to/lastmile_qr_scan", "ios": "https://dc.lft.to/lastmile_qr_scan"}, "lon": -76.904236, "name": "3830b4c33b2ff544e7cd86216198e14f", "is_disabled": 0, "is_reserved": 0, "bike_id": "3830b4c33b2ff544e7cd86216198e14f", "lat": 38.94055016666667, "type": "electric_bike"}, {"fusion_lat": 0.0, "fusion_lon": 0.0, "rental_uris": {"android": "https://dc.lft.to/lastmile_qr_scan", "ios": "https://dc.lft.to/lastmile_qr_scan"}, "lon": -77.03857833333333, "name": "3caa75cfa57022ea39282fd0231b2f82", "is_disabled": 0, "is_reserved": 0, "bike_id": "3caa75cfa57022ea39282fd0231b2f82", "lat": 38.903281666666665, "type": "electric_scooter"}, {"fusion_lat": 0.0, "fusion_lon": 0.0, "rental_uris": {"android": "https://dc.lft.to/lastmile_qr_scan", "ios": "https://dc.lft.to/lastmile_qr_scan"}, "lon": -77.01247283333333, "name": "eb9087f5596f3886e0c9ce6a86eefb3f", "is_disabled": 0, "is_reserved": 0, "bike_id": "eb9087f5596f3886e0c9ce6a86eefb3f", "lat": 38.931105333333335, "type": "electric_scooter"}, {"fusion_lat": 0.0, "fusion_lon": 0.0, "rental_uris": {"android": "https://dc.lft.to/lastmile_qr_scan", "ios": "https://dc.lft.to/lastmile_qr_scan"}, "lon": -77.03450033333333, "name": "4e1fef6c3c9713713f545b9fb3a6aa65", "is_disabled": 0, "is_reserved": 0, "bike_id": "4e1fef6c3c9713713f545b9fb3a6aa65", "lat": 38.90267016666667, "type": "electric_scooter"}, {"fusion_lat": 0.0, "fusion_lon": 0.0, "rental_uris": {"android": "https://dc.lft.to/lastmile_qr_scan", "ios": "https://dc.lft.to/lastmile_qr_scan"}, "lon": -77.035525, "name": "d30ab5150f6f59629a183020681dffc0", "is_disabled": 0, "is_reserved": 0, "bike_id": "d30ab5150f6f59629a183020681dffc0", "lat": 38.9186605, "type": "electric_scooter"}, {"fusion_lat": 0.0, "fusion_lon": 0.0, "rental_uris": {"android": "https://dc.lft.to/lastmile_qr_scan", "ios": "https://dc.lft.to/lastmile_qr_scan"}, "lon": -77.0178015, "name": "0c73cf6031cd09934afca37b8639486f", "is_disabled": 0, "is_reserved": 0, "bike_id": "0c73cf6031cd09934afca37b8639486f", "lat": 38.87457783333333, "type": "electric_scooter"}, {"fusion_lat": 0.0, "fusion_lon": 0.0, "rental_uris": {"android": "https://dc.lft.to/lastmile_qr_scan", "ios": "https://dc.lft.to/lastmile_qr_scan"}, "lon": -77.0080725, "name": "1451646961c772711f93848889465598", "is_disabled": 0, "is_reserved": 0, "bike_id": "1451646961c772711f93848889465598", "lat": 38.8316475, "type": "electric_scooter"}, {"fusion_lat": 0.0, "fusion_lon": 0.0, "rental_uris": {"android": "https://dc.lft.to/lastmile_qr_scan", "ios": "https://dc.lft.to/lastmile_qr_scan"}, "lon": -77.05042616666667, "name": "812ef6db01ef1310f1635bd1fbe02039", "is_disabled": 0, "is_reserved": 0, "bike_id": "812ef6db01ef1310f1635bd1fbe02039", "lat": 38.9236105, "type": "electric_scooter"}, {"fusion_lat": 0.0, "fusion_lon": 0.0, "rental_uris": {"android": "https://dc.lft.to/lastmile_qr_scan", "ios": "https://dc.lft.to/lastmile_qr_scan"}, "lon": -77.0499915, "name": "7c7feade1b1feb0a0483f36809ae33e8", "is_disabled": 0, "is_reserved": 0, "bike_id": "7c7feade1b1feb0a0483f36809ae33e8", "lat": 38.89394866666667, "type": "electric_scooter"}, {"fusion_lat": 0.0, "fusion_lon": 0.0, "rental_uris": {"android": "https://dc.lft.to/lastmile_qr_scan", "ios": "https://dc.lft.to/lastmile_qr_scan"}, "lon": -77.02361133333333, "name": "72ed7e8bbc25456552d53c17d1ae5c25", "is_disabled": 0, "is_reserved": 0, "bike_id": "72ed7e8bbc25456552d53c17d1ae5c25", "lat": 38.925146166666664, "type": "electric_scooter"}, {"fusion_lat": 0.0, "fusion_lon": 0.0, "rental_uris": {"android": "https://dc.lft.to/lastmile_qr_scan", "ios": "https://dc.lft.to/lastmile_qr_scan"}, "lon": -77.04514316666666, "name": "b83ffb253ce425c7358513d90816e591", "is_disabled": 0, "is_reserved": 0, "bike_id": "b83ffb253ce425c7358513d90816e591", "lat": 38.89957016666666, "type": "electric_scooter"}, {"fusion_lat": 0.0, "fusion_lon": 0.0, "rental_uris": {"android": "https://dc.lft.to/lastmile_qr_scan", "ios": "https://dc.lft.to/lastmile_qr_scan"}, "lon": -77.02928, "name": "74902cd642144600a39cf1d447c8613f", "is_disabled": 0, "is_reserved": 0, "bike_id": "74902cd642144600a39cf1d447c8613f", "lat": 38.916901, "type": "electric_scooter"}, {"fusion_lat": 0.0, "fusion_lon": 0.0, "rental_uris": {"android": "https://dc.lft.to/lastmile_qr_scan", "ios": "https://dc.lft.to/lastmile_qr_scan"}, "lon": -77.0310035, "name": "447c9489827db83f90231c048a1b5b4c", "is_disabled": 0, "is_reserved": 0, "bike_id": "447c9489827db83f90231c048a1b5b4c", "lat": 38.883204166666665, "type": "electric_scooter"}, {"fusion_lat": 0.0, "fusion_lon": 0.0, "rental_uris": {"android": "https://dc.lft.to/lastmile_qr_scan", "ios": "https://dc.lft.to/lastmile_qr_scan"}, "lon": -77.04249166666666, "name": "f4019313d6c0051c6078ea2d29019e15", "is_disabled": 0, "is_reserved": 0, "bike_id": "f4019313d6c0051c6078ea2d29019e15", "lat": 38.906425, "type": "electric_scooter"}, {"fusion_lat": 0.0, "fusion_lon": 0.0, "rental_uris": {"android": "https://dc.lft.to/lastmile_qr_scan", "ios": "https://dc.lft.to/lastmile_qr_scan"}, "lon": -77.02697466666666, "name": "e43b894b4edb0e49161b3a2c368cb096", "is_disabled": 0, "is_reserved": 0, "bike_id": "e43b894b4edb0e49161b3a2c368cb096", "lat": 38.949782, "type": "electric_scooter"}, {"fusion_lat": 0.0, "fusion_lon": 0.0, "rental_uris": {"android": "https://dc.lft.to/lastmile_qr_scan", "ios": "https://dc.lft.to/lastmile_qr_scan"}, "lon": -76.98960033333333, "name": "2f19ca2134bffb02bcd0dfb6d5b7594c", "is_disabled": 0, "is_reserved": 0, "bike_id": "2f19ca2134bffb02bcd0dfb6d5b7594c", "lat": 38.85874866666666, "type": "electric_scooter"}, {"fusion_lat": 0.0, "fusion_lon": 0.0, "rental_uris": {"android": "https://dc.lft.to/lastmile_qr_scan", "ios": "https://dc.lft.to/lastmile_qr_scan"}, "lon": -77.012197, "name": "b6d79642fa9765fa301c5405bb0c3293", "is_disabled": 0, "is_reserved": 0, "bike_id": "b6d79642fa9765fa301c5405bb0c3293", "lat": 38.91343483333333, "type": "electric_scooter"}, {"fusion_lat": 0.0, "fusion_lon": 0.0, "rental_uris": {"android": "https://dc.lft.to/lastmile_qr_scan", "ios": "https://dc.lft.to/lastmile_qr_scan"}, "lon": -77.03523333333334, "name": "3b70b846c27dd8f4b47ce8bd83e3e868", "is_disabled": 0, "is_reserved": 0, "bike_id": "3b70b846c27dd8f4b47ce8bd83e3e868", "lat": 38.9253225, "type": "electric_scooter"}, {"fusion_lat": 0.0, "fusion_lon": 0.0, "rental_uris": {"android": "https://dc.lft.to/lastmile_qr_scan", "ios": "https://dc.lft.to/lastmile_qr_scan"}, "lon": -77.03207566666667, "name": "c9a947415888aab569f2be5d1796dd58", "is_disabled": 0, "is_reserved": 0, "bike_id": "c9a947415888aab569f2be5d1796dd58", "lat": 38.91847833333333, "type": "electric_scooter"}, {"fusion_lat": 0.0, "fusion_lon": 0.0, "rental_uris": {"android": "https://dc.lft.to/lastmile_qr_scan", "ios": "https://dc.lft.to/lastmile_qr_scan"}, "lon": -77.03201833333334, "name": "17d143652b3d2ae17456a7ddd78a9b2e", "is_disabled": 0, "is_reserved": 0, "bike_id": "17d143652b3d2ae17456a7ddd78a9b2e", "lat": 38.901241666666664, "type": "electric_scooter"}, {"fusion_lat": 0.0, "fusion_lon": 0.0, "rental_uris": {"android": "https://dc.lft.to/lastmile_qr_scan", "ios": "https://dc.lft.to/lastmile_qr_scan"}, "lon": -77.0321065, "name": "a3f54a78c51653e5709eeb8af4457ca9", "is_disabled": 0, "is_reserved": 0, "bike_id": "a3f54a78c51653e5709eeb8af4457ca9", "lat": 38.89838966666667, "type": "electric_scooter"}, {"fusion_lat": 0.0, "fusion_lon": 0.0, "rental_uris": {"android": "https://dc.lft.to/lastmile_qr_scan", "ios": "https://dc.lft.to/lastmile_qr_scan"}, "lon": -77.0204545, "name": "226afc6f39c4a303c21771c4a2a2b1d3", "is_disabled": 0, "is_reserved": 0, "bike_id": "226afc6f39c4a303c21771c4a2a2b1d3", "lat": 38.92086183333333, "type": "electric_scooter"}, {"fusion_lat": 0.0, "fusion_lon": 0.0, "rental_uris": {"android": "https://dc.lft.to/lastmile_qr_scan", "ios": "https://dc.lft.to/lastmile_qr_scan"}, "lon": -77.0269685, "name": "80fcb10b5cb7a638a9fbf805bc792788", "is_disabled": 0, "is_reserved": 0, "bike_id": "80fcb10b5cb7a638a9fbf805bc792788", "lat": 38.92673516666667, "type": "electric_scooter"}, {"fusion_lat": 0.0, "fusion_lon": 0.0, "rental_uris": {"android": "https://dc.lft.to/lastmile_qr_scan", "ios": "https://dc.lft.to/lastmile_qr_scan"}, "lon": -77.0048855, "name": "e9211f2860385890ff60fb7876b570c3", "is_disabled": 0, "is_reserved": 0, "bike_id": "e9211f2860385890ff60fb7876b570c3", "lat": 38.8746735, "type": "electric_scooter"}, {"fusion_lat": 0.0, "fusion_lon": 0.0, "rental_uris": {"android": "https://dc.lft.to/lastmile_qr_scan", "ios": "https://dc.lft.to/lastmile_qr_scan"}, "lon": -77.01804366666667, "name": "62326c4d1cbc8dc695aeb2315df6c158", "is_disabled": 0, "is_reserved": 0, "bike_id": "62326c4d1cbc8dc695aeb2315df6c158", "lat": 38.9212935, "type": "electric_scooter"}, {"fusion_lat": 0.0, "fusion_lon": 0.0, "rental_uris": {"android": "https://dc.lft.to/lastmile_qr_scan", "ios": "https://dc.lft.to/lastmile_qr_scan"}, "lon": -77.06194483333333, "name": "8e8b609db89860c047bbf76556115e89", "is_disabled": 0, "is_reserved": 0, "bike_id": "8e8b609db89860c047bbf76556115e89", "lat": 38.91845216666667, "type": "electric_scooter"}, {"fusion_lat": 0.0, "fusion_lon": 0.0, "rental_uris": {"android": "https://dc.lft.to/lastmile_qr_scan", "ios": "https://dc.lft.to/lastmile_qr_scan"}, "lon": -77.04023416666666, "name": "014ccb02fdfbca8cc98fd98bee71322e", "is_disabled": 0, "is_reserved": 0, "bike_id": "014ccb02fdfbca8cc98fd98bee71322e", "lat": 38.92149633333333, "type": "electric_bike"}, {"fusion_lat": 0.0, "fusion_lon": 0.0, "rental_uris": {"android": "https://dc.lft.to/lastmile_qr_scan", "ios": "https://dc.lft.to/lastmile_qr_scan"}, "lon": -76.98541083333333, "name": "33ee88eaedb6be12b4904174195bba66", "is_disabled": 0, "is_reserved": 0, "bike_id": "33ee88eaedb6be12b4904174195bba66", "lat": 38.866863333333335, "type": "electric_scooter"}, {"fusion_lat": 0.0, "fusion_lon": 0.0, "rental_uris": {"android": "https://dc.lft.to/lastmile_qr_scan", "ios": "https://dc.lft.to/lastmile_qr_scan"}, "lon": -77.04188983333333, "name": "0671e18a34709aed102a16b7b8a085f1", "is_disabled": 0, "is_reserved": 0, "bike_id": "0671e18a34709aed102a16b7b8a085f1", "lat": 38.920502, "type": "electric_scooter"}, {"fusion_lat": 0.0, "fusion_lon": 0.0, "rental_uris": {"android": "https://dc.lft.to/lastmile_qr_scan", "ios": "https://dc.lft.to/lastmile_qr_scan"}, "lon": -77.021553, "name": "272eeab0a0d72bb4f0f590190a192d2d", "is_disabled": 0, "is_reserved": 0, "bike_id": "272eeab0a0d72bb4f0f590190a192d2d", "lat": 38.92602266666667, "type": "electric_scooter"}, {"fusion_lat": 0.0, "fusion_lon": 0.0, "rental_uris": {"android": "https://dc.lft.to/lastmile_qr_scan", "ios": "https://dc.lft.to/lastmile_qr_scan"}, "lon": -77.04362366666666, "name": "cb5ce05ac6db10d131bade392d41d31c", "is_disabled": 0, "is_reserved": 0, "bike_id": "cb5ce05ac6db10d131bade392d41d31c", "lat": 38.90418583333334, "type": "electric_scooter"}, {"fusion_lat": 0.0, "fusion_lon": 0.0, "rental_uris": {"android": "https://dc.lft.to/lastmile_qr_scan", "ios": "https://dc.lft.to/lastmile_qr_scan"}, "lon": -77.0023435, "name": "45ccb12d857b0516dfbe2cc03d8e78f3", "is_disabled": 0, "is_reserved": 0, "bike_id": "45ccb12d857b0516dfbe2cc03d8e78f3", "lat": 38.885107, "type": "electric_scooter"}, {"fusion_lat": 0.0, "fusion_lon": 0.0, "rental_uris": {"android": "https://dc.lft.to/lastmile_qr_scan", "ios": "https://dc.lft.to/lastmile_qr_scan"}, "lon": -77.03142433333333, "name": "f86945ad68beea6cbf3178d64cbf442b", "is_disabled": 0, "is_reserved": 0, "bike_id": "f86945ad68beea6cbf3178d64cbf442b", "lat": 38.90453683333333, "type": "electric_scooter"}, {"fusion_lat": 0.0, "fusion_lon": 0.0, "rental_uris": {"android": "https://dc.lft.to/lastmile_qr_scan", "ios": "https://dc.lft.to/lastmile_qr_scan"}, "lon": -77.009506, "name": "a209b63feb0fbaaced7d4d3d2c469d62", "is_disabled": 0, "is_reserved": 0, "bike_id": "a209b63feb0fbaaced7d4d3d2c469d62", "lat": 38.8972825, "type": "electric_scooter"}, {"fusion_lat": 0.0, "fusion_lon": 0.0, "rental_uris": {"android": "https://dc.lft.to/lastmile_qr_scan", "ios": "https://dc.lft.to/lastmile_qr_scan"}, "lon": -77.084822, "name": "9613cf048a5e52c7abe457df0a5217aa", "is_disabled": 0, "is_reserved": 0, "bike_id": "9613cf048a5e52c7abe457df0a5217aa", "lat": 38.9390445, "type": "electric_scooter"}, {"fusion_lat": 0.0, "fusion_lon": 0.0, "rental_uris": {"android": "https://dc.lft.to/lastmile_qr_scan", "ios": "https://dc.lft.to/lastmile_qr_scan"}, "lon": -77.01269716666667, "name": "fe7b34bf06ab6552427f95da1b85ac60", "is_disabled": 0, "is_reserved": 0, "bike_id": "fe7b34bf06ab6552427f95da1b85ac60", "lat": 38.8729935, "type": "electric_scooter"}, {"fusion_lat": 0.0, "fusion_lon": 0.0, "rental_uris": {"android": "https://dc.lft.to/lastmile_qr_scan", "ios": "https://dc.lft.to/lastmile_qr_scan"}, "lon": -77.03918883333333, "name": "1c8cfd023eed040b57f8d29ae681e83a", "is_disabled": 0, "is_reserved": 0, "bike_id": "1c8cfd023eed040b57f8d29ae681e83a", "lat": 38.911082, "type": "electric_scooter"}, {"fusion_lat": 0.0, "fusion_lon": 0.0, "rental_uris": {"android": "https://dc.lft.to/lastmile_qr_scan", "ios": "https://dc.lft.to/lastmile_qr_scan"}, "lon": -76.997654, "name": "2b45af55835a6eaaff146be17c0bb193", "is_disabled": 0, "is_reserved": 0, "bike_id": "2b45af55835a6eaaff146be17c0bb193", "lat": 38.91112583333334, "type": "electric_scooter"}, {"fusion_lat": 0.0, "fusion_lon": 0.0, "rental_uris": {"android": "https://dc.lft.to/lastmile_qr_scan", "ios": "https://dc.lft.to/lastmile_qr_scan"}, "lon": -77.03930516666667, "name": "aad05630f06fae21548e78bf6325d008", "is_disabled": 0, "is_reserved": 0, "bike_id": "aad05630f06fae21548e78bf6325d008", "lat": 38.9011435, "type": "electric_scooter"}, {"fusion_lat": 0.0, "fusion_lon": 0.0, "rental_uris": {"android": "https://dc.lft.to/lastmile_qr_scan", "ios": "https://dc.lft.to/lastmile_qr_scan"}, "lon": -77.01776616666666, "name": "09969f6da2bb3de413e4cebf83a9d9e0", "is_disabled": 0, "is_reserved": 0, "bike_id": "09969f6da2bb3de413e4cebf83a9d9e0", "lat": 38.887101666666666, "type": "electric_scooter"}, {"fusion_lat": 0.0, "fusion_lon": 0.0, "rental_uris": {"android": "https://dc.lft.to/lastmile_qr_scan", "ios": "https://dc.lft.to/lastmile_qr_scan"}, "lon": -77.05726783333333, "name": "704ebe63e1f8f5a8de3286eb0da26a7c", "is_disabled": 0, "is_reserved": 0, "bike_id": "704ebe63e1f8f5a8de3286eb0da26a7c", "lat": 38.933641, "type": "electric_scooter"}, {"fusion_lat": 0.0, "fusion_lon": 0.0, "rental_uris": {"android": "https://dc.lft.to/lastmile_qr_scan", "ios": "https://dc.lft.to/lastmile_qr_scan"}, "lon": -77.052469, "name": "cd871bd2bf83e2776d3c11ffe144dd57", "is_disabled": 0, "is_reserved": 0, "bike_id": "cd871bd2bf83e2776d3c11ffe144dd57", "lat": 38.9246675, "type": "electric_scooter"}, {"fusion_lat": 0.0, "fusion_lon": 0.0, "rental_uris": {"android": "https://dc.lft.to/lastmile_qr_scan", "ios": "https://dc.lft.to/lastmile_qr_scan"}, "lon": -77.02593166666666, "name": "018b47f89dfde2fb2a533ce03ca5045b", "is_disabled": 0, "is_reserved": 0, "bike_id": "018b47f89dfde2fb2a533ce03ca5045b", "lat": 38.963916166666664, "type": "electric_scooter"}, {"fusion_lat": 0.0, "fusion_lon": 0.0, "rental_uris": {"android": "https://dc.lft.to/lastmile_qr_scan", "ios": "https://dc.lft.to/lastmile_qr_scan"}, "lon": -77.09676, "name": "0a2cb97e2b7a047a8d4bfc320d13427f", "is_disabled": 0, "is_reserved": 0, "bike_id": "0a2cb97e2b7a047a8d4bfc320d13427f", "lat": 38.94616216666667, "type": "electric_bike"}, {"fusion_lat": 0.0, "fusion_lon": 0.0, "rental_uris": {"android": "https://dc.lft.to/lastmile_qr_scan", "ios": "https://dc.lft.to/lastmile_qr_scan"}, "lon": -77.023855, "name": "948072265155a54a58cf9182150ea57b", "is_disabled": 0, "is_reserved": 0, "bike_id": "948072265155a54a58cf9182150ea57b", "lat": 38.892266166666666, "type": "electric_scooter"}, {"fusion_lat": 0.0, "fusion_lon": 0.0, "rental_uris": {"android": "https://dc.lft.to/lastmile_qr_scan", "ios": "https://dc.lft.to/lastmile_qr_scan"}, "lon": -77.022757, "name": "b1e8e1afeee323197f2bcd190ba5328d", "is_disabled": 0, "is_reserved": 0, "bike_id": "b1e8e1afeee323197f2bcd190ba5328d", "lat": 38.897284166666665, "type": "electric_scooter"}, {"fusion_lat": 0.0, "fusion_lon": 0.0, "rental_uris": {"android": "https://dc.lft.to/lastmile_qr_scan", "ios": "https://dc.lft.to/lastmile_qr_scan"}, "lon": -77.009317, "name": "733128926c4d5ab8c335ea5b6698eb7d", "is_disabled": 0, "is_reserved": 0, "bike_id": "733128926c4d5ab8c335ea5b6698eb7d", "lat": 38.87502283333333, "type": "electric_scooter"}, {"fusion_lat": 0.0, "fusion_lon": 0.0, "rental_uris": {"android": "https://dc.lft.to/lastmile_qr_scan", "ios": "https://dc.lft.to/lastmile_qr_scan"}, "lon": -77.03595983333334, "name": "ddae0d5ca7921775b84cca1fd8f58323", "is_disabled": 0, "is_reserved": 0, "bike_id": "ddae0d5ca7921775b84cca1fd8f58323", "lat": 38.931512, "type": "electric_scooter"}, {"fusion_lat": 0.0, "fusion_lon": 0.0, "rental_uris": {"android": "https://dc.lft.to/lastmile_qr_scan", "ios": "https://dc.lft.to/lastmile_qr_scan"}, "lon": -77.0114535, "name": "f2bb69772f1f6a73670f2e68e5cd536f", "is_disabled": 0, "is_reserved": 0, "bike_id": "f2bb69772f1f6a73670f2e68e5cd536f", "lat": 38.929607833333336, "type": "electric_scooter"}, {"fusion_lat": 0.0, "fusion_lon": 0.0, "rental_uris": {"android": "https://dc.lft.to/lastmile_qr_scan", "ios": "https://dc.lft.to/lastmile_qr_scan"}, "lon": -77.00849716666667, "name": "8211229ca7a5cce0ada98ae99454acc4", "is_disabled": 0, "is_reserved": 0, "bike_id": "8211229ca7a5cce0ada98ae99454acc4", "lat": 38.876508666666666, "type": "electric_scooter"}, {"fusion_lat": 0.0, "fusion_lon": 0.0, "rental_uris": {"android": "https://dc.lft.to/lastmile_qr_scan", "ios": "https://dc.lft.to/lastmile_qr_scan"}, "lon": -77.03216516666667, "name": "435e8c71a416e8cbe528d951b6026896", "is_disabled": 0, "is_reserved": 0, "bike_id": "435e8c71a416e8cbe528d951b6026896", "lat": 38.88469666666667, "type": "electric_scooter"}, {"fusion_lat": 0.0, "fusion_lon": 0.0, "rental_uris": {"android": "https://dc.lft.to/lastmile_qr_scan", "ios": "https://dc.lft.to/lastmile_qr_scan"}, "lon": -77.0312765, "name": "b634a46182f01375bda62ebe36fdf4ab", "is_disabled": 0, "is_reserved": 0, "bike_id": "b634a46182f01375bda62ebe36fdf4ab", "lat": 38.920123833333335, "type": "electric_scooter"}, {"fusion_lat": 0.0, "fusion_lon": 0.0, "rental_uris": {"android": "https://dc.lft.to/lastmile_qr_scan", "ios": "https://dc.lft.to/lastmile_qr_scan"}, "lon": -77.04491933333334, "name": "c6aaebec0f3a4137d2b01b59b63f1fa9", "is_disabled": 0, "is_reserved": 0, "bike_id": "c6aaebec0f3a4137d2b01b59b63f1fa9", "lat": 38.89821333333333, "type": "electric_scooter"}, {"fusion_lat": 0.0, "fusion_lon": 0.0, "rental_uris": {"android": "https://dc.lft.to/lastmile_qr_scan", "ios": "https://dc.lft.to/lastmile_qr_scan"}, "lon": -76.96902866666667, "name": "33ebd2d493120d82cf9bc25f662bdfbe", "is_disabled": 0, "is_reserved": 0, "bike_id": "33ebd2d493120d82cf9bc25f662bdfbe", "lat": 38.873085, "type": "electric_scooter"}, {"fusion_lat": 0.0, "fusion_lon": 0.0, "rental_uris": {"android": "https://dc.lft.to/lastmile_qr_scan", "ios": "https://dc.lft.to/lastmile_qr_scan"}, "lon": -77.022868, "name": "38306abe28d8d227d200acec5bdc0da7", "is_disabled": 0, "is_reserved": 0, "bike_id": "38306abe28d8d227d200acec5bdc0da7", "lat": 38.89516783333333, "type": "electric_scooter"}, {"fusion_lat": 0.0, "fusion_lon": 0.0, "rental_uris": {"android": "https://dc.lft.to/lastmile_qr_scan", "ios": "https://dc.lft.to/lastmile_qr_scan"}, "lon": -77.0110395, "name": "da28ba53a8c8aea18654bba3c4749799", "is_disabled": 0, "is_reserved": 0, "bike_id": "da28ba53a8c8aea18654bba3c4749799", "lat": 38.909667166666665, "type": "electric_scooter"}, {"fusion_lat": 0.0, "fusion_lon": 0.0, "rental_uris": {"android": "https://dc.lft.to/lastmile_qr_scan", "ios": "https://dc.lft.to/lastmile_qr_scan"}, "lon": -77.03270133333334, "name": "e3ba25574b706c42ee12e77d3d544941", "is_disabled": 0, "is_reserved": 0, "bike_id": "e3ba25574b706c42ee12e77d3d544941", "lat": 38.9280765, "type": "electric_scooter"}, {"fusion_lat": 0.0, "fusion_lon": 0.0, "rental_uris": {"android": "https://dc.lft.to/lastmile_qr_scan", "ios": "https://dc.lft.to/lastmile_qr_scan"}, "lon": -77.04988366666667, "name": "a5245c97c4b57a277f0ae191a302dd71", "is_disabled": 0, "is_reserved": 0, "bike_id": "a5245c97c4b57a277f0ae191a302dd71", "lat": 38.898366, "type": "electric_scooter"}, {"fusion_lat": 0.0, "fusion_lon": 0.0, "rental_uris": {"android": "https://dc.lft.to/lastmile_qr_scan", "ios": "https://dc.lft.to/lastmile_qr_scan"}, "lon": -77.05110416666666, "name": "b570bef9f2ddb514e0119d5932ccfc8c", "is_disabled": 0, "is_reserved": 0, "bike_id": "b570bef9f2ddb514e0119d5932ccfc8c", "lat": 38.813352, "type": "electric_bike"}, {"fusion_lat": 0.0, "fusion_lon": 0.0, "rental_uris": {"android": "https://dc.lft.to/lastmile_qr_scan", "ios": "https://dc.lft.to/lastmile_qr_scan"}, "lon": -76.97629666666667, "name": "97921c160634c4678c213ff38569a9ec", "is_disabled": 0, "is_reserved": 0, "bike_id": "97921c160634c4678c213ff38569a9ec", "lat": 38.90155416666666, "type": "electric_scooter"}, {"fusion_lat": 0.0, "fusion_lon": 0.0, "rental_uris": {"android": "https://dc.lft.to/lastmile_qr_scan", "ios": "https://dc.lft.to/lastmile_qr_scan"}, "lon": -77.04119866666667, "name": "2b7fefe299064ac74ba848f598f2189b", "is_disabled": 0, "is_reserved": 0, "bike_id": "2b7fefe299064ac74ba848f598f2189b", "lat": 38.92528266666667, "type": "electric_scooter"}, {"fusion_lat": 0.0, "fusion_lon": 0.0, "rental_uris": {"android": "https://dc.lft.to/lastmile_qr_scan", "ios": "https://dc.lft.to/lastmile_qr_scan"}, "lon": -77.03185266666667, "name": "89f928e130d9f068c6469c1c4ee98955", "is_disabled": 0, "is_reserved": 0, "bike_id": "89f928e130d9f068c6469c1c4ee98955", "lat": 38.9184765, "type": "electric_scooter"}, {"fusion_lat": 0.0, "fusion_lon": 0.0, "rental_uris": {"android": "https://dc.lft.to/lastmile_qr_scan", "ios": "https://dc.lft.to/lastmile_qr_scan"}, "lon": -77.02818666666667, "name": "5aa0951e8eee42fdf25429445f30a952", "is_disabled": 0, "is_reserved": 0, "bike_id": "5aa0951e8eee42fdf25429445f30a952", "lat": 38.930618833333334, "type": "electric_scooter"}, {"fusion_lat": 0.0, "fusion_lon": 0.0, "rental_uris": {"android": "https://dc.lft.to/lastmile_qr_scan", "ios": "https://dc.lft.to/lastmile_qr_scan"}, "lon": -77.04123166666666, "name": "87c5d7caebf44cb49b3e93d90bd2d395", "is_disabled": 0, "is_reserved": 0, "bike_id": "87c5d7caebf44cb49b3e93d90bd2d395", "lat": 38.92262066666667, "type": "electric_scooter"}, {"fusion_lat": 0.0, "fusion_lon": 0.0, "rental_uris": {"android": "https://dc.lft.to/lastmile_qr_scan", "ios": "https://dc.lft.to/lastmile_qr_scan"}, "lon": -77.03724133333333, "name": "d2efb88a2277f64bec3f714442b93dd3", "is_disabled": 0, "is_reserved": 0, "bike_id": "d2efb88a2277f64bec3f714442b93dd3", "lat": 38.90691066666667, "type": "electric_scooter"}, {"fusion_lat": 0.0, "fusion_lon": 0.0, "rental_uris": {"android": "https://dc.lft.to/lastmile_qr_scan", "ios": "https://dc.lft.to/lastmile_qr_scan"}, "lon": -77.02013716666667, "name": "dd453fa39e620602cfab3c6f49962afd", "is_disabled": 0, "is_reserved": 0, "bike_id": "dd453fa39e620602cfab3c6f49962afd", "lat": 38.89788733333334, "type": "electric_scooter"}, {"fusion_lat": 0.0, "fusion_lon": 0.0, "rental_uris": {"android": "https://dc.lft.to/lastmile_qr_scan", "ios": "https://dc.lft.to/lastmile_qr_scan"}, "lon": -77.00282116666666, "name": "2172255d2e87b5b1cbf897505324f54b", "is_disabled": 0, "is_reserved": 0, "bike_id": "2172255d2e87b5b1cbf897505324f54b", "lat": 38.877272, "type": "electric_scooter"}, {"fusion_lat": 0.0, "fusion_lon": 0.0, "rental_uris": {"android": "https://dc.lft.to/lastmile_qr_scan", "ios": "https://dc.lft.to/lastmile_qr_scan"}, "lon": -77.04590816666666, "name": "37fddd852bda6b4794d2c1b26fe2153a", "is_disabled": 0, "is_reserved": 0, "bike_id": "37fddd852bda6b4794d2c1b26fe2153a", "lat": 38.90257066666667, "type": "electric_scooter"}, {"fusion_lat": 0.0, "fusion_lon": 0.0, "rental_uris": {"android": "https://dc.lft.to/lastmile_qr_scan", "ios": "https://dc.lft.to/lastmile_qr_scan"}, "lon": -77.04458466666667, "name": "bc2b9c40df2530ab72620ae14fa7175b", "is_disabled": 0, "is_reserved": 0, "bike_id": "bc2b9c40df2530ab72620ae14fa7175b", "lat": 38.902105166666665, "type": "electric_scooter"}, {"fusion_lat": 0.0, "fusion_lon": 0.0, "rental_uris": {"android": "https://dc.lft.to/lastmile_qr_scan", "ios": "https://dc.lft.to/lastmile_qr_scan"}, "lon": -76.98698216666666, "name": "3878e2c10a6ea145da0dcafbb3303170", "is_disabled": 0, "is_reserved": 0, "bike_id": "3878e2c10a6ea145da0dcafbb3303170", "lat": 38.86721583333333, "type": "electric_scooter"}, {"fusion_lat": 0.0, "fusion_lon": 0.0, "rental_uris": {"android": "https://dc.lft.to/lastmile_qr_scan", "ios": "https://dc.lft.to/lastmile_qr_scan"}, "lon": -77.0500095, "name": "414de6f504a7d59d242ff1e06f8a1f4b", "is_disabled": 0, "is_reserved": 0, "bike_id": "414de6f504a7d59d242ff1e06f8a1f4b", "lat": 38.89228416666667, "type": "electric_scooter"}, {"fusion_lat": 0.0, "fusion_lon": 0.0, "rental_uris": {"android": "https://dc.lft.to/lastmile_qr_scan", "ios": "https://dc.lft.to/lastmile_qr_scan"}, "lon": -76.98682066666667, "name": "c83d768542fec94489afff2077bb9916", "is_disabled": 0, "is_reserved": 0, "bike_id": "c83d768542fec94489afff2077bb9916", "lat": 38.91288983333333, "type": "electric_scooter"}, {"fusion_lat": 0.0, "fusion_lon": 0.0, "rental_uris": {"android": "https://dc.lft.to/lastmile_qr_scan", "ios": "https://dc.lft.to/lastmile_qr_scan"}, "lon": -76.98673883333333, "name": "734f9c2ae0fbf7ee5d2b51d6f165cbd1", "is_disabled": 0, "is_reserved": 0, "bike_id": "734f9c2ae0fbf7ee5d2b51d6f165cbd1", "lat": 38.9067935, "type": "electric_scooter"}, {"fusion_lat": 0.0, "fusion_lon": 0.0, "rental_uris": {"android": "https://dc.lft.to/lastmile_qr_scan", "ios": "https://dc.lft.to/lastmile_qr_scan"}, "lon": -76.99535883333333, "name": "cb986368699b215ab4797e8eb435ddb4", "is_disabled": 0, "is_reserved": 0, "bike_id": "cb986368699b215ab4797e8eb435ddb4", "lat": 38.9266525, "type": "electric_scooter"}, {"fusion_lat": 0.0, "fusion_lon": 0.0, "rental_uris": {"android": "https://dc.lft.to/lastmile_qr_scan", "ios": "https://dc.lft.to/lastmile_qr_scan"}, "lon": -77.04384783333333, "name": "cd6dcf7af84e28c5afa78ce808543138", "is_disabled": 0, "is_reserved": 0, "bike_id": "cd6dcf7af84e28c5afa78ce808543138", "lat": 38.904456833333334, "type": "electric_scooter"}, {"fusion_lat": 0.0, "fusion_lon": 0.0, "rental_uris": {"android": "https://dc.lft.to/lastmile_qr_scan", "ios": "https://dc.lft.to/lastmile_qr_scan"}, "lon": -77.01995033333333, "name": "5a23582f5081d30f865b822f73c42e9a", "is_disabled": 0, "is_reserved": 0, "bike_id": "5a23582f5081d30f865b822f73c42e9a", "lat": 38.895482333333334, "type": "electric_scooter"}, {"fusion_lat": 0.0, "fusion_lon": 0.0, "rental_uris": {"android": "https://dc.lft.to/lastmile_qr_scan", "ios": "https://dc.lft.to/lastmile_qr_scan"}, "lon": -77.0387925, "name": "ab369ec26f7bfcf32541fbfb5c69cab4", "is_disabled": 0, "is_reserved": 0, "bike_id": "ab369ec26f7bfcf32541fbfb5c69cab4", "lat": 38.9225165, "type": "electric_scooter"}, {"fusion_lat": 0.0, "fusion_lon": 0.0, "rental_uris": {"android": "https://dc.lft.to/lastmile_qr_scan", "ios": "https://dc.lft.to/lastmile_qr_scan"}, "lon": -77.025104, "name": "b82be329e20d5ad71384dfec566e07a9", "is_disabled": 0, "is_reserved": 0, "bike_id": "b82be329e20d5ad71384dfec566e07a9", "lat": 38.9180985, "type": "electric_scooter"}, {"fusion_lat": 0.0, "fusion_lon": 0.0, "rental_uris": {"android": "https://dc.lft.to/lastmile_qr_scan", "ios": "https://dc.lft.to/lastmile_qr_scan"}, "lon": -76.95587633333334, "name": "a205152dee6b6e7151f40ed3e539bf8c", "is_disabled": 0, "is_reserved": 0, "bike_id": "a205152dee6b6e7151f40ed3e539bf8c", "lat": 38.8860905, "type": "electric_scooter"}, {"fusion_lat": 0.0, "fusion_lon": 0.0, "rental_uris": {"android": "https://dc.lft.to/lastmile_qr_scan", "ios": "https://dc.lft.to/lastmile_qr_scan"}, "lon": -77.02269416666667, "name": "2c1d73f497cc8c26a9ffaa4f9dccb410", "is_disabled": 0, "is_reserved": 0, "bike_id": "2c1d73f497cc8c26a9ffaa4f9dccb410", "lat": 38.918181, "type": "electric_scooter"}, {"fusion_lat": 0.0, "fusion_lon": 0.0, "rental_uris": {"android": "https://dc.lft.to/lastmile_qr_scan", "ios": "https://dc.lft.to/lastmile_qr_scan"}, "lon": -77.05910466666667, "name": "bd2c80e99d17f72837f57a9a3ab5e181", "is_disabled": 0, "is_reserved": 0, "bike_id": "bd2c80e99d17f72837f57a9a3ab5e181", "lat": 38.902617666666664, "type": "electric_scooter"}, {"fusion_lat": 0.0, "fusion_lon": 0.0, "rental_uris": {"android": "https://dc.lft.to/lastmile_qr_scan", "ios": "https://dc.lft.to/lastmile_qr_scan"}, "lon": -77.04695, "name": "88260ff965f82dfe5f340ed36650110a", "is_disabled": 0, "is_reserved": 0, "bike_id": "88260ff965f82dfe5f340ed36650110a", "lat": 38.89218866666667, "type": "electric_scooter"}, {"fusion_lat": 0.0, "fusion_lon": 0.0, "rental_uris": {"android": "https://dc.lft.to/lastmile_qr_scan", "ios": "https://dc.lft.to/lastmile_qr_scan"}, "lon": -77.04483283333333, "name": "5f5a9d3e99ecea2910d76467434089bf", "is_disabled": 0, "is_reserved": 0, "bike_id": "5f5a9d3e99ecea2910d76467434089bf", "lat": 38.89522133333333, "type": "electric_scooter"}, {"fusion_lat": 0.0, "fusion_lon": 0.0, "rental_uris": {"android": "https://dc.lft.to/lastmile_qr_scan", "ios": "https://dc.lft.to/lastmile_qr_scan"}, "lon": -77.02199383333334, "name": "800ab128fe26f93cba67b5ba7c9154fb", "is_disabled": 0, "is_reserved": 0, "bike_id": "800ab128fe26f93cba67b5ba7c9154fb", "lat": 38.9479575, "type": "electric_scooter"}, {"fusion_lat": 0.0, "fusion_lon": 0.0, "rental_uris": {"android": "https://dc.lft.to/lastmile_qr_scan", "ios": "https://dc.lft.to/lastmile_qr_scan"}, "lon": -76.98879566666666, "name": "900e48816c604a72f3e53e9d5aef41e5", "is_disabled": 0, "is_reserved": 0, "bike_id": "900e48816c604a72f3e53e9d5aef41e5", "lat": 38.857648833333336, "type": "electric_scooter"}, {"fusion_lat": 0.0, "fusion_lon": 0.0, "rental_uris": {"android": "https://dc.lft.to/lastmile_qr_scan", "ios": "https://dc.lft.to/lastmile_qr_scan"}, "lon": -76.9575445, "name": "ad41daf2aee6fb332f25ee5fe91a7a61", "is_disabled": 0, "is_reserved": 0, "bike_id": "ad41daf2aee6fb332f25ee5fe91a7a61", "lat": 38.88424116666667, "type": "electric_scooter"}, {"fusion_lat": 0.0, "fusion_lon": 0.0, "rental_uris": {"android": "https://dc.lft.to/lastmile_qr_scan", "ios": "https://dc.lft.to/lastmile_qr_scan"}, "lon": -76.998045, "name": "bbb63052489bee484a1af08c7101bc2b", "is_disabled": 0, "is_reserved": 0, "bike_id": "bbb63052489bee484a1af08c7101bc2b", "lat": 38.90133433333333, "type": "electric_scooter"}, {"fusion_lat": 0.0, "fusion_lon": 0.0, "rental_uris": {"android": "https://dc.lft.to/lastmile_qr_scan", "ios": "https://dc.lft.to/lastmile_qr_scan"}, "lon": -77.0269, "name": "63e936c8dba4a390baf6a95b798254f9", "is_disabled": 0, "is_reserved": 0, "bike_id": "63e936c8dba4a390baf6a95b798254f9", "lat": 38.90680316666667, "type": "electric_scooter"}, {"fusion_lat": 0.0, "fusion_lon": 0.0, "rental_uris": {"android": "https://dc.lft.to/lastmile_qr_scan", "ios": "https://dc.lft.to/lastmile_qr_scan"}, "lon": -77.019516, "name": "a2e217c512edb5624cf5d154bf370ad8", "is_disabled": 0, "is_reserved": 0, "bike_id": "a2e217c512edb5624cf5d154bf370ad8", "lat": 38.92304133333333, "type": "electric_scooter"}, {"fusion_lat": 0.0, "fusion_lon": 0.0, "rental_uris": {"android": "https://dc.lft.to/lastmile_qr_scan", "ios": "https://dc.lft.to/lastmile_qr_scan"}, "lon": -77.03865133333333, "name": "1230610069340308564618e25fb3b6c7", "is_disabled": 0, "is_reserved": 0, "bike_id": "1230610069340308564618e25fb3b6c7", "lat": 38.90286016666667, "type": "electric_scooter"}, {"fusion_lat": 0.0, "fusion_lon": 0.0, "rental_uris": {"android": "https://dc.lft.to/lastmile_qr_scan", "ios": "https://dc.lft.to/lastmile_qr_scan"}, "lon": -77.0262905, "name": "3f775556187d2243c9401f4087fc14cd", "is_disabled": 0, "is_reserved": 0, "bike_id": "3f775556187d2243c9401f4087fc14cd", "lat": 38.88768183333333, "type": "electric_scooter"}, {"fusion_lat": 0.0, "fusion_lon": 0.0, "rental_uris": {"android": "https://dc.lft.to/lastmile_qr_scan", "ios": "https://dc.lft.to/lastmile_qr_scan"}, "lon": -77.0400765, "name": "93e43bd89912c545b96e3b4700c3bed9", "is_disabled": 0, "is_reserved": 0, "bike_id": "93e43bd89912c545b96e3b4700c3bed9", "lat": 38.90333566666666, "type": "electric_scooter"}, {"fusion_lat": 0.0, "fusion_lon": 0.0, "rental_uris": {"android": "https://dc.lft.to/lastmile_qr_scan", "ios": "https://dc.lft.to/lastmile_qr_scan"}, "lon": -77.03278716666667, "name": "3227edef3cd4c672c8986db88af75df7", "is_disabled": 0, "is_reserved": 0, "bike_id": "3227edef3cd4c672c8986db88af75df7", "lat": 38.92814683333334, "type": "electric_scooter"}, {"fusion_lat": 0.0, "fusion_lon": 0.0, "rental_uris": {"android": "https://dc.lft.to/lastmile_qr_scan", "ios": "https://dc.lft.to/lastmile_qr_scan"}, "lon": -77.03459866666667, "name": "848ac9b6ba0357e6578b41443f305db5", "is_disabled": 0, "is_reserved": 0, "bike_id": "848ac9b6ba0357e6578b41443f305db5", "lat": 38.90596433333333, "type": "electric_scooter"}, {"fusion_lat": 0.0, "fusion_lon": 0.0, "rental_uris": {"android": "https://dc.lft.to/lastmile_qr_scan", "ios": "https://dc.lft.to/lastmile_qr_scan"}, "lon": -76.968296, "name": "d8de0828b85f93aa1a0175b7e791e6d0", "is_disabled": 0, "is_reserved": 0, "bike_id": "d8de0828b85f93aa1a0175b7e791e6d0", "lat": 38.87334966666667, "type": "electric_scooter"}, {"fusion_lat": 0.0, "fusion_lon": 0.0, "rental_uris": {"android": "https://dc.lft.to/lastmile_qr_scan", "ios": "https://dc.lft.to/lastmile_qr_scan"}, "lon": -77.04186033333333, "name": "134965a9f44e1e7695e80969b51b5a2f", "is_disabled": 0, "is_reserved": 0, "bike_id": "134965a9f44e1e7695e80969b51b5a2f", "lat": 38.9205145, "type": "electric_scooter"}, {"fusion_lat": 0.0, "fusion_lon": 0.0, "rental_uris": {"android": "https://dc.lft.to/lastmile_qr_scan", "ios": "https://dc.lft.to/lastmile_qr_scan"}, "lon": -77.04699816666667, "name": "1bbdc6733f806f812329b64c90f750e5", "is_disabled": 0, "is_reserved": 0, "bike_id": "1bbdc6733f806f812329b64c90f750e5", "lat": 38.89729666666667, "type": "electric_scooter"}, {"fusion_lat": 0.0, "fusion_lon": 0.0, "rental_uris": {"android": "https://dc.lft.to/lastmile_qr_scan", "ios": "https://dc.lft.to/lastmile_qr_scan"}, "lon": -77.03450633333334, "name": "d370fc4857b3eaa1da0ae2e85585ab43", "is_disabled": 0, "is_reserved": 0, "bike_id": "d370fc4857b3eaa1da0ae2e85585ab43", "lat": 38.9050165, "type": "electric_scooter"}, {"fusion_lat": 0.0, "fusion_lon": 0.0, "rental_uris": {"android": "https://dc.lft.to/lastmile_qr_scan", "ios": "https://dc.lft.to/lastmile_qr_scan"}, "lon": -76.98144866666667, "name": "2e3ea1300d3cd892e5c7e4d290f85860", "is_disabled": 0, "is_reserved": 0, "bike_id": "2e3ea1300d3cd892e5c7e4d290f85860", "lat": 38.89746683333333, "type": "electric_scooter"}, {"fusion_lat": 0.0, "fusion_lon": 0.0, "rental_uris": {"android": "https://dc.lft.to/lastmile_qr_scan", "ios": "https://dc.lft.to/lastmile_qr_scan"}, "lon": -76.990012, "name": "011887c0f95be297a78cc0dbd47bab66", "is_disabled": 0, "is_reserved": 0, "bike_id": "011887c0f95be297a78cc0dbd47bab66", "lat": 38.86504166666667, "type": "electric_scooter"}, {"fusion_lat": 0.0, "fusion_lon": 0.0, "rental_uris": {"android": "https://dc.lft.to/lastmile_qr_scan", "ios": "https://dc.lft.to/lastmile_qr_scan"}, "lon": -77.021665, "name": "4ffa194bac7c7074e1842a0db535235c", "is_disabled": 0, "is_reserved": 0, "bike_id": "4ffa194bac7c7074e1842a0db535235c", "lat": 38.903073166666665, "type": "electric_scooter"}, {"fusion_lat": 0.0, "fusion_lon": 0.0, "rental_uris": {"android": "https://dc.lft.to/lastmile_qr_scan", "ios": "https://dc.lft.to/lastmile_qr_scan"}, "lon": -77.03837466666667, "name": "76c87f62d89934e99afc51ce656cb58a", "is_disabled": 0, "is_reserved": 0, "bike_id": "76c87f62d89934e99afc51ce656cb58a", "lat": 38.901273833333335, "type": "electric_scooter"}, {"fusion_lat": 0.0, "fusion_lon": 0.0, "rental_uris": {"android": "https://dc.lft.to/lastmile_qr_scan", "ios": "https://dc.lft.to/lastmile_qr_scan"}, "lon": -77.02395366666667, "name": "ed3bceb72c9a2c3e54f160b9340af388", "is_disabled": 0, "is_reserved": 0, "bike_id": "ed3bceb72c9a2c3e54f160b9340af388", "lat": 38.9070835, "type": "electric_scooter"}, {"fusion_lat": 0.0, "fusion_lon": 0.0, "rental_uris": {"android": "https://dc.lft.to/lastmile_qr_scan", "ios": "https://dc.lft.to/lastmile_qr_scan"}, "lon": -77.02608133333334, "name": "854234fc6af5a8b13d8230ba4c523c03", "is_disabled": 0, "is_reserved": 0, "bike_id": "854234fc6af5a8b13d8230ba4c523c03", "lat": 38.92794116666666, "type": "electric_scooter"}, {"fusion_lat": 0.0, "fusion_lon": 0.0, "rental_uris": {"android": "https://dc.lft.to/lastmile_qr_scan", "ios": "https://dc.lft.to/lastmile_qr_scan"}, "lon": -77.02303783333333, "name": "20de6ebe1918d8024143640373795ba5", "is_disabled": 0, "is_reserved": 0, "bike_id": "20de6ebe1918d8024143640373795ba5", "lat": 38.915953333333334, "type": "electric_scooter"}, {"fusion_lat": 0.0, "fusion_lon": 0.0, "rental_uris": {"android": "https://dc.lft.to/lastmile_qr_scan", "ios": "https://dc.lft.to/lastmile_qr_scan"}, "lon": -77.0307685, "name": "78263e0658a9860a164a6478df631a30", "is_disabled": 0, "is_reserved": 0, "bike_id": "78263e0658a9860a164a6478df631a30", "lat": 38.899621833333335, "type": "electric_scooter"}, {"fusion_lat": 0.0, "fusion_lon": 0.0, "rental_uris": {"android": "https://dc.lft.to/lastmile_qr_scan", "ios": "https://dc.lft.to/lastmile_qr_scan"}, "lon": -77.0639225, "name": "b3e379cf335e5bd03b70d49a4dfd8957", "is_disabled": 0, "is_reserved": 0, "bike_id": "b3e379cf335e5bd03b70d49a4dfd8957", "lat": 38.94418666666667, "type": "electric_scooter"}, {"fusion_lat": 0.0, "fusion_lon": 0.0, "rental_uris": {"android": "https://dc.lft.to/lastmile_qr_scan", "ios": "https://dc.lft.to/lastmile_qr_scan"}, "lon": -77.04154033333333, "name": "67af0d6abcae40ed3608b4e11230e1f5", "is_disabled": 0, "is_reserved": 0, "bike_id": "67af0d6abcae40ed3608b4e11230e1f5", "lat": 38.901916166666666, "type": "electric_scooter"}, {"fusion_lat": 0.0, "fusion_lon": 0.0, "rental_uris": {"android": "https://dc.lft.to/lastmile_qr_scan", "ios": "https://dc.lft.to/lastmile_qr_scan"}, "lon": -76.93150116666666, "name": "d0152c2b9350275f3d6d966e9211da8e", "is_disabled": 0, "is_reserved": 0, "bike_id": "d0152c2b9350275f3d6d966e9211da8e", "lat": 38.89773566666667, "type": "electric_scooter"}, {"fusion_lat": 0.0, "fusion_lon": 0.0, "rental_uris": {"android": "https://dc.lft.to/lastmile_qr_scan", "ios": "https://dc.lft.to/lastmile_qr_scan"}, "lon": -76.98785433333333, "name": "0848abcb72fb8db8b163235840feb25f", "is_disabled": 0, "is_reserved": 0, "bike_id": "0848abcb72fb8db8b163235840feb25f", "lat": 38.91234, "type": "electric_scooter"}, {"fusion_lat": 0.0, "fusion_lon": 0.0, "rental_uris": {"android": "https://dc.lft.to/lastmile_qr_scan", "ios": "https://dc.lft.to/lastmile_qr_scan"}, "lon": -77.01751483333334, "name": "1e3017d264f00b10202ed708892fdab1", "is_disabled": 0, "is_reserved": 0, "bike_id": "1e3017d264f00b10202ed708892fdab1", "lat": 38.8946835, "type": "electric_scooter"}, {"fusion_lat": 0.0, "fusion_lon": 0.0, "rental_uris": {"android": "https://dc.lft.to/lastmile_qr_scan", "ios": "https://dc.lft.to/lastmile_qr_scan"}, "lon": -77.01405066666666, "name": "e8a551b7840ac5d27b4b835b8a696d0d", "is_disabled": 0, "is_reserved": 0, "bike_id": "e8a551b7840ac5d27b4b835b8a696d0d", "lat": 38.91917266666667, "type": "electric_scooter"}, {"fusion_lat": 0.0, "fusion_lon": 0.0, "rental_uris": {"android": "https://dc.lft.to/lastmile_qr_scan", "ios": "https://dc.lft.to/lastmile_qr_scan"}, "lon": -77.02967933333333, "name": "9d126a00dfa927b52bffd149aebe85a3", "is_disabled": 0, "is_reserved": 0, "bike_id": "9d126a00dfa927b52bffd149aebe85a3", "lat": 38.92339883333333, "type": "electric_scooter"}, {"fusion_lat": 0.0, "fusion_lon": 0.0, "rental_uris": {"android": "https://dc.lft.to/lastmile_qr_scan", "ios": "https://dc.lft.to/lastmile_qr_scan"}, "lon": -76.97823883333334, "name": "da18f0ae7f4a08aca2e8099156dee11d", "is_disabled": 0, "is_reserved": 0, "bike_id": "da18f0ae7f4a08aca2e8099156dee11d", "lat": 38.898425, "type": "electric_scooter"}, {"fusion_lat": 0.0, "fusion_lon": 0.0, "rental_uris": {"android": "https://dc.lft.to/lastmile_qr_scan", "ios": "https://dc.lft.to/lastmile_qr_scan"}, "lon": -76.9888115, "name": "6991760913ce80fef7b64bb9a539f79c", "is_disabled": 0, "is_reserved": 0, "bike_id": "6991760913ce80fef7b64bb9a539f79c", "lat": 38.866593, "type": "electric_scooter"}, {"fusion_lat": 0.0, "fusion_lon": 0.0, "rental_uris": {"android": "https://dc.lft.to/lastmile_qr_scan", "ios": "https://dc.lft.to/lastmile_qr_scan"}, "lon": -77.0232555, "name": "248475fa2196e702517203f8fbf797d3", "is_disabled": 0, "is_reserved": 0, "bike_id": "248475fa2196e702517203f8fbf797d3", "lat": 38.90849766666667, "type": "electric_scooter"}, {"fusion_lat": 0.0, "fusion_lon": 0.0, "rental_uris": {"android": "https://dc.lft.to/lastmile_qr_scan", "ios": "https://dc.lft.to/lastmile_qr_scan"}, "lon": -77.0452365, "name": "d679f6a2c7c84464f06f6b432ef13bb5", "is_disabled": 0, "is_reserved": 0, "bike_id": "d679f6a2c7c84464f06f6b432ef13bb5", "lat": 38.903606833333335, "type": "electric_bike"}, {"fusion_lat": 0.0, "fusion_lon": 0.0, "rental_uris": {"android": "https://dc.lft.to/lastmile_qr_scan", "ios": "https://dc.lft.to/lastmile_qr_scan"}, "lon": -77.2289525, "name": "637c9b6b42e42859a3f2dc2d61231fc0", "is_disabled": 0, "is_reserved": 0, "bike_id": "637c9b6b42e42859a3f2dc2d61231fc0", "lat": 38.90954033333333, "type": "electric_bike"}, {"fusion_lat": 0.0, "fusion_lon": 0.0, "rental_uris": {"android": "https://dc.lft.to/lastmile_qr_scan", "ios": "https://dc.lft.to/lastmile_qr_scan"}, "lon": -77.03391166666667, "name": "bd71d9aa2b0c70b13548663da6e1c7c0", "is_disabled": 0, "is_reserved": 0, "bike_id": "bd71d9aa2b0c70b13548663da6e1c7c0", "lat": 38.9235635, "type": "electric_scooter"}, {"fusion_lat": 0.0, "fusion_lon": 0.0, "rental_uris": {"android": "https://dc.lft.to/lastmile_qr_scan", "ios": "https://dc.lft.to/lastmile_qr_scan"}, "lon": -77.0025055, "name": "5c06c933433b045adbab7d567745f0b5", "is_disabled": 0, "is_reserved": 0, "bike_id": "5c06c933433b045adbab7d567745f0b5", "lat": 38.880156166666666, "type": "electric_scooter"}, {"fusion_lat": 0.0, "fusion_lon": 0.0, "rental_uris": {"android": "https://dc.lft.to/lastmile_qr_scan", "ios": "https://dc.lft.to/lastmile_qr_scan"}, "lon": -77.03339116666666, "name": "20a76c821acd2712bb185fa699a8102a", "is_disabled": 0, "is_reserved": 0, "bike_id": "20a76c821acd2712bb185fa699a8102a", "lat": 38.89830033333333, "type": "electric_scooter"}, {"fusion_lat": 0.0, "fusion_lon": 0.0, "rental_uris": {"android": "https://dc.lft.to/lastmile_qr_scan", "ios": "https://dc.lft.to/lastmile_qr_scan"}, "lon": -77.04406983333334, "name": "4458e060a49970f23402d416f89af3ea", "is_disabled": 0, "is_reserved": 0, "bike_id": "4458e060a49970f23402d416f89af3ea", "lat": 38.9341825, "type": "electric_scooter"}, {"fusion_lat": 0.0, "fusion_lon": 0.0, "rental_uris": {"android": "https://dc.lft.to/lastmile_qr_scan", "ios": "https://dc.lft.to/lastmile_qr_scan"}, "lon": -77.01988833333333, "name": "6de4ded0274361ba5de2f3021a5de2bc", "is_disabled": 0, "is_reserved": 0, "bike_id": "6de4ded0274361ba5de2f3021a5de2bc", "lat": 38.905049, "type": "electric_scooter"}, {"fusion_lat": 0.0, "fusion_lon": 0.0, "rental_uris": {"android": "https://dc.lft.to/lastmile_qr_scan", "ios": "https://dc.lft.to/lastmile_qr_scan"}, "lon": -77.03268633333333, "name": "c8d79a0b72e6e0c713ad3dfcc3d8a858", "is_disabled": 0, "is_reserved": 0, "bike_id": "c8d79a0b72e6e0c713ad3dfcc3d8a858", "lat": 38.92922133333333, "type": "electric_scooter"}, {"fusion_lat": 0.0, "fusion_lon": 0.0, "rental_uris": {"android": "https://dc.lft.to/lastmile_qr_scan", "ios": "https://dc.lft.to/lastmile_qr_scan"}, "lon": -77.0205135, "name": "5f083876cbcbf0a57aa5d21b0c4242d3", "is_disabled": 0, "is_reserved": 0, "bike_id": "5f083876cbcbf0a57aa5d21b0c4242d3", "lat": 38.9232835, "type": "electric_scooter"}, {"fusion_lat": 0.0, "fusion_lon": 0.0, "rental_uris": {"android": "https://dc.lft.to/lastmile_qr_scan", "ios": "https://dc.lft.to/lastmile_qr_scan"}, "lon": -76.9995335, "name": "ed31c606cad78032f8c431d0c112eb11", "is_disabled": 0, "is_reserved": 0, "bike_id": "ed31c606cad78032f8c431d0c112eb11", "lat": 38.908615833333336, "type": "electric_scooter"}, {"fusion_lat": 0.0, "fusion_lon": 0.0, "rental_uris": {"android": "https://dc.lft.to/lastmile_qr_scan", "ios": "https://dc.lft.to/lastmile_qr_scan"}, "lon": -77.03101116666667, "name": "99cb386950b060f416d4510616720c8f", "is_disabled": 0, "is_reserved": 0, "bike_id": "99cb386950b060f416d4510616720c8f", "lat": 38.923812833333336, "type": "electric_scooter"}, {"fusion_lat": 0.0, "fusion_lon": 0.0, "rental_uris": {"android": "https://dc.lft.to/lastmile_qr_scan", "ios": "https://dc.lft.to/lastmile_qr_scan"}, "lon": -77.0321855, "name": "39c610f0f89decf32f2c17f16c9cc9f7", "is_disabled": 0, "is_reserved": 0, "bike_id": "39c610f0f89decf32f2c17f16c9cc9f7", "lat": 38.9140385, "type": "electric_scooter"}, {"fusion_lat": 0.0, "fusion_lon": 0.0, "rental_uris": {"android": "https://dc.lft.to/lastmile_qr_scan", "ios": "https://dc.lft.to/lastmile_qr_scan"}, "lon": -77.026953, "name": "a0496957fa84bd0a2551b6e5f2c45109", "is_disabled": 0, "is_reserved": 0, "bike_id": "a0496957fa84bd0a2551b6e5f2c45109", "lat": 38.908392166666665, "type": "electric_scooter"}, {"fusion_lat": 0.0, "fusion_lon": 0.0, "rental_uris": {"android": "https://dc.lft.to/lastmile_qr_scan", "ios": "https://dc.lft.to/lastmile_qr_scan"}, "lon": -77.0223915, "name": "b9a3f8cce7bc3a90a2bd520b3a676241", "is_disabled": 0, "is_reserved": 0, "bike_id": "b9a3f8cce7bc3a90a2bd520b3a676241", "lat": 38.92220566666667, "type": "electric_scooter"}, {"fusion_lat": 0.0, "fusion_lon": 0.0, "rental_uris": {"android": "https://dc.lft.to/lastmile_qr_scan", "ios": "https://dc.lft.to/lastmile_qr_scan"}, "lon": -77.04355016666666, "name": "e1b1c17b77bcb72f301affda49e025b6", "is_disabled": 0, "is_reserved": 0, "bike_id": "e1b1c17b77bcb72f301affda49e025b6", "lat": 38.9084175, "type": "electric_scooter"}, {"fusion_lat": 0.0, "fusion_lon": 0.0, "rental_uris": {"android": "https://dc.lft.to/lastmile_qr_scan", "ios": "https://dc.lft.to/lastmile_qr_scan"}, "lon": -77.04228333333333, "name": "a2a855c50b58bd51ec7ba2ab5ea3b02a", "is_disabled": 0, "is_reserved": 0, "bike_id": "a2a855c50b58bd51ec7ba2ab5ea3b02a", "lat": 38.920569666666665, "type": "electric_scooter"}, {"fusion_lat": 0.0, "fusion_lon": 0.0, "rental_uris": {"android": "https://dc.lft.to/lastmile_qr_scan", "ios": "https://dc.lft.to/lastmile_qr_scan"}, "lon": -77.01415383333334, "name": "0cc706aad7158cb00f8728cddf66fc73", "is_disabled": 0, "is_reserved": 0, "bike_id": "0cc706aad7158cb00f8728cddf66fc73", "lat": 38.892205833333335, "type": "electric_scooter"}, {"fusion_lat": 0.0, "fusion_lon": 0.0, "rental_uris": {"android": "https://dc.lft.to/lastmile_qr_scan", "ios": "https://dc.lft.to/lastmile_qr_scan"}, "lon": -77.07230133333333, "name": "802bf49a8f593bfb2582aaf351140404", "is_disabled": 0, "is_reserved": 0, "bike_id": "802bf49a8f593bfb2582aaf351140404", "lat": 38.931898, "type": "electric_scooter"}, {"fusion_lat": 0.0, "fusion_lon": 0.0, "rental_uris": {"android": "https://dc.lft.to/lastmile_qr_scan", "ios": "https://dc.lft.to/lastmile_qr_scan"}, "lon": -77.0021265, "name": "b1542c7aaafb17daa19aea84170ff1c1", "is_disabled": 0, "is_reserved": 0, "bike_id": "b1542c7aaafb17daa19aea84170ff1c1", "lat": 38.911031666666666, "type": "electric_scooter"}, {"fusion_lat": 0.0, "fusion_lon": 0.0, "rental_uris": {"android": "https://dc.lft.to/lastmile_qr_scan", "ios": "https://dc.lft.to/lastmile_qr_scan"}, "lon": -77.04859966666666, "name": "f03ee0be24ada434594a46ff6ff45388", "is_disabled": 0, "is_reserved": 0, "bike_id": "f03ee0be24ada434594a46ff6ff45388", "lat": 38.913273333333336, "type": "electric_scooter"}, {"fusion_lat": 0.0, "fusion_lon": 0.0, "rental_uris": {"android": "https://dc.lft.to/lastmile_qr_scan", "ios": "https://dc.lft.to/lastmile_qr_scan"}, "lon": -77.006733, "name": "63df867356238ef7b830a1ff59e2d7c2", "is_disabled": 0, "is_reserved": 0, "bike_id": "63df867356238ef7b830a1ff59e2d7c2", "lat": 38.9451235, "type": "electric_bike"}, {"fusion_lat": 0.0, "fusion_lon": 0.0, "rental_uris": {"android": "https://dc.lft.to/lastmile_qr_scan", "ios": "https://dc.lft.to/lastmile_qr_scan"}, "lon": -77.04199416666667, "name": "fada5405e068f2a1b573b994969d4e74", "is_disabled": 0, "is_reserved": 0, "bike_id": "fada5405e068f2a1b573b994969d4e74", "lat": 38.92063533333334, "type": "electric_scooter"}, {"fusion_lat": 0.0, "fusion_lon": 0.0, "rental_uris": {"android": "https://dc.lft.to/lastmile_qr_scan", "ios": "https://dc.lft.to/lastmile_qr_scan"}, "lon": -77.003472, "name": "602d67335b28a98b2ff099336679c85d", "is_disabled": 0, "is_reserved": 0, "bike_id": "602d67335b28a98b2ff099336679c85d", "lat": 38.8974095, "type": "electric_scooter"}, {"fusion_lat": 0.0, "fusion_lon": 0.0, "rental_uris": {"android": "https://dc.lft.to/lastmile_qr_scan", "ios": "https://dc.lft.to/lastmile_qr_scan"}, "lon": -77.02892183333333, "name": "69292f8cf46a6b160b049ae6443b7ab7", "is_disabled": 0, "is_reserved": 0, "bike_id": "69292f8cf46a6b160b049ae6443b7ab7", "lat": 38.901424166666665, "type": "electric_scooter"}, {"fusion_lat": 0.0, "fusion_lon": 0.0, "rental_uris": {"android": "https://dc.lft.to/lastmile_qr_scan", "ios": "https://dc.lft.to/lastmile_qr_scan"}, "lon": -77.06392633333333, "name": "b42faf865187135063bde06e0370165d", "is_disabled": 0, "is_reserved": 0, "bike_id": "b42faf865187135063bde06e0370165d", "lat": 38.94412583333333, "type": "electric_scooter"}, {"fusion_lat": 0.0, "fusion_lon": 0.0, "rental_uris": {"android": "https://dc.lft.to/lastmile_qr_scan", "ios": "https://dc.lft.to/lastmile_qr_scan"}, "lon": -76.94959066666667, "name": "88278645b2e9e3d6ad5bbaf4d50fe6ed", "is_disabled": 0, "is_reserved": 0, "bike_id": "88278645b2e9e3d6ad5bbaf4d50fe6ed", "lat": 38.894614833333335, "type": "electric_scooter"}, {"fusion_lat": 0.0, "fusion_lon": 0.0, "rental_uris": {"android": "https://dc.lft.to/lastmile_qr_scan", "ios": "https://dc.lft.to/lastmile_qr_scan"}, "lon": -77.0483265, "name": "488ccfb2bba994957947f92d7958ca24", "is_disabled": 0, "is_reserved": 0, "bike_id": "488ccfb2bba994957947f92d7958ca24", "lat": 38.91168833333333, "type": "electric_scooter"}, {"fusion_lat": 0.0, "fusion_lon": 0.0, "rental_uris": {"android": "https://dc.lft.to/lastmile_qr_scan", "ios": "https://dc.lft.to/lastmile_qr_scan"}, "lon": -77.03968416666666, "name": "7e01a83a27e06bb42d705f45117e0ec0", "is_disabled": 0, "is_reserved": 0, "bike_id": "7e01a83a27e06bb42d705f45117e0ec0", "lat": 38.902877333333336, "type": "electric_scooter"}, {"fusion_lat": 0.0, "fusion_lon": 0.0, "rental_uris": {"android": "https://dc.lft.to/lastmile_qr_scan", "ios": "https://dc.lft.to/lastmile_qr_scan"}, "lon": -76.99811433333333, "name": "62a1e19ea861872dbbd1457aaad62107", "is_disabled": 0, "is_reserved": 0, "bike_id": "62a1e19ea861872dbbd1457aaad62107", "lat": 38.819889333333336, "type": "electric_bike"}, {"fusion_lat": 0.0, "fusion_lon": 0.0, "rental_uris": {"android": "https://dc.lft.to/lastmile_qr_scan", "ios": "https://dc.lft.to/lastmile_qr_scan"}, "lon": -77.03208783333334, "name": "671bd67cc01ed7c36259a8037ead3abb", "is_disabled": 0, "is_reserved": 0, "bike_id": "671bd67cc01ed7c36259a8037ead3abb", "lat": 38.8923445, "type": "electric_scooter"}, {"fusion_lat": 0.0, "fusion_lon": 0.0, "rental_uris": {"android": "https://dc.lft.to/lastmile_qr_scan", "ios": "https://dc.lft.to/lastmile_qr_scan"}, "lon": -77.03834466666666, "name": "460be1c6dfd937c3dc153758bad705fd", "is_disabled": 0, "is_reserved": 0, "bike_id": "460be1c6dfd937c3dc153758bad705fd", "lat": 38.911168, "type": "electric_scooter"}, {"fusion_lat": 0.0, "fusion_lon": 0.0, "rental_uris": {"android": "https://dc.lft.to/lastmile_qr_scan", "ios": "https://dc.lft.to/lastmile_qr_scan"}, "lon": -76.99061883333333, "name": "ca3e6fe0aa6547cacecdbe211b3c8de4", "is_disabled": 0, "is_reserved": 0, "bike_id": "ca3e6fe0aa6547cacecdbe211b3c8de4", "lat": 38.86372983333333, "type": "electric_scooter"}, {"fusion_lat": 0.0, "fusion_lon": 0.0, "rental_uris": {"android": "https://dc.lft.to/lastmile_qr_scan", "ios": "https://dc.lft.to/lastmile_qr_scan"}, "lon": -77.00213216666667, "name": "c30091ebf66f13e99b249c369147a277", "is_disabled": 0, "is_reserved": 0, "bike_id": "c30091ebf66f13e99b249c369147a277", "lat": 38.904762833333336, "type": "electric_scooter"}, {"fusion_lat": 0.0, "fusion_lon": 0.0, "rental_uris": {"android": "https://dc.lft.to/lastmile_qr_scan", "ios": "https://dc.lft.to/lastmile_qr_scan"}, "lon": -77.02978533333334, "name": "82afab31a30acdf02e347b059fade563", "is_disabled": 0, "is_reserved": 0, "bike_id": "82afab31a30acdf02e347b059fade563", "lat": 38.92229783333333, "type": "electric_scooter"}, {"fusion_lat": 0.0, "fusion_lon": 0.0, "rental_uris": {"android": "https://dc.lft.to/lastmile_qr_scan", "ios": "https://dc.lft.to/lastmile_qr_scan"}, "lon": -77.039992, "name": "e8aca77d8558c1a899474db664ac5531", "is_disabled": 0, "is_reserved": 0, "bike_id": "e8aca77d8558c1a899474db664ac5531", "lat": 38.93429533333333, "type": "electric_scooter"}, {"fusion_lat": 0.0, "fusion_lon": 0.0, "rental_uris": {"android": "https://dc.lft.to/lastmile_qr_scan", "ios": "https://dc.lft.to/lastmile_qr_scan"}, "lon": -77.02459083333333, "name": "9f82c5a32ccb9ffee8dafdf4f15baef0", "is_disabled": 0, "is_reserved": 0, "bike_id": "9f82c5a32ccb9ffee8dafdf4f15baef0", "lat": 38.91703366666667, "type": "electric_scooter"}, {"fusion_lat": 0.0, "fusion_lon": 0.0, "rental_uris": {"android": "https://dc.lft.to/lastmile_qr_scan", "ios": "https://dc.lft.to/lastmile_qr_scan"}, "lon": -76.98714316666667, "name": "2cd215c08c257ae6e6fbe7f9b11bd32a", "is_disabled": 0, "is_reserved": 0, "bike_id": "2cd215c08c257ae6e6fbe7f9b11bd32a", "lat": 38.86621516666666, "type": "electric_scooter"}, {"fusion_lat": 0.0, "fusion_lon": 0.0, "rental_uris": {"android": "https://dc.lft.to/lastmile_qr_scan", "ios": "https://dc.lft.to/lastmile_qr_scan"}, "lon": -77.0196945, "name": "def20acaea79ec181cfe9a0eade24f0d", "is_disabled": 0, "is_reserved": 0, "bike_id": "def20acaea79ec181cfe9a0eade24f0d", "lat": 38.97745783333333, "type": "electric_scooter"}, {"fusion_lat": 0.0, "fusion_lon": 0.0, "rental_uris": {"android": "https://dc.lft.to/lastmile_qr_scan", "ios": "https://dc.lft.to/lastmile_qr_scan"}, "lon": -77.02126983333333, "name": "ad0d5d336cf8ee4d10903714ba49e9ed", "is_disabled": 0, "is_reserved": 0, "bike_id": "ad0d5d336cf8ee4d10903714ba49e9ed", "lat": 38.92325183333333, "type": "electric_scooter"}, {"fusion_lat": 0.0, "fusion_lon": 0.0, "rental_uris": {"android": "https://dc.lft.to/lastmile_qr_scan", "ios": "https://dc.lft.to/lastmile_qr_scan"}, "lon": -77.02220416666667, "name": "34f9d15f655d644c86fc357d309205a8", "is_disabled": 0, "is_reserved": 0, "bike_id": "34f9d15f655d644c86fc357d309205a8", "lat": 38.92472683333333, "type": "electric_scooter"}, {"fusion_lat": 0.0, "fusion_lon": 0.0, "rental_uris": {"android": "https://dc.lft.to/lastmile_qr_scan", "ios": "https://dc.lft.to/lastmile_qr_scan"}, "lon": -77.03187816666667, "name": "c0aa4145bee76814c908031cabc2a75e", "is_disabled": 0, "is_reserved": 0, "bike_id": "c0aa4145bee76814c908031cabc2a75e", "lat": 38.896203166666666, "type": "electric_scooter"}, {"fusion_lat": 0.0, "fusion_lon": 0.0, "rental_uris": {"android": "https://dc.lft.to/lastmile_qr_scan", "ios": "https://dc.lft.to/lastmile_qr_scan"}, "lon": -77.0806385, "name": "7f078c2899976f2ed92a8ed665cb1e3e", "is_disabled": 0, "is_reserved": 0, "bike_id": "7f078c2899976f2ed92a8ed665cb1e3e", "lat": 39.052527166666664, "type": "electric_bike"}, {"fusion_lat": 0.0, "fusion_lon": 0.0, "rental_uris": {"android": "https://dc.lft.to/lastmile_qr_scan", "ios": "https://dc.lft.to/lastmile_qr_scan"}, "lon": -77.02938666666667, "name": "a3f6ce7fc273971700edfc77b8689697", "is_disabled": 0, "is_reserved": 0, "bike_id": "a3f6ce7fc273971700edfc77b8689697", "lat": 38.9026455, "type": "electric_scooter"}, {"fusion_lat": 0.0, "fusion_lon": 0.0, "rental_uris": {"android": "https://dc.lft.to/lastmile_qr_scan", "ios": "https://dc.lft.to/lastmile_qr_scan"}, "lon": -77.04484166666667, "name": "5d706658766385e56615a951e84054b3", "is_disabled": 0, "is_reserved": 0, "bike_id": "5d706658766385e56615a951e84054b3", "lat": 38.8975275, "type": "electric_scooter"}, {"fusion_lat": 0.0, "fusion_lon": 0.0, "rental_uris": {"android": "https://dc.lft.to/lastmile_qr_scan", "ios": "https://dc.lft.to/lastmile_qr_scan"}, "lon": -77.04615833333334, "name": "e6f764b826787ac690478d737977c020", "is_disabled": 0, "is_reserved": 0, "bike_id": "e6f764b826787ac690478d737977c020", "lat": 38.916778666666666, "type": "electric_scooter"}, {"fusion_lat": 0.0, "fusion_lon": 0.0, "rental_uris": {"android": "https://dc.lft.to/lastmile_qr_scan", "ios": "https://dc.lft.to/lastmile_qr_scan"}, "lon": -77.0049005, "name": "f913360b8a0a8f3fc22b79036d78d2ed", "is_disabled": 0, "is_reserved": 0, "bike_id": "f913360b8a0a8f3fc22b79036d78d2ed", "lat": 38.87466533333333, "type": "electric_scooter"}, {"fusion_lat": 0.0, "fusion_lon": 0.0, "rental_uris": {"android": "https://dc.lft.to/lastmile_qr_scan", "ios": "https://dc.lft.to/lastmile_qr_scan"}, "lon": -77.05146683333334, "name": "b84002caa476bd1baabc108da1bc2596", "is_disabled": 0, "is_reserved": 0, "bike_id": "b84002caa476bd1baabc108da1bc2596", "lat": 38.9019, "type": "electric_scooter"}, {"fusion_lat": 0.0, "fusion_lon": 0.0, "rental_uris": {"android": "https://dc.lft.to/lastmile_qr_scan", "ios": "https://dc.lft.to/lastmile_qr_scan"}, "lon": -77.03870283333333, "name": "df89c278658d6c8f54fb9a50ea8300f9", "is_disabled": 0, "is_reserved": 0, "bike_id": "df89c278658d6c8f54fb9a50ea8300f9", "lat": 38.90286916666667, "type": "electric_scooter"}, {"fusion_lat": 0.0, "fusion_lon": 0.0, "rental_uris": {"android": "https://dc.lft.to/lastmile_qr_scan", "ios": "https://dc.lft.to/lastmile_qr_scan"}, "lon": -77.02288683333333, "name": "e9ac5bd9d020653d03a65e8932760927", "is_disabled": 0, "is_reserved": 0, "bike_id": "e9ac5bd9d020653d03a65e8932760927", "lat": 38.895024666666664, "type": "electric_scooter"}, {"fusion_lat": 0.0, "fusion_lon": 0.0, "rental_uris": {"android": "https://dc.lft.to/lastmile_qr_scan", "ios": "https://dc.lft.to/lastmile_qr_scan"}, "lon": -77.04507316666667, "name": "83075b70c33e4aa79cb85bfb3d42f2cf", "is_disabled": 0, "is_reserved": 0, "bike_id": "83075b70c33e4aa79cb85bfb3d42f2cf", "lat": 38.90364783333333, "type": "electric_scooter"}, {"fusion_lat": 0.0, "fusion_lon": 0.0, "rental_uris": {"android": "https://dc.lft.to/lastmile_qr_scan", "ios": "https://dc.lft.to/lastmile_qr_scan"}, "lon": -77.03382233333333, "name": "d3f3583c2ec69e8fc9c2bb1d63c49053", "is_disabled": 0, "is_reserved": 0, "bike_id": "d3f3583c2ec69e8fc9c2bb1d63c49053", "lat": 38.92537633333333, "type": "electric_scooter"}, {"fusion_lat": 0.0, "fusion_lon": 0.0, "rental_uris": {"android": "https://dc.lft.to/lastmile_qr_scan", "ios": "https://dc.lft.to/lastmile_qr_scan"}, "lon": -77.0137595, "name": "46725054a4d9cc605eba178d4cfdaae1", "is_disabled": 0, "is_reserved": 0, "bike_id": "46725054a4d9cc605eba178d4cfdaae1", "lat": 38.928774, "type": "electric_scooter"}, {"fusion_lat": 0.0, "fusion_lon": 0.0, "rental_uris": {"android": "https://dc.lft.to/lastmile_qr_scan", "ios": "https://dc.lft.to/lastmile_qr_scan"}, "lon": -77.024055, "name": "bd7c6f8e4934d45f9b92fa05e20330db", "is_disabled": 0, "is_reserved": 0, "bike_id": "bd7c6f8e4934d45f9b92fa05e20330db", "lat": 38.9056615, "type": "electric_scooter"}, {"fusion_lat": 0.0, "fusion_lon": 0.0, "rental_uris": {"android": "https://dc.lft.to/lastmile_qr_scan", "ios": "https://dc.lft.to/lastmile_qr_scan"}, "lon": -76.97029133333334, "name": "2185dfff4cd733eadf88173a41b4cd44", "is_disabled": 0, "is_reserved": 0, "bike_id": "2185dfff4cd733eadf88173a41b4cd44", "lat": 38.87355066666667, "type": "electric_scooter"}, {"fusion_lat": 0.0, "fusion_lon": 0.0, "rental_uris": {"android": "https://dc.lft.to/lastmile_qr_scan", "ios": "https://dc.lft.to/lastmile_qr_scan"}, "lon": -77.01767366666667, "name": "c6f56f4547f196d10f433c3191a7bdf6", "is_disabled": 0, "is_reserved": 0, "bike_id": "c6f56f4547f196d10f433c3191a7bdf6", "lat": 38.900891333333334, "type": "electric_scooter"}, {"fusion_lat": 0.0, "fusion_lon": 0.0, "rental_uris": {"android": "https://dc.lft.to/lastmile_qr_scan", "ios": "https://dc.lft.to/lastmile_qr_scan"}, "lon": -77.02168066666667, "name": "0892fed39f89ef54548d19ef097c5721", "is_disabled": 0, "is_reserved": 0, "bike_id": "0892fed39f89ef54548d19ef097c5721", "lat": 38.897272, "type": "electric_scooter"}, {"fusion_lat": 0.0, "fusion_lon": 0.0, "rental_uris": {"android": "https://dc.lft.to/lastmile_qr_scan", "ios": "https://dc.lft.to/lastmile_qr_scan"}, "lon": -77.0236905, "name": "fdab6df15c67be65c26bc6e860c5dad4", "is_disabled": 0, "is_reserved": 0, "bike_id": "fdab6df15c67be65c26bc6e860c5dad4", "lat": 38.906724, "type": "electric_scooter"}, {"fusion_lat": 0.0, "fusion_lon": 0.0, "rental_uris": {"android": "https://dc.lft.to/lastmile_qr_scan", "ios": "https://dc.lft.to/lastmile_qr_scan"}, "lon": -76.98570466666666, "name": "875432a7809fe744a7a223b176446b0d", "is_disabled": 0, "is_reserved": 0, "bike_id": "875432a7809fe744a7a223b176446b0d", "lat": 38.86677366666667, "type": "electric_scooter"}, {"fusion_lat": 0.0, "fusion_lon": 0.0, "rental_uris": {"android": "https://dc.lft.to/lastmile_qr_scan", "ios": "https://dc.lft.to/lastmile_qr_scan"}, "lon": -76.96334083333333, "name": "30cb9d15734b92aada168b3c0e793fef", "is_disabled": 0, "is_reserved": 0, "bike_id": "30cb9d15734b92aada168b3c0e793fef", "lat": 38.91864316666667, "type": "electric_scooter"}, {"fusion_lat": 0.0, "fusion_lon": 0.0, "rental_uris": {"android": "https://dc.lft.to/lastmile_qr_scan", "ios": "https://dc.lft.to/lastmile_qr_scan"}, "lon": -77.0355875, "name": "47e465fe69fe1474e53ae9ce70117b6c", "is_disabled": 0, "is_reserved": 0, "bike_id": "47e465fe69fe1474e53ae9ce70117b6c", "lat": 38.90847316666667, "type": "electric_scooter"}, {"fusion_lat": 0.0, "fusion_lon": 0.0, "rental_uris": {"android": "https://dc.lft.to/lastmile_qr_scan", "ios": "https://dc.lft.to/lastmile_qr_scan"}, "lon": -77.03851966666667, "name": "40a5296daf2a05330c96359b1f05195a", "is_disabled": 0, "is_reserved": 0, "bike_id": "40a5296daf2a05330c96359b1f05195a", "lat": 38.9025495, "type": "electric_scooter"}, {"fusion_lat": 0.0, "fusion_lon": 0.0, "rental_uris": {"android": "https://dc.lft.to/lastmile_qr_scan", "ios": "https://dc.lft.to/lastmile_qr_scan"}, "lon": -77.00336783333333, "name": "f9854c52aa7b44e34271e165487c2ada", "is_disabled": 0, "is_reserved": 0, "bike_id": "f9854c52aa7b44e34271e165487c2ada", "lat": 38.8935205, "type": "electric_scooter"}, {"fusion_lat": 0.0, "fusion_lon": 0.0, "rental_uris": {"android": "https://dc.lft.to/lastmile_qr_scan", "ios": "https://dc.lft.to/lastmile_qr_scan"}, "lon": -77.01572483333334, "name": "1c96978e8163e8ed6cd6a0a78ea3ed94", "is_disabled": 0, "is_reserved": 0, "bike_id": "1c96978e8163e8ed6cd6a0a78ea3ed94", "lat": 38.926832166666664, "type": "electric_scooter"}, {"fusion_lat": 0.0, "fusion_lon": 0.0, "rental_uris": {"android": "https://dc.lft.to/lastmile_qr_scan", "ios": "https://dc.lft.to/lastmile_qr_scan"}, "lon": -76.98719733333333, "name": "b9928c21bb55b472c171875a4fee9cd8", "is_disabled": 0, "is_reserved": 0, "bike_id": "b9928c21bb55b472c171875a4fee9cd8", "lat": 38.86627816666667, "type": "electric_scooter"}, {"fusion_lat": 0.0, "fusion_lon": 0.0, "rental_uris": {"android": "https://dc.lft.to/lastmile_qr_scan", "ios": "https://dc.lft.to/lastmile_qr_scan"}, "lon": -76.98655966666666, "name": "623e6eae0d00987e1beb5313b3b517f9", "is_disabled": 0, "is_reserved": 0, "bike_id": "623e6eae0d00987e1beb5313b3b517f9", "lat": 38.85804783333333, "type": "electric_scooter"}, {"fusion_lat": 0.0, "fusion_lon": 0.0, "rental_uris": {"android": "https://dc.lft.to/lastmile_qr_scan", "ios": "https://dc.lft.to/lastmile_qr_scan"}, "lon": -77.0214825, "name": "9ec93e1bde68fb73d6313ed92da83ccb", "is_disabled": 0, "is_reserved": 0, "bike_id": "9ec93e1bde68fb73d6313ed92da83ccb", "lat": 38.92337116666667, "type": "electric_scooter"}, {"fusion_lat": 0.0, "fusion_lon": 0.0, "rental_uris": {"android": "https://dc.lft.to/lastmile_qr_scan", "ios": "https://dc.lft.to/lastmile_qr_scan"}, "lon": -77.00760583333333, "name": "ca8be90a35301dfbaea34efca5a6d298", "is_disabled": 0, "is_reserved": 0, "bike_id": "ca8be90a35301dfbaea34efca5a6d298", "lat": 38.89594816666666, "type": "electric_scooter"}, {"fusion_lat": 0.0, "fusion_lon": 0.0, "rental_uris": {"android": "https://dc.lft.to/lastmile_qr_scan", "ios": "https://dc.lft.to/lastmile_qr_scan"}, "lon": -76.98715733333333, "name": "eb73c2dc6c2c3650f0ae22e7aa0927ea", "is_disabled": 0, "is_reserved": 0, "bike_id": "eb73c2dc6c2c3650f0ae22e7aa0927ea", "lat": 38.86619866666667, "type": "electric_scooter"}, {"fusion_lat": 0.0, "fusion_lon": 0.0, "rental_uris": {"android": "https://dc.lft.to/lastmile_qr_scan", "ios": "https://dc.lft.to/lastmile_qr_scan"}, "lon": -77.04195466666667, "name": "4ee8594ec818eb674913117549ec4d5b", "is_disabled": 0, "is_reserved": 0, "bike_id": "4ee8594ec818eb674913117549ec4d5b", "lat": 38.92062083333333, "type": "electric_scooter"}, {"fusion_lat": 0.0, "fusion_lon": 0.0, "rental_uris": {"android": "https://dc.lft.to/lastmile_qr_scan", "ios": "https://dc.lft.to/lastmile_qr_scan"}, "lon": -77.01370616666667, "name": "c35dd168bc8bbf0e6890714498d69c18", "is_disabled": 0, "is_reserved": 0, "bike_id": "c35dd168bc8bbf0e6890714498d69c18", "lat": 38.886359166666665, "type": "electric_scooter"}, {"fusion_lat": 0.0, "fusion_lon": 0.0, "rental_uris": {"android": "https://dc.lft.to/lastmile_qr_scan", "ios": "https://dc.lft.to/lastmile_qr_scan"}, "lon": -77.02629716666667, "name": "720ab6f2a990bc51bdeb949e87bbfcc4", "is_disabled": 0, "is_reserved": 0, "bike_id": "720ab6f2a990bc51bdeb949e87bbfcc4", "lat": 38.88768016666667, "type": "electric_scooter"}, {"fusion_lat": 0.0, "fusion_lon": 0.0, "rental_uris": {"android": "https://dc.lft.to/lastmile_qr_scan", "ios": "https://dc.lft.to/lastmile_qr_scan"}, "lon": -77.039622, "name": "6f3cd01e2e9e1dbd4e0b88b1f5d06e95", "is_disabled": 0, "is_reserved": 0, "bike_id": "6f3cd01e2e9e1dbd4e0b88b1f5d06e95", "lat": 38.9083295, "type": "electric_scooter"}, {"fusion_lat": 0.0, "fusion_lon": 0.0, "rental_uris": {"android": "https://dc.lft.to/lastmile_qr_scan", "ios": "https://dc.lft.to/lastmile_qr_scan"}, "lon": -77.05045483333333, "name": "f6b16b8a3f32fc326e8e737eaa6a363b", "is_disabled": 0, "is_reserved": 0, "bike_id": "f6b16b8a3f32fc326e8e737eaa6a363b", "lat": 38.92355216666667, "type": "electric_scooter"}, {"fusion_lat": 0.0, "fusion_lon": 0.0, "rental_uris": {"android": "https://dc.lft.to/lastmile_qr_scan", "ios": "https://dc.lft.to/lastmile_qr_scan"}, "lon": -77.03327433333334, "name": "8164e2da989c7b34ed3508a8c31dabe4", "is_disabled": 0, "is_reserved": 0, "bike_id": "8164e2da989c7b34ed3508a8c31dabe4", "lat": 38.89259083333334, "type": "electric_scooter"}, {"fusion_lat": 0.0, "fusion_lon": 0.0, "rental_uris": {"android": "https://dc.lft.to/lastmile_qr_scan", "ios": "https://dc.lft.to/lastmile_qr_scan"}, "lon": -77.03239766666667, "name": "03e336768fe7cd53ba4027cfc9d4758a", "is_disabled": 0, "is_reserved": 0, "bike_id": "03e336768fe7cd53ba4027cfc9d4758a", "lat": 38.927254166666664, "type": "electric_scooter"}, {"fusion_lat": 0.0, "fusion_lon": 0.0, "rental_uris": {"android": "https://dc.lft.to/lastmile_qr_scan", "ios": "https://dc.lft.to/lastmile_qr_scan"}, "lon": -76.94260233333333, "name": "ae70bc8888370d1bea1092d214c3b26c", "is_disabled": 0, "is_reserved": 0, "bike_id": "ae70bc8888370d1bea1092d214c3b26c", "lat": 38.897345333333334, "type": "electric_bike"}, {"fusion_lat": 0.0, "fusion_lon": 0.0, "rental_uris": {"android": "https://dc.lft.to/lastmile_qr_scan", "ios": "https://dc.lft.to/lastmile_qr_scan"}, "lon": -77.02168433333334, "name": "c2a79b770344377b45885f4bf72b337f", "is_disabled": 0, "is_reserved": 0, "bike_id": "c2a79b770344377b45885f4bf72b337f", "lat": 38.8970165, "type": "electric_scooter"}, {"fusion_lat": 0.0, "fusion_lon": 0.0, "rental_uris": {"android": "https://dc.lft.to/lastmile_qr_scan", "ios": "https://dc.lft.to/lastmile_qr_scan"}, "lon": -77.03948033333333, "name": "11554b76321204a9cab42d4d38aa898e", "is_disabled": 0, "is_reserved": 0, "bike_id": "11554b76321204a9cab42d4d38aa898e", "lat": 38.898480666666664, "type": "electric_scooter"}, {"fusion_lat": 0.0, "fusion_lon": 0.0, "rental_uris": {"android": "https://dc.lft.to/lastmile_qr_scan", "ios": "https://dc.lft.to/lastmile_qr_scan"}, "lon": -77.03218216666667, "name": "f41191783eb5d2aab6b33ca37ced846a", "is_disabled": 0, "is_reserved": 0, "bike_id": "f41191783eb5d2aab6b33ca37ced846a", "lat": 38.899133, "type": "electric_scooter"}, {"fusion_lat": 0.0, "fusion_lon": 0.0, "rental_uris": {"android": "https://dc.lft.to/lastmile_qr_scan", "ios": "https://dc.lft.to/lastmile_qr_scan"}, "lon": -77.02202966666667, "name": "cef90bb9b1dc072d438e6c0dcf7cf69b", "is_disabled": 0, "is_reserved": 0, "bike_id": "cef90bb9b1dc072d438e6c0dcf7cf69b", "lat": 38.895855166666664, "type": "electric_scooter"}, {"fusion_lat": 0.0, "fusion_lon": 0.0, "rental_uris": {"android": "https://dc.lft.to/lastmile_qr_scan", "ios": "https://dc.lft.to/lastmile_qr_scan"}, "lon": -77.07272933333333, "name": "bdd8f5840df56597a7fb5dcf6e2cebac", "is_disabled": 0, "is_reserved": 0, "bike_id": "bdd8f5840df56597a7fb5dcf6e2cebac", "lat": 38.90901916666667, "type": "electric_scooter"}, {"fusion_lat": 0.0, "fusion_lon": 0.0, "rental_uris": {"android": "https://dc.lft.to/lastmile_qr_scan", "ios": "https://dc.lft.to/lastmile_qr_scan"}, "lon": -77.02646283333333, "name": "e4381129f1730011257604d7cfd1b746", "is_disabled": 0, "is_reserved": 0, "bike_id": "e4381129f1730011257604d7cfd1b746", "lat": 38.994212, "type": "electric_bike"}, {"fusion_lat": 0.0, "fusion_lon": 0.0, "rental_uris": {"android": "https://dc.lft.to/lastmile_qr_scan", "ios": "https://dc.lft.to/lastmile_qr_scan"}, "lon": -77.03204533333333, "name": "ab076f9f524bb45641a4423a28db0109", "is_disabled": 0, "is_reserved": 0, "bike_id": "ab076f9f524bb45641a4423a28db0109", "lat": 38.913243, "type": "electric_scooter"}, {"fusion_lat": 0.0, "fusion_lon": 0.0, "rental_uris": {"android": "https://dc.lft.to/lastmile_qr_scan", "ios": "https://dc.lft.to/lastmile_qr_scan"}, "lon": -77.03284283333333, "name": "675234eccb8030a28c69ab66bb16fc4d", "is_disabled": 0, "is_reserved": 0, "bike_id": "675234eccb8030a28c69ab66bb16fc4d", "lat": 38.934362166666666, "type": "electric_scooter"}, {"fusion_lat": 0.0, "fusion_lon": 0.0, "rental_uris": {"android": "https://dc.lft.to/lastmile_qr_scan", "ios": "https://dc.lft.to/lastmile_qr_scan"}, "lon": -77.0165265, "name": "986d2887a39113afefa176be1a02d384", "is_disabled": 0, "is_reserved": 0, "bike_id": "986d2887a39113afefa176be1a02d384", "lat": 38.881134833333334, "type": "electric_scooter"}, {"fusion_lat": 0.0, "fusion_lon": 0.0, "rental_uris": {"android": "https://dc.lft.to/lastmile_qr_scan", "ios": "https://dc.lft.to/lastmile_qr_scan"}, "lon": -77.0241115, "name": "bf385008683f1b0ae8ac00c850e1554d", "is_disabled": 0, "is_reserved": 0, "bike_id": "bf385008683f1b0ae8ac00c850e1554d", "lat": 38.94178616666667, "type": "electric_scooter"}, {"fusion_lat": 0.0, "fusion_lon": 0.0, "rental_uris": {"android": "https://dc.lft.to/lastmile_qr_scan", "ios": "https://dc.lft.to/lastmile_qr_scan"}, "lon": -77.04169416666667, "name": "ac4e0e7b6a66ab906fc71fcf026ab4c9", "is_disabled": 0, "is_reserved": 0, "bike_id": "ac4e0e7b6a66ab906fc71fcf026ab4c9", "lat": 38.89554066666667, "type": "electric_scooter"}, {"fusion_lat": 0.0, "fusion_lon": 0.0, "rental_uris": {"android": "https://dc.lft.to/lastmile_qr_scan", "ios": "https://dc.lft.to/lastmile_qr_scan"}, "lon": -77.027092, "name": "c701916d17b4f48e296c314a5ce4912a", "is_disabled": 0, "is_reserved": 0, "bike_id": "c701916d17b4f48e296c314a5ce4912a", "lat": 38.89814766666667, "type": "electric_scooter"}, {"fusion_lat": 0.0, "fusion_lon": 0.0, "rental_uris": {"android": "https://dc.lft.to/lastmile_qr_scan", "ios": "https://dc.lft.to/lastmile_qr_scan"}, "lon": -77.05177133333333, "name": "e904187c0c2ca8a2fb0453e1351df77f", "is_disabled": 0, "is_reserved": 0, "bike_id": "e904187c0c2ca8a2fb0453e1351df77f", "lat": 38.924217166666665, "type": "electric_scooter"}, {"fusion_lat": 0.0, "fusion_lon": 0.0, "rental_uris": {"android": "https://dc.lft.to/lastmile_qr_scan", "ios": "https://dc.lft.to/lastmile_qr_scan"}, "lon": -77.03432283333333, "name": "37a573314b1c981af2b66a2e7c930404", "is_disabled": 0, "is_reserved": 0, "bike_id": "37a573314b1c981af2b66a2e7c930404", "lat": 38.902886, "type": "electric_scooter"}, {"fusion_lat": 0.0, "fusion_lon": 0.0, "rental_uris": {"android": "https://dc.lft.to/lastmile_qr_scan", "ios": "https://dc.lft.to/lastmile_qr_scan"}, "lon": -77.01433783333333, "name": "4afdbbf5e95ebf23d3427fbe48e64ae9", "is_disabled": 0, "is_reserved": 0, "bike_id": "4afdbbf5e95ebf23d3427fbe48e64ae9", "lat": 38.914663166666664, "type": "electric_scooter"}, {"fusion_lat": 0.0, "fusion_lon": 0.0, "rental_uris": {"android": "https://dc.lft.to/lastmile_qr_scan", "ios": "https://dc.lft.to/lastmile_qr_scan"}, "lon": -77.04857683333333, "name": "a317cf38f53018be0445065907d7fde7", "is_disabled": 0, "is_reserved": 0, "bike_id": "a317cf38f53018be0445065907d7fde7", "lat": 38.91520583333333, "type": "electric_scooter"}, {"fusion_lat": 0.0, "fusion_lon": 0.0, "rental_uris": {"android": "https://dc.lft.to/lastmile_qr_scan", "ios": "https://dc.lft.to/lastmile_qr_scan"}, "lon": -76.983348, "name": "38504e2e2fcb0549d06d275e4a22b4d6", "is_disabled": 0, "is_reserved": 0, "bike_id": "38504e2e2fcb0549d06d275e4a22b4d6", "lat": 38.86562266666667, "type": "electric_scooter"}, {"fusion_lat": 0.0, "fusion_lon": 0.0, "rental_uris": {"android": "https://dc.lft.to/lastmile_qr_scan", "ios": "https://dc.lft.to/lastmile_qr_scan"}, "lon": -77.07752083333334, "name": "61357e778dc4bab75851e1136d53c7e2", "is_disabled": 0, "is_reserved": 0, "bike_id": "61357e778dc4bab75851e1136d53c7e2", "lat": 38.919993166666664, "type": "electric_scooter"}, {"fusion_lat": 0.0, "fusion_lon": 0.0, "rental_uris": {"android": "https://dc.lft.to/lastmile_qr_scan", "ios": "https://dc.lft.to/lastmile_qr_scan"}, "lon": -77.046948, "name": "ec38a5726e14021e718e0826999415ee", "is_disabled": 0, "is_reserved": 0, "bike_id": "ec38a5726e14021e718e0826999415ee", "lat": 38.892258166666664, "type": "electric_scooter"}, {"fusion_lat": 0.0, "fusion_lon": 0.0, "rental_uris": {"android": "https://dc.lft.to/lastmile_qr_scan", "ios": "https://dc.lft.to/lastmile_qr_scan"}, "lon": -77.02526533333334, "name": "f2590ff8623ba696fd6d09d0933ff959", "is_disabled": 0, "is_reserved": 0, "bike_id": "f2590ff8623ba696fd6d09d0933ff959", "lat": 38.922952333333335, "type": "electric_scooter"}, {"fusion_lat": 0.0, "fusion_lon": 0.0, "rental_uris": {"android": "https://dc.lft.to/lastmile_qr_scan", "ios": "https://dc.lft.to/lastmile_qr_scan"}, "lon": -77.01477683333333, "name": "a35cd4a053eb9be3ae2bf007f76e71a6", "is_disabled": 0, "is_reserved": 0, "bike_id": "a35cd4a053eb9be3ae2bf007f76e71a6", "lat": 38.91871966666667, "type": "electric_scooter"}, {"fusion_lat": 0.0, "fusion_lon": 0.0, "rental_uris": {"android": "https://dc.lft.to/lastmile_qr_scan", "ios": "https://dc.lft.to/lastmile_qr_scan"}, "lon": -77.03239533333333, "name": "96cf8e5750b32eb08fc6b504d19e940e", "is_disabled": 0, "is_reserved": 0, "bike_id": "96cf8e5750b32eb08fc6b504d19e940e", "lat": 38.927238333333335, "type": "electric_scooter"}, {"fusion_lat": 0.0, "fusion_lon": 0.0, "rental_uris": {"android": "https://dc.lft.to/lastmile_qr_scan", "ios": "https://dc.lft.to/lastmile_qr_scan"}, "lon": -77.031425, "name": "b2468feaefd170b682f29c8498aa595e", "is_disabled": 0, "is_reserved": 0, "bike_id": "b2468feaefd170b682f29c8498aa595e", "lat": 38.941759, "type": "electric_scooter"}, {"fusion_lat": 0.0, "fusion_lon": 0.0, "rental_uris": {"android": "https://dc.lft.to/lastmile_qr_scan", "ios": "https://dc.lft.to/lastmile_qr_scan"}, "lon": -77.0317585, "name": "c9f761e06577c5daa2a775f362dff14e", "is_disabled": 0, "is_reserved": 0, "bike_id": "c9f761e06577c5daa2a775f362dff14e", "lat": 38.914144666666665, "type": "electric_scooter"}, {"fusion_lat": 0.0, "fusion_lon": 0.0, "rental_uris": {"android": "https://dc.lft.to/lastmile_qr_scan", "ios": "https://dc.lft.to/lastmile_qr_scan"}, "lon": -77.03429766666666, "name": "4a446dc129903ffe3fdfb31e007f11b1", "is_disabled": 0, "is_reserved": 0, "bike_id": "4a446dc129903ffe3fdfb31e007f11b1", "lat": 38.9015725, "type": "electric_scooter"}, {"fusion_lat": 0.0, "fusion_lon": 0.0, "rental_uris": {"android": "https://dc.lft.to/lastmile_qr_scan", "ios": "https://dc.lft.to/lastmile_qr_scan"}, "lon": -77.03356166666667, "name": "7d878650a6e0a74659ce086dcfcb4990", "is_disabled": 0, "is_reserved": 0, "bike_id": "7d878650a6e0a74659ce086dcfcb4990", "lat": 38.927573833333334, "type": "electric_scooter"}, {"fusion_lat": 0.0, "fusion_lon": 0.0, "rental_uris": {"android": "https://dc.lft.to/lastmile_qr_scan", "ios": "https://dc.lft.to/lastmile_qr_scan"}, "lon": -77.0468805, "name": "06fa268558cc791fcabd4a21513bb134", "is_disabled": 0, "is_reserved": 0, "bike_id": "06fa268558cc791fcabd4a21513bb134", "lat": 38.89222316666667, "type": "electric_scooter"}, {"fusion_lat": 0.0, "fusion_lon": 0.0, "rental_uris": {"android": "https://dc.lft.to/lastmile_qr_scan", "ios": "https://dc.lft.to/lastmile_qr_scan"}, "lon": -77.02212616666667, "name": "fb07a8f56c88e32a954f7b136ffd11f9", "is_disabled": 0, "is_reserved": 0, "bike_id": "fb07a8f56c88e32a954f7b136ffd11f9", "lat": 38.89577533333333, "type": "electric_scooter"}, {"fusion_lat": 0.0, "fusion_lon": 0.0, "rental_uris": {"android": "https://dc.lft.to/lastmile_qr_scan", "ios": "https://dc.lft.to/lastmile_qr_scan"}, "lon": -76.94724183333334, "name": "0b2771ec5a4c6ff7c90c35ed4da54d5f", "is_disabled": 0, "is_reserved": 0, "bike_id": "0b2771ec5a4c6ff7c90c35ed4da54d5f", "lat": 38.89735183333333, "type": "electric_scooter"}, {"fusion_lat": 0.0, "fusion_lon": 0.0, "rental_uris": {"android": "https://dc.lft.to/lastmile_qr_scan", "ios": "https://dc.lft.to/lastmile_qr_scan"}, "lon": -77.047013, "name": "bf39e5c679ae436764941ea366320720", "is_disabled": 0, "is_reserved": 0, "bike_id": "bf39e5c679ae436764941ea366320720", "lat": 38.905939833333335, "type": "electric_scooter"}, {"fusion_lat": 0.0, "fusion_lon": 0.0, "rental_uris": {"android": "https://dc.lft.to/lastmile_qr_scan", "ios": "https://dc.lft.to/lastmile_qr_scan"}, "lon": -77.039845, "name": "886010b1859f6edc2717b135ded33f70", "is_disabled": 0, "is_reserved": 0, "bike_id": "886010b1859f6edc2717b135ded33f70", "lat": 38.923104333333335, "type": "electric_scooter"}, {"fusion_lat": 0.0, "fusion_lon": 0.0, "rental_uris": {"android": "https://dc.lft.to/lastmile_qr_scan", "ios": "https://dc.lft.to/lastmile_qr_scan"}, "lon": -77.01510266666666, "name": "c956bd1a5a7718d035d075eb451b33fa", "is_disabled": 0, "is_reserved": 0, "bike_id": "c956bd1a5a7718d035d075eb451b33fa", "lat": 38.9129585, "type": "electric_scooter"}, {"fusion_lat": 0.0, "fusion_lon": 0.0, "rental_uris": {"android": "https://dc.lft.to/lastmile_qr_scan", "ios": "https://dc.lft.to/lastmile_qr_scan"}, "lon": -77.03213683333334, "name": "11ad56655c4660878dd03456ee20ea99", "is_disabled": 0, "is_reserved": 0, "bike_id": "11ad56655c4660878dd03456ee20ea99", "lat": 38.91852266666667, "type": "electric_scooter"}, {"fusion_lat": 0.0, "fusion_lon": 0.0, "rental_uris": {"android": "https://dc.lft.to/lastmile_qr_scan", "ios": "https://dc.lft.to/lastmile_qr_scan"}, "lon": -77.0384805, "name": "e681a1f6b5dfd2abe02f44b0daaf4fd5", "is_disabled": 0, "is_reserved": 0, "bike_id": "e681a1f6b5dfd2abe02f44b0daaf4fd5", "lat": 38.911355666666665, "type": "electric_scooter"}, {"fusion_lat": 0.0, "fusion_lon": 0.0, "rental_uris": {"android": "https://dc.lft.to/lastmile_qr_scan", "ios": "https://dc.lft.to/lastmile_qr_scan"}, "lon": -77.01741766666666, "name": "af801765182baf83c14c06b574aee214", "is_disabled": 0, "is_reserved": 0, "bike_id": "af801765182baf83c14c06b574aee214", "lat": 38.902637, "type": "electric_scooter"}, {"fusion_lat": 0.0, "fusion_lon": 0.0, "rental_uris": {"android": "https://dc.lft.to/lastmile_qr_scan", "ios": "https://dc.lft.to/lastmile_qr_scan"}, "lon": -76.99987033333333, "name": "c78d44226192dc61984b6ed2aaabd4f2", "is_disabled": 0, "is_reserved": 0, "bike_id": "c78d44226192dc61984b6ed2aaabd4f2", "lat": 38.9640445, "type": "electric_bike"}, {"fusion_lat": 0.0, "fusion_lon": 0.0, "rental_uris": {"android": "https://dc.lft.to/lastmile_qr_scan", "ios": "https://dc.lft.to/lastmile_qr_scan"}, "lon": -77.02096116666667, "name": "7d0f9206c30d9085c8d10208d4237e32", "is_disabled": 0, "is_reserved": 0, "bike_id": "7d0f9206c30d9085c8d10208d4237e32", "lat": 38.9271145, "type": "electric_scooter"}, {"fusion_lat": 0.0, "fusion_lon": 0.0, "rental_uris": {"android": "https://dc.lft.to/lastmile_qr_scan", "ios": "https://dc.lft.to/lastmile_qr_scan"}, "lon": -77.046576, "name": "a9f937e603d6e30931bba582efa137fb", "is_disabled": 0, "is_reserved": 0, "bike_id": "a9f937e603d6e30931bba582efa137fb", "lat": 38.895058, "type": "electric_scooter"}, {"fusion_lat": 0.0, "fusion_lon": 0.0, "rental_uris": {"android": "https://dc.lft.to/lastmile_qr_scan", "ios": "https://dc.lft.to/lastmile_qr_scan"}, "lon": -76.96900433333333, "name": "05fb7bde44fbb4737574c595b734f37e", "is_disabled": 0, "is_reserved": 0, "bike_id": "05fb7bde44fbb4737574c595b734f37e", "lat": 38.959934, "type": "electric_bike"}, {"fusion_lat": 0.0, "fusion_lon": 0.0, "rental_uris": {"android": "https://dc.lft.to/lastmile_qr_scan", "ios": "https://dc.lft.to/lastmile_qr_scan"}, "lon": -77.04331333333333, "name": "c6620cd0454300d641bb4ee16201d0a0", "is_disabled": 0, "is_reserved": 0, "bike_id": "c6620cd0454300d641bb4ee16201d0a0", "lat": 38.90046666666667, "type": "electric_scooter"}, {"fusion_lat": 0.0, "fusion_lon": 0.0, "rental_uris": {"android": "https://dc.lft.to/lastmile_qr_scan", "ios": "https://dc.lft.to/lastmile_qr_scan"}, "lon": -77.04086666666667, "name": "8209e18d19f0e0dbcd2626257ef9d42c", "is_disabled": 0, "is_reserved": 0, "bike_id": "8209e18d19f0e0dbcd2626257ef9d42c", "lat": 38.903811, "type": "electric_scooter"}, {"fusion_lat": 0.0, "fusion_lon": 0.0, "rental_uris": {"android": "https://dc.lft.to/lastmile_qr_scan", "ios": "https://dc.lft.to/lastmile_qr_scan"}, "lon": -77.0201825, "name": "19fcaee25c63c6d537b96f7ab98a4911", "is_disabled": 0, "is_reserved": 0, "bike_id": "19fcaee25c63c6d537b96f7ab98a4911", "lat": 38.90347216666667, "type": "electric_scooter"}, {"fusion_lat": 0.0, "fusion_lon": 0.0, "rental_uris": {"android": "https://dc.lft.to/lastmile_qr_scan", "ios": "https://dc.lft.to/lastmile_qr_scan"}, "lon": -77.00579016666667, "name": "d8224f674e4924960a6dda26a0c9a20b", "is_disabled": 0, "is_reserved": 0, "bike_id": "d8224f674e4924960a6dda26a0c9a20b", "lat": 38.92940766666667, "type": "electric_scooter"}, {"fusion_lat": 0.0, "fusion_lon": 0.0, "rental_uris": {"android": "https://dc.lft.to/lastmile_qr_scan", "ios": "https://dc.lft.to/lastmile_qr_scan"}, "lon": -77.08656733333333, "name": "014d197548f628a3829a9c1b8c92299d", "is_disabled": 0, "is_reserved": 0, "bike_id": "014d197548f628a3829a9c1b8c92299d", "lat": 38.86245666666667, "type": "electric_bike"}, {"fusion_lat": 0.0, "fusion_lon": 0.0, "rental_uris": {"android": "https://dc.lft.to/lastmile_qr_scan", "ios": "https://dc.lft.to/lastmile_qr_scan"}, "lon": -77.00183933333334, "name": "74b868ad16ed43874b404c3ee1d18fb3", "is_disabled": 0, "is_reserved": 0, "bike_id": "74b868ad16ed43874b404c3ee1d18fb3", "lat": 38.8766385, "type": "electric_scooter"}, {"fusion_lat": 0.0, "fusion_lon": 0.0, "rental_uris": {"android": "https://dc.lft.to/lastmile_qr_scan", "ios": "https://dc.lft.to/lastmile_qr_scan"}, "lon": -77.0087055, "name": "6fe4e6a33b0a01c1998240f41f5fa892", "is_disabled": 0, "is_reserved": 0, "bike_id": "6fe4e6a33b0a01c1998240f41f5fa892", "lat": 38.9646025, "type": "electric_bike"}, {"fusion_lat": 0.0, "fusion_lon": 0.0, "rental_uris": {"android": "https://dc.lft.to/lastmile_qr_scan", "ios": "https://dc.lft.to/lastmile_qr_scan"}, "lon": -77.02409183333333, "name": "8f9522b64d89ed2bcc67bae361a77374", "is_disabled": 0, "is_reserved": 0, "bike_id": "8f9522b64d89ed2bcc67bae361a77374", "lat": 38.89693583333333, "type": "electric_scooter"}, {"fusion_lat": 0.0, "fusion_lon": 0.0, "rental_uris": {"android": "https://dc.lft.to/lastmile_qr_scan", "ios": "https://dc.lft.to/lastmile_qr_scan"}, "lon": -77.03641566666667, "name": "44aa1667374a90558615062a75b9de37", "is_disabled": 0, "is_reserved": 0, "bike_id": "44aa1667374a90558615062a75b9de37", "lat": 38.91732, "type": "electric_scooter"}, {"fusion_lat": 0.0, "fusion_lon": 0.0, "rental_uris": {"android": "https://dc.lft.to/lastmile_qr_scan", "ios": "https://dc.lft.to/lastmile_qr_scan"}, "lon": -76.957567, "name": "6b747ba5c0c0bb09ffdb87ae5111abce", "is_disabled": 0, "is_reserved": 0, "bike_id": "6b747ba5c0c0bb09ffdb87ae5111abce", "lat": 38.884231166666666, "type": "electric_scooter"}, {"fusion_lat": 0.0, "fusion_lon": 0.0, "rental_uris": {"android": "https://dc.lft.to/lastmile_qr_scan", "ios": "https://dc.lft.to/lastmile_qr_scan"}, "lon": -77.08920916666666, "name": "19b0f6a89f4d0de60f3f35eb7450fc02", "is_disabled": 0, "is_reserved": 0, "bike_id": "19b0f6a89f4d0de60f3f35eb7450fc02", "lat": 38.86337533333333, "type": "electric_bike"}, {"fusion_lat": 0.0, "fusion_lon": 0.0, "rental_uris": {"android": "https://dc.lft.to/lastmile_qr_scan", "ios": "https://dc.lft.to/lastmile_qr_scan"}, "lon": -76.99800316666666, "name": "c90e62ec2a3bba37a8c3248d0630adf6", "is_disabled": 0, "is_reserved": 0, "bike_id": "c90e62ec2a3bba37a8c3248d0630adf6", "lat": 38.9508525, "type": "electric_bike"}, {"fusion_lat": 0.0, "fusion_lon": 0.0, "rental_uris": {"android": "https://dc.lft.to/lastmile_qr_scan", "ios": "https://dc.lft.to/lastmile_qr_scan"}, "lon": -77.040163, "name": "7623e9bafd9bf9d6d58bec9f289f1f12", "is_disabled": 0, "is_reserved": 0, "bike_id": "7623e9bafd9bf9d6d58bec9f289f1f12", "lat": 38.924486, "type": "electric_scooter"}, {"fusion_lat": 0.0, "fusion_lon": 0.0, "rental_uris": {"android": "https://dc.lft.to/lastmile_qr_scan", "ios": "https://dc.lft.to/lastmile_qr_scan"}, "lon": -77.0417555, "name": "772164460bc6341134444056ad8be979", "is_disabled": 0, "is_reserved": 0, "bike_id": "772164460bc6341134444056ad8be979", "lat": 38.91392716666667, "type": "electric_scooter"}, {"fusion_lat": 0.0, "fusion_lon": 0.0, "rental_uris": {"android": "https://dc.lft.to/lastmile_qr_scan", "ios": "https://dc.lft.to/lastmile_qr_scan"}, "lon": -77.03589266666667, "name": "6e6ae8599d66ae2fc055339e60d89320", "is_disabled": 0, "is_reserved": 0, "bike_id": "6e6ae8599d66ae2fc055339e60d89320", "lat": 38.9367125, "type": "electric_scooter"}, {"fusion_lat": 0.0, "fusion_lon": 0.0, "rental_uris": {"android": "https://dc.lft.to/lastmile_qr_scan", "ios": "https://dc.lft.to/lastmile_qr_scan"}, "lon": -76.9906425, "name": "096bc56d70cc71dfc5495ff508a407eb", "is_disabled": 0, "is_reserved": 0, "bike_id": "096bc56d70cc71dfc5495ff508a407eb", "lat": 38.898097, "type": "electric_bike"}, {"fusion_lat": 0.0, "fusion_lon": 0.0, "rental_uris": {"android": "https://dc.lft.to/lastmile_qr_scan", "ios": "https://dc.lft.to/lastmile_qr_scan"}, "lon": -77.041472, "name": "70e64b618e7f2477491d55d54acc6fd9", "is_disabled": 0, "is_reserved": 0, "bike_id": "70e64b618e7f2477491d55d54acc6fd9", "lat": 38.919661166666664, "type": "electric_scooter"}, {"fusion_lat": 0.0, "fusion_lon": 0.0, "rental_uris": {"android": "https://dc.lft.to/lastmile_qr_scan", "ios": "https://dc.lft.to/lastmile_qr_scan"}, "lon": -76.94655083333333, "name": "8f1a4856a48f13223ea64ec8ec21aafc", "is_disabled": 0, "is_reserved": 0, "bike_id": "8f1a4856a48f13223ea64ec8ec21aafc", "lat": 38.898254, "type": "electric_scooter"}, {"fusion_lat": 0.0, "fusion_lon": 0.0, "rental_uris": {"android": "https://dc.lft.to/lastmile_qr_scan", "ios": "https://dc.lft.to/lastmile_qr_scan"}, "lon": -77.02969133333333, "name": "ac03c01b8151c1e5a37250ddc509e370", "is_disabled": 0, "is_reserved": 0, "bike_id": "ac03c01b8151c1e5a37250ddc509e370", "lat": 38.922661, "type": "electric_scooter"}, {"fusion_lat": 0.0, "fusion_lon": 0.0, "rental_uris": {"android": "https://dc.lft.to/lastmile_qr_scan", "ios": "https://dc.lft.to/lastmile_qr_scan"}, "lon": -77.02125333333333, "name": "35aa27f55da053915ee19514c6017040", "is_disabled": 0, "is_reserved": 0, "bike_id": "35aa27f55da053915ee19514c6017040", "lat": 38.9223275, "type": "electric_scooter"}, {"fusion_lat": 0.0, "fusion_lon": 0.0, "rental_uris": {"android": "https://dc.lft.to/lastmile_qr_scan", "ios": "https://dc.lft.to/lastmile_qr_scan"}, "lon": -77.03449666666667, "name": "4d3a67417eb135c2e53f4ff7b1664cfc", "is_disabled": 0, "is_reserved": 0, "bike_id": "4d3a67417eb135c2e53f4ff7b1664cfc", "lat": 38.9033395, "type": "electric_scooter"}, {"fusion_lat": 0.0, "fusion_lon": 0.0, "rental_uris": {"android": "https://dc.lft.to/lastmile_qr_scan", "ios": "https://dc.lft.to/lastmile_qr_scan"}, "lon": -76.973395, "name": "6abba4a8e5fa148886fac1f552ebf086", "is_disabled": 0, "is_reserved": 0, "bike_id": "6abba4a8e5fa148886fac1f552ebf086", "lat": 38.865053833333334, "type": "electric_scooter"}, {"fusion_lat": 0.0, "fusion_lon": 0.0, "rental_uris": {"android": "https://dc.lft.to/lastmile_qr_scan", "ios": "https://dc.lft.to/lastmile_qr_scan"}, "lon": -77.02306516666667, "name": "d5f232ce9e2aaa1152e674092aff01dd", "is_disabled": 0, "is_reserved": 0, "bike_id": "d5f232ce9e2aaa1152e674092aff01dd", "lat": 38.916089166666666, "type": "electric_scooter"}, {"fusion_lat": 0.0, "fusion_lon": 0.0, "rental_uris": {"android": "https://dc.lft.to/lastmile_qr_scan", "ios": "https://dc.lft.to/lastmile_qr_scan"}, "lon": -77.04365033333333, "name": "7d350e7832a405f94369d24973bfa3e3", "is_disabled": 0, "is_reserved": 0, "bike_id": "7d350e7832a405f94369d24973bfa3e3", "lat": 38.90129966666667, "type": "electric_scooter"}, {"fusion_lat": 0.0, "fusion_lon": 0.0, "rental_uris": {"android": "https://dc.lft.to/lastmile_qr_scan", "ios": "https://dc.lft.to/lastmile_qr_scan"}, "lon": -77.01370566666667, "name": "98cd5c4ca18b0d64563806b2dd510390", "is_disabled": 0, "is_reserved": 0, "bike_id": "98cd5c4ca18b0d64563806b2dd510390", "lat": 38.9191, "type": "electric_scooter"}, {"fusion_lat": 0.0, "fusion_lon": 0.0, "rental_uris": {"android": "https://dc.lft.to/lastmile_qr_scan", "ios": "https://dc.lft.to/lastmile_qr_scan"}, "lon": -76.98464333333334, "name": "dbe534d901df190b4071a280ea323ded", "is_disabled": 0, "is_reserved": 0, "bike_id": "dbe534d901df190b4071a280ea323ded", "lat": 38.90393183333333, "type": "electric_scooter"}, {"fusion_lat": 0.0, "fusion_lon": 0.0, "rental_uris": {"android": "https://dc.lft.to/lastmile_qr_scan", "ios": "https://dc.lft.to/lastmile_qr_scan"}, "lon": -77.043984, "name": "421c6c9c353fdc6afe062a1b8909e4c2", "is_disabled": 0, "is_reserved": 0, "bike_id": "421c6c9c353fdc6afe062a1b8909e4c2", "lat": 38.919138833333335, "type": "electric_scooter"},