{"data": {"bikes": [{"rental_uris": {"android": "https://dc.lft.to/lastmile_qr_scan", "ios": "https://dc.lft.to/lastmile_qr_scan"}, "is_reserved": 0, "is_disabled": 0, "name": "b5c979b6f0038abd0f902945bf02b16a", "bike_id": "b5c979b6f0038abd0f902945bf02b16a", "fusion_lat": 0.0, "lon": -76.98688216666666, "type": "electric_bike", "fusion_lon": 0.0, "lat": 38.944741}, {"rental_uris": {"android": "https://dc.lft.to/lastmile_qr_scan", "ios": "https://dc.lft.to/lastmile_qr_scan"}, "is_reserved": 0, "is_disabled": 0, "name": "b798680359bd1be3b8d85d3cf2625480", "bike_id": "b798680359bd1be3b8d85d3cf2625480", "fusion_lat": 0.0, "lon": -77.04694633333334, "type": "electric_scooter", "fusion_lon": 0.0, "lat": 38.89610966666667}, {"rental_uris": {"android": "https://dc.lft.to/lastmile_qr_scan", "ios": "https://dc.lft.to/lastmile_qr_scan"}, "is_reserved": 0, "is_disabled": 0, "name": "a97b7d2b6e9386b5c097ec17fb8198d5", "bike_id": "a97b7d2b6e9386b5c097ec17fb8198d5", "fusion_lat": 0.0, "lon": -77.06628116666667, "type": "electric_bike", "fusion_lon": 0.0, "lat": 38.9497385}, {"rental_uris": {"android": "https://dc.lft.to/lastmile_qr_scan", "ios": "https://dc.lft.to/lastmile_qr_scan"}, "is_reserved": 0, "is_disabled": 0, "name": "b2c0b2ce3ae20f76271cabbecb5b03a6", "bike_id": "b2c0b2ce3ae20f76271cabbecb5b03a6", "fusion_lat": 0.0, "lon": -77.02507683333333, "type": "electric_scooter", "fusion_lon": 0.0, "lat": 38.919276833333335}, {"rental_uris": {"android": "https://dc.lft.to/lastmile_qr_scan", "ios": "https://dc.lft.to/lastmile_qr_scan"}, "is_reserved": 0, "is_disabled": 0, "name": "3e767ba4ca73f4f51496bae90b14d12a", "bike_id": "3e767ba4ca73f4f51496bae90b14d12a", "fusion_lat": 0.0, "lon": -77.0286565, "type": "electric_scooter", "fusion_lon": 0.0, "lat": 38.9171365}, {"rental_uris": {"android": "https://dc.lft.to/lastmile_qr_scan", "ios": "https://dc.lft.to/lastmile_qr_scan"}, "is_reserved": 0, "is_disabled": 0, "name": "2e47d8611590361bd6bad79800b2153f", "bike_id": "2e47d8611590361bd6bad79800b2153f", "fusion_lat": 0.0, "lon": -77.01529133333334, "type": "electric_scooter", "fusion_lon": 0.0, "lat": 38.909457333333336}, {"rental_uris": {"android": "https://dc.lft.to/lastmile_qr_scan", "ios": "https://dc.lft.to/lastmile_qr_scan"}, "is_reserved": 0, "is_disabled": 0, "name": "f73c733348828aa45e09a73cdd556aab", "bike_id": "f73c733348828aa45e09a73cdd556aab", "fusion_lat": 0.0, "lon": -77.03384433333333, "type": "electric_scooter", "fusion_lon": 0.0, "lat": 38.90145283333333}, {"rental_uris": {"android": "https://dc.lft.to/lastmile_qr_scan", "ios": "https://dc.lft.to/lastmile_qr_scan"}, "is_reserved": 0, "is_disabled": 0, "name": "ab649f485055315f80b1159a36341589", "bike_id": "ab649f485055315f80b1159a36341589", "fusion_lat": 0.0, "lon": -77.02827366666666, "type": "electric_scooter", "fusion_lon": 0.0, "lat": 38.938835833333336}, {"rental_uris": {"android": "https://dc.lft.to/lastmile_qr_scan", "ios": "https://dc.lft.to/lastmile_qr_scan"}, "is_reserved": 0, "is_disabled": 0, "name": "d8dd2c27a8c33962c8fc1eddc5087c54", "bike_id": "d8dd2c27a8c33962c8fc1eddc5087c54", "fusion_lat": 0.0, "lon": -77.02438833333333, "type": "electric_scooter", "fusion_lon": 0.0, "lat": 38.918954166666666}, {"rental_uris": {"android": "https://dc.lft.to/lastmile_qr_scan", "ios": "https://dc.lft.to/lastmile_qr_scan"}, "is_reserved": 0, "is_disabled": 0, "name": "85e6d8bdc52fd29d4ac947afd9184a81", "bike_id": "85e6d8bdc52fd29d4ac947afd9184a81", "fusion_lat": 0.0, "lon": -77.01894266666666, "type": "electric_scooter", "fusion_lon": 0.0, "lat": 38.903613666666665}, {"rental_uris": {"android": "https://dc.lft.to/lastmile_qr_scan", "ios": "https://dc.lft.to/lastmile_qr_scan"}, "is_reserved": 0, "is_disabled": 0, "name": "e8d1451d629af6eda9d3869d9991efcf", "bike_id": "e8d1451d629af6eda9d3869d9991efcf", "fusion_lat": 0.0, "lon": -77.04007083333333, "type": "electric_scooter", "fusion_lon": 0.0, "lat": 38.90734666666667}, {"rental_uris": {"android": "https://dc.lft.to/lastmile_qr_scan", "ios": "https://dc.lft.to/lastmile_qr_scan"}, "is_reserved": 0, "is_disabled": 0, "name": "39b53321c4f5cc9e8c65df47f54cedaa", "bike_id": "39b53321c4f5cc9e8c65df47f54cedaa", "fusion_lat": 0.0, "lon": -77.0344045, "type": "electric_scooter", "fusion_lon": 0.0, "lat": 38.9180015}, {"rental_uris": {"android": "https://dc.lft.to/lastmile_qr_scan", "ios": "https://dc.lft.to/lastmile_qr_scan"}, "is_reserved": 0, "is_disabled": 0, "name": "88308fb7a7a9c363553246909bf05231", "bike_id": "88308fb7a7a9c363553246909bf05231", "fusion_lat": 0.0, "lon": -77.01868316666666, "type": "electric_scooter", "fusion_lon": 0.0, "lat": 38.92914583333334}, {"rental_uris": {"android": "https://dc.lft.to/lastmile_qr_scan", "ios": "https://dc.lft.to/lastmile_qr_scan"}, "is_reserved": 0, "is_disabled": 0, "name": "0b51f3422a2c33b1fae4177b29187bfa", "bike_id": "0b51f3422a2c33b1fae4177b29187bfa", "fusion_lat": 0.0, "lon": -77.02529333333334, "type": "electric_scooter", "fusion_lon": 0.0, "lat": 38.9065425}, {"rental_uris": {"android": "https://dc.lft.to/lastmile_qr_scan", "ios": "https://dc.lft.to/lastmile_qr_scan"}, "is_reserved": 0, "is_disabled": 0, "name": "f86c0c78418b9f103856aa6c8ef05ad9", "bike_id": "f86c0c78418b9f103856aa6c8ef05ad9", "fusion_lat": 0.0, "lon": -77.02124, "type": "electric_scooter", "fusion_lon": 0.0, "lat": 38.923750166666665}, {"rental_uris": {"android": "https://dc.lft.to/lastmile_qr_scan", "ios": "https://dc.lft.to/lastmile_qr_scan"}, "is_reserved": 0, "is_disabled": 0, "name": "b14a6d6d26b8d2143ac72ad6e87594a3", "bike_id": "b14a6d6d26b8d2143ac72ad6e87594a3", "fusion_lat": 0.0, "lon": -77.04686283333334, "type": "electric_scooter", "fusion_lon": 0.0, "lat": 38.899665}, {"rental_uris": {"android": "https://dc.lft.to/lastmile_qr_scan", "ios": "https://dc.lft.to/lastmile_qr_scan"}, "is_reserved": 0, "is_disabled": 0, "name": "d426f72f93962d135291cf19f21e727e", "bike_id": "d426f72f93962d135291cf19f21e727e", "fusion_lat": 0.0, "lon": -77.0346295, "type": "electric_scooter", "fusion_lon": 0.0, "lat": 38.91797583333334}, {"rental_uris": {"android": "https://dc.lft.to/lastmile_qr_scan", "ios": "https://dc.lft.to/lastmile_qr_scan"}, "is_reserved": 0, "is_disabled": 0, "name": "7a7459357517f9244049780518d4a261", "bike_id": "7a7459357517f9244049780518d4a261", "fusion_lat": 0.0, "lon": -77.041767, "type": "electric_scooter", "fusion_lon": 0.0, "lat": 38.905988666666666}, {"rental_uris": {"android": "https://dc.lft.to/lastmile_qr_scan", "ios": "https://dc.lft.to/lastmile_qr_scan"}, "is_reserved": 0, "is_disabled": 0, "name": "aed5194b58ff1ecbca6458ecad4cfe2a", "bike_id": "aed5194b58ff1ecbca6458ecad4cfe2a", "fusion_lat": 0.0, "lon": -76.99449766666666, "type": "electric_scooter", "fusion_lon": 0.0, "lat": 38.827637833333334}, {"rental_uris": {"android": "https://dc.lft.to/lastmile_qr_scan", "ios": "https://dc.lft.to/lastmile_qr_scan"}, "is_reserved": 0, "is_disabled": 0, "name": "f0b7b21957884552713aed4894ea6be6", "bike_id": "f0b7b21957884552713aed4894ea6be6", "fusion_lat": 0.0, "lon": -77.03445816666667, "type": "electric_scooter", "fusion_lon": 0.0, "lat": 38.908108166666665}, {"rental_uris": {"android": "https://dc.lft.to/lastmile_qr_scan", "ios": "https://dc.lft.to/lastmile_qr_scan"}, "is_reserved": 0, "is_disabled": 0, "name": "28edbaa339438579f2282a1edd34a0a3", "bike_id": "28edbaa339438579f2282a1edd34a0a3", "fusion_lat": 0.0, "lon": -77.04250466666667, "type": "electric_scooter", "fusion_lon": 0.0, "lat": 38.909446333333335}, {"rental_uris": {"android": "https://dc.lft.to/lastmile_qr_scan", "ios": "https://dc.lft.to/lastmile_qr_scan"}, "is_reserved": 0, "is_disabled": 0, "name": "8191e0354478ea8433d31fc3cb101db0", "bike_id": "8191e0354478ea8433d31fc3cb101db0", "fusion_lat": 0.0, "lon": -76.97434, "type": "electric_bike", "fusion_lon": 0.0, "lat": 38.85585016666667}, {"rental_uris": {"android": "https://dc.lft.to/lastmile_qr_scan", "ios": "https://dc.lft.to/lastmile_qr_scan"}, "is_reserved": 0, "is_disabled": 0, "name": "ff45f807c954fa727d137bf5430e7ada", "bike_id": "ff45f807c954fa727d137bf5430e7ada", "fusion_lat": 0.0, "lon": -77.02290766666667, "type": "electric_scooter", "fusion_lon": 0.0, "lat": 38.900164833333335}, {"rental_uris": {"android": "https://dc.lft.to/lastmile_qr_scan", "ios": "https://dc.lft.to/lastmile_qr_scan"}, "is_reserved": 0, "is_disabled": 0, "name": "51d3a301a502da797e8ea39d3c59b99f", "bike_id": "51d3a301a502da797e8ea39d3c59b99f", "fusion_lat": 0.0, "lon": -77.023318, "type": "electric_scooter", "fusion_lon": 0.0, "lat": 38.92231433333333}, {"rental_uris": {"android": "https://dc.lft.to/lastmile_qr_scan", "ios": "https://dc.lft.to/lastmile_qr_scan"}, "is_reserved": 0, "is_disabled": 0, "name": "d48a451b3e67492dafdb33f4fe414ccc", "bike_id": "d48a451b3e67492dafdb33f4fe414ccc", "fusion_lat": 0.0, "lon": -77.001524, "type": "electric_scooter", "fusion_lon": 0.0, "lat": 38.90742316666667}, {"rental_uris": {"android": "https://dc.lft.to/lastmile_qr_scan", "ios": "https://dc.lft.to/lastmile_qr_scan"}, "is_reserved": 0, "is_disabled": 0, "name": "4f2f3b89678b968baea29245b21dac1c", "bike_id": "4f2f3b89678b968baea29245b21dac1c", "fusion_lat": 0.0, "lon": -76.917189, "type": "electric_bike", "fusion_lon": 0.0, "lat": 38.880304}, {"rental_uris": {"android": "https://dc.lft.to/lastmile_qr_scan", "ios": "https://dc.lft.to/lastmile_qr_scan"}, "is_reserved": 0, "is_disabled": 0, "name": "85f4ab6af2b9044404408257fff1b1c8", "bike_id": "85f4ab6af2b9044404408257fff1b1c8", "fusion_lat": 0.0, "lon": -77.0411665, "type": "electric_scooter", "fusion_lon": 0.0, "lat": 38.9217375}, {"rental_uris": {"android": "https://dc.lft.to/lastmile_qr_scan", "ios": "https://dc.lft.to/lastmile_qr_scan"}, "is_reserved": 0, "is_disabled": 0, "name": "0fdd681ad901007dc600f3bcc79f2618", "bike_id": "0fdd681ad901007dc600f3bcc79f2618", "fusion_lat": 0.0, "lon": -77.03863433333333, "type": "electric_scooter", "fusion_lon": 0.0, "lat": 38.91173166666667}, {"rental_uris": {"android": "https://dc.lft.to/lastmile_qr_scan", "ios": "https://dc.lft.to/lastmile_qr_scan"}, "is_reserved": 0, "is_disabled": 0, "name": "cab9f08614d30ccc001291f7d2d34366", "bike_id": "cab9f08614d30ccc001291f7d2d34366", "fusion_lat": 0.0, "lon": -77.00295633333333, "type": "electric_scooter", "fusion_lon": 0.0, "lat": 38.891923}, {"rental_uris": {"android": "https://dc.lft.to/lastmile_qr_scan", "ios": "https://dc.lft.to/lastmile_qr_scan"}, "is_reserved": 0, "is_disabled": 0, "name": "7ab6561128c979a507d018e8c28cefd7", "bike_id": "7ab6561128c979a507d018e8c28cefd7", "fusion_lat": 0.0, "lon": -77.04622066666667, "type": "electric_scooter", "fusion_lon": 0.0, "lat": 38.91645966666667}, {"rental_uris": {"android": "https://dc.lft.to/lastmile_qr_scan", "ios": "https://dc.lft.to/lastmile_qr_scan"}, "is_reserved": 0, "is_disabled": 0, "name": "03dc215cdeee4ff16b95c8b79b365743", "bike_id": "03dc215cdeee4ff16b95c8b79b365743", "fusion_lat": 0.0, "lon": -77.03297333333333, "type": "electric_scooter", "fusion_lon": 0.0, "lat": 38.95618233333333}, {"rental_uris": {"android": "https://dc.lft.to/lastmile_qr_scan", "ios": "https://dc.lft.to/lastmile_qr_scan"}, "is_reserved": 0, "is_disabled": 0, "name": "bec834a2b9f47eedc2f441a3e0c136a6", "bike_id": "bec834a2b9f47eedc2f441a3e0c136a6", "fusion_lat": 0.0, "lon": -76.9853725, "type": "electric_bike", "fusion_lon": 0.0, "lat": 38.9129185}, {"rental_uris": {"android": "https://dc.lft.to/lastmile_qr_scan", "ios": "https://dc.lft.to/lastmile_qr_scan"}, "is_reserved": 0, "is_disabled": 0, "name": "76e48c6f05a6b7071a52654ab2c39997", "bike_id": "76e48c6f05a6b7071a52654ab2c39997", "fusion_lat": 0.0, "lon": -77.030801, "type": "electric_scooter", "fusion_lon": 0.0, "lat": 38.898387166666666}, {"rental_uris": {"android": "https://dc.lft.to/lastmile_qr_scan", "ios": "https://dc.lft.to/lastmile_qr_scan"}, "is_reserved": 0, "is_disabled": 0, "name": "c9b6b8dcbf8dfce8858ee391947dda84", "bike_id": "c9b6b8dcbf8dfce8858ee391947dda84", "fusion_lat": 0.0, "lon": -76.99077066666666, "type": "electric_scooter", "fusion_lon": 0.0, "lat": 38.85564816666667}, {"rental_uris": {"android": "https://dc.lft.to/lastmile_qr_scan", "ios": "https://dc.lft.to/lastmile_qr_scan"}, "is_reserved": 0, "is_disabled": 0, "name": "9d39d512a8189da053acdb6872563fe7", "bike_id": "9d39d512a8189da053acdb6872563fe7", "fusion_lat": 0.0, "lon": -77.02419933333333, "type": "electric_scooter", "fusion_lon": 0.0, "lat": 38.93364666666667}, {"rental_uris": {"android": "https://dc.lft.to/lastmile_qr_scan", "ios": "https://dc.lft.to/lastmile_qr_scan"}, "is_reserved": 0, "is_disabled": 0, "name": "f085268320abfc1e764882911ebe62ef", "bike_id": "f085268320abfc1e764882911ebe62ef", "fusion_lat": 0.0, "lon": -77.03197183333333, "type": "electric_scooter", "fusion_lon": 0.0, "lat": 38.90737033333333}, {"rental_uris": {"android": "https://dc.lft.to/lastmile_qr_scan", "ios": "https://dc.lft.to/lastmile_qr_scan"}, "is_reserved": 0, "is_disabled": 0, "name": "1a89140e5c2f81c3252db9255ca43f54", "bike_id": "1a89140e5c2f81c3252db9255ca43f54", "fusion_lat": 0.0, "lon": -77.05037833333333, "type": "electric_scooter", "fusion_lon": 0.0, "lat": 38.923638}, {"rental_uris": {"android": "https://dc.lft.to/lastmile_qr_scan", "ios": "https://dc.lft.to/lastmile_qr_scan"}, "is_reserved": 0, "is_disabled": 0, "name": "9c6aca9b14d3a228955b2bb7909f0024", "bike_id": "9c6aca9b14d3a228955b2bb7909f0024", "fusion_lat": 0.0, "lon": -77.022302, "type": "electric_scooter", "fusion_lon": 0.0, "lat": 38.91245833333333}, {"rental_uris": {"android": "https://dc.lft.to/lastmile_qr_scan", "ios": "https://dc.lft.to/lastmile_qr_scan"}, "is_reserved": 0, "is_disabled": 0, "name": "1cfad0479d52de3ffa3bad0e7cca6b9d", "bike_id": "1cfad0479d52de3ffa3bad0e7cca6b9d", "fusion_lat": 0.0, "lon": -77.0019755, "type": "electric_scooter", "fusion_lon": 0.0, "lat": 38.90240633333333}, {"rental_uris": {"android": "https://dc.lft.to/lastmile_qr_scan", "ios": "https://dc.lft.to/lastmile_qr_scan"}, "is_reserved": 0, "is_disabled": 0, "name": "1dfbf66e9af4fce480bbf3b8a4a7bb72", "bike_id": "1dfbf66e9af4fce480bbf3b8a4a7bb72", "fusion_lat": 0.0, "lon": -77.02123183333333, "type": "electric_bike", "fusion_lon": 0.0, "lat": 38.93578466666666}, {"rental_uris": {"android": "https://dc.lft.to/lastmile_qr_scan", "ios": "https://dc.lft.to/lastmile_qr_scan"}, "is_reserved": 0, "is_disabled": 0, "name": "388035f17e7baa35ab18156ccc4deb5a", "bike_id": "388035f17e7baa35ab18156ccc4deb5a", "fusion_lat": 0.0, "lon": -77.03461583333333, "type": "electric_scooter", "fusion_lon": 0.0, "lat": 38.90635433333333}, {"rental_uris": {"android": "https://dc.lft.to/lastmile_qr_scan", "ios": "https://dc.lft.to/lastmile_qr_scan"}, "is_reserved": 0, "is_disabled": 0, "name": "0a2dd4ef076b8d4115dc19a94b147223", "bike_id": "0a2dd4ef076b8d4115dc19a94b147223", "fusion_lat": 0.0, "lon": -77.07313516666666, "type": "electric_scooter", "fusion_lon": 0.0, "lat": 38.92201016666667}, {"rental_uris": {"android": "https://dc.lft.to/lastmile_qr_scan", "ios": "https://dc.lft.to/lastmile_qr_scan"}, "is_reserved": 0, "is_disabled": 0, "name": "8cacd7d8d773becfa23b4f6a1d919a5b", "bike_id": "8cacd7d8d773becfa23b4f6a1d919a5b", "fusion_lat": 0.0, "lon": -77.03382416666666, "type": "electric_scooter", "fusion_lon": 0.0, "lat": 38.92472516666667}, {"rental_uris": {"android": "https://dc.lft.to/lastmile_qr_scan", "ios": "https://dc.lft.to/lastmile_qr_scan"}, "is_reserved": 0, "is_disabled": 0, "name": "ac66758d0c227915558fb179374a36c7", "bike_id": "ac66758d0c227915558fb179374a36c7", "fusion_lat": 0.0, "lon": -77.04893333333334, "type": "electric_scooter", "fusion_lon": 0.0, "lat": 38.90516133333333}, {"rental_uris": {"android": "https://dc.lft.to/lastmile_qr_scan", "ios": "https://dc.lft.to/lastmile_qr_scan"}, "is_reserved": 0, "is_disabled": 0, "name": "0d5c0dfc6bf3b288d14be7a4c4eb1e28", "bike_id": "0d5c0dfc6bf3b288d14be7a4c4eb1e28", "fusion_lat": 0.0, "lon": -76.9836885, "type": "electric_scooter", "fusion_lon": 0.0, "lat": 38.892652166666664}, {"rental_uris": {"android": "https://dc.lft.to/lastmile_qr_scan", "ios": "https://dc.lft.to/lastmile_qr_scan"}, "is_reserved": 0, "is_disabled": 0, "name": "455fb620ca775716e84f3e3bc37734f6", "bike_id": "455fb620ca775716e84f3e3bc37734f6", "fusion_lat": 0.0, "lon": -77.02115216666667, "type": "electric_bike", "fusion_lon": 0.0, "lat": 38.935999333333335}, {"rental_uris": {"android": "https://dc.lft.to/lastmile_qr_scan", "ios": "https://dc.lft.to/lastmile_qr_scan"}, "is_reserved": 0, "is_disabled": 0, "name": "64d6eb23790a1d3b4577ec66625c9e68", "bike_id": "64d6eb23790a1d3b4577ec66625c9e68", "fusion_lat": 0.0, "lon": -77.0486355, "type": "electric_scooter", "fusion_lon": 0.0, "lat": 38.90399266666667}, {"rental_uris": {"android": "https://dc.lft.to/lastmile_qr_scan", "ios": "https://dc.lft.to/lastmile_qr_scan"}, "is_reserved": 0, "is_disabled": 0, "name": "cfb6e0d1f58b086dfbdd9ca66d44e7a0", "bike_id": "cfb6e0d1f58b086dfbdd9ca66d44e7a0", "fusion_lat": 0.0, "lon": -77.01510316666666, "type": "electric_scooter", "fusion_lon": 0.0, "lat": 38.89345816666667}, {"rental_uris": {"android": "https://dc.lft.to/lastmile_qr_scan", "ios": "https://dc.lft.to/lastmile_qr_scan"}, "is_reserved": 0, "is_disabled": 0, "name": "1cdf73b7821351524e8f96a1980b6bf9", "bike_id": "1cdf73b7821351524e8f96a1980b6bf9", "fusion_lat": 0.0, "lon": -77.01171983333333, "type": "electric_scooter", "fusion_lon": 0.0, "lat": 38.90029283333333}, {"rental_uris": {"android": "https://dc.lft.to/lastmile_qr_scan", "ios": "https://dc.lft.to/lastmile_qr_scan"}, "is_reserved": 0, "is_disabled": 0, "name": "6234fe1c8d53463ff1b94a61d0eaee2d", "bike_id": "6234fe1c8d53463ff1b94a61d0eaee2d", "fusion_lat": 0.0, "lon": -77.03456166666666, "type": "electric_scooter", "fusion_lon": 0.0, "lat": 38.91176183333334}, {"rental_uris": {"android": "https://dc.lft.to/lastmile_qr_scan", "ios": "https://dc.lft.to/lastmile_qr_scan"}, "is_reserved": 0, "is_disabled": 0, "name": "55924dc809a92413e774f03277e058da", "bike_id": "55924dc809a92413e774f03277e058da", "fusion_lat": 0.0, "lon": -77.05391666666667, "type": "electric_scooter", "fusion_lon": 0.0, "lat": 38.91058366666667}, {"rental_uris": {"android": "https://dc.lft.to/lastmile_qr_scan", "ios": "https://dc.lft.to/lastmile_qr_scan"}, "is_reserved": 0, "is_disabled": 0, "name": "c7a8b137579eea212fa4d6c9a820ef2c", "bike_id": "c7a8b137579eea212fa4d6c9a820ef2c", "fusion_lat": 0.0, "lon": -77.04323483333333, "type": "electric_scooter", "fusion_lon": 0.0, "lat": 38.89224933333333}, {"rental_uris": {"android": "https://dc.lft.to/lastmile_qr_scan", "ios": "https://dc.lft.to/lastmile_qr_scan"}, "is_reserved": 0, "is_disabled": 0, "name": "364bc24fd9cacc01f03b29eff18faa63", "bike_id": "364bc24fd9cacc01f03b29eff18faa63", "fusion_lat": 0.0, "lon": -77.03320883333333, "type": "electric_scooter", "fusion_lon": 0.0, "lat": 38.921611666666664}, {"rental_uris": {"android": "https://dc.lft.to/lastmile_qr_scan", "ios": "https://dc.lft.to/lastmile_qr_scan"}, "is_reserved": 0, "is_disabled": 0, "name": "eb6a25fb921ff99829409f4cc276ff53", "bike_id": "eb6a25fb921ff99829409f4cc276ff53", "fusion_lat": 0.0, "lon": -77.07748966666666, "type": "electric_bike", "fusion_lon": 0.0, "lat": 38.84195233333333}, {"rental_uris": {"android": "https://dc.lft.to/lastmile_qr_scan", "ios": "https://dc.lft.to/lastmile_qr_scan"}, "is_reserved": 0, "is_disabled": 0, "name": "86dd3fa8d926c3ca1c3e06b9725dc303", "bike_id": "86dd3fa8d926c3ca1c3e06b9725dc303", "fusion_lat": 0.0, "lon": -76.9956785, "type": "electric_scooter", "fusion_lon": 0.0, "lat": 38.900103}, {"rental_uris": {"android": "https://dc.lft.to/lastmile_qr_scan", "ios": "https://dc.lft.to/lastmile_qr_scan"}, "is_reserved": 0, "is_disabled": 0, "name": "58787487e6db9a71d1c983c1d8522f30", "bike_id": "58787487e6db9a71d1c983c1d8522f30", "fusion_lat": 0.0, "lon": -77.05003333333333, "type": "electric_scooter", "fusion_lon": 0.0, "lat": 38.89231066666667}, {"rental_uris": {"android": "https://dc.lft.to/lastmile_qr_scan", "ios": "https://dc.lft.to/lastmile_qr_scan"}, "is_reserved": 0, "is_disabled": 0, "name": "fd4ccab53ea506c96ef0975712c63081", "bike_id": "fd4ccab53ea506c96ef0975712c63081", "fusion_lat": 0.0, "lon": -77.026366, "type": "electric_scooter", "fusion_lon": 0.0, "lat": 38.923805}, {"rental_uris": {"android": "https://dc.lft.to/lastmile_qr_scan", "ios": "https://dc.lft.to/lastmile_qr_scan"}, "is_reserved": 0, "is_disabled": 0, "name": "aaaceb52e4f68d7f7ba1c7995c4e9a21", "bike_id": "aaaceb52e4f68d7f7ba1c7995c4e9a21", "fusion_lat": 0.0, "lon": -77.04498316666667, "type": "electric_scooter", "fusion_lon": 0.0, "lat": 38.91190233333333}, {"rental_uris": {"android": "https://dc.lft.to/lastmile_qr_scan", "ios": "https://dc.lft.to/lastmile_qr_scan"}, "is_reserved": 0, "is_disabled": 0, "name": "08f52536de16817daa886012fb641121", "bike_id": "08f52536de16817daa886012fb641121", "fusion_lat": 0.0, "lon": -76.9913275, "type": "electric_scooter", "fusion_lon": 0.0, "lat": 38.909046000000004}, {"rental_uris": {"android": "https://dc.lft.to/lastmile_qr_scan", "ios": "https://dc.lft.to/lastmile_qr_scan"}, "is_reserved": 0, "is_disabled": 0, "name": "b3701b0e4d7475e0e17e1a40344d6185", "bike_id": "b3701b0e4d7475e0e17e1a40344d6185", "fusion_lat": 0.0, "lon": -77.03097816666667, "type": "electric_scooter", "fusion_lon": 0.0, "lat": 38.90016333333333}, {"rental_uris": {"android": "https://dc.lft.to/lastmile_qr_scan", "ios": "https://dc.lft.to/lastmile_qr_scan"}, "is_reserved": 0, "is_disabled": 0, "name": "ad9eaa33198cd3a400283c26f40a070c", "bike_id": "ad9eaa33198cd3a400283c26f40a070c", "fusion_lat": 0.0, "lon": -77.01884133333333, "type": "electric_scooter", "fusion_lon": 0.0, "lat": 38.91487716666666}, {"rental_uris": {"android": "https://dc.lft.to/lastmile_qr_scan", "ios": "https://dc.lft.to/lastmile_qr_scan"}, "is_reserved": 0, "is_disabled": 0, "name": "721d31e3a08fd5cbd4973e00fedd3363", "bike_id": "721d31e3a08fd5cbd4973e00fedd3363", "fusion_lat": 0.0, "lon": -77.04627283333333, "type": "electric_scooter", "fusion_lon": 0.0, "lat": 38.90464683333333}, {"rental_uris": {"android": "https://dc.lft.to/lastmile_qr_scan", "ios": "https://dc.lft.to/lastmile_qr_scan"}, "is_reserved": 0, "is_disabled": 0, "name": "92d77a5a33056f3aec68b37ec98b8320", "bike_id": "92d77a5a33056f3aec68b37ec98b8320", "fusion_lat": 0.0, "lon": -77.07150083333333, "type": "electric_scooter", "fusion_lon": 0.0, "lat": 38.905989}, {"rental_uris": {"android": "https://dc.lft.to/lastmile_qr_scan", "ios": "https://dc.lft.to/lastmile_qr_scan"}, "is_reserved": 0, "is_disabled": 0, "name": "6574d39c7852cad434a25183ae4656bb", "bike_id": "6574d39c7852cad434a25183ae4656bb", "fusion_lat": 0.0, "lon": -76.94662166666667, "type": "electric_scooter", "fusion_lon": 0.0, "lat": 38.89870116666667}, {"rental_uris": {"android": "https://dc.lft.to/lastmile_qr_scan", "ios": "https://dc.lft.to/lastmile_qr_scan"}, "is_reserved": 0, "is_disabled": 0, "name": "c6b9c82536e70438ca79d65dcc6453f3", "bike_id": "c6b9c82536e70438ca79d65dcc6453f3", "fusion_lat": 0.0, "lon": -77.0306265, "type": "electric_scooter", "fusion_lon": 0.0, "lat": 38.92251483333333}, {"rental_uris": {"android": "https://dc.lft.to/lastmile_qr_scan", "ios": "https://dc.lft.to/lastmile_qr_scan"}, "is_reserved": 0, "is_disabled": 0, "name": "499320173a74df9bc6af644219f2f4cc", "bike_id": "499320173a74df9bc6af644219f2f4cc", "fusion_lat": 0.0, "lon": -77.02195616666667, "type": "electric_scooter", "fusion_lon": 0.0, "lat": 38.9112895}, {"rental_uris": {"android": "https://dc.lft.to/lastmile_qr_scan", "ios": "https://dc.lft.to/lastmile_qr_scan"}, "is_reserved": 0, "is_disabled": 0, "name": "bfbd65099c9b45b729ea34799f08a19e", "bike_id": "bfbd65099c9b45b729ea34799f08a19e", "fusion_lat": 0.0, "lon": -77.05257883333333, "type": "electric_scooter", "fusion_lon": 0.0, "lat": 38.901466666666664}, {"rental_uris": {"android": "https://dc.lft.to/lastmile_qr_scan", "ios": "https://dc.lft.to/lastmile_qr_scan"}, "is_reserved": 0, "is_disabled": 0, "name": "435afa5fedeae8714e3de074dd5fe905", "bike_id": "435afa5fedeae8714e3de074dd5fe905", "fusion_lat": 0.0, "lon": -77.025946, "type": "electric_scooter", "fusion_lon": 0.0, "lat": 38.896012999999996}, {"rental_uris": {"android": "https://dc.lft.to/lastmile_qr_scan", "ios": "https://dc.lft.to/lastmile_qr_scan"}, "is_reserved": 0, "is_disabled": 0, "name": "82ae85fef04d174967b26e2376579681", "bike_id": "82ae85fef04d174967b26e2376579681", "fusion_lat": 0.0, "lon": -77.00220033333333, "type": "electric_scooter", "fusion_lon": 0.0, "lat": 38.91188283333334}, {"rental_uris": {"android": "https://dc.lft.to/lastmile_qr_scan", "ios": "https://dc.lft.to/lastmile_qr_scan"}, "is_reserved": 0, "is_disabled": 0, "name": "772469a434b3289dddcddc668f381f2f", "bike_id": "772469a434b3289dddcddc668f381f2f", "fusion_lat": 0.0, "lon": -77.09022366666666, "type": "electric_bike", "fusion_lon": 0.0, "lat": 38.926542833333336}, {"rental_uris": {"android": "https://dc.lft.to/lastmile_qr_scan", "ios": "https://dc.lft.to/lastmile_qr_scan"}, "is_reserved": 0, "is_disabled": 0, "name": "2f90cd09804c1b24f40138e32a924670", "bike_id": "2f90cd09804c1b24f40138e32a924670", "fusion_lat": 0.0, "lon": -76.94176966666667, "type": "electric_scooter", "fusion_lon": 0.0, "lat": 38.8927365}, {"rental_uris": {"android": "https://dc.lft.to/lastmile_qr_scan", "ios": "https://dc.lft.to/lastmile_qr_scan"}, "is_reserved": 0, "is_disabled": 0, "name": "d00b731763e43796e1bc4d104a6e2104", "bike_id": "d00b731763e43796e1bc4d104a6e2104", "fusion_lat": 0.0, "lon": -77.0390055, "type": "electric_scooter", "fusion_lon": 0.0, "lat": 38.9220875}, {"rental_uris": {"android": "https://dc.lft.to/lastmile_qr_scan", "ios": "https://dc.lft.to/lastmile_qr_scan"}, "is_reserved": 0, "is_disabled": 0, "name": "af3f070eb2e119084d31f64710b340ff", "bike_id": "af3f070eb2e119084d31f64710b340ff", "fusion_lat": 0.0, "lon": -77.12730566666667, "type": "electric_bike", "fusion_lon": 0.0, "lat": 38.89565233333333}, {"rental_uris": {"android": "https://dc.lft.to/lastmile_qr_scan", "ios": "https://dc.lft.to/lastmile_qr_scan"}, "is_reserved": 0, "is_disabled": 0, "name": "8e973bd6e99dc1dd54166ba07a7166e6", "bike_id": "8e973bd6e99dc1dd54166ba07a7166e6", "fusion_lat": 0.0, "lon": -76.98936316666666, "type": "electric_scooter", "fusion_lon": 0.0, "lat": 38.90398}, {"rental_uris": {"android": "https://dc.lft.to/lastmile_qr_scan", "ios": "https://dc.lft.to/lastmile_qr_scan"}, "is_reserved": 0, "is_disabled": 0, "name": "3abbfced75baaecac81df357832c012f", "bike_id": "3abbfced75baaecac81df357832c012f", "fusion_lat": 0.0, "lon": -77.01867966666667, "type": "electric_scooter", "fusion_lon": 0.0, "lat": 38.92916233333333}, {"rental_uris": {"android": "https://dc.lft.to/lastmile_qr_scan", "ios": "https://dc.lft.to/lastmile_qr_scan"}, "is_reserved": 0, "is_disabled": 0, "name": "d2fd3156b2c70520ffd4102da8d43a59", "bike_id": "d2fd3156b2c70520ffd4102da8d43a59", "fusion_lat": 0.0, "lon": -76.956995, "type": "electric_bike", "fusion_lon": 0.0, "lat": 38.85091833333333}, {"rental_uris": {"android": "https://dc.lft.to/lastmile_qr_scan", "ios": "https://dc.lft.to/lastmile_qr_scan"}, "is_reserved": 0, "is_disabled": 0, "name": "f5325e9e570e59574f8bc810768ad82c", "bike_id": "f5325e9e570e59574f8bc810768ad82c", "fusion_lat": 0.0, "lon": -77.03369566666667, "type": "electric_scooter", "fusion_lon": 0.0, "lat": 38.922376166666666}, {"rental_uris": {"android": "https://dc.lft.to/lastmile_qr_scan", "ios": "https://dc.lft.to/lastmile_qr_scan"}, "is_reserved": 0, "is_disabled": 0, "name": "94cbf6d992e431e4893846f5f1972d91", "bike_id": "94cbf6d992e431e4893846f5f1972d91", "fusion_lat": 0.0, "lon": -77.0318345, "type": "electric_scooter", "fusion_lon": 0.0, "lat": 38.908036333333335}, {"rental_uris": {"android": "https://dc.lft.to/lastmile_qr_scan", "ios": "https://dc.lft.to/lastmile_qr_scan"}, "is_reserved": 0, "is_disabled": 0, "name": "21f639db839db42256706046dce531e2", "bike_id": "21f639db839db42256706046dce531e2", "fusion_lat": 0.0, "lon": -77.033053, "type": "electric_scooter", "fusion_lon": 0.0, "lat": 38.89925266666667}, {"rental_uris": {"android": "https://dc.lft.to/lastmile_qr_scan", "ios": "https://dc.lft.to/lastmile_qr_scan"}, "is_reserved": 0, "is_disabled": 0, "name": "33e8b3c93f247e27d4a1dd55a6a0fd54", "bike_id": "33e8b3c93f247e27d4a1dd55a6a0fd54", "fusion_lat": 0.0, "lon": -77.021739, "type": "electric_scooter", "fusion_lon": 0.0, "lat": 38.90042433333333}, {"rental_uris": {"android": "https://dc.lft.to/lastmile_qr_scan", "ios": "https://dc.lft.to/lastmile_qr_scan"}, "is_reserved": 0, "is_disabled": 0, "name": "c7a5e91bec1f9c0ac306b945adc1695f", "bike_id": "c7a5e91bec1f9c0ac306b945adc1695f", "fusion_lat": 0.0, "lon": -77.02102883333333, "type": "electric_scooter", "fusion_lon": 0.0, "lat": 38.92363783333333}, {"rental_uris": {"android": "https://dc.lft.to/lastmile_qr_scan", "ios": "https://dc.lft.to/lastmile_qr_scan"}, "is_reserved": 0, "is_disabled": 0, "name": "4e696df3a8d98fb5da4ee1892dab1d2a", "bike_id": "4e696df3a8d98fb5da4ee1892dab1d2a", "fusion_lat": 0.0, "lon": -77.024772, "type": "electric_scooter", "fusion_lon": 0.0, "lat": 38.91931016666667}, {"rental_uris": {"android": "https://dc.lft.to/lastmile_qr_scan", "ios": "https://dc.lft.to/lastmile_qr_scan"}, "is_reserved": 0, "is_disabled": 0, "name": "0dede00a35ca13aff51219a22563d82f", "bike_id": "0dede00a35ca13aff51219a22563d82f", "fusion_lat": 0.0, "lon": -77.0392125, "type": "electric_scooter", "fusion_lon": 0.0, "lat": 38.90285516666667}, {"rental_uris": {"android": "https://dc.lft.to/lastmile_qr_scan", "ios": "https://dc.lft.to/lastmile_qr_scan"}, "is_reserved": 0, "is_disabled": 0, "name": "5987b7f966e68c8cab725d77a155b6ef", "bike_id": "5987b7f966e68c8cab725d77a155b6ef", "fusion_lat": 0.0, "lon": -77.031904, "type": "electric_scooter", "fusion_lon": 0.0, "lat": 38.90205066666667}, {"rental_uris": {"android": "https://dc.lft.to/lastmile_qr_scan", "ios": "https://dc.lft.to/lastmile_qr_scan"}, "is_reserved": 0, "is_disabled": 0, "name": "cd148a983ce27076e55427d4e74a82e9", "bike_id": "cd148a983ce27076e55427d4e74a82e9", "fusion_lat": 0.0, "lon": -77.01978233333334, "type": "electric_scooter", "fusion_lon": 0.0, "lat": 38.8872135}, {"rental_uris": {"android": "https://dc.lft.to/lastmile_qr_scan", "ios": "https://dc.lft.to/lastmile_qr_scan"}, "is_reserved": 0, "is_disabled": 0, "name": "3bb7a7e039a86326ac84f0fb27692658", "bike_id": "3bb7a7e039a86326ac84f0fb27692658", "fusion_lat": 0.0, "lon": -77.01801616666667, "type": "electric_scooter", "fusion_lon": 0.0, "lat": 38.919881}, {"rental_uris": {"android": "https://dc.lft.to/lastmile_qr_scan", "ios": "https://dc.lft.to/lastmile_qr_scan"}, "is_reserved": 0, "is_disabled": 0, "name": "cd3c79be834eaee3604ac675d3bfbe41", "bike_id": "cd3c79be834eaee3604ac675d3bfbe41", "fusion_lat": 0.0, "lon": -77.0148085, "type": "electric_scooter", "fusion_lon": 0.0, "lat": 38.91414533333333}, {"rental_uris": {"android": "https://dc.lft.to/lastmile_qr_scan", "ios": "https://dc.lft.to/lastmile_qr_scan"}, "is_reserved": 0, "is_disabled": 0, "name": "777bfd4d05ca8984bb5894a92b617007", "bike_id": "777bfd4d05ca8984bb5894a92b617007", "fusion_lat": 0.0, "lon": -77.06296166666667, "type": "electric_scooter", "fusion_lon": 0.0, "lat": 38.903996166666666}, {"rental_uris": {"android": "https://dc.lft.to/lastmile_qr_scan", "ios": "https://dc.lft.to/lastmile_qr_scan"}, "is_reserved": 0, "is_disabled": 0, "name": "882e51f5665cb080dc7a890f32f379ef", "bike_id": "882e51f5665cb080dc7a890f32f379ef", "fusion_lat": 0.0, "lon": -77.01196766666666, "type": "electric_bike", "fusion_lon": 0.0, "lat": 38.950714166666664}, {"rental_uris": {"android": "https://dc.lft.to/lastmile_qr_scan", "ios": "https://dc.lft.to/lastmile_qr_scan"}, "is_reserved": 0, "is_disabled": 0, "name": "17542f0d5c108357ab2fb144a5a3b9e5", "bike_id": "17542f0d5c108357ab2fb144a5a3b9e5", "fusion_lat": 0.0, "lon": -77.042624, "type": "electric_scooter", "fusion_lon": 0.0, "lat": 38.92234366666667}, {"rental_uris": {"android": "https://dc.lft.to/lastmile_qr_scan", "ios": "https://dc.lft.to/lastmile_qr_scan"}, "is_reserved": 0, "is_disabled": 0, "name": "b64811f68e73acdbd84f4efe785dd192", "bike_id": "b64811f68e73acdbd84f4efe785dd192", "fusion_lat": 0.0, "lon": -77.04456383333333, "type": "electric_scooter", "fusion_lon": 0.0, "lat": 38.924718}, {"rental_uris": {"android": "https://dc.lft.to/lastmile_qr_scan", "ios": "https://dc.lft.to/lastmile_qr_scan"}, "is_reserved": 0, "is_disabled": 0, "name": "d38da32973d8e8063823c4263b300c9a", "bike_id": "d38da32973d8e8063823c4263b300c9a", "fusion_lat": 0.0, "lon": -77.0258855, "type": "electric_scooter", "fusion_lon": 0.0, "lat": 38.920962333333335}, {"rental_uris": {"android": "https://dc.lft.to/lastmile_qr_scan", "ios": "https://dc.lft.to/lastmile_qr_scan"}, "is_reserved": 0, "is_disabled": 0, "name": "fd3ce7eda3114ea0a94da5c505ad874b", "bike_id": "fd3ce7eda3114ea0a94da5c505ad874b", "fusion_lat": 0.0, "lon": -77.02808816666666, "type": "electric_scooter", "fusion_lon": 0.0, "lat": 38.91762116666666}, {"rental_uris": {"android": "https://dc.lft.to/lastmile_qr_scan", "ios": "https://dc.lft.to/lastmile_qr_scan"}, "is_reserved": 0, "is_disabled": 0, "name": "6b611ca6ba34c37f180e58cda508b9e1", "bike_id": "6b611ca6ba34c37f180e58cda508b9e1", "fusion_lat": 0.0, "lon": -77.015424, "type": "electric_scooter", "fusion_lon": 0.0, "lat": 38.8917255}, {"rental_uris": {"android": "https://dc.lft.to/lastmile_qr_scan", "ios": "https://dc.lft.to/lastmile_qr_scan"}, "is_reserved": 0, "is_disabled": 0, "name": "a5fbafb60ed9e1b6ae2fb530f7a6ba75", "bike_id": "a5fbafb60ed9e1b6ae2fb530f7a6ba75", "fusion_lat": 0.0, "lon": -77.029636, "type": "electric_scooter", "fusion_lon": 0.0, "lat": 38.942947333333336}, {"rental_uris": {"android": "https://dc.lft.to/lastmile_qr_scan", "ios": "https://dc.lft.to/lastmile_qr_scan"}, "is_reserved": 0, "is_disabled": 0, "name": "b822131ad8ba86a7094f6f67916d420a", "bike_id": "b822131ad8ba86a7094f6f67916d420a", "fusion_lat": 0.0, "lon": -76.95559733333333, "type": "electric_bike", "fusion_lon": 0.0, "lat": 38.985043833333336}, {"rental_uris": {"android": "https://dc.lft.to/lastmile_qr_scan", "ios": "https://dc.lft.to/lastmile_qr_scan"}, "is_reserved": 0, "is_disabled": 0, "name": "3ae018a7b9a4298fcd69051d39cc3a3f", "bike_id": "3ae018a7b9a4298fcd69051d39cc3a3f", "fusion_lat": 0.0, "lon": -77.02191, "type": "electric_scooter", "fusion_lon": 0.0, "lat": 38.91123983333333}, {"rental_uris": {"android": "https://dc.lft.to/lastmile_qr_scan", "ios": "https://dc.lft.to/lastmile_qr_scan"}, "is_reserved": 0, "is_disabled": 0, "name": "5cdaf1a3754d0cdfcdf8cfdc250416be", "bike_id": "5cdaf1a3754d0cdfcdf8cfdc250416be", "fusion_lat": 0.0, "lon": -77.035493, "type": "electric_scooter", "fusion_lon": 0.0, "lat": 38.924101}, {"rental_uris": {"android": "https://dc.lft.to/lastmile_qr_scan", "ios": "https://dc.lft.to/lastmile_qr_scan"}, "is_reserved": 0, "is_disabled": 0, "name": "192965fa6a9fd4a21dfe3ea783f8ccb3", "bike_id": "192965fa6a9fd4a21dfe3ea783f8ccb3", "fusion_lat": 0.0, "lon": -77.02365583333334, "type": "electric_scooter", "fusion_lon": 0.0, "lat": 38.892235666666664}, {"rental_uris": {"android": "https://dc.lft.to/lastmile_qr_scan", "ios": "https://dc.lft.to/lastmile_qr_scan"}, "is_reserved": 0, "is_disabled": 0, "name": "0b6c6fe4cf5a4f4c38b2640940594a99", "bike_id": "0b6c6fe4cf5a4f4c38b2640940594a99", "fusion_lat": 0.0, "lon": -77.01086883333333, "type": "electric_scooter", "fusion_lon": 0.0, "lat": 38.895487833333334}, {"rental_uris": {"android": "https://dc.lft.to/lastmile_qr_scan", "ios": "https://dc.lft.to/lastmile_qr_scan"}, "is_reserved": 0, "is_disabled": 0, "name": "47774f8f3b02582e411450f546b6289a", "bike_id": "47774f8f3b02582e411450f546b6289a", "fusion_lat": 0.0, "lon": -77.0229145, "type": "electric_scooter", "fusion_lon": 0.0, "lat": 38.9160685}, {"rental_uris": {"android": "https://dc.lft.to/lastmile_qr_scan", "ios": "https://dc.lft.to/lastmile_qr_scan"}, "is_reserved": 0, "is_disabled": 0, "name": "fa9678242a98b3b539fe2038d5df25e1", "bike_id": "fa9678242a98b3b539fe2038d5df25e1", "fusion_lat": 0.0, "lon": -76.96886583333334, "type": "electric_bike", "fusion_lon": 0.0, "lat": 38.869846833333334}, {"rental_uris": {"android": "https://dc.lft.to/lastmile_qr_scan", "ios": "https://dc.lft.to/lastmile_qr_scan"}, "is_reserved": 0, "is_disabled": 0, "name": "0eda9b0117b5e4e562232682238ec1ff", "bike_id": "0eda9b0117b5e4e562232682238ec1ff", "fusion_lat": 0.0, "lon": -77.0173915, "type": "electric_scooter", "fusion_lon": 0.0, "lat": 38.87708533333333}, {"rental_uris": {"android": "https://dc.lft.to/lastmile_qr_scan", "ios": "https://dc.lft.to/lastmile_qr_scan"}, "is_reserved": 0, "is_disabled": 0, "name": "edc1bf44c61a4749be0791e19f07960f", "bike_id": "edc1bf44c61a4749be0791e19f07960f", "fusion_lat": 0.0, "lon": -77.0400005, "type": "electric_scooter", "fusion_lon": 0.0, "lat": 38.93426}, {"rental_uris": {"android": "https://dc.lft.to/lastmile_qr_scan", "ios": "https://dc.lft.to/lastmile_qr_scan"}, "is_reserved": 0, "is_disabled": 0, "name": "90b2db9836109a079700934ca02924c9", "bike_id": "90b2db9836109a079700934ca02924c9", "fusion_lat": 0.0, "lon": -77.0195355, "type": "electric_scooter", "fusion_lon": 0.0, "lat": 38.92330316666666}, {"rental_uris": {"android": "https://dc.lft.to/lastmile_qr_scan", "ios": "https://dc.lft.to/lastmile_qr_scan"}, "is_reserved": 0, "is_disabled": 0, "name": "8a978673d1dba6ba98a6bf9ecbf1882d", "bike_id": "8a978673d1dba6ba98a6bf9ecbf1882d", "fusion_lat": 0.0, "lon": -77.0162185, "type": "electric_scooter", "fusion_lon": 0.0, "lat": 38.90607383333333}, {"rental_uris": {"android": "https://dc.lft.to/lastmile_qr_scan", "ios": "https://dc.lft.to/lastmile_qr_scan"}, "is_reserved": 0, "is_disabled": 0, "name": "65d67793c4be4c252cbafa8f9a98b081", "bike_id": "65d67793c4be4c252cbafa8f9a98b081", "fusion_lat": 0.0, "lon": -77.04242016666667, "type": "electric_scooter", "fusion_lon": 0.0, "lat": 38.91784583333333}, {"rental_uris": {"android": "https://dc.lft.to/lastmile_qr_scan", "ios": "https://dc.lft.to/lastmile_qr_scan"}, "is_reserved": 0, "is_disabled": 0, "name": "a8c4f1824b5ea369c7ecee13e67b8f1d", "bike_id": "a8c4f1824b5ea369c7ecee13e67b8f1d", "fusion_lat": 0.0, "lon": -77.128943, "type": "electric_bike", "fusion_lon": 0.0, "lat": 38.90602633333334}, {"rental_uris": {"android": "https://dc.lft.to/lastmile_qr_scan", "ios": "https://dc.lft.to/lastmile_qr_scan"}, "is_reserved": 0, "is_disabled": 0, "name": "60aa0a9594f7ecdb57e594b7ca9781e4", "bike_id": "60aa0a9594f7ecdb57e594b7ca9781e4", "fusion_lat": 0.0, "lon": -77.04678666666666, "type": "electric_scooter", "fusion_lon": 0.0, "lat": 38.903025666666665}, {"rental_uris": {"android": "https://dc.lft.to/lastmile_qr_scan", "ios": "https://dc.lft.to/lastmile_qr_scan"}, "is_reserved": 0, "is_disabled": 0, "name": "00864270798dcefc2054fbdba51df1d3", "bike_id": "00864270798dcefc2054fbdba51df1d3", "fusion_lat": 0.0, "lon": -77.04871216666666, "type": "electric_scooter", "fusion_lon": 0.0, "lat": 38.892705666666664}, {"rental_uris": {"android": "https://dc.lft.to/lastmile_qr_scan", "ios": "https://dc.lft.to/lastmile_qr_scan"}, "is_reserved": 0, "is_disabled": 0, "name": "00c7762a95d5308961a96bc2c7d458db", "bike_id": "00c7762a95d5308961a96bc2c7d458db", "fusion_lat": 0.0, "lon": -77.02371333333333, "type": "electric_scooter", "fusion_lon": 0.0, "lat": 38.892191333333336}, {"rental_uris": {"android": "https://dc.lft.to/lastmile_qr_scan", "ios": "https://dc.lft.to/lastmile_qr_scan"}, "is_reserved": 0, "is_disabled": 0, "name": "2169f24883e254f75fd241fb8eaa8bb7", "bike_id": "2169f24883e254f75fd241fb8eaa8bb7", "fusion_lat": 0.0, "lon": -77.0293405, "type": "electric_scooter", "fusion_lon": 0.0, "lat": 38.932576166666664}, {"rental_uris": {"android": "https://dc.lft.to/lastmile_qr_scan", "ios": "https://dc.lft.to/lastmile_qr_scan"}, "is_reserved": 0, "is_disabled": 0, "name": "4d94a2d98f8186717a0fe7890226c78b", "bike_id": "4d94a2d98f8186717a0fe7890226c78b", "fusion_lat": 0.0, "lon": -76.99628133333333, "type": "electric_scooter", "fusion_lon": 0.0, "lat": 38.877349333333335}, {"rental_uris": {"android": "https://dc.lft.to/lastmile_qr_scan", "ios": "https://dc.lft.to/lastmile_qr_scan"}, "is_reserved": 0, "is_disabled": 0, "name": "fe89b812c9407a2fecdf532a964e5b31", "bike_id": "fe89b812c9407a2fecdf532a964e5b31", "fusion_lat": 0.0, "lon": -77.020027, "type": "electric_scooter", "fusion_lon": 0.0, "lat": 38.901654}, {"rental_uris": {"android": "https://dc.lft.to/lastmile_qr_scan", "ios": "https://dc.lft.to/lastmile_qr_scan"}, "is_reserved": 0, "is_disabled": 0, "name": "9c21b111fcdc99fd8494977063f6af6e", "bike_id": "9c21b111fcdc99fd8494977063f6af6e", "fusion_lat": 0.0, "lon": -77.00720366666667, "type": "electric_scooter", "fusion_lon": 0.0, "lat": 38.9055865}, {"rental_uris": {"android": "https://dc.lft.to/lastmile_qr_scan", "ios": "https://dc.lft.to/lastmile_qr_scan"}, "is_reserved": 0, "is_disabled": 0, "name": "0f16023815429e6b998954a68bf83615", "bike_id": "0f16023815429e6b998954a68bf83615", "fusion_lat": 0.0, "lon": -77.02475083333333, "type": "electric_scooter", "fusion_lon": 0.0, "lat": 38.918181833333335}, {"rental_uris": {"android": "https://dc.lft.to/lastmile_qr_scan", "ios": "https://dc.lft.to/lastmile_qr_scan"}, "is_reserved": 0, "is_disabled": 0, "name": "b7c7d0aca96da2952bb5b5ac47d67920", "bike_id": "b7c7d0aca96da2952bb5b5ac47d67920", "fusion_lat": 0.0, "lon": -77.00479816666666, "type": "electric_scooter", "fusion_lon": 0.0, "lat": 38.8746155}, {"rental_uris": {"android": "https://dc.lft.to/lastmile_qr_scan", "ios": "https://dc.lft.to/lastmile_qr_scan"}, "is_reserved": 0, "is_disabled": 0, "name": "0b049189a2e18bd3879c16cdeed90211", "bike_id": "0b049189a2e18bd3879c16cdeed90211", "fusion_lat": 0.0, "lon": -77.019129, "type": "electric_scooter", "fusion_lon": 0.0, "lat": 38.92174383333333}, {"rental_uris": {"android": "https://dc.lft.to/lastmile_qr_scan", "ios": "https://dc.lft.to/lastmile_qr_scan"}, "is_reserved": 0, "is_disabled": 0, "name": "dcee9ed93593915d77b6d797a7b09a1d", "bike_id": "dcee9ed93593915d77b6d797a7b09a1d", "fusion_lat": 0.0, "lon": -76.983484, "type": "electric_bike", "fusion_lon": 0.0, "lat": 38.8626345}, {"rental_uris": {"android": "https://dc.lft.to/lastmile_qr_scan", "ios": "https://dc.lft.to/lastmile_qr_scan"}, "is_reserved": 0, "is_disabled": 0, "name": "9cfd6507128d5d0878682daf40c12814", "bike_id": "9cfd6507128d5d0878682daf40c12814", "fusion_lat": 0.0, "lon": -76.9771665, "type": "electric_scooter", "fusion_lon": 0.0, "lat": 38.88820533333333}, {"rental_uris": {"android": "https://dc.lft.to/lastmile_qr_scan", "ios": "https://dc.lft.to/lastmile_qr_scan"}, "is_reserved": 0, "is_disabled": 0, "name": "96b0750d23303bf181171e24e01fd4b1", "bike_id": "96b0750d23303bf181171e24e01fd4b1", "fusion_lat": 0.0, "lon": -77.03655416666666, "type": "electric_scooter", "fusion_lon": 0.0, "lat": 38.93650433333333}, {"rental_uris": {"android": "https://dc.lft.to/lastmile_qr_scan", "ios": "https://dc.lft.to/lastmile_qr_scan"}, "is_reserved": 0, "is_disabled": 0, "name": "8355cb86c8512b4e7501473989ce340d", "bike_id": "8355cb86c8512b4e7501473989ce340d", "fusion_lat": 0.0, "lon": -77.03174016666667, "type": "electric_scooter", "fusion_lon": 0.0, "lat": 38.883949666666666}, {"rental_uris": {"android": "https://dc.lft.to/lastmile_qr_scan", "ios": "https://dc.lft.to/lastmile_qr_scan"}, "is_reserved": 0, "is_disabled": 0, "name": "9cd68255eafbab8a83d9ca8c27383952", "bike_id": "9cd68255eafbab8a83d9ca8c27383952", "fusion_lat": 0.0, "lon": -77.05808933333333, "type": "electric_scooter", "fusion_lon": 0.0, "lat": 38.90638666666667}, {"rental_uris": {"android": "https://dc.lft.to/lastmile_qr_scan", "ios": "https://dc.lft.to/lastmile_qr_scan"}, "is_reserved": 0, "is_disabled": 0, "name": "1da52f65ddce3eb6f0927fc268bb57bf", "bike_id": "1da52f65ddce3eb6f0927fc268bb57bf", "fusion_lat": 0.0, "lon": -77.04153216666667, "type": "electric_scooter", "fusion_lon": 0.0, "lat": 38.9162095}, {"rental_uris": {"android": "https://dc.lft.to/lastmile_qr_scan", "ios": "https://dc.lft.to/lastmile_qr_scan"}, "is_reserved": 0, "is_disabled": 0, "name": "6e64ef5313a921e5aa161a7f730f5faa", "bike_id": "6e64ef5313a921e5aa161a7f730f5faa", "fusion_lat": 0.0, "lon": -77.05886866666667, "type": "electric_scooter", "fusion_lon": 0.0, "lat": 38.9361535}, {"rental_uris": {"android": "https://dc.lft.to/lastmile_qr_scan", "ios": "https://dc.lft.to/lastmile_qr_scan"}, "is_reserved": 0, "is_disabled": 0, "name": "fa5576fd9f751bbf90f6c19f07da0312", "bike_id": "fa5576fd9f751bbf90f6c19f07da0312", "fusion_lat": 0.0, "lon": -76.98354466666666, "type": "electric_scooter", "fusion_lon": 0.0, "lat": 38.8873335}, {"rental_uris": {"android": "https://dc.lft.to/lastmile_qr_scan", "ios": "https://dc.lft.to/lastmile_qr_scan"}, "is_reserved": 0, "is_disabled": 0, "name": "ee55f4f5d2bbfb967dd54ef2e93b9fa6", "bike_id": "ee55f4f5d2bbfb967dd54ef2e93b9fa6", "fusion_lat": 0.0, "lon": -77.0325515, "type": "electric_scooter", "fusion_lon": 0.0, "lat": 38.93969083333333}, {"rental_uris": {"android": "https://dc.lft.to/lastmile_qr_scan", "ios": "https://dc.lft.to/lastmile_qr_scan"}, "is_reserved": 0, "is_disabled": 0, "name": "987637f6b66e8bd151d2bca985e0e135", "bike_id": "987637f6b66e8bd151d2bca985e0e135", "fusion_lat": 0.0, "lon": -77.02717366666667, "type": "electric_scooter", "fusion_lon": 0.0, "lat": 38.906882333333336}, {"rental_uris": {"android": "https://dc.lft.to/lastmile_qr_scan", "ios": "https://dc.lft.to/lastmile_qr_scan"}, "is_reserved": 0, "is_disabled": 0, "name": "16879e63de016491a615a3a754a4860e", "bike_id": "16879e63de016491a615a3a754a4860e", "fusion_lat": 0.0, "lon": -77.023384, "type": "electric_scooter", "fusion_lon": 0.0, "lat": 38.881383}, {"rental_uris": {"android": "https://dc.lft.to/lastmile_qr_scan", "ios": "https://dc.lft.to/lastmile_qr_scan"}, "is_reserved": 0, "is_disabled": 0, "name": "eb085222acf0cacfefb5c5b7301d4da1", "bike_id": "eb085222acf0cacfefb5c5b7301d4da1", "fusion_lat": 0.0, "lon": -77.0221405, "type": "electric_scooter", "fusion_lon": 0.0, "lat": 38.905424833333335}, {"rental_uris": {"android": "https://dc.lft.to/lastmile_qr_scan", "ios": "https://dc.lft.to/lastmile_qr_scan"}, "is_reserved": 0, "is_disabled": 0, "name": "cd08c7674cd8a225d1db119fd8e6abdf", "bike_id": "cd08c7674cd8a225d1db119fd8e6abdf", "fusion_lat": 0.0, "lon": -77.07328433333333, "type": "electric_scooter", "fusion_lon": 0.0, "lat": 38.92260866666667}, {"rental_uris": {"android": "https://dc.lft.to/lastmile_qr_scan", "ios": "https://dc.lft.to/lastmile_qr_scan"}, "is_reserved": 0, "is_disabled": 0, "name": "546307e009fba0912d53d318eb6f5f9e", "bike_id": "546307e009fba0912d53d318eb6f5f9e", "fusion_lat": 0.0, "lon": -77.03902516666666, "type": "electric_scooter", "fusion_lon": 0.0, "lat": 38.90132416666667}, {"rental_uris": {"android": "https://dc.lft.to/lastmile_qr_scan", "ios": "https://dc.lft.to/lastmile_qr_scan"}, "is_reserved": 0, "is_disabled": 0, "name": "ae678cb0837c1cb149b320f043222959", "bike_id": "ae678cb0837c1cb149b320f043222959", "fusion_lat": 0.0, "lon": -76.994185, "type": "electric_scooter", "fusion_lon": 0.0, "lat": 38.93350366666667}, {"rental_uris": {"android": "https://dc.lft.to/lastmile_qr_scan", "ios": "https://dc.lft.to/lastmile_qr_scan"}, "is_reserved": 0, "is_disabled": 0, "name": "9e1be89a2ef9de8e3ea5b6aecc4c506a", "bike_id": "9e1be89a2ef9de8e3ea5b6aecc4c506a", "fusion_lat": 0.0, "lon": -77.02961383333333, "type": "electric_scooter", "fusion_lon": 0.0, "lat": 38.92072666666667}, {"rental_uris": {"android": "https://dc.lft.to/lastmile_qr_scan", "ios": "https://dc.lft.to/lastmile_qr_scan"}, "is_reserved": 0, "is_disabled": 0, "name": "85626046f24d9fa67af24bf74a42901e", "bike_id": "85626046f24d9fa67af24bf74a42901e", "fusion_lat": 0.0, "lon": -77.00621316666667, "type": "electric_scooter", "fusion_lon": 0.0, "lat": 38.87176933333333}, {"rental_uris": {"android": "https://dc.lft.to/lastmile_qr_scan", "ios": "https://dc.lft.to/lastmile_qr_scan"}, "is_reserved": 0, "is_disabled": 0, "name": "d5342fc9b7ab16d4d3e277bee88716b0", "bike_id": "d5342fc9b7ab16d4d3e277bee88716b0", "fusion_lat": 0.0, "lon": -77.04471033333333, "type": "electric_scooter", "fusion_lon": 0.0, "lat": 38.9027725}, {"rental_uris": {"android": "https://dc.lft.to/lastmile_qr_scan", "ios": "https://dc.lft.to/lastmile_qr_scan"}, "is_reserved": 0, "is_disabled": 0, "name": "1c89bfaad074bc6633ad06d5d35852f5", "bike_id": "1c89bfaad074bc6633ad06d5d35852f5", "fusion_lat": 0.0, "lon": -77.04167766666667, "type": "electric_scooter", "fusion_lon": 0.0, "lat": 38.91983533333333}, {"rental_uris": {"android": "https://dc.lft.to/lastmile_qr_scan", "ios": "https://dc.lft.to/lastmile_qr_scan"}, "is_reserved": 0, "is_disabled": 0, "name": "e645685bf7d04f5abfd4364f392d792f", "bike_id": "e645685bf7d04f5abfd4364f392d792f", "fusion_lat": 0.0, "lon": -77.02802766666667, "type": "electric_scooter", "fusion_lon": 0.0, "lat": 38.905591}, {"rental_uris": {"android": "https://dc.lft.to/lastmile_qr_scan", "ios": "https://dc.lft.to/lastmile_qr_scan"}, "is_reserved": 0, "is_disabled": 0, "name": "f5488db06e79a094a358e2c6f9ac3047", "bike_id": "f5488db06e79a094a358e2c6f9ac3047", "fusion_lat": 0.0, "lon": -77.1293285, "type": "electric_bike", "fusion_lon": 0.0, "lat": 38.865828666666665}, {"rental_uris": {"android": "https://dc.lft.to/lastmile_qr_scan", "ios": "https://dc.lft.to/lastmile_qr_scan"}, "is_reserved": 0, "is_disabled": 0, "name": "0c5ed244a843433020725065b1b1ed49", "bike_id": "0c5ed244a843433020725065b1b1ed49", "fusion_lat": 0.0, "lon": -77.02844866666666, "type": "electric_scooter", "fusion_lon": 0.0, "lat": 38.900883}, {"rental_uris": {"android": "https://dc.lft.to/lastmile_qr_scan", "ios": "https://dc.lft.to/lastmile_qr_scan"}, "is_reserved": 0, "is_disabled": 0, "name": "80f4189382eb8315e77c11eaf199988e", "bike_id": "80f4189382eb8315e77c11eaf199988e", "fusion_lat": 0.0, "lon": -76.92962033333333, "type": "electric_scooter", "fusion_lon": 0.0, "lat": 38.89634783333333}, {"rental_uris": {"android": "https://dc.lft.to/lastmile_qr_scan", "ios": "https://dc.lft.to/lastmile_qr_scan"}, "is_reserved": 0, "is_disabled": 0, "name": "a3775b063d8d1bff1b07a951bf315e4d", "bike_id": "a3775b063d8d1bff1b07a951bf315e4d", "fusion_lat": 0.0, "lon": -77.0419815, "type": "electric_scooter", "fusion_lon": 0.0, "lat": 38.9204395}, {"rental_uris": {"android": "https://dc.lft.to/lastmile_qr_scan", "ios": "https://dc.lft.to/lastmile_qr_scan"}, "is_reserved": 0, "is_disabled": 0, "name": "6b8f558bce9195bbb8a7ce862a055ceb", "bike_id": "6b8f558bce9195bbb8a7ce862a055ceb", "fusion_lat": 0.0, "lon": -77.0033555, "type": "electric_scooter", "fusion_lon": 0.0, "lat": 38.8863415}, {"rental_uris": {"android": "https://dc.lft.to/lastmile_qr_scan", "ios": "https://dc.lft.to/lastmile_qr_scan"}, "is_reserved": 0, "is_disabled": 0, "name": "46cb98eb7f99295e7d34453dc84fb902", "bike_id": "46cb98eb7f99295e7d34453dc84fb902", "fusion_lat": 0.0, "lon": -77.046581, "type": "electric_scooter", "fusion_lon": 0.0, "lat": 38.893409}, {"rental_uris": {"android": "https://dc.lft.to/lastmile_qr_scan", "ios": "https://dc.lft.to/lastmile_qr_scan"}, "is_reserved": 0, "is_disabled": 0, "name": "6d6272834fc27fea25f7652d81aa278f", "bike_id": "6d6272834fc27fea25f7652d81aa278f", "fusion_lat": 0.0, "lon": -77.02156683333334, "type": "electric_scooter", "fusion_lon": 0.0, "lat": 38.924614}, {"rental_uris": {"android": "https://dc.lft.to/lastmile_qr_scan", "ios": "https://dc.lft.to/lastmile_qr_scan"}, "is_reserved": 0, "is_disabled": 0, "name": "5dce195d743556c18f3773021aa142a8", "bike_id": "5dce195d743556c18f3773021aa142a8", "fusion_lat": 0.0, "lon": -77.03279933333333, "type": "electric_scooter", "fusion_lon": 0.0, "lat": 38.8990015}, {"rental_uris": {"android": "https://dc.lft.to/lastmile_qr_scan", "ios": "https://dc.lft.to/lastmile_qr_scan"}, "is_reserved": 0, "is_disabled": 0, "name": "d1731cbe8f168407160680b889fab7f2", "bike_id": "d1731cbe8f168407160680b889fab7f2", "fusion_lat": 0.0, "lon": -77.03033166666667, "type": "electric_scooter", "fusion_lon": 0.0, "lat": 38.931032333333334}, {"rental_uris": {"android": "https://dc.lft.to/lastmile_qr_scan", "ios": "https://dc.lft.to/lastmile_qr_scan"}, "is_reserved": 0, "is_disabled": 0, "name": "b24cde24239bdfc54b3a2389d0920abc", "bike_id": "b24cde24239bdfc54b3a2389d0920abc", "fusion_lat": 0.0, "lon": -77.04857316666667, "type": "electric_scooter", "fusion_lon": 0.0, "lat": 38.90040066666667}, {"rental_uris": {"android": "https://dc.lft.to/lastmile_qr_scan", "ios": "https://dc.lft.to/lastmile_qr_scan"}, "is_reserved": 0, "is_disabled": 0, "name": "75594475f1dd445051267aee43428067", "bike_id": "75594475f1dd445051267aee43428067", "fusion_lat": 0.0, "lon": -76.9957585, "type": "electric_bike", "fusion_lon": 0.0, "lat": 38.83158566666667}, {"rental_uris": {"android": "https://dc.lft.to/lastmile_qr_scan", "ios": "https://dc.lft.to/lastmile_qr_scan"}, "is_reserved": 0, "is_disabled": 0, "name": "2a4c0abc0f01186d760e5cfdc918e3be", "bike_id": "2a4c0abc0f01186d760e5cfdc918e3be", "fusion_lat": 0.0, "lon": -77.02550066666667, "type": "electric_scooter", "fusion_lon": 0.0, "lat": 38.89201}, {"rental_uris": {"android": "https://dc.lft.to/lastmile_qr_scan", "ios": "https://dc.lft.to/lastmile_qr_scan"}, "is_reserved": 0, "is_disabled": 0, "name": "2a6a5ff68c9355521a321ab5a2e53484", "bike_id": "2a6a5ff68c9355521a321ab5a2e53484", "fusion_lat": 0.0, "lon": -77.02607183333333, "type": "electric_scooter", "fusion_lon": 0.0, "lat": 38.90414916666667}, {"rental_uris": {"android": "https://dc.lft.to/lastmile_qr_scan", "ios": "https://dc.lft.to/lastmile_qr_scan"}, "is_reserved": 0, "is_disabled": 0, "name": "0ae832739efd807610399550c0eb6c01", "bike_id": "0ae832739efd807610399550c0eb6c01", "fusion_lat": 0.0, "lon": -77.0019725, "type": "electric_scooter", "fusion_lon": 0.0, "lat": 38.9024375}, {"rental_uris": {"android": "https://dc.lft.to/lastmile_qr_scan", "ios": "https://dc.lft.to/lastmile_qr_scan"}, "is_reserved": 0, "is_disabled": 0, "name": "66d7f2d41f1d06a75ed12718380c6deb", "bike_id": "66d7f2d41f1d06a75ed12718380c6deb", "fusion_lat": 0.0, "lon": -76.9809095, "type": "electric_bike", "fusion_lon": 0.0, "lat": 38.9535485}, {"rental_uris": {"android": "https://dc.lft.to/lastmile_qr_scan", "ios": "https://dc.lft.to/lastmile_qr_scan"}, "is_reserved": 0, "is_disabled": 0, "name": "37e4c58ac3a9792a8f2312ab4d137d3c", "bike_id": "37e4c58ac3a9792a8f2312ab4d137d3c", "fusion_lat": 0.0, "lon": -77.02514933333333, "type": "electric_scooter", "fusion_lon": 0.0, "lat": 38.920976}, {"rental_uris": {"android": "https://dc.lft.to/lastmile_qr_scan", "ios": "https://dc.lft.to/lastmile_qr_scan"}, "is_reserved": 0, "is_disabled": 0, "name": "1b2bf60dfdb1db1343844593cf6f92cd", "bike_id": "1b2bf60dfdb1db1343844593cf6f92cd", "fusion_lat": 0.0, "lon": -77.01513766666666, "type": "electric_scooter", "fusion_lon": 0.0, "lat": 38.8873205}, {"rental_uris": {"android": "https://dc.lft.to/lastmile_qr_scan", "ios": "https://dc.lft.to/lastmile_qr_scan"}, "is_reserved": 0, "is_disabled": 0, "name": "b6003c9ce731593d98d47ed251a17e3b", "bike_id": "b6003c9ce731593d98d47ed251a17e3b", "fusion_lat": 0.0, "lon": -77.03882716666666, "type": "electric_scooter", "fusion_lon": 0.0, "lat": 38.91854333333333}, {"rental_uris": {"android": "https://dc.lft.to/lastmile_qr_scan", "ios": "https://dc.lft.to/lastmile_qr_scan"}, "is_reserved": 0, "is_disabled": 0, "name": "424aa5e4ac021670205e0abbbbfdd83e", "bike_id": "424aa5e4ac021670205e0abbbbfdd83e", "fusion_lat": 0.0, "lon": -77.037081, "type": "electric_scooter", "fusion_lon": 0.0, "lat": 38.926368833333335}, {"rental_uris": {"android": "https://dc.lft.to/lastmile_qr_scan", "ios": "https://dc.lft.to/lastmile_qr_scan"}, "is_reserved": 0, "is_disabled": 0, "name": "cda94622593285b36ca72ddef5957ba8", "bike_id": "cda94622593285b36ca72ddef5957ba8", "fusion_lat": 0.0, "lon": -77.04166916666667, "type": "electric_scooter", "fusion_lon": 0.0, "lat": 38.901583}, {"rental_uris": {"android": "https://dc.lft.to/lastmile_qr_scan", "ios": "https://dc.lft.to/lastmile_qr_scan"}, "is_reserved": 0, "is_disabled": 0, "name": "06cd9acd6aced63b16319b2017c2ab2c", "bike_id": "06cd9acd6aced63b16319b2017c2ab2c", "fusion_lat": 0.0, "lon": -77.03169283333334, "type": "electric_scooter", "fusion_lon": 0.0, "lat": 38.92915466666667}, {"rental_uris": {"android": "https://dc.lft.to/lastmile_qr_scan", "ios": "https://dc.lft.to/lastmile_qr_scan"}, "is_reserved": 0, "is_disabled": 0, "name": "8da26fcff74ff5b1ab18d996cef58f3d", "bike_id": "8da26fcff74ff5b1ab18d996cef58f3d", "fusion_lat": 0.0, "lon": -77.048215, "type": "electric_scooter", "fusion_lon": 0.0, "lat": 38.905278}, {"rental_uris": {"android": "https://dc.lft.to/lastmile_qr_scan", "ios": "https://dc.lft.to/lastmile_qr_scan"}, "is_reserved": 0, "is_disabled": 0, "name": "93154cda33a669a52e6ad140a5583146", "bike_id": "93154cda33a669a52e6ad140a5583146", "fusion_lat": 0.0, "lon": -76.9950665, "type": "electric_scooter", "fusion_lon": 0.0, "lat": 38.88244816666667}, {"rental_uris": {"android": "https://dc.lft.to/lastmile_qr_scan", "ios": "https://dc.lft.to/lastmile_qr_scan"}, "is_reserved": 0, "is_disabled": 0, "name": "2965b11cd51c93b62e0665a73319e2e3", "bike_id": "2965b11cd51c93b62e0665a73319e2e3", "fusion_lat": 0.0, "lon": -77.05263483333333, "type": "electric_scooter", "fusion_lon": 0.0, "lat": 38.925694}, {"rental_uris": {"android": "https://dc.lft.to/lastmile_qr_scan", "ios": "https://dc.lft.to/lastmile_qr_scan"}, "is_reserved": 0, "is_disabled": 0, "name": "fe844517fa78997b1e34ee8681b580e1", "bike_id": "fe844517fa78997b1e34ee8681b580e1", "fusion_lat": 0.0, "lon": -77.14869916666666, "type": "electric_bike", "fusion_lon": 0.0, "lat": 38.8773895}, {"rental_uris": {"android": "https://dc.lft.to/lastmile_qr_scan", "ios": "https://dc.lft.to/lastmile_qr_scan"}, "is_reserved": 0, "is_disabled": 0, "name": "78a0d373ce498166d28b9f54cf17db36", "bike_id": "78a0d373ce498166d28b9f54cf17db36", "fusion_lat": 0.0, "lon": -76.94870583333334, "type": "electric_scooter", "fusion_lon": 0.0, "lat": 38.89500133333333}, {"rental_uris": {"android": "https://dc.lft.to/lastmile_qr_scan", "ios": "https://dc.lft.to/lastmile_qr_scan"}, "is_reserved": 0, "is_disabled": 0, "name": "5eab55b240419f8caa0eb7dfeb40fb5a", "bike_id": "5eab55b240419f8caa0eb7dfeb40fb5a", "fusion_lat": 0.0, "lon": -77.03781883333333, "type": "electric_scooter", "fusion_lon": 0.0, "lat": 38.92434016666667}, {"rental_uris": {"android": "https://dc.lft.to/lastmile_qr_scan", "ios": "https://dc.lft.to/lastmile_qr_scan"}, "is_reserved": 0, "is_disabled": 0, "name": "aaf049980aeb0ddf7ff1657ead3c724a", "bike_id": "aaf049980aeb0ddf7ff1657ead3c724a", "fusion_lat": 0.0, "lon": -77.0217745, "type": "electric_scooter", "fusion_lon": 0.0, "lat": 38.8922985}, {"rental_uris": {"android": "https://dc.lft.to/lastmile_qr_scan", "ios": "https://dc.lft.to/lastmile_qr_scan"}, "is_reserved": 0, "is_disabled": 0, "name": "4811e26959ae62009c985a9fbaf60a41", "bike_id": "4811e26959ae62009c985a9fbaf60a41", "fusion_lat": 0.0, "lon": -77.02167116666666, "type": "electric_bike", "fusion_lon": 0.0, "lat": 38.8956845}, {"rental_uris": {"android": "https://dc.lft.to/lastmile_qr_scan", "ios": "https://dc.lft.to/lastmile_qr_scan"}, "is_reserved": 0, "is_disabled": 0, "name": "941e8a36b19bff0000a75e98206bd755", "bike_id": "941e8a36b19bff0000a75e98206bd755", "fusion_lat": 0.0, "lon": -76.9853435, "type": "electric_scooter", "fusion_lon": 0.0, "lat": 38.8585425}, {"rental_uris": {"android": "https://dc.lft.to/lastmile_qr_scan", "ios": "https://dc.lft.to/lastmile_qr_scan"}, "is_reserved": 0, "is_disabled": 0, "name": "065be03fdda24ed4fa55ca958e273b0e", "bike_id": "065be03fdda24ed4fa55ca958e273b0e", "fusion_lat": 0.0, "lon": -77.01952816666666, "type": "electric_scooter", "fusion_lon": 0.0, "lat": 38.931973666666664}, {"rental_uris": {"android": "https://dc.lft.to/lastmile_qr_scan", "ios": "https://dc.lft.to/lastmile_qr_scan"}, "is_reserved": 0, "is_disabled": 0, "name": "e6976d9fb64551636634d2f17d25a23e", "bike_id": "e6976d9fb64551636634d2f17d25a23e", "fusion_lat": 0.0, "lon": -77.02312466666666, "type": "electric_scooter", "fusion_lon": 0.0, "lat": 38.909019}, {"rental_uris": {"android": "https://dc.lft.to/lastmile_qr_scan", "ios": "https://dc.lft.to/lastmile_qr_scan"}, "is_reserved": 0, "is_disabled": 0, "name": "345ed486e3a089109c3fe3c77649d8cc", "bike_id": "345ed486e3a089109c3fe3c77649d8cc", "fusion_lat": 0.0, "lon": -77.03837616666667, "type": "electric_scooter", "fusion_lon": 0.0, "lat": 38.92174333333333}, {"rental_uris": {"android": "https://dc.lft.to/lastmile_qr_scan", "ios": "https://dc.lft.to/lastmile_qr_scan"}, "is_reserved": 0, "is_disabled": 0, "name": "49a95433d764973d18a60871c057b746", "bike_id": "49a95433d764973d18a60871c057b746", "fusion_lat": 0.0, "lon": -77.02916416666666, "type": "electric_scooter", "fusion_lon": 0.0, "lat": 38.916564}, {"rental_uris": {"android": "https://dc.lft.to/lastmile_qr_scan", "ios": "https://dc.lft.to/lastmile_qr_scan"}, "is_reserved": 0, "is_disabled": 0, "name": "f0f8ca354020d5f8c5b87bd3b446b5a6", "bike_id": "f0f8ca354020d5f8c5b87bd3b446b5a6", "fusion_lat": 0.0, "lon": -77.03895666666666, "type": "electric_scooter", "fusion_lon": 0.0, "lat": 38.92224916666667}, {"rental_uris": {"android": "https://dc.lft.to/lastmile_qr_scan", "ios": "https://dc.lft.to/lastmile_qr_scan"}, "is_reserved": 0, "is_disabled": 0, "name": "a0d877a5c83867de92e6076ab85bb685", "bike_id": "a0d877a5c83867de92e6076ab85bb685", "fusion_lat": 0.0, "lon": -77.01230333333334, "type": "electric_bike", "fusion_lon": 0.0, "lat": 38.9508865}, {"rental_uris": {"android": "https://dc.lft.to/lastmile_qr_scan", "ios": "https://dc.lft.to/lastmile_qr_scan"}, "is_reserved": 0, "is_disabled": 0, "name": "d8ea191707269b261e85ec54726d6544", "bike_id": "d8ea191707269b261e85ec54726d6544", "fusion_lat": 0.0, "lon": -77.032931, "type": "electric_scooter", "fusion_lon": 0.0, "lat": 38.89921483333333}, {"rental_uris": {"android": "https://dc.lft.to/lastmile_qr_scan", "ios": "https://dc.lft.to/lastmile_qr_scan"}, "is_reserved": 0, "is_disabled": 0, "name": "c98e17ce176acb0a25a33978b8cbd260", "bike_id": "c98e17ce176acb0a25a33978b8cbd260", "fusion_lat": 0.0, "lon": -77.03960583333334, "type": "electric_scooter", "fusion_lon": 0.0, "lat": 38.93153316666667}, {"rental_uris": {"android": "https://dc.lft.to/lastmile_qr_scan", "ios": "https://dc.lft.to/lastmile_qr_scan"}, "is_reserved": 0, "is_disabled": 0, "name": "eeb1952d410cf03baea3b4b0d7232d60", "bike_id": "eeb1952d410cf03baea3b4b0d7232d60", "fusion_lat": 0.0, "lon": -77.018832, "type": "electric_scooter", "fusion_lon": 0.0, "lat": 38.9055605}, {"rental_uris": {"android": "https://dc.lft.to/lastmile_qr_scan", "ios": "https://dc.lft.to/lastmile_qr_scan"}, "is_reserved": 0, "is_disabled": 0, "name": "e933ff05b832c90a5770d6e667e86946", "bike_id": "e933ff05b832c90a5770d6e667e86946", "fusion_lat": 0.0, "lon": -77.02955433333334, "type": "electric_scooter", "fusion_lon": 0.0, "lat": 38.907344333333334}, {"rental_uris": {"android": "https://dc.lft.to/lastmile_qr_scan", "ios": "https://dc.lft.to/lastmile_qr_scan"}, "is_reserved": 0, "is_disabled": 0, "name": "ba644dba7a2bdc0aba5581f1bbc2a98e", "bike_id": "ba644dba7a2bdc0aba5581f1bbc2a98e", "fusion_lat": 0.0, "lon": -77.03189316666666, "type": "electric_scooter", "fusion_lon": 0.0, "lat": 38.90377133333333}, {"rental_uris": {"android": "https://dc.lft.to/lastmile_qr_scan", "ios": "https://dc.lft.to/lastmile_qr_scan"}, "is_reserved": 0, "is_disabled": 0, "name": "8f68825b5bc7c5d05aa0293c73ad8674", "bike_id": "8f68825b5bc7c5d05aa0293c73ad8674", "fusion_lat": 0.0, "lon": -77.0327655, "type": "electric_bike", "fusion_lon": 0.0, "lat": 38.96129}, {"rental_uris": {"android": "https://dc.lft.to/lastmile_qr_scan", "ios": "https://dc.lft.to/lastmile_qr_scan"}, "is_reserved": 0, "is_disabled": 0, "name": "fecacf3b2c18a35c7a7d614adb2a48e8", "bike_id": "fecacf3b2c18a35c7a7d614adb2a48e8", "fusion_lat": 0.0, "lon": -77.039429, "type": "electric_scooter", "fusion_lon": 0.0, "lat": 38.9083815}, {"rental_uris": {"android": "https://dc.lft.to/lastmile_qr_scan", "ios": "https://dc.lft.to/lastmile_qr_scan"}, "is_reserved": 0, "is_disabled": 0, "name": "0e7dfce1eaaf443b7d07f108c1b2e01c", "bike_id": "0e7dfce1eaaf443b7d07f108c1b2e01c", "fusion_lat": 0.0, "lon": -77.07488183333334, "type": "electric_scooter", "fusion_lon": 0.0, "lat": 38.92309}, {"rental_uris": {"android": "https://dc.lft.to/lastmile_qr_scan", "ios": "https://dc.lft.to/lastmile_qr_scan"}, "is_reserved": 0, "is_disabled": 0, "name": "ef8ccd15301bd7523a564160117c4962", "bike_id": "ef8ccd15301bd7523a564160117c4962", "fusion_lat": 0.0, "lon": -77.0034075, "type": "electric_scooter", "fusion_lon": 0.0, "lat": 38.8946505}, {"rental_uris": {"android": "https://dc.lft.to/lastmile_qr_scan", "ios": "https://dc.lft.to/lastmile_qr_scan"}, "is_reserved": 0, "is_disabled": 0, "name": "c067752ab4aa6278ae9e2e345cc25909", "bike_id": "c067752ab4aa6278ae9e2e345cc25909", "fusion_lat": 0.0, "lon": -77.034138, "type": "electric_scooter", "fusion_lon": 0.0, "lat": 38.930918166666665}, {"rental_uris": {"android": "https://dc.lft.to/lastmile_qr_scan", "ios": "https://dc.lft.to/lastmile_qr_scan"}, "is_reserved": 0, "is_disabled": 0, "name": "1c48d1efa7eb075dbdaa9a22c2186a11", "bike_id": "1c48d1efa7eb075dbdaa9a22c2186a11", "fusion_lat": 0.0, "lon": -77.02423433333334, "type": "electric_bike", "fusion_lon": 0.0, "lat": 38.93707033333333}, {"rental_uris": {"android": "https://dc.lft.to/lastmile_qr_scan", "ios": "https://dc.lft.to/lastmile_qr_scan"}, "is_reserved": 0, "is_disabled": 0, "name": "4244aa09a95c9d5729957146e38ef40a", "bike_id": "4244aa09a95c9d5729957146e38ef40a", "fusion_lat": 0.0, "lon": -77.029474, "type": "electric_scooter", "fusion_lon": 0.0, "lat": 38.90502333333333}, {"rental_uris": {"android": "https://dc.lft.to/lastmile_qr_scan", "ios": "https://dc.lft.to/lastmile_qr_scan"}, "is_reserved": 0, "is_disabled": 0, "name": "bab523126ff30afc2475226a37b04c14", "bike_id": "bab523126ff30afc2475226a37b04c14", "fusion_lat": 0.0, "lon": -76.9898855, "type": "electric_scooter", "fusion_lon": 0.0, "lat": 38.86436666666667}, {"rental_uris": {"android": "https://dc.lft.to/lastmile_qr_scan", "ios": "https://dc.lft.to/lastmile_qr_scan"}, "is_reserved": 0, "is_disabled": 0, "name": "3fee549d39b1b9fe913fb77c9802b73c", "bike_id": "3fee549d39b1b9fe913fb77c9802b73c", "fusion_lat": 0.0, "lon": -76.99517566666667, "type": "electric_scooter", "fusion_lon": 0.0, "lat": 38.88794516666667}, {"rental_uris": {"android": "https://dc.lft.to/lastmile_qr_scan", "ios": "https://dc.lft.to/lastmile_qr_scan"}, "is_reserved": 0, "is_disabled": 0, "name": "bfc2c4d785f25f555e5aec56a21d229e", "bike_id": "bfc2c4d785f25f555e5aec56a21d229e", "fusion_lat": 0.0, "lon": -77.05688783333333, "type": "electric_scooter", "fusion_lon": 0.0, "lat": 38.906068166666664}, {"rental_uris": {"android": "https://dc.lft.to/lastmile_qr_scan", "ios": "https://dc.lft.to/lastmile_qr_scan"}, "is_reserved": 0, "is_disabled": 0, "name": "8caf71491b34101079972b19c9190fc7", "bike_id": "8caf71491b34101079972b19c9190fc7", "fusion_lat": 0.0, "lon": -76.9652505, "type": "electric_scooter", "fusion_lon": 0.0, "lat": 38.87632383333333}, {"rental_uris": {"android": "https://dc.lft.to/lastmile_qr_scan", "ios": "https://dc.lft.to/lastmile_qr_scan"}, "is_reserved": 0, "is_disabled": 0, "name": "c43f94e7e58ae1234f57a27fb87e2261", "bike_id": "c43f94e7e58ae1234f57a27fb87e2261", "fusion_lat": 0.0, "lon": -76.9826215, "type": "electric_scooter", "fusion_lon": 0.0, "lat": 38.868931333333336}, {"rental_uris": {"android": "https://dc.lft.to/lastmile_qr_scan", "ios": "https://dc.lft.to/lastmile_qr_scan"}, "is_reserved": 0, "is_disabled": 0, "name": "5ab66d703786f403301392b71a56d6dc", "bike_id": "5ab66d703786f403301392b71a56d6dc", "fusion_lat": 0.0, "lon": -77.048697, "type": "electric_scooter", "fusion_lon": 0.0, "lat": 38.899531833333334}, {"rental_uris": {"android": "https://dc.lft.to/lastmile_qr_scan", "ios": "https://dc.lft.to/lastmile_qr_scan"}, "is_reserved": 0, "is_disabled": 0, "name": "76761705c47290f599e7ffb5bdd4920f", "bike_id": "76761705c47290f599e7ffb5bdd4920f", "fusion_lat": 0.0, "lon": -77.05180583333333, "type": "electric_scooter", "fusion_lon": 0.0, "lat": 38.9031835}, {"rental_uris": {"android": "https://dc.lft.to/lastmile_qr_scan", "ios": "https://dc.lft.to/lastmile_qr_scan"}, "is_reserved": 0, "is_disabled": 0, "name": "fdc5367bf3394cbf161ff221b5dfb499", "bike_id": "fdc5367bf3394cbf161ff221b5dfb499", "fusion_lat": 0.0, "lon": -77.02866983333334, "type": "electric_bike", "fusion_lon": 0.0, "lat": 38.921327833333336}, {"rental_uris": {"android": "https://dc.lft.to/lastmile_qr_scan", "ios": "https://dc.lft.to/lastmile_qr_scan"}, "is_reserved": 0, "is_disabled": 0, "name": "dc8e35f486eaad23dbaef783cb2d761a", "bike_id": "dc8e35f486eaad23dbaef783cb2d761a", "fusion_lat": 0.0, "lon": -76.990675, "type": "electric_bike", "fusion_lon": 0.0, "lat": 38.898173}, {"rental_uris": {"android": "https://dc.lft.to/lastmile_qr_scan", "ios": "https://dc.lft.to/lastmile_qr_scan"}, "is_reserved": 0, "is_disabled": 0, "name": "1772ffbe9c78f7fe79ce002ddaae8c67", "bike_id": "1772ffbe9c78f7fe79ce002ddaae8c67", "fusion_lat": 0.0, "lon": -77.03931416666667, "type": "electric_scooter", "fusion_lon": 0.0, "lat": 38.924972333333336}, {"rental_uris": {"android": "https://dc.lft.to/lastmile_qr_scan", "ios": "https://dc.lft.to/lastmile_qr_scan"}, "is_reserved": 0, "is_disabled": 0, "name": "e6b6ecbb8aee7ca5751b872b76576067", "bike_id": "e6b6ecbb8aee7ca5751b872b76576067", "fusion_lat": 0.0, "lon": -76.93175333333333, "type": "electric_scooter", "fusion_lon": 0.0, "lat": 38.89887733333333}, {"rental_uris": {"android": "https://dc.lft.to/lastmile_qr_scan", "ios": "https://dc.lft.to/lastmile_qr_scan"}, "is_reserved": 0, "is_disabled": 0, "name": "73d0bd36edec95fe50bbd6db8750251d", "bike_id": "73d0bd36edec95fe50bbd6db8750251d", "fusion_lat": 0.0, "lon": -76.97335016666666, "type": "electric_scooter", "fusion_lon": 0.0, "lat": 38.86515433333334}, {"rental_uris": {"android": "https://dc.lft.to/lastmile_qr_scan", "ios": "https://dc.lft.to/lastmile_qr_scan"}, "is_reserved": 0, "is_disabled": 0, "name": "b7e7f0f92b08cc52d7587e2b9abc4875", "bike_id": "b7e7f0f92b08cc52d7587e2b9abc4875", "fusion_lat": 0.0, "lon": -77.03851516666667, "type": "electric_scooter", "fusion_lon": 0.0, "lat": 38.932007166666665}, {"rental_uris": {"android": "https://dc.lft.to/lastmile_qr_scan", "ios": "https://dc.lft.to/lastmile_qr_scan"}, "is_reserved": 0, "is_disabled": 0, "name": "232a94a3f79b6ed1e62cfc0a9a6acfe9", "bike_id": "232a94a3f79b6ed1e62cfc0a9a6acfe9", "fusion_lat": 0.0, "lon": -77.024915, "type": "electric_scooter", "fusion_lon": 0.0, "lat": 38.941869833333335}, {"rental_uris": {"android": "https://dc.lft.to/lastmile_qr_scan", "ios": "https://dc.lft.to/lastmile_qr_scan"}, "is_reserved": 0, "is_disabled": 0, "name": "993b1c5a50d699492b045305ecf86e76", "bike_id": "993b1c5a50d699492b045305ecf86e76", "fusion_lat": 0.0, "lon": -77.04970766666666, "type": "electric_scooter", "fusion_lon": 0.0, "lat": 38.90536616666667}, {"rental_uris": {"android": "https://dc.lft.to/lastmile_qr_scan", "ios": "https://dc.lft.to/lastmile_qr_scan"}, "is_reserved": 0, "is_disabled": 0, "name": "e950a4f3929a3ec0bfddb80dfc0da137", "bike_id": "e950a4f3929a3ec0bfddb80dfc0da137", "fusion_lat": 0.0, "lon": -77.04493883333333, "type": "electric_scooter", "fusion_lon": 0.0, "lat": 38.899517833333334}, {"rental_uris": {"android": "https://dc.lft.to/lastmile_qr_scan", "ios": "https://dc.lft.to/lastmile_qr_scan"}, "is_reserved": 0, "is_disabled": 0, "name": "5190554301ded55e3821709bd9e96a6f", "bike_id": "5190554301ded55e3821709bd9e96a6f", "fusion_lat": 0.0, "lon": -77.03656483333333, "type": "electric_scooter", "fusion_lon": 0.0, "lat": 38.92312783333333}, {"rental_uris": {"android": "https://dc.lft.to/lastmile_qr_scan", "ios": "https://dc.lft.to/lastmile_qr_scan"}, "is_reserved": 0, "is_disabled": 0, "name": "93e8f76363998895c27f008b960f9745", "bike_id": "93e8f76363998895c27f008b960f9745", "fusion_lat": 0.0, "lon": -76.996469, "type": "electric_bike", "fusion_lon": 0.0, "lat": 38.967858}, {"rental_uris": {"android": "https://dc.lft.to/lastmile_qr_scan", "ios": "https://dc.lft.to/lastmile_qr_scan"}, "is_reserved": 0, "is_disabled": 0, "name": "3ae31e97b022313a3d59f8dc8abd4b3e", "bike_id": "3ae31e97b022313a3d59f8dc8abd4b3e", "fusion_lat": 0.0, "lon": -77.009058, "type": "electric_scooter", "fusion_lon": 0.0, "lat": 38.90611233333333}, {"rental_uris": {"android": "https://dc.lft.to/lastmile_qr_scan", "ios": "https://dc.lft.to/lastmile_qr_scan"}, "is_reserved": 0, "is_disabled": 0, "name": "19fccc813e04e8e5f912c4d7f2e1f497", "bike_id": "19fccc813e04e8e5f912c4d7f2e1f497", "fusion_lat": 0.0, "lon": -77.02976666666666, "type": "electric_scooter", "fusion_lon": 0.0, "lat": 38.924111333333336}, {"rental_uris": {"android": "https://dc.lft.to/lastmile_qr_scan", "ios": "https://dc.lft.to/lastmile_qr_scan"}, "is_reserved": 0, "is_disabled": 0, "name": "ee69868146bfb22aafae167979aa8379", "bike_id": "ee69868146bfb22aafae167979aa8379", "fusion_lat": 0.0, "lon": -77.0386775, "type": "electric_scooter", "fusion_lon": 0.0, "lat": 38.909730833333334}, {"rental_uris": {"android": "https://dc.lft.to/lastmile_qr_scan", "ios": "https://dc.lft.to/lastmile_qr_scan"}, "is_reserved": 0, "is_disabled": 0, "name": "68e1266ec7344e129c754408924d6cd9", "bike_id": "68e1266ec7344e129c754408924d6cd9", "fusion_lat": 0.0, "lon": -77.034791, "type": "electric_scooter", "fusion_lon": 0.0, "lat": 38.93576933333333}, {"rental_uris": {"android": "https://dc.lft.to/lastmile_qr_scan", "ios": "https://dc.lft.to/lastmile_qr_scan"}, "is_reserved": 0, "is_disabled": 0, "name": "7476da943ba8140fd66c1dd4c2b401be", "bike_id": "7476da943ba8140fd66c1dd4c2b401be", "fusion_lat": 0.0, "lon": -77.05348816666667, "type": "electric_scooter", "fusion_lon": 0.0, "lat": 38.903829}, {"rental_uris": {"android": "https://dc.lft.to/lastmile_qr_scan", "ios": "https://dc.lft.to/lastmile_qr_scan"}, "is_reserved": 0, "is_disabled": 0, "name": "224d939d9a9bc58c47a54526c6f02264", "bike_id": "224d939d9a9bc58c47a54526c6f02264", "fusion_lat": 0.0, "lon": -77.034576, "type": "electric_scooter", "fusion_lon": 0.0, "lat": 38.915823333333336}, {"rental_uris": {"android": "https://dc.lft.to/lastmile_qr_scan", "ios": "https://dc.lft.to/lastmile_qr_scan"}, "is_reserved": 0, "is_disabled": 0, "name": "2d11f7f4f52d08ecc8a26c684177ba7c", "bike_id": "2d11f7f4f52d08ecc8a26c684177ba7c", "fusion_lat": 0.0, "lon": -77.04143183333333, "type": "electric_scooter", "fusion_lon": 0.0, "lat": 38.90260833333333}, {"rental_uris": {"android": "https://dc.lft.to/lastmile_qr_scan", "ios": "https://dc.lft.to/lastmile_qr_scan"}, "is_reserved": 0, "is_disabled": 0, "name": "4501090c7fa7b5fe93c25e2d50ff9222", "bike_id": "4501090c7fa7b5fe93c25e2d50ff9222", "fusion_lat": 0.0, "lon": -77.01207183333334, "type": "electric_scooter", "fusion_lon": 0.0, "lat": 38.921208}, {"rental_uris": {"android": "https://dc.lft.to/lastmile_qr_scan", "ios": "https://dc.lft.to/lastmile_qr_scan"}, "is_reserved": 0, "is_disabled": 0, "name": "42c936fa4ed5641483e857da4f93e814", "bike_id": "42c936fa4ed5641483e857da4f93e814", "fusion_lat": 0.0, "lon": -77.00053766666667, "type": "electric_scooter", "fusion_lon": 0.0, "lat": 38.878809333333336}, {"rental_uris": {"android": "https://dc.lft.to/lastmile_qr_scan", "ios": "https://dc.lft.to/lastmile_qr_scan"}, "is_reserved": 0, "is_disabled": 0, "name": "e3e26e3d709686e26c2a08db339da0dd", "bike_id": "e3e26e3d709686e26c2a08db339da0dd", "fusion_lat": 0.0, "lon": -77.0785705, "type": "electric_scooter", "fusion_lon": 0.0, "lat": 38.924649333333335}, {"rental_uris": {"android": "https://dc.lft.to/lastmile_qr_scan", "ios": "https://dc.lft.to/lastmile_qr_scan"}, "is_reserved": 0, "is_disabled": 0, "name": "e45c6e7f43071f32e67ebd4e86fae9c0", "bike_id": "e45c6e7f43071f32e67ebd4e86fae9c0", "fusion_lat": 0.0, "lon": -77.01990083333334, "type": "electric_scooter", "fusion_lon": 0.0, "lat": 38.885982}, {"rental_uris": {"android": "https://dc.lft.to/lastmile_qr_scan", "ios": "https://dc.lft.to/lastmile_qr_scan"}, "is_reserved": 0, "is_disabled": 0, "name": "4b94bfb7589163961a8797b84368943b", "bike_id": "4b94bfb7589163961a8797b84368943b", "fusion_lat": 0.0, "lon": -76.94463483333334, "type": "electric_scooter", "fusion_lon": 0.0, "lat": 38.89030983333333}, {"rental_uris": {"android": "https://dc.lft.to/lastmile_qr_scan", "ios": "https://dc.lft.to/lastmile_qr_scan"}, "is_reserved": 0, "is_disabled": 0, "name": "b866c4815c0b8cd03dda492b7b2d7919", "bike_id": "b866c4815c0b8cd03dda492b7b2d7919", "fusion_lat": 0.0, "lon": -77.02460516666666, "type": "electric_scooter", "fusion_lon": 0.0, "lat": 38.92048333333334}, {"rental_uris": {"android": "https://dc.lft.to/lastmile_qr_scan", "ios": "https://dc.lft.to/lastmile_qr_scan"}, "is_reserved": 0, "is_disabled": 0, "name": "511b0fcaf43759f31371b03fc9f59b54", "bike_id": "511b0fcaf43759f31371b03fc9f59b54", "fusion_lat": 0.0, "lon": -77.01193616666667, "type": "electric_scooter", "fusion_lon": 0.0, "lat": 38.90023883333333}, {"rental_uris": {"android": "https://dc.lft.to/lastmile_qr_scan", "ios": "https://dc.lft.to/lastmile_qr_scan"}, "is_reserved": 0, "is_disabled": 0, "name": "f63e2336b1d2d00336fbb237b74a96ab", "bike_id": "f63e2336b1d2d00336fbb237b74a96ab", "fusion_lat": 0.0, "lon": -77.03295866666667, "type": "electric_scooter", "fusion_lon": 0.0, "lat": 38.956176666666664}, {"rental_uris": {"android": "https://dc.lft.to/lastmile_qr_scan", "ios": "https://dc.lft.to/lastmile_qr_scan"}, "is_reserved": 0, "is_disabled": 0, "name": "c818b14388b0d348bf0c47e3877c56df", "bike_id": "c818b14388b0d348bf0c47e3877c56df", "fusion_lat": 0.0, "lon": -77.029437, "type": "electric_scooter", "fusion_lon": 0.0, "lat": 38.90727033333334}, {"rental_uris": {"android": "https://dc.lft.to/lastmile_qr_scan", "ios": "https://dc.lft.to/lastmile_qr_scan"}, "is_reserved": 0, "is_disabled": 0, "name": "51a48a8144c9eb774c7a7c7c30a59828", "bike_id": "51a48a8144c9eb774c7a7c7c30a59828", "fusion_lat": 0.0, "lon": -76.99506033333333, "type": "electric_scooter", "fusion_lon": 0.0, "lat": 38.88083016666667}, {"rental_uris": {"android": "https://dc.lft.to/lastmile_qr_scan", "ios": "https://dc.lft.to/lastmile_qr_scan"}, "is_reserved": 0, "is_disabled": 0, "name": "3aa0fa2155600ada5e06af440be92c7a", "bike_id": "3aa0fa2155600ada5e06af440be92c7a", "fusion_lat": 0.0, "lon": -77.03226483333333, "type": "electric_scooter", "fusion_lon": 0.0, "lat": 38.897074833333335}, {"rental_uris": {"android": "https://dc.lft.to/lastmile_qr_scan", "ios": "https://dc.lft.to/lastmile_qr_scan"}, "is_reserved": 0, "is_disabled": 0, "name": "133f67eb2b6f032dd7a702edc598ab53", "bike_id": "133f67eb2b6f032dd7a702edc598ab53", "fusion_lat": 0.0, "lon": -77.061101, "type": "electric_scooter", "fusion_lon": 0.0, "lat": 38.902333166666665}, {"rental_uris": {"android": "https://dc.lft.to/lastmile_qr_scan", "ios": "https://dc.lft.to/lastmile_qr_scan"}, "is_reserved": 0, "is_disabled": 0, "name": "e3ef842cb1b4495da6d826f6f04df76a", "bike_id": "e3ef842cb1b4495da6d826f6f04df76a", "fusion_lat": 0.0, "lon": -77.03036116666667, "type": "electric_scooter", "fusion_lon": 0.0, "lat": 38.908605666666666}, {"rental_uris": {"android": "https://dc.lft.to/lastmile_qr_scan", "ios": "https://dc.lft.to/lastmile_qr_scan"}, "is_reserved": 0, "is_disabled": 0, "name": "57be456a1e0734cf0135c04732632306", "bike_id": "57be456a1e0734cf0135c04732632306", "fusion_lat": 0.0, "lon": -77.06651383333333, "type": "electric_scooter", "fusion_lon": 0.0, "lat": 38.95070033333333}, {"rental_uris": {"android": "https://dc.lft.to/lastmile_qr_scan", "ios": "https://dc.lft.to/lastmile_qr_scan"}, "is_reserved": 0, "is_disabled": 0, "name": "ed2b43dc0e168b8b2e4829a25b22f56a", "bike_id": "ed2b43dc0e168b8b2e4829a25b22f56a", "fusion_lat": 0.0, "lon": -77.23414416666667, "type": "electric_bike", "fusion_lon": 0.0, "lat": 38.875828166666665}, {"rental_uris": {"android": "https://dc.lft.to/lastmile_qr_scan", "ios": "https://dc.lft.to/lastmile_qr_scan"}, "is_reserved": 0, "is_disabled": 0, "name": "d0c73c903d47e55b7d4436c59910d900", "bike_id": "d0c73c903d47e55b7d4436c59910d900", "fusion_lat": 0.0, "lon": -77.05332633333333, "type": "electric_scooter", "fusion_lon": 0.0, "lat": 38.90159166666667}, {"rental_uris": {"android": "https://dc.lft.to/lastmile_qr_scan", "ios": "https://dc.lft.to/lastmile_qr_scan"}, "is_reserved": 0, "is_disabled": 0, "name": "8cd0dbf739b217e6444d1bfebd1e1a5c", "bike_id": "8cd0dbf739b217e6444d1bfebd1e1a5c", "fusion_lat": 0.0, "lon": -77.0228705, "type": "electric_scooter", "fusion_lon": 0.0, "lat": 38.91696066666667}, {"rental_uris": {"android": "https://dc.lft.to/lastmile_qr_scan", "ios": "https://dc.lft.to/lastmile_qr_scan"}, "is_reserved": 0, "is_disabled": 0, "name": "116842a0a2a3c78fb89a2a56fae092a3", "bike_id": "116842a0a2a3c78fb89a2a56fae092a3", "fusion_lat": 0.0, "lon": -76.99034566666667, "type": "electric_scooter", "fusion_lon": 0.0, "lat": 38.88857616666667}, {"rental_uris": {"android": "https://dc.lft.to/lastmile_qr_scan", "ios": "https://dc.lft.to/lastmile_qr_scan"}, "is_reserved": 0, "is_disabled": 0, "name": "646ac243fd8a9c8cb67884fe4f170434", "bike_id": "646ac243fd8a9c8cb67884fe4f170434", "fusion_lat": 0.0, "lon": -77.01470666666667, "type": "electric_bike", "fusion_lon": 0.0, "lat": 38.918249833333334}, {"rental_uris": {"android": "https://dc.lft.to/lastmile_qr_scan", "ios": "https://dc.lft.to/lastmile_qr_scan"}, "is_reserved": 0, "is_disabled": 0, "name": "065b03e9ff60cd624c1d33bb17f2fce8", "bike_id": "065b03e9ff60cd624c1d33bb17f2fce8", "fusion_lat": 0.0, "lon": -77.02408866666667, "type": "electric_scooter", "fusion_lon": 0.0, "lat": 38.90192783333333}, {"rental_uris": {"android": "https://dc.lft.to/lastmile_qr_scan", "ios": "https://dc.lft.to/lastmile_qr_scan"}, "is_reserved": 0, "is_disabled": 0, "name": "0dc8a09e6f908d20d48bd69681c3fc47", "bike_id": "0dc8a09e6f908d20d48bd69681c3fc47", "fusion_lat": 0.0, "lon": -77.0083155, "type": "electric_scooter", "fusion_lon": 0.0, "lat": 38.87654116666667}, {"rental_uris": {"android": "https://dc.lft.to/lastmile_qr_scan", "ios": "https://dc.lft.to/lastmile_qr_scan"}, "is_reserved": 0, "is_disabled": 0, "name": "b825358019a509c756f54dec061db2d4", "bike_id": "b825358019a509c756f54dec061db2d4", "fusion_lat": 0.0, "lon": -77.027155, "type": "electric_scooter", "fusion_lon": 0.0, "lat": 38.90688166666666}, {"rental_uris": {"android": "https://dc.lft.to/lastmile_qr_scan", "ios": "https://dc.lft.to/lastmile_qr_scan"}, "is_reserved": 0, "is_disabled": 0, "name": "ffd65ee6e45116063bda32a8a7d7869f", "bike_id": "ffd65ee6e45116063bda32a8a7d7869f", "fusion_lat": 0.0, "lon": -77.0653175, "type": "electric_bike", "fusion_lon": 0.0, "lat": 38.99229366666667}, {"rental_uris": {"android": "https://dc.lft.to/lastmile_qr_scan", "ios": "https://dc.lft.to/lastmile_qr_scan"}, "is_reserved": 0, "is_disabled": 0, "name": "2b778b8e3258ec7e19f0d7ee0ea036c5", "bike_id": "2b778b8e3258ec7e19f0d7ee0ea036c5", "fusion_lat": 0.0, "lon": -77.04665, "type": "electric_scooter", "fusion_lon": 0.0, "lat": 38.90950316666667}, {"rental_uris": {"android": "https://dc.lft.to/lastmile_qr_scan", "ios": "https://dc.lft.to/lastmile_qr_scan"}, "is_reserved": 0, "is_disabled": 0, "name": "75edd842e28c0d71bf3723c79f03d83b", "bike_id": "75edd842e28c0d71bf3723c79f03d83b", "fusion_lat": 0.0, "lon": -77.02657316666667, "type": "electric_scooter", "fusion_lon": 0.0, "lat": 38.92380133333333}, {"rental_uris": {"android": "https://dc.lft.to/lastmile_qr_scan", "ios": "https://dc.lft.to/lastmile_qr_scan"}, "is_reserved": 0, "is_disabled": 0, "name": "97494d6966ac7c4dab224f419159f767", "bike_id": "97494d6966ac7c4dab224f419159f767", "fusion_lat": 0.0, "lon": -77.01223466666667, "type": "electric_scooter", "fusion_lon": 0.0, "lat": 38.9140435}, {"rental_uris": {"android": "https://dc.lft.to/lastmile_qr_scan", "ios": "https://dc.lft.to/lastmile_qr_scan"}, "is_reserved": 0, "is_disabled": 0, "name": "2c0abd8500158bcd2c6e4f1ebc27128b", "bike_id": "2c0abd8500158bcd2c6e4f1ebc27128b", "fusion_lat": 0.0, "lon": -77.09716283333333, "type": "electric_bike", "fusion_lon": 0.0, "lat": 38.88681233333333}, {"rental_uris": {"android": "https://dc.lft.to/lastmile_qr_scan", "ios": "https://dc.lft.to/lastmile_qr_scan"}, "is_reserved": 0, "is_disabled": 0, "name": "9bd0f13265ba2869daab4e164f4543d0", "bike_id": "9bd0f13265ba2869daab4e164f4543d0", "fusion_lat": 0.0, "lon": -77.031606, "type": "electric_scooter", "fusion_lon": 0.0, "lat": 38.89221666666667}, {"rental_uris": {"android": "https://dc.lft.to/lastmile_qr_scan", "ios": "https://dc.lft.to/lastmile_qr_scan"}, "is_reserved": 0, "is_disabled": 0, "name": "7b9deff9efb9e0e7f0136ac3c14eaa95", "bike_id": "7b9deff9efb9e0e7f0136ac3c14eaa95", "fusion_lat": 0.0, "lon": -77.03419333333333, "type": "electric_scooter", "fusion_lon": 0.0, "lat": 38.92392183333333}, {"rental_uris": {"android": "https://dc.lft.to/lastmile_qr_scan", "ios": "https://dc.lft.to/lastmile_qr_scan"}, "is_reserved": 0, "is_disabled": 0, "name": "c8bad60991b81ed7174f6c4a856ffb4b", "bike_id": "c8bad60991b81ed7174f6c4a856ffb4b", "fusion_lat": 0.0, "lon": -77.04710783333333, "type": "electric_scooter", "fusion_lon": 0.0, "lat": 38.90249216666667}, {"rental_uris": {"android": "https://dc.lft.to/lastmile_qr_scan", "ios": "https://dc.lft.to/lastmile_qr_scan"}, "is_reserved": 0, "is_disabled": 0, "name": "0130e6e6f6ce7436aa558fb46828715a", "bike_id": "0130e6e6f6ce7436aa558fb46828715a", "fusion_lat": 0.0, "lon": -77.03547716666667, "type": "electric_scooter", "fusion_lon": 0.0, "lat": 38.926462}, {"rental_uris": {"android": "https://dc.lft.to/lastmile_qr_scan", "ios": "https://dc.lft.to/lastmile_qr_scan"}, "is_reserved": 0, "is_disabled": 0, "name": "b6b09286a7e556e09490dcf7687d2576", "bike_id": "b6b09286a7e556e09490dcf7687d2576", "fusion_lat": 0.0, "lon": -77.02965416666666, "type": "electric_scooter", "fusion_lon": 0.0, "lat": 38.9037355}, {"rental_uris": {"android": "https://dc.lft.to/lastmile_qr_scan", "ios": "https://dc.lft.to/lastmile_qr_scan"}, "is_reserved": 0, "is_disabled": 0, "name": "de31dce20073904d6ff1914ce9842ee7", "bike_id": "de31dce20073904d6ff1914ce9842ee7", "fusion_lat": 0.0, "lon": -77.05317683333334, "type": "electric_scooter", "fusion_lon": 0.0, "lat": 38.915561833333335}, {"rental_uris": {"android": "https://dc.lft.to/lastmile_qr_scan", "ios": "https://dc.lft.to/lastmile_qr_scan"}, "is_reserved": 0, "is_disabled": 0, "name": "463416b3567028caec63cba067eef1c8", "bike_id": "463416b3567028caec63cba067eef1c8", "fusion_lat": 0.0, "lon": -77.03506416666667, "type": "electric_scooter", "fusion_lon": 0.0, "lat": 38.91883166666667}, {"rental_uris": {"android": "https://dc.lft.to/lastmile_qr_scan", "ios": "https://dc.lft.to/lastmile_qr_scan"}, "is_reserved": 0, "is_disabled": 0, "name": "1bf728b8312dca73822c89473df09306", "bike_id": "1bf728b8312dca73822c89473df09306", "fusion_lat": 0.0, "lon": -77.036375, "type": "electric_scooter", "fusion_lon": 0.0, "lat": 38.927017166666666}, {"rental_uris": {"android": "https://dc.lft.to/lastmile_qr_scan", "ios": "https://dc.lft.to/lastmile_qr_scan"}, "is_reserved": 0, "is_disabled": 0, "name": "28ab8f01012c026b8198d8420fd2e970", "bike_id": "28ab8f01012c026b8198d8420fd2e970", "fusion_lat": 0.0, "lon": -77.03551633333333, "type": "electric_scooter", "fusion_lon": 0.0, "lat": 38.918322833333335}, {"rental_uris": {"android": "https://dc.lft.to/lastmile_qr_scan", "ios": "https://dc.lft.to/lastmile_qr_scan"}, "is_reserved": 0, "is_disabled": 0, "name": "c1d8f7650baf5287765104ef3fa33ea1", "bike_id": "c1d8f7650baf5287765104ef3fa33ea1", "fusion_lat": 0.0, "lon": -77.02053283333333, "type": "electric_scooter", "fusion_lon": 0.0, "lat": 38.9237245}, {"rental_uris": {"android": "https://dc.lft.to/lastmile_qr_scan", "ios": "https://dc.lft.to/lastmile_qr_scan"}, "is_reserved": 0, "is_disabled": 0, "name": "a0b3c80e4fa655c12ca4be52b9993d38", "bike_id": "a0b3c80e4fa655c12ca4be52b9993d38", "fusion_lat": 0.0, "lon": -77.01440783333334, "type": "electric_scooter", "fusion_lon": 0.0, "lat": 38.91958066666667}, {"rental_uris": {"android": "https://dc.lft.to/lastmile_qr_scan", "ios": "https://dc.lft.to/lastmile_qr_scan"}, "is_reserved": 0, "is_disabled": 0, "name": "8486fa41dae5b59633243284c5ff74a1", "bike_id": "8486fa41dae5b59633243284c5ff74a1", "fusion_lat": 0.0, "lon": -77.00628516666667, "type": "electric_scooter", "fusion_lon": 0.0, "lat": 38.87194983333333}, {"rental_uris": {"android": "https://dc.lft.to/lastmile_qr_scan", "ios": "https://dc.lft.to/lastmile_qr_scan"}, "is_reserved": 0, "is_disabled": 0, "name": "a50442ae87fb348ce646672226a4ce27", "bike_id": "a50442ae87fb348ce646672226a4ce27", "fusion_lat": 0.0, "lon": -77.05728983333333, "type": "electric_scooter", "fusion_lon": 0.0, "lat": 38.9337405}, {"rental_uris": {"android": "https://dc.lft.to/lastmile_qr_scan", "ios": "https://dc.lft.to/lastmile_qr_scan"}, "is_reserved": 0, "is_disabled": 0, "name": "6a9a3364e5e97899bc45f25e76d02e1b", "bike_id": "6a9a3364e5e97899bc45f25e76d02e1b", "fusion_lat": 0.0, "lon": -77.00620283333333, "type": "electric_scooter", "fusion_lon": 0.0, "lat": 38.871747666666664}, {"rental_uris": {"android": "https://dc.lft.to/lastmile_qr_scan", "ios": "https://dc.lft.to/lastmile_qr_scan"}, "is_reserved": 0, "is_disabled": 0, "name": "0ebb4c2fe0e8c6bfc1a49f4ab736f38c", "bike_id": "0ebb4c2fe0e8c6bfc1a49f4ab736f38c", "fusion_lat": 0.0, "lon": -77.036482, "type": "electric_scooter", "fusion_lon": 0.0, "lat": 38.9360725}, {"rental_uris": {"android": "https://dc.lft.to/lastmile_qr_scan", "ios": "https://dc.lft.to/lastmile_qr_scan"}, "is_reserved": 0, "is_disabled": 0, "name": "33f8faca5e22528cf98d8712fef3f0d8", "bike_id": "33f8faca5e22528cf98d8712fef3f0d8", "fusion_lat": 0.0, "lon": -77.04866583333333, "type": "electric_scooter", "fusion_lon": 0.0, "lat": 38.90026183333333}, {"rental_uris": {"android": "https://dc.lft.to/lastmile_qr_scan", "ios": "https://dc.lft.to/lastmile_qr_scan"}, "is_reserved": 0, "is_disabled": 0, "name": "6d46c5636c4de694c13975529a3e0a49", "bike_id": "6d46c5636c4de694c13975529a3e0a49", "fusion_lat": 0.0, "lon": -76.94871366666666, "type": "electric_scooter", "fusion_lon": 0.0, "lat": 38.89501633333333}, {"rental_uris": {"android": "https://dc.lft.to/lastmile_qr_scan", "ios": "https://dc.lft.to/lastmile_qr_scan"}, "is_reserved": 0, "is_disabled": 0, "name": "f04ad524b3f0264ca3c76748551de2af", "bike_id": "f04ad524b3f0264ca3c76748551de2af", "fusion_lat": 0.0, "lon": -77.02029416666667, "type": "electric_bike", "fusion_lon": 0.0, "lat": 38.96559833333333}, {"rental_uris": {"android": "https://dc.lft.to/lastmile_qr_scan", "ios": "https://dc.lft.to/lastmile_qr_scan"}, "is_reserved": 0, "is_disabled": 0, "name": "590cd1441e88dfe92c656f455b197de8", "bike_id": "590cd1441e88dfe92c656f455b197de8", "fusion_lat": 0.0, "lon": -77.02679633333334, "type": "electric_scooter", "fusion_lon": 0.0, "lat": 38.90721116666667}, {"rental_uris": {"android": "https://dc.lft.to/lastmile_qr_scan", "ios": "https://dc.lft.to/lastmile_qr_scan"}, "is_reserved": 0, "is_disabled": 0, "name": "a37ee9af871793a009b1cd59706f0834", "bike_id": "a37ee9af871793a009b1cd59706f0834", "fusion_lat": 0.0, "lon": -77.0362575, "type": "electric_scooter", "fusion_lon": 0.0, "lat": 38.93682}, {"rental_uris": {"android": "https://dc.lft.to/lastmile_qr_scan", "ios": "https://dc.lft.to/lastmile_qr_scan"}, "is_reserved": 0, "is_disabled": 0, "name": "b108a47c868e5ea9e039b6b08569e1d2", "bike_id": "b108a47c868e5ea9e039b6b08569e1d2", "fusion_lat": 0.0, "lon": -77.02790983333334, "type": "electric_scooter", "fusion_lon": 0.0, "lat": 38.939255333333335}, {"rental_uris": {"android": "https://dc.lft.to/lastmile_qr_scan", "ios": "https://dc.lft.to/lastmile_qr_scan"}, "is_reserved": 0, "is_disabled": 0, "name": "e962cbe01dd9781006ad14f12fa0e8ed", "bike_id": "e962cbe01dd9781006ad14f12fa0e8ed", "fusion_lat": 0.0, "lon": -77.013321, "type": "electric_scooter", "fusion_lon": 0.0, "lat": 38.914151}, {"rental_uris": {"android": "https://dc.lft.to/lastmile_qr_scan", "ios": "https://dc.lft.to/lastmile_qr_scan"}, "is_reserved": 0, "is_disabled": 0, "name": "274459aa6902264e00f808ff25b7a582", "bike_id": "274459aa6902264e00f808ff25b7a582", "fusion_lat": 0.0, "lon": -77.030726, "type": "electric_bike", "fusion_lon": 0.0, "lat": 38.922405}, {"rental_uris": {"android": "https://dc.lft.to/lastmile_qr_scan", "ios": "https://dc.lft.to/lastmile_qr_scan"}, "is_reserved": 0, "is_disabled": 0, "name": "ed9ca77a863158815bdba3a060f9cbd6", "bike_id": "ed9ca77a863158815bdba3a060f9cbd6", "fusion_lat": 0.0, "lon": -76.996731, "type": "electric_bike", "fusion_lon": 0.0, "lat": 38.83823483333333}, {"rental_uris": {"android": "https://dc.lft.to/lastmile_qr_scan", "ios": "https://dc.lft.to/lastmile_qr_scan"}, "is_reserved": 0, "is_disabled": 0, "name": "71ce574937204b9f0e3519a3e3c350c6", "bike_id": "71ce574937204b9f0e3519a3e3c350c6", "fusion_lat": 0.0, "lon": -77.03461916666667, "type": "electric_scooter", "fusion_lon": 0.0, "lat": 38.91669366666667}, {"rental_uris": {"android": "https://dc.lft.to/lastmile_qr_scan", "ios": "https://dc.lft.to/lastmile_qr_scan"}, "is_reserved": 0, "is_disabled": 0, "name": "daa7bd466b58d40ee949dc486732e8b0", "bike_id": "daa7bd466b58d40ee949dc486732e8b0", "fusion_lat": 0.0, "lon": -77.00458016666667, "type": "electric_scooter", "fusion_lon": 0.0, "lat": 38.91155366666667}, {"rental_uris": {"android": "https://dc.lft.to/lastmile_qr_scan", "ios": "https://dc.lft.to/lastmile_qr_scan"}, "is_reserved": 0, "is_disabled": 0, "name": "3df60522a04cf1bfe6437f47351ac3e7", "bike_id": "3df60522a04cf1bfe6437f47351ac3e7", "fusion_lat": 0.0, "lon": -76.97913516666667, "type": "electric_bike", "fusion_lon": 0.0, "lat": 38.9585145}, {"rental_uris": {"android": "https://dc.lft.to/lastmile_qr_scan", "ios": "https://dc.lft.to/lastmile_qr_scan"}, "is_reserved": 0, "is_disabled": 0, "name": "54884f3fad97ba1446e9489a1ae9907c", "bike_id": "54884f3fad97ba1446e9489a1ae9907c", "fusion_lat": 0.0, "lon": -77.04568966666666, "type": "electric_scooter", "fusion_lon": 0.0, "lat": 38.907122}, {"rental_uris": {"android": "https://dc.lft.to/lastmile_qr_scan", "ios": "https://dc.lft.to/lastmile_qr_scan"}, "is_reserved": 0, "is_disabled": 0, "name": "e760b0f13b61fbdcfc2a64e93d101cca", "bike_id": "e760b0f13b61fbdcfc2a64e93d101cca", "fusion_lat": 0.0, "lon": -77.011717, "type": "electric_scooter", "fusion_lon": 0.0, "lat": 38.89657366666667}, {"rental_uris": {"android": "https://dc.lft.to/lastmile_qr_scan", "ios": "https://dc.lft.to/lastmile_qr_scan"}, "is_reserved": 0, "is_disabled": 0, "name": "08dd1a4bf77f3668e4abcf8e468bb607", "bike_id": "08dd1a4bf77f3668e4abcf8e468bb607", "fusion_lat": 0.0, "lon": -77.0238025, "type": "electric_scooter", "fusion_lon": 0.0, "lat": 38.891991833333336}, {"rental_uris": {"android": "https://dc.lft.to/lastmile_qr_scan", "ios": "https://dc.lft.to/lastmile_qr_scan"}, "is_reserved": 0, "is_disabled": 0, "name": "64b00ba15355789aafd3705eea888f35", "bike_id": "64b00ba15355789aafd3705eea888f35", "fusion_lat": 0.0, "lon": -77.02715783333333, "type": "electric_scooter", "fusion_lon": 0.0, "lat": 38.92228216666667}, {"rental_uris": {"android": "https://dc.lft.to/lastmile_qr_scan", "ios": "https://dc.lft.to/lastmile_qr_scan"}, "is_reserved": 0, "is_disabled": 0, "name": "463d2a7b0e98a86091fb144d7cef04e9", "bike_id": "463d2a7b0e98a86091fb144d7cef04e9", "fusion_lat": 0.0, "lon": -77.12737266666667, "type": "electric_bike", "fusion_lon": 0.0, "lat": 38.89567733333333}, {"rental_uris": {"android": "https://dc.lft.to/lastmile_qr_scan", "ios": "https://dc.lft.to/lastmile_qr_scan"}, "is_reserved": 0, "is_disabled": 0, "name": "3f99f1f0376c4e87e971f919cbe12923", "bike_id": "3f99f1f0376c4e87e971f919cbe12923", "fusion_lat": 0.0, "lon": -76.94575666666667, "type": "electric_scooter", "fusion_lon": 0.0, "lat": 38.8992485}, {"rental_uris": {"android": "https://dc.lft.to/lastmile_qr_scan", "ios": "https://dc.lft.to/lastmile_qr_scan"}, "is_reserved": 0, "is_disabled": 0, "name": "4d64cfca5a34047e0a0b3712f61a663c", "bike_id": "4d64cfca5a34047e0a0b3712f61a663c", "fusion_lat": 0.0, "lon": -77.03879983333333, "type": "electric_bike", "fusion_lon": 0.0, "lat": 39.02624733333333}, {"rental_uris": {"android": "https://dc.lft.to/lastmile_qr_scan", "ios": "https://dc.lft.to/lastmile_qr_scan"}, "is_reserved": 0, "is_disabled": 0, "name": "26db4e7dbfdcb79be7c9eb9cc569f8f4", "bike_id": "26db4e7dbfdcb79be7c9eb9cc569f8f4", "fusion_lat": 0.0, "lon": -76.96709883333334, "type": "electric_scooter", "fusion_lon": 0.0, "lat": 38.85974733333333}, {"rental_uris": {"android": "https://dc.lft.to/lastmile_qr_scan", "ios": "https://dc.lft.to/lastmile_qr_scan"}, "is_reserved": 0, "is_disabled": 0, "name": "8a6cc5a9b42ff46d81df0e4dfd1e4ad1", "bike_id": "8a6cc5a9b42ff46d81df0e4dfd1e4ad1", "fusion_lat": 0.0, "lon": -77.03053733333333, "type": "electric_scooter", "fusion_lon": 0.0, "lat": 38.92376316666667}, {"rental_uris": {"android": "https://dc.lft.to/lastmile_qr_scan", "ios": "https://dc.lft.to/lastmile_qr_scan"}, "is_reserved": 0, "is_disabled": 0, "name": "204ea516a7bd95ccebe09682cbc44049", "bike_id": "204ea516a7bd95ccebe09682cbc44049", "fusion_lat": 0.0, "lon": -77.021632, "type": "electric_scooter", "fusion_lon": 0.0, "lat": 38.94294516666667}, {"rental_uris": {"android": "https://dc.lft.to/lastmile_qr_scan", "ios": "https://dc.lft.to/lastmile_qr_scan"}, "is_reserved": 0, "is_disabled": 0, "name": "a4b5d71b7012ddc2933ce9bf72bab79f", "bike_id": "a4b5d71b7012ddc2933ce9bf72bab79f", "fusion_lat": 0.0, "lon": -77.02572883333333, "type": "electric_scooter", "fusion_lon": 0.0, "lat": 38.912594666666664}, {"rental_uris": {"android": "https://dc.lft.to/lastmile_qr_scan", "ios": "https://dc.lft.to/lastmile_qr_scan"}, "is_reserved": 0, "is_disabled": 0, "name": "50d0c21f3f5cd96c08da6cb6732813f1", "bike_id": "50d0c21f3f5cd96c08da6cb6732813f1", "fusion_lat": 0.0, "lon": -77.01866216666667, "type": "electric_scooter", "fusion_lon": 0.0, "lat": 38.97369166666667}, {"rental_uris": {"android": "https://dc.lft.to/lastmile_qr_scan", "ios": "https://dc.lft.to/lastmile_qr_scan"}, "is_reserved": 0, "is_disabled": 0, "name": "6caeb7163a2afc386169bce3a69a517e", "bike_id": "6caeb7163a2afc386169bce3a69a517e", "fusion_lat": 0.0, "lon": -77.02181066666667, "type": "electric_scooter", "fusion_lon": 0.0, "lat": 38.88715883333333}, {"rental_uris": {"android": "https://dc.lft.to/lastmile_qr_scan", "ios": "https://dc.lft.to/lastmile_qr_scan"}, "is_reserved": 0, "is_disabled": 0, "name": "3cc911f65b5fb1a728fd41c70371472d", "bike_id": "3cc911f65b5fb1a728fd41c70371472d", "fusion_lat": 0.0, "lon": -77.00349033333333, "type": "electric_scooter", "fusion_lon": 0.0, "lat": 38.87678316666667}, {"rental_uris": {"android": "https://dc.lft.to/lastmile_qr_scan", "ios": "https://dc.lft.to/lastmile_qr_scan"}, "is_reserved": 0, "is_disabled": 0, "name": "1c2eba533b4c9ad25b60a16e25f5e40a", "bike_id": "1c2eba533b4c9ad25b60a16e25f5e40a", "fusion_lat": 0.0, "lon": -77.0277495, "type": "electric_scooter", "fusion_lon": 0.0, "lat": 38.934138}, {"rental_uris": {"android": "https://dc.lft.to/lastmile_qr_scan", "ios": "https://dc.lft.to/lastmile_qr_scan"}, "is_reserved": 0, "is_disabled": 0, "name": "0782c10eea574deb011687ac78f8c3ba", "bike_id": "0782c10eea574deb011687ac78f8c3ba", "fusion_lat": 0.0, "lon": -76.93554933333333, "type": "electric_scooter", "fusion_lon": 0.0, "lat": 38.88278433333333}, {"rental_uris": {"android": "https://dc.lft.to/lastmile_qr_scan", "ios": "https://dc.lft.to/lastmile_qr_scan"}, "is_reserved": 0, "is_disabled": 0, "name": "e48a0a08a204f311b651016be6fc12b0", "bike_id": "e48a0a08a204f311b651016be6fc12b0", "fusion_lat": 0.0, "lon": -77.0308575, "type": "electric_scooter", "fusion_lon": 0.0, "lat": 38.8954345}, {"rental_uris": {"android": "https://dc.lft.to/lastmile_qr_scan", "ios": "https://dc.lft.to/lastmile_qr_scan"},