{"data": {"bikes": [{"type": "electric_scooter", "rental_uris": {"ios": "https://dc.lft.to/lastmile_qr_scan", "android": "https://dc.lft.to/lastmile_qr_scan"}, "lon": -77.03805383333334, "fusion_lon": 0.0, "is_disabled": 0, "lat": 38.90668216666667, "bike_id": "4c818985299e89e2348bbe4765487185", "name": "4c818985299e89e2348bbe4765487185", "is_reserved": 0, "fusion_lat": 0.0}, {"type": "electric_scooter", "rental_uris": {"ios": "https://dc.lft.to/lastmile_qr_scan", "android": "https://dc.lft.to/lastmile_qr_scan"}, "lon": -77.01433216666666, "fusion_lon": 0.0, "is_disabled": 0, "lat": 38.9145685, "bike_id": "1c97d305bf74cd9252da320bd48ca1cc", "name": "1c97d305bf74cd9252da320bd48ca1cc", "is_reserved": 0, "fusion_lat": 0.0}, {"type": "electric_scooter", "rental_uris": {"ios": "https://dc.lft.to/lastmile_qr_scan", "android": "https://dc.lft.to/lastmile_qr_scan"}, "lon": -77.02231933333333, "fusion_lon": 0.0, "is_disabled": 0, "lat": 38.912561333333336, "bike_id": "9c794d41764bc3279c7c706c90f7d60a", "name": "9c794d41764bc3279c7c706c90f7d60a", "is_reserved": 0, "fusion_lat": 0.0}, {"type": "electric_bike", "rental_uris": {"ios": "https://dc.lft.to/lastmile_qr_scan", "android": "https://dc.lft.to/lastmile_qr_scan"}, "lon": -76.9626165, "fusion_lon": 0.0, "is_disabled": 0, "lat": 38.882395833333334, "bike_id": "8950ff272dbb162a1d07f2ff325e8ba3", "name": "8950ff272dbb162a1d07f2ff325e8ba3", "is_reserved": 0, "fusion_lat": 0.0}, {"type": "electric_bike", "rental_uris": {"ios": "https://dc.lft.to/lastmile_qr_scan", "android": "https://dc.lft.to/lastmile_qr_scan"}, "lon": -76.93744566666666, "fusion_lon": 0.0, "is_disabled": 0, "lat": 38.89004333333333, "bike_id": "77a3ce808e0b741cfc3d5b53bae213d4", "name": "77a3ce808e0b741cfc3d5b53bae213d4", "is_reserved": 0, "fusion_lat": 0.0}, {"type": "electric_scooter", "rental_uris": {"ios": "https://dc.lft.to/lastmile_qr_scan", "android": "https://dc.lft.to/lastmile_qr_scan"}, "lon": -76.98697316666667, "fusion_lon": 0.0, "is_disabled": 0, "lat": 38.907041, "bike_id": "58d2c0d67b01f16df2aa83ddacfe8d0e", "name": "58d2c0d67b01f16df2aa83ddacfe8d0e", "is_reserved": 0, "fusion_lat": 0.0}, {"type": "electric_scooter", "rental_uris": {"ios": "https://dc.lft.to/lastmile_qr_scan", "android": "https://dc.lft.to/lastmile_qr_scan"}, "lon": -77.02962983333333, "fusion_lon": 0.0, "is_disabled": 0, "lat": 38.925845333333335, "bike_id": "2a5501aed48c26c3a4ec4df0f6037005", "name": "2a5501aed48c26c3a4ec4df0f6037005", "is_reserved": 0, "fusion_lat": 0.0}, {"type": "electric_scooter", "rental_uris": {"ios": "https://dc.lft.to/lastmile_qr_scan", "android": "https://dc.lft.to/lastmile_qr_scan"}, "lon": -77.04393766666666, "fusion_lon": 0.0, "is_disabled": 0, "lat": 38.910675833333336, "bike_id": "02ee84268d393ea0bc5ef7c5fca78a3b", "name": "02ee84268d393ea0bc5ef7c5fca78a3b", "is_reserved": 0, "fusion_lat": 0.0}, {"type": "electric_scooter", "rental_uris": {"ios": "https://dc.lft.to/lastmile_qr_scan", "android": "https://dc.lft.to/lastmile_qr_scan"}, "lon": -77.039681, "fusion_lon": 0.0, "is_disabled": 0, "lat": 38.89629516666667, "bike_id": "bed67c8058102ae44c2cc478cc5367f5", "name": "bed67c8058102ae44c2cc478cc5367f5", "is_reserved": 0, "fusion_lat": 0.0}, {"type": "electric_bike", "rental_uris": {"ios": "https://dc.lft.to/lastmile_qr_scan", "android": "https://dc.lft.to/lastmile_qr_scan"}, "lon": -76.9782795, "fusion_lon": 0.0, "is_disabled": 0, "lat": 38.87073816666667, "bike_id": "6edc8019c0e28fe4103ade75ffc45ff5", "name": "6edc8019c0e28fe4103ade75ffc45ff5", "is_reserved": 0, "fusion_lat": 0.0}, {"type": "electric_scooter", "rental_uris": {"ios": "https://dc.lft.to/lastmile_qr_scan", "android": "https://dc.lft.to/lastmile_qr_scan"}, "lon": -76.954154, "fusion_lon": 0.0, "is_disabled": 0, "lat": 38.89062333333333, "bike_id": "e07e16954246e6089ea9e26b91649848", "name": "e07e16954246e6089ea9e26b91649848", "is_reserved": 0, "fusion_lat": 0.0}, {"type": "electric_bike", "rental_uris": {"ios": "https://dc.lft.to/lastmile_qr_scan", "android": "https://dc.lft.to/lastmile_qr_scan"}, "lon": -76.99018683333334, "fusion_lon": 0.0, "is_disabled": 0, "lat": 38.95478033333333, "bike_id": "6ff77794661c61bacf7bf2225a9aec71", "name": "6ff77794661c61bacf7bf2225a9aec71", "is_reserved": 0, "fusion_lat": 0.0}, {"type": "electric_scooter", "rental_uris": {"ios": "https://dc.lft.to/lastmile_qr_scan", "android": "https://dc.lft.to/lastmile_qr_scan"}, "lon": -77.02567283333333, "fusion_lon": 0.0, "is_disabled": 0, "lat": 38.914123000000004, "bike_id": "9c046b57e4ad24b6e9dcc5cd433414fa", "name": "9c046b57e4ad24b6e9dcc5cd433414fa", "is_reserved": 0, "fusion_lat": 0.0}, {"type": "electric_scooter", "rental_uris": {"ios": "https://dc.lft.to/lastmile_qr_scan", "android": "https://dc.lft.to/lastmile_qr_scan"}, "lon": -77.0315955, "fusion_lon": 0.0, "is_disabled": 0, "lat": 38.92369683333333, "bike_id": "02b755cf77aaecc836d7c9096bf298a3", "name": "02b755cf77aaecc836d7c9096bf298a3", "is_reserved": 0, "fusion_lat": 0.0}, {"type": "electric_scooter", "rental_uris": {"ios": "https://dc.lft.to/lastmile_qr_scan", "android": "https://dc.lft.to/lastmile_qr_scan"}, "lon": -77.040367, "fusion_lon": 0.0, "is_disabled": 0, "lat": 38.918462166666664, "bike_id": "41673ed2d4a25d4f9ecaece347b081fe", "name": "41673ed2d4a25d4f9ecaece347b081fe", "is_reserved": 0, "fusion_lat": 0.0}, {"type": "electric_scooter", "rental_uris": {"ios": "https://dc.lft.to/lastmile_qr_scan", "android": "https://dc.lft.to/lastmile_qr_scan"}, "lon": -76.98373066666667, "fusion_lon": 0.0, "is_disabled": 0, "lat": 38.86110816666667, "bike_id": "a02eb69a61902e29ac570e1c0a90d6fc", "name": "a02eb69a61902e29ac570e1c0a90d6fc", "is_reserved": 0, "fusion_lat": 0.0}, {"type": "electric_scooter", "rental_uris": {"ios": "https://dc.lft.to/lastmile_qr_scan", "android": "https://dc.lft.to/lastmile_qr_scan"}, "lon": -76.97234466666667, "fusion_lon": 0.0, "is_disabled": 0, "lat": 38.854583166666664, "bike_id": "3da054823684859beed49fa97de62f90", "name": "3da054823684859beed49fa97de62f90", "is_reserved": 0, "fusion_lat": 0.0}, {"type": "electric_scooter", "rental_uris": {"ios": "https://dc.lft.to/lastmile_qr_scan", "android": "https://dc.lft.to/lastmile_qr_scan"}, "lon": -76.9924875, "fusion_lon": 0.0, "is_disabled": 0, "lat": 38.863806, "bike_id": "4bf62d36164cbd0185d9fb83569c64de", "name": "4bf62d36164cbd0185d9fb83569c64de", "is_reserved": 0, "fusion_lat": 0.0}, {"type": "electric_scooter", "rental_uris": {"ios": "https://dc.lft.to/lastmile_qr_scan", "android": "https://dc.lft.to/lastmile_qr_scan"}, "lon": -77.026943, "fusion_lon": 0.0, "is_disabled": 0, "lat": 38.911274, "bike_id": "03847135464f92b0fdc8621277654b97", "name": "03847135464f92b0fdc8621277654b97", "is_reserved": 0, "fusion_lat": 0.0}, {"type": "electric_scooter", "rental_uris": {"ios": "https://dc.lft.to/lastmile_qr_scan", "android": "https://dc.lft.to/lastmile_qr_scan"}, "lon": -77.02200416666666, "fusion_lon": 0.0, "is_disabled": 0, "lat": 38.916582166666664, "bike_id": "a42b2841cdf9b1c050bdb5b20290fa80", "name": "a42b2841cdf9b1c050bdb5b20290fa80", "is_reserved": 0, "fusion_lat": 0.0}, {"type": "electric_scooter", "rental_uris": {"ios": "https://dc.lft.to/lastmile_qr_scan", "android": "https://dc.lft.to/lastmile_qr_scan"}, "lon": -77.03814933333334, "fusion_lon": 0.0, "is_disabled": 0, "lat": 38.909604, "bike_id": "f2075fa0c2b03e6090d3b9ddf3e2567e", "name": "f2075fa0c2b03e6090d3b9ddf3e2567e", "is_reserved": 0, "fusion_lat": 0.0}, {"type": "electric_scooter", "rental_uris": {"ios": "https://dc.lft.to/lastmile_qr_scan", "android": "https://dc.lft.to/lastmile_qr_scan"}, "lon": -77.0386895, "fusion_lon": 0.0, "is_disabled": 0, "lat": 38.92145383333333, "bike_id": "e1825548c1c4c78a5e666ce2d9ad5491", "name": "e1825548c1c4c78a5e666ce2d9ad5491", "is_reserved": 0, "fusion_lat": 0.0}, {"type": "electric_bike", "rental_uris": {"ios": "https://dc.lft.to/lastmile_qr_scan", "android": "https://dc.lft.to/lastmile_qr_scan"}, "lon": -77.08806083333333, "fusion_lon": 0.0, "is_disabled": 0, "lat": 38.86234916666667, "bike_id": "6c6f66952f6c45322a844ad1df8ff7b4", "name": "6c6f66952f6c45322a844ad1df8ff7b4", "is_reserved": 0, "fusion_lat": 0.0}, {"type": "electric_scooter", "rental_uris": {"ios": "https://dc.lft.to/lastmile_qr_scan", "android": "https://dc.lft.to/lastmile_qr_scan"}, "lon": -77.04420383333333, "fusion_lon": 0.0, "is_disabled": 0, "lat": 38.93196, "bike_id": "74d96a286db93028b6922e24d225bca6", "name": "74d96a286db93028b6922e24d225bca6", "is_reserved": 0, "fusion_lat": 0.0}, {"type": "electric_scooter", "rental_uris": {"ios": "https://dc.lft.to/lastmile_qr_scan", "android": "https://dc.lft.to/lastmile_qr_scan"}, "lon": -76.994093, "fusion_lon": 0.0, "is_disabled": 0, "lat": 38.877922833333336, "bike_id": "8644170282825027d76275eae4274372", "name": "8644170282825027d76275eae4274372", "is_reserved": 0, "fusion_lat": 0.0}, {"type": "electric_scooter", "rental_uris": {"ios": "https://dc.lft.to/lastmile_qr_scan", "android": "https://dc.lft.to/lastmile_qr_scan"}, "lon": -77.03593166666667, "fusion_lon": 0.0, "is_disabled": 0, "lat": 38.93298083333333, "bike_id": "c1b3cf06f0704688c0520a28f2c037c2", "name": "c1b3cf06f0704688c0520a28f2c037c2", "is_reserved": 0, "fusion_lat": 0.0}, {"type": "electric_scooter", "rental_uris": {"ios": "https://dc.lft.to/lastmile_qr_scan", "android": "https://dc.lft.to/lastmile_qr_scan"}, "lon": -77.050235, "fusion_lon": 0.0, "is_disabled": 0, "lat": 38.89378966666666, "bike_id": "7a188faccbfe74fa3a438190c708bf94", "name": "7a188faccbfe74fa3a438190c708bf94", "is_reserved": 0, "fusion_lat": 0.0}, {"type": "electric_scooter", "rental_uris": {"ios": "https://dc.lft.to/lastmile_qr_scan", "android": "https://dc.lft.to/lastmile_qr_scan"}, "lon": -77.04339266666666, "fusion_lon": 0.0, "is_disabled": 0, "lat": 38.90603316666667, "bike_id": "59c157124c7bb64ad978f65833e304e8", "name": "59c157124c7bb64ad978f65833e304e8", "is_reserved": 0, "fusion_lat": 0.0}, {"type": "electric_bike", "rental_uris": {"ios": "https://dc.lft.to/lastmile_qr_scan", "android": "https://dc.lft.to/lastmile_qr_scan"}, "lon": -76.98797416666666, "fusion_lon": 0.0, "is_disabled": 0, "lat": 38.922088, "bike_id": "c526865a9d222d38e17a9c37d3ac8e72", "name": "c526865a9d222d38e17a9c37d3ac8e72", "is_reserved": 0, "fusion_lat": 0.0}, {"type": "electric_scooter", "rental_uris": {"ios": "https://dc.lft.to/lastmile_qr_scan", "android": "https://dc.lft.to/lastmile_qr_scan"}, "lon": -77.02209733333333, "fusion_lon": 0.0, "is_disabled": 0, "lat": 38.92476166666667, "bike_id": "c5a6d7fd781d7993d37554fa7ee4df46", "name": "c5a6d7fd781d7993d37554fa7ee4df46", "is_reserved": 0, "fusion_lat": 0.0}, {"type": "electric_scooter", "rental_uris": {"ios": "https://dc.lft.to/lastmile_qr_scan", "android": "https://dc.lft.to/lastmile_qr_scan"}, "lon": -77.03153716666667, "fusion_lon": 0.0, "is_disabled": 0, "lat": 38.915598333333335, "bike_id": "faca26bd6d8970e7502696d3a2a17259", "name": "faca26bd6d8970e7502696d3a2a17259", "is_reserved": 0, "fusion_lat": 0.0}, {"type": "electric_scooter", "rental_uris": {"ios": "https://dc.lft.to/lastmile_qr_scan", "android": "https://dc.lft.to/lastmile_qr_scan"}, "lon": -77.044271, "fusion_lon": 0.0, "is_disabled": 0, "lat": 38.92516166666667, "bike_id": "01a99389f0ab7c2fa6a8a306d9ca653b", "name": "01a99389f0ab7c2fa6a8a306d9ca653b", "is_reserved": 0, "fusion_lat": 0.0}, {"type": "electric_scooter", "rental_uris": {"ios": "https://dc.lft.to/lastmile_qr_scan", "android": "https://dc.lft.to/lastmile_qr_scan"}, "lon": -77.03687666666667, "fusion_lon": 0.0, "is_disabled": 0, "lat": 38.916757, "bike_id": "31a58fc02f8c671a7574e6d7b7b57aeb", "name": "31a58fc02f8c671a7574e6d7b7b57aeb", "is_reserved": 0, "fusion_lat": 0.0}, {"type": "electric_scooter", "rental_uris": {"ios": "https://dc.lft.to/lastmile_qr_scan", "android": "https://dc.lft.to/lastmile_qr_scan"}, "lon": -77.0316775, "fusion_lon": 0.0, "is_disabled": 0, "lat": 38.918067666666666, "bike_id": "427bc4f453d05fe967f8eba60da9cdcf", "name": "427bc4f453d05fe967f8eba60da9cdcf", "is_reserved": 0, "fusion_lat": 0.0}, {"type": "electric_scooter", "rental_uris": {"ios": "https://dc.lft.to/lastmile_qr_scan", "android": "https://dc.lft.to/lastmile_qr_scan"}, "lon": -77.047817, "fusion_lon": 0.0, "is_disabled": 0, "lat": 38.9163715, "bike_id": "11f27c763b7e05f9cf0a98f98d33312c", "name": "11f27c763b7e05f9cf0a98f98d33312c", "is_reserved": 0, "fusion_lat": 0.0}, {"type": "electric_scooter", "rental_uris": {"ios": "https://dc.lft.to/lastmile_qr_scan", "android": "https://dc.lft.to/lastmile_qr_scan"}, "lon": -77.032809, "fusion_lon": 0.0, "is_disabled": 0, "lat": 38.9324375, "bike_id": "0369be874bfb7ca1b40a6650baf04799", "name": "0369be874bfb7ca1b40a6650baf04799", "is_reserved": 0, "fusion_lat": 0.0}, {"type": "electric_scooter", "rental_uris": {"ios": "https://dc.lft.to/lastmile_qr_scan", "android": "https://dc.lft.to/lastmile_qr_scan"}, "lon": -77.0413805, "fusion_lon": 0.0, "is_disabled": 0, "lat": 38.89348066666667, "bike_id": "bdc2b8cddf56c243f78604c8c1e541ff", "name": "bdc2b8cddf56c243f78604c8c1e541ff", "is_reserved": 0, "fusion_lat": 0.0}, {"type": "electric_scooter", "rental_uris": {"ios": "https://dc.lft.to/lastmile_qr_scan", "android": "https://dc.lft.to/lastmile_qr_scan"}, "lon": -77.04044366666666, "fusion_lon": 0.0, "is_disabled": 0, "lat": 38.917855833333334, "bike_id": "f392e31eee91afd17eabeea52b6dae24", "name": "f392e31eee91afd17eabeea52b6dae24", "is_reserved": 0, "fusion_lat": 0.0}, {"type": "electric_scooter", "rental_uris": {"ios": "https://dc.lft.to/lastmile_qr_scan", "android": "https://dc.lft.to/lastmile_qr_scan"}, "lon": -77.03637033333334, "fusion_lon": 0.0, "is_disabled": 0, "lat": 38.93712683333333, "bike_id": "d098f1ba36c889b59a41a269b9227ac6", "name": "d098f1ba36c889b59a41a269b9227ac6", "is_reserved": 0, "fusion_lat": 0.0}, {"type": "electric_scooter", "rental_uris": {"ios": "https://dc.lft.to/lastmile_qr_scan", "android": "https://dc.lft.to/lastmile_qr_scan"}, "lon": -76.99384016666667, "fusion_lon": 0.0, "is_disabled": 0, "lat": 38.90032516666667, "bike_id": "9e46162dddbe99605656bceb1b52c0ae", "name": "9e46162dddbe99605656bceb1b52c0ae", "is_reserved": 0, "fusion_lat": 0.0}, {"type": "electric_scooter", "rental_uris": {"ios": "https://dc.lft.to/lastmile_qr_scan", "android": "https://dc.lft.to/lastmile_qr_scan"}, "lon": -77.03754083333334, "fusion_lon": 0.0, "is_disabled": 0, "lat": 38.93061316666667, "bike_id": "43e232cffc99224c8c8cf85673d9a703", "name": "43e232cffc99224c8c8cf85673d9a703", "is_reserved": 0, "fusion_lat": 0.0}, {"type": "electric_scooter", "rental_uris": {"ios": "https://dc.lft.to/lastmile_qr_scan", "android": "https://dc.lft.to/lastmile_qr_scan"}, "lon": -77.03261966666666, "fusion_lon": 0.0, "is_disabled": 0, "lat": 38.93513933333333, "bike_id": "172ce5a591f264268e4369b0276d7075", "name": "172ce5a591f264268e4369b0276d7075", "is_reserved": 0, "fusion_lat": 0.0}, {"type": "electric_scooter", "rental_uris": {"ios": "https://dc.lft.to/lastmile_qr_scan", "android": "https://dc.lft.to/lastmile_qr_scan"}, "lon": -77.03175916666666, "fusion_lon": 0.0, "is_disabled": 0, "lat": 38.9141405, "bike_id": "e45a4aa8ddaf953dfe15146027579e78", "name": "e45a4aa8ddaf953dfe15146027579e78", "is_reserved": 0, "fusion_lat": 0.0}, {"type": "electric_scooter", "rental_uris": {"ios": "https://dc.lft.to/lastmile_qr_scan", "android": "https://dc.lft.to/lastmile_qr_scan"}, "lon": -77.0231395, "fusion_lon": 0.0, "is_disabled": 0, "lat": 38.917827833333334, "bike_id": "619e39c705f514f3fc5b255d9ffb881d", "name": "619e39c705f514f3fc5b255d9ffb881d", "is_reserved": 0, "fusion_lat": 0.0}, {"type": "electric_scooter", "rental_uris": {"ios": "https://dc.lft.to/lastmile_qr_scan", "android": "https://dc.lft.to/lastmile_qr_scan"}, "lon": -77.06268383333334, "fusion_lon": 0.0, "is_disabled": 0, "lat": 38.904908, "bike_id": "c09d418ba9c3c61ae53fa7854ab5b960", "name": "c09d418ba9c3c61ae53fa7854ab5b960", "is_reserved": 0, "fusion_lat": 0.0}, {"type": "electric_scooter", "rental_uris": {"ios": "https://dc.lft.to/lastmile_qr_scan", "android": "https://dc.lft.to/lastmile_qr_scan"}, "lon": -77.02495483333334, "fusion_lon": 0.0, "is_disabled": 0, "lat": 38.918024333333335, "bike_id": "9fe8e2b4e206257e969b975ffd34e948", "name": "9fe8e2b4e206257e969b975ffd34e948", "is_reserved": 0, "fusion_lat": 0.0}, {"type": "electric_scooter", "rental_uris": {"ios": "https://dc.lft.to/lastmile_qr_scan", "android": "https://dc.lft.to/lastmile_qr_scan"}, "lon": -77.002023, "fusion_lon": 0.0, "is_disabled": 0, "lat": 38.90058833333333, "bike_id": "64759dcb71c685472d1859561e69870b", "name": "64759dcb71c685472d1859561e69870b", "is_reserved": 0, "fusion_lat": 0.0}, {"type": "electric_scooter", "rental_uris": {"ios": "https://dc.lft.to/lastmile_qr_scan", "android": "https://dc.lft.to/lastmile_qr_scan"}, "lon": -77.04129, "fusion_lon": 0.0, "is_disabled": 0, "lat": 38.92532383333333, "bike_id": "c20d0cbc0ca83b730cffd15d4472e02b", "name": "c20d0cbc0ca83b730cffd15d4472e02b", "is_reserved": 0, "fusion_lat": 0.0}, {"type": "electric_bike", "rental_uris": {"ios": "https://dc.lft.to/lastmile_qr_scan", "android": "https://dc.lft.to/lastmile_qr_scan"}, "lon": -77.124845, "fusion_lon": 0.0, "is_disabled": 0, "lat": 38.85394083333333, "bike_id": "44ad346be9de7ea17a1865f4af6c5c8e", "name": "44ad346be9de7ea17a1865f4af6c5c8e", "is_reserved": 0, "fusion_lat": 0.0}, {"type": "electric_bike", "rental_uris": {"ios": "https://dc.lft.to/lastmile_qr_scan", "android": "https://dc.lft.to/lastmile_qr_scan"}, "lon": -76.94568416666667, "fusion_lon": 0.0, "is_disabled": 0, "lat": 38.841338666666665, "bike_id": "527011bd1614933599488737686d434c", "name": "527011bd1614933599488737686d434c", "is_reserved": 0, "fusion_lat": 0.0}, {"type": "electric_scooter", "rental_uris": {"ios": "https://dc.lft.to/lastmile_qr_scan", "android": "https://dc.lft.to/lastmile_qr_scan"}, "lon": -77.03084866666667, "fusion_lon": 0.0, "is_disabled": 0, "lat": 38.930915666666664, "bike_id": "ffdd8356fa286d82158b0c449b8f3b6c", "name": "ffdd8356fa286d82158b0c449b8f3b6c", "is_reserved": 0, "fusion_lat": 0.0}, {"type": "electric_scooter", "rental_uris": {"ios": "https://dc.lft.to/lastmile_qr_scan", "android": "https://dc.lft.to/lastmile_qr_scan"}, "lon": -77.02654266666667, "fusion_lon": 0.0, "is_disabled": 0, "lat": 38.8999015, "bike_id": "26893ec41191bab3b7d30703b69d268c", "name": "26893ec41191bab3b7d30703b69d268c", "is_reserved": 0, "fusion_lat": 0.0}, {"type": "electric_scooter", "rental_uris": {"ios": "https://dc.lft.to/lastmile_qr_scan", "android": "https://dc.lft.to/lastmile_qr_scan"}, "lon": -77.0525705, "fusion_lon": 0.0, "is_disabled": 0, "lat": 38.89987566666667, "bike_id": "476c5d7e602dc7fe30666ff5805e42dc", "name": "476c5d7e602dc7fe30666ff5805e42dc", "is_reserved": 0, "fusion_lat": 0.0}, {"type": "electric_scooter", "rental_uris": {"ios": "https://dc.lft.to/lastmile_qr_scan", "android": "https://dc.lft.to/lastmile_qr_scan"}, "lon": -76.99519916666667, "fusion_lon": 0.0, "is_disabled": 0, "lat": 38.88365366666667, "bike_id": "61af1338cd0ff332d3acc2b7bd2de0a2", "name": "61af1338cd0ff332d3acc2b7bd2de0a2", "is_reserved": 0, "fusion_lat": 0.0}, {"type": "electric_scooter", "rental_uris": {"ios": "https://dc.lft.to/lastmile_qr_scan", "android": "https://dc.lft.to/lastmile_qr_scan"}, "lon": -76.98181566666666, "fusion_lon": 0.0, "is_disabled": 0, "lat": 38.89581916666667, "bike_id": "4b17d761e618f33d319f9aa9fdcb0357", "name": "4b17d761e618f33d319f9aa9fdcb0357", "is_reserved": 0, "fusion_lat": 0.0}, {"type": "electric_scooter", "rental_uris": {"ios": "https://dc.lft.to/lastmile_qr_scan", "android": "https://dc.lft.to/lastmile_qr_scan"}, "lon": -77.04382916666667, "fusion_lon": 0.0, "is_disabled": 0, "lat": 38.90292066666667, "bike_id": "583ba41877d567528013f741de56611c", "name": "583ba41877d567528013f741de56611c", "is_reserved": 0, "fusion_lat": 0.0}, {"type": "electric_scooter", "rental_uris": {"ios": "https://dc.lft.to/lastmile_qr_scan", "android": "https://dc.lft.to/lastmile_qr_scan"}, "lon": -77.01533933333333, "fusion_lon": 0.0, "is_disabled": 0, "lat": 38.88738033333333, "bike_id": "491264f9e381a94b16e9d38c89e1dfc9", "name": "491264f9e381a94b16e9d38c89e1dfc9", "is_reserved": 0, "fusion_lat": 0.0}, {"type": "electric_scooter", "rental_uris": {"ios": "https://dc.lft.to/lastmile_qr_scan", "android": "https://dc.lft.to/lastmile_qr_scan"}, "lon": -77.03186933333333, "fusion_lon": 0.0, "is_disabled": 0, "lat": 38.91865116666666, "bike_id": "c5709420b797e357fbf1ceb3c951e4a1", "name": "c5709420b797e357fbf1ceb3c951e4a1", "is_reserved": 0, "fusion_lat": 0.0}, {"type": "electric_scooter", "rental_uris": {"ios": "https://dc.lft.to/lastmile_qr_scan", "android": "https://dc.lft.to/lastmile_qr_scan"}, "lon": -77.03656083333334, "fusion_lon": 0.0, "is_disabled": 0, "lat": 38.9174645, "bike_id": "0601cece497f888c413b8bb899d178a4", "name": "0601cece497f888c413b8bb899d178a4", "is_reserved": 0, "fusion_lat": 0.0}, {"type": "electric_scooter", "rental_uris": {"ios": "https://dc.lft.to/lastmile_qr_scan", "android": "https://dc.lft.to/lastmile_qr_scan"}, "lon": -77.00413833333333, "fusion_lon": 0.0, "is_disabled": 0, "lat": 38.87660566666667, "bike_id": "792c4e346c8e7ce8c34e824ec2d28499", "name": "792c4e346c8e7ce8c34e824ec2d28499", "is_reserved": 0, "fusion_lat": 0.0}, {"type": "electric_bike", "rental_uris": {"ios": "https://dc.lft.to/lastmile_qr_scan", "android": "https://dc.lft.to/lastmile_qr_scan"}, "lon": -77.12532616666667, "fusion_lon": 0.0, "is_disabled": 0, "lat": 39.056315, "bike_id": "18984f83ec441f26a3eb37e19a1cb5c0", "name": "18984f83ec441f26a3eb37e19a1cb5c0", "is_reserved": 0, "fusion_lat": 0.0}, {"type": "electric_scooter", "rental_uris": {"ios": "https://dc.lft.to/lastmile_qr_scan", "android": "https://dc.lft.to/lastmile_qr_scan"}, "lon": -76.9465625, "fusion_lon": 0.0, "is_disabled": 0, "lat": 38.8982225, "bike_id": "d5bdde7bcf3f636ec5ac86138b28191d", "name": "d5bdde7bcf3f636ec5ac86138b28191d", "is_reserved": 0, "fusion_lat": 0.0}, {"type": "electric_scooter", "rental_uris": {"ios": "https://dc.lft.to/lastmile_qr_scan", "android": "https://dc.lft.to/lastmile_qr_scan"}, "lon": -77.02225033333333, "fusion_lon": 0.0, "is_disabled": 0, "lat": 38.89213016666667, "bike_id": "5cd1acbc8e80666224e824c3acdbfa55", "name": "5cd1acbc8e80666224e824c3acdbfa55", "is_reserved": 0, "fusion_lat": 0.0}, {"type": "electric_scooter", "rental_uris": {"ios": "https://dc.lft.to/lastmile_qr_scan", "android": "https://dc.lft.to/lastmile_qr_scan"}, "lon": -77.03118633333334, "fusion_lon": 0.0, "is_disabled": 0, "lat": 38.8981415, "bike_id": "d3bf3e2ea70a83f9e98016f4eb2e10ed", "name": "d3bf3e2ea70a83f9e98016f4eb2e10ed", "is_reserved": 0, "fusion_lat": 0.0}, {"type": "electric_scooter", "rental_uris": {"ios": "https://dc.lft.to/lastmile_qr_scan", "android": "https://dc.lft.to/lastmile_qr_scan"}, "lon": -77.02414083333333, "fusion_lon": 0.0, "is_disabled": 0, "lat": 38.9071865, "bike_id": "fea1b7f439315c694bb1a0a5b72771b4", "name": "fea1b7f439315c694bb1a0a5b72771b4", "is_reserved": 0, "fusion_lat": 0.0}, {"type": "electric_scooter", "rental_uris": {"ios": "https://dc.lft.to/lastmile_qr_scan", "android": "https://dc.lft.to/lastmile_qr_scan"}, "lon": -77.05220866666667, "fusion_lon": 0.0, "is_disabled": 0, "lat": 38.9243265, "bike_id": "b22d9263d2805fa9fd65ff5e58353eb9", "name": "b22d9263d2805fa9fd65ff5e58353eb9", "is_reserved": 0, "fusion_lat": 0.0}, {"type": "electric_scooter", "rental_uris": {"ios": "https://dc.lft.to/lastmile_qr_scan", "android": "https://dc.lft.to/lastmile_qr_scan"}, "lon": -77.0379735, "fusion_lon": 0.0, "is_disabled": 0, "lat": 38.91102166666667, "bike_id": "8e07a9b3d956d7d67725626a06e985d1", "name": "8e07a9b3d956d7d67725626a06e985d1", "is_reserved": 0, "fusion_lat": 0.0}, {"type": "electric_scooter", "rental_uris": {"ios": "https://dc.lft.to/lastmile_qr_scan", "android": "https://dc.lft.to/lastmile_qr_scan"}, "lon": -77.0344145, "fusion_lon": 0.0, "is_disabled": 0, "lat": 38.9179395, "bike_id": "06cc2fcf9cd7f56ca1608accf6fcbe05", "name": "06cc2fcf9cd7f56ca1608accf6fcbe05", "is_reserved": 0, "fusion_lat": 0.0}, {"type": "electric_scooter", "rental_uris": {"ios": "https://dc.lft.to/lastmile_qr_scan", "android": "https://dc.lft.to/lastmile_qr_scan"}, "lon": -77.011727, "fusion_lon": 0.0, "is_disabled": 0, "lat": 38.91564866666667, "bike_id": "91f51d9b09a0cfcf1736a5a3cabba2b3", "name": "91f51d9b09a0cfcf1736a5a3cabba2b3", "is_reserved": 0, "fusion_lat": 0.0}, {"type": "electric_scooter", "rental_uris": {"ios": "https://dc.lft.to/lastmile_qr_scan", "android": "https://dc.lft.to/lastmile_qr_scan"}, "lon": -77.0364895, "fusion_lon": 0.0, "is_disabled": 0, "lat": 38.91318966666667, "bike_id": "7ce54a07d27271dae531affcf1d8c051", "name": "7ce54a07d27271dae531affcf1d8c051", "is_reserved": 0, "fusion_lat": 0.0}, {"type": "electric_scooter", "rental_uris": {"ios": "https://dc.lft.to/lastmile_qr_scan", "android": "https://dc.lft.to/lastmile_qr_scan"}, "lon": -77.03173083333333, "fusion_lon": 0.0, "is_disabled": 0, "lat": 38.91862166666667, "bike_id": "780a69e02989f60754837a7013e308f7", "name": "780a69e02989f60754837a7013e308f7", "is_reserved": 0, "fusion_lat": 0.0}, {"type": "electric_scooter", "rental_uris": {"ios": "https://dc.lft.to/lastmile_qr_scan", "android": "https://dc.lft.to/lastmile_qr_scan"}, "lon": -77.037583, "fusion_lon": 0.0, "is_disabled": 0, "lat": 38.93072566666667, "bike_id": "a82b0553a2f0b9a5afd098f6d1ebcbcc", "name": "a82b0553a2f0b9a5afd098f6d1ebcbcc", "is_reserved": 0, "fusion_lat": 0.0}, {"type": "electric_scooter", "rental_uris": {"ios": "https://dc.lft.to/lastmile_qr_scan", "android": "https://dc.lft.to/lastmile_qr_scan"}, "lon": -77.03160483333333, "fusion_lon": 0.0, "is_disabled": 0, "lat": 38.892161333333334, "bike_id": "229cc9d26b4e05c5e35779f33cd85627", "name": "229cc9d26b4e05c5e35779f33cd85627", "is_reserved": 0, "fusion_lat": 0.0}, {"type": "electric_scooter", "rental_uris": {"ios": "https://dc.lft.to/lastmile_qr_scan", "android": "https://dc.lft.to/lastmile_qr_scan"}, "lon": -77.04488033333334, "fusion_lon": 0.0, "is_disabled": 0, "lat": 38.90794616666667, "bike_id": "63d7bbef3a105440288added98dda21e", "name": "63d7bbef3a105440288added98dda21e", "is_reserved": 0, "fusion_lat": 0.0}, {"type": "electric_scooter", "rental_uris": {"ios": "https://dc.lft.to/lastmile_qr_scan", "android": "https://dc.lft.to/lastmile_qr_scan"}, "lon": -77.02972683333333, "fusion_lon": 0.0, "is_disabled": 0, "lat": 38.92279416666667, "bike_id": "dc840dac07ba437b3b974ec719026cdd", "name": "dc840dac07ba437b3b974ec719026cdd", "is_reserved": 0, "fusion_lat": 0.0}, {"type": "electric_scooter", "rental_uris": {"ios": "https://dc.lft.to/lastmile_qr_scan", "android": "https://dc.lft.to/lastmile_qr_scan"}, "lon": -77.04859466666667, "fusion_lon": 0.0, "is_disabled": 0, "lat": 38.905508166666664, "bike_id": "2fb38eddf541ca030e751a9ec6ecdcf2", "name": "2fb38eddf541ca030e751a9ec6ecdcf2", "is_reserved": 0, "fusion_lat": 0.0}, {"type": "electric_scooter", "rental_uris": {"ios": "https://dc.lft.to/lastmile_qr_scan", "android": "https://dc.lft.to/lastmile_qr_scan"}, "lon": -77.005997, "fusion_lon": 0.0, "is_disabled": 0, "lat": 38.905534, "bike_id": "7b93b024908f7032a627ba1d89fdf8f2", "name": "7b93b024908f7032a627ba1d89fdf8f2", "is_reserved": 0, "fusion_lat": 0.0}, {"type": "electric_scooter", "rental_uris": {"ios": "https://dc.lft.to/lastmile_qr_scan", "android": "https://dc.lft.to/lastmile_qr_scan"}, "lon": -77.03414683333334, "fusion_lon": 0.0, "is_disabled": 0, "lat": 38.927467166666666, "bike_id": "7da6e213c2113da95de7810bc9da82e3", "name": "7da6e213c2113da95de7810bc9da82e3", "is_reserved": 0, "fusion_lat": 0.0}, {"type": "electric_scooter", "rental_uris": {"ios": "https://dc.lft.to/lastmile_qr_scan", "android": "https://dc.lft.to/lastmile_qr_scan"}, "lon": -77.06562066666666, "fusion_lon": 0.0, "is_disabled": 0, "lat": 38.95488266666667, "bike_id": "a88cc456319b9b6fb9c84fd7018971da", "name": "a88cc456319b9b6fb9c84fd7018971da", "is_reserved": 0, "fusion_lat": 0.0}, {"type": "electric_scooter", "rental_uris": {"ios": "https://dc.lft.to/lastmile_qr_scan", "android": "https://dc.lft.to/lastmile_qr_scan"}, "lon": -77.01867783333333, "fusion_lon": 0.0, "is_disabled": 0, "lat": 38.951456666666665, "bike_id": "18892ea400a593c4b911df3cd77b6206", "name": "18892ea400a593c4b911df3cd77b6206", "is_reserved": 0, "fusion_lat": 0.0}, {"type": "electric_scooter", "rental_uris": {"ios": "https://dc.lft.to/lastmile_qr_scan", "android": "https://dc.lft.to/lastmile_qr_scan"}, "lon": -77.051301, "fusion_lon": 0.0, "is_disabled": 0, "lat": 38.905028, "bike_id": "a592731a0568f0c286c7680404da5dfb", "name": "a592731a0568f0c286c7680404da5dfb", "is_reserved": 0, "fusion_lat": 0.0}, {"type": "electric_scooter", "rental_uris": {"ios": "https://dc.lft.to/lastmile_qr_scan", "android": "https://dc.lft.to/lastmile_qr_scan"}, "lon": -77.00764983333333, "fusion_lon": 0.0, "is_disabled": 0, "lat": 38.9071, "bike_id": "e6ae853960ad97b283f5de43d2cd2aaf", "name": "e6ae853960ad97b283f5de43d2cd2aaf", "is_reserved": 0, "fusion_lat": 0.0}, {"type": "electric_bike", "rental_uris": {"ios": "https://dc.lft.to/lastmile_qr_scan", "android": "https://dc.lft.to/lastmile_qr_scan"}, "lon": -77.12020316666667, "fusion_lon": 0.0, "is_disabled": 0, "lat": 38.85487666666667, "bike_id": "ced8ed2576b0714db0b8f05073db0d62", "name": "ced8ed2576b0714db0b8f05073db0d62", "is_reserved": 0, "fusion_lat": 0.0}, {"type": "electric_scooter", "rental_uris": {"ios": "https://dc.lft.to/lastmile_qr_scan", "android": "https://dc.lft.to/lastmile_qr_scan"}, "lon": -77.04161466666666, "fusion_lon": 0.0, "is_disabled": 0, "lat": 38.934197, "bike_id": "006a02ed3df00c24342c846da1c33d7c", "name": "006a02ed3df00c24342c846da1c33d7c", "is_reserved": 0, "fusion_lat": 0.0}, {"type": "electric_scooter", "rental_uris": {"ios": "https://dc.lft.to/lastmile_qr_scan", "android": "https://dc.lft.to/lastmile_qr_scan"}, "lon": -77.03739666666667, "fusion_lon": 0.0, "is_disabled": 0, "lat": 38.92853083333333, "bike_id": "904cb4f7df9c941aef525ec98f5d6d4b", "name": "904cb4f7df9c941aef525ec98f5d6d4b", "is_reserved": 0, "fusion_lat": 0.0}, {"type": "electric_scooter", "rental_uris": {"ios": "https://dc.lft.to/lastmile_qr_scan", "android": "https://dc.lft.to/lastmile_qr_scan"}, "lon": -77.04014983333333, "fusion_lon": 0.0, "is_disabled": 0, "lat": 38.94190783333333, "bike_id": "f7ae00402a50d0efe631d712f865452b", "name": "f7ae00402a50d0efe631d712f865452b", "is_reserved": 0, "fusion_lat": 0.0}, {"type": "electric_scooter", "rental_uris": {"ios": "https://dc.lft.to/lastmile_qr_scan", "android": "https://dc.lft.to/lastmile_qr_scan"}, "lon": -77.0317325, "fusion_lon": 0.0, "is_disabled": 0, "lat": 38.90109016666667, "bike_id": "c7907a486b233f33ceb971603d39c57f", "name": "c7907a486b233f33ceb971603d39c57f", "is_reserved": 0, "fusion_lat": 0.0}, {"type": "electric_scooter", "rental_uris": {"ios": "https://dc.lft.to/lastmile_qr_scan", "android": "https://dc.lft.to/lastmile_qr_scan"}, "lon": -77.03460766666667, "fusion_lon": 0.0, "is_disabled": 0, "lat": 38.935346333333335, "bike_id": "612cff360f6c53d0705913b7350aba3d", "name": "612cff360f6c53d0705913b7350aba3d", "is_reserved": 0, "fusion_lat": 0.0}, {"type": "electric_scooter", "rental_uris": {"ios": "https://dc.lft.to/lastmile_qr_scan", "android": "https://dc.lft.to/lastmile_qr_scan"}, "lon": -77.034415, "fusion_lon": 0.0, "is_disabled": 0, "lat": 38.91791966666667, "bike_id": "b324240c606efa4ef724ec4f202ee77b", "name": "b324240c606efa4ef724ec4f202ee77b", "is_reserved": 0, "fusion_lat": 0.0}, {"type": "electric_scooter", "rental_uris": {"ios": "https://dc.lft.to/lastmile_qr_scan", "android": "https://dc.lft.to/lastmile_qr_scan"}, "lon": -77.02155516666667, "fusion_lon": 0.0, "is_disabled": 0, "lat": 38.886508666666664, "bike_id": "dafb6da341ace25ef74192cfcaa7e645", "name": "dafb6da341ace25ef74192cfcaa7e645", "is_reserved": 0, "fusion_lat": 0.0}, {"type": "electric_bike", "rental_uris": {"ios": "https://dc.lft.to/lastmile_qr_scan", "android": "https://dc.lft.to/lastmile_qr_scan"}, "lon": -76.9887105, "fusion_lon": 0.0, "is_disabled": 0, "lat": 38.921426333333336, "bike_id": "b527d78c22176bd92b129795f1f94b40", "name": "b527d78c22176bd92b129795f1f94b40", "is_reserved": 0, "fusion_lat": 0.0}, {"type": "electric_scooter", "rental_uris": {"ios": "https://dc.lft.to/lastmile_qr_scan", "android": "https://dc.lft.to/lastmile_qr_scan"}, "lon": -77.02690233333334, "fusion_lon": 0.0, "is_disabled": 0, "lat": 38.911217, "bike_id": "cd7bb8c05592675bb235ebeed462b1d5", "name": "cd7bb8c05592675bb235ebeed462b1d5", "is_reserved": 0, "fusion_lat": 0.0}, {"type": "electric_scooter", "rental_uris": {"ios": "https://dc.lft.to/lastmile_qr_scan", "android": "https://dc.lft.to/lastmile_qr_scan"}, "lon": -77.004955, "fusion_lon": 0.0, "is_disabled": 0, "lat": 38.896754666666666, "bike_id": "557c9646ecf55037e4bcc690a087c795", "name": "557c9646ecf55037e4bcc690a087c795", "is_reserved": 0, "fusion_lat": 0.0}, {"type": "electric_scooter", "rental_uris": {"ios": "https://dc.lft.to/lastmile_qr_scan", "android": "https://dc.lft.to/lastmile_qr_scan"}, "lon": -77.015877, "fusion_lon": 0.0, "is_disabled": 0, "lat": 38.928439166666664, "bike_id": "06bfb31e024baafbd92ada09940e4956", "name": "06bfb31e024baafbd92ada09940e4956", "is_reserved": 0, "fusion_lat": 0.0}, {"type": "electric_scooter", "rental_uris": {"ios": "https://dc.lft.to/lastmile_qr_scan", "android": "https://dc.lft.to/lastmile_qr_scan"}, "lon": -77.02590633333334, "fusion_lon": 0.0, "is_disabled": 0, "lat": 38.904107333333336, "bike_id": "a6c1c70e57bd9190a0977af7e4ee2f7a", "name": "a6c1c70e57bd9190a0977af7e4ee2f7a", "is_reserved": 0, "fusion_lat": 0.0}, {"type": "electric_scooter", "rental_uris": {"ios": "https://dc.lft.to/lastmile_qr_scan", "android": "https://dc.lft.to/lastmile_qr_scan"}, "lon": -77.024918, "fusion_lon": 0.0, "is_disabled": 0, "lat": 38.91938916666667, "bike_id": "9e8f43463a0e9318c5a9758348205ccd", "name": "9e8f43463a0e9318c5a9758348205ccd", "is_reserved": 0, "fusion_lat": 0.0}, {"type": "electric_scooter", "rental_uris": {"ios": "https://dc.lft.to/lastmile_qr_scan", "android": "https://dc.lft.to/lastmile_qr_scan"}, "lon": -77.01635433333334, "fusion_lon": 0.0, "is_disabled": 0, "lat": 38.90371066666667, "bike_id": "336de61d8886f7cd75158f9e3629fc97", "name": "336de61d8886f7cd75158f9e3629fc97", "is_reserved": 0, "fusion_lat": 0.0}, {"type": "electric_scooter", "rental_uris": {"ios": "https://dc.lft.to/lastmile_qr_scan", "android": "https://dc.lft.to/lastmile_qr_scan"}, "lon": -77.04176616666666, "fusion_lon": 0.0, "is_disabled": 0, "lat": 38.918366166666665, "bike_id": "b1c088182e9fd727c9230edd741cabbc", "name": "b1c088182e9fd727c9230edd741cabbc", "is_reserved": 0, "fusion_lat": 0.0}, {"type": "electric_scooter", "rental_uris": {"ios": "https://dc.lft.to/lastmile_qr_scan", "android": "https://dc.lft.to/lastmile_qr_scan"}, "lon": -77.03266916666666, "fusion_lon": 0.0, "is_disabled": 0, "lat": 38.935222, "bike_id": "ea40304b65c3023fd753dff56d603867", "name": "ea40304b65c3023fd753dff56d603867", "is_reserved": 0, "fusion_lat": 0.0}, {"type": "electric_scooter", "rental_uris": {"ios": "https://dc.lft.to/lastmile_qr_scan", "android": "https://dc.lft.to/lastmile_qr_scan"}, "lon": -76.99552666666666, "fusion_lon": 0.0, "is_disabled": 0, "lat": 38.92651766666667, "bike_id": "813f706b780157210050bdb965279f69", "name": "813f706b780157210050bdb965279f69", "is_reserved": 0, "fusion_lat": 0.0}, {"type": "electric_scooter", "rental_uris": {"ios": "https://dc.lft.to/lastmile_qr_scan", "android": "https://dc.lft.to/lastmile_qr_scan"}, "lon": -77.04347516666667, "fusion_lon": 0.0, "is_disabled": 0, "lat": 38.90824466666667, "bike_id": "2ed81aec5c6f909a145b8885e14e2d1a", "name": "2ed81aec5c6f909a145b8885e14e2d1a", "is_reserved": 0, "fusion_lat": 0.0}, {"type": "electric_bike", "rental_uris": {"ios": "https://dc.lft.to/lastmile_qr_scan", "android": "https://dc.lft.to/lastmile_qr_scan"}, "lon": -76.9855615, "fusion_lon": 0.0, "is_disabled": 0, "lat": 38.852081166666665, "bike_id": "561a2d51bfb53ad16341e7b6ece43de8", "name": "561a2d51bfb53ad16341e7b6ece43de8", "is_reserved": 0, "fusion_lat": 0.0}, {"type": "electric_scooter", "rental_uris": {"ios": "https://dc.lft.to/lastmile_qr_scan", "android": "https://dc.lft.to/lastmile_qr_scan"}, "lon": -77.05763133333333, "fusion_lon": 0.0, "is_disabled": 0, "lat": 38.9255535, "bike_id": "62ee8ba0179f5b163c7238ccf149a76d", "name": "62ee8ba0179f5b163c7238ccf149a76d", "is_reserved": 0, "fusion_lat": 0.0}, {"type": "electric_scooter", "rental_uris": {"ios": "https://dc.lft.to/lastmile_qr_scan", "android": "https://dc.lft.to/lastmile_qr_scan"}, "lon": -77.03279833333333, "fusion_lon": 0.0, "is_disabled": 0, "lat": 38.93246333333333, "bike_id": "19ebaa991fd68f6a48c1a56747b80f66", "name": "19ebaa991fd68f6a48c1a56747b80f66", "is_reserved": 0, "fusion_lat": 0.0}, {"type": "electric_scooter", "rental_uris": {"ios": "https://dc.lft.to/lastmile_qr_scan", "android": "https://dc.lft.to/lastmile_qr_scan"}, "lon": -77.03345966666667, "fusion_lon": 0.0, "is_disabled": 0, "lat": 38.917088166666666, "bike_id": "272a8f270a696afd7c44c16dc60e5e7e", "name": "272a8f270a696afd7c44c16dc60e5e7e", "is_reserved": 0, "fusion_lat": 0.0}, {"type": "electric_scooter", "rental_uris": {"ios": "https://dc.lft.to/lastmile_qr_scan", "android": "https://dc.lft.to/lastmile_qr_scan"}, "lon": -77.00406583333333, "fusion_lon": 0.0, "is_disabled": 0, "lat": 38.87657633333333, "bike_id": "c6bed07ea13d2bed3e3d29e31c4f16b7", "name": "c6bed07ea13d2bed3e3d29e31c4f16b7", "is_reserved": 0, "fusion_lat": 0.0}, {"type": "electric_scooter", "rental_uris": {"ios": "https://dc.lft.to/lastmile_qr_scan", "android": "https://dc.lft.to/lastmile_qr_scan"}, "lon": -77.047991, "fusion_lon": 0.0, "is_disabled": 0, "lat": 38.91926333333333, "bike_id": "7c8ae10af2d0fb5bea169cd257f6dc01", "name": "7c8ae10af2d0fb5bea169cd257f6dc01", "is_reserved": 0, "fusion_lat": 0.0}, {"type": "electric_bike", "rental_uris": {"ios": "https://dc.lft.to/lastmile_qr_scan", "android": "https://dc.lft.to/lastmile_qr_scan"}, "lon": -76.93891433333333, "fusion_lon": 0.0, "is_disabled": 0, "lat": 38.956366833333334, "bike_id": "5ec92d3d64ca443db7589269b27fd18b", "name": "5ec92d3d64ca443db7589269b27fd18b", "is_reserved": 0, "fusion_lat": 0.0}, {"type": "electric_bike", "rental_uris": {"ios": "https://dc.lft.to/lastmile_qr_scan", "android": "https://dc.lft.to/lastmile_qr_scan"}, "lon": -76.904351, "fusion_lon": 0.0, "is_disabled": 0, "lat": 38.897733833333334, "bike_id": "0f2360e93fde6d97c9d6b4897788c717", "name": "0f2360e93fde6d97c9d6b4897788c717", "is_reserved": 0, "fusion_lat": 0.0}, {"type": "electric_bike", "rental_uris": {"ios": "https://dc.lft.to/lastmile_qr_scan", "android": "https://dc.lft.to/lastmile_qr_scan"}, "lon": -77.062767, "fusion_lon": 0.0, "is_disabled": 0, "lat": 38.90476016666667, "bike_id": "d6559d7088df1a3964d3f25b99a7c754", "name": "d6559d7088df1a3964d3f25b99a7c754", "is_reserved": 0, "fusion_lat": 0.0}, {"type": "electric_scooter", "rental_uris": {"ios": "https://dc.lft.to/lastmile_qr_scan", "android": "https://dc.lft.to/lastmile_qr_scan"}, "lon": -77.04310583333333, "fusion_lon": 0.0, "is_disabled": 0, "lat": 38.911112, "bike_id": "580d2d927b09c538559f16541e60cc2a", "name": "580d2d927b09c538559f16541e60cc2a", "is_reserved": 0, "fusion_lat": 0.0}, {"type": "electric_scooter", "rental_uris": {"ios": "https://dc.lft.to/lastmile_qr_scan", "android": "https://dc.lft.to/lastmile_qr_scan"}, "lon": -77.0257945, "fusion_lon": 0.0, "is_disabled": 0, "lat": 38.9169635, "bike_id": "505b7de5a2436b8a89720fe20379826b", "name": "505b7de5a2436b8a89720fe20379826b", "is_reserved": 0, "fusion_lat": 0.0}, {"type": "electric_scooter", "rental_uris": {"ios": "https://dc.lft.to/lastmile_qr_scan", "android": "https://dc.lft.to/lastmile_qr_scan"}, "lon": -76.985622, "fusion_lon": 0.0, "is_disabled": 0, "lat": 38.886656333333335, "bike_id": "fdfade70869602329101adfbfa979d70", "name": "fdfade70869602329101adfbfa979d70", "is_reserved": 0, "fusion_lat": 0.0}, {"type": "electric_scooter", "rental_uris": {"ios": "https://dc.lft.to/lastmile_qr_scan", "android": "https://dc.lft.to/lastmile_qr_scan"}, "lon": -77.02164516666667, "fusion_lon": 0.0, "is_disabled": 0, "lat": 38.9259775, "bike_id": "1d971d1050aef60120993b0c6fb6b024", "name": "1d971d1050aef60120993b0c6fb6b024", "is_reserved": 0, "fusion_lat": 0.0}, {"type": "electric_scooter", "rental_uris": {"ios": "https://dc.lft.to/lastmile_qr_scan", "android": "https://dc.lft.to/lastmile_qr_scan"}, "lon": -77.02978, "fusion_lon": 0.0, "is_disabled": 0, "lat": 38.9155845, "bike_id": "f60836b085bf78e15048b433c9affefc", "name": "f60836b085bf78e15048b433c9affefc", "is_reserved": 0, "fusion_lat": 0.0}, {"type": "electric_bike", "rental_uris": {"ios": "https://dc.lft.to/lastmile_qr_scan", "android": "https://dc.lft.to/lastmile_qr_scan"}, "lon": -77.11724583333333, "fusion_lon": 0.0, "is_disabled": 0, "lat": 39.05455116666667, "bike_id": "841a4d4c850768fac54cac0236d05b4a", "name": "841a4d4c850768fac54cac0236d05b4a", "is_reserved": 0, "fusion_lat": 0.0}, {"type": "electric_scooter", "rental_uris": {"ios": "https://dc.lft.to/lastmile_qr_scan", "android": "https://dc.lft.to/lastmile_qr_scan"}, "lon": -77.06276233333334, "fusion_lon": 0.0, "is_disabled": 0, "lat": 38.90483483333333, "bike_id": "f3b9255f32c8b264ac5245e387a07b16", "name": "f3b9255f32c8b264ac5245e387a07b16", "is_reserved": 0, "fusion_lat": 0.0}, {"type": "electric_scooter", "rental_uris": {"ios": "https://dc.lft.to/lastmile_qr_scan", "android": "https://dc.lft.to/lastmile_qr_scan"}, "lon": -76.99517366666667, "fusion_lon": 0.0, "is_disabled": 0, "lat": 38.88367, "bike_id": "6070ebccbe116ce13af579fa6055c62d", "name": "6070ebccbe116ce13af579fa6055c62d", "is_reserved": 0, "fusion_lat": 0.0}, {"type": "electric_scooter", "rental_uris": {"ios": "https://dc.lft.to/lastmile_qr_scan", "android": "https://dc.lft.to/lastmile_qr_scan"}, "lon": -77.00478683333333, "fusion_lon": 0.0, "is_disabled": 0, "lat": 38.91146766666667, "bike_id": "deac7dc1e47e5f2a447f2a6c332b60fd", "name": "deac7dc1e47e5f2a447f2a6c332b60fd", "is_reserved": 0, "fusion_lat": 0.0}, {"type": "electric_scooter", "rental_uris": {"ios": "https://dc.lft.to/lastmile_qr_scan", "android": "https://dc.lft.to/lastmile_qr_scan"}, "lon": -77.02707933333333, "fusion_lon": 0.0, "is_disabled": 0, "lat": 38.907353, "bike_id": "1110b2350ee94db7aec964d47f049dfb", "name": "1110b2350ee94db7aec964d47f049dfb", "is_reserved": 0, "fusion_lat": 0.0}, {"type": "electric_scooter", "rental_uris": {"ios": "https://dc.lft.to/lastmile_qr_scan", "android": "https://dc.lft.to/lastmile_qr_scan"}, "lon": -77.0391485, "fusion_lon": 0.0, "is_disabled": 0, "lat": 38.9181455, "bike_id": "867617add6beb62956f9ca6046c121eb", "name": "867617add6beb62956f9ca6046c121eb", "is_reserved": 0, "fusion_lat": 0.0}, {"type": "electric_scooter", "rental_uris": {"ios": "https://dc.lft.to/lastmile_qr_scan", "android": "https://dc.lft.to/lastmile_qr_scan"}, "lon": -77.04345983333333, "fusion_lon": 0.0, "is_disabled": 0, "lat": 38.90808916666667, "bike_id": "e8702084507e144444ecfa3e38cd04f6", "name": "e8702084507e144444ecfa3e38cd04f6", "is_reserved": 0, "fusion_lat": 0.0}, {"type": "electric_scooter", "rental_uris": {"ios": "https://dc.lft.to/lastmile_qr_scan", "android": "https://dc.lft.to/lastmile_qr_scan"}, "lon": -77.0284155, "fusion_lon": 0.0, "is_disabled": 0, "lat": 38.93279283333333, "bike_id": "dc5f561ee3849f4a36d8409d06585ba2", "name": "dc5f561ee3849f4a36d8409d06585ba2", "is_reserved": 0, "fusion_lat": 0.0}, {"type": "electric_scooter", "rental_uris": {"ios": "https://dc.lft.to/lastmile_qr_scan", "android": "https://dc.lft.to/lastmile_qr_scan"}, "lon": -77.03497566666667, "fusion_lon": 0.0, "is_disabled": 0, "lat": 38.917012, "bike_id": "8fc337bb7dee4cf5a533cee6ba9cdf1f", "name": "8fc337bb7dee4cf5a533cee6ba9cdf1f", "is_reserved": 0, "fusion_lat": 0.0}, {"type": "electric_scooter", "rental_uris": {"ios": "https://dc.lft.to/lastmile_qr_scan", "android": "https://dc.lft.to/lastmile_qr_scan"}, "lon": -77.04675783333333, "fusion_lon": 0.0, "is_disabled": 0, "lat": 38.91574166666667, "bike_id": "7424a2748bc48c08880fa9094b69aa86", "name": "7424a2748bc48c08880fa9094b69aa86", "is_reserved": 0, "fusion_lat": 0.0}, {"type": "electric_scooter", "rental_uris": {"ios": "https://dc.lft.to/lastmile_qr_scan", "android": "https://dc.lft.to/lastmile_qr_scan"}, "lon": -77.0296645, "fusion_lon": 0.0, "is_disabled": 0, "lat": 38.89604583333333, "bike_id": "bb275f06586f3612b9b8857532a56842", "name": "bb275f06586f3612b9b8857532a56842", "is_reserved": 0, "fusion_lat": 0.0}, {"type": "electric_scooter", "rental_uris": {"ios": "https://dc.lft.to/lastmile_qr_scan", "android": "https://dc.lft.to/lastmile_qr_scan"}, "lon": -77.0233725, "fusion_lon": 0.0, "is_disabled": 0, "lat": 38.917741, "bike_id": "55b5b189044604bc04446c0ab21f524f", "name": "55b5b189044604bc04446c0ab21f524f", "is_reserved": 0, "fusion_lat": 0.0}, {"type": "electric_scooter", "rental_uris": {"ios": "https://dc.lft.to/lastmile_qr_scan", "android": "https://dc.lft.to/lastmile_qr_scan"}, "lon": -77.036613, "fusion_lon": 0.0, "is_disabled": 0, "lat": 38.91721833333333, "bike_id": "fde98dbf6c6c56a619254710319ef594", "name": "fde98dbf6c6c56a619254710319ef594", "is_reserved": 0, "fusion_lat": 0.0}, {"type": "electric_bike", "rental_uris": {"ios": "https://dc.lft.to/lastmile_qr_scan", "android": "https://dc.lft.to/lastmile_qr_scan"}, "lon": -77.12951683333333, "fusion_lon": 0.0, "is_disabled": 0, "lat": 38.852137, "bike_id": "a0b502013ba1a9cc53f3c95005341cc2", "name": "a0b502013ba1a9cc53f3c95005341cc2", "is_reserved": 0, "fusion_lat": 0.0}, {"type": "electric_bike", "rental_uris": {"ios": "https://dc.lft.to/lastmile_qr_scan", "android": "https://dc.lft.to/lastmile_qr_scan"}, "lon": -76.932351, "fusion_lon": 0.0, "is_disabled": 0, "lat": 38.86590133333333, "bike_id": "7513d198102aaab3a2c0bd45d0c56cab", "name": "7513d198102aaab3a2c0bd45d0c56cab", "is_reserved": 0, "fusion_lat": 0.0}, {"type": "electric_scooter", "rental_uris": {"ios": "https://dc.lft.to/lastmile_qr_scan", "android": "https://dc.lft.to/lastmile_qr_scan"}, "lon": -77.04010566666666, "fusion_lon": 0.0, "is_disabled": 0, "lat": 38.909985, "bike_id": "7671baae296ead0f9a1fe706b502f3ad", "name": "7671baae296ead0f9a1fe706b502f3ad", "is_reserved": 0, "fusion_lat": 0.0}, {"type": "electric_bike", "rental_uris": {"ios": "https://dc.lft.to/lastmile_qr_scan", "android": "https://dc.lft.to/lastmile_qr_scan"}, "lon": -77.027226, "fusion_lon": 0.0, "is_disabled": 0, "lat": 38.90123633333333, "bike_id": "1e9eed804350acd4eb2cda35005d524b", "name": "1e9eed804350acd4eb2cda35005d524b", "is_reserved": 0, "fusion_lat": 0.0}, {"type": "electric_scooter", "rental_uris": {"ios": "https://dc.lft.to/lastmile_qr_scan", "android": "https://dc.lft.to/lastmile_qr_scan"}, "lon": -77.0020595, "fusion_lon": 0.0, "is_disabled": 0, "lat": 38.904807, "bike_id": "ae8023fbf21c1caa172411477f9c0303", "name": "ae8023fbf21c1caa172411477f9c0303", "is_reserved": 0, "fusion_lat": 0.0}, {"type": "electric_scooter", "rental_uris": {"ios": "https://dc.lft.to/lastmile_qr_scan", "android": "https://dc.lft.to/lastmile_qr_scan"}, "lon": -77.040161, "fusion_lon": 0.0, "is_disabled": 0, "lat": 38.9037965, "bike_id": "246517350cc96235124a1fb338d55f4d", "name": "246517350cc96235124a1fb338d55f4d", "is_reserved": 0, "fusion_lat": 0.0}, {"type": "electric_scooter", "rental_uris": {"ios": "https://dc.lft.to/lastmile_qr_scan", "android": "https://dc.lft.to/lastmile_qr_scan"}, "lon": -77.043855, "fusion_lon": 0.0, "is_disabled": 0, "lat": 38.93330983333333, "bike_id": "87869648a24d7dc9ac7dd8c16fe42b56", "name": "87869648a24d7dc9ac7dd8c16fe42b56", "is_reserved": 0, "fusion_lat": 0.0}, {"type": "electric_scooter", "rental_uris": {"ios": "https://dc.lft.to/lastmile_qr_scan", "android": "https://dc.lft.to/lastmile_qr_scan"}, "lon": -77.02624033333333, "fusion_lon": 0.0, "is_disabled": 0, "lat": 38.89209833333334, "bike_id": "d0b4d895ed9feb386b2c8cddb12f159f", "name": "d0b4d895ed9feb386b2c8cddb12f159f", "is_reserved": 0, "fusion_lat": 0.0}, {"type": "electric_bike", "rental_uris": {"ios": "https://dc.lft.to/lastmile_qr_scan", "android": "https://dc.lft.to/lastmile_qr_scan"}, "lon": -76.98101666666666, "fusion_lon": 0.0, "is_disabled": 0, "lat": 38.95348766666667, "bike_id": "dc11da206a485eb8de77151510b942a4", "name": "dc11da206a485eb8de77151510b942a4", "is_reserved": 0, "fusion_lat": 0.0}, {"type": "electric_scooter", "rental_uris": {"ios": "https://dc.lft.to/lastmile_qr_scan", "android": "https://dc.lft.to/lastmile_qr_scan"}, "lon": -77.01524416666666, "fusion_lon": 0.0, "is_disabled": 0, "lat": 38.885255, "bike_id": "0339996bd1daf759dba16aa1ab0339b1", "name": "0339996bd1daf759dba16aa1ab0339b1", "is_reserved": 0, "fusion_lat": 0.0}, {"type": "electric_scooter", "rental_uris": {"ios": "https://dc.lft.to/lastmile_qr_scan", "android": "https://dc.lft.to/lastmile_qr_scan"}, "lon": -77.04334883333334, "fusion_lon": 0.0, "is_disabled": 0, "lat": 38.90419416666667, "bike_id": "493c8317bebe33961e7da477c7900f0e", "name": "493c8317bebe33961e7da477c7900f0e", "is_reserved": 0, "fusion_lat": 0.0}, {"type": "electric_scooter", "rental_uris": {"ios": "https://dc.lft.to/lastmile_qr_scan", "android": "https://dc.lft.to/lastmile_qr_scan"}, "lon": -77.0402045, "fusion_lon": 0.0, "is_disabled": 0, "lat": 38.924448166666664, "bike_id": "4878872fddc94792b85a366a733fbe0f", "name": "4878872fddc94792b85a366a733fbe0f", "is_reserved": 0, "fusion_lat": 0.0}, {"type": "electric_scooter", "rental_uris": {"ios": "https://dc.lft.to/lastmile_qr_scan", "android": "https://dc.lft.to/lastmile_qr_scan"}, "lon": -77.02629066666667, "fusion_lon": 0.0, "is_disabled": 0, "lat": 38.89213816666667, "bike_id": "c8159315240e707247850bc829303177", "name": "c8159315240e707247850bc829303177", "is_reserved": 0, "fusion_lat": 0.0}, {"type": "electric_scooter", "rental_uris": {"ios": "https://dc.lft.to/lastmile_qr_scan", "android": "https://dc.lft.to/lastmile_qr_scan"}, "lon": -76.990306, "fusion_lon": 0.0, "is_disabled": 0, "lat": 38.86523666666667, "bike_id": "bc642b907a7bc9a41ebe69654ab238e5", "name": "bc642b907a7bc9a41ebe69654ab238e5", "is_reserved": 0, "fusion_lat": 0.0}, {"type": "electric_scooter", "rental_uris": {"ios": "https://dc.lft.to/lastmile_qr_scan", "android": "https://dc.lft.to/lastmile_qr_scan"}, "lon": -77.02474133333334, "fusion_lon": 0.0, "is_disabled": 0, "lat": 38.919444166666665, "bike_id": "0a613297150e75b598ffeb2f390b795e", "name": "0a613297150e75b598ffeb2f390b795e", "is_reserved": 0, "fusion_lat": 0.0}, {"type": "electric_scooter", "rental_uris": {"ios": "https://dc.lft.to/lastmile_qr_scan", "android": "https://dc.lft.to/lastmile_qr_scan"}, "lon": -77.04624916666667, "fusion_lon": 0.0, "is_disabled": 0, "lat": 38.9154465, "bike_id": "74fde695ae1d07108cc5c2e69aecf9e5", "name": "74fde695ae1d07108cc5c2e69aecf9e5", "is_reserved": 0, "fusion_lat": 0.0}, {"type": "electric_scooter", "rental_uris": {"ios": "https://dc.lft.to/lastmile_qr_scan", "android": "https://dc.lft.to/lastmile_qr_scan"}, "lon": -77.03173133333334, "fusion_lon": 0.0, "is_disabled": 0, "lat": 38.91923766666667, "bike_id": "956c812dacf99a63523fee63efff78a5", "name": "956c812dacf99a63523fee63efff78a5", "is_reserved": 0, "fusion_lat": 0.0}, {"type": "electric_scooter", "rental_uris": {"ios": "https://dc.lft.to/lastmile_qr_scan", "android": "https://dc.lft.to/lastmile_qr_scan"}, "lon": -77.03182083333333, "fusion_lon": 0.0, "is_disabled": 0, "lat": 38.913969333333334, "bike_id": "8885e0b4953cf0ae58af50cc8bcae66d", "name": "8885e0b4953cf0ae58af50cc8bcae66d", "is_reserved": 0, "fusion_lat": 0.0}, {"type": "electric_bike", "rental_uris": {"ios": "https://dc.lft.to/lastmile_qr_scan", "android": "https://dc.lft.to/lastmile_qr_scan"}, "lon": -77.0948005, "fusion_lon": 0.0, "is_disabled": 0, "lat": 38.80748, "bike_id": "a0e242dbebe4fdb3f917aaa095086411", "name": "a0e242dbebe4fdb3f917aaa095086411", "is_reserved": 0, "fusion_lat": 0.0}, {"type": "electric_scooter", "rental_uris": {"ios": "https://dc.lft.to/lastmile_qr_scan", "android": "https://dc.lft.to/lastmile_qr_scan"}, "lon": -77.03844016666666, "fusion_lon": 0.0, "is_disabled": 0, "lat": 38.9160405, "bike_id": "77c013c9b31a369189d840be389c068d", "name": "77c013c9b31a369189d840be389c068d", "is_reserved": 0, "fusion_lat": 0.0}, {"type": "electric_scooter", "rental_uris": {"ios": "https://dc.lft.to/lastmile_qr_scan", "android": "https://dc.lft.to/lastmile_qr_scan"}, "lon": -77.03738116666666, "fusion_lon": 0.0, "is_disabled": 0, "lat": 38.90271383333334, "bike_id": "5c706b8f65cb6355b5c296026eecf0a5", "name": "5c706b8f65cb6355b5c296026eecf0a5", "is_reserved": 0, "fusion_lat": 0.0}, {"type": "electric_scooter", "rental_uris": {"ios": "https://dc.lft.to/lastmile_qr_scan", "android": "https://dc.lft.to/lastmile_qr_scan"}, "lon": -77.0436585, "fusion_lon": 0.0, "is_disabled": 0, "lat": 38.93325566666667, "bike_id": "57563af8b44e4868b448981da27b82b4", "name": "57563af8b44e4868b448981da27b82b4", "is_reserved": 0, "fusion_lat": 0.0}, {"type": "electric_scooter", "rental_uris": {"ios": "https://dc.lft.to/lastmile_qr_scan", "android": "https://dc.lft.to/lastmile_qr_scan"}, "lon": -77.06054033333334, "fusion_lon": 0.0, "is_disabled": 0, "lat": 38.902146, "bike_id": "b4cd985ce679fab4cd28ed01550afc17", "name": "b4cd985ce679fab4cd28ed01550afc17", "is_reserved": 0, "fusion_lat": 0.0}, {"type": "electric_scooter", "rental_uris": {"ios": "https://dc.lft.to/lastmile_qr_scan", "android": "https://dc.lft.to/lastmile_qr_scan"}, "lon": -76.98074116666666, "fusion_lon": 0.0, "is_disabled": 0, "lat": 38.919444166666665, "bike_id": "0588e3421670da07c92679b8d6bedbf2", "name": "0588e3421670da07c92679b8d6bedbf2", "is_reserved": 0, "fusion_lat": 0.0}, {"type": "electric_scooter", "rental_uris": {"ios": "https://dc.lft.to/lastmile_qr_scan", "android": "https://dc.lft.to/lastmile_qr_scan"}, "lon": -77.04867716666666, "fusion_lon": 0.0, "is_disabled": 0, "lat": 38.89216583333334, "bike_id": "8d004a0faa6bd8e880c6493ba18dd9db", "name": "8d004a0faa6bd8e880c6493ba18dd9db", "is_reserved": 0, "fusion_lat": 0.0}, {"type": "electric_scooter", "rental_uris": {"ios": "https://dc.lft.to/lastmile_qr_scan", "android": "https://dc.lft.to/lastmile_qr_scan"}, "lon": -77.02184783333334, "fusion_lon": 0.0, "is_disabled": 0, "lat": 38.91567633333333, "bike_id": "85c4e1a1a05714d1dbf4725670c5fb6d", "name": "85c4e1a1a05714d1dbf4725670c5fb6d", "is_reserved": 0, "fusion_lat": 0.0}, {"type": "electric_scooter", "rental_uris": {"ios": "https://dc.lft.to/lastmile_qr_scan", "android": "https://dc.lft.to/lastmile_qr_scan"}, "lon": -76.97705716666667, "fusion_lon": 0.0, "is_disabled": 0, "lat": 38.90261683333333, "bike_id": "7a59bc84a386e963281266fa8f9967ba", "name": "7a59bc84a386e963281266fa8f9967ba", "is_reserved": 0, "fusion_lat": 0.0}, {"type": "electric_scooter", "rental_uris": {"ios": "https://dc.lft.to/lastmile_qr_scan", "android": "https://dc.lft.to/lastmile_qr_scan"}, "lon": -77.01136083333333, "fusion_lon": 0.0, "is_disabled": 0, "lat": 38.8852095, "bike_id": "bd444747bae9d657b129d5c20cc8da0a", "name": "bd444747bae9d657b129d5c20cc8da0a", "is_reserved": 0, "fusion_lat": 0.0}, {"type": "electric_scooter", "rental_uris": {"ios": "https://dc.lft.to/lastmile_qr_scan", "android": "https://dc.lft.to/lastmile_qr_scan"}, "lon": -77.0423545, "fusion_lon": 0.0, "is_disabled": 0, "lat": 38.921605166666666, "bike_id": "574b7daf471a3c49ed914f9a6e4db021", "name": "574b7daf471a3c49ed914f9a6e4db021", "is_reserved": 0, "fusion_lat": 0.0}, {"type": "electric_bike", "rental_uris": {"ios": "https://dc.lft.to/lastmile_qr_scan", "android": "https://dc.lft.to/lastmile_qr_scan"}, "lon": -77.08611816666667, "fusion_lon": 0.0, "is_disabled": 0, "lat": 38.8593695, "bike_id": "e620d703940fc324a7c2f310560db93b", "name": "e620d703940fc324a7c2f310560db93b", "is_reserved": 0, "fusion_lat": 0.0}, {"type": "electric_scooter", "rental_uris": {"ios": "https://dc.lft.to/lastmile_qr_scan", "android": "https://dc.lft.to/lastmile_qr_scan"}, "lon": -77.027218, "fusion_lon": 0.0, "is_disabled": 0, "lat": 38.9324175, "bike_id": "6bf46d949e8e4d48a111e3c0ed6d4bab", "name": "6bf46d949e8e4d48a111e3c0ed6d4bab", "is_reserved": 0, "fusion_lat": 0.0}, {"type": "electric_scooter", "rental_uris": {"ios": "https://dc.lft.to/lastmile_qr_scan", "android": "https://dc.lft.to/lastmile_qr_scan"}, "lon": -77.03426833333333, "fusion_lon": 0.0, "is_disabled": 0, "lat": 38.930677333333335, "bike_id": "04ff5b86dfee09f058c35edfdf210b22", "name": "04ff5b86dfee09f058c35edfdf210b22", "is_reserved": 0, "fusion_lat": 0.0}, {"type": "electric_scooter", "rental_uris": {"ios": "https://dc.lft.to/lastmile_qr_scan", "android": "https://dc.lft.to/lastmile_qr_scan"}, "lon": -77.032711, "fusion_lon": 0.0, "is_disabled": 0, "lat": 38.92977716666667, "bike_id": "e8a6fc3afbfeb84970d50a8513fac416", "name": "e8a6fc3afbfeb84970d50a8513fac416", "is_reserved": 0, "fusion_lat": 0.0}, {"type": "electric_scooter", "rental_uris": {"ios": "https://dc.lft.to/lastmile_qr_scan", "android": "https://dc.lft.to/lastmile_qr_scan"}, "lon": -77.0547115, "fusion_lon": 0.0, "is_disabled": 0, "lat": 38.89596383333333, "bike_id": "059c2027ffcbf85663b5eb63131c6dc6", "name": "059c2027ffcbf85663b5eb63131c6dc6", "is_reserved": 0, "fusion_lat": 0.0}, {"type": "electric_scooter", "rental_uris": {"ios": "https://dc.lft.to/lastmile_qr_scan", "android": "https://dc.lft.to/lastmile_qr_scan"}, "lon": -77.03636383333334, "fusion_lon": 0.0, "is_disabled": 0, "lat": 38.91683366666667, "bike_id": "cea8ce698fc5a2d18cd0f51cc711e72b", "name": "cea8ce698fc5a2d18cd0f51cc711e72b", "is_reserved": 0, "fusion_lat": 0.0}, {"type": "electric_scooter", "rental_uris": {"ios": "https://dc.lft.to/lastmile_qr_scan", "android": "https://dc.lft.to/lastmile_qr_scan"}, "lon": -77.031878, "fusion_lon": 0.0, "is_disabled": 0, "lat": 38.901226666666666, "bike_id": "3e22cf4e2d2e7fac8d42266afd9bb979", "name": "3e22cf4e2d2e7fac8d42266afd9bb979", "is_reserved": 0, "fusion_lat": 0.0}, {"type": "electric_scooter", "rental_uris": {"ios": "https://dc.lft.to/lastmile_qr_scan", "android": "https://dc.lft.to/lastmile_qr_scan"}, "lon": -77.03861183333333, "fusion_lon": 0.0, "is_disabled": 0, "lat": 38.911762, "bike_id": "9055153e5bd36f67145ecdda791e78e8", "name": "9055153e5bd36f67145ecdda791e78e8", "is_reserved": 0, "fusion_lat": 0.0}, {"type": "electric_scooter", "rental_uris": {"ios": "https://dc.lft.to/lastmile_qr_scan", "android": "https://dc.lft.to/lastmile_qr_scan"}, "lon": -77.003147, "fusion_lon": 0.0, "is_disabled": 0, "lat": 38.90828483333333, "bike_id": "f4593d546ce4997ff9599a9455778d6f", "name": "f4593d546ce4997ff9599a9455778d6f", "is_reserved": 0, "fusion_lat": 0.0}, {"type": "electric_scooter", "rental_uris": {"ios": "https://dc.lft.to/lastmile_qr_scan", "android": "https://dc.lft.to/lastmile_qr_scan"}, "lon": -77.05753433333334, "fusion_lon": 0.0, "is_disabled": 0, "lat": 38.92457783333333, "bike_id": "a8ff48ce6dea901b506827cb2418fa65", "name": "a8ff48ce6dea901b506827cb2418fa65", "is_reserved": 0, "fusion_lat": 0.0}, {"type": "electric_scooter", "rental_uris": {"ios": "https://dc.lft.to/lastmile_qr_scan", "android": "https://dc.lft.to/lastmile_qr_scan"}, "lon": -77.025725, "fusion_lon": 0.0, "is_disabled": 0, "lat": 38.899349666666666, "bike_id": "6ee1580b366da8cb5380577224706313", "name": "6ee1580b366da8cb5380577224706313", "is_reserved": 0, "fusion_lat": 0.0}, {"type": "electric_scooter", "rental_uris": {"ios": "https://dc.lft.to/lastmile_qr_scan", "android": "https://dc.lft.to/lastmile_qr_scan"}, "lon": -77.03644766666666, "fusion_lon": 0.0, "is_disabled": 0, "lat": 38.90279733333333, "bike_id": "1802a01c79eb1ab5666b829112ddb5e4", "name": "1802a01c79eb1ab5666b829112ddb5e4", "is_reserved": 0, "fusion_lat": 0.0}, {"type": "electric_scooter", "rental_uris": {"ios": "https://dc.lft.to/lastmile_qr_scan", "android": "https://dc.lft.to/lastmile_qr_scan"}, "lon": -77.03872183333333, "fusion_lon": 0.0, "is_disabled": 0, "lat": 38.910325666666665, "bike_id": "dadd81a46bb56ce143e1184124da2bc1", "name": "dadd81a46bb56ce143e1184124da2bc1", "is_reserved": 0, "fusion_lat": 0.0}, {"type": "electric_scooter", "rental_uris": {"ios": "https://dc.lft.to/lastmile_qr_scan", "android": "https://dc.lft.to/lastmile_qr_scan"}, "lon": -77.021702, "fusion_lon": 0.0, "is_disabled": 0, "lat": 38.91617866666667, "bike_id": "8592f11a9b712e0788ce076135297de1", "name": "8592f11a9b712e0788ce076135297de1", "is_reserved": 0, "fusion_lat": 0.0}, {"type": "electric_scooter", "rental_uris": {"ios": "https://dc.lft.to/lastmile_qr_scan", "android": "https://dc.lft.to/lastmile_qr_scan"}, "lon": -77.050205, "fusion_lon": 0.0, "is_disabled": 0, "lat": 38.906564833333334, "bike_id": "022c9e787c332250bb023366d3575db8", "name": "022c9e787c332250bb023366d3575db8", "is_reserved": 0, "fusion_lat": 0.0}, {"type": "electric_scooter", "rental_uris": {"ios": "https://dc.lft.to/lastmile_qr_scan", "android": "https://dc.lft.to/lastmile_qr_scan"}, "lon": -77.02609883333334, "fusion_lon": 0.0, "is_disabled": 0, "lat": 38.9140985, "bike_id": "dd9dc383f4fad510ea44d5820f714a7c", "name": "dd9dc383f4fad510ea44d5820f714a7c", "is_reserved": 0, "fusion_lat": 0.0}, {"type": "electric_scooter", "rental_uris": {"ios": "https://dc.lft.to/lastmile_qr_scan", "android": "https://dc.lft.to/lastmile_qr_scan"}, "lon": -77.04167916666667, "fusion_lon": 0.0, "is_disabled": 0, "lat": 38.913418666666665, "bike_id": "466ed7339a84e2fe5fe1944ba3e16fa9", "name": "466ed7339a84e2fe5fe1944ba3e16fa9", "is_reserved": 0, "fusion_lat": 0.0}, {"type": "electric_scooter", "rental_uris": {"ios": "https://dc.lft.to/lastmile_qr_scan", "android": "https://dc.lft.to/lastmile_qr_scan"}, "lon": -77.02402233333333, "fusion_lon": 0.0, "is_disabled": 0, "lat": 38.919866999999996, "bike_id": "e00a87f1944d6be912f6f4c12168638a", "name": "e00a87f1944d6be912f6f4c12168638a", "is_reserved": 0, "fusion_lat": 0.0}, {"type": "electric_scooter", "rental_uris": {"ios": "https://dc.lft.to/lastmile_qr_scan", "android": "https://dc.lft.to/lastmile_qr_scan"}, "lon": -77.02022066666666, "fusion_lon": 0.0, "is_disabled": 0, "lat": 38.898597333333335, "bike_id": "02bb8d326ae45a21dced36346b694fb8", "name": "02bb8d326ae45a21dced36346b694fb8", "is_reserved": 0, "fusion_lat": 0.0}, {"type": "electric_scooter", "rental_uris": {"ios": "https://dc.lft.to/lastmile_qr_scan", "android": "https://dc.lft.to/lastmile_qr_scan"}, "lon": -77.00760433333333, "fusion_lon": 0.0, "is_disabled": 0, "lat": 38.905894, "bike_id": "df543932f808d9f2d2c1c8e43ef5450e", "name": "df543932f808d9f2d2c1c8e43ef5450e", "is_reserved": 0, "fusion_lat": 0.0}, {"type": "electric_scooter", "rental_uris": {"ios": "https://dc.lft.to/lastmile_qr_scan", "android": "https://dc.lft.to/lastmile_qr_scan"}, "lon": -77.00076383333334, "fusion_lon": 0.0, "is_disabled": 0, "lat": 38.8973785, "bike_id": "50b0e4e29c922530aa135373b078bc5f", "name": "50b0e4e29c922530aa135373b078bc5f", "is_reserved": 0, "fusion_lat": 0.0}, {"type": "electric_scooter", "rental_uris": {"ios": "https://dc.lft.to/lastmile_qr_scan", "android": "https://dc.lft.to/lastmile_qr_scan"}, "lon": -77.0162225, "fusion_lon": 0.0, "is_disabled": 0, "lat": 38.898148, "bike_id": "971d6cf6204aec6a637405b97f0cd2f0", "name": "971d6cf6204aec6a637405b97f0cd2f0", "is_reserved": 0, "fusion_lat": 0.0}, {"type": "electric_scooter", "rental_uris": {"ios": "https://dc.lft.to/lastmile_qr_scan", "android": "https://dc.lft.to/lastmile_qr_scan"}, "lon": -77.02292316666667, "fusion_lon": 0.0, "is_disabled": 0, "lat": 38.91732833333333, "bike_id": "63b7916580e1d46274741a75f8a63d1c", "name": "63b7916580e1d46274741a75f8a63d1c", "is_reserved": 0, "fusion_lat": 0.0}, {"type": "electric_scooter", "rental_uris": {"ios": "https://dc.lft.to/lastmile_qr_scan", "android": "https://dc.lft.to/lastmile_qr_scan"}, "lon": -77.02285116666667, "fusion_lon": 0.0, "is_disabled": 0, "lat": 38.916224666666665, "bike_id": "b351ba7866f0c6ef1b42d3100dd1d60c", "name": "b351ba7866f0c6ef1b42d3100dd1d60c", "is_reserved": 0, "fusion_lat": 0.0}, {"type": "electric_scooter", "rental_uris": {"ios": "https://dc.lft.to/lastmile_qr_scan", "android": "https://dc.lft.to/lastmile_qr_scan"}, "lon": -76.985386, "fusion_lon": 0.0, "is_disabled": 0, "lat": 38.866732166666665, "bike_id": "03a07ec507e51ad950afc64d6db996d2", "name": "03a07ec507e51ad950afc64d6db996d2", "is_reserved": 0, "fusion_lat": 0.0}, {"type": "electric_scooter", "rental_uris": {"ios": "https://dc.lft.to/lastmile_qr_scan", "android": "https://dc.lft.to/lastmile_qr_scan"}, "lon": -77.03162783333333, "fusion_lon": 0.0, "is_disabled": 0, "lat": 38.892203, "bike_id": "26e615c5afd799ea74fe11bfbff712c7", "name": "26e615c5afd799ea74fe11bfbff712c7", "is_reserved": 0, "fusion_lat": 0.0}, {"type": "electric_scooter", "rental_uris": {"ios": "https://dc.lft.to/lastmile_qr_scan", "android": "https://dc.lft.to/lastmile_qr_scan"}, "lon": -77.04877016666667, "fusion_lon": 0.0, "is_disabled": 0, "lat": 38.90973533333333, "bike_id": "f7ea35ffee6400c3135401cd181753ea", "name": "f7ea35ffee6400c3135401cd181753ea", "is_reserved": 0, "fusion_lat": 0.0}, {"type": "electric_scooter", "rental_uris": {"ios": "https://dc.lft.to/lastmile_qr_scan", "android": "https://dc.lft.to/lastmile_qr_scan"}, "lon": -77.026862, "fusion_lon": 0.0, "is_disabled": 0, "lat": 38.897470166666665, "bike_id": "3e6603bf57d9a44def6dcffe6c9397e2", "name": "3e6603bf57d9a44def6dcffe6c9397e2", "is_reserved": 0, "fusion_lat": 0.0}, {"type": "electric_scooter", "rental_uris": {"ios": "https://dc.lft.to/lastmile_qr_scan", "android": "https://dc.lft.to/lastmile_qr_scan"}, "lon": -77.0228125, "fusion_lon": 0.0, "is_disabled": 0, "lat": 38.91686283333333, "bike_id": "a9d6edd9d96ef7eb4c0289dd5b0b5afb", "name": "a9d6edd9d96ef7eb4c0289dd5b0b5afb", "is_reserved": 0, "fusion_lat": 0.0}, {"type": "electric_scooter", "rental_uris": {"ios": "https://dc.lft.to/lastmile_qr_scan", "android": "https://dc.lft.to/lastmile_qr_scan"}, "lon": -77.04014, "fusion_lon": 0.0, "is_disabled": 0, "lat": 38.922095, "bike_id": "7f756763c12c42360b1d10ab05ead885", "name": "7f756763c12c42360b1d10ab05ead885", "is_reserved": 0, "fusion_lat": 0.0}, {"type": "electric_scooter", "rental_uris": {"ios": "https://dc.lft.to/lastmile_qr_scan", "android": "https://dc.lft.to/lastmile_qr_scan"}, "lon": -77.04521983333333, "fusion_lon": 0.0, "is_disabled": 0, "lat": 38.93312316666667, "bike_id": "c8c65a0dc15f2abd734e00aafe1217b6", "name": "c8c65a0dc15f2abd734e00aafe1217b6", "is_reserved": 0, "fusion_lat": 0.0}, {"type": "electric_scooter", "rental_uris": {"ios": "https://dc.lft.to/lastmile_qr_scan", "android": "https://dc.lft.to/lastmile_qr_scan"}, "lon": -77.00598283333333, "fusion_lon": 0.0, "is_disabled": 0, "lat": 38.905749666666665, "bike_id": "2d83b58b595c5ed3baebe4e7ee03f40d", "name": "2d83b58b595c5ed3baebe4e7ee03f40d", "is_reserved": 0, "fusion_lat": 0.0}, {"type": "electric_scooter", "rental_uris": {"ios": "https://dc.lft.to/lastmile_qr_scan", "android": "https://dc.lft.to/lastmile_qr_scan"}, "lon": -77.021526, "fusion_lon": 0.0, "is_disabled": 0, "lat": 38.897382, "bike_id": "6994c0bad80492c4653078bcf454c621", "name": "6994c0bad80492c4653078bcf454c621", "is_reserved": 0, "fusion_lat": 0.0}, {"type": "electric_bike", "rental_uris": {"ios": "https://dc.lft.to/lastmile_qr_scan", "android": "https://dc.lft.to/lastmile_qr_scan"}, "lon": -76.98106316666667, "fusion_lon": 0.0, "is_disabled": 0, "lat": 38.87726883333333, "bike_id": "495284e4015519d4e77394dd0c32bb02", "name": "495284e4015519d4e77394dd0c32bb02", "is_reserved": 0, "fusion_lat": 0.0}, {"type": "electric_bike", "rental_uris": {"ios": "https://dc.lft.to/lastmile_qr_scan", "android": "https://dc.lft.to/lastmile_qr_scan"}, "lon": -77.18741266666666, "fusion_lon": 0.0, "is_disabled": 0, "lat": 38.893494, "bike_id": "ba46f8decc1da899fd5ad124bde86e82", "name": "ba46f8decc1da899fd5ad124bde86e82", "is_reserved": 0, "fusion_lat": 0.0}, {"type": "electric_scooter", "rental_uris": {"ios": "https://dc.lft.to/lastmile_qr_scan", "android": "https://dc.lft.to/lastmile_qr_scan"}, "lon": -77.0218095, "fusion_lon": 0.0, "is_disabled": 0, "lat": 38.909750833333334, "bike_id": "daa33eff22a3af9746980943cfb9e268", "name": "daa33eff22a3af9746980943cfb9e268", "is_reserved": 0, "fusion_lat": 0.0}, {"type": "electric_scooter", "rental_uris": {"ios": "https://dc.lft.to/lastmile_qr_scan", "android": "https://dc.lft.to/lastmile_qr_scan"}, "lon": -77.01209116666666, "fusion_lon": 0.0, "is_disabled": 0, "lat": 38.899961166666664, "bike_id": "93b4fc2b8b60b0f4d35ec4d212edd587", "name": "93b4fc2b8b60b0f4d35ec4d212edd587", "is_reserved": 0, "fusion_lat": 0.0}, {"type": "electric_scooter", "rental_uris": {"ios": "https://dc.lft.to/lastmile_qr_scan", "android": "https://dc.lft.to/lastmile_qr_scan"}, "lon": -77.02825066666666, "fusion_lon": 0.0, "is_disabled": 0, "lat": 38.902477, "bike_id": "1ce5d7dd7d239bb82f7dc9ef3267cb66", "name": "1ce5d7dd7d239bb82f7dc9ef3267cb66", "is_reserved": 0, "fusion_lat": 0.0}, {"type": "electric_scooter", "rental_uris": {"ios": "https://dc.lft.to/lastmile_qr_scan", "android": "https://dc.lft.to/lastmile_qr_scan"}, "lon": -77.0416995, "fusion_lon": 0.0, "is_disabled": 0, "lat": 38.9050775, "bike_id": "e9501b7bd7cc1942f1a9633aab7b94f7", "name": "e9501b7bd7cc1942f1a9633aab7b94f7", "is_reserved": 0, "fusion_lat": 0.0}, {"type": "electric_scooter", "rental_uris": {"ios": "https://dc.lft.to/lastmile_qr_scan", "android": "https://dc.lft.to/lastmile_qr_scan"}, "lon": -77.041015, "fusion_lon": 0.0, "is_disabled": 0, "lat": 38.90457283333333, "bike_id": "6dcb7ab315ba03f5dfca752305ca2c1d", "name": "6dcb7ab315ba03f5dfca752305ca2c1d", "is_reserved": 0, "fusion_lat": 0.0}, {"type": "electric_scooter", "rental_uris": {"ios": "https://dc.lft.to/lastmile_qr_scan", "android": "https://dc.lft.to/lastmile_qr_scan"}, "lon": -77.03770066666667, "fusion_lon": 0.0, "is_disabled": 0, "lat": 38.916860666666665, "bike_id": "7eca612556893301af23bb002b606472", "name": "7eca612556893301af23bb002b606472", "is_reserved": 0, "fusion_lat": 0.0}, {"type": "electric_scooter", "rental_uris": {"ios": "https://dc.lft.to/lastmile_qr_scan", "android": "https://dc.lft.to/lastmile_qr_scan"}, "lon": -77.041233, "fusion_lon": 0.0, "is_disabled": 0, "lat": 38.917051, "bike_id": "4b1da1e2d9250ff59dad32f4be4658ef", "name": "4b1da1e2d9250ff59dad32f4be4658ef", "is_reserved": 0, "fusion_lat": 0.0}, {"type": "electric_scooter", "rental_uris": {"ios": "https://dc.lft.to/lastmile_qr_scan", "android": "https://dc.lft.to/lastmile_qr_scan"}, "lon": -77.02804616666667, "fusion_lon": 0.0, "is_disabled": 0, "lat": 38.90733733333333, "bike_id": "2ad555437b9e40a6d34f72abf120c443", "name": "2ad555437b9e40a6d34f72abf120c443", "is_reserved": 0, "fusion_lat": 0.0}, {"type": "electric_scooter", "rental_uris": {"ios": "https://dc.lft.to/lastmile_qr_scan", "android": "https://dc.lft.to/lastmile_qr_scan"}, "lon": -76.99517183333333, "fusion_lon": 0.0, "is_disabled": 0, "lat": 38.862515333333334, "bike_id": "3a1cb658c1b99bf688bcc6693a2246bc", "name": "3a1cb658c1b99bf688bcc6693a2246bc", "is_reserved": 0, "fusion_lat": 0.0}, {"type": "electric_scooter", "rental_uris": {"ios": "https://dc.lft.to/lastmile_qr_scan", "android": "https://dc.lft.to/lastmile_qr_scan"}, "lon": -77.05130016666666, "fusion_lon": 0.0, "is_disabled": 0, "lat": 38.923558666666665, "bike_id": "e6ad53d7d0f3e1f7c06487d6efbb8cc7", "name": "e6ad53d7d0f3e1f7c06487d6efbb8cc7", "is_reserved": 0, "fusion_lat": 0.0}, {"type": "electric_scooter", "rental_uris": {"ios": "https://dc.lft.to/lastmile_qr_scan", "android": "https://dc.lft.to/lastmile_qr_scan"}, "lon": -76.92235833333334, "fusion_lon": 0.0, "is_disabled": 0, "lat": 38.900096166666664, "bike_id": "de6dff490f47e0e6996f260e567a0386", "name": "de6dff490f47e0e6996f260e567a0386", "is_reserved": 0, "fusion_lat": 0.0}, {"type": "electric_scooter", "rental_uris": {"ios": "https://dc.lft.to/lastmile_qr_scan", "android": "https://dc.lft.to/lastmile_qr_scan"}, "lon": -77.02833983333333, "fusion_lon": 0.0, "is_disabled": 0, "lat": 38.89226766666667, "bike_id": "57d31bac3a63c86c265221b0dfc3b1da", "name": "57d31bac3a63c86c265221b0dfc3b1da", "is_reserved": 0, "fusion_lat": 0.0}, {"type": "electric_scooter", "rental_uris": {"ios": "https://dc.lft.to/lastmile_qr_scan", "android": "https://dc.lft.to/lastmile_qr_scan"}, "lon": -77.04491483333334, "fusion_lon": 0.0, "is_disabled": 0, "lat": 38.915953, "bike_id": "5bcdd9d67cad362eb308962ffc25d75d", "name": "5bcdd9d67cad362eb308962ffc25d75d", "is_reserved": 0, "fusion_lat": 0.0}, {"type": "electric_scooter", "rental_uris": {"ios": "https://dc.lft.to/lastmile_qr_scan", "android": "https://dc.lft.to/lastmile_qr_scan"}, "lon": -76.9983325, "fusion_lon": 0.0, "is_disabled": 0, "lat": 38.9000235, "bike_id": "1b0f34393e6b0f18ff9af86e2228f207", "name": "1b0f34393e6b0f18ff9af86e2228f207", "is_reserved": 0, "fusion_lat": 0.0}, {"type": "electric_bike", "rental_uris": {"ios": "https://dc.lft.to/lastmile_qr_scan", "android": "https://dc.lft.to/lastmile_qr_scan"}, "lon": -77.11798383333333, "fusion_lon": 0.0, "is_disabled": 0, "lat": 38.87375766666667, "bike_id": "6189860f76516794f41b735ff3877d56", "name": "6189860f76516794f41b735ff3877d56", "is_reserved": 0, "fusion_lat": 0.0}, {"type": "electric_scooter", "rental_uris": {"ios": "https://dc.lft.to/lastmile_qr_scan", "android": "https://dc.lft.to/lastmile_qr_scan"}, "lon": -77.03525666666667, "fusion_lon": 0.0, "is_disabled": 0, "lat": 38.91817316666667, "bike_id": "0237de8f7e3957d465fa42ee0bb809b0", "name": "0237de8f7e3957d465fa42ee0bb809b0", "is_reserved": 0, "fusion_lat": 0.0}, {"type": "electric_scooter", "rental_uris": {"ios": "https://dc.lft.to/lastmile_qr_scan", "android": "https://dc.lft.to/lastmile_qr_scan"}, "lon": -77.02286766666667, "fusion_lon": 0.0, "is_disabled": 0, "lat": 38.91438633333333, "bike_id": "6e92b7bc5745b18a8e9d09fb1f14ad62", "name": "6e92b7bc5745b18a8e9d09fb1f14ad62", "is_reserved": 0, "fusion_lat": 0.0}, {"type": "electric_bike", "rental_uris": {"ios": "https://dc.lft.to/lastmile_qr_scan", "android": "https://dc.lft.to/lastmile_qr_scan"}, "lon": -77.0262185, "fusion_lon": 0.0, "is_disabled": 0, "lat": 38.969224, "bike_id": "a47c4dc276524be4eaf2fb7d2156a742", "name": "a47c4dc276524be4eaf2fb7d2156a742", "is_reserved": 0, "fusion_lat": 0.0}, {"type": "electric_scooter", "rental_uris": {"ios": "https://dc.lft.to/lastmile_qr_scan", "android": "https://dc.lft.to/lastmile_qr_scan"}, "lon": -77.03165433333334, "fusion_lon": 0.0, "is_disabled": 0, "lat": 38.896159833333336, "bike_id": "2cf55e65f904d65080f26962946f7660", "name": "2cf55e65f904d65080f26962946f7660", "is_reserved": 0, "fusion_lat": 0.0}, {"type": "electric_scooter", "rental_uris": {"ios": "https://dc.lft.to/lastmile_qr_scan", "android": "https://dc.lft.to/lastmile_qr_scan"}, "lon": -77.054922, "fusion_lon": 0.0, "is_disabled": 0, "lat": 38.9093635, "bike_id": "617a1f0f5c9101c3273ba25ce6aa5d1e", "name": "617a1f0f5c9101c3273ba25ce6aa5d1e", "is_reserved": 0, "fusion_lat": 0.0}, {"type": "electric_scooter", "rental_uris": {"ios": "https://dc.lft.to/lastmile_qr_scan", "android": "https://dc.lft.to/lastmile_qr_scan"}, "lon": -77.03764816666667, "fusion_lon": 0.0, "is_disabled": 0, "lat": 38.906742333333334, "bike_id": "ed35496a8a6006585c7101f9e1aa60e0", "name": "ed35496a8a6006585c7101f9e1aa60e0", "is_reserved": 0, "fusion_lat": 0.0}, {"type": "electric_scooter", "rental_uris": {"ios": "https://dc.lft.to/lastmile_qr_scan", "android": "https://dc.lft.to/lastmile_qr_scan"}, "lon": -76.96528916666666, "fusion_lon": 0.0, "is_disabled": 0, "lat": 38.87625966666667, "bike_id": "37271f42058e2322789c5c43809912a6", "name": "37271f42058e2322789c5c43809912a6", "is_reserved": 0, "fusion_lat": 0.0}, {"type": "electric_scooter", "rental_uris": {"ios": "https://dc.lft.to/lastmile_qr_scan", "android": "https://dc.lft.to/lastmile_qr_scan"}, "lon": -77.02833883333334, "fusion_lon": 0.0, "is_disabled": 0, "lat": 38.931868, "bike_id": "f3bd9eb0098ed3248f8ee8ca229f628b", "name": "f3bd9eb0098ed3248f8ee8ca229f628b", "is_reserved": 0, "fusion_lat": 0.0}, {"type": "electric_scooter", "rental_uris": {"ios": "https://dc.lft.to/lastmile_qr_scan", "android": "https://dc.lft.to/lastmile_qr_scan"}, "lon": -77.03657733333333, "fusion_lon": 0.0, "is_disabled": 0, "lat": 38.92277266666667, "bike_id": "d5a541bde97977d71e0e5a5d70c8979c", "name": "d5a541bde97977d71e0e5a5d70c8979c", "is_reserved": 0, "fusion_lat": 0.0}, {"type": "electric_scooter", "rental_uris": {"ios": "https://dc.lft.to/lastmile_qr_scan", "android": "https://dc.lft.to/lastmile_qr_scan"}, "lon": -77.032508, "fusion_lon": 0.0, "is_disabled": 0, "lat": 38.9279065, "bike_id": "17f8612fc2339ba1afb56ef829a99853", "name": "17f8612fc2339ba1afb56ef829a99853", "is_reserved": 0, "fusion_lat": 0.0}, {"type": "electric_scooter", "rental_uris": {"ios": "https://dc.lft.to/lastmile_qr_scan", "android": "https://dc.lft.to/lastmile_qr_scan"}, "lon": -77.031336, "fusion_lon": 0.0, "is_disabled": 0, "lat": 38.91919933333333, "bike_id": "95ae851e4ec4c37f0d4096955d7ae5e8", "name": "95ae851e4ec4c37f0d4096955d7ae5e8", "is_reserved": 0, "fusion_lat": 0.0}, {"type": "electric_scooter", "rental_uris": {"ios": "https://dc.lft.to/lastmile_qr_scan", "android": "https://dc.lft.to/lastmile_qr_scan"}, "lon": -77.011143, "fusion_lon": 0.0, "is_disabled": 0, "lat": 38.92025966666667, "bike_id": "e429ea4e93fa8ab16b487a489545a8dc", "name": "e429ea4e93fa8ab16b487a489545a8dc", "is_reserved": 0, "fusion_lat": 0.0}, {"type": "electric_scooter", "rental_uris": {"ios": "https://dc.lft.to/lastmile_qr_scan", "android": "https://dc.lft.to/lastmile_qr_scan"}, "lon": -77.00575216666667, "fusion_lon": 0.0, "is_disabled": 0, "lat": 38.9020795, "bike_id": "c3bda63b91c0f74a790479f885857bdb", "name": "c3bda63b91c0f74a790479f885857bdb", "is_reserved": 0, "fusion_lat": 0.0}, {"type": "electric_bike", "rental_uris": {"ios": "https://dc.lft.to/lastmile_qr_scan", "android": "https://dc.lft.to/lastmile_qr_scan"}, "lon": -77.2232175, "fusion_lon": 0.0, "is_disabled": 0, "lat": 38.91819533333334, "bike_id": "0a0edccf18edb8e2604d9985e0a39572", "name": "0a0edccf18edb8e2604d9985e0a39572", "is_reserved": 0, "fusion_lat": 0.0}, {"type": "electric_scooter", "rental_uris": {"ios": "https://dc.lft.to/lastmile_qr_scan", "android": "https://dc.lft.to/lastmile_qr_scan"}, "lon": -76.9420815, "fusion_lon": 0.0, "is_disabled": 0, "lat": 38.884192166666665, "bike_id": "60f308e70be0c6f05310122435c50343", "name": "60f308e70be0c6f05310122435c50343", "is_reserved": 0, "fusion_lat": 0.0}, {"type": "electric_scooter", "rental_uris": {"ios": "https://dc.lft.to/lastmile_qr_scan", "android": "https://dc.lft.to/lastmile_qr_scan"}, "lon": -77.0307955, "fusion_lon": 0.0, "is_disabled": 0, "lat": 38.92240533333333, "bike_id": "25f3c1f20c93aaea47fd1d2af8c88e84", "name": "25f3c1f20c93aaea47fd1d2af8c88e84", "is_reserved": 0, "fusion_lat": 0.0}, {"type": "electric_scooter", "rental_uris": {"ios": "https://dc.lft.to/lastmile_qr_scan", "android": "https://dc.lft.to/lastmile_qr_scan"}, "lon": -77.02695566666667, "fusion_lon": 0.0, "is_disabled": 0, "lat": 38.911225333333334, "bike_id": "d5ee44cbcd934e35d1df2c1858cefa67", "name": "d5ee44cbcd934e35d1df2c1858cefa67", "is_reserved": 0, "fusion_lat": 0.0}, {"type": "electric_scooter", "rental_uris": {"ios": "https://dc.lft.to/lastmile_qr_scan", "android": "https://dc.lft.to/lastmile_qr_scan"}, "lon": -77.0601875, "fusion_lon": 0.0, "is_disabled": 0, "lat": 38.9023355, "bike_id": "d6d283adcb5195173870568befd5033f", "name": "d6d283adcb5195173870568befd5033f", "is_reserved": 0, "fusion_lat": 0.0}, {"type": "electric_scooter", "rental_uris": {"ios": "https://dc.lft.to/lastmile_qr_scan", "android": "https://dc.lft.to/lastmile_qr_scan"}, "lon": -77.00412266666666, "fusion_lon": 0.0, "is_disabled": 0, "lat": 38.8765905, "bike_id": "9c825da80cc24f5b900363ee8f2b8b00", "name": "9c825da80cc24f5b900363ee8f2b8b00", "is_reserved": 0, "fusion_lat": 0.0}, {"type": "electric_scooter", "rental_uris": {"ios": "https://dc.lft.to/lastmile_qr_scan", "android": "https://dc.lft.to/lastmile_qr_scan"}, "lon": -77.03188616666667, "fusion_lon": 0.0, "is_disabled": 0, "lat": 38.91821866666667, "bike_id": "8647d82a443954ece16cef938e5c7d84", "name": "8647d82a443954ece16cef938e5c7d84", "is_reserved": 0, "fusion_lat": 0.0}, {"type": "electric_scooter", "rental_uris": {"ios": "https://dc.lft.to/lastmile_qr_scan", "android": "https://dc.lft.to/lastmile_qr_scan"}, "lon": -77.03378883333333, "fusion_lon": 0.0, "is_disabled": 0, "lat": 38.9204575, "bike_id": "6b30064177db3a4f71afb0fd022007cc", "name": "6b30064177db3a4f71afb0fd022007cc", "is_reserved": 0, "fusion_lat": 0.0}, {"type": "electric_scooter", "rental_uris": {"ios": "https://dc.lft.to/lastmile_qr_scan", "android": "https://dc.lft.to/lastmile_qr_scan"}, "lon": -77.043272, "fusion_lon": 0.0, "is_disabled": 0, "lat": 38.892204, "bike_id": "4bb847667f8e1bfa5467b146f83a46f2", "name": "4bb847667f8e1bfa5467b146f83a46f2", "is_reserved": 0, "fusion_lat": 0.0}, {"type": "electric_scooter", "rental_uris": {"ios": "https://dc.lft.to/lastmile_qr_scan", "android": "https://dc.lft.to/lastmile_qr_scan"}, "lon": -77.02192516666666, "fusion_lon": 0.0, "is_disabled": 0, "lat": 38.914004166666665, "bike_id": "10fa32167340f7a8d0b3cfaf4b5efcce", "name": "10fa32167340f7a8d0b3cfaf4b5efcce", "is_reserved": 0, "fusion_lat": 0.0}, {"type": "electric_scooter", "rental_uris": {"ios": "https://dc.lft.to/lastmile_qr_scan", "android": "https://dc.lft.to/lastmile_qr_scan"}, "lon": -77.02634666666667, "fusion_lon": 0.0, "is_disabled": 0, "lat": 38.92533683333333, "bike_id": "cbfdeeb686dd53da1ff4f772b2938d11", "name": "cbfdeeb686dd53da1ff4f772b2938d11", "is_reserved": 0, "fusion_lat": 0.0}, {"type": "electric_bike", "rental_uris": {"ios": "https://dc.lft.to/lastmile_qr_scan", "android": "https://dc.lft.to/lastmile_qr_scan"}, "lon": -76.924948, "fusion_lon": 0.0, "is_disabled": 0, "lat": 38.958877666666666, "bike_id": "777a25585abe2ea6d4427497a9bdaedd", "name": "777a25585abe2ea6d4427497a9bdaedd", "is_reserved": 0, "fusion_lat": 0.0}, {"type": "electric_scooter", "rental_uris": {"ios": "https://dc.lft.to/lastmile_qr_scan", "android": "https://dc.lft.to/lastmile_qr_scan"}, "lon": -77.03289583333333, "fusion_lon": 0.0, "is_disabled": 0, "lat": 38.93407333333333, "bike_id": "225bd2141fbc37f0342f02030377abf3", "name": "225bd2141fbc37f0342f02030377abf3", "is_reserved": 0, "fusion_lat": 0.0}, {"type": "electric_scooter", "rental_uris": {"ios": "https://dc.lft.to/lastmile_qr_scan", "android": "https://dc.lft.to/lastmile_qr_scan"}, "lon": -76.99504233333333, "fusion_lon": 0.0, "is_disabled": 0, "lat": 38.883671666666665, "bike_id": "4009da3cebac5056f9e8cff37131abd9", "name": "4009da3cebac5056f9e8cff37131abd9", "is_reserved": 0, "fusion_lat": 0.0}, {"type": "electric_scooter", "rental_uris": {"ios": "https://dc.lft.to/lastmile_qr_scan", "android": "https://dc.lft.to/lastmile_qr_scan"}, "lon": -76.96525133333333, "fusion_lon": 0.0, "is_disabled": 0, "lat": 38.876295, "bike_id": "f57cfdf947f4e1642271d7b71f2237dc", "name": "f57cfdf947f4e1642271d7b71f2237dc", "is_reserved": 0, "fusion_lat": 0.0}, {"type": "electric_scooter", "rental_uris": {"ios": "https://dc.lft.to/lastmile_qr_scan", "android": "https://dc.lft.to/lastmile_qr_scan"}, "lon": -76.94155183333334, "fusion_lon": 0.0, "is_disabled": 0, "lat": 38.883603666666666, "bike_id": "36c55755638cb54cbd3b23b51daaeeea", "name": "36c55755638cb54cbd3b23b51daaeeea", "is_reserved": 0, "fusion_lat": 0.0}, {"type": "electric_scooter", "rental_uris": {"ios": "https://dc.lft.to/lastmile_qr_scan", "android": "https://dc.lft.to/lastmile_qr_scan"}, "lon": -77.07885766666666, "fusion_lon": 0.0, "is_disabled": 0, "lat": 38.9206555, "bike_id": "cbaec0d3f122e651bea990ad43739135", "name": "cbaec0d3f122e651bea990ad43739135", "is_reserved": 0, "fusion_lat": 0.0}, {"type": "electric_scooter", "rental_uris": {"ios": "https://dc.lft.to/lastmile_qr_scan", "android": "https://dc.lft.to/lastmile_qr_scan"}, "lon": -77.05859416666667, "fusion_lon": 0.0, "is_disabled": 0, "lat": 38.93606333333334, "bike_id": "5941be6bd4ed092c37ba682c9a6ff07d", "name": "5941be6bd4ed092c37ba682c9a6ff07d", "is_reserved": 0, "fusion_lat": 0.0}, {"type": "electric_scooter", "rental_uris": {"ios": "https://dc.lft.to/lastmile_qr_scan", "android": "https://dc.lft.to/lastmile_qr_scan"}, "lon": -77.0221295, "fusion_lon": 0.0, "is_disabled": 0, "lat": 38.9057295, "bike_id": "b2982867ea43f05e40a26b3b35a11437", "name": "b2982867ea43f05e40a26b3b35a11437", "is_reserved": 0, "fusion_lat": 0.0}, {"type": "electric_scooter", "rental_uris": {"ios": "https://dc.lft.to/lastmile_qr_scan", "android": "https://dc.lft.to/lastmile_qr_scan"}, "lon": -76.99497566666666, "fusion_lon": 0.0, "is_disabled": 0, "lat": 38.881978, "bike_id": "d5d6ae5fc29b62ee2d34ae4fca7d5aa5", "name": "d5d6ae5fc29b62ee2d34ae4fca7d5aa5", "is_reserved": 0, "fusion_lat": 0.0}, {"type": "electric_scooter", "rental_uris": {"ios": "https://dc.lft.to/lastmile_qr_scan", "android": "https://dc.lft.to/lastmile_qr_scan"}, "lon": -77.05858066666667, "fusion_lon": 0.0, "is_disabled": 0, "lat": 38.935426166666666, "bike_id": "0715548296b4fddd14842a50d7558dca", "name": "0715548296b4fddd14842a50d7558dca", "is_reserved": 0, "fusion_lat": 0.0}, {"type": "electric_scooter", "rental_uris": {"ios": "https://dc.lft.to/lastmile_qr_scan", "android": "https://dc.lft.to/lastmile_qr_scan"}, "lon": -77.045782, "fusion_lon": 0.0, "is_disabled": 0, "lat": 38.914011, "bike_id": "986b590ca021859c08501903005e23ae", "name": "986b590ca021859c08501903005e23ae", "is_reserved": 0, "fusion_lat": 0.0}, {"type": "electric_scooter", "rental_uris": {"ios": "https://dc.lft.to/lastmile_qr_scan", "android": "https://dc.lft.to/lastmile_qr_scan"}, "lon": -77.03148433333334, "fusion_lon": 0.0, "is_disabled": 0, "lat": 38.915640333333336, "bike_id": "8f721fbe501dd3ff851de04f7739d2fb", "name": "8f721fbe501dd3ff851de04f7739d2fb", "is_reserved": 0, "fusion_lat": 0.0}, {"type": "electric_scooter", "rental_uris": {"ios": "https://dc.lft.to/lastmile_qr_scan", "android": "https://dc.lft.to/lastmile_qr_scan"}, "lon": -77.04187316666666, "fusion_lon": 0.0, "is_disabled": 0, "lat": 38.9203385, "bike_id": "425de6a2e9c4b2b8bfed1510d10152b2", "name": "425de6a2e9c4b2b8bfed1510d10152b2", "is_reserved": 0, "fusion_lat": 0.0}, {"type": "electric_scooter", "rental_uris": {"ios": "https://dc.lft.to/lastmile_qr_scan", "android": "https://dc.lft.to/lastmile_qr_scan"}, "lon": -77.05914066666666, "fusion_lon": 0.0, "is_disabled": 0, "lat": 38.902172666666665, "bike_id": "d38ca9f0442ca2d0f793ab355b268e2a", "name": "d38ca9f0442ca2d0f793ab355b268e2a", "is_reserved": 0, "fusion_lat": 0.0}, {"type": "electric_scooter", "rental_uris": {"ios": "https://dc.lft.to/lastmile_qr_scan", "android": "https://dc.lft.to/lastmile_qr_scan"}, "lon": -77.02635966666666, "fusion_lon": 0.0, "is_disabled": 0, "lat": 38.89977283333333, "bike_id": "dc95dedddc64a568403a2930308ac097", "name": "dc95dedddc64a568403a2930308ac097", "is_reserved": 0, "fusion_lat": 0.0}, {"type": "electric_scooter", "rental_uris": {"ios": "https://dc.lft.to/lastmile_qr_scan", "android": "https://dc.lft.to/lastmile_qr_scan"}, "lon": -77.0071765, "fusion_lon": 0.0, "is_disabled": 0, "lat": 38.900315166666665, "bike_id": "35bb6d21f5914554651bce4b65c7341e", "name": "35bb6d21f5914554651bce4b65c7341e", "is_reserved": 0, "fusion_lat": 0.0}, {"type": "electric_scooter", "rental_uris": {"ios": "https://dc.lft.to/lastmile_qr_scan", "android": "https://dc.lft.to/lastmile_qr_scan"}, "lon": -77.00997433333333, "fusion_lon": 0.0, "is_disabled": 0, "lat": 38.902601, "bike_id": "277aab388c478cb1c7abf34cd684c2ab", "name": "277aab388c478cb1c7abf34cd684c2ab", "is_reserved": 0, "fusion_lat": 0.0}, {"type": "electric_scooter", "rental_uris": {"ios": "https://dc.lft.to/lastmile_qr_scan", "android": "https://dc.lft.to/lastmile_qr_scan"}, "lon": -77.02300283333334, "fusion_lon": 0.0, "is_disabled": 0, "lat": 38.926054666666666, "bike_id": "85ecdfffe4fa2e9d810ef0826479a6bf", "name": "85ecdfffe4fa2e9d810ef0826479a6bf", "is_reserved": 0, "fusion_lat": 0.0}, {"type": "electric_scooter", "rental_uris": {"ios": "https://dc.lft.to/lastmile_qr_scan", "android": "https://dc.lft.to/lastmile_qr_scan"}, "lon": -77.02808, "fusion_lon": 0.0, "is_disabled": 0, "lat": 38.89771416666667, "bike_id": "3dc6625e96dd24a12d5758b9be908789", "name": "3dc6625e96dd24a12d5758b9be908789", "is_reserved": 0, "fusion_lat": 0.0}, {"type": "electric_scooter", "rental_uris": {"ios": "https://dc.lft.to/lastmile_qr_scan", "android": "https://dc.lft.to/lastmile_qr_scan"}, "lon": -77.033645, "fusion_lon": 0.0, "is_disabled": 0, "lat": 38.913563, "bike_id": "dc959e0427dbb4cc551dce8c8071ca1d", "name": "dc959e0427dbb4cc551dce8c8071ca1d", "is_reserved": 0, "fusion_lat": 0.0}, {"type": "electric_scooter", "rental_uris": {"ios": "https://dc.lft.to/lastmile_qr_scan", "android": "https://dc.lft.to/lastmile_qr_scan"}, "lon": -77.04288383333333, "fusion_lon": 0.0, "is_disabled": 0, "lat": 38.92062, "bike_id": "bc9e3bda1e68a46e0e853d032b37a034", "name": "bc9e3bda1e68a46e0e853d032b37a034", "is_reserved": 0, "fusion_lat": 0.0}, {"type": "electric_scooter", "rental_uris": {"ios": "https://dc.lft.to/lastmile_qr_scan", "android": "https://dc.lft.to/lastmile_qr_scan"}, "lon": -77.0341175, "fusion_lon": 0.0, "is_disabled": 0, "lat": 38.919184333333334, "bike_id": "3743ae92c82398082596bcc3d57e2a5a", "name": "3743ae92c82398082596bcc3d57e2a5a", "is_reserved": 0, "fusion_lat": 0.0}, {"type": "electric_scooter", "rental_uris": {"ios": "https://dc.lft.to/lastmile_qr_scan", "android": "https://dc.lft.to/lastmile_qr_scan"}, "lon": -76.93298933333334, "fusion_lon": 0.0, "is_disabled": 0, "lat": 38.892223, "bike_id": "85ccb73f1a8956484ed9b6601db473bb", "name": "85ccb73f1a8956484ed9b6601db473bb", "is_reserved": 0, "fusion_lat": 0.0}, {"type": "electric_scooter", "rental_uris": {"ios": "https://dc.lft.to/lastmile_qr_scan", "android": "https://dc.lft.to/lastmile_qr_scan"}, "lon": -77.02292766666666, "fusion_lon": 0.0, "is_disabled": 0, "lat": 38.915654833333335, "bike_id": "3763776c99b57e353266eab34cbaf523", "name": "3763776c99b57e353266eab34cbaf523", "is_reserved": 0, "fusion_lat": 0.0}, {"type": "electric_scooter", "rental_uris": {"ios": "https://dc.lft.to/lastmile_qr_scan", "android": "https://dc.lft.to/lastmile_qr_scan"}, "lon": -77.056024, "fusion_lon": 0.0, "is_disabled": 0, "lat": 38.9008515, "bike_id": "421e9fd365aa75b0a4b2a58b3dc00db8", "name": "421e9fd365aa75b0a4b2a58b3dc00db8", "is_reserved": 0, "fusion_lat": 0.0}, {"type": "electric_scooter", "rental_uris": {"ios": "https://dc.lft.to/lastmile_qr_scan", "android": "https://dc.lft.to/lastmile_qr_scan"}, "lon": -77.0036775, "fusion_lon": 0.0, "is_disabled": 0, "lat": 38.882624666666665, "bike_id": "fda7c57dd83eaee824ed7f0b0dbb29f9", "name": "fda7c57dd83eaee824ed7f0b0dbb29f9", "is_reserved": 0, "fusion_lat": 0.0}, {"type": "electric_scooter", "rental_uris": {"ios": "https://dc.lft.to/lastmile_qr_scan", "android": "https://dc.lft.to/lastmile_qr_scan"}, "lon": -77.01934383333334, "fusion_lon": 0.0, "is_disabled": 0, "lat": 38.949208166666665, "bike_id": "968a25829abc3c4b5fbe62fad3b4b60b", "name": "968a25829abc3c4b5fbe62fad3b4b60b", "is_reserved": 0, "fusion_lat": 0.0}, {"type": "electric_scooter", "rental_uris": {"ios": "https://dc.lft.to/lastmile_qr_scan", "android": "https://dc.lft.to/lastmile_qr_scan"}, "lon": -77.04163783333334, "fusion_lon": 0.0, "is_disabled": 0, "lat": 38.90509483333334, "bike_id": "e4f6fa4b8b70fbada0b13be9af303cc7", "name": "e4f6fa4b8b70fbada0b13be9af303cc7", "is_reserved": 0, "fusion_lat": 0.0}, {"type": "electric_scooter", "rental_uris": {"ios": "https://dc.lft.to/lastmile_qr_scan", "android": "https://dc.lft.to/lastmile_qr_scan"}, "lon": -77.03226333333333, "fusion_lon": 0.0, "is_disabled": 0, "lat": 38.92007566666667, "bike_id": "08303da7bea0c2a55672887d9619b78c", "name": "08303da7bea0c2a55672887d9619b78c", "is_reserved": 0, "fusion_lat": 0.0}, {"type": "electric_scooter", "rental_uris": {"ios": "https://dc.lft.to/lastmile_qr_scan", "android": "https://dc.lft.to/lastmile_qr_scan"}, "lon": -77.04002416666667, "fusion_lon": 0.0, "is_disabled": 0, "lat": 38.915654833333335, "bike_id": "b8c0277f7712510033fac6b8173b3864", "name": "b8c0277f7712510033fac6b8173b3864", "is_reserved": 0, "fusion_lat": 0.0}, {"type": "electric_scooter", "rental_uris": {"ios": "https://dc.lft.to/lastmile_qr_scan", "android": "https://dc.lft.to/lastmile_qr_scan"}, "lon": -76.95415366666667, "fusion_lon": 0.0, "is_disabled": 0, "lat": 38.890057166666665, "bike_id": "b299a085402c3cac735fa9c6fcd62803", "name": "b299a085402c3cac735fa9c6fcd62803", "is_reserved": 0, "fusion_lat": 0.0}, {"type": "electric_scooter", "rental_uris": {"ios": "https://dc.lft.to/lastmile_qr_scan", "android": "https://dc.lft.to/lastmile_qr_scan"}, "lon": -77.02160333333333, "fusion_lon": 0.0, "is_disabled": 0, "lat": 38.89732866666667, "bike_id": "daf79c007a1d054820c12321f2f3e985", "name": "daf79c007a1d054820c12321f2f3e985", "is_reserved": 0, "fusion_lat": 0.0}, {"type": "electric_scooter", "rental_uris": {"ios": "https://dc.lft.to/lastmile_qr_scan", "android": "https://dc.lft.to/lastmile_qr_scan"}, "lon": -76.99594433333333, "fusion_lon": 0.0, "is_disabled": 0, "lat": 38.926079666666666, "bike_id": "0e41834fc2ed10a33948f07a9c2d7ead", "name": "0e41834fc2ed10a33948f07a9c2d7ead", "is_reserved": 0, "fusion_lat": 0.0}, {"type": "electric_scooter", "rental_uris": {"ios": "https://dc.lft.to/lastmile_qr_scan", "android": "https://dc.lft.to/lastmile_qr_scan"}, "lon": -77.03201316666667, "fusion_lon": 0.0, "is_disabled": 0, "lat": 38.909417833333336, "bike_id": "a34303f0720081c0d128e94e9beb7bae", "name": "a34303f0720081c0d128e94e9beb7bae", "is_reserved": 0, "fusion_lat": 0.0}, {"type": "electric_scooter", "rental_uris": {"ios": "https://dc.lft.to/lastmile_qr_scan", "android": "https://dc.lft.to/lastmile_qr_scan"}, "lon": -77.02798083333333, "fusion_lon": 0.0, "is_disabled": 0, "lat": 38.89916483333333, "bike_id": "4acc559d161d7283f55d72cdfebfad3f", "name": "4acc559d161d7283f55d72cdfebfad3f", "is_reserved": 0, "fusion_lat": 0.0}, {"type": "electric_scooter", "rental_uris": {"ios": "https://dc.lft.to/lastmile_qr_scan", "android": "https://dc.lft.to/lastmile_qr_scan"}, "lon": -76.986964, "fusion_lon": 0.0, "is_disabled": 0, "lat": 38.866165333333335, "bike_id": "ec80a5debed84c7d06552905ec695bd6", "name": "ec80a5debed84c7d06552905ec695bd6", "is_reserved": 0, "fusion_lat": 0.0}, {"type": "electric_scooter", "rental_uris": {"ios": "https://dc.lft.to/lastmile_qr_scan", "android": "https://dc.lft.to/lastmile_qr_scan"}, "lon": -77.04143466666666, "fusion_lon": 0.0, "is_disabled": 0, "lat": 38.916839833333334, "bike_id": "1a985b0af0c48d821039c31573b1ba09", "name": "1a985b0af0c48d821039c31573b1ba09", "is_reserved": 0, "fusion_lat": 0.0}, {"type": "electric_scooter", "rental_uris": {"ios": "https://dc.lft.to/lastmile_qr_scan", "android": "https://dc.lft.to/lastmile_qr_scan"}, "lon": -77.04313633333334, "fusion_lon": 0.0, "is_disabled": 0, "lat": 38.90508616666666, "bike_id": "34134779d47d41e85656b2901e90aab9", "name": "34134779d47d41e85656b2901e90aab9", "is_reserved": 0, "fusion_lat": 0.0}, {"type": "electric_scooter", "rental_uris": {"ios": "https://dc.lft.to/lastmile_qr_scan", "android": "https://dc.lft.to/lastmile_qr_scan"}, "lon": -77.04175566666666, "fusion_lon": 0.0, "is_disabled": 0, "lat": 38.904978166666666, "bike_id": "04a0e545bdb73d35c6826f38ca80224d", "name": "04a0e545bdb73d35c6826f38ca80224d", "is_reserved": 0, "fusion_lat": 0.0}, {"type": "electric_bike", "rental_uris": {"ios": "https://dc.lft.to/lastmile_qr_scan", "android": "https://dc.lft.to/lastmile_qr_scan"}, "lon": -76.98844616666666, "fusion_lon": 0.0, "is_disabled": 0, "lat": 38.84267633333333, "bike_id": "4faaf42098f1b1a287bca8ca58b42a74", "name": "4faaf42098f1b1a287bca8ca58b42a74", "is_reserved": 0, "fusion_lat": 0.0}, {"type": "electric_scooter", "rental_uris": {"ios": "https://dc.lft.to/lastmile_qr_scan", "android": "https://dc.lft.to/lastmile_qr_scan"}, "lon": -77.01685883333333, "fusion_lon": 0.0, "is_disabled": 0, "lat": 38.90728416666666, "bike_id": "7adef88b8733ca640dd5476beaba6e8b", "name": "7adef88b8733ca640dd5476beaba6e8b", "is_reserved": 0, "fusion_lat": 0.0}, {"type": "electric_scooter", "rental_uris": {"ios": "https://dc.lft.to/lastmile_qr_scan", "android": "https://dc.lft.to/lastmile_qr_scan"}, "lon": -76.931835, "fusion_lon": 0.0, "is_disabled": 0, "lat": 38.898775, "bike_id": "b22f44a0c44767f01479214ce7a7bfe7", "name": "b22f44a0c44767f01479214ce7a7bfe7", "is_reserved": 0, "fusion_lat": 0.0}, {"type": "electric_bike", "rental_uris": {"ios": "https://dc.lft.to/lastmile_qr_scan", "android": "https://dc.lft.to/lastmile_qr_scan"}, "lon": -77.10126916666667, "fusion_lon": 0.0, "is_disabled": 0, "lat": 38.85207183333333, "bike_id": "839c0ad0c891ef230ceb9e0fe95bb77f", "name": "839c0ad0c891ef230ceb9e0fe95bb77f", "is_reserved": 0, "fusion_lat": 0.0}, {"type": "electric_scooter", "rental_uris": {"ios": "https://dc.lft.to/lastmile_qr_scan", "android": "https://dc.lft.to/lastmile_qr_scan"}, "lon": -77.03345833333333, "fusion_lon": 0.0, "is_disabled": 0, "lat": 38.91705066666667, "bike_id": "ded6bc86a13f26ad41179198273ee236", "name": "ded6bc86a13f26ad41179198273ee236", "is_reserved": 0, "fusion_lat": 0.0}, {"type": "electric_scooter", "rental_uris": {"ios": "https://dc.lft.to/lastmile_qr_scan", "android": "https://dc.lft.to/lastmile_qr_scan"}, "lon": -77.03093366666667, "fusion_lon": 0.0, "is_disabled": 0, "lat": 38.879171, "bike_id": "30fa50872ec3c7ee93d23c122556bb2d", "name": "30fa50872ec3c7ee93d23c122556bb2d", "is_reserved": 0, "fusion_lat": 0.0}, {"type": "electric_scooter", "rental_uris": {"ios": "https://dc.lft.to/lastmile_qr_scan", "android": "https://dc.lft.to/lastmile_qr_scan"}, "lon": -77.0057915, "fusion_lon": 0.0, "is_disabled": 0, "lat": 38.905551333333335, "bike_id": "6e9dbe07d379edf61fe2cab3c784039d", "name": "6e9dbe07d379edf61fe2cab3c784039d", "is_reserved": 0, "fusion_lat": 0.0}, {"type": "electric_scooter", "rental_uris": {"ios": "https://dc.lft.to/lastmile_qr_scan", "android": "https://dc.lft.to/lastmile_qr_scan"}, "lon": -77.02719033333334, "fusion_lon": 0.0, "is_disabled": 0, "lat": 38.92477366666667, "bike_id": "21c0b53467a0a4abfceb7e1f23dd8d69", "name": "21c0b53467a0a4abfceb7e1f23dd8d69", "is_reserved": 0, "fusion_lat": 0.0}, {"type": "electric_scooter", "rental_uris": {"ios": "https://dc.lft.to/lastmile_qr_scan", "android": "https://dc.lft.to/lastmile_qr_scan"}, "lon": -77.02664466666667, "fusion_lon": 0.0, "is_disabled": 0, "lat": 38.917095333333336, "bike_id": "97104286b0ebc27ee32e7c32b0b852c2", "name": "97104286b0ebc27ee32e7c32b0b852c2", "is_reserved": 0, "fusion_lat": 0.0}, {"type": "electric_scooter", "rental_uris": {"ios": "https://dc.lft.to/lastmile_qr_scan", "android": "https://dc.lft.to/lastmile_qr_scan"}, "lon": -77.01484966666666, "fusion_lon": 0.0, "is_disabled": 0, "lat": 38.888109166666666, "bike_id": "45597d7c61406e78cf6aa19577b28f59", "name": "45597d7c61406e78cf6aa19577b28f59", "is_reserved": 0, "fusion_lat": 0.0}, {"type": "electric_scooter", "rental_uris": {"ios": "https://dc.lft.to/lastmile_qr_scan", "android": "https://dc.lft.to/lastmile_qr_scan"}, "lon": -77.04176166666667, "fusion_lon": 0.0, "is_disabled": 0, "lat": 38.905591666666666, "bike_id": "01cbbaab8b769c43977e6c704d4bf533", "name": "01cbbaab8b769c43977e6c704d4bf533", "is_reserved": 0, "fusion_lat": 0.0}, {"type": "electric_scooter", "rental_uris": {"ios": "https://dc.lft.to/lastmile_qr_scan", "android": "https://dc.lft.to/lastmile_qr_scan"}, "lon": -77.0261745, "fusion_lon": 0.0, "is_disabled": 0, "lat": 38.90556433333333, "bike_id": "2656c7888d3ec5df9922d0fffe847c07", "name": "2656c7888d3ec5df9922d0fffe847c07", "is_reserved": 0, "fusion_lat": 0.0}, {"type": "electric_scooter", "rental_uris": {"ios": "https://dc.lft.to/lastmile_qr_scan", "android": "https://dc.lft.to/lastmile_qr_scan"},