{"data": {"bikes": [{"rental_uris": {"ios": "https://dc.lft.to/lastmile_qr_scan", "android": "https://dc.lft.to/lastmile_qr_scan"}, "type": "electric_scooter", "name": "92e8c2f9ee9b985cb0131736fa59aa78", "is_reserved": 0, "lon": -77.01838933333333, "is_disabled": 0, "fusion_lat": 0.0, "lat": 38.90526083333334, "bike_id": "92e8c2f9ee9b985cb0131736fa59aa78", "fusion_lon": 0.0}, {"rental_uris": {"ios": "https://dc.lft.to/lastmile_qr_scan", "android": "https://dc.lft.to/lastmile_qr_scan"}, "type": "electric_scooter", "name": "bfcefd13162761129b64a9733d0e003a", "is_reserved": 0, "lon": -77.00918933333334, "is_disabled": 0, "fusion_lat": 0.0, "lat": 38.91243433333333, "bike_id": "bfcefd13162761129b64a9733d0e003a", "fusion_lon": 0.0}, {"rental_uris": {"ios": "https://dc.lft.to/lastmile_qr_scan", "android": "https://dc.lft.to/lastmile_qr_scan"}, "type": "electric_scooter", "name": "b388c948cdbbab664fce410d289612bf", "is_reserved": 0, "lon": -77.01228716666667, "is_disabled": 0, "fusion_lat": 0.0, "lat": 38.915893, "bike_id": "b388c948cdbbab664fce410d289612bf", "fusion_lon": 0.0}, {"rental_uris": {"ios": "https://dc.lft.to/lastmile_qr_scan", "android": "https://dc.lft.to/lastmile_qr_scan"}, "type": "electric_scooter", "name": "19fbf48e10c2ecaafd08267f22080f0a", "is_reserved": 0, "lon": -77.034984, "is_disabled": 0, "fusion_lat": 0.0, "lat": 38.915537666666665, "bike_id": "19fbf48e10c2ecaafd08267f22080f0a", "fusion_lon": 0.0}, {"rental_uris": {"ios": "https://dc.lft.to/lastmile_qr_scan", "android": "https://dc.lft.to/lastmile_qr_scan"}, "type": "electric_scooter", "name": "0d20c3d05c90a239d21e968d98b1b194", "is_reserved": 0, "lon": -77.01021933333334, "is_disabled": 0, "fusion_lat": 0.0, "lat": 38.9126015, "bike_id": "0d20c3d05c90a239d21e968d98b1b194", "fusion_lon": 0.0}, {"rental_uris": {"ios": "https://dc.lft.to/lastmile_qr_scan", "android": "https://dc.lft.to/lastmile_qr_scan"}, "type": "electric_scooter", "name": "e1b6d143e043b004e2bbb710d6dc8554", "is_reserved": 0, "lon": -77.04736, "is_disabled": 0, "fusion_lat": 0.0, "lat": 38.895592, "bike_id": "e1b6d143e043b004e2bbb710d6dc8554", "fusion_lon": 0.0}, {"rental_uris": {"ios": "https://dc.lft.to/lastmile_qr_scan", "android": "https://dc.lft.to/lastmile_qr_scan"}, "type": "electric_scooter", "name": "f221584e27083a176c91884e81c12789", "is_reserved": 0, "lon": -77.026891, "is_disabled": 0, "fusion_lat": 0.0, "lat": 38.908422, "bike_id": "f221584e27083a176c91884e81c12789", "fusion_lon": 0.0}, {"rental_uris": {"ios": "https://dc.lft.to/lastmile_qr_scan", "android": "https://dc.lft.to/lastmile_qr_scan"}, "type": "electric_scooter", "name": "5c5aa56511aaeb480f78aea31de93a1d", "is_reserved": 0, "lon": -77.0634235, "is_disabled": 0, "fusion_lat": 0.0, "lat": 38.94370933333333, "bike_id": "5c5aa56511aaeb480f78aea31de93a1d", "fusion_lon": 0.0}, {"rental_uris": {"ios": "https://dc.lft.to/lastmile_qr_scan", "android": "https://dc.lft.to/lastmile_qr_scan"}, "type": "electric_scooter", "name": "36097a48ef9372dc32b86bc805b419af", "is_reserved": 0, "lon": -77.03185216666667, "is_disabled": 0, "fusion_lat": 0.0, "lat": 38.9069995, "bike_id": "36097a48ef9372dc32b86bc805b419af", "fusion_lon": 0.0}, {"rental_uris": {"ios": "https://dc.lft.to/lastmile_qr_scan", "android": "https://dc.lft.to/lastmile_qr_scan"}, "type": "electric_scooter", "name": "6ab433197c64592a014b2717aad0bbf4", "is_reserved": 0, "lon": -77.04224116666667, "is_disabled": 0, "fusion_lat": 0.0, "lat": 38.921738500000004, "bike_id": "6ab433197c64592a014b2717aad0bbf4", "fusion_lon": 0.0}, {"rental_uris": {"ios": "https://dc.lft.to/lastmile_qr_scan", "android": "https://dc.lft.to/lastmile_qr_scan"}, "type": "electric_scooter", "name": "5c713b0ae9a38bdc0a1b0952920f1f03", "is_reserved": 0, "lon": -77.03545566666666, "is_disabled": 0, "fusion_lat": 0.0, "lat": 38.92384216666667, "bike_id": "5c713b0ae9a38bdc0a1b0952920f1f03", "fusion_lon": 0.0}, {"rental_uris": {"ios": "https://dc.lft.to/lastmile_qr_scan", "android": "https://dc.lft.to/lastmile_qr_scan"}, "type": "electric_scooter", "name": "e0dbddf84ba136e27449da15daf668ab", "is_reserved": 0, "lon": -77.00878966666667, "is_disabled": 0, "fusion_lat": 0.0, "lat": 38.915530833333335, "bike_id": "e0dbddf84ba136e27449da15daf668ab", "fusion_lon": 0.0}, {"rental_uris": {"ios": "https://dc.lft.to/lastmile_qr_scan", "android": "https://dc.lft.to/lastmile_qr_scan"}, "type": "electric_scooter", "name": "8b8bfa8aa8dd0b5f3025beb7e6a4b9ef", "is_reserved": 0, "lon": -77.04861883333334, "is_disabled": 0, "fusion_lat": 0.0, "lat": 38.89225033333334, "bike_id": "8b8bfa8aa8dd0b5f3025beb7e6a4b9ef", "fusion_lon": 0.0}, {"rental_uris": {"ios": "https://dc.lft.to/lastmile_qr_scan", "android": "https://dc.lft.to/lastmile_qr_scan"}, "type": "electric_scooter", "name": "fda7c5ef124255669f58daa33acc3dbc", "is_reserved": 0, "lon": -77.03838433333334, "is_disabled": 0, "fusion_lat": 0.0, "lat": 38.90879866666667, "bike_id": "fda7c5ef124255669f58daa33acc3dbc", "fusion_lon": 0.0}, {"rental_uris": {"ios": "https://dc.lft.to/lastmile_qr_scan", "android": "https://dc.lft.to/lastmile_qr_scan"}, "type": "electric_scooter", "name": "63e91d40b4d52bf150b6b04a8241c39d", "is_reserved": 0, "lon": -77.03199466666666, "is_disabled": 0, "fusion_lat": 0.0, "lat": 38.918193333333335, "bike_id": "63e91d40b4d52bf150b6b04a8241c39d", "fusion_lon": 0.0}, {"rental_uris": {"ios": "https://dc.lft.to/lastmile_qr_scan", "android": "https://dc.lft.to/lastmile_qr_scan"}, "type": "electric_scooter", "name": "a504c4b34f94260a5d9268838b138072", "is_reserved": 0, "lon": -77.01867216666666, "is_disabled": 0, "fusion_lat": 0.0, "lat": 38.930528, "bike_id": "a504c4b34f94260a5d9268838b138072", "fusion_lon": 0.0}, {"rental_uris": {"ios": "https://dc.lft.to/lastmile_qr_scan", "android": "https://dc.lft.to/lastmile_qr_scan"}, "type": "electric_bike", "name": "e46af8cbdcf06d4ff74cb703a8a5b150", "is_reserved": 0, "lon": -77.06697366666667, "is_disabled": 0, "fusion_lat": 0.0, "lat": 38.8317075, "bike_id": "e46af8cbdcf06d4ff74cb703a8a5b150", "fusion_lon": 0.0}, {"rental_uris": {"ios": "https://dc.lft.to/lastmile_qr_scan", "android": "https://dc.lft.to/lastmile_qr_scan"}, "type": "electric_scooter", "name": "c90a4bd863e7fd45a82678e9fe2b0881", "is_reserved": 0, "lon": -77.022733, "is_disabled": 0, "fusion_lat": 0.0, "lat": 38.924288, "bike_id": "c90a4bd863e7fd45a82678e9fe2b0881", "fusion_lon": 0.0}, {"rental_uris": {"ios": "https://dc.lft.to/lastmile_qr_scan", "android": "https://dc.lft.to/lastmile_qr_scan"}, "type": "electric_scooter", "name": "950a41003096df33db8fa2608d359ce0", "is_reserved": 0, "lon": -77.05347866666666, "is_disabled": 0, "fusion_lat": 0.0, "lat": 38.90235583333333, "bike_id": "950a41003096df33db8fa2608d359ce0", "fusion_lon": 0.0}, {"rental_uris": {"ios": "https://dc.lft.to/lastmile_qr_scan", "android": "https://dc.lft.to/lastmile_qr_scan"}, "type": "electric_scooter", "name": "cfb65b8acb1d67c624e4ecd0dcec77f9", "is_reserved": 0, "lon": -77.017521, "is_disabled": 0, "fusion_lat": 0.0, "lat": 38.87692283333333, "bike_id": "cfb65b8acb1d67c624e4ecd0dcec77f9", "fusion_lon": 0.0}, {"rental_uris": {"ios": "https://dc.lft.to/lastmile_qr_scan", "android": "https://dc.lft.to/lastmile_qr_scan"}, "type": "electric_scooter", "name": "f2d83b69ba50e34340b9137331a93e45", "is_reserved": 0, "lon": -77.00808983333333, "is_disabled": 0, "fusion_lat": 0.0, "lat": 38.878511333333336, "bike_id": "f2d83b69ba50e34340b9137331a93e45", "fusion_lon": 0.0}, {"rental_uris": {"ios": "https://dc.lft.to/lastmile_qr_scan", "android": "https://dc.lft.to/lastmile_qr_scan"}, "type": "electric_scooter", "name": "4c77d46c64fa0b2802ce23a98e8b96fc", "is_reserved": 0, "lon": -77.0279195, "is_disabled": 0, "fusion_lat": 0.0, "lat": 38.9560945, "bike_id": "4c77d46c64fa0b2802ce23a98e8b96fc", "fusion_lon": 0.0}, {"rental_uris": {"ios": "https://dc.lft.to/lastmile_qr_scan", "android": "https://dc.lft.to/lastmile_qr_scan"}, "type": "electric_scooter", "name": "8284f52e4c59e4ecce81f4ca5f125464", "is_reserved": 0, "lon": -77.0365955, "is_disabled": 0, "fusion_lat": 0.0, "lat": 38.92285283333333, "bike_id": "8284f52e4c59e4ecce81f4ca5f125464", "fusion_lon": 0.0}, {"rental_uris": {"ios": "https://dc.lft.to/lastmile_qr_scan", "android": "https://dc.lft.to/lastmile_qr_scan"}, "type": "electric_scooter", "name": "c1e75d32f8b02af1f1313624562fea63", "is_reserved": 0, "lon": -77.02719216666667, "is_disabled": 0, "fusion_lat": 0.0, "lat": 38.910132, "bike_id": "c1e75d32f8b02af1f1313624562fea63", "fusion_lon": 0.0}, {"rental_uris": {"ios": "https://dc.lft.to/lastmile_qr_scan", "android": "https://dc.lft.to/lastmile_qr_scan"}, "type": "electric_scooter", "name": "6a2dd307eac5a9b85dae99b46162e326", "is_reserved": 0, "lon": -76.97046966666667, "is_disabled": 0, "fusion_lat": 0.0, "lat": 38.873230666666664, "bike_id": "6a2dd307eac5a9b85dae99b46162e326", "fusion_lon": 0.0}, {"rental_uris": {"ios": "https://dc.lft.to/lastmile_qr_scan", "android": "https://dc.lft.to/lastmile_qr_scan"}, "type": "electric_scooter", "name": "c59be90f9ccf51e4e979c33aaf4c43fd", "is_reserved": 0, "lon": -77.03237933333334, "is_disabled": 0, "fusion_lat": 0.0, "lat": 38.9104245, "bike_id": "c59be90f9ccf51e4e979c33aaf4c43fd", "fusion_lon": 0.0}, {"rental_uris": {"ios": "https://dc.lft.to/lastmile_qr_scan", "android": "https://dc.lft.to/lastmile_qr_scan"}, "type": "electric_scooter", "name": "f60c7c8ddfcd9eaafa93724fec28cd06", "is_reserved": 0, "lon": -77.0290075, "is_disabled": 0, "fusion_lat": 0.0, "lat": 38.94042616666667, "bike_id": "f60c7c8ddfcd9eaafa93724fec28cd06", "fusion_lon": 0.0}, {"rental_uris": {"ios": "https://dc.lft.to/lastmile_qr_scan", "android": "https://dc.lft.to/lastmile_qr_scan"}, "type": "electric_bike", "name": "0c57f0231a18d4512dbc86531c9d7f4c", "is_reserved": 0, "lon": -77.08872066666666, "is_disabled": 0, "fusion_lat": 0.0, "lat": 38.9388165, "bike_id": "0c57f0231a18d4512dbc86531c9d7f4c", "fusion_lon": 0.0}, {"rental_uris": {"ios": "https://dc.lft.to/lastmile_qr_scan", "android": "https://dc.lft.to/lastmile_qr_scan"}, "type": "electric_scooter", "name": "4585aadd2fe0aea1f6a7779b59734fa9", "is_reserved": 0, "lon": -76.979393, "is_disabled": 0, "fusion_lat": 0.0, "lat": 38.91601933333333, "bike_id": "4585aadd2fe0aea1f6a7779b59734fa9", "fusion_lon": 0.0}, {"rental_uris": {"ios": "https://dc.lft.to/lastmile_qr_scan", "android": "https://dc.lft.to/lastmile_qr_scan"}, "type": "electric_scooter", "name": "580c8659bd4b47ca0db6efaea28cc2a8", "is_reserved": 0, "lon": -77.032728, "is_disabled": 0, "fusion_lat": 0.0, "lat": 38.9199245, "bike_id": "580c8659bd4b47ca0db6efaea28cc2a8", "fusion_lon": 0.0}, {"rental_uris": {"ios": "https://dc.lft.to/lastmile_qr_scan", "android": "https://dc.lft.to/lastmile_qr_scan"}, "type": "electric_bike", "name": "b228a08052c8219e690330cbaed501f2", "is_reserved": 0, "lon": -77.09956583333333, "is_disabled": 0, "fusion_lat": 0.0, "lat": 38.85791366666667, "bike_id": "b228a08052c8219e690330cbaed501f2", "fusion_lon": 0.0}, {"rental_uris": {"ios": "https://dc.lft.to/lastmile_qr_scan", "android": "https://dc.lft.to/lastmile_qr_scan"}, "type": "electric_scooter", "name": "95113956f5e659523f3f51ac616a63c3", "is_reserved": 0, "lon": -77.01656933333334, "is_disabled": 0, "fusion_lat": 0.0, "lat": 38.913341833333334, "bike_id": "95113956f5e659523f3f51ac616a63c3", "fusion_lon": 0.0}, {"rental_uris": {"ios": "https://dc.lft.to/lastmile_qr_scan", "android": "https://dc.lft.to/lastmile_qr_scan"}, "type": "electric_scooter", "name": "61a79b53ed4997509572541711f6fb85", "is_reserved": 0, "lon": -77.01342933333333, "is_disabled": 0, "fusion_lat": 0.0, "lat": 38.91918966666667, "bike_id": "61a79b53ed4997509572541711f6fb85", "fusion_lon": 0.0}, {"rental_uris": {"ios": "https://dc.lft.to/lastmile_qr_scan", "android": "https://dc.lft.to/lastmile_qr_scan"}, "type": "electric_scooter", "name": "b30b223ec78c9dc2dbd56bebc2c70f36", "is_reserved": 0, "lon": -77.0283645, "is_disabled": 0, "fusion_lat": 0.0, "lat": 38.8873525, "bike_id": "b30b223ec78c9dc2dbd56bebc2c70f36", "fusion_lon": 0.0}, {"rental_uris": {"ios": "https://dc.lft.to/lastmile_qr_scan", "android": "https://dc.lft.to/lastmile_qr_scan"}, "type": "electric_scooter", "name": "b3a9a67056222219167255aa3b5305f3", "is_reserved": 0, "lon": -77.01206283333333, "is_disabled": 0, "fusion_lat": 0.0, "lat": 38.918212, "bike_id": "b3a9a67056222219167255aa3b5305f3", "fusion_lon": 0.0}, {"rental_uris": {"ios": "https://dc.lft.to/lastmile_qr_scan", "android": "https://dc.lft.to/lastmile_qr_scan"}, "type": "electric_scooter", "name": "7823a7ff77ea5c79d035acaa61c58b77", "is_reserved": 0, "lon": -77.00938333333333, "is_disabled": 0, "fusion_lat": 0.0, "lat": 38.91268516666667, "bike_id": "7823a7ff77ea5c79d035acaa61c58b77", "fusion_lon": 0.0}, {"rental_uris": {"ios": "https://dc.lft.to/lastmile_qr_scan", "android": "https://dc.lft.to/lastmile_qr_scan"}, "type": "electric_scooter", "name": "2a1711a6851f6b039baf62a9b9b2ca96", "is_reserved": 0, "lon": -76.98701733333333, "is_disabled": 0, "fusion_lat": 0.0, "lat": 38.888444166666666, "bike_id": "2a1711a6851f6b039baf62a9b9b2ca96", "fusion_lon": 0.0}, {"rental_uris": {"ios": "https://dc.lft.to/lastmile_qr_scan", "android": "https://dc.lft.to/lastmile_qr_scan"}, "type": "electric_bike", "name": "9a7c01d4ee55d8d9768773cb1aa34343", "is_reserved": 0, "lon": -76.9785745, "is_disabled": 0, "fusion_lat": 0.0, "lat": 38.98384, "bike_id": "9a7c01d4ee55d8d9768773cb1aa34343", "fusion_lon": 0.0}, {"rental_uris": {"ios": "https://dc.lft.to/lastmile_qr_scan", "android": "https://dc.lft.to/lastmile_qr_scan"}, "type": "electric_scooter", "name": "45f19be6c911bab1a87f62be665a94b6", "is_reserved": 0, "lon": -77.00574883333333, "is_disabled": 0, "fusion_lat": 0.0, "lat": 38.87457066666666, "bike_id": "45f19be6c911bab1a87f62be665a94b6", "fusion_lon": 0.0}, {"rental_uris": {"ios": "https://dc.lft.to/lastmile_qr_scan", "android": "https://dc.lft.to/lastmile_qr_scan"}, "type": "electric_scooter", "name": "8e8000563360641c634c5b12f70648a6", "is_reserved": 0, "lon": -77.06348533333333, "is_disabled": 0, "fusion_lat": 0.0, "lat": 38.943662, "bike_id": "8e8000563360641c634c5b12f70648a6", "fusion_lon": 0.0}, {"rental_uris": {"ios": "https://dc.lft.to/lastmile_qr_scan", "android": "https://dc.lft.to/lastmile_qr_scan"}, "type": "electric_scooter", "name": "0673d65fcd55a5c37db1ce5637b257c7", "is_reserved": 0, "lon": -77.01844966666667, "is_disabled": 0, "fusion_lat": 0.0, "lat": 38.949943, "bike_id": "0673d65fcd55a5c37db1ce5637b257c7", "fusion_lon": 0.0}, {"rental_uris": {"ios": "https://dc.lft.to/lastmile_qr_scan", "android": "https://dc.lft.to/lastmile_qr_scan"}, "type": "electric_scooter", "name": "26038198ba48898b31f7133305148045", "is_reserved": 0, "lon": -76.985426, "is_disabled": 0, "fusion_lat": 0.0, "lat": 38.87968216666667, "bike_id": "26038198ba48898b31f7133305148045", "fusion_lon": 0.0}, {"rental_uris": {"ios": "https://dc.lft.to/lastmile_qr_scan", "android": "https://dc.lft.to/lastmile_qr_scan"}, "type": "electric_scooter", "name": "3d312be14bf156bc2d8adb7d4c666446", "is_reserved": 0, "lon": -77.02372033333333, "is_disabled": 0, "fusion_lat": 0.0, "lat": 38.90312516666667, "bike_id": "3d312be14bf156bc2d8adb7d4c666446", "fusion_lon": 0.0}, {"rental_uris": {"ios": "https://dc.lft.to/lastmile_qr_scan", "android": "https://dc.lft.to/lastmile_qr_scan"}, "type": "electric_scooter", "name": "27f35dd89e981ec8b691f05089801f88", "is_reserved": 0, "lon": -77.01895333333333, "is_disabled": 0, "fusion_lat": 0.0, "lat": 38.874703333333336, "bike_id": "27f35dd89e981ec8b691f05089801f88", "fusion_lon": 0.0}, {"rental_uris": {"ios": "https://dc.lft.to/lastmile_qr_scan", "android": "https://dc.lft.to/lastmile_qr_scan"}, "type": "electric_scooter", "name": "abc5d44112aff4ac03c7b8b49c42fd3a", "is_reserved": 0, "lon": -77.04001166666667, "is_disabled": 0, "fusion_lat": 0.0, "lat": 38.934281, "bike_id": "abc5d44112aff4ac03c7b8b49c42fd3a", "fusion_lon": 0.0}, {"rental_uris": {"ios": "https://dc.lft.to/lastmile_qr_scan", "android": "https://dc.lft.to/lastmile_qr_scan"}, "type": "electric_scooter", "name": "0c5502619fc7cda6ceb13be8d4e28776", "is_reserved": 0, "lon": -77.0531765, "is_disabled": 0, "fusion_lat": 0.0, "lat": 38.94100566666667, "bike_id": "0c5502619fc7cda6ceb13be8d4e28776", "fusion_lon": 0.0}, {"rental_uris": {"ios": "https://dc.lft.to/lastmile_qr_scan", "android": "https://dc.lft.to/lastmile_qr_scan"}, "type": "electric_bike", "name": "7f4e18ab27e5482f27889ed9436ce3e6", "is_reserved": 0, "lon": -76.96883466666667, "is_disabled": 0, "fusion_lat": 0.0, "lat": 38.8698515, "bike_id": "7f4e18ab27e5482f27889ed9436ce3e6", "fusion_lon": 0.0}, {"rental_uris": {"ios": "https://dc.lft.to/lastmile_qr_scan", "android": "https://dc.lft.to/lastmile_qr_scan"}, "type": "electric_scooter", "name": "a5b8a198b0af4663f6b6c0fa56394684", "is_reserved": 0, "lon": -77.06720416666667, "is_disabled": 0, "fusion_lat": 0.0, "lat": 38.91458333333333, "bike_id": "a5b8a198b0af4663f6b6c0fa56394684", "fusion_lon": 0.0}, {"rental_uris": {"ios": "https://dc.lft.to/lastmile_qr_scan", "android": "https://dc.lft.to/lastmile_qr_scan"}, "type": "electric_bike", "name": "11e05314250c061ba6fda01ed5fd1318", "is_reserved": 0, "lon": -77.12877066666667, "is_disabled": 0, "fusion_lat": 0.0, "lat": 38.90604883333334, "bike_id": "11e05314250c061ba6fda01ed5fd1318", "fusion_lon": 0.0}, {"rental_uris": {"ios": "https://dc.lft.to/lastmile_qr_scan", "android": "https://dc.lft.to/lastmile_qr_scan"}, "type": "electric_scooter", "name": "672c58102889c29f5ea45d957022b444", "is_reserved": 0, "lon": -77.02082866666667, "is_disabled": 0, "fusion_lat": 0.0, "lat": 38.912576, "bike_id": "672c58102889c29f5ea45d957022b444", "fusion_lon": 0.0}, {"rental_uris": {"ios": "https://dc.lft.to/lastmile_qr_scan", "android": "https://dc.lft.to/lastmile_qr_scan"}, "type": "electric_scooter", "name": "b9e394bd3221395752d7d26c1d80447d", "is_reserved": 0, "lon": -76.99145, "is_disabled": 0, "fusion_lat": 0.0, "lat": 38.873401, "bike_id": "b9e394bd3221395752d7d26c1d80447d", "fusion_lon": 0.0}, {"rental_uris": {"ios": "https://dc.lft.to/lastmile_qr_scan", "android": "https://dc.lft.to/lastmile_qr_scan"}, "type": "electric_scooter", "name": "81a8781d6d750abe9c3dbe79e8f3b8d6", "is_reserved": 0, "lon": -77.06387633333334, "is_disabled": 0, "fusion_lat": 0.0, "lat": 38.908634666666664, "bike_id": "81a8781d6d750abe9c3dbe79e8f3b8d6", "fusion_lon": 0.0}, {"rental_uris": {"ios": "https://dc.lft.to/lastmile_qr_scan", "android": "https://dc.lft.to/lastmile_qr_scan"}, "type": "electric_scooter", "name": "8f37134907210d42e476880455dd606d", "is_reserved": 0, "lon": -77.02472983333334, "is_disabled": 0, "fusion_lat": 0.0, "lat": 38.90334816666667, "bike_id": "8f37134907210d42e476880455dd606d", "fusion_lon": 0.0}, {"rental_uris": {"ios": "https://dc.lft.to/lastmile_qr_scan", "android": "https://dc.lft.to/lastmile_qr_scan"}, "type": "electric_scooter", "name": "79fcfa491631e179a1e249d53373e2fd", "is_reserved": 0, "lon": -77.02175016666666, "is_disabled": 0, "fusion_lat": 0.0, "lat": 38.92832516666667, "bike_id": "79fcfa491631e179a1e249d53373e2fd", "fusion_lon": 0.0}, {"rental_uris": {"ios": "https://dc.lft.to/lastmile_qr_scan", "android": "https://dc.lft.to/lastmile_qr_scan"}, "type": "electric_scooter", "name": "61bf3748403ed7699f2f8855b0aabd6a", "is_reserved": 0, "lon": -77.0355915, "is_disabled": 0, "fusion_lat": 0.0, "lat": 38.92741916666667, "bike_id": "61bf3748403ed7699f2f8855b0aabd6a", "fusion_lon": 0.0}, {"rental_uris": {"ios": "https://dc.lft.to/lastmile_qr_scan", "android": "https://dc.lft.to/lastmile_qr_scan"}, "type": "electric_scooter", "name": "870d033b621f53187e1ad543640e7b91", "is_reserved": 0, "lon": -77.03626116666666, "is_disabled": 0, "fusion_lat": 0.0, "lat": 38.9266275, "bike_id": "870d033b621f53187e1ad543640e7b91", "fusion_lon": 0.0}, {"rental_uris": {"ios": "https://dc.lft.to/lastmile_qr_scan", "android": "https://dc.lft.to/lastmile_qr_scan"}, "type": "electric_scooter", "name": "5836c3348bd5d9f35518caef4acc347e", "is_reserved": 0, "lon": -77.01921416666667, "is_disabled": 0, "fusion_lat": 0.0, "lat": 38.9056865, "bike_id": "5836c3348bd5d9f35518caef4acc347e", "fusion_lon": 0.0}, {"rental_uris": {"ios": "https://dc.lft.to/lastmile_qr_scan", "android": "https://dc.lft.to/lastmile_qr_scan"}, "type": "electric_bike", "name": "348fd112aa57f35e2a265f7e116b9a13", "is_reserved": 0, "lon": -77.22189633333333, "is_disabled": 0, "fusion_lat": 0.0, "lat": 38.871771333333335, "bike_id": "348fd112aa57f35e2a265f7e116b9a13", "fusion_lon": 0.0}, {"rental_uris": {"ios": "https://dc.lft.to/lastmile_qr_scan", "android": "https://dc.lft.to/lastmile_qr_scan"}, "type": "electric_scooter", "name": "5ee50e7bc80a4cb9d9a2179316a2a86c", "is_reserved": 0, "lon": -77.02182816666667, "is_disabled": 0, "fusion_lat": 0.0, "lat": 38.91991433333333, "bike_id": "5ee50e7bc80a4cb9d9a2179316a2a86c", "fusion_lon": 0.0}, {"rental_uris": {"ios": "https://dc.lft.to/lastmile_qr_scan", "android": "https://dc.lft.to/lastmile_qr_scan"}, "type": "electric_scooter", "name": "f55e22eff46cda3753dca1004f86939b", "is_reserved": 0, "lon": -77.02555883333333, "is_disabled": 0, "fusion_lat": 0.0, "lat": 38.92036233333333, "bike_id": "f55e22eff46cda3753dca1004f86939b", "fusion_lon": 0.0}, {"rental_uris": {"ios": "https://dc.lft.to/lastmile_qr_scan", "android": "https://dc.lft.to/lastmile_qr_scan"}, "type": "electric_scooter", "name": "ba5e46d50b8c9987c6236ab6b17d6a47", "is_reserved": 0, "lon": -77.00260816666666, "is_disabled": 0, "fusion_lat": 0.0, "lat": 38.912594166666665, "bike_id": "ba5e46d50b8c9987c6236ab6b17d6a47", "fusion_lon": 0.0}, {"rental_uris": {"ios": "https://dc.lft.to/lastmile_qr_scan", "android": "https://dc.lft.to/lastmile_qr_scan"}, "type": "electric_scooter", "name": "7aa9a62f5de1dcce1a7aa0ef1e680270", "is_reserved": 0, "lon": -77.00930333333334, "is_disabled": 0, "fusion_lat": 0.0, "lat": 38.871178666666665, "bike_id": "7aa9a62f5de1dcce1a7aa0ef1e680270", "fusion_lon": 0.0}, {"rental_uris": {"ios": "https://dc.lft.to/lastmile_qr_scan", "android": "https://dc.lft.to/lastmile_qr_scan"}, "type": "electric_bike", "name": "f573594eff17f89f2b4626901195a193", "is_reserved": 0, "lon": -76.97618733333333, "is_disabled": 0, "fusion_lat": 0.0, "lat": 38.8929435, "bike_id": "f573594eff17f89f2b4626901195a193", "fusion_lon": 0.0}, {"rental_uris": {"ios": "https://dc.lft.to/lastmile_qr_scan", "android": "https://dc.lft.to/lastmile_qr_scan"}, "type": "electric_scooter", "name": "8e30cb5d87989769f1c588a1edc6b7ac", "is_reserved": 0, "lon": -77.01886633333334, "is_disabled": 0, "fusion_lat": 0.0, "lat": 38.87714866666666, "bike_id": "8e30cb5d87989769f1c588a1edc6b7ac", "fusion_lon": 0.0}, {"rental_uris": {"ios": "https://dc.lft.to/lastmile_qr_scan", "android": "https://dc.lft.to/lastmile_qr_scan"}, "type": "electric_scooter", "name": "76a4e41305b30fbdc8711f54feaad5c8", "is_reserved": 0, "lon": -77.04244616666666, "is_disabled": 0, "fusion_lat": 0.0, "lat": 38.92225366666667, "bike_id": "76a4e41305b30fbdc8711f54feaad5c8", "fusion_lon": 0.0}, {"rental_uris": {"ios": "https://dc.lft.to/lastmile_qr_scan", "android": "https://dc.lft.to/lastmile_qr_scan"}, "type": "electric_scooter", "name": "7ba78eaf80eb9e461f39db53f19d65b0", "is_reserved": 0, "lon": -77.02980633333334, "is_disabled": 0, "fusion_lat": 0.0, "lat": 38.924501166666666, "bike_id": "7ba78eaf80eb9e461f39db53f19d65b0", "fusion_lon": 0.0}, {"rental_uris": {"ios": "https://dc.lft.to/lastmile_qr_scan", "android": "https://dc.lft.to/lastmile_qr_scan"}, "type": "electric_scooter", "name": "921945bcf09da75a6c17a135f48ba9d1", "is_reserved": 0, "lon": -77.03541733333333, "is_disabled": 0, "fusion_lat": 0.0, "lat": 38.92381316666667, "bike_id": "921945bcf09da75a6c17a135f48ba9d1", "fusion_lon": 0.0}, {"rental_uris": {"ios": "https://dc.lft.to/lastmile_qr_scan", "android": "https://dc.lft.to/lastmile_qr_scan"}, "type": "electric_scooter", "name": "5cf6d0aa04cd8e8e618df6d1fd7dab45", "is_reserved": 0, "lon": -77.02693033333334, "is_disabled": 0, "fusion_lat": 0.0, "lat": 38.911522166666664, "bike_id": "5cf6d0aa04cd8e8e618df6d1fd7dab45", "fusion_lon": 0.0}, {"rental_uris": {"ios": "https://dc.lft.to/lastmile_qr_scan", "android": "https://dc.lft.to/lastmile_qr_scan"}, "type": "electric_scooter", "name": "bab49332f8b7ce8568ceae7562dcf39a", "is_reserved": 0, "lon": -77.03294283333334, "is_disabled": 0, "fusion_lat": 0.0, "lat": 38.92461216666667, "bike_id": "bab49332f8b7ce8568ceae7562dcf39a", "fusion_lon": 0.0}, {"rental_uris": {"ios": "https://dc.lft.to/lastmile_qr_scan", "android": "https://dc.lft.to/lastmile_qr_scan"}, "type": "electric_scooter", "name": "c98190b27758349590b03a857e77bd7b", "is_reserved": 0, "lon": -77.04329583333333, "is_disabled": 0, "fusion_lat": 0.0, "lat": 38.9064905, "bike_id": "c98190b27758349590b03a857e77bd7b", "fusion_lon": 0.0}, {"rental_uris": {"ios": "https://dc.lft.to/lastmile_qr_scan", "android": "https://dc.lft.to/lastmile_qr_scan"}, "type": "electric_scooter", "name": "37e4e75cb6954e54f52077507222a521", "is_reserved": 0, "lon": -76.99131366666667, "is_disabled": 0, "fusion_lat": 0.0, "lat": 38.900125, "bike_id": "37e4e75cb6954e54f52077507222a521", "fusion_lon": 0.0}, {"rental_uris": {"ios": "https://dc.lft.to/lastmile_qr_scan", "android": "https://dc.lft.to/lastmile_qr_scan"}, "type": "electric_scooter", "name": "640176a4f68430db59b876fc59abed34", "is_reserved": 0, "lon": -77.02128833333333, "is_disabled": 0, "fusion_lat": 0.0, "lat": 38.913297, "bike_id": "640176a4f68430db59b876fc59abed34", "fusion_lon": 0.0}, {"rental_uris": {"ios": "https://dc.lft.to/lastmile_qr_scan", "android": "https://dc.lft.to/lastmile_qr_scan"}, "type": "electric_scooter", "name": "e492865ebe57f54556456d269a841e1c", "is_reserved": 0, "lon": -76.96562533333334, "is_disabled": 0, "fusion_lat": 0.0, "lat": 38.918425666666664, "bike_id": "e492865ebe57f54556456d269a841e1c", "fusion_lon": 0.0}, {"rental_uris": {"ios": "https://dc.lft.to/lastmile_qr_scan", "android": "https://dc.lft.to/lastmile_qr_scan"}, "type": "electric_scooter", "name": "b123473bdd4fc7a8de1676b5f136ba7b", "is_reserved": 0, "lon": -77.02302833333333, "is_disabled": 0, "fusion_lat": 0.0, "lat": 38.898627166666664, "bike_id": "b123473bdd4fc7a8de1676b5f136ba7b", "fusion_lon": 0.0}, {"rental_uris": {"ios": "https://dc.lft.to/lastmile_qr_scan", "android": "https://dc.lft.to/lastmile_qr_scan"}, "type": "electric_scooter", "name": "018a39703b0b6462efec54f26ef45902", "is_reserved": 0, "lon": -77.03792, "is_disabled": 0, "fusion_lat": 0.0, "lat": 38.925085333333335, "bike_id": "018a39703b0b6462efec54f26ef45902", "fusion_lon": 0.0}, {"rental_uris": {"ios": "https://dc.lft.to/lastmile_qr_scan", "android": "https://dc.lft.to/lastmile_qr_scan"}, "type": "electric_scooter", "name": "27a2690e45f1ee244948945656dfcec6", "is_reserved": 0, "lon": -77.03553466666666, "is_disabled": 0, "fusion_lat": 0.0, "lat": 38.91718483333333, "bike_id": "27a2690e45f1ee244948945656dfcec6", "fusion_lon": 0.0}, {"rental_uris": {"ios": "https://dc.lft.to/lastmile_qr_scan", "android": "https://dc.lft.to/lastmile_qr_scan"}, "type": "electric_scooter", "name": "a4e019f83ab05dc2361f199a0e06b04d", "is_reserved": 0, "lon": -77.05598083333334, "is_disabled": 0, "fusion_lat": 0.0, "lat": 38.894254333333336, "bike_id": "a4e019f83ab05dc2361f199a0e06b04d", "fusion_lon": 0.0}, {"rental_uris": {"ios": "https://dc.lft.to/lastmile_qr_scan", "android": "https://dc.lft.to/lastmile_qr_scan"}, "type": "electric_scooter", "name": "6c17121bca0484d2ef23fe7eb6e2720e", "is_reserved": 0, "lon": -77.037095, "is_disabled": 0, "fusion_lat": 0.0, "lat": 38.928353, "bike_id": "6c17121bca0484d2ef23fe7eb6e2720e", "fusion_lon": 0.0}, {"rental_uris": {"ios": "https://dc.lft.to/lastmile_qr_scan", "android": "https://dc.lft.to/lastmile_qr_scan"}, "type": "electric_scooter", "name": "68b7b355a339f2f4a1ee016f2b4060f3", "is_reserved": 0, "lon": -77.0132515, "is_disabled": 0, "fusion_lat": 0.0, "lat": 38.92030966666667, "bike_id": "68b7b355a339f2f4a1ee016f2b4060f3", "fusion_lon": 0.0}, {"rental_uris": {"ios": "https://dc.lft.to/lastmile_qr_scan", "android": "https://dc.lft.to/lastmile_qr_scan"}, "type": "electric_scooter", "name": "2f9100dd2ff5a60ae11c5d9e391824a5", "is_reserved": 0, "lon": -77.04340816666667, "is_disabled": 0, "fusion_lat": 0.0, "lat": 38.92171033333333, "bike_id": "2f9100dd2ff5a60ae11c5d9e391824a5", "fusion_lon": 0.0}, {"rental_uris": {"ios": "https://dc.lft.to/lastmile_qr_scan", "android": "https://dc.lft.to/lastmile_qr_scan"}, "type": "electric_scooter", "name": "29c420cc5861b64fcaf6b99319b9a0d5", "is_reserved": 0, "lon": -76.99102966666666, "is_disabled": 0, "fusion_lat": 0.0, "lat": 38.857310166666664, "bike_id": "29c420cc5861b64fcaf6b99319b9a0d5", "fusion_lon": 0.0}, {"rental_uris": {"ios": "https://dc.lft.to/lastmile_qr_scan", "android": "https://dc.lft.to/lastmile_qr_scan"}, "type": "electric_scooter", "name": "19c88858b7d2e61a172cb095a167e6a4", "is_reserved": 0, "lon": -77.04339783333333, "is_disabled": 0, "fusion_lat": 0.0, "lat": 38.90324233333333, "bike_id": "19c88858b7d2e61a172cb095a167e6a4", "fusion_lon": 0.0}, {"rental_uris": {"ios": "https://dc.lft.to/lastmile_qr_scan", "android": "https://dc.lft.to/lastmile_qr_scan"}, "type": "electric_scooter", "name": "1c437eb1e0012023dc7b941d7d0dc2dc", "is_reserved": 0, "lon": -77.01558883333334, "is_disabled": 0, "fusion_lat": 0.0, "lat": 38.90262516666667, "bike_id": "1c437eb1e0012023dc7b941d7d0dc2dc", "fusion_lon": 0.0}, {"rental_uris": {"ios": "https://dc.lft.to/lastmile_qr_scan", "android": "https://dc.lft.to/lastmile_qr_scan"}, "type": "electric_scooter", "name": "bb1bb51352bab1049caa508c7bb647ee", "is_reserved": 0, "lon": -77.07120566666667, "is_disabled": 0, "fusion_lat": 0.0, "lat": 38.905900833333334, "bike_id": "bb1bb51352bab1049caa508c7bb647ee", "fusion_lon": 0.0}, {"rental_uris": {"ios": "https://dc.lft.to/lastmile_qr_scan", "android": "https://dc.lft.to/lastmile_qr_scan"}, "type": "electric_scooter", "name": "e24e84897fe60ca56f010710ebcd4ec0", "is_reserved": 0, "lon": -76.9889215, "is_disabled": 0, "fusion_lat": 0.0, "lat": 38.89957233333333, "bike_id": "e24e84897fe60ca56f010710ebcd4ec0", "fusion_lon": 0.0}, {"rental_uris": {"ios": "https://dc.lft.to/lastmile_qr_scan", "android": "https://dc.lft.to/lastmile_qr_scan"}, "type": "electric_scooter", "name": "562751b46521dce96e143ec7ededa2bb", "is_reserved": 0, "lon": -77.02211816666667, "is_disabled": 0, "fusion_lat": 0.0, "lat": 38.914174833333334, "bike_id": "562751b46521dce96e143ec7ededa2bb", "fusion_lon": 0.0}, {"rental_uris": {"ios": "https://dc.lft.to/lastmile_qr_scan", "android": "https://dc.lft.to/lastmile_qr_scan"}, "type": "electric_scooter", "name": "6926e1054a972807b891aeae394fe235", "is_reserved": 0, "lon": -77.04156366666666, "is_disabled": 0, "fusion_lat": 0.0, "lat": 38.90144933333333, "bike_id": "6926e1054a972807b891aeae394fe235", "fusion_lon": 0.0}, {"rental_uris": {"ios": "https://dc.lft.to/lastmile_qr_scan", "android": "https://dc.lft.to/lastmile_qr_scan"}, "type": "electric_scooter", "name": "e97c43fd4cc6b3b4816fa67ff19d1bb1", "is_reserved": 0, "lon": -77.02291433333333, "is_disabled": 0, "fusion_lat": 0.0, "lat": 38.91839366666667, "bike_id": "e97c43fd4cc6b3b4816fa67ff19d1bb1", "fusion_lon": 0.0}, {"rental_uris": {"ios": "https://dc.lft.to/lastmile_qr_scan", "android": "https://dc.lft.to/lastmile_qr_scan"}, "type": "electric_scooter", "name": "566129f8a881d01faaa437e0e1622221", "is_reserved": 0, "lon": -77.03840766666667, "is_disabled": 0, "fusion_lat": 0.0, "lat": 38.909841, "bike_id": "566129f8a881d01faaa437e0e1622221", "fusion_lon": 0.0}, {"rental_uris": {"ios": "https://dc.lft.to/lastmile_qr_scan", "android": "https://dc.lft.to/lastmile_qr_scan"}, "type": "electric_scooter", "name": "197557d621c9ca818e7611958a08f518", "is_reserved": 0, "lon": -77.00199283333333, "is_disabled": 0, "fusion_lat": 0.0, "lat": 38.9023755, "bike_id": "197557d621c9ca818e7611958a08f518", "fusion_lon": 0.0}, {"rental_uris": {"ios": "https://dc.lft.to/lastmile_qr_scan", "android": "https://dc.lft.to/lastmile_qr_scan"}, "type": "electric_bike", "name": "3e43960d5422d2540061301c9f8e3364", "is_reserved": 0, "lon": -77.06583266666667, "is_disabled": 0, "fusion_lat": 0.0, "lat": 38.91137366666667, "bike_id": "3e43960d5422d2540061301c9f8e3364", "fusion_lon": 0.0}, {"rental_uris": {"ios": "https://dc.lft.to/lastmile_qr_scan", "android": "https://dc.lft.to/lastmile_qr_scan"}, "type": "electric_scooter", "name": "9e22694865016be43e1fc1446c9beb64", "is_reserved": 0, "lon": -77.0443895, "is_disabled": 0, "fusion_lat": 0.0, "lat": 38.9126645, "bike_id": "9e22694865016be43e1fc1446c9beb64", "fusion_lon": 0.0}, {"rental_uris": {"ios": "https://dc.lft.to/lastmile_qr_scan", "android": "https://dc.lft.to/lastmile_qr_scan"}, "type": "electric_scooter", "name": "7b995e7a2a5908ee9b64cbbc988e0766", "is_reserved": 0, "lon": -77.0304865, "is_disabled": 0, "fusion_lat": 0.0, "lat": 38.89738216666667, "bike_id": "7b995e7a2a5908ee9b64cbbc988e0766", "fusion_lon": 0.0}, {"rental_uris": {"ios": "https://dc.lft.to/lastmile_qr_scan", "android": "https://dc.lft.to/lastmile_qr_scan"}, "type": "electric_scooter", "name": "b25792efb88c2c3193d09fecf4076912", "is_reserved": 0, "lon": -76.98276166666666, "is_disabled": 0, "fusion_lat": 0.0, "lat": 38.90345633333333, "bike_id": "b25792efb88c2c3193d09fecf4076912", "fusion_lon": 0.0}, {"rental_uris": {"ios": "https://dc.lft.to/lastmile_qr_scan", "android": "https://dc.lft.to/lastmile_qr_scan"}, "type": "electric_scooter", "name": "f198b167a0080da6ffc9d23ad67d4149", "is_reserved": 0, "lon": -77.023059, "is_disabled": 0, "fusion_lat": 0.0, "lat": 38.9183615, "bike_id": "f198b167a0080da6ffc9d23ad67d4149", "fusion_lon": 0.0}, {"rental_uris": {"ios": "https://dc.lft.to/lastmile_qr_scan", "android": "https://dc.lft.to/lastmile_qr_scan"}, "type": "electric_scooter", "name": "f8795ac219f5372ee69de0e7dee304db", "is_reserved": 0, "lon": -77.00201533333333, "is_disabled": 0, "fusion_lat": 0.0, "lat": 38.900444, "bike_id": "f8795ac219f5372ee69de0e7dee304db", "fusion_lon": 0.0}, {"rental_uris": {"ios": "https://dc.lft.to/lastmile_qr_scan", "android": "https://dc.lft.to/lastmile_qr_scan"}, "type": "electric_scooter", "name": "14b7947e398ee01c90f5c6d602c5a3d5", "is_reserved": 0, "lon": -77.02922983333333, "is_disabled": 0, "fusion_lat": 0.0, "lat": 38.897560666666664, "bike_id": "14b7947e398ee01c90f5c6d602c5a3d5", "fusion_lon": 0.0}, {"rental_uris": {"ios": "https://dc.lft.to/lastmile_qr_scan", "android": "https://dc.lft.to/lastmile_qr_scan"}, "type": "electric_scooter", "name": "02d064c16eeece59ddb270d2060ccce7", "is_reserved": 0, "lon": -77.02974483333334, "is_disabled": 0, "fusion_lat": 0.0, "lat": 38.91767516666667, "bike_id": "02d064c16eeece59ddb270d2060ccce7", "fusion_lon": 0.0}, {"rental_uris": {"ios": "https://dc.lft.to/lastmile_qr_scan", "android": "https://dc.lft.to/lastmile_qr_scan"}, "type": "electric_scooter", "name": "2306fb8da7081bc364ad79a0266bd70f", "is_reserved": 0, "lon": -77.06105083333334, "is_disabled": 0, "fusion_lat": 0.0, "lat": 38.93708316666667, "bike_id": "2306fb8da7081bc364ad79a0266bd70f", "fusion_lon": 0.0}, {"rental_uris": {"ios": "https://dc.lft.to/lastmile_qr_scan", "android": "https://dc.lft.to/lastmile_qr_scan"}, "type": "electric_scooter", "name": "498b92fab74da81bd1c9ea96671f4f71", "is_reserved": 0, "lon": -77.0269315, "is_disabled": 0, "fusion_lat": 0.0, "lat": 38.972521666666665, "bike_id": "498b92fab74da81bd1c9ea96671f4f71", "fusion_lon": 0.0}, {"rental_uris": {"ios": "https://dc.lft.to/lastmile_qr_scan", "android": "https://dc.lft.to/lastmile_qr_scan"}, "type": "electric_scooter", "name": "f598a111acd7234ca0d87a3a7c5502eb", "is_reserved": 0, "lon": -77.02691383333334, "is_disabled": 0, "fusion_lat": 0.0, "lat": 38.9249655, "bike_id": "f598a111acd7234ca0d87a3a7c5502eb", "fusion_lon": 0.0}, {"rental_uris": {"ios": "https://dc.lft.to/lastmile_qr_scan", "android": "https://dc.lft.to/lastmile_qr_scan"}, "type": "electric_scooter", "name": "968a4709dac29ce395deebb1291acbcf", "is_reserved": 0, "lon": -77.04533266666667, "is_disabled": 0, "fusion_lat": 0.0, "lat": 38.91110466666667, "bike_id": "968a4709dac29ce395deebb1291acbcf", "fusion_lon": 0.0}, {"rental_uris": {"ios": "https://dc.lft.to/lastmile_qr_scan", "android": "https://dc.lft.to/lastmile_qr_scan"}, "type": "electric_scooter", "name": "c16f572216fedde4fa9273831da9b300", "is_reserved": 0, "lon": -76.99172366666667, "is_disabled": 0, "fusion_lat": 0.0, "lat": 38.902617166666666, "bike_id": "c16f572216fedde4fa9273831da9b300", "fusion_lon": 0.0}, {"rental_uris": {"ios": "https://dc.lft.to/lastmile_qr_scan", "android": "https://dc.lft.to/lastmile_qr_scan"}, "type": "electric_scooter", "name": "8a4dda1211ac2a65ac1c898ffb7fd9de", "is_reserved": 0, "lon": -76.993837, "is_disabled": 0, "fusion_lat": 0.0, "lat": 38.89336383333333, "bike_id": "8a4dda1211ac2a65ac1c898ffb7fd9de", "fusion_lon": 0.0}, {"rental_uris": {"ios": "https://dc.lft.to/lastmile_qr_scan", "android": "https://dc.lft.to/lastmile_qr_scan"}, "type": "electric_scooter", "name": "0e8dc348427fc85d303c7032a6d99791", "is_reserved": 0, "lon": -77.00642516666667, "is_disabled": 0, "fusion_lat": 0.0, "lat": 38.878506, "bike_id": "0e8dc348427fc85d303c7032a6d99791", "fusion_lon": 0.0}, {"rental_uris": {"ios": "https://dc.lft.to/lastmile_qr_scan", "android": "https://dc.lft.to/lastmile_qr_scan"}, "type": "electric_scooter", "name": "bb0626ace1a15f04e00f15c2e913829e", "is_reserved": 0, "lon": -77.01968866666667, "is_disabled": 0, "fusion_lat": 0.0, "lat": 38.9224935, "bike_id": "bb0626ace1a15f04e00f15c2e913829e", "fusion_lon": 0.0}, {"rental_uris": {"ios": "https://dc.lft.to/lastmile_qr_scan", "android": "https://dc.lft.to/lastmile_qr_scan"}, "type": "electric_scooter", "name": "54db039ef488c1e25c804446a67bd93b", "is_reserved": 0, "lon": -76.99164, "is_disabled": 0, "fusion_lat": 0.0, "lat": 38.888154, "bike_id": "54db039ef488c1e25c804446a67bd93b", "fusion_lon": 0.0}, {"rental_uris": {"ios": "https://dc.lft.to/lastmile_qr_scan", "android": "https://dc.lft.to/lastmile_qr_scan"}, "type": "electric_scooter", "name": "c6c18a5bc4cfa8125fc3d07f0b501edc", "is_reserved": 0, "lon": -77.0240895, "is_disabled": 0, "fusion_lat": 0.0, "lat": 38.9381155, "bike_id": "c6c18a5bc4cfa8125fc3d07f0b501edc", "fusion_lon": 0.0}, {"rental_uris": {"ios": "https://dc.lft.to/lastmile_qr_scan", "android": "https://dc.lft.to/lastmile_qr_scan"}, "type": "electric_scooter", "name": "4397fcb31e5edea4e4ba14f022df0ac7", "is_reserved": 0, "lon": -76.998719, "is_disabled": 0, "fusion_lat": 0.0, "lat": 38.900318666666664, "bike_id": "4397fcb31e5edea4e4ba14f022df0ac7", "fusion_lon": 0.0}, {"rental_uris": {"ios": "https://dc.lft.to/lastmile_qr_scan", "android": "https://dc.lft.to/lastmile_qr_scan"}, "type": "electric_scooter", "name": "2a8aa1661d9fdbf79794a440835ce6f5", "is_reserved": 0, "lon": -77.064837, "is_disabled": 0, "fusion_lat": 0.0, "lat": 38.92699433333333, "bike_id": "2a8aa1661d9fdbf79794a440835ce6f5", "fusion_lon": 0.0}, {"rental_uris": {"ios": "https://dc.lft.to/lastmile_qr_scan", "android": "https://dc.lft.to/lastmile_qr_scan"}, "type": "electric_scooter", "name": "149e22068071307658cd8a310979ac35", "is_reserved": 0, "lon": -77.04229683333334, "is_disabled": 0, "fusion_lat": 0.0, "lat": 38.91110316666666, "bike_id": "149e22068071307658cd8a310979ac35", "fusion_lon": 0.0}, {"rental_uris": {"ios": "https://dc.lft.to/lastmile_qr_scan", "android": "https://dc.lft.to/lastmile_qr_scan"}, "type": "electric_scooter", "name": "80e72ea4e60f83ecce4eeab5a3bb6498", "is_reserved": 0, "lon": -77.02828916666667, "is_disabled": 0, "fusion_lat": 0.0, "lat": 38.89376433333334, "bike_id": "80e72ea4e60f83ecce4eeab5a3bb6498", "fusion_lon": 0.0}, {"rental_uris": {"ios": "https://dc.lft.to/lastmile_qr_scan", "android": "https://dc.lft.to/lastmile_qr_scan"}, "type": "electric_scooter", "name": "ffee6b1ea461f267b50c86744083925e", "is_reserved": 0, "lon": -76.943825, "is_disabled": 0, "fusion_lat": 0.0, "lat": 38.8911875, "bike_id": "ffee6b1ea461f267b50c86744083925e", "fusion_lon": 0.0}, {"rental_uris": {"ios": "https://dc.lft.to/lastmile_qr_scan", "android": "https://dc.lft.to/lastmile_qr_scan"}, "type": "electric_scooter", "name": "85aec44884cb4e390e71783fadedf36c", "is_reserved": 0, "lon": -77.03860733333333, "is_disabled": 0, "fusion_lat": 0.0, "lat": 38.91096, "bike_id": "85aec44884cb4e390e71783fadedf36c", "fusion_lon": 0.0}, {"rental_uris": {"ios": "https://dc.lft.to/lastmile_qr_scan", "android": "https://dc.lft.to/lastmile_qr_scan"}, "type": "electric_bike", "name": "33c7aead44c9aed54a6694759b52f269", "is_reserved": 0, "lon": -77.0701435, "is_disabled": 0, "fusion_lat": 0.0, "lat": 38.84111683333333, "bike_id": "33c7aead44c9aed54a6694759b52f269", "fusion_lon": 0.0}, {"rental_uris": {"ios": "https://dc.lft.to/lastmile_qr_scan", "android": "https://dc.lft.to/lastmile_qr_scan"}, "type": "electric_scooter", "name": "7edef85598915f26fc7ba4db042a7727", "is_reserved": 0, "lon": -77.06506883333333, "is_disabled": 0, "fusion_lat": 0.0, "lat": 38.9052115, "bike_id": "7edef85598915f26fc7ba4db042a7727", "fusion_lon": 0.0}, {"rental_uris": {"ios": "https://dc.lft.to/lastmile_qr_scan", "android": "https://dc.lft.to/lastmile_qr_scan"}, "type": "electric_scooter", "name": "16c025d90f1a028171c7d21b74c64253", "is_reserved": 0, "lon": -76.952579, "is_disabled": 0, "fusion_lat": 0.0, "lat": 38.892752333333334, "bike_id": "16c025d90f1a028171c7d21b74c64253", "fusion_lon": 0.0}, {"rental_uris": {"ios": "https://dc.lft.to/lastmile_qr_scan", "android": "https://dc.lft.to/lastmile_qr_scan"}, "type": "electric_scooter", "name": "acfe82d9d4aabcdd70b244ced729fb9f", "is_reserved": 0, "lon": -77.025677, "is_disabled": 0, "fusion_lat": 0.0, "lat": 38.925773166666666, "bike_id": "acfe82d9d4aabcdd70b244ced729fb9f", "fusion_lon": 0.0}, {"rental_uris": {"ios": "https://dc.lft.to/lastmile_qr_scan", "android": "https://dc.lft.to/lastmile_qr_scan"}, "type": "electric_scooter", "name": "48bef6090c96e8cd08ee3b9ae875b5ab", "is_reserved": 0, "lon": -77.0185285, "is_disabled": 0, "fusion_lat": 0.0, "lat": 38.89941916666667, "bike_id": "48bef6090c96e8cd08ee3b9ae875b5ab", "fusion_lon": 0.0}, {"rental_uris": {"ios": "https://dc.lft.to/lastmile_qr_scan", "android": "https://dc.lft.to/lastmile_qr_scan"}, "type": "electric_bike", "name": "dd1d16e738a4c53eca3dfe8bcdebd2dc", "is_reserved": 0, "lon": -76.99071916666666, "is_disabled": 0, "fusion_lat": 0.0, "lat": 38.834557, "bike_id": "dd1d16e738a4c53eca3dfe8bcdebd2dc", "fusion_lon": 0.0}, {"rental_uris": {"ios": "https://dc.lft.to/lastmile_qr_scan", "android": "https://dc.lft.to/lastmile_qr_scan"}, "type": "electric_scooter", "name": "96f684f13fcfcffc067700a2ed30f7d5", "is_reserved": 0, "lon": -77.04235283333334, "is_disabled": 0, "fusion_lat": 0.0, "lat": 38.921447, "bike_id": "96f684f13fcfcffc067700a2ed30f7d5", "fusion_lon": 0.0}, {"rental_uris": {"ios": "https://dc.lft.to/lastmile_qr_scan", "android": "https://dc.lft.to/lastmile_qr_scan"}, "type": "electric_scooter", "name": "c381e16d3224fcf52659cdac6e2ac5ef", "is_reserved": 0, "lon": -77.030696, "is_disabled": 0, "fusion_lat": 0.0, "lat": 38.92671583333333, "bike_id": "c381e16d3224fcf52659cdac6e2ac5ef", "fusion_lon": 0.0}, {"rental_uris": {"ios": "https://dc.lft.to/lastmile_qr_scan", "android": "https://dc.lft.to/lastmile_qr_scan"}, "type": "electric_scooter", "name": "8f2d85213b1077e616d5389273d8bf57", "is_reserved": 0, "lon": -77.03740833333333, "is_disabled": 0, "fusion_lat": 0.0, "lat": 38.92909916666667, "bike_id": "8f2d85213b1077e616d5389273d8bf57", "fusion_lon": 0.0}, {"rental_uris": {"ios": "https://dc.lft.to/lastmile_qr_scan", "android": "https://dc.lft.to/lastmile_qr_scan"}, "type": "electric_scooter", "name": "142c6eedf34aea15ff1a5007a79f1b2d", "is_reserved": 0, "lon": -77.04855533333334, "is_disabled": 0, "fusion_lat": 0.0, "lat": 38.905375, "bike_id": "142c6eedf34aea15ff1a5007a79f1b2d", "fusion_lon": 0.0}, {"rental_uris": {"ios": "https://dc.lft.to/lastmile_qr_scan", "android": "https://dc.lft.to/lastmile_qr_scan"}, "type": "electric_scooter", "name": "328ff8431d2276bff4381ebfa62258b6", "is_reserved": 0, "lon": -77.02492333333333, "is_disabled": 0, "fusion_lat": 0.0, "lat": 38.90415316666667, "bike_id": "328ff8431d2276bff4381ebfa62258b6", "fusion_lon": 0.0}, {"rental_uris": {"ios": "https://dc.lft.to/lastmile_qr_scan", "android": "https://dc.lft.to/lastmile_qr_scan"}, "type": "electric_bike", "name": "b2709f8b7a138e712abb939abf9aca42", "is_reserved": 0, "lon": -77.1074315, "is_disabled": 0, "fusion_lat": 0.0, "lat": 38.85565366666667, "bike_id": "b2709f8b7a138e712abb939abf9aca42", "fusion_lon": 0.0}, {"rental_uris": {"ios": "https://dc.lft.to/lastmile_qr_scan", "android": "https://dc.lft.to/lastmile_qr_scan"}, "type": "electric_scooter", "name": "08bc0a866aa93cc36f32e52916241563", "is_reserved": 0, "lon": -77.02225616666666, "is_disabled": 0, "fusion_lat": 0.0, "lat": 38.92076983333333, "bike_id": "08bc0a866aa93cc36f32e52916241563", "fusion_lon": 0.0}, {"rental_uris": {"ios": "https://dc.lft.to/lastmile_qr_scan", "android": "https://dc.lft.to/lastmile_qr_scan"}, "type": "electric_scooter", "name": "995011de5c3a487ab43206e5aba10503", "is_reserved": 0, "lon": -77.05429683333334, "is_disabled": 0, "fusion_lat": 0.0, "lat": 38.92845633333334, "bike_id": "995011de5c3a487ab43206e5aba10503", "fusion_lon": 0.0}, {"rental_uris": {"ios": "https://dc.lft.to/lastmile_qr_scan", "android": "https://dc.lft.to/lastmile_qr_scan"}, "type": "electric_scooter", "name": "e297dc843b23cd4bd5c2feefd52d7626", "is_reserved": 0, "lon": -77.04353283333333, "is_disabled": 0, "fusion_lat": 0.0, "lat": 38.90838083333333, "bike_id": "e297dc843b23cd4bd5c2feefd52d7626", "fusion_lon": 0.0}, {"rental_uris": {"ios": "https://dc.lft.to/lastmile_qr_scan", "android": "https://dc.lft.to/lastmile_qr_scan"}, "type": "electric_scooter", "name": "25588cb8d5dd5a03ca80744cf41b0fc0", "is_reserved": 0, "lon": -77.07166033333333, "is_disabled": 0, "fusion_lat": 0.0, "lat": 38.90779216666667, "bike_id": "25588cb8d5dd5a03ca80744cf41b0fc0", "fusion_lon": 0.0}, {"rental_uris": {"ios": "https://dc.lft.to/lastmile_qr_scan", "android": "https://dc.lft.to/lastmile_qr_scan"}, "type": "electric_scooter", "name": "03422a7f1c61e8c5ed440ea4da4eaac4", "is_reserved": 0, "lon": -77.02662, "is_disabled": 0, "fusion_lat": 0.0, "lat": 38.92483433333334, "bike_id": "03422a7f1c61e8c5ed440ea4da4eaac4", "fusion_lon": 0.0}, {"rental_uris": {"ios": "https://dc.lft.to/lastmile_qr_scan", "android": "https://dc.lft.to/lastmile_qr_scan"}, "type": "electric_scooter", "name": "f459743fd95b42d0f8912402cf108c6e", "is_reserved": 0, "lon": -77.02680833333334, "is_disabled": 0, "fusion_lat": 0.0, "lat": 38.92482066666667, "bike_id": "f459743fd95b42d0f8912402cf108c6e", "fusion_lon": 0.0}, {"rental_uris": {"ios": "https://dc.lft.to/lastmile_qr_scan", "android": "https://dc.lft.to/lastmile_qr_scan"}, "type": "electric_scooter", "name": "e5f17266ea03a30a92cd9f9be6ee8c09", "is_reserved": 0, "lon": -77.01768116666666, "is_disabled": 0, "fusion_lat": 0.0, "lat": 38.92050666666667, "bike_id": "e5f17266ea03a30a92cd9f9be6ee8c09", "fusion_lon": 0.0}, {"rental_uris": {"ios": "https://dc.lft.to/lastmile_qr_scan", "android": "https://dc.lft.to/lastmile_qr_scan"}, "type": "electric_scooter", "name": "12dba3026fabbd6767304fc971a05048", "is_reserved": 0, "lon": -77.0415215, "is_disabled": 0, "fusion_lat": 0.0, "lat": 38.9057265, "bike_id": "12dba3026fabbd6767304fc971a05048", "fusion_lon": 0.0}, {"rental_uris": {"ios": "https://dc.lft.to/lastmile_qr_scan", "android": "https://dc.lft.to/lastmile_qr_scan"}, "type": "electric_scooter", "name": "02ab057fc90b1122f77d870885199130", "is_reserved": 0, "lon": -77.0488795, "is_disabled": 0, "fusion_lat": 0.0, "lat": 38.91943916666666, "bike_id": "02ab057fc90b1122f77d870885199130", "fusion_lon": 0.0}, {"rental_uris": {"ios": "https://dc.lft.to/lastmile_qr_scan", "android": "https://dc.lft.to/lastmile_qr_scan"}, "type": "electric_scooter", "name": "c7eb470c4c1e84b01c5694079db84592", "is_reserved": 0, "lon": -77.02979616666667, "is_disabled": 0, "fusion_lat": 0.0, "lat": 38.921965, "bike_id": "c7eb470c4c1e84b01c5694079db84592", "fusion_lon": 0.0}, {"rental_uris": {"ios": "https://dc.lft.to/lastmile_qr_scan", "android": "https://dc.lft.to/lastmile_qr_scan"}, "type": "electric_scooter", "name": "4d8cd222e0fe5d925f0dc3ec3d114dc3", "is_reserved": 0, "lon": -77.027974, "is_disabled": 0, "fusion_lat": 0.0, "lat": 38.90672883333333, "bike_id": "4d8cd222e0fe5d925f0dc3ec3d114dc3", "fusion_lon": 0.0}, {"rental_uris": {"ios": "https://dc.lft.to/lastmile_qr_scan", "android": "https://dc.lft.to/lastmile_qr_scan"}, "type": "electric_scooter", "name": "5ac02140fef7c6d16709339a21b14d26", "is_reserved": 0, "lon": -77.026948, "is_disabled": 0, "fusion_lat": 0.0, "lat": 38.926005333333336, "bike_id": "5ac02140fef7c6d16709339a21b14d26", "fusion_lon": 0.0}, {"rental_uris": {"ios": "https://dc.lft.to/lastmile_qr_scan", "android": "https://dc.lft.to/lastmile_qr_scan"}, "type": "electric_scooter", "name": "5ad38e7b9e44aa04fad977001ecb3af5", "is_reserved": 0, "lon": -77.03231016666666, "is_disabled": 0, "fusion_lat": 0.0, "lat": 38.92882183333333, "bike_id": "5ad38e7b9e44aa04fad977001ecb3af5", "fusion_lon": 0.0}, {"rental_uris": {"ios": "https://dc.lft.to/lastmile_qr_scan", "android": "https://dc.lft.to/lastmile_qr_scan"}, "type": "electric_scooter", "name": "db6bdc23500e98f05d42ce5bf50682fe", "is_reserved": 0, "lon": -77.04052166666666, "is_disabled": 0, "fusion_lat": 0.0, "lat": 38.93017966666667, "bike_id": "db6bdc23500e98f05d42ce5bf50682fe", "fusion_lon": 0.0}, {"rental_uris": {"ios": "https://dc.lft.to/lastmile_qr_scan", "android": "https://dc.lft.to/lastmile_qr_scan"}, "type": "electric_scooter", "name": "2f6728ff60019c754ba98376adf91a03", "is_reserved": 0, "lon": -77.0616915, "is_disabled": 0, "fusion_lat": 0.0, "lat": 38.94308983333333, "bike_id": "2f6728ff60019c754ba98376adf91a03", "fusion_lon": 0.0}, {"rental_uris": {"ios": "https://dc.lft.to/lastmile_qr_scan", "android": "https://dc.lft.to/lastmile_qr_scan"}, "type": "electric_scooter", "name": "2f2da67afe74c6baba81bf29839b90ff", "is_reserved": 0, "lon": -77.0324955, "is_disabled": 0, "fusion_lat": 0.0, "lat": 38.91119916666667, "bike_id": "2f2da67afe74c6baba81bf29839b90ff", "fusion_lon": 0.0}, {"rental_uris": {"ios": "https://dc.lft.to/lastmile_qr_scan", "android": "https://dc.lft.to/lastmile_qr_scan"}, "type": "electric_scooter", "name": "b82491d9f5ee52e42cec47c895add8b6", "is_reserved": 0, "lon": -77.04693066666667, "is_disabled": 0, "fusion_lat": 0.0, "lat": 38.90299, "bike_id": "b82491d9f5ee52e42cec47c895add8b6", "fusion_lon": 0.0}, {"rental_uris": {"ios": "https://dc.lft.to/lastmile_qr_scan", "android": "https://dc.lft.to/lastmile_qr_scan"}, "type": "electric_bike", "name": "50e817c3d55a56e3719a1da515fdcd69", "is_reserved": 0, "lon": -77.1273405, "is_disabled": 0, "fusion_lat": 0.0, "lat": 38.89564033333333, "bike_id": "50e817c3d55a56e3719a1da515fdcd69", "fusion_lon": 0.0}, {"rental_uris": {"ios": "https://dc.lft.to/lastmile_qr_scan", "android": "https://dc.lft.to/lastmile_qr_scan"}, "type": "electric_scooter", "name": "d68f37216ca56137a5ff3e816d76cb0d", "is_reserved": 0, "lon": -77.03806366666667, "is_disabled": 0, "fusion_lat": 0.0, "lat": 38.91046716666666, "bike_id": "d68f37216ca56137a5ff3e816d76cb0d", "fusion_lon": 0.0}, {"rental_uris": {"ios": "https://dc.lft.to/lastmile_qr_scan", "android": "https://dc.lft.to/lastmile_qr_scan"}, "type": "electric_scooter", "name": "aa00afa394419df9ae1ec7c00270b734", "is_reserved": 0, "lon": -77.0720165, "is_disabled": 0, "fusion_lat": 0.0, "lat": 38.91260333333334, "bike_id": "aa00afa394419df9ae1ec7c00270b734", "fusion_lon": 0.0}, {"rental_uris": {"ios": "https://dc.lft.to/lastmile_qr_scan", "android": "https://dc.lft.to/lastmile_qr_scan"}, "type": "electric_scooter", "name": "429da1f9932e2e84bf0151d8a282abdf", "is_reserved": 0, "lon": -77.04676283333333, "is_disabled": 0, "fusion_lat": 0.0, "lat": 38.9072175, "bike_id": "429da1f9932e2e84bf0151d8a282abdf", "fusion_lon": 0.0}, {"rental_uris": {"ios": "https://dc.lft.to/lastmile_qr_scan", "android": "https://dc.lft.to/lastmile_qr_scan"}, "type": "electric_scooter", "name": "a1f354b423f3b3a8a1728db13f569564", "is_reserved": 0, "lon": -77.00407183333333, "is_disabled": 0, "fusion_lat": 0.0, "lat": 38.874760333333334, "bike_id": "a1f354b423f3b3a8a1728db13f569564", "fusion_lon": 0.0}, {"rental_uris": {"ios": "https://dc.lft.to/lastmile_qr_scan", "android": "https://dc.lft.to/lastmile_qr_scan"}, "type": "electric_scooter", "name": "9e9f5548fd33cfd3e40ded455cb57426", "is_reserved": 0, "lon": -77.02345166666667, "is_disabled": 0, "fusion_lat": 0.0, "lat": 38.88136683333333, "bike_id": "9e9f5548fd33cfd3e40ded455cb57426", "fusion_lon": 0.0}, {"rental_uris": {"ios": "https://dc.lft.to/lastmile_qr_scan", "android": "https://dc.lft.to/lastmile_qr_scan"}, "type": "electric_scooter", "name": "067cf1174ce7dafb912cf559ff52bf1a", "is_reserved": 0, "lon": -77.04120566666667, "is_disabled": 0, "fusion_lat": 0.0, "lat": 38.921214, "bike_id": "067cf1174ce7dafb912cf559ff52bf1a", "fusion_lon": 0.0}, {"rental_uris": {"ios": "https://dc.lft.to/lastmile_qr_scan", "android": "https://dc.lft.to/lastmile_qr_scan"}, "type": "electric_scooter", "name": "3a1dcf4054230f3ef7d399cba39ae521", "is_reserved": 0, "lon": -77.01644533333334, "is_disabled": 0, "fusion_lat": 0.0, "lat": 38.915946166666664, "bike_id": "3a1dcf4054230f3ef7d399cba39ae521", "fusion_lon": 0.0}, {"rental_uris": {"ios": "https://dc.lft.to/lastmile_qr_scan", "android": "https://dc.lft.to/lastmile_qr_scan"}, "type": "electric_scooter", "name": "e4065bd5f2f0c327c79bf17261dedea3", "is_reserved": 0, "lon": -77.04612116666667, "is_disabled": 0, "fusion_lat": 0.0, "lat": 38.90140733333333, "bike_id": "e4065bd5f2f0c327c79bf17261dedea3", "fusion_lon": 0.0}, {"rental_uris": {"ios": "https://dc.lft.to/lastmile_qr_scan", "android": "https://dc.lft.to/lastmile_qr_scan"}, "type": "electric_scooter", "name": "2a3816d23e79c5ef357c366e66217736", "is_reserved": 0, "lon": -77.0084135, "is_disabled": 0, "fusion_lat": 0.0, "lat": 38.9125755, "bike_id": "2a3816d23e79c5ef357c366e66217736", "fusion_lon": 0.0}, {"rental_uris": {"ios": "https://dc.lft.to/lastmile_qr_scan", "android": "https://dc.lft.to/lastmile_qr_scan"}, "type": "electric_scooter", "name": "aafb375b7076d96efa1947cbac42089b", "is_reserved": 0, "lon": -77.03873016666667, "is_disabled": 0, "fusion_lat": 0.0, "lat": 38.912673, "bike_id": "aafb375b7076d96efa1947cbac42089b", "fusion_lon": 0.0}, {"rental_uris": {"ios": "https://dc.lft.to/lastmile_qr_scan", "android": "https://dc.lft.to/lastmile_qr_scan"}, "type": "electric_scooter", "name": "5207530cc8b50a5365a3b62760ab4996", "is_reserved": 0, "lon": -77.02522333333333, "is_disabled": 0, "fusion_lat": 0.0, "lat": 38.94031966666667, "bike_id": "5207530cc8b50a5365a3b62760ab4996", "fusion_lon": 0.0}, {"rental_uris": {"ios": "https://dc.lft.to/lastmile_qr_scan", "android": "https://dc.lft.to/lastmile_qr_scan"}, "type": "electric_scooter", "name": "55c9a2525c17ca79003098b19c1e49c1", "is_reserved": 0, "lon": -77.068023, "is_disabled": 0, "fusion_lat": 0.0, "lat": 38.905216, "bike_id": "55c9a2525c17ca79003098b19c1e49c1", "fusion_lon": 0.0}, {"rental_uris": {"ios": "https://dc.lft.to/lastmile_qr_scan", "android": "https://dc.lft.to/lastmile_qr_scan"}, "type": "electric_scooter", "name": "5e2082ae6964ed50f69490f74b09f411", "is_reserved": 0, "lon": -77.00589683333334, "is_disabled": 0, "fusion_lat": 0.0, "lat": 38.900422666666664, "bike_id": "5e2082ae6964ed50f69490f74b09f411", "fusion_lon": 0.0}, {"rental_uris": {"ios": "https://dc.lft.to/lastmile_qr_scan", "android": "https://dc.lft.to/lastmile_qr_scan"}, "type": "electric_scooter", "name": "bde62b78720a12d2b8559ceb5ea58671", "is_reserved": 0, "lon": -77.02774433333333, "is_disabled": 0, "fusion_lat": 0.0, "lat": 38.887471, "bike_id": "bde62b78720a12d2b8559ceb5ea58671", "fusion_lon": 0.0}, {"rental_uris": {"ios": "https://dc.lft.to/lastmile_qr_scan", "android": "https://dc.lft.to/lastmile_qr_scan"}, "type": "electric_scooter", "name": "e0768bd2a4d0c1b905ceac7d1dd12b7b", "is_reserved": 0, "lon": -76.99035016666667, "is_disabled": 0, "fusion_lat": 0.0, "lat": 38.8887515, "bike_id": "e0768bd2a4d0c1b905ceac7d1dd12b7b", "fusion_lon": 0.0}, {"rental_uris": {"ios": "https://dc.lft.to/lastmile_qr_scan", "android": "https://dc.lft.to/lastmile_qr_scan"}, "type": "electric_scooter", "name": "10c1316dd2992267857640cf2fdf4614", "is_reserved": 0, "lon": -76.99965316666666, "is_disabled": 0, "fusion_lat": 0.0, "lat": 38.89199416666666, "bike_id": "10c1316dd2992267857640cf2fdf4614", "fusion_lon": 0.0}, {"rental_uris": {"ios": "https://dc.lft.to/lastmile_qr_scan", "android": "https://dc.lft.to/lastmile_qr_scan"}, "type": "electric_scooter", "name": "21284c189b3754a9a6441d2cdd15ebb2", "is_reserved": 0, "lon": -77.04123166666666, "is_disabled": 0, "fusion_lat": 0.0, "lat": 38.928824666666664, "bike_id": "21284c189b3754a9a6441d2cdd15ebb2", "fusion_lon": 0.0}, {"rental_uris": {"ios": "https://dc.lft.to/lastmile_qr_scan", "android": "https://dc.lft.to/lastmile_qr_scan"}, "type": "electric_scooter", "name": "e91854f67cfc6eb8710f488d88f955e6", "is_reserved": 0, "lon": -77.01765016666667, "is_disabled": 0, "fusion_lat": 0.0, "lat": 38.920447, "bike_id": "e91854f67cfc6eb8710f488d88f955e6", "fusion_lon": 0.0}, {"rental_uris": {"ios": "https://dc.lft.to/lastmile_qr_scan", "android": "https://dc.lft.to/lastmile_qr_scan"}, "type": "electric_scooter", "name": "3d7d27d92c5a67d5428e31345096809f", "is_reserved": 0, "lon": -77.05505616666666, "is_disabled": 0, "fusion_lat": 0.0, "lat": 38.928408166666664, "bike_id": "3d7d27d92c5a67d5428e31345096809f", "fusion_lon": 0.0}, {"rental_uris": {"ios": "https://dc.lft.to/lastmile_qr_scan", "android": "https://dc.lft.to/lastmile_qr_scan"}, "type": "electric_scooter", "name": "55c46ec643a2c57ee44a6fa338db27f9", "is_reserved": 0, "lon": -77.04704333333333, "is_disabled": 0, "fusion_lat": 0.0, "lat": 38.92065083333333, "bike_id": "55c46ec643a2c57ee44a6fa338db27f9", "fusion_lon": 0.0}, {"rental_uris": {"ios": "https://dc.lft.to/lastmile_qr_scan", "android": "https://dc.lft.to/lastmile_qr_scan"}, "type": "electric_scooter", "name": "a1f5f30f0b9ea062f94d56867a241add", "is_reserved": 0, "lon": -77.02829216666666, "is_disabled": 0, "fusion_lat": 0.0, "lat": 38.932429, "bike_id": "a1f5f30f0b9ea062f94d56867a241add", "fusion_lon": 0.0}, {"rental_uris": {"ios": "https://dc.lft.to/lastmile_qr_scan", "android": "https://dc.lft.to/lastmile_qr_scan"}, "type": "electric_scooter", "name": "b2c4bd2f81570d7ddd7fe5293f78d3a9", "is_reserved": 0, "lon": -77.0333845, "is_disabled": 0, "fusion_lat": 0.0, "lat": 38.915540666666665, "bike_id": "b2c4bd2f81570d7ddd7fe5293f78d3a9", "fusion_lon": 0.0}, {"rental_uris": {"ios": "https://dc.lft.to/lastmile_qr_scan", "android": "https://dc.lft.to/lastmile_qr_scan"}, "type": "electric_scooter", "name": "39baa6ea6a6eb55745b5793bc239c152", "is_reserved": 0, "lon": -77.07259233333333, "is_disabled": 0, "fusion_lat": 0.0, "lat": 38.934373, "bike_id": "39baa6ea6a6eb55745b5793bc239c152", "fusion_lon": 0.0}, {"rental_uris": {"ios": "https://dc.lft.to/lastmile_qr_scan", "android": "https://dc.lft.to/lastmile_qr_scan"}, "type": "electric_scooter", "name": "d7afc852488081e7598a63f9cf04b8cb", "is_reserved": 0, "lon": -77.05060716666667, "is_disabled": 0, "fusion_lat": 0.0, "lat": 38.92359066666667, "bike_id": "d7afc852488081e7598a63f9cf04b8cb", "fusion_lon": 0.0}, {"rental_uris": {"ios": "https://dc.lft.to/lastmile_qr_scan", "android": "https://dc.lft.to/lastmile_qr_scan"}, "type": "electric_scooter", "name": "6f5c8dd2339e600fec80b47f6fa3961e", "is_reserved": 0, "lon": -77.0716515, "is_disabled": 0, "fusion_lat": 0.0, "lat": 38.90783316666667, "bike_id": "6f5c8dd2339e600fec80b47f6fa3961e", "fusion_lon": 0.0}, {"rental_uris": {"ios": "https://dc.lft.to/lastmile_qr_scan", "android": "https://dc.lft.to/lastmile_qr_scan"}, "type": "electric_scooter", "name": "63b679726337160d81ba5f01b56c0790", "is_reserved": 0, "lon": -77.034685, "is_disabled": 0, "fusion_lat": 0.0, "lat": 38.9127305, "bike_id": "63b679726337160d81ba5f01b56c0790", "fusion_lon": 0.0}, {"rental_uris": {"ios": "https://dc.lft.to/lastmile_qr_scan", "android": "https://dc.lft.to/lastmile_qr_scan"}, "type": "electric_bike", "name": "13367b27767d5e90314b901a79f783d1", "is_reserved": 0, "lon": -77.07657333333333, "is_disabled": 0, "fusion_lat": 0.0, "lat": 38.888551666666665, "bike_id": "13367b27767d5e90314b901a79f783d1", "fusion_lon": 0.0}, {"rental_uris": {"ios": "https://dc.lft.to/lastmile_qr_scan", "android": "https://dc.lft.to/lastmile_qr_scan"}, "type": "electric_scooter", "name": "e7ed0c7ca896d76c0592d990722b539d", "is_reserved": 0, "lon": -77.02117066666666, "is_disabled": 0, "fusion_lat": 0.0, "lat": 38.91412616666667, "bike_id": "e7ed0c7ca896d76c0592d990722b539d", "fusion_lon": 0.0}, {"rental_uris": {"ios": "https://dc.lft.to/lastmile_qr_scan", "android": "https://dc.lft.to/lastmile_qr_scan"}, "type": "electric_scooter", "name": "30f40bd4cf720969dd091d0d5ff0706a", "is_reserved": 0, "lon": -77.018642, "is_disabled": 0, "fusion_lat": 0.0, "lat": 38.951559, "bike_id": "30f40bd4cf720969dd091d0d5ff0706a", "fusion_lon": 0.0}, {"rental_uris": {"ios": "https://dc.lft.to/lastmile_qr_scan", "android": "https://dc.lft.to/lastmile_qr_scan"}, "type": "electric_scooter", "name": "01d9276ec477429c5fc22973b0a39d7c", "is_reserved": 0, "lon": -77.02981966666667, "is_disabled": 0, "fusion_lat": 0.0, "lat": 38.924258333333334, "bike_id": "01d9276ec477429c5fc22973b0a39d7c", "fusion_lon": 0.0}, {"rental_uris": {"ios": "https://dc.lft.to/lastmile_qr_scan", "android": "https://dc.lft.to/lastmile_qr_scan"}, "type": "electric_scooter", "name": "a259477cb0b4f23c3e71bee7b72e57a9", "is_reserved": 0, "lon": -76.99048116666667, "is_disabled": 0, "fusion_lat": 0.0, "lat": 38.92472933333333, "bike_id": "a259477cb0b4f23c3e71bee7b72e57a9", "fusion_lon": 0.0}, {"rental_uris": {"ios": "https://dc.lft.to/lastmile_qr_scan", "android": "https://dc.lft.to/lastmile_qr_scan"}, "type": "electric_scooter", "name": "b602c5bff72dceff9ed2da69f2906da2", "is_reserved": 0, "lon": -77.04135133333334, "is_disabled": 0, "fusion_lat": 0.0, "lat": 38.91414, "bike_id": "b602c5bff72dceff9ed2da69f2906da2", "fusion_lon": 0.0}, {"rental_uris": {"ios": "https://dc.lft.to/lastmile_qr_scan", "android": "https://dc.lft.to/lastmile_qr_scan"}, "type": "electric_scooter", "name": "70dc10a2a750eae56235c3ac5ee3b22b", "is_reserved": 0, "lon": -77.028218, "is_disabled": 0, "fusion_lat": 0.0, "lat": 38.911204166666664, "bike_id": "70dc10a2a750eae56235c3ac5ee3b22b", "fusion_lon": 0.0}, {"rental_uris": {"ios": "https://dc.lft.to/lastmile_qr_scan", "android": "https://dc.lft.to/lastmile_qr_scan"}, "type": "electric_bike", "name": "36754552e4393326ba131d8f06ccb4b9", "is_reserved": 0, "lon": -77.0041285, "is_disabled": 0, "fusion_lat": 0.0, "lat": 38.98527383333333, "bike_id": "36754552e4393326ba131d8f06ccb4b9", "fusion_lon": 0.0}, {"rental_uris": {"ios": "https://dc.lft.to/lastmile_qr_scan", "android": "https://dc.lft.to/lastmile_qr_scan"}, "type": "electric_scooter", "name": "7b71c4c4a16af4229d434e7b06a51837", "is_reserved": 0, "lon": -77.01085233333333, "is_disabled": 0, "fusion_lat": 0.0, "lat": 38.91117583333333, "bike_id": "7b71c4c4a16af4229d434e7b06a51837", "fusion_lon": 0.0}, {"rental_uris": {"ios": "https://dc.lft.to/lastmile_qr_scan", "android": "https://dc.lft.to/lastmile_qr_scan"}, "type": "electric_scooter", "name": "96cd64d07ea37f122c37b8719e1b5eee", "is_reserved": 0, "lon": -77.057201, "is_disabled": 0, "fusion_lat": 0.0, "lat": 38.93355583333334, "bike_id": "96cd64d07ea37f122c37b8719e1b5eee", "fusion_lon": 0.0}, {"rental_uris": {"ios": "https://dc.lft.to/lastmile_qr_scan", "android": "https://dc.lft.to/lastmile_qr_scan"}, "type": "electric_scooter", "name": "d8c72f272ad9c06114609d1be035208d", "is_reserved": 0, "lon": -77.0437525, "is_disabled": 0, "fusion_lat": 0.0, "lat": 38.9349655, "bike_id": "d8c72f272ad9c06114609d1be035208d", "fusion_lon": 0.0}, {"rental_uris": {"ios": "https://dc.lft.to/lastmile_qr_scan", "android": "https://dc.lft.to/lastmile_qr_scan"}, "type": "electric_scooter", "name": "4e17cd6695a7114086c892533d64d9ca", "is_reserved": 0, "lon": -77.032952, "is_disabled": 0, "fusion_lat": 0.0, "lat": 38.917171333333336, "bike_id": "4e17cd6695a7114086c892533d64d9ca", "fusion_lon": 0.0}, {"rental_uris": {"ios": "https://dc.lft.to/lastmile_qr_scan", "android": "https://dc.lft.to/lastmile_qr_scan"}, "type": "electric_scooter", "name": "b34f9bd3ad9ce6b4634f2f5975b9e95f", "is_reserved": 0, "lon": -77.031283, "is_disabled": 0, "fusion_lat": 0.0, "lat": 38.896062666666666, "bike_id": "b34f9bd3ad9ce6b4634f2f5975b9e95f", "fusion_lon": 0.0}, {"rental_uris": {"ios": "https://dc.lft.to/lastmile_qr_scan", "android": "https://dc.lft.to/lastmile_qr_scan"}, "type": "electric_bike", "name": "6e5be58f3623e691154ddf7a1b3a64a2", "is_reserved": 0, "lon": -76.99912533333334, "is_disabled": 0, "fusion_lat": 0.0, "lat": 38.864497666666665, "bike_id": "6e5be58f3623e691154ddf7a1b3a64a2", "fusion_lon": 0.0}, {"rental_uris": {"ios": "https://dc.lft.to/lastmile_qr_scan", "android": "https://dc.lft.to/lastmile_qr_scan"}, "type": "electric_scooter", "name": "682f58379d1f4a984061f418f9f139fb", "is_reserved": 0, "lon": -77.049131, "is_disabled": 0, "fusion_lat": 0.0, "lat": 38.90086, "bike_id": "682f58379d1f4a984061f418f9f139fb", "fusion_lon": 0.0}, {"rental_uris": {"ios": "https://dc.lft.to/lastmile_qr_scan", "android": "https://dc.lft.to/lastmile_qr_scan"}, "type": "electric_scooter", "name": "6da180d04355770e092464172d226c00", "is_reserved": 0, "lon": -77.0589935, "is_disabled": 0, "fusion_lat": 0.0, "lat": 38.905071, "bike_id": "6da180d04355770e092464172d226c00", "fusion_lon": 0.0}, {"rental_uris": {"ios": "https://dc.lft.to/lastmile_qr_scan", "android": "https://dc.lft.to/lastmile_qr_scan"}, "type": "electric_scooter", "name": "2cf78ae1254d59988a4dbece429a5c0e", "is_reserved": 0, "lon": -77.02104066666666, "is_disabled": 0, "fusion_lat": 0.0, "lat": 38.9431455, "bike_id": "2cf78ae1254d59988a4dbece429a5c0e", "fusion_lon": 0.0}, {"rental_uris": {"ios": "https://dc.lft.to/lastmile_qr_scan", "android": "https://dc.lft.to/lastmile_qr_scan"}, "type": "electric_scooter", "name": "3300aea27cfd463bfebc000362a0887f", "is_reserved": 0, "lon": -77.02003933333333, "is_disabled": 0, "fusion_lat": 0.0, "lat": 38.881361166666665, "bike_id": "3300aea27cfd463bfebc000362a0887f", "fusion_lon": 0.0}, {"rental_uris": {"ios": "https://dc.lft.to/lastmile_qr_scan", "android": "https://dc.lft.to/lastmile_qr_scan"}, "type": "electric_scooter", "name": "6afeafd45dcc11ab6c47e23511cfb6c9", "is_reserved": 0, "lon": -77.04228366666666, "is_disabled": 0, "fusion_lat": 0.0, "lat": 38.91112916666667, "bike_id": "6afeafd45dcc11ab6c47e23511cfb6c9", "fusion_lon": 0.0}, {"rental_uris": {"ios": "https://dc.lft.to/lastmile_qr_scan", "android": "https://dc.lft.to/lastmile_qr_scan"}, "type": "electric_scooter", "name": "6d6778814eb16282d287087b94fd69b0", "is_reserved": 0, "lon": -77.00380416666667, "is_disabled": 0, "fusion_lat": 0.0, "lat": 38.879475666666664, "bike_id": "6d6778814eb16282d287087b94fd69b0", "fusion_lon": 0.0}, {"rental_uris": {"ios": "https://dc.lft.to/lastmile_qr_scan", "android": "https://dc.lft.to/lastmile_qr_scan"}, "type": "electric_scooter", "name": "9508c828122dd84103579a3a9a42fa09", "is_reserved": 0, "lon": -77.04671166666667, "is_disabled": 0, "fusion_lat": 0.0, "lat": 38.903974166666664, "bike_id": "9508c828122dd84103579a3a9a42fa09", "fusion_lon": 0.0}, {"rental_uris": {"ios": "https://dc.lft.to/lastmile_qr_scan", "android": "https://dc.lft.to/lastmile_qr_scan"}, "type": "electric_scooter", "name": "cd59734c0c1daa2619ff279d1acc868e", "is_reserved": 0, "lon": -76.99791416666666, "is_disabled": 0, "fusion_lat": 0.0, "lat": 38.876334666666665, "bike_id": "cd59734c0c1daa2619ff279d1acc868e", "fusion_lon": 0.0}, {"rental_uris": {"ios": "https://dc.lft.to/lastmile_qr_scan", "android": "https://dc.lft.to/lastmile_qr_scan"}, "type": "electric_scooter", "name": "a0ebb16b1b1dbe123b0d5e4cd8ffdc65", "is_reserved": 0, "lon": -77.07341216666667, "is_disabled": 0, "fusion_lat": 0.0, "lat": 38.96091766666667, "bike_id": "a0ebb16b1b1dbe123b0d5e4cd8ffdc65", "fusion_lon": 0.0}, {"rental_uris": {"ios": "https://dc.lft.to/lastmile_qr_scan", "android": "https://dc.lft.to/lastmile_qr_scan"}, "type": "electric_bike", "name": "dd3fca69e692404a5b6ae26d617a8a1f", "is_reserved": 0, "lon": -77.001361, "is_disabled": 0, "fusion_lat": 0.0, "lat": 38.99502533333333, "bike_id": "dd3fca69e692404a5b6ae26d617a8a1f", "fusion_lon": 0.0}, {"rental_uris": {"ios": "https://dc.lft.to/lastmile_qr_scan", "android": "https://dc.lft.to/lastmile_qr_scan"}, "type": "electric_scooter", "name": "45bffa11297f91771a2e1b2c9e9705ce", "is_reserved": 0, "lon": -77.06089066666667, "is_disabled": 0, "fusion_lat": 0.0, "lat": 38.939971, "bike_id": "45bffa11297f91771a2e1b2c9e9705ce", "fusion_lon": 0.0}, {"rental_uris": {"ios": "https://dc.lft.to/lastmile_qr_scan", "android": "https://dc.lft.to/lastmile_qr_scan"}, "type": "electric_scooter", "name": "743952e69a7eb71901c80b37982a5442", "is_reserved": 0, "lon": -77.05671933333333, "is_disabled": 0, "fusion_lat": 0.0, "lat": 38.906067, "bike_id": "743952e69a7eb71901c80b37982a5442", "fusion_lon": 0.0}, {"rental_uris": {"ios": "https://dc.lft.to/lastmile_qr_scan", "android": "https://dc.lft.to/lastmile_qr_scan"}, "type": "electric_bike", "name": "94e2fd8434284e9da0fc82a7d9a5d697", "is_reserved": 0, "lon": -76.95789816666667, "is_disabled": 0, "fusion_lat": 0.0, "lat": 38.9804895, "bike_id": "94e2fd8434284e9da0fc82a7d9a5d697", "fusion_lon": 0.0}, {"rental_uris": {"ios": "https://dc.lft.to/lastmile_qr_scan", "android": "https://dc.lft.to/lastmile_qr_scan"}, "type": "electric_scooter", "name": "c50c947c94a7a851d783c0acd11ed65a", "is_reserved": 0, "lon": -77.0238425, "is_disabled": 0, "fusion_lat": 0.0, "lat": 38.935395666666665, "bike_id": "c50c947c94a7a851d783c0acd11ed65a", "fusion_lon": 0.0}, {"rental_uris": {"ios": "https://dc.lft.to/lastmile_qr_scan", "android": "https://dc.lft.to/lastmile_qr_scan"}, "type": "electric_scooter", "name": "8edb790833a809a8800bb0421be0ad36", "is_reserved": 0, "lon": -76.975679, "is_disabled": 0, "fusion_lat": 0.0, "lat": 38.944242833333334, "bike_id": "8edb790833a809a8800bb0421be0ad36", "fusion_lon": 0.0}, {"rental_uris": {"ios": "https://dc.lft.to/lastmile_qr_scan", "android": "https://dc.lft.to/lastmile_qr_scan"}, "type": "electric_bike", "name": "e63cb5981141594d2b576f7be3550aef", "is_reserved": 0, "lon": -76.99255966666666, "is_disabled": 0, "fusion_lat": 0.0, "lat": 38.960822, "bike_id": "e63cb5981141594d2b576f7be3550aef", "fusion_lon": 0.0}, {"rental_uris": {"ios": "https://dc.lft.to/lastmile_qr_scan", "android": "https://dc.lft.to/lastmile_qr_scan"}, "type": "electric_scooter", "name": "77606c4144a18756a9d5727f95c91a4a", "is_reserved": 0, "lon": -77.05506783333334, "is_disabled": 0, "fusion_lat": 0.0, "lat": 38.928359666666665, "bike_id": "77606c4144a18756a9d5727f95c91a4a", "fusion_lon": 0.0}, {"rental_uris": {"ios": "https://dc.lft.to/lastmile_qr_scan", "android": "https://dc.lft.to/lastmile_qr_scan"}, "type": "electric_scooter", "name": "7aeacc9d0684fff5aebe361bd111ef58", "is_reserved": 0, "lon": -77.045361, "is_disabled": 0, "fusion_lat": 0.0, "lat": 38.911181, "bike_id": "7aeacc9d0684fff5aebe361bd111ef58", "fusion_lon": 0.0}, {"rental_uris": {"ios": "https://dc.lft.to/lastmile_qr_scan", "android": "https://dc.lft.to/lastmile_qr_scan"}, "type": "electric_scooter", "name": "aeafa68720bea256aa18d63e1d51feff", "is_reserved": 0, "lon": -76.98536183333333, "is_disabled": 0, "fusion_lat": 0.0, "lat": 38.858548, "bike_id": "aeafa68720bea256aa18d63e1d51feff", "fusion_lon": 0.0}, {"rental_uris": {"ios": "https://dc.lft.to/lastmile_qr_scan", "android": "https://dc.lft.to/lastmile_qr_scan"}, "type": "electric_scooter", "name": "6abb8b75b6e35434009fc48fa49628bf", "is_reserved": 0, "lon": -77.0315155, "is_disabled": 0, "fusion_lat": 0.0, "lat": 38.90590733333333, "bike_id": "6abb8b75b6e35434009fc48fa49628bf", "fusion_lon": 0.0}, {"rental_uris": {"ios": "https://dc.lft.to/lastmile_qr_scan", "android": "https://dc.lft.to/lastmile_qr_scan"}, "type": "electric_scooter", "name": "9b18f3d5c063d1ff23be96f45054540f", "is_reserved": 0, "lon": -77.023032, "is_disabled": 0, "fusion_lat": 0.0, "lat": 38.898648, "bike_id": "9b18f3d5c063d1ff23be96f45054540f", "fusion_lon": 0.0}, {"rental_uris": {"ios": "https://dc.lft.to/lastmile_qr_scan", "android": "https://dc.lft.to/lastmile_qr_scan"}, "type": "electric_bike", "name": "08df1a3d78bc46398b318b5fbd04de4b", "is_reserved": 0, "lon": -77.10074916666667, "is_disabled": 0, "fusion_lat": 0.0, "lat": 38.85739916666667, "bike_id": "08df1a3d78bc46398b318b5fbd04de4b", "fusion_lon": 0.0}, {"rental_uris": {"ios": "https://dc.lft.to/lastmile_qr_scan", "android": "https://dc.lft.to/lastmile_qr_scan"}, "type": "electric_scooter", "name": "217e0170e95ce0bc62089478adb4d9bd", "is_reserved": 0, "lon": -77.00222066666667, "is_disabled": 0, "fusion_lat": 0.0, "lat": 38.8945545, "bike_id": "217e0170e95ce0bc62089478adb4d9bd", "fusion_lon": 0.0}, {"rental_uris": {"ios": "https://dc.lft.to/lastmile_qr_scan", "android": "https://dc.lft.to/lastmile_qr_scan"}, "type": "electric_scooter", "name": "6153a603d0ec2151d73481cf5ab02aff", "is_reserved": 0, "lon": -77.03182116666666, "is_disabled": 0, "fusion_lat": 0.0, "lat": 38.92914716666667, "bike_id": "6153a603d0ec2151d73481cf5ab02aff", "fusion_lon": 0.0}, {"rental_uris": {"ios": "https://dc.lft.to/lastmile_qr_scan", "android": "https://dc.lft.to/lastmile_qr_scan"}, "type": "electric_scooter", "name": "79ac83320cd6788ada30299254bb4c80", "is_reserved": 0, "lon": -77.00273466666667, "is_disabled": 0, "fusion_lat": 0.0, "lat": 38.8876845, "bike_id": "79ac83320cd6788ada30299254bb4c80", "fusion_lon": 0.0}, {"rental_uris": {"ios": "https://dc.lft.to/lastmile_qr_scan", "android": "https://dc.lft.to/lastmile_qr_scan"}, "type": "electric_scooter", "name": "6d9df0264fb29255ab232987763edbd0", "is_reserved": 0, "lon": -77.03375066666666, "is_disabled": 0, "fusion_lat": 0.0, "lat": 38.93864716666667, "bike_id": "6d9df0264fb29255ab232987763edbd0", "fusion_lon": 0.0}, {"rental_uris": {"ios": "https://dc.lft.to/lastmile_qr_scan", "android": "https://dc.lft.to/lastmile_qr_scan"}, "type": "electric_scooter", "name": "b946501e849ef894a7e6d18e8231efe4", "is_reserved": 0, "lon": -77.04507683333334, "is_disabled": 0, "fusion_lat": 0.0, "lat": 38.916109666666664, "bike_id": "b946501e849ef894a7e6d18e8231efe4", "fusion_lon": 0.0}, {"rental_uris": {"ios": "https://dc.lft.to/lastmile_qr_scan", "android": "https://dc.lft.to/lastmile_qr_scan"}, "type": "electric_scooter", "name": "fdbb5c3b1ed524d9e046aefb3fc19dad", "is_reserved": 0, "lon": -77.00159833333333, "is_disabled": 0, "fusion_lat": 0.0, "lat": 38.873840666666666, "bike_id": "fdbb5c3b1ed524d9e046aefb3fc19dad", "fusion_lon": 0.0}, {"rental_uris": {"ios": "https://dc.lft.to/lastmile_qr_scan", "android": "https://dc.lft.to/lastmile_qr_scan"}, "type": "electric_scooter", "name": "7be89822fa21d787423e202495158dd5", "is_reserved": 0, "lon": -77.01630133333333, "is_disabled": 0, "fusion_lat": 0.0, "lat": 38.92939883333333, "bike_id": "7be89822fa21d787423e202495158dd5", "fusion_lon": 0.0}, {"rental_uris": {"ios": "https://dc.lft.to/lastmile_qr_scan", "android": "https://dc.lft.to/lastmile_qr_scan"}, "type": "electric_scooter", "name": "b3c38be65dce071cd92ca11f805701f7", "is_reserved": 0, "lon": -77.029185, "is_disabled": 0, "fusion_lat": 0.0, "lat": 38.93455266666667, "bike_id": "b3c38be65dce071cd92ca11f805701f7", "fusion_lon": 0.0}, {"rental_uris": {"ios": "https://dc.lft.to/lastmile_qr_scan", "android": "https://dc.lft.to/lastmile_qr_scan"}, "type": "electric_scooter", "name": "72aab547d30202630db638c0a069478e", "is_reserved": 0, "lon": -77.066922, "is_disabled": 0, "fusion_lat": 0.0, "lat": 38.90975483333333, "bike_id": "72aab547d30202630db638c0a069478e", "fusion_lon": 0.0}, {"rental_uris": {"ios": "https://dc.lft.to/lastmile_qr_scan", "android": "https://dc.lft.to/lastmile_qr_scan"}, "type": "electric_scooter", "name": "530a02d963b78d9878b17c5f9928792d", "is_reserved": 0, "lon": -77.03640083333333, "is_disabled": 0, "fusion_lat": 0.0, "lat": 38.90621333333333, "bike_id": "530a02d963b78d9878b17c5f9928792d", "fusion_lon": 0.0}, {"rental_uris": {"ios": "https://dc.lft.to/lastmile_qr_scan", "android": "https://dc.lft.to/lastmile_qr_scan"}, "type": "electric_scooter", "name": "4d17add2e66ba790e2e80cd5dfc472af", "is_reserved": 0, "lon": -77.03338566666666, "is_disabled": 0, "fusion_lat": 0.0, "lat": 38.897429333333335, "bike_id": "4d17add2e66ba790e2e80cd5dfc472af", "fusion_lon": 0.0}, {"rental_uris": {"ios": "https://dc.lft.to/lastmile_qr_scan", "android": "https://dc.lft.to/lastmile_qr_scan"}, "type": "electric_scooter", "name": "4cb68e03ab74423e452a7eaac6cc369d", "is_reserved": 0, "lon": -76.986899, "is_disabled": 0, "fusion_lat": 0.0, "lat": 38.913048833333335, "bike_id": "4cb68e03ab74423e452a7eaac6cc369d", "fusion_lon": 0.0}, {"rental_uris": {"ios": "https://dc.lft.to/lastmile_qr_scan", "android": "https://dc.lft.to/lastmile_qr_scan"}, "type": "electric_scooter", "name": "69f76e35ceb2241a2575c1cbd3a7af39", "is_reserved": 0, "lon": -77.0028705, "is_disabled": 0, "fusion_lat": 0.0, "lat": 38.901311166666666, "bike_id": "69f76e35ceb2241a2575c1cbd3a7af39", "fusion_lon": 0.0}, {"rental_uris": {"ios": "https://dc.lft.to/lastmile_qr_scan", "android": "https://dc.lft.to/lastmile_qr_scan"}, "type": "electric_scooter", "name": "e379ba91deb620f38c052acd92028a58", "is_reserved": 0, "lon": -77.03341933333333, "is_disabled": 0, "fusion_lat": 0.0, "lat": 38.902563, "bike_id": "e379ba91deb620f38c052acd92028a58", "fusion_lon": 0.0}, {"rental_uris": {"ios": "https://dc.lft.to/lastmile_qr_scan", "android": "https://dc.lft.to/lastmile_qr_scan"}, "type": "electric_scooter", "name": "ad7c0ad72d8d21e122f72a7fcba50c2e", "is_reserved": 0, "lon": -77.03438, "is_disabled": 0, "fusion_lat": 0.0, "lat": 38.9084355, "bike_id": "ad7c0ad72d8d21e122f72a7fcba50c2e", "fusion_lon": 0.0}, {"rental_uris": {"ios": "https://dc.lft.to/lastmile_qr_scan", "android": "https://dc.lft.to/lastmile_qr_scan"}, "type": "electric_scooter", "name": "de3457c3b3968d85627db4c31d075a01", "is_reserved": 0, "lon": -77.03373716666667, "is_disabled": 0, "fusion_lat": 0.0, "lat": 38.910423, "bike_id": "de3457c3b3968d85627db4c31d075a01", "fusion_lon": 0.0}, {"rental_uris": {"ios": "https://dc.lft.to/lastmile_qr_scan", "android": "https://dc.lft.to/lastmile_qr_scan"}, "type": "electric_bike", "name": "03974c684c5195759cf9d8c188b63164", "is_reserved": 0, "lon": -77.00212583333334, "is_disabled": 0, "fusion_lat": 0.0, "lat": 38.988495, "bike_id": "03974c684c5195759cf9d8c188b63164", "fusion_lon": 0.0}, {"rental_uris": {"ios": "https://dc.lft.to/lastmile_qr_scan", "android": "https://dc.lft.to/lastmile_qr_scan"}, "type": "electric_scooter", "name": "51650544a05588d866a86a977a907f8d", "is_reserved": 0, "lon": -77.00605366666667, "is_disabled": 0, "fusion_lat": 0.0, "lat": 38.87571333333333, "bike_id": "51650544a05588d866a86a977a907f8d", "fusion_lon": 0.0}, {"rental_uris": {"ios": "https://dc.lft.to/lastmile_qr_scan", "android": "https://dc.lft.to/lastmile_qr_scan"}, "type": "electric_scooter", "name": "7e56c6ac5450c32fcc6ffefec5bb0612", "is_reserved": 0, "lon": -77.0281715, "is_disabled": 0, "fusion_lat": 0.0, "lat": 38.95643033333333, "bike_id": "7e56c6ac5450c32fcc6ffefec5bb0612", "fusion_lon": 0.0}, {"rental_uris": {"ios": "https://dc.lft.to/lastmile_qr_scan", "android": "https://dc.lft.to/lastmile_qr_scan"}, "type": "electric_scooter", "name": "faffa049e6abc07b15eb3051c08aebb1", "is_reserved": 0, "lon": -77.02299566666667, "is_disabled": 0, "fusion_lat": 0.0, "lat": 38.961318, "bike_id": "faffa049e6abc07b15eb3051c08aebb1", "fusion_lon": 0.0}, {"rental_uris": {"ios": "https://dc.lft.to/lastmile_qr_scan", "android": "https://dc.lft.to/lastmile_qr_scan"}, "type": "electric_scooter", "name": "42bc768de1d0326db89e94eca7839164", "is_reserved": 0, "lon": -77.04429083333333, "is_disabled": 0, "fusion_lat": 0.0, "lat": 38.897386166666664, "bike_id": "42bc768de1d0326db89e94eca7839164", "fusion_lon": 0.0}, {"rental_uris": {"ios": "https://dc.lft.to/lastmile_qr_scan", "android": "https://dc.lft.to/lastmile_qr_scan"}, "type": "electric_scooter", "name": "b56b337e66d6730fe4e7a09a93528c59", "is_reserved": 0, "lon": -77.02812416666667, "is_disabled": 0, "fusion_lat": 0.0, "lat": 38.89234416666667, "bike_id": "b56b337e66d6730fe4e7a09a93528c59", "fusion_lon": 0.0}, {"rental_uris": {"ios": "https://dc.lft.to/lastmile_qr_scan", "android": "https://dc.lft.to/lastmile_qr_scan"}, "type": "electric_scooter", "name": "9d2f3b38607edc1cc6158cb49cdc9809", "is_reserved": 0, "lon": -77.03266166666667, "is_disabled": 0, "fusion_lat": 0.0, "lat": 38.9199655, "bike_id": "9d2f3b38607edc1cc6158cb49cdc9809", "fusion_lon": 0.0}, {"rental_uris": {"ios": "https://dc.lft.to/lastmile_qr_scan", "android": "https://dc.lft.to/lastmile_qr_scan"}, "type": "electric_scooter", "name": "3c838f71c17cf5d1394213d78f41e03f", "is_reserved": 0, "lon": -77.04527616666667, "is_disabled": 0, "fusion_lat": 0.0, "lat": 38.91915616666667, "bike_id": "3c838f71c17cf5d1394213d78f41e03f", "fusion_lon": 0.0}, {"rental_uris": {"ios": "https://dc.lft.to/lastmile_qr_scan", "android": "https://dc.lft.to/lastmile_qr_scan"}, "type": "electric_scooter", "name": "5dc9a8866a6884e66a8326a8256d48fa", "is_reserved": 0, "lon": -77.0326285, "is_disabled": 0, "fusion_lat": 0.0, "lat": 38.9104695, "bike_id": "5dc9a8866a6884e66a8326a8256d48fa", "fusion_lon": 0.0}, {"rental_uris": {"ios": "https://dc.lft.to/lastmile_qr_scan", "android": "https://dc.lft.to/lastmile_qr_scan"}, "type": "electric_scooter", "name": "ff39a7127351c51c987b4e0b8701e52d", "is_reserved": 0, "lon": -77.03905216666666, "is_disabled": 0, "fusion_lat": 0.0, "lat": 38.91422816666667, "bike_id": "ff39a7127351c51c987b4e0b8701e52d", "fusion_lon": 0.0}, {"rental_uris": {"ios": "https://dc.lft.to/lastmile_qr_scan", "android": "https://dc.lft.to/lastmile_qr_scan"}, "type": "electric_scooter", "name": "7ac1b460667327dd3aa666893f5043f8", "is_reserved": 0, "lon": -77.0318185, "is_disabled": 0, "fusion_lat": 0.0, "lat": 38.918243833333335, "bike_id": "7ac1b460667327dd3aa666893f5043f8", "fusion_lon": 0.0}, {"rental_uris": {"ios": "https://dc.lft.to/lastmile_qr_scan", "android": "https://dc.lft.to/lastmile_qr_scan"}, "type": "electric_scooter", "name": "da852db73557c6b7e1dcc0145c77189a", "is_reserved": 0, "lon": -77.04369883333334, "is_disabled": 0, "fusion_lat": 0.0, "lat": 38.931554166666665, "bike_id": "da852db73557c6b7e1dcc0145c77189a", "fusion_lon": 0.0}, {"rental_uris": {"ios": "https://dc.lft.to/lastmile_qr_scan", "android": "https://dc.lft.to/lastmile_qr_scan"}, "type": "electric_scooter", "name": "57400eb5746bf60a7297622f913bd537", "is_reserved": 0, "lon": -77.03634516666666, "is_disabled": 0, "fusion_lat": 0.0, "lat": 38.9259745, "bike_id": "57400eb5746bf60a7297622f913bd537", "fusion_lon": 0.0}, {"rental_uris": {"ios": "https://dc.lft.to/lastmile_qr_scan", "android": "https://dc.lft.to/lastmile_qr_scan"}, "type": "electric_scooter", "name": "05c4d7ce7d3bc2bfbe004f4f8bc5c3aa", "is_reserved": 0, "lon": -77.0563965, "is_disabled": 0, "fusion_lat": 0.0, "lat": 38.935983666666665, "bike_id": "05c4d7ce7d3bc2bfbe004f4f8bc5c3aa", "fusion_lon": 0.0}, {"rental_uris": {"ios": "https://dc.lft.to/lastmile_qr_scan", "android": "https://dc.lft.to/lastmile_qr_scan"}, "type": "electric_scooter", "name": "e0c2fdeb60a7c6b08a6cd3654cf25786", "is_reserved": 0, "lon": -77.01432866666667, "is_disabled": 0, "fusion_lat": 0.0, "lat": 38.88746483333333, "bike_id": "e0c2fdeb60a7c6b08a6cd3654cf25786", "fusion_lon": 0.0}, {"rental_uris": {"ios": "https://dc.lft.to/lastmile_qr_scan", "android": "https://dc.lft.to/lastmile_qr_scan"}, "type": "electric_scooter", "name": "8c45d4a4d849b5502c1c9275a2ad073d", "is_reserved": 0, "lon": -77.06651816666667, "is_disabled": 0, "fusion_lat": 0.0, "lat": 38.937346166666664, "bike_id": "8c45d4a4d849b5502c1c9275a2ad073d", "fusion_lon": 0.0}, {"rental_uris": {"ios": "https://dc.lft.to/lastmile_qr_scan", "android": "https://dc.lft.to/lastmile_qr_scan"}, "type": "electric_scooter", "name": "940674afc6cf62bcbd8685e05f48f282", "is_reserved": 0, "lon": -77.02814133333334, "is_disabled": 0, "fusion_lat": 0.0, "lat": 38.8923765, "bike_id": "940674afc6cf62bcbd8685e05f48f282", "fusion_lon": 0.0}, {"rental_uris": {"ios": "https://dc.lft.to/lastmile_qr_scan", "android": "https://dc.lft.to/lastmile_qr_scan"}, "type": "electric_scooter", "name": "95adf16a25e5f87963e8fe860d40df64", "is_reserved": 0, "lon": -77.00641033333333, "is_disabled": 0, "fusion_lat": 0.0, "lat": 38.8784935, "bike_id": "95adf16a25e5f87963e8fe860d40df64", "fusion_lon": 0.0}, {"rental_uris": {"ios": "https://dc.lft.to/lastmile_qr_scan", "android": "https://dc.lft.to/lastmile_qr_scan"}, "type": "electric_scooter", "name": "3a3753119f1a2a79d3b7c390009af965", "is_reserved": 0, "lon": -77.02473616666667, "is_disabled": 0, "fusion_lat": 0.0, "lat": 38.923898666666666, "bike_id": "3a3753119f1a2a79d3b7c390009af965", "fusion_lon": 0.0}, {"rental_uris": {"ios": "https://dc.lft.to/lastmile_qr_scan", "android": "https://dc.lft.to/lastmile_qr_scan"}, "type": "electric_scooter", "name": "5823d93eef0da7d9f1d0394365eef220", "is_reserved": 0, "lon": -77.071662, "is_disabled": 0, "fusion_lat": 0.0, "lat": 38.9076285, "bike_id": "5823d93eef0da7d9f1d0394365eef220", "fusion_lon": 0.0}, {"rental_uris": {"ios": "https://dc.lft.to/lastmile_qr_scan", "android": "https://dc.lft.to/lastmile_qr_scan"}, "type": "electric_scooter", "name": "9f4752d716075db8a63ffface078f63b", "is_reserved": 0, "lon": -77.015892, "is_disabled": 0, "fusion_lat": 0.0, "lat": 38.87225866666667, "bike_id": "9f4752d716075db8a63ffface078f63b", "fusion_lon": 0.0}, {"rental_uris": {"ios": "https://dc.lft.to/lastmile_qr_scan", "android": "https://dc.lft.to/lastmile_qr_scan"}, "type": "electric_scooter", "name": "f9f84c795e30a9cfba3ed0e7f0a645a4", "is_reserved": 0, "lon": -76.929499, "is_disabled": 0, "fusion_lat": 0.0, "lat": 38.9033535, "bike_id": "f9f84c795e30a9cfba3ed0e7f0a645a4", "fusion_lon": 0.0}, {"rental_uris": {"ios": "https://dc.lft.to/lastmile_qr_scan", "android": "https://dc.lft.to/lastmile_qr_scan"}, "type": "electric_bike", "name": "288723e5f7613bee9d10d3e255cfa3ac", "is_reserved": 0, "lon": -76.99861816666666, "is_disabled": 0, "fusion_lat": 0.0, "lat": 38.908964, "bike_id": "288723e5f7613bee9d10d3e255cfa3ac", "fusion_lon": 0.0}, {"rental_uris": {"ios": "https://dc.lft.to/lastmile_qr_scan", "android": "https://dc.lft.to/lastmile_qr_scan"}, "type": "electric_scooter", "name": "b95017ad3996ad23450097fda2005b45", "is_reserved": 0, "lon": -77.0269985, "is_disabled": 0, "fusion_lat": 0.0, "lat": 38.919115, "bike_id": "b95017ad3996ad23450097fda2005b45", "fusion_lon": 0.0}, {"rental_uris": {"ios": "https://dc.lft.to/lastmile_qr_scan", "android": "https://dc.lft.to/lastmile_qr_scan"}, "type": "electric_scooter", "name": "7587962ff7efa20e5773ee32306dc0ae", "is_reserved": 0, "lon": -77.05086066666667, "is_disabled": 0, "fusion_lat": 0.0, "lat": 38.903820333333336, "bike_id": "7587962ff7efa20e5773ee32306dc0ae", "fusion_lon": 0.0}, {"rental_uris": {"ios": "https://dc.lft.to/lastmile_qr_scan", "android": "https://dc.lft.to/lastmile_qr_scan"}, "type": "electric_bike", "name": "7315e2551ff0264b3f058df12655f2e7", "is_reserved": 0, "lon": -76.96307116666667, "is_disabled": 0, "fusion_lat": 0.0, "lat": 38.8969695, "bike_id": "7315e2551ff0264b3f058df12655f2e7", "fusion_lon": 0.0}, {"rental_uris": {"ios": "https://dc.lft.to/lastmile_qr_scan", "android": "https://dc.lft.to/lastmile_qr_scan"}, "type": "electric_scooter", "name": "7e6f2660507c90269ce31e5f28b9b5c8", "is_reserved": 0, "lon": -77.03852283333333, "is_disabled": 0, "fusion_lat": 0.0, "lat": 38.90951283333333, "bike_id": "7e6f2660507c90269ce31e5f28b9b5c8", "fusion_lon": 0.0}, {"rental_uris": {"ios": "https://dc.lft.to/lastmile_qr_scan", "android": "https://dc.lft.to/lastmile_qr_scan"}, "type": "electric_scooter", "name": "bbb75e02db38a6ac3163159902bffa76", "is_reserved": 0, "lon": -77.04025616666667, "is_disabled": 0, "fusion_lat": 0.0, "lat": 38.92255516666667, "bike_id": "bbb75e02db38a6ac3163159902bffa76", "fusion_lon": 0.0}, {"rental_uris": {"ios": "https://dc.lft.to/lastmile_qr_scan", "android": "https://dc.lft.to/lastmile_qr_scan"}, "type": "electric_bike", "name": "6845e900b81eb6b20aaeb6c7dbf68a95", "is_reserved": 0, "lon": -76.952527, "is_disabled": 0, "fusion_lat": 0.0, "lat": 38.906930333333335, "bike_id": "6845e900b81eb6b20aaeb6c7dbf68a95", "fusion_lon": 0.0}, {"rental_uris": {"ios": "https://dc.lft.to/lastmile_qr_scan", "android": "https://dc.lft.to/lastmile_qr_scan"}, "type": "electric_scooter", "name": "28e6c08eec2d8f5ddef2ed0eeb788a5d", "is_reserved": 0, "lon": -77.0358675, "is_disabled": 0, "fusion_lat": 0.0, "lat": 38.927935166666664, "bike_id": "28e6c08eec2d8f5ddef2ed0eeb788a5d", "fusion_lon": 0.0}, {"rental_uris": {"ios": "https://dc.lft.to/lastmile_qr_scan", "android": "https://dc.lft.to/lastmile_qr_scan"}, "type": "electric_scooter", "name": "8c24c5fd1610d10f809fb9ae59130321", "is_reserved": 0, "lon": -77.04154166666666, "is_disabled": 0, "fusion_lat": 0.0, "lat": 38.91930216666667, "bike_id": "8c24c5fd1610d10f809fb9ae59130321", "fusion_lon": 0.0}, {"rental_uris": {"ios": "https://dc.lft.to/lastmile_qr_scan", "android": "https://dc.lft.to/lastmile_qr_scan"}, "type": "electric_scooter", "name": "a2b10302d4b9db27c4ab4c76bbab3203", "is_reserved": 0, "lon": -77.0128655, "is_disabled": 0, "fusion_lat": 0.0, "lat": 38.91037566666667, "bike_id": "a2b10302d4b9db27c4ab4c76bbab3203", "fusion_lon": 0.0}, {"rental_uris": {"ios": "https://dc.lft.to/lastmile_qr_scan", "android": "https://dc.lft.to/lastmile_qr_scan"}, "type": "electric_scooter", "name": "65c1297cbc6a8dcc055361b523c4f56e", "is_reserved": 0, "lon": -77.0337725, "is_disabled": 0, "fusion_lat": 0.0, "lat": 38.901203, "bike_id": "65c1297cbc6a8dcc055361b523c4f56e", "fusion_lon": 0.0}, {"rental_uris": {"ios": "https://dc.lft.to/lastmile_qr_scan", "android": "https://dc.lft.to/lastmile_qr_scan"}, "type": "electric_bike", "name": "91129e54e1f78549221119c8b3cc4c97", "is_reserved": 0, "lon": -77.12649833333333, "is_disabled": 0, "fusion_lat": 0.0, "lat": 38.819101333333336, "bike_id": "91129e54e1f78549221119c8b3cc4c97", "fusion_lon": 0.0}, {"rental_uris": {"ios": "https://dc.lft.to/lastmile_qr_scan", "android": "https://dc.lft.to/lastmile_qr_scan"}, "type": "electric_scooter", "name": "39d8392a62f68bd44424d315197849e1", "is_reserved": 0, "lon": -77.0332725, "is_disabled": 0, "fusion_lat": 0.0, "lat": 38.90023, "bike_id": "39d8392a62f68bd44424d315197849e1", "fusion_lon": 0.0}, {"rental_uris": {"ios": "https://dc.lft.to/lastmile_qr_scan", "android": "https://dc.lft.to/lastmile_qr_scan"}, "type": "electric_scooter", "name": "12cb7d3eb6717b15fcda1f4e195f5b41", "is_reserved": 0, "lon": -77.036337, "is_disabled": 0, "fusion_lat": 0.0, "lat": 38.942041, "bike_id": "12cb7d3eb6717b15fcda1f4e195f5b41", "fusion_lon": 0.0}, {"rental_uris": {"ios": "https://dc.lft.to/lastmile_qr_scan", "android": "https://dc.lft.to/lastmile_qr_scan"}, "type": "electric_bike", "name": "1de3facc0986bce3ed62ea9e152d08d4", "is_reserved": 0, "lon": -77.07908366666666, "is_disabled": 0, "fusion_lat": 0.0, "lat": 38.839377999999996, "bike_id": "1de3facc0986bce3ed62ea9e152d08d4", "fusion_lon": 0.0}, {"rental_uris": {"ios": "https://dc.lft.to/lastmile_qr_scan", "android": "https://dc.lft.to/lastmile_qr_scan"}, "type": "electric_scooter", "name": "4d45b5395c9534ad5b4abef03c71b4fa", "is_reserved": 0, "lon": -77.032141, "is_disabled": 0, "fusion_lat": 0.0, "lat": 38.9073225, "bike_id": "4d45b5395c9534ad5b4abef03c71b4fa", "fusion_lon": 0.0}, {"rental_uris": {"ios": "https://dc.lft.to/lastmile_qr_scan", "android": "https://dc.lft.to/lastmile_qr_scan"}, "type": "electric_scooter", "name": "7ff5ebbfc8c6d723682e6b19ab31cc1e", "is_reserved": 0, "lon": -77.07221033333333, "is_disabled": 0, "fusion_lat": 0.0, "lat": 38.91972366666667, "bike_id": "7ff5ebbfc8c6d723682e6b19ab31cc1e", "fusion_lon": 0.0}, {"rental_uris": {"ios": "https://dc.lft.to/lastmile_qr_scan", "android": "https://dc.lft.to/lastmile_qr_scan"}, "type": "electric_scooter", "name": "af16936778bcd504d61091a3f6eca323", "is_reserved": 0, "lon": -77.024195, "is_disabled": 0, "fusion_lat": 0.0, "lat": 38.90418066666667, "bike_id": "af16936778bcd504d61091a3f6eca323", "fusion_lon": 0.0}, {"rental_uris": {"ios": "https://dc.lft.to/lastmile_qr_scan", "android": "https://dc.lft.to/lastmile_qr_scan"}, "type": "electric_scooter", "name": "579b6dfccbf765d82d90365fbd321462", "is_reserved": 0, "lon": -77.06371883333334, "is_disabled": 0, "fusion_lat": 0.0, "lat": 38.935618833333336, "bike_id": "579b6dfccbf765d82d90365fbd321462", "fusion_lon": 0.0}, {"rental_uris": {"ios": "https://dc.lft.to/lastmile_qr_scan", "android": "https://dc.lft.to/lastmile_qr_scan"}, "type": "electric_scooter", "name": "63f78a2b38bcfb34c3a6c236df68feab", "is_reserved": 0, "lon": -77.0380955, "is_disabled": 0, "fusion_lat": 0.0, "lat": 38.931149833333336, "bike_id": "63f78a2b38bcfb34c3a6c236df68feab", "fusion_lon": 0.0}, {"rental_uris": {"ios": "https://dc.lft.to/lastmile_qr_scan", "android": "https://dc.lft.to/lastmile_qr_scan"}, "type": "electric_scooter", "name": "8f2e113898735025a5520cf2745e4b50", "is_reserved": 0, "lon": -77.03996366666667, "is_disabled": 0, "fusion_lat": 0.0, "lat": 38.914180333333334, "bike_id": "8f2e113898735025a5520cf2745e4b50", "fusion_lon": 0.0}, {"rental_uris": {"ios": "https://dc.lft.to/lastmile_qr_scan", "android": "https://dc.lft.to/lastmile_qr_scan"}, "type": "electric_scooter", "name": "8d8e72b6b7602558ec1b1d9f9405d4fb", "is_reserved": 0, "lon": -77.02180666666666, "is_disabled": 0, "fusion_lat": 0.0, "lat": 38.91809883333333, "bike_id": "8d8e72b6b7602558ec1b1d9f9405d4fb", "fusion_lon": 0.0}, {"rental_uris": {"ios": "https://dc.lft.to/lastmile_qr_scan", "android": "https://dc.lft.to/lastmile_qr_scan"}, "type": "electric_scooter", "name": "897ce4de61e1066884a6731f2c06f348", "is_reserved": 0, "lon": -77.019987, "is_disabled": 0, "fusion_lat": 0.0, "lat": 38.93057666666667, "bike_id": "897ce4de61e1066884a6731f2c06f348", "fusion_lon": 0.0}, {"rental_uris": {"ios": "https://dc.lft.to/lastmile_qr_scan", "android": "https://dc.lft.to/lastmile_qr_scan"}, "type": "electric_scooter", "name": "54da713fd52d31d4286b4ea5b3160b2f", "is_reserved": 0, "lon": -77.0235535, "is_disabled": 0, "fusion_lat": 0.0, "lat": 38.945218833333335, "bike_id": "54da713fd52d31d4286b4ea5b3160b2f", "fusion_lon": 0.0}, {"rental_uris": {"ios": "https://dc.lft.to/lastmile_qr_scan", "android": "https://dc.lft.to/lastmile_qr_scan"}, "type": "electric_scooter", "name": "8b1071c10c28b38c8a87bfd6a5b7c660", "is_reserved": 0, "lon": -77.04335683333333, "is_disabled": 0, "fusion_lat": 0.0, "lat": 38.89654616666667, "bike_id": "8b1071c10c28b38c8a87bfd6a5b7c660", "fusion_lon": 0.0}, {"rental_uris": {"ios": "https://dc.lft.to/lastmile_qr_scan", "android": "https://dc.lft.to/lastmile_qr_scan"}, "type": "electric_scooter", "name": "f72f12b2c8add851b67136bf6e578e51", "is_reserved": 0, "lon": -77.02408233333334, "is_disabled": 0, "fusion_lat": 0.0, "lat": 38.927550833333335, "bike_id": "f72f12b2c8add851b67136bf6e578e51", "fusion_lon": 0.0}, {"rental_uris": {"ios": "https://dc.lft.to/lastmile_qr_scan", "android": "https://dc.lft.to/lastmile_qr_scan"}, "type": "electric_scooter", "name": "f5199349f1ee887a78d83e3b38b46c7b", "is_reserved": 0, "lon": -77.03131966666666, "is_disabled": 0, "fusion_lat": 0.0, "lat": 38.923793833333335, "bike_id": "f5199349f1ee887a78d83e3b38b46c7b", "fusion_lon": 0.0}, {"rental_uris": {"ios": "https://dc.lft.to/lastmile_qr_scan", "android": "https://dc.lft.to/lastmile_qr_scan"}, "type": "electric_scooter", "name": "361036e77ca939486fced2b8341b2106", "is_reserved": 0, "lon": -77.07404233333334, "is_disabled": 0, "fusion_lat": 0.0, "lat": 38.93748866666667, "bike_id": "361036e77ca939486fced2b8341b2106", "fusion_lon": 0.0}, {"rental_uris": {"ios": "https://dc.lft.to/lastmile_qr_scan", "android": "https://dc.lft.to/lastmile_qr_scan"}, "type": "electric_scooter", "name": "5664deac0278b4282c60a7ad128b8742", "is_reserved": 0, "lon": -76.9938955, "is_disabled": 0, "fusion_lat": 0.0, "lat": 38.91018566666666, "bike_id": "5664deac0278b4282c60a7ad128b8742", "fusion_lon": 0.0}, {"rental_uris": {"ios": "https://dc.lft.to/lastmile_qr_scan", "android": "https://dc.lft.to/lastmile_qr_scan"}, "type": "electric_bike", "name": "db2e962b5a4f3f0437af2458148ce95e", "is_reserved": 0, "lon": -76.9506225, "is_disabled": 0, "fusion_lat": 0.0, "lat": 39.08511633333333, "bike_id": "db2e962b5a4f3f0437af2458148ce95e", "fusion_lon": 0.0}, {"rental_uris": {"ios": "https://dc.lft.to/lastmile_qr_scan", "android": "https://dc.lft.to/lastmile_qr_scan"}, "type": "electric_scooter", "name": "45f64613b73ed5626fc8513d897df06c", "is_reserved": 0, "lon": -76.99624933333334, "is_disabled": 0, "fusion_lat": 0.0, "lat": 38.90450333333333, "bike_id": "45f64613b73ed5626fc8513d897df06c", "fusion_lon": 0.0}, {"rental_uris": {"ios": "https://dc.lft.to/lastmile_qr_scan", "android": "https://dc.lft.to/lastmile_qr_scan"}, "type": "electric_scooter", "name": "fca7e9260ac76e0b19e9b305b694c74d", "is_reserved": 0, "lon": -76.98184316666666, "is_disabled": 0, "fusion_lat": 0.0, "lat": 38.90578766666667, "bike_id": "fca7e9260ac76e0b19e9b305b694c74d", "fusion_lon": 0.0}, {"rental_uris": {"ios": "https://dc.lft.to/lastmile_qr_scan", "android": "https://dc.lft.to/lastmile_qr_scan"}, "type": "electric_scooter", "name": "7bf720a01037232eed209710e20659a1", "is_reserved": 0, "lon": -77.05006916666666, "is_disabled": 0, "fusion_lat": 0.0, "lat": 38.89785633333334, "bike_id": "7bf720a01037232eed209710e20659a1", "fusion_lon": 0.0}, {"rental_uris": {"ios": "https://dc.lft.to/lastmile_qr_scan", "android": "https://dc.lft.to/lastmile_qr_scan"}, "type": "electric_bike", "name": "d2780ef5c0dada500a1e458d24ad731e", "is_reserved": 0, "lon": -77.11319333333333, "is_disabled": 0, "fusion_lat": 0.0, "lat": 38.855927333333334, "bike_id": "d2780ef5c0dada500a1e458d24ad731e", "fusion_lon": 0.0}, {"rental_uris": {"ios": "https://dc.lft.to/lastmile_qr_scan", "android": "https://dc.lft.to/lastmile_qr_scan"}, "type": "electric_scooter", "name": "fef7f6c7902553023af8499c3a07bbd7", "is_reserved": 0, "lon": -77.03973833333333, "is_disabled": 0, "fusion_lat": 0.0, "lat": 38.91359516666667, "bike_id": "fef7f6c7902553023af8499c3a07bbd7", "fusion_lon": 0.0}, {"rental_uris": {"ios": "https://dc.lft.to/lastmile_qr_scan", "android": "https://dc.lft.to/lastmile_qr_scan"}, "type": "electric_scooter", "name": "2f3bae72212d4b2760c4520954937170", "is_reserved": 0, "lon": -77.0326815, "is_disabled": 0, "fusion_lat": 0.0, "lat": 38.93888066666667, "bike_id": "2f3bae72212d4b2760c4520954937170", "fusion_lon": 0.0}, {"rental_uris": {"ios": "https://dc.lft.to/lastmile_qr_scan", "android": "https://dc.lft.to/lastmile_qr_scan"}, "type": "electric_scooter", "name": "a1ebf063425717edc7ad4e98a82dcbf0", "is_reserved": 0, "lon": -76.98036216666667, "is_disabled": 0, "fusion_lat": 0.0, "lat": 38.91680866666667, "bike_id": "a1ebf063425717edc7ad4e98a82dcbf0", "fusion_lon": 0.0}, {"rental_uris": {"ios": "https://dc.lft.to/lastmile_qr_scan", "android": "https://dc.lft.to/lastmile_qr_scan"}, "type": "electric_scooter", "name": "57d24dede82f766ceaf7ec7f5b62fd24", "is_reserved": 0, "lon": -77.04379583333333, "is_disabled": 0, "fusion_lat": 0.0, "lat": 38.9235985, "bike_id": "57d24dede82f766ceaf7ec7f5b62fd24", "fusion_lon": 0.0}, {"rental_uris": {"ios": "https://dc.lft.to/lastmile_qr_scan", "android": "https://dc.lft.to/lastmile_qr_scan"},