{"data": {"bikes": [{"lon": -77.03519216666666, "bike_id": "002b77daaeef712577ec34075bd82a47", "lat": 38.923353166666665, "fusion_lon": 0.0, "fusion_lat": 0.0, "type": "electric_scooter", "name": "002b77daaeef712577ec34075bd82a47", "is_disabled": 0, "rental_uris": {"ios": "https://dc.lft.to/lastmile_qr_scan", "android": "https://dc.lft.to/lastmile_qr_scan"}, "is_reserved": 0}, {"lon": -77.01200666666666, "bike_id": "02617b6e481b799a2a713d775c0765a4", "lat": 38.919154, "fusion_lon": 0.0, "fusion_lat": 0.0, "type": "electric_scooter", "name": "02617b6e481b799a2a713d775c0765a4", "is_disabled": 0, "rental_uris": {"ios": "https://dc.lft.to/lastmile_qr_scan", "android": "https://dc.lft.to/lastmile_qr_scan"}, "is_reserved": 0}, {"lon": -77.022245, "bike_id": "7246f0eb31f2c1b66e984ae4457d76da", "lat": 38.900548, "fusion_lon": 0.0, "fusion_lat": 0.0, "type": "electric_scooter", "name": "7246f0eb31f2c1b66e984ae4457d76da", "is_disabled": 0, "rental_uris": {"ios": "https://dc.lft.to/lastmile_qr_scan", "android": "https://dc.lft.to/lastmile_qr_scan"}, "is_reserved": 0}, {"lon": -77.01134483333334, "bike_id": "669a1755794ac055aecd52f1728b7eea", "lat": 38.885274333333335, "fusion_lon": 0.0, "fusion_lat": 0.0, "type": "electric_scooter", "name": "669a1755794ac055aecd52f1728b7eea", "is_disabled": 0, "rental_uris": {"ios": "https://dc.lft.to/lastmile_qr_scan", "android": "https://dc.lft.to/lastmile_qr_scan"}, "is_reserved": 0}, {"lon": -77.02413583333333, "bike_id": "3dfc044a2fe81e5fd944e03a8293a222", "lat": 38.90404433333333, "fusion_lon": 0.0, "fusion_lat": 0.0, "type": "electric_scooter", "name": "3dfc044a2fe81e5fd944e03a8293a222", "is_disabled": 0, "rental_uris": {"ios": "https://dc.lft.to/lastmile_qr_scan", "android": "https://dc.lft.to/lastmile_qr_scan"}, "is_reserved": 0}, {"lon": -77.07418883333334, "bike_id": "0244b4c3cfd9e14822eb62af86316149", "lat": 38.962765166666664, "fusion_lon": 0.0, "fusion_lat": 0.0, "type": "electric_scooter", "name": "0244b4c3cfd9e14822eb62af86316149", "is_disabled": 0, "rental_uris": {"ios": "https://dc.lft.to/lastmile_qr_scan", "android": "https://dc.lft.to/lastmile_qr_scan"}, "is_reserved": 0}, {"lon": -77.04776133333333, "bike_id": "2e2c263e6ebd43f3a4076e3750039c3c", "lat": 38.91226783333333, "fusion_lon": 0.0, "fusion_lat": 0.0, "type": "electric_scooter", "name": "2e2c263e6ebd43f3a4076e3750039c3c", "is_disabled": 0, "rental_uris": {"ios": "https://dc.lft.to/lastmile_qr_scan", "android": "https://dc.lft.to/lastmile_qr_scan"}, "is_reserved": 0}, {"lon": -77.02585266666667, "bike_id": "5d01781bc85b10cfce9a9151335c87ea", "lat": 38.892276333333335, "fusion_lon": 0.0, "fusion_lat": 0.0, "type": "electric_scooter", "name": "5d01781bc85b10cfce9a9151335c87ea", "is_disabled": 0, "rental_uris": {"ios": "https://dc.lft.to/lastmile_qr_scan", "android": "https://dc.lft.to/lastmile_qr_scan"}, "is_reserved": 0}, {"lon": -77.027283, "bike_id": "c8a9bec8094b0b6a56b6bb9ca2fc6d9d", "lat": 38.943844666666664, "fusion_lon": 0.0, "fusion_lat": 0.0, "type": "electric_scooter", "name": "c8a9bec8094b0b6a56b6bb9ca2fc6d9d", "is_disabled": 0, "rental_uris": {"ios": "https://dc.lft.to/lastmile_qr_scan", "android": "https://dc.lft.to/lastmile_qr_scan"}, "is_reserved": 0}, {"lon": -77.041235, "bike_id": "39c09a4da62ef5d2aea8a9afd7d93474", "lat": 38.90601933333333, "fusion_lon": 0.0, "fusion_lat": 0.0, "type": "electric_scooter", "name": "39c09a4da62ef5d2aea8a9afd7d93474", "is_disabled": 0, "rental_uris": {"ios": "https://dc.lft.to/lastmile_qr_scan", "android": "https://dc.lft.to/lastmile_qr_scan"}, "is_reserved": 0}, {"lon": -77.0585895, "bike_id": "b381845cf47e3bd02adad10315ed2e24", "lat": 38.93607316666667, "fusion_lon": 0.0, "fusion_lat": 0.0, "type": "electric_scooter", "name": "b381845cf47e3bd02adad10315ed2e24", "is_disabled": 0, "rental_uris": {"ios": "https://dc.lft.to/lastmile_qr_scan", "android": "https://dc.lft.to/lastmile_qr_scan"}, "is_reserved": 0}, {"lon": -76.97327233333333, "bike_id": "ae19ca73aee9a7c6d4c0cd733d92f3e5", "lat": 38.904115166666664, "fusion_lon": 0.0, "fusion_lat": 0.0, "type": "electric_scooter", "name": "ae19ca73aee9a7c6d4c0cd733d92f3e5", "is_disabled": 0, "rental_uris": {"ios": "https://dc.lft.to/lastmile_qr_scan", "android": "https://dc.lft.to/lastmile_qr_scan"}, "is_reserved": 0}, {"lon": -77.02422333333334, "bike_id": "57ce02c085871361a2fe3f84a6983c8b", "lat": 38.926605333333335, "fusion_lon": 0.0, "fusion_lat": 0.0, "type": "electric_scooter", "name": "57ce02c085871361a2fe3f84a6983c8b", "is_disabled": 0, "rental_uris": {"ios": "https://dc.lft.to/lastmile_qr_scan", "android": "https://dc.lft.to/lastmile_qr_scan"}, "is_reserved": 0}, {"lon": -77.03649683333333, "bike_id": "0210c69503f959af75c23ffd9dca3cb2", "lat": 38.917558166666666, "fusion_lon": 0.0, "fusion_lat": 0.0, "type": "electric_scooter", "name": "0210c69503f959af75c23ffd9dca3cb2", "is_disabled": 0, "rental_uris": {"ios": "https://dc.lft.to/lastmile_qr_scan", "android": "https://dc.lft.to/lastmile_qr_scan"}, "is_reserved": 0}, {"lon": -77.04586033333334, "bike_id": "475995a3777582ec175b49050818d8b8", "lat": 38.91917633333333, "fusion_lon": 0.0, "fusion_lat": 0.0, "type": "electric_scooter", "name": "475995a3777582ec175b49050818d8b8", "is_disabled": 0, "rental_uris": {"ios": "https://dc.lft.to/lastmile_qr_scan", "android": "https://dc.lft.to/lastmile_qr_scan"}, "is_reserved": 0}, {"lon": -77.10597416666667, "bike_id": "536269ddd98b0598731651dfe6b77809", "lat": 38.903842833333336, "fusion_lon": 0.0, "fusion_lat": 0.0, "type": "electric_bike", "name": "536269ddd98b0598731651dfe6b77809", "is_disabled": 0, "rental_uris": {"ios": "https://dc.lft.to/lastmile_qr_scan", "android": "https://dc.lft.to/lastmile_qr_scan"}, "is_reserved": 0}, {"lon": -77.03450583333333, "bike_id": "eedf1c25a55bcd2bc160a7368d9ddaa0", "lat": 38.9072525, "fusion_lon": 0.0, "fusion_lat": 0.0, "type": "electric_scooter", "name": "eedf1c25a55bcd2bc160a7368d9ddaa0", "is_disabled": 0, "rental_uris": {"ios": "https://dc.lft.to/lastmile_qr_scan", "android": "https://dc.lft.to/lastmile_qr_scan"}, "is_reserved": 0}, {"lon": -77.05316133333334, "bike_id": "53fb004f0faa0ae88307abeb3ebf5680", "lat": 38.90150283333333, "fusion_lon": 0.0, "fusion_lat": 0.0, "type": "electric_scooter", "name": "53fb004f0faa0ae88307abeb3ebf5680", "is_disabled": 0, "rental_uris": {"ios": "https://dc.lft.to/lastmile_qr_scan", "android": "https://dc.lft.to/lastmile_qr_scan"}, "is_reserved": 0}, {"lon": -76.98091083333334, "bike_id": "7dc0438fa3d6694a77f29f2cf6a67feb", "lat": 38.881367, "fusion_lon": 0.0, "fusion_lat": 0.0, "type": "electric_bike", "name": "7dc0438fa3d6694a77f29f2cf6a67feb", "is_disabled": 0, "rental_uris": {"ios": "https://dc.lft.to/lastmile_qr_scan", "android": "https://dc.lft.to/lastmile_qr_scan"}, "is_reserved": 0}, {"lon": -76.931764, "bike_id": "5f89f2791e52722c7280a892cefe54dc", "lat": 38.898853333333335, "fusion_lon": 0.0, "fusion_lat": 0.0, "type": "electric_scooter", "name": "5f89f2791e52722c7280a892cefe54dc", "is_disabled": 0, "rental_uris": {"ios": "https://dc.lft.to/lastmile_qr_scan", "android": "https://dc.lft.to/lastmile_qr_scan"}, "is_reserved": 0}, {"lon": -76.949559, "bike_id": "b6ed185d46191e308d11512e83d905b6", "lat": 38.8944425, "fusion_lon": 0.0, "fusion_lat": 0.0, "type": "electric_scooter", "name": "b6ed185d46191e308d11512e83d905b6", "is_disabled": 0, "rental_uris": {"ios": "https://dc.lft.to/lastmile_qr_scan", "android": "https://dc.lft.to/lastmile_qr_scan"}, "is_reserved": 0}, {"lon": -76.99471833333334, "bike_id": "2d343695c38864b8cef2029f0c789ecc", "lat": 38.8622, "fusion_lon": 0.0, "fusion_lat": 0.0, "type": "electric_scooter", "name": "2d343695c38864b8cef2029f0c789ecc", "is_disabled": 0, "rental_uris": {"ios": "https://dc.lft.to/lastmile_qr_scan", "android": "https://dc.lft.to/lastmile_qr_scan"}, "is_reserved": 0}, {"lon": -77.0348, "bike_id": "038c6a9dea47e3f5b22471dae077c5ed", "lat": 38.928767, "fusion_lon": 0.0, "fusion_lat": 0.0, "type": "electric_scooter", "name": "038c6a9dea47e3f5b22471dae077c5ed", "is_disabled": 0, "rental_uris": {"ios": "https://dc.lft.to/lastmile_qr_scan", "android": "https://dc.lft.to/lastmile_qr_scan"}, "is_reserved": 0}, {"lon": -77.00550483333333, "bike_id": "ba44f397a06b34b29c08610dff47f466", "lat": 38.87864966666667, "fusion_lon": 0.0, "fusion_lat": 0.0, "type": "electric_scooter", "name": "ba44f397a06b34b29c08610dff47f466", "is_disabled": 0, "rental_uris": {"ios": "https://dc.lft.to/lastmile_qr_scan", "android": "https://dc.lft.to/lastmile_qr_scan"}, "is_reserved": 0}, {"lon": -77.01722883333333, "bike_id": "51096261b2ccb60ef9f328bdee954f2a", "lat": 38.91506016666666, "fusion_lon": 0.0, "fusion_lat": 0.0, "type": "electric_scooter", "name": "51096261b2ccb60ef9f328bdee954f2a", "is_disabled": 0, "rental_uris": {"ios": "https://dc.lft.to/lastmile_qr_scan", "android": "https://dc.lft.to/lastmile_qr_scan"}, "is_reserved": 0}, {"lon": -77.0471645, "bike_id": "26d502aa300af4d00e9840a31dd2a1b7", "lat": 38.922323666666664, "fusion_lon": 0.0, "fusion_lat": 0.0, "type": "electric_scooter", "name": "26d502aa300af4d00e9840a31dd2a1b7", "is_disabled": 0, "rental_uris": {"ios": "https://dc.lft.to/lastmile_qr_scan", "android": "https://dc.lft.to/lastmile_qr_scan"}, "is_reserved": 0}, {"lon": -77.00509316666667, "bike_id": "5cf35a5c43dfbee414c182aa2394cdbf", "lat": 38.8791965, "fusion_lon": 0.0, "fusion_lat": 0.0, "type": "electric_scooter", "name": "5cf35a5c43dfbee414c182aa2394cdbf", "is_disabled": 0, "rental_uris": {"ios": "https://dc.lft.to/lastmile_qr_scan", "android": "https://dc.lft.to/lastmile_qr_scan"}, "is_reserved": 0}, {"lon": -77.02123716666667, "bike_id": "b42f0cc3ff12e4d50cccacf506ab255a", "lat": 38.91599716666666, "fusion_lon": 0.0, "fusion_lat": 0.0, "type": "electric_scooter", "name": "b42f0cc3ff12e4d50cccacf506ab255a", "is_disabled": 0, "rental_uris": {"ios": "https://dc.lft.to/lastmile_qr_scan", "android": "https://dc.lft.to/lastmile_qr_scan"}, "is_reserved": 0}, {"lon": -77.03325783333334, "bike_id": "2a182587618243e9386f6c7cb99e6d5f", "lat": 38.94721083333334, "fusion_lon": 0.0, "fusion_lat": 0.0, "type": "electric_scooter", "name": "2a182587618243e9386f6c7cb99e6d5f", "is_disabled": 0, "rental_uris": {"ios": "https://dc.lft.to/lastmile_qr_scan", "android": "https://dc.lft.to/lastmile_qr_scan"}, "is_reserved": 0}, {"lon": -76.95193866666666, "bike_id": "06faaa774f1c04811db16fce79242d30", "lat": 38.90006066666667, "fusion_lon": 0.0, "fusion_lat": 0.0, "type": "electric_scooter", "name": "06faaa774f1c04811db16fce79242d30", "is_disabled": 0, "rental_uris": {"ios": "https://dc.lft.to/lastmile_qr_scan", "android": "https://dc.lft.to/lastmile_qr_scan"}, "is_reserved": 0}, {"lon": -77.060277, "bike_id": "c9f2d6c49d4268950afe9f35b73b20cd", "lat": 38.9384655, "fusion_lon": 0.0, "fusion_lat": 0.0, "type": "electric_scooter", "name": "c9f2d6c49d4268950afe9f35b73b20cd", "is_disabled": 0, "rental_uris": {"ios": "https://dc.lft.to/lastmile_qr_scan", "android": "https://dc.lft.to/lastmile_qr_scan"}, "is_reserved": 0}, {"lon": -77.02377966666667, "bike_id": "7dd4b48521167a543104165a9ce56b1c", "lat": 38.9183435, "fusion_lon": 0.0, "fusion_lat": 0.0, "type": "electric_scooter", "name": "7dd4b48521167a543104165a9ce56b1c", "is_disabled": 0, "rental_uris": {"ios": "https://dc.lft.to/lastmile_qr_scan", "android": "https://dc.lft.to/lastmile_qr_scan"}, "is_reserved": 0}, {"lon": -77.0418405, "bike_id": "abef4fd016486b55808ab9817f73a884", "lat": 38.926279, "fusion_lon": 0.0, "fusion_lat": 0.0, "type": "electric_scooter", "name": "abef4fd016486b55808ab9817f73a884", "is_disabled": 0, "rental_uris": {"ios": "https://dc.lft.to/lastmile_qr_scan", "android": "https://dc.lft.to/lastmile_qr_scan"}, "is_reserved": 0}, {"lon": -76.93361066666667, "bike_id": "297b901e172c287192e3b7de724a33bc", "lat": 38.89913083333333, "fusion_lon": 0.0, "fusion_lat": 0.0, "type": "electric_scooter", "name": "297b901e172c287192e3b7de724a33bc", "is_disabled": 0, "rental_uris": {"ios": "https://dc.lft.to/lastmile_qr_scan", "android": "https://dc.lft.to/lastmile_qr_scan"}, "is_reserved": 0}, {"lon": -77.04104383333333, "bike_id": "6d1ef4b37857d3cf987f45e090fcd095", "lat": 38.9185655, "fusion_lon": 0.0, "fusion_lat": 0.0, "type": "electric_scooter", "name": "6d1ef4b37857d3cf987f45e090fcd095", "is_disabled": 0, "rental_uris": {"ios": "https://dc.lft.to/lastmile_qr_scan", "android": "https://dc.lft.to/lastmile_qr_scan"}, "is_reserved": 0}, {"lon": -77.04832116666667, "bike_id": "6fc3b1d51ab7452dc652ae21cf178816", "lat": 38.918859833333336, "fusion_lon": 0.0, "fusion_lat": 0.0, "type": "electric_scooter", "name": "6fc3b1d51ab7452dc652ae21cf178816", "is_disabled": 0, "rental_uris": {"ios": "https://dc.lft.to/lastmile_qr_scan", "android": "https://dc.lft.to/lastmile_qr_scan"}, "is_reserved": 0}, {"lon": -77.04119066666667, "bike_id": "1f3a316d92b7113441ae213879f580a5", "lat": 38.925475166666665, "fusion_lon": 0.0, "fusion_lat": 0.0, "type": "electric_scooter", "name": "1f3a316d92b7113441ae213879f580a5", "is_disabled": 0, "rental_uris": {"ios": "https://dc.lft.to/lastmile_qr_scan", "android": "https://dc.lft.to/lastmile_qr_scan"}, "is_reserved": 0}, {"lon": -77.02695083333333, "bike_id": "7d99000e5e75a5e17a7b0713276114f2", "lat": 38.90458666666667, "fusion_lon": 0.0, "fusion_lat": 0.0, "type": "electric_scooter", "name": "7d99000e5e75a5e17a7b0713276114f2", "is_disabled": 0, "rental_uris": {"ios": "https://dc.lft.to/lastmile_qr_scan", "android": "https://dc.lft.to/lastmile_qr_scan"}, "is_reserved": 0}, {"lon": -76.99840133333333, "bike_id": "a14cffd6677f3a66248e3576328374f8", "lat": 38.902403666666665, "fusion_lon": 0.0, "fusion_lat": 0.0, "type": "electric_scooter", "name": "a14cffd6677f3a66248e3576328374f8", "is_disabled": 0, "rental_uris": {"ios": "https://dc.lft.to/lastmile_qr_scan", "android": "https://dc.lft.to/lastmile_qr_scan"}, "is_reserved": 0}, {"lon": -76.93541733333333, "bike_id": "cd504b237f3a438ed645a30810dd5a7e", "lat": 38.955550833333334, "fusion_lon": 0.0, "fusion_lat": 0.0, "type": "electric_bike", "name": "cd504b237f3a438ed645a30810dd5a7e", "is_disabled": 0, "rental_uris": {"ios": "https://dc.lft.to/lastmile_qr_scan", "android": "https://dc.lft.to/lastmile_qr_scan"}, "is_reserved": 0}, {"lon": -76.98560033333334, "bike_id": "150143be612cf26ba8dc62d74a19d7b4", "lat": 38.910358333333335, "fusion_lon": 0.0, "fusion_lat": 0.0, "type": "electric_scooter", "name": "150143be612cf26ba8dc62d74a19d7b4", "is_disabled": 0, "rental_uris": {"ios": "https://dc.lft.to/lastmile_qr_scan", "android": "https://dc.lft.to/lastmile_qr_scan"}, "is_reserved": 0}, {"lon": -76.99579266666667, "bike_id": "2bdeffae675c2fc91135372442a2dcd7", "lat": 38.852948166666664, "fusion_lon": 0.0, "fusion_lat": 0.0, "type": "electric_scooter", "name": "2bdeffae675c2fc91135372442a2dcd7", "is_disabled": 0, "rental_uris": {"ios": "https://dc.lft.to/lastmile_qr_scan", "android": "https://dc.lft.to/lastmile_qr_scan"}, "is_reserved": 0}, {"lon": -77.03807583333334, "bike_id": "cf7e4c449d8c915d262019b996028289", "lat": 38.920692333333335, "fusion_lon": 0.0, "fusion_lat": 0.0, "type": "electric_scooter", "name": "cf7e4c449d8c915d262019b996028289", "is_disabled": 0, "rental_uris": {"ios": "https://dc.lft.to/lastmile_qr_scan", "android": "https://dc.lft.to/lastmile_qr_scan"}, "is_reserved": 0}, {"lon": -77.0447275, "bike_id": "06131ad39dd2de60e11365cd9ee730d9", "lat": 38.9146525, "fusion_lon": 0.0, "fusion_lat": 0.0, "type": "electric_scooter", "name": "06131ad39dd2de60e11365cd9ee730d9", "is_disabled": 0, "rental_uris": {"ios": "https://dc.lft.to/lastmile_qr_scan", "android": "https://dc.lft.to/lastmile_qr_scan"}, "is_reserved": 0}, {"lon": -77.050317, "bike_id": "cf90a44e363e31a79f9c2d9b6b12e7b1", "lat": 38.923879666666664, "fusion_lon": 0.0, "fusion_lat": 0.0, "type": "electric_scooter", "name": "cf90a44e363e31a79f9c2d9b6b12e7b1", "is_disabled": 0, "rental_uris": {"ios": "https://dc.lft.to/lastmile_qr_scan", "android": "https://dc.lft.to/lastmile_qr_scan"}, "is_reserved": 0}, {"lon": -77.08049483333333, "bike_id": "74f2476a4f65cedfcd58347b64a6b4f2", "lat": 38.9206505, "fusion_lon": 0.0, "fusion_lat": 0.0, "type": "electric_bike", "name": "74f2476a4f65cedfcd58347b64a6b4f2", "is_disabled": 0, "rental_uris": {"ios": "https://dc.lft.to/lastmile_qr_scan", "android": "https://dc.lft.to/lastmile_qr_scan"}, "is_reserved": 0}, {"lon": -77.04123633333333, "bike_id": "df1ee1c215e36bcf30431749d1e8e257", "lat": 38.9441085, "fusion_lon": 0.0, "fusion_lat": 0.0, "type": "electric_bike", "name": "df1ee1c215e36bcf30431749d1e8e257", "is_disabled": 0, "rental_uris": {"ios": "https://dc.lft.to/lastmile_qr_scan", "android": "https://dc.lft.to/lastmile_qr_scan"}, "is_reserved": 0}, {"lon": -77.05204416666666, "bike_id": "ee2614195bd5e5faf2bcd2b4b992e9b1", "lat": 38.92484783333333, "fusion_lon": 0.0, "fusion_lat": 0.0, "type": "electric_scooter", "name": "ee2614195bd5e5faf2bcd2b4b992e9b1", "is_disabled": 0, "rental_uris": {"ios": "https://dc.lft.to/lastmile_qr_scan", "android": "https://dc.lft.to/lastmile_qr_scan"}, "is_reserved": 0}, {"lon": -77.02782316666666, "bike_id": "483f46e7666c703e076f85696c7bfa6f", "lat": 38.927698166666666, "fusion_lon": 0.0, "fusion_lat": 0.0, "type": "electric_scooter", "name": "483f46e7666c703e076f85696c7bfa6f", "is_disabled": 0, "rental_uris": {"ios": "https://dc.lft.to/lastmile_qr_scan", "android": "https://dc.lft.to/lastmile_qr_scan"}, "is_reserved": 0}, {"lon": -77.025115, "bike_id": "6d8f7589b6185acd4da527460b1d2e6e", "lat": 38.934091, "fusion_lon": 0.0, "fusion_lat": 0.0, "type": "electric_bike", "name": "6d8f7589b6185acd4da527460b1d2e6e", "is_disabled": 0, "rental_uris": {"ios": "https://dc.lft.to/lastmile_qr_scan", "android": "https://dc.lft.to/lastmile_qr_scan"}, "is_reserved": 0}, {"lon": -76.92528133333333, "bike_id": "96bc6753bbbce33c445e7dbad62a6ea0", "lat": 38.8834245, "fusion_lon": 0.0, "fusion_lat": 0.0, "type": "electric_bike", "name": "96bc6753bbbce33c445e7dbad62a6ea0", "is_disabled": 0, "rental_uris": {"ios": "https://dc.lft.to/lastmile_qr_scan", "android": "https://dc.lft.to/lastmile_qr_scan"}, "is_reserved": 0}, {"lon": -77.03439883333333, "bike_id": "c914c357040062627d16aaad50acd5a5", "lat": 38.917511, "fusion_lon": 0.0, "fusion_lat": 0.0, "type": "electric_scooter", "name": "c914c357040062627d16aaad50acd5a5", "is_disabled": 0, "rental_uris": {"ios": "https://dc.lft.to/lastmile_qr_scan", "android": "https://dc.lft.to/lastmile_qr_scan"}, "is_reserved": 0}, {"lon": -77.02463683333333, "bike_id": "5d8b158d3c457d3c760c699c1079e3b9", "lat": 38.93879616666667, "fusion_lon": 0.0, "fusion_lat": 0.0, "type": "electric_scooter", "name": "5d8b158d3c457d3c760c699c1079e3b9", "is_disabled": 0, "rental_uris": {"ios": "https://dc.lft.to/lastmile_qr_scan", "android": "https://dc.lft.to/lastmile_qr_scan"}, "is_reserved": 0}, {"lon": -77.00207633333333, "bike_id": "bbfc23cc1073df8139459da077526b32", "lat": 38.89546433333334, "fusion_lon": 0.0, "fusion_lat": 0.0, "type": "electric_scooter", "name": "bbfc23cc1073df8139459da077526b32", "is_disabled": 0, "rental_uris": {"ios": "https://dc.lft.to/lastmile_qr_scan", "android": "https://dc.lft.to/lastmile_qr_scan"}, "is_reserved": 0}, {"lon": -76.93735033333333, "bike_id": "43903f7ab24685f8f9331c4080da2c54", "lat": 38.890118666666666, "fusion_lon": 0.0, "fusion_lat": 0.0, "type": "electric_scooter", "name": "43903f7ab24685f8f9331c4080da2c54", "is_disabled": 0, "rental_uris": {"ios": "https://dc.lft.to/lastmile_qr_scan", "android": "https://dc.lft.to/lastmile_qr_scan"}, "is_reserved": 0}, {"lon": -77.046454, "bike_id": "061bb23ce076a1e89c07c3f53fb9a736", "lat": 38.909794166666664, "fusion_lon": 0.0, "fusion_lat": 0.0, "type": "electric_scooter", "name": "061bb23ce076a1e89c07c3f53fb9a736", "is_disabled": 0, "rental_uris": {"ios": "https://dc.lft.to/lastmile_qr_scan", "android": "https://dc.lft.to/lastmile_qr_scan"}, "is_reserved": 0}, {"lon": -77.00529366666666, "bike_id": "d4baec567ea45890eefbf7541a3eeb31", "lat": 38.9297305, "fusion_lon": 0.0, "fusion_lat": 0.0, "type": "electric_scooter", "name": "d4baec567ea45890eefbf7541a3eeb31", "is_disabled": 0, "rental_uris": {"ios": "https://dc.lft.to/lastmile_qr_scan", "android": "https://dc.lft.to/lastmile_qr_scan"}, "is_reserved": 0}, {"lon": -77.0219965, "bike_id": "4849856ba1cd8ee3dabc0fa5e852a3a7", "lat": 38.913001, "fusion_lon": 0.0, "fusion_lat": 0.0, "type": "electric_scooter", "name": "4849856ba1cd8ee3dabc0fa5e852a3a7", "is_disabled": 0, "rental_uris": {"ios": "https://dc.lft.to/lastmile_qr_scan", "android": "https://dc.lft.to/lastmile_qr_scan"}, "is_reserved": 0}, {"lon": -77.067258, "bike_id": "bc51d5541bcca53b9be87a36e7fe7019", "lat": 38.903581, "fusion_lon": 0.0, "fusion_lat": 0.0, "type": "electric_bike", "name": "bc51d5541bcca53b9be87a36e7fe7019", "is_disabled": 0, "rental_uris": {"ios": "https://dc.lft.to/lastmile_qr_scan", "android": "https://dc.lft.to/lastmile_qr_scan"}, "is_reserved": 0}, {"lon": -77.00095533333334, "bike_id": "de14d85480469975057264f12108b5e8", "lat": 38.90016033333333, "fusion_lon": 0.0, "fusion_lat": 0.0, "type": "electric_scooter", "name": "de14d85480469975057264f12108b5e8", "is_disabled": 0, "rental_uris": {"ios": "https://dc.lft.to/lastmile_qr_scan", "android": "https://dc.lft.to/lastmile_qr_scan"}, "is_reserved": 0}, {"lon": -77.05910166666666, "bike_id": "21e095bebcedb2b97bdcf47ef2765656", "lat": 38.901454333333334, "fusion_lon": 0.0, "fusion_lat": 0.0, "type": "electric_scooter", "name": "21e095bebcedb2b97bdcf47ef2765656", "is_disabled": 0, "rental_uris": {"ios": "https://dc.lft.to/lastmile_qr_scan", "android": "https://dc.lft.to/lastmile_qr_scan"}, "is_reserved": 0}, {"lon": -76.99501966666666, "bike_id": "fa9f9e85d24ba375abc19422b5f34dc3", "lat": 38.92266933333333, "fusion_lon": 0.0, "fusion_lat": 0.0, "type": "electric_scooter", "name": "fa9f9e85d24ba375abc19422b5f34dc3", "is_disabled": 0, "rental_uris": {"ios": "https://dc.lft.to/lastmile_qr_scan", "android": "https://dc.lft.to/lastmile_qr_scan"}, "is_reserved": 0}, {"lon": -76.98697416666667, "bike_id": "98b4e078082f87d28d753a810f710f7c", "lat": 38.86251033333333, "fusion_lon": 0.0, "fusion_lat": 0.0, "type": "electric_scooter", "name": "98b4e078082f87d28d753a810f710f7c", "is_disabled": 0, "rental_uris": {"ios": "https://dc.lft.to/lastmile_qr_scan", "android": "https://dc.lft.to/lastmile_qr_scan"}, "is_reserved": 0}, {"lon": -77.06496216666666, "bike_id": "404467597aa9d252144e61975fc63a94", "lat": 38.94643466666667, "fusion_lon": 0.0, "fusion_lat": 0.0, "type": "electric_scooter", "name": "404467597aa9d252144e61975fc63a94", "is_disabled": 0, "rental_uris": {"ios": "https://dc.lft.to/lastmile_qr_scan", "android": "https://dc.lft.to/lastmile_qr_scan"}, "is_reserved": 0}, {"lon": -77.0075065, "bike_id": "d3403b2d8ad7c9b998a03b952c59ccc8", "lat": 38.8973165, "fusion_lon": 0.0, "fusion_lat": 0.0, "type": "electric_scooter", "name": "d3403b2d8ad7c9b998a03b952c59ccc8", "is_disabled": 0, "rental_uris": {"ios": "https://dc.lft.to/lastmile_qr_scan", "android": "https://dc.lft.to/lastmile_qr_scan"}, "is_reserved": 0}, {"lon": -77.02823733333334, "bike_id": "0c152a17a8b97380fcf2bdb9d4433849", "lat": 38.8873855, "fusion_lon": 0.0, "fusion_lat": 0.0, "type": "electric_scooter", "name": "0c152a17a8b97380fcf2bdb9d4433849", "is_disabled": 0, "rental_uris": {"ios": "https://dc.lft.to/lastmile_qr_scan", "android": "https://dc.lft.to/lastmile_qr_scan"}, "is_reserved": 0}, {"lon": -76.97596666666666, "bike_id": "62779b9b01fc995ef9894c0a51e476d4", "lat": 38.905737333333335, "fusion_lon": 0.0, "fusion_lat": 0.0, "type": "electric_scooter", "name": "62779b9b01fc995ef9894c0a51e476d4", "is_disabled": 0, "rental_uris": {"ios": "https://dc.lft.to/lastmile_qr_scan", "android": "https://dc.lft.to/lastmile_qr_scan"}, "is_reserved": 0}, {"lon": -77.03406033333333, "bike_id": "082cf6fcb358b8a50cc09fe6c6d2acde", "lat": 38.91118183333333, "fusion_lon": 0.0, "fusion_lat": 0.0, "type": "electric_scooter", "name": "082cf6fcb358b8a50cc09fe6c6d2acde", "is_disabled": 0, "rental_uris": {"ios": "https://dc.lft.to/lastmile_qr_scan", "android": "https://dc.lft.to/lastmile_qr_scan"}, "is_reserved": 0}, {"lon": -76.970976, "bike_id": "328d6138aa43efa39d2fa682de010631", "lat": 38.918079, "fusion_lon": 0.0, "fusion_lat": 0.0, "type": "electric_bike", "name": "328d6138aa43efa39d2fa682de010631", "is_disabled": 0, "rental_uris": {"ios": "https://dc.lft.to/lastmile_qr_scan", "android": "https://dc.lft.to/lastmile_qr_scan"}, "is_reserved": 0}, {"lon": -77.02171533333333, "bike_id": "927b98d88ca97a918c08e317d1be8b93", "lat": 38.887472, "fusion_lon": 0.0, "fusion_lat": 0.0, "type": "electric_scooter", "name": "927b98d88ca97a918c08e317d1be8b93", "is_disabled": 0, "rental_uris": {"ios": "https://dc.lft.to/lastmile_qr_scan", "android": "https://dc.lft.to/lastmile_qr_scan"}, "is_reserved": 0}, {"lon": -77.02972766666667, "bike_id": "4721a1a5b5d5f225d6e80f448d0d60e6", "lat": 38.90729133333333, "fusion_lon": 0.0, "fusion_lat": 0.0, "type": "electric_scooter", "name": "4721a1a5b5d5f225d6e80f448d0d60e6", "is_disabled": 0, "rental_uris": {"ios": "https://dc.lft.to/lastmile_qr_scan", "android": "https://dc.lft.to/lastmile_qr_scan"}, "is_reserved": 0}, {"lon": -77.03725133333333, "bike_id": "a9021b186ae207660178be56e1dc22b9", "lat": 38.92706116666667, "fusion_lon": 0.0, "fusion_lat": 0.0, "type": "electric_bike", "name": "a9021b186ae207660178be56e1dc22b9", "is_disabled": 0, "rental_uris": {"ios": "https://dc.lft.to/lastmile_qr_scan", "android": "https://dc.lft.to/lastmile_qr_scan"}, "is_reserved": 0}, {"lon": -76.993708, "bike_id": "722814694339b6c26144f4aa0b4b6bc5", "lat": 38.92397716666667, "fusion_lon": 0.0, "fusion_lat": 0.0, "type": "electric_scooter", "name": "722814694339b6c26144f4aa0b4b6bc5", "is_disabled": 0, "rental_uris": {"ios": "https://dc.lft.to/lastmile_qr_scan", "android": "https://dc.lft.to/lastmile_qr_scan"}, "is_reserved": 0}, {"lon": -77.00886416666667, "bike_id": "7948611b7c9f8f299934fe1fa16c747b", "lat": 38.924916, "fusion_lon": 0.0, "fusion_lat": 0.0, "type": "electric_scooter", "name": "7948611b7c9f8f299934fe1fa16c747b", "is_disabled": 0, "rental_uris": {"ios": "https://dc.lft.to/lastmile_qr_scan", "android": "https://dc.lft.to/lastmile_qr_scan"}, "is_reserved": 0}, {"lon": -77.00496416666667, "bike_id": "8b5dfade9858b7bf6360900e4f0afffb", "lat": 38.89695583333334, "fusion_lon": 0.0, "fusion_lat": 0.0, "type": "electric_scooter", "name": "8b5dfade9858b7bf6360900e4f0afffb", "is_disabled": 0, "rental_uris": {"ios": "https://dc.lft.to/lastmile_qr_scan", "android": "https://dc.lft.to/lastmile_qr_scan"}, "is_reserved": 0}, {"lon": -77.04825616666666, "bike_id": "bffad263908eee99db0ecb9b73105d54", "lat": 38.903839833333336, "fusion_lon": 0.0, "fusion_lat": 0.0, "type": "electric_scooter", "name": "bffad263908eee99db0ecb9b73105d54", "is_disabled": 0, "rental_uris": {"ios": "https://dc.lft.to/lastmile_qr_scan", "android": "https://dc.lft.to/lastmile_qr_scan"}, "is_reserved": 0}, {"lon": -77.0215555, "bike_id": "5c87009899a920d7f8e1e66eb17ce901", "lat": 38.93139016666667, "fusion_lon": 0.0, "fusion_lat": 0.0, "type": "electric_scooter", "name": "5c87009899a920d7f8e1e66eb17ce901", "is_disabled": 0, "rental_uris": {"ios": "https://dc.lft.to/lastmile_qr_scan", "android": "https://dc.lft.to/lastmile_qr_scan"}, "is_reserved": 0}, {"lon": -77.00677033333334, "bike_id": "9287a55d00e67c745d56d8b6729026b9", "lat": 38.90022183333333, "fusion_lon": 0.0, "fusion_lat": 0.0, "type": "electric_scooter", "name": "9287a55d00e67c745d56d8b6729026b9", "is_disabled": 0, "rental_uris": {"ios": "https://dc.lft.to/lastmile_qr_scan", "android": "https://dc.lft.to/lastmile_qr_scan"}, "is_reserved": 0}, {"lon": -77.04335983333333, "bike_id": "c8bc6e62747e9b537884aa6d3edea4bd", "lat": 38.913340833333336, "fusion_lon": 0.0, "fusion_lat": 0.0, "type": "electric_scooter", "name": "c8bc6e62747e9b537884aa6d3edea4bd", "is_disabled": 0, "rental_uris": {"ios": "https://dc.lft.to/lastmile_qr_scan", "android": "https://dc.lft.to/lastmile_qr_scan"}, "is_reserved": 0}, {"lon": -77.05451883333333, "bike_id": "3c475fdadae5be2a251f414060165f7a", "lat": 38.855685, "fusion_lon": 0.0, "fusion_lat": 0.0, "type": "electric_bike", "name": "3c475fdadae5be2a251f414060165f7a", "is_disabled": 0, "rental_uris": {"ios": "https://dc.lft.to/lastmile_qr_scan", "android": "https://dc.lft.to/lastmile_qr_scan"}, "is_reserved": 0}, {"lon": -77.01465233333333, "bike_id": "60de4be6522fc198d117b56dca76bad8", "lat": 38.876731, "fusion_lon": 0.0, "fusion_lat": 0.0, "type": "electric_bike", "name": "60de4be6522fc198d117b56dca76bad8", "is_disabled": 0, "rental_uris": {"ios": "https://dc.lft.to/lastmile_qr_scan", "android": "https://dc.lft.to/lastmile_qr_scan"}, "is_reserved": 0}, {"lon": -77.12650966666666, "bike_id": "79f57eeadc44c8a8787afc16976c5002", "lat": 38.815142333333334, "fusion_lon": 0.0, "fusion_lat": 0.0, "type": "electric_bike", "name": "79f57eeadc44c8a8787afc16976c5002", "is_disabled": 0, "rental_uris": {"ios": "https://dc.lft.to/lastmile_qr_scan", "android": "https://dc.lft.to/lastmile_qr_scan"}, "is_reserved": 0}, {"lon": -77.03430516666667, "bike_id": "38140415cc5e613bd9fa96fe25a19968", "lat": 38.91934066666666, "fusion_lon": 0.0, "fusion_lat": 0.0, "type": "electric_scooter", "name": "38140415cc5e613bd9fa96fe25a19968", "is_disabled": 0, "rental_uris": {"ios": "https://dc.lft.to/lastmile_qr_scan", "android": "https://dc.lft.to/lastmile_qr_scan"}, "is_reserved": 0}, {"lon": -77.02929483333334, "bike_id": "895f829f71abd243177f5c919fd99221", "lat": 38.934577833333336, "fusion_lon": 0.0, "fusion_lat": 0.0, "type": "electric_scooter", "name": "895f829f71abd243177f5c919fd99221", "is_disabled": 0, "rental_uris": {"ios": "https://dc.lft.to/lastmile_qr_scan", "android": "https://dc.lft.to/lastmile_qr_scan"}, "is_reserved": 0}, {"lon": -77.00657333333334, "bike_id": "2c236c5d3915613a64eaa9883e7a8cfa", "lat": 38.94466933333333, "fusion_lon": 0.0, "fusion_lat": 0.0, "type": "electric_scooter", "name": "2c236c5d3915613a64eaa9883e7a8cfa", "is_disabled": 0, "rental_uris": {"ios": "https://dc.lft.to/lastmile_qr_scan", "android": "https://dc.lft.to/lastmile_qr_scan"}, "is_reserved": 0}, {"lon": -76.97239066666667, "bike_id": "7ba8024c3e328e9aa7d009df28036a9c", "lat": 38.949057833333335, "fusion_lon": 0.0, "fusion_lat": 0.0, "type": "electric_bike", "name": "7ba8024c3e328e9aa7d009df28036a9c", "is_disabled": 0, "rental_uris": {"ios": "https://dc.lft.to/lastmile_qr_scan", "android": "https://dc.lft.to/lastmile_qr_scan"}, "is_reserved": 0}, {"lon": -77.0287115, "bike_id": "3fd2367c844cd83064ff2d88e7b55213", "lat": 38.88512816666667, "fusion_lon": 0.0, "fusion_lat": 0.0, "type": "electric_scooter", "name": "3fd2367c844cd83064ff2d88e7b55213", "is_disabled": 0, "rental_uris": {"ios": "https://dc.lft.to/lastmile_qr_scan", "android": "https://dc.lft.to/lastmile_qr_scan"}, "is_reserved": 0}, {"lon": -77.02981033333333, "bike_id": "274f04a904c8d8ac6df2bee36e884a87", "lat": 38.92201766666667, "fusion_lon": 0.0, "fusion_lat": 0.0, "type": "electric_scooter", "name": "274f04a904c8d8ac6df2bee36e884a87", "is_disabled": 0, "rental_uris": {"ios": "https://dc.lft.to/lastmile_qr_scan", "android": "https://dc.lft.to/lastmile_qr_scan"}, "is_reserved": 0}, {"lon": -77.012168, "bike_id": "527a52b9020254c3e9ba0738cdb57717", "lat": 38.914431, "fusion_lon": 0.0, "fusion_lat": 0.0, "type": "electric_scooter", "name": "527a52b9020254c3e9ba0738cdb57717", "is_disabled": 0, "rental_uris": {"ios": "https://dc.lft.to/lastmile_qr_scan", "android": "https://dc.lft.to/lastmile_qr_scan"}, "is_reserved": 0}, {"lon": -77.02438466666666, "bike_id": "3954d19b7ab556311a1ef79cc4126b33", "lat": 38.9249895, "fusion_lon": 0.0, "fusion_lat": 0.0, "type": "electric_scooter", "name": "3954d19b7ab556311a1ef79cc4126b33", "is_disabled": 0, "rental_uris": {"ios": "https://dc.lft.to/lastmile_qr_scan", "android": "https://dc.lft.to/lastmile_qr_scan"}, "is_reserved": 0}, {"lon": -77.03442516666667, "bike_id": "d7750bfb4eeb493ad71d13d5f3fa714d", "lat": 38.902822, "fusion_lon": 0.0, "fusion_lat": 0.0, "type": "electric_scooter", "name": "d7750bfb4eeb493ad71d13d5f3fa714d", "is_disabled": 0, "rental_uris": {"ios": "https://dc.lft.to/lastmile_qr_scan", "android": "https://dc.lft.to/lastmile_qr_scan"}, "is_reserved": 0}, {"lon": -77.04801316666666, "bike_id": "52d164b5cd395f7fcb56a42ba86ad71d", "lat": 38.9163625, "fusion_lon": 0.0, "fusion_lat": 0.0, "type": "electric_scooter", "name": "52d164b5cd395f7fcb56a42ba86ad71d", "is_disabled": 0, "rental_uris": {"ios": "https://dc.lft.to/lastmile_qr_scan", "android": "https://dc.lft.to/lastmile_qr_scan"}, "is_reserved": 0}, {"lon": -76.98713533333333, "bike_id": "8d368a5f8d4a350b59a5eccd0e0e2d87", "lat": 38.9003295, "fusion_lon": 0.0, "fusion_lat": 0.0, "type": "electric_scooter", "name": "8d368a5f8d4a350b59a5eccd0e0e2d87", "is_disabled": 0, "rental_uris": {"ios": "https://dc.lft.to/lastmile_qr_scan", "android": "https://dc.lft.to/lastmile_qr_scan"}, "is_reserved": 0}, {"lon": -76.99543916666667, "bike_id": "a822cef37a2b0ed0a059d36350824959", "lat": 38.86265783333333, "fusion_lon": 0.0, "fusion_lat": 0.0, "type": "electric_scooter", "name": "a822cef37a2b0ed0a059d36350824959", "is_disabled": 0, "rental_uris": {"ios": "https://dc.lft.to/lastmile_qr_scan", "android": "https://dc.lft.to/lastmile_qr_scan"}, "is_reserved": 0}, {"lon": -77.02685516666666, "bike_id": "8b4c737990b7fd14dd4d2c97c6d93c89", "lat": 38.984587833333336, "fusion_lon": 0.0, "fusion_lat": 0.0, "type": "electric_scooter", "name": "8b4c737990b7fd14dd4d2c97c6d93c89", "is_disabled": 0, "rental_uris": {"ios": "https://dc.lft.to/lastmile_qr_scan", "android": "https://dc.lft.to/lastmile_qr_scan"}, "is_reserved": 0}, {"lon": -77.03259133333333, "bike_id": "13a50d8570370d5a506f4a41b436c236", "lat": 38.942759333333335, "fusion_lon": 0.0, "fusion_lat": 0.0, "type": "electric_scooter", "name": "13a50d8570370d5a506f4a41b436c236", "is_disabled": 0, "rental_uris": {"ios": "https://dc.lft.to/lastmile_qr_scan", "android": "https://dc.lft.to/lastmile_qr_scan"}, "is_reserved": 0}, {"lon": -77.03673333333333, "bike_id": "30f456f014fddcfc9207b10bf6f3b62b", "lat": 38.93651533333333, "fusion_lon": 0.0, "fusion_lat": 0.0, "type": "electric_bike", "name": "30f456f014fddcfc9207b10bf6f3b62b", "is_disabled": 0, "rental_uris": {"ios": "https://dc.lft.to/lastmile_qr_scan", "android": "https://dc.lft.to/lastmile_qr_scan"}, "is_reserved": 0}, {"lon": -77.02812433333334, "bike_id": "44e74555b0719fb5c5ffb406104b8ba4", "lat": 38.881822, "fusion_lon": 0.0, "fusion_lat": 0.0, "type": "electric_scooter", "name": "44e74555b0719fb5c5ffb406104b8ba4", "is_disabled": 0, "rental_uris": {"ios": "https://dc.lft.to/lastmile_qr_scan", "android": "https://dc.lft.to/lastmile_qr_scan"}, "is_reserved": 0}, {"lon": -77.023725, "bike_id": "754388d21d590185baa5a4059e4e9033", "lat": 38.9020315, "fusion_lon": 0.0, "fusion_lat": 0.0, "type": "electric_scooter", "name": "754388d21d590185baa5a4059e4e9033", "is_disabled": 0, "rental_uris": {"ios": "https://dc.lft.to/lastmile_qr_scan", "android": "https://dc.lft.to/lastmile_qr_scan"}, "is_reserved": 0}, {"lon": -77.0199615, "bike_id": "418d4bed39145132168e0e0407e8cf46", "lat": 38.9044785, "fusion_lon": 0.0, "fusion_lat": 0.0, "type": "electric_scooter", "name": "418d4bed39145132168e0e0407e8cf46", "is_disabled": 0, "rental_uris": {"ios": "https://dc.lft.to/lastmile_qr_scan", "android": "https://dc.lft.to/lastmile_qr_scan"}, "is_reserved": 0}, {"lon": -77.0217115, "bike_id": "6ba009a4282a67d35acce2b6205ad4a3", "lat": 38.900241666666666, "fusion_lon": 0.0, "fusion_lat": 0.0, "type": "electric_scooter", "name": "6ba009a4282a67d35acce2b6205ad4a3", "is_disabled": 0, "rental_uris": {"ios": "https://dc.lft.to/lastmile_qr_scan", "android": "https://dc.lft.to/lastmile_qr_scan"}, "is_reserved": 0}, {"lon": -76.9638215, "bike_id": "8718a61f9d641b127535f89fbef0e3fc", "lat": 38.95183466666667, "fusion_lon": 0.0, "fusion_lat": 0.0, "type": "electric_bike", "name": "8718a61f9d641b127535f89fbef0e3fc", "is_disabled": 0, "rental_uris": {"ios": "https://dc.lft.to/lastmile_qr_scan", "android": "https://dc.lft.to/lastmile_qr_scan"}, "is_reserved": 0}, {"lon": -76.99119516666667, "bike_id": "9835f881f48e58ceb3587d4c8b246cdb", "lat": 38.862043666666665, "fusion_lon": 0.0, "fusion_lat": 0.0, "type": "electric_scooter", "name": "9835f881f48e58ceb3587d4c8b246cdb", "is_disabled": 0, "rental_uris": {"ios": "https://dc.lft.to/lastmile_qr_scan", "android": "https://dc.lft.to/lastmile_qr_scan"}, "is_reserved": 0}, {"lon": -76.99466783333334, "bike_id": "8051186e48b8b6cfd81a0cd25332f0be", "lat": 38.86226216666667, "fusion_lon": 0.0, "fusion_lat": 0.0, "type": "electric_scooter", "name": "8051186e48b8b6cfd81a0cd25332f0be", "is_disabled": 0, "rental_uris": {"ios": "https://dc.lft.to/lastmile_qr_scan", "android": "https://dc.lft.to/lastmile_qr_scan"}, "is_reserved": 0}, {"lon": -77.00210033333333, "bike_id": "01139ee7d07f0362bd8f353e87131714", "lat": 38.90018716666667, "fusion_lon": 0.0, "fusion_lat": 0.0, "type": "electric_scooter", "name": "01139ee7d07f0362bd8f353e87131714", "is_disabled": 0, "rental_uris": {"ios": "https://dc.lft.to/lastmile_qr_scan", "android": "https://dc.lft.to/lastmile_qr_scan"}, "is_reserved": 0}, {"lon": -77.02586266666667, "bike_id": "1691ad788fb4349261fc669faaf75fe9", "lat": 38.89229816666667, "fusion_lon": 0.0, "fusion_lat": 0.0, "type": "electric_scooter", "name": "1691ad788fb4349261fc669faaf75fe9", "is_disabled": 0, "rental_uris": {"ios": "https://dc.lft.to/lastmile_qr_scan", "android": "https://dc.lft.to/lastmile_qr_scan"}, "is_reserved": 0}, {"lon": -77.04805366666666, "bike_id": "a9fcab02053ebe226af0d9a44ed6e425", "lat": 38.91627416666667, "fusion_lon": 0.0, "fusion_lat": 0.0, "type": "electric_scooter", "name": "a9fcab02053ebe226af0d9a44ed6e425", "is_disabled": 0, "rental_uris": {"ios": "https://dc.lft.to/lastmile_qr_scan", "android": "https://dc.lft.to/lastmile_qr_scan"}, "is_reserved": 0}, {"lon": -76.98242366666666, "bike_id": "4546d0f3dc6e5bd7cdfb00b08a005f67", "lat": 38.881320833333334, "fusion_lon": 0.0, "fusion_lat": 0.0, "type": "electric_scooter", "name": "4546d0f3dc6e5bd7cdfb00b08a005f67", "is_disabled": 0, "rental_uris": {"ios": "https://dc.lft.to/lastmile_qr_scan", "android": "https://dc.lft.to/lastmile_qr_scan"}, "is_reserved": 0}, {"lon": -77.02804566666667, "bike_id": "883f1cd3e9a81ab681120eaac5da67bb", "lat": 38.95095416666667, "fusion_lon": 0.0, "fusion_lat": 0.0, "type": "electric_scooter", "name": "883f1cd3e9a81ab681120eaac5da67bb", "is_disabled": 0, "rental_uris": {"ios": "https://dc.lft.to/lastmile_qr_scan", "android": "https://dc.lft.to/lastmile_qr_scan"}, "is_reserved": 0}, {"lon": -77.06490383333333, "bike_id": "a39642b57ec637140024a79d07379d04", "lat": 38.92907566666667, "fusion_lon": 0.0, "fusion_lat": 0.0, "type": "electric_scooter", "name": "a39642b57ec637140024a79d07379d04", "is_disabled": 0, "rental_uris": {"ios": "https://dc.lft.to/lastmile_qr_scan", "android": "https://dc.lft.to/lastmile_qr_scan"}, "is_reserved": 0}, {"lon": -77.04815233333333, "bike_id": "2528b9ce8e0fb0c434816148b31b76f5", "lat": 38.9203845, "fusion_lon": 0.0, "fusion_lat": 0.0, "type": "electric_scooter", "name": "2528b9ce8e0fb0c434816148b31b76f5", "is_disabled": 0, "rental_uris": {"ios": "https://dc.lft.to/lastmile_qr_scan", "android": "https://dc.lft.to/lastmile_qr_scan"}, "is_reserved": 0}, {"lon": -77.02694466666667, "bike_id": "1bcbb15e1f8a5aafd8e6f5fe480f8dcb", "lat": 38.912921, "fusion_lon": 0.0, "fusion_lat": 0.0, "type": "electric_scooter", "name": "1bcbb15e1f8a5aafd8e6f5fe480f8dcb", "is_disabled": 0, "rental_uris": {"ios": "https://dc.lft.to/lastmile_qr_scan", "android": "https://dc.lft.to/lastmile_qr_scan"}, "is_reserved": 0}, {"lon": -77.03777633333333, "bike_id": "fe046088f5df8661469e5ce89482a5cc", "lat": 38.9256785, "fusion_lon": 0.0, "fusion_lat": 0.0, "type": "electric_scooter", "name": "fe046088f5df8661469e5ce89482a5cc", "is_disabled": 0, "rental_uris": {"ios": "https://dc.lft.to/lastmile_qr_scan", "android": "https://dc.lft.to/lastmile_qr_scan"}, "is_reserved": 0}, {"lon": -77.008857, "bike_id": "de91bb7f348734310dad989ac29e12e3", "lat": 38.917146333333335, "fusion_lon": 0.0, "fusion_lat": 0.0, "type": "electric_scooter", "name": "de91bb7f348734310dad989ac29e12e3", "is_disabled": 0, "rental_uris": {"ios": "https://dc.lft.to/lastmile_qr_scan", "android": "https://dc.lft.to/lastmile_qr_scan"}, "is_reserved": 0}, {"lon": -77.02669083333333, "bike_id": "b704b1e4d48f93cbc14bc20d3f1d6f1d", "lat": 38.984314833333336, "fusion_lon": 0.0, "fusion_lat": 0.0, "type": "electric_scooter", "name": "b704b1e4d48f93cbc14bc20d3f1d6f1d", "is_disabled": 0, "rental_uris": {"ios": "https://dc.lft.to/lastmile_qr_scan", "android": "https://dc.lft.to/lastmile_qr_scan"}, "is_reserved": 0}, {"lon": -77.03971616666666, "bike_id": "ad4398d9d42f6e2efa74f955c4e11923", "lat": 38.92312666666667, "fusion_lon": 0.0, "fusion_lat": 0.0, "type": "electric_scooter", "name": "ad4398d9d42f6e2efa74f955c4e11923", "is_disabled": 0, "rental_uris": {"ios": "https://dc.lft.to/lastmile_qr_scan", "android": "https://dc.lft.to/lastmile_qr_scan"}, "is_reserved": 0}, {"lon": -77.03657366666667, "bike_id": "221d34ae792d0cf6050a06f8857ffa57", "lat": 38.921031666666664, "fusion_lon": 0.0, "fusion_lat": 0.0, "type": "electric_scooter", "name": "221d34ae792d0cf6050a06f8857ffa57", "is_disabled": 0, "rental_uris": {"ios": "https://dc.lft.to/lastmile_qr_scan", "android": "https://dc.lft.to/lastmile_qr_scan"}, "is_reserved": 0}, {"lon": -77.02654266666667, "bike_id": "7db4df47d8b01222d9187d5c4d8682ba", "lat": 38.97572783333333, "fusion_lon": 0.0, "fusion_lat": 0.0, "type": "electric_scooter", "name": "7db4df47d8b01222d9187d5c4d8682ba", "is_disabled": 0, "rental_uris": {"ios": "https://dc.lft.to/lastmile_qr_scan", "android": "https://dc.lft.to/lastmile_qr_scan"}, "is_reserved": 0}, {"lon": -77.01525, "bike_id": "5848f5e2682b8ec3c66edcc9c9b257ea", "lat": 38.88647366666667, "fusion_lon": 0.0, "fusion_lat": 0.0, "type": "electric_scooter", "name": "5848f5e2682b8ec3c66edcc9c9b257ea", "is_disabled": 0, "rental_uris": {"ios": "https://dc.lft.to/lastmile_qr_scan", "android": "https://dc.lft.to/lastmile_qr_scan"}, "is_reserved": 0}, {"lon": -77.01223333333333, "bike_id": "854cea32f2e06efe9777e845816ae3a5", "lat": 38.91685833333333, "fusion_lon": 0.0, "fusion_lat": 0.0, "type": "electric_scooter", "name": "854cea32f2e06efe9777e845816ae3a5", "is_disabled": 0, "rental_uris": {"ios": "https://dc.lft.to/lastmile_qr_scan", "android": "https://dc.lft.to/lastmile_qr_scan"}, "is_reserved": 0}, {"lon": -77.0399015, "bike_id": "bf5dfc4afb08457f358887dd7bf47799", "lat": 38.92464833333333, "fusion_lon": 0.0, "fusion_lat": 0.0, "type": "electric_scooter", "name": "bf5dfc4afb08457f358887dd7bf47799", "is_disabled": 0, "rental_uris": {"ios": "https://dc.lft.to/lastmile_qr_scan", "android": "https://dc.lft.to/lastmile_qr_scan"}, "is_reserved": 0}, {"lon": -77.04219583333334, "bike_id": "eec986ac95521a50b4a0f2d63467148f", "lat": 38.9056175, "fusion_lon": 0.0, "fusion_lat": 0.0, "type": "electric_scooter", "name": "eec986ac95521a50b4a0f2d63467148f", "is_disabled": 0, "rental_uris": {"ios": "https://dc.lft.to/lastmile_qr_scan", "android": "https://dc.lft.to/lastmile_qr_scan"}, "is_reserved": 0}, {"lon": -77.01476916666667, "bike_id": "737be47945e4169047c4a6f7c83fc5e7", "lat": 38.89602383333333, "fusion_lon": 0.0, "fusion_lat": 0.0, "type": "electric_scooter", "name": "737be47945e4169047c4a6f7c83fc5e7", "is_disabled": 0, "rental_uris": {"ios": "https://dc.lft.to/lastmile_qr_scan", "android": "https://dc.lft.to/lastmile_qr_scan"}, "is_reserved": 0}, {"lon": -77.02195066666667, "bike_id": "2fa759f1578877bf43656e2064aa1791", "lat": 38.89494116666667, "fusion_lon": 0.0, "fusion_lat": 0.0, "type": "electric_scooter", "name": "2fa759f1578877bf43656e2064aa1791", "is_disabled": 0, "rental_uris": {"ios": "https://dc.lft.to/lastmile_qr_scan", "android": "https://dc.lft.to/lastmile_qr_scan"}, "is_reserved": 0}, {"lon": -77.059503, "bike_id": "0826c8d99a9c9d8361dc4c73dc889a88", "lat": 38.8622755, "fusion_lon": 0.0, "fusion_lat": 0.0, "type": "electric_scooter", "name": "0826c8d99a9c9d8361dc4c73dc889a88", "is_disabled": 0, "rental_uris": {"ios": "https://dc.lft.to/lastmile_qr_scan", "android": "https://dc.lft.to/lastmile_qr_scan"}, "is_reserved": 0}, {"lon": -77.03437383333333, "bike_id": "60bdc98aec01e8e16b7d3872fcfbde6d", "lat": 38.90684783333333, "fusion_lon": 0.0, "fusion_lat": 0.0, "type": "electric_scooter", "name": "60bdc98aec01e8e16b7d3872fcfbde6d", "is_disabled": 0, "rental_uris": {"ios": "https://dc.lft.to/lastmile_qr_scan", "android": "https://dc.lft.to/lastmile_qr_scan"}, "is_reserved": 0}, {"lon": -77.0083865, "bike_id": "20fcb688cee4c6a1291dcc12322d9d25", "lat": 38.91625916666667, "fusion_lon": 0.0, "fusion_lat": 0.0, "type": "electric_scooter", "name": "20fcb688cee4c6a1291dcc12322d9d25", "is_disabled": 0, "rental_uris": {"ios": "https://dc.lft.to/lastmile_qr_scan", "android": "https://dc.lft.to/lastmile_qr_scan"}, "is_reserved": 0}, {"lon": -77.02722816666666, "bike_id": "59d9a38ba3c5a35b9e78b1730d2d8026", "lat": 38.933760166666666, "fusion_lon": 0.0, "fusion_lat": 0.0, "type": "electric_scooter", "name": "59d9a38ba3c5a35b9e78b1730d2d8026", "is_disabled": 0, "rental_uris": {"ios": "https://dc.lft.to/lastmile_qr_scan", "android": "https://dc.lft.to/lastmile_qr_scan"}, "is_reserved": 0}, {"lon": -77.024181, "bike_id": "96e2fda5916c91e7a629b0a847219288", "lat": 38.91412566666666, "fusion_lon": 0.0, "fusion_lat": 0.0, "type": "electric_scooter", "name": "96e2fda5916c91e7a629b0a847219288", "is_disabled": 0, "rental_uris": {"ios": "https://dc.lft.to/lastmile_qr_scan", "android": "https://dc.lft.to/lastmile_qr_scan"}, "is_reserved": 0}, {"lon": -77.02277783333334, "bike_id": "3bd4fa20e71b03bad95cd64319f8dc0b", "lat": 38.9268765, "fusion_lon": 0.0, "fusion_lat": 0.0, "type": "electric_scooter", "name": "3bd4fa20e71b03bad95cd64319f8dc0b", "is_disabled": 0, "rental_uris": {"ios": "https://dc.lft.to/lastmile_qr_scan", "android": "https://dc.lft.to/lastmile_qr_scan"}, "is_reserved": 0}, {"lon": -77.03544133333334, "bike_id": "9882cd436c0474e3dca3fb248f027ba9", "lat": 38.924205666666666, "fusion_lon": 0.0, "fusion_lat": 0.0, "type": "electric_scooter", "name": "9882cd436c0474e3dca3fb248f027ba9", "is_disabled": 0, "rental_uris": {"ios": "https://dc.lft.to/lastmile_qr_scan", "android": "https://dc.lft.to/lastmile_qr_scan"}, "is_reserved": 0}, {"lon": -77.0400125, "bike_id": "99ffccdb8b8e79c81c9b8a1976a38e3d", "lat": 38.90369066666667, "fusion_lon": 0.0, "fusion_lat": 0.0, "type": "electric_scooter", "name": "99ffccdb8b8e79c81c9b8a1976a38e3d", "is_disabled": 0, "rental_uris": {"ios": "https://dc.lft.to/lastmile_qr_scan", "android": "https://dc.lft.to/lastmile_qr_scan"}, "is_reserved": 0}, {"lon": -76.98159233333334, "bike_id": "833656922bde6b64676d5a3ccbecca47", "lat": 38.9256875, "fusion_lon": 0.0, "fusion_lat": 0.0, "type": "electric_scooter", "name": "833656922bde6b64676d5a3ccbecca47", "is_disabled": 0, "rental_uris": {"ios": "https://dc.lft.to/lastmile_qr_scan", "android": "https://dc.lft.to/lastmile_qr_scan"}, "is_reserved": 0}, {"lon": -77.02584016666667, "bike_id": "f2d36fc324a71f5a2de4c49da834aa93", "lat": 38.89234583333333, "fusion_lon": 0.0, "fusion_lat": 0.0, "type": "electric_scooter", "name": "f2d36fc324a71f5a2de4c49da834aa93", "is_disabled": 0, "rental_uris": {"ios": "https://dc.lft.to/lastmile_qr_scan", "android": "https://dc.lft.to/lastmile_qr_scan"}, "is_reserved": 0}, {"lon": -77.00767916666666, "bike_id": "32e24e771aa2d882df7d07c06fdecaf1", "lat": 38.900600833333336, "fusion_lon": 0.0, "fusion_lat": 0.0, "type": "electric_scooter", "name": "32e24e771aa2d882df7d07c06fdecaf1", "is_disabled": 0, "rental_uris": {"ios": "https://dc.lft.to/lastmile_qr_scan", "android": "https://dc.lft.to/lastmile_qr_scan"}, "is_reserved": 0}, {"lon": -77.04986833333334, "bike_id": "c554f449fff624cae436dfb0b04f02aa", "lat": 38.89608116666667, "fusion_lon": 0.0, "fusion_lat": 0.0, "type": "electric_scooter", "name": "c554f449fff624cae436dfb0b04f02aa", "is_disabled": 0, "rental_uris": {"ios": "https://dc.lft.to/lastmile_qr_scan", "android": "https://dc.lft.to/lastmile_qr_scan"}, "is_reserved": 0}, {"lon": -76.996503, "bike_id": "214d65473946ed9aad725e5264603b64", "lat": 38.9882375, "fusion_lon": 0.0, "fusion_lat": 0.0, "type": "electric_bike", "name": "214d65473946ed9aad725e5264603b64", "is_disabled": 0, "rental_uris": {"ios": "https://dc.lft.to/lastmile_qr_scan", "android": "https://dc.lft.to/lastmile_qr_scan"}, "is_reserved": 0}, {"lon": -77.0268685, "bike_id": "0fe9b7d22e9673a93e0843ebe5375eb6", "lat": 38.904862, "fusion_lon": 0.0, "fusion_lat": 0.0, "type": "electric_scooter", "name": "0fe9b7d22e9673a93e0843ebe5375eb6", "is_disabled": 0, "rental_uris": {"ios": "https://dc.lft.to/lastmile_qr_scan", "android": "https://dc.lft.to/lastmile_qr_scan"}, "is_reserved": 0}, {"lon": -76.9917345, "bike_id": "8799bef71869e3689e8ff13652a681fb", "lat": 38.88988416666667, "fusion_lon": 0.0, "fusion_lat": 0.0, "type": "electric_scooter", "name": "8799bef71869e3689e8ff13652a681fb", "is_disabled": 0, "rental_uris": {"ios": "https://dc.lft.to/lastmile_qr_scan", "android": "https://dc.lft.to/lastmile_qr_scan"}, "is_reserved": 0}, {"lon": -77.05042333333333, "bike_id": "be5e9855593283f7b7bce51f14154b2f", "lat": 38.923973833333335, "fusion_lon": 0.0, "fusion_lat": 0.0, "type": "electric_scooter", "name": "be5e9855593283f7b7bce51f14154b2f", "is_disabled": 0, "rental_uris": {"ios": "https://dc.lft.to/lastmile_qr_scan", "android": "https://dc.lft.to/lastmile_qr_scan"}, "is_reserved": 0}, {"lon": -77.01616316666667, "bike_id": "b2d9973f1297a93f1004f34717816836", "lat": 38.899567166666664, "fusion_lon": 0.0, "fusion_lat": 0.0, "type": "electric_scooter", "name": "b2d9973f1297a93f1004f34717816836", "is_disabled": 0, "rental_uris": {"ios": "https://dc.lft.to/lastmile_qr_scan", "android": "https://dc.lft.to/lastmile_qr_scan"}, "is_reserved": 0}, {"lon": -77.00970116666667, "bike_id": "49afbf567230ab6588a03f30f080f2e9", "lat": 38.91191, "fusion_lon": 0.0, "fusion_lat": 0.0, "type": "electric_scooter", "name": "49afbf567230ab6588a03f30f080f2e9", "is_disabled": 0, "rental_uris": {"ios": "https://dc.lft.to/lastmile_qr_scan", "android": "https://dc.lft.to/lastmile_qr_scan"}, "is_reserved": 0}, {"lon": -76.98747016666667, "bike_id": "dfc7b8b112c5db375bde5b25d03e5409", "lat": 38.886146833333335, "fusion_lon": 0.0, "fusion_lat": 0.0, "type": "electric_scooter", "name": "dfc7b8b112c5db375bde5b25d03e5409", "is_disabled": 0, "rental_uris": {"ios": "https://dc.lft.to/lastmile_qr_scan", "android": "https://dc.lft.to/lastmile_qr_scan"}, "is_reserved": 0}, {"lon": -77.02969733333333, "bike_id": "0f1d27e4bf233147ea55554e47347e33", "lat": 38.90734883333333, "fusion_lon": 0.0, "fusion_lat": 0.0, "type": "electric_scooter", "name": "0f1d27e4bf233147ea55554e47347e33", "is_disabled": 0, "rental_uris": {"ios": "https://dc.lft.to/lastmile_qr_scan", "android": "https://dc.lft.to/lastmile_qr_scan"}, "is_reserved": 0}, {"lon": -77.02171933333334, "bike_id": "3bf356022356d600497ac090d932267c", "lat": 38.9429465, "fusion_lon": 0.0, "fusion_lat": 0.0, "type": "electric_scooter", "name": "3bf356022356d600497ac090d932267c", "is_disabled": 0, "rental_uris": {"ios": "https://dc.lft.to/lastmile_qr_scan", "android": "https://dc.lft.to/lastmile_qr_scan"}, "is_reserved": 0}, {"lon": -76.97683533333333, "bike_id": "82352f8f4d69381fd9c0a87f89270c60", "lat": 38.89619066666667, "fusion_lon": 0.0, "fusion_lat": 0.0, "type": "electric_scooter", "name": "82352f8f4d69381fd9c0a87f89270c60", "is_disabled": 0, "rental_uris": {"ios": "https://dc.lft.to/lastmile_qr_scan", "android": "https://dc.lft.to/lastmile_qr_scan"}, "is_reserved": 0}, {"lon": -77.02983416666666, "bike_id": "e1c58c46644551efa6bb49e6c13eafc8", "lat": 38.93067933333333, "fusion_lon": 0.0, "fusion_lat": 0.0, "type": "electric_scooter", "name": "e1c58c46644551efa6bb49e6c13eafc8", "is_disabled": 0, "rental_uris": {"ios": "https://dc.lft.to/lastmile_qr_scan", "android": "https://dc.lft.to/lastmile_qr_scan"}, "is_reserved": 0}, {"lon": -77.04288583333333, "bike_id": "fd24eb82db8da28923446267cdef65bb", "lat": 38.9073015, "fusion_lon": 0.0, "fusion_lat": 0.0, "type": "electric_scooter", "name": "fd24eb82db8da28923446267cdef65bb", "is_disabled": 0, "rental_uris": {"ios": "https://dc.lft.to/lastmile_qr_scan", "android": "https://dc.lft.to/lastmile_qr_scan"}, "is_reserved": 0}, {"lon": -77.0334685, "bike_id": "e9ca26e8a30c27d19f2e0a4e5aa1889d", "lat": 38.902712666666666, "fusion_lon": 0.0, "fusion_lat": 0.0, "type": "electric_scooter", "name": "e9ca26e8a30c27d19f2e0a4e5aa1889d", "is_disabled": 0, "rental_uris": {"ios": "https://dc.lft.to/lastmile_qr_scan", "android": "https://dc.lft.to/lastmile_qr_scan"}, "is_reserved": 0}, {"lon": -77.02654016666666, "bike_id": "11ca05e3206cd82d7cddd906a3a20e32", "lat": 38.929784833333336, "fusion_lon": 0.0, "fusion_lat": 0.0, "type": "electric_scooter", "name": "11ca05e3206cd82d7cddd906a3a20e32", "is_disabled": 0, "rental_uris": {"ios": "https://dc.lft.to/lastmile_qr_scan", "android": "https://dc.lft.to/lastmile_qr_scan"}, "is_reserved": 0}, {"lon": -77.0540855, "bike_id": "3cd77a1d349a9bc05443e69091b7c740", "lat": 38.90150533333333, "fusion_lon": 0.0, "fusion_lat": 0.0, "type": "electric_scooter", "name": "3cd77a1d349a9bc05443e69091b7c740", "is_disabled": 0, "rental_uris": {"ios": "https://dc.lft.to/lastmile_qr_scan", "android": "https://dc.lft.to/lastmile_qr_scan"}, "is_reserved": 0}, {"lon": -76.98886966666667, "bike_id": "566978b7b9a6641e00d53df34cdf4471", "lat": 38.86664733333333, "fusion_lon": 0.0, "fusion_lat": 0.0, "type": "electric_scooter", "name": "566978b7b9a6641e00d53df34cdf4471", "is_disabled": 0, "rental_uris": {"ios": "https://dc.lft.to/lastmile_qr_scan", "android": "https://dc.lft.to/lastmile_qr_scan"}, "is_reserved": 0}, {"lon": -77.02074966666666, "bike_id": "fd96acbe3a3be7a8df0144de4f57e723", "lat": 38.936382, "fusion_lon": 0.0, "fusion_lat": 0.0, "type": "electric_scooter", "name": "fd96acbe3a3be7a8df0144de4f57e723", "is_disabled": 0, "rental_uris": {"ios": "https://dc.lft.to/lastmile_qr_scan", "android": "https://dc.lft.to/lastmile_qr_scan"}, "is_reserved": 0}, {"lon": -77.03828, "bike_id": "e7a12779341846a72cef8b484663169c", "lat": 38.91693016666667, "fusion_lon": 0.0, "fusion_lat": 0.0, "type": "electric_scooter", "name": "e7a12779341846a72cef8b484663169c", "is_disabled": 0, "rental_uris": {"ios": "https://dc.lft.to/lastmile_qr_scan", "android": "https://dc.lft.to/lastmile_qr_scan"}, "is_reserved": 0}, {"lon": -77.02402266666667, "bike_id": "44351d83f0309d44a68b2b96b6de3c51", "lat": 38.90960883333333, "fusion_lon": 0.0, "fusion_lat": 0.0, "type": "electric_scooter", "name": "44351d83f0309d44a68b2b96b6de3c51", "is_disabled": 0, "rental_uris": {"ios": "https://dc.lft.to/lastmile_qr_scan", "android": "https://dc.lft.to/lastmile_qr_scan"}, "is_reserved": 0}, {"lon": -77.01996316666667, "bike_id": "137017c26b25ea04a9bfbfa06d85a0b2", "lat": 38.8759255, "fusion_lon": 0.0, "fusion_lat": 0.0, "type": "electric_scooter", "name": "137017c26b25ea04a9bfbfa06d85a0b2", "is_disabled": 0, "rental_uris": {"ios": "https://dc.lft.to/lastmile_qr_scan", "android": "https://dc.lft.to/lastmile_qr_scan"}, "is_reserved": 0}, {"lon": -77.03473583333333, "bike_id": "926f73a1f9045cb875280a98086a8906", "lat": 38.884899, "fusion_lon": 0.0, "fusion_lat": 0.0, "type": "electric_scooter", "name": "926f73a1f9045cb875280a98086a8906", "is_disabled": 0, "rental_uris": {"ios": "https://dc.lft.to/lastmile_qr_scan", "android": "https://dc.lft.to/lastmile_qr_scan"}, "is_reserved": 0}, {"lon": -77.0004205, "bike_id": "ee8dd2d276ca8814985757f9f124d3ac", "lat": 38.96802483333333, "fusion_lon": 0.0, "fusion_lat": 0.0, "type": "electric_bike", "name": "ee8dd2d276ca8814985757f9f124d3ac", "is_disabled": 0, "rental_uris": {"ios": "https://dc.lft.to/lastmile_qr_scan", "android": "https://dc.lft.to/lastmile_qr_scan"}, "is_reserved": 0}, {"lon": -77.05252366666667, "bike_id": "6d3ce4c604fe39d431826300969f4435", "lat": 38.9273825, "fusion_lon": 0.0, "fusion_lat": 0.0, "type": "electric_scooter", "name": "6d3ce4c604fe39d431826300969f4435", "is_disabled": 0, "rental_uris": {"ios": "https://dc.lft.to/lastmile_qr_scan", "android": "https://dc.lft.to/lastmile_qr_scan"}, "is_reserved": 0}, {"lon": -77.02954, "bike_id": "8382a95880db1e8c5ef79157e3b61c5c", "lat": 38.908046666666664, "fusion_lon": 0.0, "fusion_lat": 0.0, "type": "electric_scooter", "name": "8382a95880db1e8c5ef79157e3b61c5c", "is_disabled": 0, "rental_uris": {"ios": "https://dc.lft.to/lastmile_qr_scan", "android": "https://dc.lft.to/lastmile_qr_scan"}, "is_reserved": 0}, {"lon": -76.9822895, "bike_id": "3cb3f888ed0a2e06304a98acf66f4787", "lat": 38.88651, "fusion_lon": 0.0, "fusion_lat": 0.0, "type": "electric_scooter", "name": "3cb3f888ed0a2e06304a98acf66f4787", "is_disabled": 0, "rental_uris": {"ios": "https://dc.lft.to/lastmile_qr_scan", "android": "https://dc.lft.to/lastmile_qr_scan"}, "is_reserved": 0}, {"lon": -77.02209616666667, "bike_id": "32ee7aed995a1fe000e7092fff67a1d8", "lat": 38.9141875, "fusion_lon": 0.0, "fusion_lat": 0.0, "type": "electric_scooter", "name": "32ee7aed995a1fe000e7092fff67a1d8", "is_disabled": 0, "rental_uris": {"ios": "https://dc.lft.to/lastmile_qr_scan", "android": "https://dc.lft.to/lastmile_qr_scan"}, "is_reserved": 0}, {"lon": -77.0570215, "bike_id": "8c9951b838d9cae063f166e2aa92171b", "lat": 38.933800166666664, "fusion_lon": 0.0, "fusion_lat": 0.0, "type": "electric_scooter", "name": "8c9951b838d9cae063f166e2aa92171b", "is_disabled": 0, "rental_uris": {"ios": "https://dc.lft.to/lastmile_qr_scan", "android": "https://dc.lft.to/lastmile_qr_scan"}, "is_reserved": 0}, {"lon": -77.16629116666667, "bike_id": "dfd2fb9f42fcbf98c4d5190e3594ba6c", "lat": 38.88841433333333, "fusion_lon": 0.0, "fusion_lat": 0.0, "type": "electric_bike", "name": "dfd2fb9f42fcbf98c4d5190e3594ba6c", "is_disabled": 0, "rental_uris": {"ios": "https://dc.lft.to/lastmile_qr_scan", "android": "https://dc.lft.to/lastmile_qr_scan"}, "is_reserved": 0}, {"lon": -77.10482183333333, "bike_id": "fb424d444cf9aaaa0cb0adab7f960739", "lat": 38.85606933333333, "fusion_lon": 0.0, "fusion_lat": 0.0, "type": "electric_bike", "name": "fb424d444cf9aaaa0cb0adab7f960739", "is_disabled": 0, "rental_uris": {"ios": "https://dc.lft.to/lastmile_qr_scan", "android": "https://dc.lft.to/lastmile_qr_scan"}, "is_reserved": 0}, {"lon": -77.11153116666667, "bike_id": "131c5c0bcead477d07cd4a6c3dcafaca", "lat": 38.85511133333333, "fusion_lon": 0.0, "fusion_lat": 0.0, "type": "electric_bike", "name": "131c5c0bcead477d07cd4a6c3dcafaca", "is_disabled": 0, "rental_uris": {"ios": "https://dc.lft.to/lastmile_qr_scan", "android": "https://dc.lft.to/lastmile_qr_scan"}, "is_reserved": 0}, {"lon": -77.0729425, "bike_id": "a32bb883bd7e8287518513509ba83c71", "lat": 38.9246655, "fusion_lon": 0.0, "fusion_lat": 0.0, "type": "electric_scooter", "name": "a32bb883bd7e8287518513509ba83c71", "is_disabled": 0, "rental_uris": {"ios": "https://dc.lft.to/lastmile_qr_scan", "android": "https://dc.lft.to/lastmile_qr_scan"}, "is_reserved": 0}, {"lon": -76.97334983333333, "bike_id": "636cbefa6ad5aeb76ffae45ae858463a", "lat": 38.86563366666667, "fusion_lon": 0.0, "fusion_lat": 0.0, "type": "electric_scooter", "name": "636cbefa6ad5aeb76ffae45ae858463a", "is_disabled": 0, "rental_uris": {"ios": "https://dc.lft.to/lastmile_qr_scan", "android": "https://dc.lft.to/lastmile_qr_scan"}, "is_reserved": 0}, {"lon": -77.02373533333333, "bike_id": "05ed973adc9b53abb20c8c859b45c6d1", "lat": 38.902066833333336, "fusion_lon": 0.0, "fusion_lat": 0.0, "type": "electric_scooter", "name": "05ed973adc9b53abb20c8c859b45c6d1", "is_disabled": 0, "rental_uris": {"ios": "https://dc.lft.to/lastmile_qr_scan", "android": "https://dc.lft.to/lastmile_qr_scan"}, "is_reserved": 0}, {"lon": -77.04690266666667, "bike_id": "e27c40a1bb440c8cdd2d0b4d74172607", "lat": 39.023982333333336, "fusion_lon": 0.0, "fusion_lat": 0.0, "type": "electric_bike", "name": "e27c40a1bb440c8cdd2d0b4d74172607", "is_disabled": 0, "rental_uris": {"ios": "https://dc.lft.to/lastmile_qr_scan", "android": "https://dc.lft.to/lastmile_qr_scan"}, "is_reserved": 0}, {"lon": -77.015839, "bike_id": "ef9ff58d868f87cf896f469183df2011", "lat": 38.88615983333333, "fusion_lon": 0.0, "fusion_lat": 0.0, "type": "electric_scooter", "name": "ef9ff58d868f87cf896f469183df2011", "is_disabled": 0, "rental_uris": {"ios": "https://dc.lft.to/lastmile_qr_scan", "android": "https://dc.lft.to/lastmile_qr_scan"}, "is_reserved": 0}, {"lon": -77.04480466666666, "bike_id": "d4a534e2e6a703b6b7de7a86075693ac", "lat": 38.91562166666667, "fusion_lon": 0.0, "fusion_lat": 0.0, "type": "electric_scooter", "name": "d4a534e2e6a703b6b7de7a86075693ac", "is_disabled": 0, "rental_uris": {"ios": "https://dc.lft.to/lastmile_qr_scan", "android": "https://dc.lft.to/lastmile_qr_scan"}, "is_reserved": 0}, {"lon": -77.02461316666667, "bike_id": "dbf81098525f812200e2cb81617ea92b", "lat": 38.938022833333335, "fusion_lon": 0.0, "fusion_lat": 0.0, "type": "electric_scooter", "name": "dbf81098525f812200e2cb81617ea92b", "is_disabled": 0, "rental_uris": {"ios": "https://dc.lft.to/lastmile_qr_scan", "android": "https://dc.lft.to/lastmile_qr_scan"}, "is_reserved": 0}, {"lon": -77.02858383333333, "bike_id": "b2bf6a47022b90b413b2112608f37358", "lat": 38.887457833333336, "fusion_lon": 0.0, "fusion_lat": 0.0, "type": "electric_scooter", "name": "b2bf6a47022b90b413b2112608f37358", "is_disabled": 0, "rental_uris": {"ios": "https://dc.lft.to/lastmile_qr_scan", "android": "https://dc.lft.to/lastmile_qr_scan"}, "is_reserved": 0}, {"lon": -77.00069783333333, "bike_id": "4d647250dd9224288f7c06cbf0aed8ec", "lat": 38.876654333333335, "fusion_lon": 0.0, "fusion_lat": 0.0, "type": "electric_scooter", "name": "4d647250dd9224288f7c06cbf0aed8ec", "is_disabled": 0, "rental_uris": {"ios": "https://dc.lft.to/lastmile_qr_scan", "android": "https://dc.lft.to/lastmile_qr_scan"}, "is_reserved": 0}, {"lon": -77.02779466666667, "bike_id": "b0a7994369ce995bcd6532bbc40d59aa", "lat": 38.94192666666667, "fusion_lon": 0.0, "fusion_lat": 0.0, "type": "electric_scooter", "name": "b0a7994369ce995bcd6532bbc40d59aa", "is_disabled": 0, "rental_uris": {"ios": "https://dc.lft.to/lastmile_qr_scan", "android": "https://dc.lft.to/lastmile_qr_scan"}, "is_reserved": 0}, {"lon": -76.9991125, "bike_id": "fe54ee5f208f87aebd7d5bbd9927de82", "lat": 38.9245855, "fusion_lon": 0.0, "fusion_lat": 0.0, "type": "electric_scooter", "name": "fe54ee5f208f87aebd7d5bbd9927de82", "is_disabled": 0, "rental_uris": {"ios": "https://dc.lft.to/lastmile_qr_scan", "android": "https://dc.lft.to/lastmile_qr_scan"}, "is_reserved": 0}, {"lon": -77.02791883333333, "bike_id": "efa6d77ed6d1ebb4503d8153f5237e36", "lat": 38.93429283333333, "fusion_lon": 0.0, "fusion_lat": 0.0, "type": "electric_scooter", "name": "efa6d77ed6d1ebb4503d8153f5237e36", "is_disabled": 0, "rental_uris": {"ios": "https://dc.lft.to/lastmile_qr_scan", "android": "https://dc.lft.to/lastmile_qr_scan"}, "is_reserved": 0}, {"lon": -77.01220933333333, "bike_id": "e85db436dce8a86ec38dddcdd0c75825", "lat": 38.871875833333334, "fusion_lon": 0.0, "fusion_lat": 0.0, "type": "electric_scooter", "name": "e85db436dce8a86ec38dddcdd0c75825", "is_disabled": 0, "rental_uris": {"ios": "https://dc.lft.to/lastmile_qr_scan", "android": "https://dc.lft.to/lastmile_qr_scan"}, "is_reserved": 0}, {"lon": -77.03343466666666, "bike_id": "1f78254e987577e13641e7d1367dd075", "lat": 38.90274866666667, "fusion_lon": 0.0, "fusion_lat": 0.0, "type": "electric_scooter", "name": "1f78254e987577e13641e7d1367dd075", "is_disabled": 0, "rental_uris": {"ios": "https://dc.lft.to/lastmile_qr_scan", "android": "https://dc.lft.to/lastmile_qr_scan"}, "is_reserved": 0}, {"lon": -77.01922833333333, "bike_id": "d65e2910acb6bbbbe77686b23a57740a", "lat": 38.934655666666664, "fusion_lon": 0.0, "fusion_lat": 0.0, "type": "electric_scooter", "name": "d65e2910acb6bbbbe77686b23a57740a", "is_disabled": 0, "rental_uris": {"ios": "https://dc.lft.to/lastmile_qr_scan", "android": "https://dc.lft.to/lastmile_qr_scan"}, "is_reserved": 0}, {"lon": -77.02461633333333, "bike_id": "6f94fd1394d4a98d2a4c0e8c2602ae10", "lat": 38.93880216666667, "fusion_lon": 0.0, "fusion_lat": 0.0, "type": "electric_scooter", "name": "6f94fd1394d4a98d2a4c0e8c2602ae10", "is_disabled": 0, "rental_uris": {"ios": "https://dc.lft.to/lastmile_qr_scan", "android": "https://dc.lft.to/lastmile_qr_scan"}, "is_reserved": 0}, {"lon": -77.041513, "bike_id": "557f8b53f362edd47cfc538a640aba76", "lat": 38.90673683333333, "fusion_lon": 0.0, "fusion_lat": 0.0, "type": "electric_scooter", "name": "557f8b53f362edd47cfc538a640aba76", "is_disabled": 0, "rental_uris": {"ios": "https://dc.lft.to/lastmile_qr_scan", "android": "https://dc.lft.to/lastmile_qr_scan"}, "is_reserved": 0}, {"lon": -77.0280295, "bike_id": "bac5c4b2d1ee82add4e3a35821b0feb5", "lat": 38.931457, "fusion_lon": 0.0, "fusion_lat": 0.0, "type": "electric_scooter", "name": "bac5c4b2d1ee82add4e3a35821b0feb5", "is_disabled": 0, "rental_uris": {"ios": "https://dc.lft.to/lastmile_qr_scan", "android": "https://dc.lft.to/lastmile_qr_scan"}, "is_reserved": 0}, {"lon": -77.02065816666666, "bike_id": "eaa58899c9ad436bd6c41b58111a54d2", "lat": 38.8972815, "fusion_lon": 0.0, "fusion_lat": 0.0, "type": "electric_scooter", "name": "eaa58899c9ad436bd6c41b58111a54d2", "is_disabled": 0, "rental_uris": {"ios": "https://dc.lft.to/lastmile_qr_scan", "android": "https://dc.lft.to/lastmile_qr_scan"}, "is_reserved": 0}, {"lon": -76.97483516666667, "bike_id": "b3dd629c698035ad4e358dbf6161ba5f", "lat": 38.903543666666664, "fusion_lon": 0.0, "fusion_lat": 0.0, "type": "electric_scooter", "name": "b3dd629c698035ad4e358dbf6161ba5f", "is_disabled": 0, "rental_uris": {"ios": "https://dc.lft.to/lastmile_qr_scan", "android": "https://dc.lft.to/lastmile_qr_scan"}, "is_reserved": 0}, {"lon": -77.03443283333333, "bike_id": "320f58e9fb4e7e0bbd658b9817e9abd3", "lat": 38.9068955, "fusion_lon": 0.0, "fusion_lat": 0.0, "type": "electric_scooter", "name": "320f58e9fb4e7e0bbd658b9817e9abd3", "is_disabled": 0, "rental_uris": {"ios": "https://dc.lft.to/lastmile_qr_scan", "android": "https://dc.lft.to/lastmile_qr_scan"}, "is_reserved": 0}, {"lon": -77.00680883333334, "bike_id": "2c4ed0c3b480d8d502d734830030bf1b", "lat": 38.90017733333333, "fusion_lon": 0.0, "fusion_lat": 0.0, "type": "electric_scooter", "name": "2c4ed0c3b480d8d502d734830030bf1b", "is_disabled": 0, "rental_uris": {"ios": "https://dc.lft.to/lastmile_qr_scan", "android": "https://dc.lft.to/lastmile_qr_scan"}, "is_reserved": 0}, {"lon": -77.0217145, "bike_id": "f2979aa3f37db019ab0f92f79cd63220", "lat": 38.91916116666667, "fusion_lon": 0.0, "fusion_lat": 0.0, "type": "electric_scooter", "name": "f2979aa3f37db019ab0f92f79cd63220", "is_disabled": 0, "rental_uris": {"ios": "https://dc.lft.to/lastmile_qr_scan", "android": "https://dc.lft.to/lastmile_qr_scan"}, "is_reserved": 0}, {"lon": -77.04263566666667, "bike_id": "c3c9d93fd43ab5318cf42694d159b441", "lat": 38.9148475, "fusion_lon": 0.0, "fusion_lat": 0.0, "type": "electric_scooter", "name": "c3c9d93fd43ab5318cf42694d159b441", "is_disabled": 0, "rental_uris": {"ios": "https://dc.lft.to/lastmile_qr_scan", "android": "https://dc.lft.to/lastmile_qr_scan"}, "is_reserved": 0}, {"lon": -77.0438665, "bike_id": "16d2afa40de8d11d510a708243e37c44", "lat": 38.9232255, "fusion_lon": 0.0, "fusion_lat": 0.0, "type": "electric_scooter", "name": "16d2afa40de8d11d510a708243e37c44", "is_disabled": 0, "rental_uris": {"ios": "https://dc.lft.to/lastmile_qr_scan", "android": "https://dc.lft.to/lastmile_qr_scan"}, "is_reserved": 0}, {"lon": -76.99078916666667, "bike_id": "02aeb6ece94e952c627ee89c2cf3a1b1", "lat": 38.862404166666664, "fusion_lon": 0.0, "fusion_lat": 0.0, "type": "electric_bike", "name": "02aeb6ece94e952c627ee89c2cf3a1b1", "is_disabled": 0, "rental_uris": {"ios": "https://dc.lft.to/lastmile_qr_scan", "android": "https://dc.lft.to/lastmile_qr_scan"}, "is_reserved": 0}, {"lon": -77.0325465, "bike_id": "9a5931159887c7368655e8e44087925e", "lat": 38.909623, "fusion_lon": 0.0, "fusion_lat": 0.0, "type": "electric_scooter", "name": "9a5931159887c7368655e8e44087925e", "is_disabled": 0, "rental_uris": {"ios": "https://dc.lft.to/lastmile_qr_scan", "android": "https://dc.lft.to/lastmile_qr_scan"}, "is_reserved": 0}, {"lon": -77.02857633333333, "bike_id": "4e986efcc3658b8b263dee4f2e240b05", "lat": 38.956320166666664, "fusion_lon": 0.0, "fusion_lat": 0.0, "type": "electric_scooter", "name": "4e986efcc3658b8b263dee4f2e240b05", "is_disabled": 0, "rental_uris": {"ios": "https://dc.lft.to/lastmile_qr_scan", "android": "https://dc.lft.to/lastmile_qr_scan"}, "is_reserved": 0}, {"lon": -77.03973316666666, "bike_id": "d1204f65da6d837a124e507c99cd1af3", "lat": 38.9202725, "fusion_lon": 0.0, "fusion_lat": 0.0, "type": "electric_scooter", "name": "d1204f65da6d837a124e507c99cd1af3", "is_disabled": 0, "rental_uris": {"ios": "https://dc.lft.to/lastmile_qr_scan", "android": "https://dc.lft.to/lastmile_qr_scan"}, "is_reserved": 0}, {"lon": -76.99019416666667, "bike_id": "3dec73e7d03f0a79aca6f4840864746a", "lat": 38.866444333333334, "fusion_lon": 0.0, "fusion_lat": 0.0, "type": "electric_scooter", "name": "3dec73e7d03f0a79aca6f4840864746a", "is_disabled": 0, "rental_uris": {"ios": "https://dc.lft.to/lastmile_qr_scan", "android": "https://dc.lft.to/lastmile_qr_scan"}, "is_reserved": 0}, {"lon": -77.08072016666667, "bike_id": "f8304912dbe0682224fdd98fa269d73b", "lat": 39.05280183333333, "fusion_lon": 0.0, "fusion_lat": 0.0, "type": "electric_bike", "name": "f8304912dbe0682224fdd98fa269d73b", "is_disabled": 0, "rental_uris": {"ios": "https://dc.lft.to/lastmile_qr_scan", "android": "https://dc.lft.to/lastmile_qr_scan"}, "is_reserved": 0}, {"lon": -77.048738, "bike_id": "6e866a3fee195844f00f5b0cc6f6a955", "lat": 38.915705, "fusion_lon": 0.0, "fusion_lat": 0.0, "type": "electric_scooter", "name": "6e866a3fee195844f00f5b0cc6f6a955", "is_disabled": 0, "rental_uris": {"ios": "https://dc.lft.to/lastmile_qr_scan", "android": "https://dc.lft.to/lastmile_qr_scan"}, "is_reserved": 0}, {"lon": -77.0497615, "bike_id": "b2bb0be2e4dcf7dca88b17203d8b6338", "lat": 39.06293383333333, "fusion_lon": 0.0, "fusion_lat": 0.0, "type": "electric_bike", "name": "b2bb0be2e4dcf7dca88b17203d8b6338", "is_disabled": 0, "rental_uris": {"ios": "https://dc.lft.to/lastmile_qr_scan", "android": "https://dc.lft.to/lastmile_qr_scan"}, "is_reserved": 0}, {"lon": -77.05129133333334, "bike_id": "090490a7359b432595e40cc11e244308", "lat": 38.8986225, "fusion_lon": 0.0, "fusion_lat": 0.0, "type": "electric_scooter", "name": "090490a7359b432595e40cc11e244308", "is_disabled": 0, "rental_uris": {"ios": "https://dc.lft.to/lastmile_qr_scan", "android": "https://dc.lft.to/lastmile_qr_scan"}, "is_reserved": 0}, {"lon": -77.03287233333333, "bike_id": "0ea79560c0a4e788f73f35cf00fdb550", "lat": 38.956523833333335, "fusion_lon": 0.0, "fusion_lat": 0.0, "type": "electric_scooter", "name": "0ea79560c0a4e788f73f35cf00fdb550", "is_disabled": 0, "rental_uris": {"ios": "https://dc.lft.to/lastmile_qr_scan", "android": "https://dc.lft.to/lastmile_qr_scan"}, "is_reserved": 0}, {"lon": -77.00123433333333, "bike_id": "96801a920f2d1466345c41c8408cc5ea", "lat": 38.90506833333333, "fusion_lon": 0.0, "fusion_lat": 0.0, "type": "electric_scooter", "name": "96801a920f2d1466345c41c8408cc5ea", "is_disabled": 0, "rental_uris": {"ios": "https://dc.lft.to/lastmile_qr_scan", "android": "https://dc.lft.to/lastmile_qr_scan"}, "is_reserved": 0}, {"lon": -77.04598233333333, "bike_id": "28b840bac94d6e3f50d3ae060647e801", "lat": 38.896128, "fusion_lon": 0.0, "fusion_lat": 0.0, "type": "electric_scooter", "name": "28b840bac94d6e3f50d3ae060647e801", "is_disabled": 0, "rental_uris": {"ios": "https://dc.lft.to/lastmile_qr_scan", "android": "https://dc.lft.to/lastmile_qr_scan"}, "is_reserved": 0}, {"lon": -76.93771933333333, "bike_id": "fe40e6d8e856a5d55f459078de90bdcf", "lat": 38.89973833333333, "fusion_lon": 0.0, "fusion_lat": 0.0, "type": "electric_scooter", "name": "fe40e6d8e856a5d55f459078de90bdcf", "is_disabled": 0, "rental_uris": {"ios": "https://dc.lft.to/lastmile_qr_scan", "android": "https://dc.lft.to/lastmile_qr_scan"}, "is_reserved": 0}, {"lon": -76.93762633333333, "bike_id": "1ef9d6b5f1aac5e6a1de4243c56dc5ea", "lat": 38.87862966666667, "fusion_lon": 0.0, "fusion_lat": 0.0, "type": "electric_scooter", "name": "1ef9d6b5f1aac5e6a1de4243c56dc5ea", "is_disabled": 0, "rental_uris": {"ios": "https://dc.lft.to/lastmile_qr_scan", "android": "https://dc.lft.to/lastmile_qr_scan"}, "is_reserved": 0}, {"lon": -77.02297516666667, "bike_id": "7d70c933ec9f1033b0fdbf933a21a129", "lat": 38.90870283333334, "fusion_lon": 0.0, "fusion_lat": 0.0, "type": "electric_scooter", "name": "7d70c933ec9f1033b0fdbf933a21a129", "is_disabled": 0, "rental_uris": {"ios": "https://dc.lft.to/lastmile_qr_scan", "android": "https://dc.lft.to/lastmile_qr_scan"}, "is_reserved": 0}, {"lon": -76.99858983333333, "bike_id": "e3a60057163b53062a75b7904a7aa3cb", "lat": 38.894124166666664, "fusion_lon": 0.0, "fusion_lat": 0.0, "type": "electric_scooter", "name": "e3a60057163b53062a75b7904a7aa3cb", "is_disabled": 0, "rental_uris": {"ios": "https://dc.lft.to/lastmile_qr_scan", "android": "https://dc.lft.to/lastmile_qr_scan"}, "is_reserved": 0}, {"lon": -77.035422, "bike_id": "cf28d37db12bce82af4925c5782c459b", "lat": 38.91833716666667, "fusion_lon": 0.0, "fusion_lat": 0.0, "type": "electric_scooter", "name": "cf28d37db12bce82af4925c5782c459b", "is_disabled": 0, "rental_uris": {"ios": "https://dc.lft.to/lastmile_qr_scan", "android": "https://dc.lft.to/lastmile_qr_scan"}, "is_reserved": 0}, {"lon": -76.94502616666666, "bike_id": "1ffabe5208cccf89518cc4ff8935f649", "lat": 38.86487566666667, "fusion_lon": 0.0, "fusion_lat": 0.0, "type": "electric_bike", "name": "1ffabe5208cccf89518cc4ff8935f649", "is_disabled": 0, "rental_uris": {"ios": "https://dc.lft.to/lastmile_qr_scan", "android": "https://dc.lft.to/lastmile_qr_scan"}, "is_reserved": 0}, {"lon": -77.0354215, "bike_id": "949143199ecb8e241609c7ff070f9c60", "lat": 38.918327166666664, "fusion_lon": 0.0, "fusion_lat": 0.0, "type": "electric_scooter", "name": "949143199ecb8e241609c7ff070f9c60", "is_disabled": 0, "rental_uris": {"ios": "https://dc.lft.to/lastmile_qr_scan", "android": "https://dc.lft.to/lastmile_qr_scan"}, "is_reserved": 0}, {"lon": -76.990073, "bike_id": "86e2c23cf4cd0b1c8f370fd73d0f35d6", "lat": 38.94604483333333, "fusion_lon": 0.0, "fusion_lat": 0.0, "type": "electric_scooter", "name": "86e2c23cf4cd0b1c8f370fd73d0f35d6", "is_disabled": 0, "rental_uris": {"ios": "https://dc.lft.to/lastmile_qr_scan", "android": "https://dc.lft.to/lastmile_qr_scan"}, "is_reserved": 0}, {"lon": -77.03539416666666, "bike_id": "81c33692cdd5728aa1a5323650711354", "lat": 38.92344216666667, "fusion_lon": 0.0, "fusion_lat": 0.0, "type": "electric_scooter", "name": "81c33692cdd5728aa1a5323650711354", "is_disabled": 0, "rental_uris": {"ios": "https://dc.lft.to/lastmile_qr_scan", "android": "https://dc.lft.to/lastmile_qr_scan"}, "is_reserved": 0}, {"lon": -77.00787166666667, "bike_id": "ba5b0073f585117453236088d8d3001e", "lat": 38.9065505, "fusion_lon": 0.0, "fusion_lat": 0.0, "type": "electric_scooter", "name": "ba5b0073f585117453236088d8d3001e", "is_disabled": 0, "rental_uris": {"ios": "https://dc.lft.to/lastmile_qr_scan", "android": "https://dc.lft.to/lastmile_qr_scan"}, "is_reserved": 0}, {"lon": -77.053574, "bike_id": "422df6efeb28a2681f78b43d1aa074d3", "lat": 38.92711716666667, "fusion_lon": 0.0, "fusion_lat": 0.0, "type": "electric_scooter", "name": "422df6efeb28a2681f78b43d1aa074d3", "is_disabled": 0, "rental_uris": {"ios": "https://dc.lft.to/lastmile_qr_scan", "android": "https://dc.lft.to/lastmile_qr_scan"}, "is_reserved": 0}, {"lon": -77.02286733333334, "bike_id": "4d1265378066e5833336f354ef72bda5", "lat": 38.90903983333333, "fusion_lon": 0.0, "fusion_lat": 0.0, "type": "electric_scooter", "name": "4d1265378066e5833336f354ef72bda5", "is_disabled": 0, "rental_uris": {"ios": "https://dc.lft.to/lastmile_qr_scan", "android": "https://dc.lft.to/lastmile_qr_scan"}, "is_reserved": 0}, {"lon": -77.00583466666667, "bike_id": "483877ccfb20d9604e99e110e982faac", "lat": 38.9060615, "fusion_lon": 0.0, "fusion_lat": 0.0, "type": "electric_scooter", "name": "483877ccfb20d9604e99e110e982faac", "is_disabled": 0, "rental_uris": {"ios": "https://dc.lft.to/lastmile_qr_scan", "android": "https://dc.lft.to/lastmile_qr_scan"}, "is_reserved": 0}, {"lon": -77.1032715, "bike_id": "8f2fb0c57a44e13799f00a491f3a96d7", "lat": 38.87418733333333, "fusion_lon": 0.0, "fusion_lat": 0.0, "type": "electric_bike", "name": "8f2fb0c57a44e13799f00a491f3a96d7", "is_disabled": 0, "rental_uris": {"ios": "https://dc.lft.to/lastmile_qr_scan", "android": "https://dc.lft.to/lastmile_qr_scan"}, "is_reserved": 0}, {"lon": -77.02490633333333, "bike_id": "ce781cee94ee966b192f23f8e2b8b3cb", "lat": 38.9385915, "fusion_lon": 0.0, "fusion_lat": 0.0, "type": "electric_scooter", "name": "ce781cee94ee966b192f23f8e2b8b3cb", "is_disabled": 0, "rental_uris": {"ios": "https://dc.lft.to/lastmile_qr_scan", "android": "https://dc.lft.to/lastmile_qr_scan"}, "is_reserved": 0}, {"lon": -77.052749, "bike_id": "a09e2155c9bebd2adfd93ab8bceb9e1b", "lat": 38.91023533333333, "fusion_lon": 0.0, "fusion_lat": 0.0, "type": "electric_scooter", "name": "a09e2155c9bebd2adfd93ab8bceb9e1b", "is_disabled": 0, "rental_uris": {"ios": "https://dc.lft.to/lastmile_qr_scan", "android": "https://dc.lft.to/lastmile_qr_scan"}, "is_reserved": 0}, {"lon": -77.0439775, "bike_id": "367e9b25c8490d57f41f870a2dae643c", "lat": 38.933238, "fusion_lon": 0.0, "fusion_lat": 0.0, "type": "electric_scooter", "name": "367e9b25c8490d57f41f870a2dae643c", "is_disabled": 0, "rental_uris": {"ios": "https://dc.lft.to/lastmile_qr_scan", "android": "https://dc.lft.to/lastmile_qr_scan"}, "is_reserved": 0}, {"lon": -77.04537216666667, "bike_id": "0c98b5fce396d4e19d2dab9115ae8d12", "lat": 38.913279833333334, "fusion_lon": 0.0, "fusion_lat": 0.0, "type": "electric_scooter", "name": "0c98b5fce396d4e19d2dab9115ae8d12", "is_disabled": 0, "rental_uris": {"ios": "https://dc.lft.to/lastmile_qr_scan", "android": "https://dc.lft.to/lastmile_qr_scan"}, "is_reserved": 0}, {"lon": -77.022917, "bike_id": "4c7caa5633bfbe9704fdf4d7ac7996a9", "lat": 38.94476616666667, "fusion_lon": 0.0, "fusion_lat": 0.0, "type": "electric_bike", "name": "4c7caa5633bfbe9704fdf4d7ac7996a9", "is_disabled": 0, "rental_uris": {"ios": "https://dc.lft.to/lastmile_qr_scan", "android": "https://dc.lft.to/lastmile_qr_scan"}, "is_reserved": 0}, {"lon": -76.927537, "bike_id": "ffb077b46a3c20df5c7dfaa2901b8ce9", "lat": 38.880538, "fusion_lon": 0.0, "fusion_lat": 0.0, "type": "electric_scooter", "name": "ffb077b46a3c20df5c7dfaa2901b8ce9", "is_disabled": 0, "rental_uris": {"ios": "https://dc.lft.to/lastmile_qr_scan", "android": "https://dc.lft.to/lastmile_qr_scan"}, "is_reserved": 0}, {"lon": -77.01998133333333, "bike_id": "4f1005b153adaf7e0e43b58e238084ff", "lat": 38.91366566666667, "fusion_lon": 0.0, "fusion_lat": 0.0, "type": "electric_scooter", "name": "4f1005b153adaf7e0e43b58e238084ff", "is_disabled": 0, "rental_uris": {"ios": "https://dc.lft.to/lastmile_qr_scan", "android": "https://dc.lft.to/lastmile_qr_scan"}, "is_reserved": 0}, {"lon": -77.024154, "bike_id": "84171387f9bfd19323b6a84b7428e097", "lat": 38.90972566666667, "fusion_lon": 0.0, "fusion_lat": 0.0, "type": "electric_scooter", "name": "84171387f9bfd19323b6a84b7428e097", "is_disabled": 0, "rental_uris": {"ios": "https://dc.lft.to/lastmile_qr_scan", "android": "https://dc.lft.to/lastmile_qr_scan"}, "is_reserved": 0}, {"lon": -77.07802133333334, "bike_id": "97f4120a930d9382fe20fe2b39e11fb6", "lat": 38.923686833333335, "fusion_lon": 0.0, "fusion_lat": 0.0, "type": "electric_scooter", "name": "97f4120a930d9382fe20fe2b39e11fb6", "is_disabled": 0, "rental_uris": {"ios": "https://dc.lft.to/lastmile_qr_scan", "android": "https://dc.lft.to/lastmile_qr_scan"}, "is_reserved": 0}, {"lon": -77.034774, "bike_id": "a8f41f61270e9731987bbf5029b806de", "lat": 38.92484866666667, "fusion_lon": 0.0, "fusion_lat": 0.0, "type": "electric_scooter", "name": "a8f41f61270e9731987bbf5029b806de", "is_disabled": 0, "rental_uris": {"ios": "https://dc.lft.to/lastmile_qr_scan", "android": "https://dc.lft.to/lastmile_qr_scan"}, "is_reserved": 0}, {"lon": -77.02400233333333, "bike_id": "109597ce9a44b838bb2a63dc67813e98", "lat": 38.95713383333333, "fusion_lon": 0.0, "fusion_lat": 0.0, "type": "electric_scooter", "name": "109597ce9a44b838bb2a63dc67813e98", "is_disabled": 0, "rental_uris": {"ios": "https://dc.lft.to/lastmile_qr_scan", "android": "https://dc.lft.to/lastmile_qr_scan"}, "is_reserved": 0}, {"lon": -77.011867, "bike_id": "a268fd7aa4511fa03f40c516c2e24b1b", "lat": 38.90024416666667, "fusion_lon": 0.0, "fusion_lat": 0.0, "type": "electric_scooter", "name": "a268fd7aa4511fa03f40c516c2e24b1b", "is_disabled": 0, "rental_uris": {"ios": "https://dc.lft.to/lastmile_qr_scan", "android": "https://dc.lft.to/lastmile_qr_scan"}, "is_reserved": 0}, {"lon": -76.91967183333334, "bike_id": "a01c0953685d391967a225fbf735914a", "lat": 38.9002215, "fusion_lon": 0.0, "fusion_lat": 0.0, "type": "electric_scooter", "name": "a01c0953685d391967a225fbf735914a", "is_disabled": 0, "rental_uris": {"ios": "https://dc.lft.to/lastmile_qr_scan", "android": "https://dc.lft.to/lastmile_qr_scan"}, "is_reserved": 0}, {"lon": -77.03853616666666, "bike_id": "5218ecf1978e1bde00f54a69fa3c2a56", "lat": 38.91751516666667, "fusion_lon": 0.0, "fusion_lat": 0.0, "type": "electric_scooter", "name": "5218ecf1978e1bde00f54a69fa3c2a56", "is_disabled": 0, "rental_uris": {"ios": "https://dc.lft.to/lastmile_qr_scan", "android": "https://dc.lft.to/lastmile_qr_scan"}, "is_reserved": 0}, {"lon": -77.03444833333333, "bike_id": "5c3e6d640ba87d4a49efd95c28eca73c", "lat": 38.90952683333333, "fusion_lon": 0.0, "fusion_lat": 0.0, "type": "electric_scooter", "name": "5c3e6d640ba87d4a49efd95c28eca73c", "is_disabled": 0, "rental_uris": {"ios": "https://dc.lft.to/lastmile_qr_scan", "android": "https://dc.lft.to/lastmile_qr_scan"}, "is_reserved": 0}, {"lon": -77.03463783333333, "bike_id": "1dd01b44e69549783e4911c1af9c2bb4", "lat": 38.934409333333335, "fusion_lon": 0.0, "fusion_lat": 0.0, "type": "electric_scooter", "name": "1dd01b44e69549783e4911c1af9c2bb4", "is_disabled": 0, "rental_uris": {"ios": "https://dc.lft.to/lastmile_qr_scan", "android": "https://dc.lft.to/lastmile_qr_scan"}, "is_reserved": 0}, {"lon": -77.02977866666667, "bike_id": "eb96ea965b206d7d0d2eaacc377cecb0", "lat": 38.92198416666667, "fusion_lon": 0.0, "fusion_lat": 0.0, "type": "electric_scooter", "name": "eb96ea965b206d7d0d2eaacc377cecb0", "is_disabled": 0, "rental_uris": {"ios": "https://dc.lft.to/lastmile_qr_scan", "android": "https://dc.lft.to/lastmile_qr_scan"}, "is_reserved": 0}, {"lon": -77.0199785, "bike_id": "8bdcdae00576f6c59c502b5156c17bac", "lat": 38.9114045, "fusion_lon": 0.0, "fusion_lat": 0.0, "type": "electric_scooter", "name": "8bdcdae00576f6c59c502b5156c17bac", "is_disabled": 0, "rental_uris": {"ios": "https://dc.lft.to/lastmile_qr_scan", "android": "https://dc.lft.to/lastmile_qr_scan"}, "is_reserved": 0}, {"lon": -76.9968195, "bike_id": "06110546fa24c8cb09b5a7912b1e8a8f", "lat": 38.881273, "fusion_lon": 0.0, "fusion_lat": 0.0, "type": "electric_scooter", "name": "06110546fa24c8cb09b5a7912b1e8a8f", "is_disabled": 0, "rental_uris": {"ios": "https://dc.lft.to/lastmile_qr_scan", "android": "https://dc.lft.to/lastmile_qr_scan"}, "is_reserved": 0}, {"lon": -77.07579183333333, "bike_id": "2ce3ff0dc73c107b1d364c3e31448d31", "lat": 38.91264283333334, "fusion_lon": 0.0, "fusion_lat": 0.0, "type": "electric_scooter", "name": "2ce3ff0dc73c107b1d364c3e31448d31", "is_disabled": 0, "rental_uris": {"ios": "https://dc.lft.to/lastmile_qr_scan", "android": "https://dc.lft.to/lastmile_qr_scan"}, "is_reserved": 0}, {"lon": -77.02203833333333, "bike_id": "75f8f9bc4e2b51db069008f71bcc673a", "lat": 38.91054283333333, "fusion_lon": 0.0, "fusion_lat": 0.0, "type": "electric_scooter", "name": "75f8f9bc4e2b51db069008f71bcc673a", "is_disabled": 0, "rental_uris": {"ios": "https://dc.lft.to/lastmile_qr_scan", "android": "https://dc.lft.to/lastmile_qr_scan"}, "is_reserved": 0}, {"lon": -77.012471, "bike_id": "f825fc5fb7e74378a684aadffb96f756", "lat": 38.91576416666667, "fusion_lon": 0.0, "fusion_lat": 0.0, "type": "electric_scooter", "name": "f825fc5fb7e74378a684aadffb96f756", "is_disabled": 0, "rental_uris": {"ios": "https://dc.lft.to/lastmile_qr_scan", "android": "https://dc.lft.to/lastmile_qr_scan"}, "is_reserved": 0}, {"lon": -77.04624816666667, "bike_id": "6b0120401ed7fe085f9db65e98aec107", "lat": 38.91913366666667, "fusion_lon": 0.0, "fusion_lat": 0.0, "type": "electric_scooter", "name": "6b0120401ed7fe085f9db65e98aec107", "is_disabled": 0, "rental_uris": {"ios": "https://dc.lft.to/lastmile_qr_scan", "android": "https://dc.lft.to/lastmile_qr_scan"}, "is_reserved": 0}, {"lon": -77.02152983333333, "bike_id": "4a1b5884c393690bbb219ee477bfb04a", "lat": 38.87920366666667, "fusion_lon": 0.0, "fusion_lat": 0.0, "type": "electric_scooter", "name": "4a1b5884c393690bbb219ee477bfb04a", "is_disabled": 0, "rental_uris": {"ios": "https://dc.lft.to/lastmile_qr_scan", "android": "https://dc.lft.to/lastmile_qr_scan"}, "is_reserved": 0}, {"lon": -77.024124, "bike_id": "c95fe689c3bce7c3637bd2d889edf65f", "lat": 38.91693383333333, "fusion_lon": 0.0, "fusion_lat": 0.0, "type": "electric_scooter", "name": "c95fe689c3bce7c3637bd2d889edf65f", "is_disabled": 0, "rental_uris": {"ios": "https://dc.lft.to/lastmile_qr_scan", "android": "https://dc.lft.to/lastmile_qr_scan"}, "is_reserved": 0}, {"lon": -77.03320033333334, "bike_id": "674a706b0ec8ba724994d32dc5b966c1", "lat": 38.914001166666665, "fusion_lon": 0.0, "fusion_lat": 0.0, "type": "electric_scooter", "name": "674a706b0ec8ba724994d32dc5b966c1", "is_disabled": 0, "rental_uris": {"ios": "https://dc.lft.to/lastmile_qr_scan", "android": "https://dc.lft.to/lastmile_qr_scan"}, "is_reserved": 0}, {"lon": -76.97655566666667, "bike_id": "d2567946d7636bd2c3902d55a5bf774f", "lat": 38.887794166666666, "fusion_lon": 0.0, "fusion_lat": 0.0, "type": "electric_scooter", "name": "d2567946d7636bd2c3902d55a5bf774f", "is_disabled": 0, "rental_uris": {"ios": "https://dc.lft.to/lastmile_qr_scan", "android": "https://dc.lft.to/lastmile_qr_scan"}, "is_reserved": 0}, {"lon": -77.03211916666666, "bike_id": "32dd51a7266ba2e8860dead909de33b7", "lat": 38.896576333333336, "fusion_lon": 0.0, "fusion_lat": 0.0, "type": "electric_scooter", "name": "32dd51a7266ba2e8860dead909de33b7", "is_disabled": 0, "rental_uris": {"ios": "https://dc.lft.to/lastmile_qr_scan", "android": "https://dc.lft.to/lastmile_qr_scan"}, "is_reserved": 0}, {"lon": -77.03834533333334, "bike_id": "314cbb03888b17f045b89b071fe0d71e", "lat": 38.910958666666666, "fusion_lon": 0.0, "fusion_lat": 0.0, "type": "electric_scooter", "name": "314cbb03888b17f045b89b071fe0d71e", "is_disabled": 0, "rental_uris": {"ios": "https://dc.lft.to/lastmile_qr_scan", "android": "https://dc.lft.to/lastmile_qr_scan"}, "is_reserved": 0}, {"lon": -77.00138866666667, "bike_id": "6eacfdcf1fbcb13ef37edbddd59c368e", "lat": 38.92556533333333, "fusion_lon": 0.0, "fusion_lat": 0.0, "type": "electric_bike", "name": "6eacfdcf1fbcb13ef37edbddd59c368e", "is_disabled": 0, "rental_uris": {"ios": "https://dc.lft.to/lastmile_qr_scan", "android": "https://dc.lft.to/lastmile_qr_scan"}, "is_reserved": 0}, {"lon": -76.944352, "bike_id": "c559fb5328ca50c0cdacbf2b617ff622", "lat": 38.90045, "fusion_lon": 0.0, "fusion_lat": 0.0, "type": "electric_scooter", "name": "c559fb5328ca50c0cdacbf2b617ff622", "is_disabled": 0, "rental_uris": {"ios": "https://dc.lft.to/lastmile_qr_scan", "android": "https://dc.lft.to/lastmile_qr_scan"}, "is_reserved": 0}, {"lon": -77.10092233333333, "bike_id": "c46bd5736f2bf6898a32c26b7675a27f", "lat": 38.95958866666667, "fusion_lon": 0.0, "fusion_lat": 0.0, "type": "electric_bike", "name": "c46bd5736f2bf6898a32c26b7675a27f", "is_disabled": 0, "rental_uris": {"ios": "https://dc.lft.to/lastmile_qr_scan", "android": "https://dc.lft.to/lastmile_qr_scan"}, "is_reserved": 0}, {"lon": -77.01158483333333, "bike_id": "d3c338b082c63205a7a5428d145567ef", "lat": 38.914085166666666, "fusion_lon": 0.0, "fusion_lat": 0.0, "type": "electric_scooter", "name": "d3c338b082c63205a7a5428d145567ef", "is_disabled": 0, "rental_uris": {"ios": "https://dc.lft.to/lastmile_qr_scan", "android": "https://dc.lft.to/lastmile_qr_scan"}, "is_reserved": 0}, {"lon": -77.02707216666667, "bike_id": "e264817ed534e96754807018b90e4c5f", "lat": 38.906704, "fusion_lon": 0.0, "fusion_lat": 0.0, "type": "electric_scooter", "name": "e264817ed534e96754807018b90e4c5f", "is_disabled": 0, "rental_uris": {"ios": "https://dc.lft.to/lastmile_qr_scan", "android": "https://dc.lft.to/lastmile_qr_scan"}, "is_reserved": 0}, {"lon": -76.98780366666666, "bike_id": "ab76f16567b7a02c270c6a53f915156a", "lat": 38.906636166666665, "fusion_lon": 0.0, "fusion_lat": 0.0, "type": "electric_scooter", "name": "ab76f16567b7a02c270c6a53f915156a", "is_disabled": 0, "rental_uris": {"ios": "https://dc.lft.to/lastmile_qr_scan", "android": "https://dc.lft.to/lastmile_qr_scan"}, "is_reserved": 0}, {"lon": -76.98374183333334, "bike_id": "5de4a8e5529f2d6439abe340eb743217", "lat": 38.915113166666664, "fusion_lon": 0.0, "fusion_lat": 0.0, "type": "electric_scooter", "name": "5de4a8e5529f2d6439abe340eb743217", "is_disabled": 0, "rental_uris": {"ios": "https://dc.lft.to/lastmile_qr_scan", "android": "https://dc.lft.to/lastmile_qr_scan"}, "is_reserved": 0}, {"lon": -77.0118245, "bike_id": "5eb3d1dbfec053a1f83bd4465c2fad0d", "lat": 38.8723425, "fusion_lon": 0.0, "fusion_lat": 0.0, "type": "electric_bike", "name": "5eb3d1dbfec053a1f83bd4465c2fad0d", "is_disabled": 0, "rental_uris": {"ios": "https://dc.lft.to/lastmile_qr_scan", "android": "https://dc.lft.to/lastmile_qr_scan"}, "is_reserved": 0}, {"lon": -76.994067, "bike_id": "81259064bfdb1eab3986d29e31de2c2f", "lat": 38.831382166666664, "fusion_lon": 0.0, "fusion_lat": 0.0, "type": "electric_bike", "name": "81259064bfdb1eab3986d29e31de2c2f", "is_disabled": 0, "rental_uris": {"ios": "https://dc.lft.to/lastmile_qr_scan", "android": "https://dc.lft.to/lastmile_qr_scan"}, "is_reserved": 0}, {"lon": -77.01253883333334, "bike_id": "d62c18e0f56b29218a39cd7e5566d589", "lat": 38.90850616666667, "fusion_lon": 0.0, "fusion_lat": 0.0, "type": "electric_scooter", "name": "d62c18e0f56b29218a39cd7e5566d589", "is_disabled": 0, "rental_uris": {"ios": "https://dc.lft.to/lastmile_qr_scan", "android": "https://dc.lft.to/lastmile_qr_scan"}, "is_reserved": 0}, {"lon": -77.030589, "bike_id": "ce648148ba02b180449ce6116a93a671", "lat": 38.908040166666666, "fusion_lon": 0.0, "fusion_lat": 0.0, "type": "electric_scooter", "name": "ce648148ba02b180449ce6116a93a671", "is_disabled": 0, "rental_uris": {"ios": "https://dc.lft.to/lastmile_qr_scan", "android": "https://dc.lft.to/lastmile_qr_scan"}, "is_reserved": 0}, {"lon": -77.04645216666667, "bike_id": "e401c5d40ae2467b9582b2ce824dd240", "lat": 38.91578283333333, "fusion_lon": 0.0, "fusion_lat": 0.0, "type": "electric_scooter", "name": "e401c5d40ae2467b9582b2ce824dd240", "is_disabled": 0, "rental_uris": {"ios": "https://dc.lft.to/lastmile_qr_scan", "android": "https://dc.lft.to/lastmile_qr_scan"}, "is_reserved": 0}, {"lon": -76.984965, "bike_id": "c37c84326fe4668592c98b1cf0874b16", "lat": 38.92009016666667, "fusion_lon": 0.0, "fusion_lat": 0.0, "type": "electric_scooter", "name": "c37c84326fe4668592c98b1cf0874b16", "is_disabled": 0, "rental_uris": {"ios": "https://dc.lft.to/lastmile_qr_scan", "android": "https://dc.lft.to/lastmile_qr_scan"}, "is_reserved": 0}, {"lon": -77.01773166666666, "bike_id": "9192986ff1b387a4175830c89e133937", "lat": 38.92104366666667, "fusion_lon": 0.0, "fusion_lat": 0.0, "type": "electric_scooter", "name": "9192986ff1b387a4175830c89e133937", "is_disabled": 0, "rental_uris": {"ios": "https://dc.lft.to/lastmile_qr_scan", "android": "https://dc.lft.to/lastmile_qr_scan"}, "is_reserved": 0}, {"lon": -76.96385283333333, "bike_id": "89712f1e9370b74fae8b6d5b99adf39d", "lat": 38.95173366666667, "fusion_lon": 0.0, "fusion_lat": 0.0, "type": "electric_bike", "name": "89712f1e9370b74fae8b6d5b99adf39d", "is_disabled": 0, "rental_uris": {"ios": "https://dc.lft.to/lastmile_qr_scan", "android": "https://dc.lft.to/lastmile_qr_scan"}, "is_reserved": 0}, {"lon": -77.025392, "bike_id": "8050b7b89abf6d71fb19eb3dd15e2a6c", "lat": 38.927453, "fusion_lon": 0.0, "fusion_lat": 0.0, "type": "electric_scooter", "name": "8050b7b89abf6d71fb19eb3dd15e2a6c", "is_disabled": 0, "rental_uris": {"ios": "https://dc.lft.to/lastmile_qr_scan", "android": "https://dc.lft.to/lastmile_qr_scan"}, "is_reserved": 0}, {"lon": -77.03663283333333, "bike_id": "717ae3e6af6392d905bcc4beb328bf95", "lat": 38.91753033333333, "fusion_lon": 0.0, "fusion_lat": 0.0, "type": "electric_scooter", "name": "717ae3e6af6392d905bcc4beb328bf95", "is_disabled": 0, "rental_uris": {"ios": "https://dc.lft.to/lastmile_qr_scan", "android": "https://dc.lft.to/lastmile_qr_scan"}, "is_reserved": 0}, {"lon": -77.0078615, "bike_id": "94de7a85246db80f7539aeddc8f72e75", "lat": 38.896679666666664, "fusion_lon": 0.0, "fusion_lat": 0.0, "type": "electric_scooter", "name": "94de7a85246db80f7539aeddc8f72e75", "is_disabled": 0, "rental_uris": {"ios": "https://dc.lft.to/lastmile_qr_scan", "android": "https://dc.lft.to/lastmile_qr_scan"}, "is_reserved": 0}, {"lon": -77.03621983333333, "bike_id": "25fd15ece53aa9afb92f5449eb098bb5", "lat": 38.93744133333333, "fusion_lon": 0.0, "fusion_lat": 0.0, "type": "electric_scooter", "name": "25fd15ece53aa9afb92f5449eb098bb5", "is_disabled": 0, "rental_uris": {"ios": "https://dc.lft.to/lastmile_qr_scan", "android": "https://dc.lft.to/lastmile_qr_scan"}, "is_reserved": 0}, {"lon": -77.03074783333334, "bike_id": "584eb611ed4a5e5fb9012efef9c23458", "lat": 38.918169, "fusion_lon": 0.0, "fusion_lat": 0.0, "type": "electric_scooter", "name": "584eb611ed4a5e5fb9012efef9c23458", "is_disabled": 0, "rental_uris": {"ios": "https://dc.lft.to/lastmile_qr_scan", "android": "https://dc.lft.to/lastmile_qr_scan"}, "is_reserved": 0}, {"lon": -77.01140666666667, "bike_id": "b6363db6757e6e4825e921aef74aa2b1", "lat": 38.9064845, "fusion_lon": 0.0, "fusion_lat": 0.0, "type": "electric_scooter", "name": "b6363db6757e6e4825e921aef74aa2b1", "is_disabled": 0, "rental_uris": {"ios": "https://dc.lft.to/lastmile_qr_scan", "android": "https://dc.lft.to/lastmile_qr_scan"}, "is_reserved": 0}, {"lon": -77.03273966666667, "bike_id": "e088270378cbcdb7e840f3ae43eb3770", "lat": 38.90441583333333, "fusion_lon": 0.0, "fusion_lat": 0.0, "type": "electric_scooter", "name": "e088270378cbcdb7e840f3ae43eb3770", "is_disabled": 0, "rental_uris": {"ios": "https://dc.lft.to/lastmile_qr_scan", "android": "https://dc.lft.to/lastmile_qr_scan"}, "is_reserved": 0}, {"lon": -76.98591716666667, "bike_id": "0b0d7c2bc5bb741821b60254fdbf3690", "lat": 38.908151833333335, "fusion_lon": 0.0, "fusion_lat": 0.0, "type": "electric_scooter", "name": "0b0d7c2bc5bb741821b60254fdbf3690", "is_disabled": 0, "rental_uris": {"ios": "https://dc.lft.to/lastmile_qr_scan", "android": "https://dc.lft.to/lastmile_qr_scan"}, "is_reserved": 0}, {"lon": -76.93366916666666, "bike_id": "751e45777befb78177f466f4e3f09625", "lat": 38.8991605, "fusion_lon": 0.0, "fusion_lat": 0.0, "type": "electric_scooter", "name": "751e45777befb78177f466f4e3f09625", "is_disabled": 0, "rental_uris": {"ios": "https://dc.lft.to/lastmile_qr_scan", "android": "https://dc.lft.to/lastmile_qr_scan"}, "is_reserved": 0}, {"lon": -77.03481416666666, "bike_id": "f57b5cf225f6fb7179a1c78243cd59b1", "lat": 38.935409, "fusion_lon": 0.0, "fusion_lat": 0.0, "type": "electric_scooter", "name": "f57b5cf225f6fb7179a1c78243cd59b1", "is_disabled": 0, "rental_uris": {"ios": "https://dc.lft.to/lastmile_qr_scan", "android": "https://dc.lft.to/lastmile_qr_scan"}, "is_reserved": 0}, {"lon": -77.02543166666666, "bike_id": "c72e5d4cdf5f0f931f8c8f67d29bd838", "lat": 38.91498983333334, "fusion_lon": 0.0, "fusion_lat": 0.0, "type": "electric_scooter", "name": "c72e5d4cdf5f0f931f8c8f67d29bd838", "is_disabled": 0, "rental_uris": {"ios": "https://dc.lft.to/lastmile_qr_scan", "android": "https://dc.lft.to/lastmile_qr_scan"}, "is_reserved": 0}, {"lon": -77.00197383333334, "bike_id": "6131b6738e93625a9dd336719cdcb8d7", "lat": 38.915942, "fusion_lon": 0.0, "fusion_lat": 0.0, "type": "electric_scooter", "name": "6131b6738e93625a9dd336719cdcb8d7", "is_disabled": 0, "rental_uris": {"ios": "https://dc.lft.to/lastmile_qr_scan", "android": "https://dc.lft.to/lastmile_qr_scan"}, "is_reserved": 0}, {"lon": -76.9801565, "bike_id": "8e50ff570ff836b1e6742ecf284f891d", "lat": 38.902925833333335, "fusion_lon": 0.0, "fusion_lat": 0.0, "type": "electric_scooter", "name": "8e50ff570ff836b1e6742ecf284f891d", "is_disabled": 0, "rental_uris": {"ios": "https://dc.lft.to/lastmile_qr_scan", "android": "https://dc.lft.to/lastmile_qr_scan"}, "is_reserved": 0}, {"lon": -77.0234615, "bike_id": "0296e3b048f4ea171ca9fed01438881d", "lat": 38.93540083333333, "fusion_lon": 0.0, "fusion_lat": 0.0, "type": "electric_scooter", "name": "0296e3b048f4ea171ca9fed01438881d", "is_disabled": 0, "rental_uris": {"ios": "https://dc.lft.to/lastmile_qr_scan", "android": "https://dc.lft.to/lastmile_qr_scan"}, "is_reserved": 0}, {"lon": -76.998772, "bike_id": "014f4b906ebc3baccf9e03f7e89fd6ce", "lat": 38.90136233333333, "fusion_lon": 0.0, "fusion_lat": 0.0, "type": "electric_scooter", "name": "014f4b906ebc3baccf9e03f7e89fd6ce", "is_disabled": 0, "rental_uris": {"ios": "https://dc.lft.to/lastmile_qr_scan", "android": "https://dc.lft.to/lastmile_qr_scan"}, "is_reserved": 0}, {"lon": -77.00763683333334, "bike_id": "411c15ed189d6269a3ac40b74b3bcb02", "lat": 38.98134366666667, "fusion_lon": 0.0, "fusion_lat": 0.0, "type": "electric_bike", "name": "411c15ed189d6269a3ac40b74b3bcb02", "is_disabled": 0, "rental_uris": {"ios": "https://dc.lft.to/lastmile_qr_scan", "android": "https://dc.lft.to/lastmile_qr_scan"}, "is_reserved": 0}, {"lon": -77.01758683333334, "bike_id": "79ae7c4037a3fdf989ed21d335e6d0dd", "lat": 38.92109466666667, "fusion_lon": 0.0, "fusion_lat": 0.0, "type": "electric_scooter", "name": "79ae7c4037a3fdf989ed21d335e6d0dd", "is_disabled": 0, "rental_uris": {"ios": "https://dc.lft.to/lastmile_qr_scan", "android": "https://dc.lft.to/lastmile_qr_scan"}, "is_reserved": 0}, {"lon": -77.02900033333333, "bike_id": "512f89b8c0b90ff334d51e5ba2cb244d", "lat": 38.92821816666667, "fusion_lon": 0.0, "fusion_lat": 0.0, "type": "electric_scooter", "name": "512f89b8c0b90ff334d51e5ba2cb244d", "is_disabled": 0, "rental_uris": {"ios": "https://dc.lft.to/lastmile_qr_scan", "android": "https://dc.lft.to/lastmile_qr_scan"}, "is_reserved": 0}, {"lon": -77.03666216666667, "bike_id": "6a32890eeb46bc3fbf5e2dd521c63095", "lat": 38.939204, "fusion_lon": 0.0, "fusion_lat": 0.0, "type": "electric_scooter", "name": "6a32890eeb46bc3fbf5e2dd521c63095", "is_disabled": 0, "rental_uris": {"ios": "https://dc.lft.to/lastmile_qr_scan", "android": "https://dc.lft.to/lastmile_qr_scan"}, "is_reserved": 0}, {"lon": -77.10911966666667, "bike_id": "009bce55064cf8411c6bc73d17395cf5", "lat": 39.052024833333334, "fusion_lon": 0.0, "fusion_lat": 0.0, "type": "electric_bike", "name": "009bce55064cf8411c6bc73d17395cf5", "is_disabled": 0, "rental_uris": {"ios": "https://dc.lft.to/lastmile_qr_scan", "android": "https://dc.lft.to/lastmile_qr_scan"}, "is_reserved": 0}, {"lon": -77.08572183333334, "bike_id": "446aac74499e28e5a4720b31e4a50ba0", "lat": 38.9335775, "fusion_lon": 0.0, "fusion_lat": 0.0, "type": "electric_scooter", "name": "446aac74499e28e5a4720b31e4a50ba0", "is_disabled": 0, "rental_uris": {"ios": "https://dc.lft.to/lastmile_qr_scan", "android": "https://dc.lft.to/lastmile_qr_scan"}, "is_reserved": 0},