{"data": {"bikes": [{"lat": 38.89827316666667, "type": "electric_scooter", "is_disabled": 0, "rental_uris": {"android": "https://dc.lft.to/lastmile_qr_scan", "ios": "https://dc.lft.to/lastmile_qr_scan"}, "is_reserved": 0, "bike_id": "9ea76198e7c284180396bf1baeed7a1b", "name": "9ea76198e7c284180396bf1baeed7a1b", "fusion_lon": 0.0, "lon": -77.02928333333334, "fusion_lat": 0.0}, {"lat": 38.91640233333333, "type": "electric_scooter", "is_disabled": 0, "rental_uris": {"android": "https://dc.lft.to/lastmile_qr_scan", "ios": "https://dc.lft.to/lastmile_qr_scan"}, "is_reserved": 0, "bike_id": "fb4dcc3b5f807e2386162d9842dda915", "name": "fb4dcc3b5f807e2386162d9842dda915", "fusion_lon": 0.0, "lon": -77.02240116666667, "fusion_lat": 0.0}, {"lat": 38.8931405, "type": "electric_scooter", "is_disabled": 0, "rental_uris": {"android": "https://dc.lft.to/lastmile_qr_scan", "ios": "https://dc.lft.to/lastmile_qr_scan"}, "is_reserved": 0, "bike_id": "7bc074168859144fe3786e068f478b76", "name": "7bc074168859144fe3786e068f478b76", "fusion_lon": 0.0, "lon": -77.050187, "fusion_lat": 0.0}, {"lat": 38.86708516666667, "type": "electric_scooter", "is_disabled": 0, "rental_uris": {"android": "https://dc.lft.to/lastmile_qr_scan", "ios": "https://dc.lft.to/lastmile_qr_scan"}, "is_reserved": 0, "bike_id": "86e35dd708ffeabea72e9d16f1e4bcb9", "name": "86e35dd708ffeabea72e9d16f1e4bcb9", "fusion_lon": 0.0, "lon": -76.98732766666667, "fusion_lat": 0.0}, {"lat": 38.903661, "type": "electric_scooter", "is_disabled": 0, "rental_uris": {"android": "https://dc.lft.to/lastmile_qr_scan", "ios": "https://dc.lft.to/lastmile_qr_scan"}, "is_reserved": 0, "bike_id": "62c4e51ae9b13691246ad03516ad95ff", "name": "62c4e51ae9b13691246ad03516ad95ff", "fusion_lon": 0.0, "lon": -77.0298705, "fusion_lat": 0.0}, {"lat": 38.92237866666667, "type": "electric_scooter", "is_disabled": 0, "rental_uris": {"android": "https://dc.lft.to/lastmile_qr_scan", "ios": "https://dc.lft.to/lastmile_qr_scan"}, "is_reserved": 0, "bike_id": "f1f58613b21ea7004730f23cfc73e5e5", "name": "f1f58613b21ea7004730f23cfc73e5e5", "fusion_lon": 0.0, "lon": -77.04121666666667, "fusion_lat": 0.0}, {"lat": 38.871723333333335, "type": "electric_scooter", "is_disabled": 0, "rental_uris": {"android": "https://dc.lft.to/lastmile_qr_scan", "ios": "https://dc.lft.to/lastmile_qr_scan"}, "is_reserved": 0, "bike_id": "ea83056947ca601c0279a5a0ac2b2a9a", "name": "ea83056947ca601c0279a5a0ac2b2a9a", "fusion_lon": 0.0, "lon": -77.00624166666667, "fusion_lat": 0.0}, {"lat": 38.866966166666664, "type": "electric_scooter", "is_disabled": 0, "rental_uris": {"android": "https://dc.lft.to/lastmile_qr_scan", "ios": "https://dc.lft.to/lastmile_qr_scan"}, "is_reserved": 0, "bike_id": "9ae11527a783e50a4fd185dffa184c91", "name": "9ae11527a783e50a4fd185dffa184c91", "fusion_lon": 0.0, "lon": -76.9871025, "fusion_lat": 0.0}, {"lat": 38.919827, "type": "electric_scooter", "is_disabled": 0, "rental_uris": {"android": "https://dc.lft.to/lastmile_qr_scan", "ios": "https://dc.lft.to/lastmile_qr_scan"}, "is_reserved": 0, "bike_id": "c7ae344c21f7ee4c51c0ccc6f58796e9", "name": "c7ae344c21f7ee4c51c0ccc6f58796e9", "fusion_lon": 0.0, "lon": -77.0331075, "fusion_lat": 0.0}, {"lat": 38.95658516666667, "type": "electric_scooter", "is_disabled": 0, "rental_uris": {"android": "https://dc.lft.to/lastmile_qr_scan", "ios": "https://dc.lft.to/lastmile_qr_scan"}, "is_reserved": 0, "bike_id": "361ed09934db1e2a23aaa34d1ced9249", "name": "361ed09934db1e2a23aaa34d1ced9249", "fusion_lon": 0.0, "lon": -77.08370116666667, "fusion_lat": 0.0}, {"lat": 38.898306, "type": "electric_scooter", "is_disabled": 0, "rental_uris": {"android": "https://dc.lft.to/lastmile_qr_scan", "ios": "https://dc.lft.to/lastmile_qr_scan"}, "is_reserved": 0, "bike_id": "474c7a91f8a1cde8929dce7608f6d10a", "name": "474c7a91f8a1cde8929dce7608f6d10a", "fusion_lon": 0.0, "lon": -76.94632983333334, "fusion_lat": 0.0}, {"lat": 38.90663333333333, "type": "electric_scooter", "is_disabled": 0, "rental_uris": {"android": "https://dc.lft.to/lastmile_qr_scan", "ios": "https://dc.lft.to/lastmile_qr_scan"}, "is_reserved": 0, "bike_id": "9a53a320aca0b30a7e04270b7f2ad74d", "name": "9a53a320aca0b30a7e04270b7f2ad74d", "fusion_lon": 0.0, "lon": -77.04351883333334, "fusion_lat": 0.0}, {"lat": 38.9263895, "type": "electric_bike", "is_disabled": 0, "rental_uris": {"android": "https://dc.lft.to/lastmile_qr_scan", "ios": "https://dc.lft.to/lastmile_qr_scan"}, "is_reserved": 0, "bike_id": "ad653b9478163b93513406012b86634e", "name": "ad653b9478163b93513406012b86634e", "fusion_lon": 0.0, "lon": -77.02838433333334, "fusion_lat": 0.0}, {"lat": 38.9362095, "type": "electric_scooter", "is_disabled": 0, "rental_uris": {"android": "https://dc.lft.to/lastmile_qr_scan", "ios": "https://dc.lft.to/lastmile_qr_scan"}, "is_reserved": 0, "bike_id": "2258449e21645f2cc28eb4590c794601", "name": "2258449e21645f2cc28eb4590c794601", "fusion_lon": 0.0, "lon": -77.03244633333334, "fusion_lat": 0.0}, {"lat": 38.90249383333333, "type": "electric_scooter", "is_disabled": 0, "rental_uris": {"android": "https://dc.lft.to/lastmile_qr_scan", "ios": "https://dc.lft.to/lastmile_qr_scan"}, "is_reserved": 0, "bike_id": "3d6cac90d7e9b8efc4e1a76ead700769", "name": "3d6cac90d7e9b8efc4e1a76ead700769", "fusion_lon": 0.0, "lon": -76.946269, "fusion_lat": 0.0}, {"lat": 38.904257333333334, "type": "electric_scooter", "is_disabled": 0, "rental_uris": {"android": "https://dc.lft.to/lastmile_qr_scan", "ios": "https://dc.lft.to/lastmile_qr_scan"}, "is_reserved": 0, "bike_id": "b1f6e4a9164b172d232fc4cb95661325", "name": "b1f6e4a9164b172d232fc4cb95661325", "fusion_lon": 0.0, "lon": -77.02508966666667, "fusion_lat": 0.0}, {"lat": 38.898590166666665, "type": "electric_scooter", "is_disabled": 0, "rental_uris": {"android": "https://dc.lft.to/lastmile_qr_scan", "ios": "https://dc.lft.to/lastmile_qr_scan"}, "is_reserved": 0, "bike_id": "742cfbb80a04768707c03920c7922bc2", "name": "742cfbb80a04768707c03920c7922bc2", "fusion_lon": 0.0, "lon": -77.03342366666666, "fusion_lat": 0.0}, {"lat": 38.918434166666664, "type": "electric_scooter", "is_disabled": 0, "rental_uris": {"android": "https://dc.lft.to/lastmile_qr_scan", "ios": "https://dc.lft.to/lastmile_qr_scan"}, "is_reserved": 0, "bike_id": "f2b23f111eb94f5b96865997cc608439", "name": "f2b23f111eb94f5b96865997cc608439", "fusion_lon": 0.0, "lon": -77.032229, "fusion_lat": 0.0}, {"lat": 38.9126695, "type": "electric_scooter", "is_disabled": 0, "rental_uris": {"android": "https://dc.lft.to/lastmile_qr_scan", "ios": "https://dc.lft.to/lastmile_qr_scan"}, "is_reserved": 0, "bike_id": "fa89320d32572d91c808d7fdc454d399", "name": "fa89320d32572d91c808d7fdc454d399", "fusion_lon": 0.0, "lon": -77.01681216666667, "fusion_lat": 0.0}, {"lat": 38.874945, "type": "electric_bike", "is_disabled": 0, "rental_uris": {"android": "https://dc.lft.to/lastmile_qr_scan", "ios": "https://dc.lft.to/lastmile_qr_scan"}, "is_reserved": 0, "bike_id": "8c0e991cee08a567b52d9ab0924f2bb5", "name": "8c0e991cee08a567b52d9ab0924f2bb5", "fusion_lon": 0.0, "lon": -77.04905816666667, "fusion_lat": 0.0}, {"lat": 38.928496333333335, "type": "electric_scooter", "is_disabled": 0, "rental_uris": {"android": "https://dc.lft.to/lastmile_qr_scan", "ios": "https://dc.lft.to/lastmile_qr_scan"}, "is_reserved": 0, "bike_id": "d5cb7cfaaa0791d074aaa9064221da72", "name": "d5cb7cfaaa0791d074aaa9064221da72", "fusion_lon": 0.0, "lon": -77.01405433333333, "fusion_lat": 0.0}, {"lat": 38.9030455, "type": "electric_scooter", "is_disabled": 0, "rental_uris": {"android": "https://dc.lft.to/lastmile_qr_scan", "ios": "https://dc.lft.to/lastmile_qr_scan"}, "is_reserved": 0, "bike_id": "0fff610cff84c7a76d24497d405a6c2c", "name": "0fff610cff84c7a76d24497d405a6c2c", "fusion_lon": 0.0, "lon": -77.0236585, "fusion_lat": 0.0}, {"lat": 38.92146666666667, "type": "electric_scooter", "is_disabled": 0, "rental_uris": {"android": "https://dc.lft.to/lastmile_qr_scan", "ios": "https://dc.lft.to/lastmile_qr_scan"}, "is_reserved": 0, "bike_id": "84aeb5eb198c1197069cf65d7edb3b30", "name": "84aeb5eb198c1197069cf65d7edb3b30", "fusion_lon": 0.0, "lon": -77.03866433333333, "fusion_lat": 0.0}, {"lat": 38.914866833333335, "type": "electric_scooter", "is_disabled": 0, "rental_uris": {"android": "https://dc.lft.to/lastmile_qr_scan", "ios": "https://dc.lft.to/lastmile_qr_scan"}, "is_reserved": 0, "bike_id": "f73e076adb8371d5ac9425465ae116ae", "name": "f73e076adb8371d5ac9425465ae116ae", "fusion_lon": 0.0, "lon": -77.03826266666667, "fusion_lat": 0.0}, {"lat": 38.92602616666667, "type": "electric_scooter", "is_disabled": 0, "rental_uris": {"android": "https://dc.lft.to/lastmile_qr_scan", "ios": "https://dc.lft.to/lastmile_qr_scan"}, "is_reserved": 0, "bike_id": "004ec1e98dabd5bd604f6c0705486b68", "name": "004ec1e98dabd5bd604f6c0705486b68", "fusion_lon": 0.0, "lon": -77.0215235, "fusion_lat": 0.0}, {"lat": 38.885097333333334, "type": "electric_scooter", "is_disabled": 0, "rental_uris": {"android": "https://dc.lft.to/lastmile_qr_scan", "ios": "https://dc.lft.to/lastmile_qr_scan"}, "is_reserved": 0, "bike_id": "c253ccff5a89e2bae076cfa91212ec71", "name": "c253ccff5a89e2bae076cfa91212ec71", "fusion_lon": 0.0, "lon": -77.00567883333333, "fusion_lat": 0.0}, {"lat": 38.90465316666667, "type": "electric_scooter", "is_disabled": 0, "rental_uris": {"android": "https://dc.lft.to/lastmile_qr_scan", "ios": "https://dc.lft.to/lastmile_qr_scan"}, "is_reserved": 0, "bike_id": "f7eff05f293d8d28e85f8437ccd1280c", "name": "f7eff05f293d8d28e85f8437ccd1280c", "fusion_lon": 0.0, "lon": -77.028176, "fusion_lat": 0.0}, {"lat": 38.9214555, "type": "electric_scooter", "is_disabled": 0, "rental_uris": {"android": "https://dc.lft.to/lastmile_qr_scan", "ios": "https://dc.lft.to/lastmile_qr_scan"}, "is_reserved": 0, "bike_id": "ba1b9c9cb29319677c3517ff81df6b50", "name": "ba1b9c9cb29319677c3517ff81df6b50", "fusion_lon": 0.0, "lon": -77.03485, "fusion_lat": 0.0}, {"lat": 38.990891166666664, "type": "electric_bike", "is_disabled": 0, "rental_uris": {"android": "https://dc.lft.to/lastmile_qr_scan", "ios": "https://dc.lft.to/lastmile_qr_scan"}, "is_reserved": 0, "bike_id": "f1c3efb813d347d9c1fcd71345767dfd", "name": "f1c3efb813d347d9c1fcd71345767dfd", "fusion_lon": 0.0, "lon": -76.874964, "fusion_lat": 0.0}, {"lat": 38.990605, "type": "electric_bike", "is_disabled": 0, "rental_uris": {"android": "https://dc.lft.to/lastmile_qr_scan", "ios": "https://dc.lft.to/lastmile_qr_scan"}, "is_reserved": 0, "bike_id": "29f134facd0ca1d3164391cd04f22de4", "name": "29f134facd0ca1d3164391cd04f22de4", "fusion_lon": 0.0, "lon": -77.10029616666667, "fusion_lat": 0.0}, {"lat": 38.917028333333334, "type": "electric_scooter", "is_disabled": 0, "rental_uris": {"android": "https://dc.lft.to/lastmile_qr_scan", "ios": "https://dc.lft.to/lastmile_qr_scan"}, "is_reserved": 0, "bike_id": "80e8b4668c6c6588ff4d2fab40d5baa5", "name": "80e8b4668c6c6588ff4d2fab40d5baa5", "fusion_lon": 0.0, "lon": -77.02576983333333, "fusion_lat": 0.0}, {"lat": 38.96212533333333, "type": "electric_scooter", "is_disabled": 0, "rental_uris": {"android": "https://dc.lft.to/lastmile_qr_scan", "ios": "https://dc.lft.to/lastmile_qr_scan"}, "is_reserved": 0, "bike_id": "3d218abd6223579d2d0343658acccffe", "name": "3d218abd6223579d2d0343658acccffe", "fusion_lon": 0.0, "lon": -77.0280125, "fusion_lat": 0.0}, {"lat": 38.86350233333334, "type": "electric_scooter", "is_disabled": 0, "rental_uris": {"android": "https://dc.lft.to/lastmile_qr_scan", "ios": "https://dc.lft.to/lastmile_qr_scan"}, "is_reserved": 0, "bike_id": "2e5674d7b50e9fdc41d06f64f9e1f325", "name": "2e5674d7b50e9fdc41d06f64f9e1f325", "fusion_lon": 0.0, "lon": -76.99070066666667, "fusion_lat": 0.0}, {"lat": 38.929769666666665, "type": "electric_scooter", "is_disabled": 0, "rental_uris": {"android": "https://dc.lft.to/lastmile_qr_scan", "ios": "https://dc.lft.to/lastmile_qr_scan"}, "is_reserved": 0, "bike_id": "bd8e830da2cff3c6198c7054efbc9062", "name": "bd8e830da2cff3c6198c7054efbc9062", "fusion_lon": 0.0, "lon": -77.05505883333333, "fusion_lat": 0.0}, {"lat": 38.902463, "type": "electric_scooter", "is_disabled": 0, "rental_uris": {"android": "https://dc.lft.to/lastmile_qr_scan", "ios": "https://dc.lft.to/lastmile_qr_scan"}, "is_reserved": 0, "bike_id": "206701512b60770bc5b594040c6f04f8", "name": "206701512b60770bc5b594040c6f04f8", "fusion_lon": 0.0, "lon": -77.06261616666667, "fusion_lat": 0.0}, {"lat": 38.877042333333335, "type": "electric_scooter", "is_disabled": 0, "rental_uris": {"android": "https://dc.lft.to/lastmile_qr_scan", "ios": "https://dc.lft.to/lastmile_qr_scan"}, "is_reserved": 0, "bike_id": "51dabf1fbe31df8d5aa9a1c440201017", "name": "51dabf1fbe31df8d5aa9a1c440201017", "fusion_lon": 0.0, "lon": -77.01735716666667, "fusion_lat": 0.0}, {"lat": 38.905678, "type": "electric_scooter", "is_disabled": 0, "rental_uris": {"android": "https://dc.lft.to/lastmile_qr_scan", "ios": "https://dc.lft.to/lastmile_qr_scan"}, "is_reserved": 0, "bike_id": "c32603c4fbd57febeda0789120db0bde", "name": "c32603c4fbd57febeda0789120db0bde", "fusion_lon": 0.0, "lon": -77.02214333333333, "fusion_lat": 0.0}, {"lat": 38.915771666666664, "type": "electric_scooter", "is_disabled": 0, "rental_uris": {"android": "https://dc.lft.to/lastmile_qr_scan", "ios": "https://dc.lft.to/lastmile_qr_scan"}, "is_reserved": 0, "bike_id": "b45a564d640f4cd1394dd5b667b92c2e", "name": "b45a564d640f4cd1394dd5b667b92c2e", "fusion_lon": 0.0, "lon": -77.02002316666666, "fusion_lat": 0.0}, {"lat": 38.916186833333335, "type": "electric_scooter", "is_disabled": 0, "rental_uris": {"android": "https://dc.lft.to/lastmile_qr_scan", "ios": "https://dc.lft.to/lastmile_qr_scan"}, "is_reserved": 0, "bike_id": "b8f12e297c43de77a1211d71960a4647", "name": "b8f12e297c43de77a1211d71960a4647", "fusion_lon": 0.0, "lon": -77.03203666666667, "fusion_lat": 0.0}, {"lat": 38.910397833333334, "type": "electric_scooter", "is_disabled": 0, "rental_uris": {"android": "https://dc.lft.to/lastmile_qr_scan", "ios": "https://dc.lft.to/lastmile_qr_scan"}, "is_reserved": 0, "bike_id": "b92cf9ad152c66d0e35e6e42d9b5e512", "name": "b92cf9ad152c66d0e35e6e42d9b5e512", "fusion_lon": 0.0, "lon": -77.03619466666666, "fusion_lat": 0.0}, {"lat": 38.885813166666665, "type": "electric_scooter", "is_disabled": 0, "rental_uris": {"android": "https://dc.lft.to/lastmile_qr_scan", "ios": "https://dc.lft.to/lastmile_qr_scan"}, "is_reserved": 0, "bike_id": "6100b0205c756e1853d8c5df1ce864dc", "name": "6100b0205c756e1853d8c5df1ce864dc", "fusion_lon": 0.0, "lon": -77.01225733333334, "fusion_lat": 0.0}, {"lat": 38.903247666666665, "type": "electric_bike", "is_disabled": 0, "rental_uris": {"android": "https://dc.lft.to/lastmile_qr_scan", "ios": "https://dc.lft.to/lastmile_qr_scan"}, "is_reserved": 0, "bike_id": "a57579d83ef042537e98f835a185a74b", "name": "a57579d83ef042537e98f835a185a74b", "fusion_lon": 0.0, "lon": -76.9753495, "fusion_lat": 0.0}, {"lat": 38.89599166666667, "type": "electric_scooter", "is_disabled": 0, "rental_uris": {"android": "https://dc.lft.to/lastmile_qr_scan", "ios": "https://dc.lft.to/lastmile_qr_scan"}, "is_reserved": 0, "bike_id": "cad9a84b82d6d37593d0986d9746a082", "name": "cad9a84b82d6d37593d0986d9746a082", "fusion_lon": 0.0, "lon": -77.054353, "fusion_lat": 0.0}, {"lat": 38.921195833333336, "type": "electric_scooter", "is_disabled": 0, "rental_uris": {"android": "https://dc.lft.to/lastmile_qr_scan", "ios": "https://dc.lft.to/lastmile_qr_scan"}, "is_reserved": 0, "bike_id": "3eec665fcad89966357546d6191c827e", "name": "3eec665fcad89966357546d6191c827e", "fusion_lon": 0.0, "lon": -77.03662233333333, "fusion_lat": 0.0}, {"lat": 38.92029183333333, "type": "electric_scooter", "is_disabled": 0, "rental_uris": {"android": "https://dc.lft.to/lastmile_qr_scan", "ios": "https://dc.lft.to/lastmile_qr_scan"}, "is_reserved": 0, "bike_id": "a370abfeb3b10d0dda56b7d3afc264e7", "name": "a370abfeb3b10d0dda56b7d3afc264e7", "fusion_lon": 0.0, "lon": -76.99565533333333, "fusion_lat": 0.0}, {"lat": 38.915980166666664, "type": "electric_scooter", "is_disabled": 0, "rental_uris": {"android": "https://dc.lft.to/lastmile_qr_scan", "ios": "https://dc.lft.to/lastmile_qr_scan"}, "is_reserved": 0, "bike_id": "2aca51a57dba2374760c3ebf98811ed2", "name": "2aca51a57dba2374760c3ebf98811ed2", "fusion_lon": 0.0, "lon": -77.023467, "fusion_lat": 0.0}, {"lat": 38.9054515, "type": "electric_bike", "is_disabled": 0, "rental_uris": {"android": "https://dc.lft.to/lastmile_qr_scan", "ios": "https://dc.lft.to/lastmile_qr_scan"}, "is_reserved": 0, "bike_id": "bc549d7d44b3043a8c92b81ae18d272d", "name": "bc549d7d44b3043a8c92b81ae18d272d", "fusion_lon": 0.0, "lon": -77.06516533333334, "fusion_lat": 0.0}, {"lat": 38.91613366666667, "type": "electric_scooter", "is_disabled": 0, "rental_uris": {"android": "https://dc.lft.to/lastmile_qr_scan", "ios": "https://dc.lft.to/lastmile_qr_scan"}, "is_reserved": 0, "bike_id": "cb3c542770d799f902a472017d1b6da7", "name": "cb3c542770d799f902a472017d1b6da7", "fusion_lon": 0.0, "lon": -77.02297783333333, "fusion_lat": 0.0}, {"lat": 38.88511366666667, "type": "electric_scooter", "is_disabled": 0, "rental_uris": {"android": "https://dc.lft.to/lastmile_qr_scan", "ios": "https://dc.lft.to/lastmile_qr_scan"}, "is_reserved": 0, "bike_id": "eae6a5e7a585c53a89fbef828b4d76d5", "name": "eae6a5e7a585c53a89fbef828b4d76d5", "fusion_lon": 0.0, "lon": -76.9482015, "fusion_lat": 0.0}, {"lat": 38.90721533333333, "type": "electric_scooter", "is_disabled": 0, "rental_uris": {"android": "https://dc.lft.to/lastmile_qr_scan", "ios": "https://dc.lft.to/lastmile_qr_scan"}, "is_reserved": 0, "bike_id": "c340db53f8549a93c688f675652f2a5e", "name": "c340db53f8549a93c688f675652f2a5e", "fusion_lon": 0.0, "lon": -77.03256483333334, "fusion_lat": 0.0}, {"lat": 38.93187566666667, "type": "electric_scooter", "is_disabled": 0, "rental_uris": {"android": "https://dc.lft.to/lastmile_qr_scan", "ios": "https://dc.lft.to/lastmile_qr_scan"}, "is_reserved": 0, "bike_id": "800483ddad9c639cf52850e6f43a40b8", "name": "800483ddad9c639cf52850e6f43a40b8", "fusion_lon": 0.0, "lon": -77.02831583333334, "fusion_lat": 0.0}, {"lat": 38.900845333333336, "type": "electric_scooter", "is_disabled": 0, "rental_uris": {"android": "https://dc.lft.to/lastmile_qr_scan", "ios": "https://dc.lft.to/lastmile_qr_scan"}, "is_reserved": 0, "bike_id": "3d10f7e1080aae8f4a574da8126b455b", "name": "3d10f7e1080aae8f4a574da8126b455b", "fusion_lon": 0.0, "lon": -77.039382, "fusion_lat": 0.0}, {"lat": 38.9093155, "type": "electric_scooter", "is_disabled": 0, "rental_uris": {"android": "https://dc.lft.to/lastmile_qr_scan", "ios": "https://dc.lft.to/lastmile_qr_scan"}, "is_reserved": 0, "bike_id": "697171dd97a11431cd7436a8c565f8a0", "name": "697171dd97a11431cd7436a8c565f8a0", "fusion_lon": 0.0, "lon": -76.99228483333333, "fusion_lat": 0.0}, {"lat": 38.8977785, "type": "electric_scooter", "is_disabled": 0, "rental_uris": {"android": "https://dc.lft.to/lastmile_qr_scan", "ios": "https://dc.lft.to/lastmile_qr_scan"}, "is_reserved": 0, "bike_id": "1d559cf073bd9164592cfa32bfbe7a92", "name": "1d559cf073bd9164592cfa32bfbe7a92", "fusion_lon": 0.0, "lon": -76.9710245, "fusion_lat": 0.0}, {"lat": 38.895249166666666, "type": "electric_scooter", "is_disabled": 0, "rental_uris": {"android": "https://dc.lft.to/lastmile_qr_scan", "ios": "https://dc.lft.to/lastmile_qr_scan"}, "is_reserved": 0, "bike_id": "14d777bdfd96bda3fb02460babb5b1f2", "name": "14d777bdfd96bda3fb02460babb5b1f2", "fusion_lon": 0.0, "lon": -77.00343333333333, "fusion_lat": 0.0}, {"lat": 38.925079333333336, "type": "electric_scooter", "is_disabled": 0, "rental_uris": {"android": "https://dc.lft.to/lastmile_qr_scan", "ios": "https://dc.lft.to/lastmile_qr_scan"}, "is_reserved": 0, "bike_id": "080548438c974c6bc6ada421b77fd3fc", "name": "080548438c974c6bc6ada421b77fd3fc", "fusion_lon": 0.0, "lon": -77.03517466666666, "fusion_lat": 0.0}, {"lat": 38.905401833333336, "type": "electric_scooter", "is_disabled": 0, "rental_uris": {"android": "https://dc.lft.to/lastmile_qr_scan", "ios": "https://dc.lft.to/lastmile_qr_scan"}, "is_reserved": 0, "bike_id": "cdde913c7bbc4b0e203feb897083747c", "name": "cdde913c7bbc4b0e203feb897083747c", "fusion_lon": 0.0, "lon": -77.04757666666667, "fusion_lat": 0.0}, {"lat": 38.9183325, "type": "electric_scooter", "is_disabled": 0, "rental_uris": {"android": "https://dc.lft.to/lastmile_qr_scan", "ios": "https://dc.lft.to/lastmile_qr_scan"}, "is_reserved": 0, "bike_id": "2d80e09c3918f3a0e119fb116c3f24e6", "name": "2d80e09c3918f3a0e119fb116c3f24e6", "fusion_lon": 0.0, "lon": -76.96554483333334, "fusion_lat": 0.0}, {"lat": 38.897312, "type": "electric_scooter", "is_disabled": 0, "rental_uris": {"android": "https://dc.lft.to/lastmile_qr_scan", "ios": "https://dc.lft.to/lastmile_qr_scan"}, "is_reserved": 0, "bike_id": "9976d2c59b70b636340dcfeb98d8513c", "name": "9976d2c59b70b636340dcfeb98d8513c", "fusion_lon": 0.0, "lon": -77.015918, "fusion_lat": 0.0}, {"lat": 38.916318, "type": "electric_scooter", "is_disabled": 0, "rental_uris": {"android": "https://dc.lft.to/lastmile_qr_scan", "ios": "https://dc.lft.to/lastmile_qr_scan"}, "is_reserved": 0, "bike_id": "9c9dbfcf36c48d31d71b5f59322d7678", "name": "9c9dbfcf36c48d31d71b5f59322d7678", "fusion_lon": 0.0, "lon": -77.0505805, "fusion_lat": 0.0}, {"lat": 38.9065025, "type": "electric_scooter", "is_disabled": 0, "rental_uris": {"android": "https://dc.lft.to/lastmile_qr_scan", "ios": "https://dc.lft.to/lastmile_qr_scan"}, "is_reserved": 0, "bike_id": "7f17aa4c3be52bb9b37852abc4405ef6", "name": "7f17aa4c3be52bb9b37852abc4405ef6", "fusion_lon": 0.0, "lon": -77.04532516666667, "fusion_lat": 0.0}, {"lat": 38.86696883333333, "type": "electric_scooter", "is_disabled": 0, "rental_uris": {"android": "https://dc.lft.to/lastmile_qr_scan", "ios": "https://dc.lft.to/lastmile_qr_scan"}, "is_reserved": 0, "bike_id": "1e44a015776beb3b00abfba53a6dc9fc", "name": "1e44a015776beb3b00abfba53a6dc9fc", "fusion_lon": 0.0, "lon": -76.98711316666666, "fusion_lat": 0.0}, {"lat": 38.91772383333333, "type": "electric_scooter", "is_disabled": 0, "rental_uris": {"android": "https://dc.lft.to/lastmile_qr_scan", "ios": "https://dc.lft.to/lastmile_qr_scan"}, "is_reserved": 0, "bike_id": "3478d444d0ce36079fdda470bcff3346", "name": "3478d444d0ce36079fdda470bcff3346", "fusion_lon": 0.0, "lon": -77.02948666666667, "fusion_lat": 0.0}, {"lat": 38.91716133333333, "type": "electric_scooter", "is_disabled": 0, "rental_uris": {"android": "https://dc.lft.to/lastmile_qr_scan", "ios": "https://dc.lft.to/lastmile_qr_scan"}, "is_reserved": 0, "bike_id": "bdea143a00413d9404099766966b8317", "name": "bdea143a00413d9404099766966b8317", "fusion_lon": 0.0, "lon": -77.04035133333333, "fusion_lat": 0.0}, {"lat": 38.905597666666665, "type": "electric_scooter", "is_disabled": 0, "rental_uris": {"android": "https://dc.lft.to/lastmile_qr_scan", "ios": "https://dc.lft.to/lastmile_qr_scan"}, "is_reserved": 0, "bike_id": "472e0e9f0d6dc6c686297fd6d9b2457e", "name": "472e0e9f0d6dc6c686297fd6d9b2457e", "fusion_lon": 0.0, "lon": -77.00495383333333, "fusion_lat": 0.0}, {"lat": 38.89600766666667, "type": "electric_scooter", "is_disabled": 0, "rental_uris": {"android": "https://dc.lft.to/lastmile_qr_scan", "ios": "https://dc.lft.to/lastmile_qr_scan"}, "is_reserved": 0, "bike_id": "7506d5834b5d76299e738974c17f020a", "name": "7506d5834b5d76299e738974c17f020a", "fusion_lon": 0.0, "lon": -77.02673233333333, "fusion_lat": 0.0}, {"lat": 38.91964016666667, "type": "electric_scooter", "is_disabled": 0, "rental_uris": {"android": "https://dc.lft.to/lastmile_qr_scan", "ios": "https://dc.lft.to/lastmile_qr_scan"}, "is_reserved": 0, "bike_id": "aeca311d15fcdad0fd2c1696c3e3c147", "name": "aeca311d15fcdad0fd2c1696c3e3c147", "fusion_lon": 0.0, "lon": -77.031944, "fusion_lat": 0.0}, {"lat": 38.91125366666667, "type": "electric_scooter", "is_disabled": 0, "rental_uris": {"android": "https://dc.lft.to/lastmile_qr_scan", "ios": "https://dc.lft.to/lastmile_qr_scan"}, "is_reserved": 0, "bike_id": "10770d0530e64640ce008dabc806b03e", "name": "10770d0530e64640ce008dabc806b03e", "fusion_lon": 0.0, "lon": -77.032105, "fusion_lat": 0.0}, {"lat": 38.925765166666665, "type": "electric_scooter", "is_disabled": 0, "rental_uris": {"android": "https://dc.lft.to/lastmile_qr_scan", "ios": "https://dc.lft.to/lastmile_qr_scan"}, "is_reserved": 0, "bike_id": "17b00ae6cb783b296ee7892f7ddb1f9d", "name": "17b00ae6cb783b296ee7892f7ddb1f9d", "fusion_lon": 0.0, "lon": -77.03214683333333, "fusion_lat": 0.0}, {"lat": 39.00781716666667, "type": "electric_bike", "is_disabled": 0, "rental_uris": {"android": "https://dc.lft.to/lastmile_qr_scan", "ios": "https://dc.lft.to/lastmile_qr_scan"}, "is_reserved": 0, "bike_id": "349ed7fb166b45f9d53c79de99bae95c", "name": "349ed7fb166b45f9d53c79de99bae95c", "fusion_lon": 0.0, "lon": -76.9957115, "fusion_lat": 0.0}, {"lat": 38.935370666666664, "type": "electric_bike", "is_disabled": 0, "rental_uris": {"android": "https://dc.lft.to/lastmile_qr_scan", "ios": "https://dc.lft.to/lastmile_qr_scan"}, "is_reserved": 0, "bike_id": "4c177dba1f8e34d859894dc7efff8547", "name": "4c177dba1f8e34d859894dc7efff8547", "fusion_lon": 0.0, "lon": -77.08174916666667, "fusion_lat": 0.0}, {"lat": 38.873854666666666, "type": "electric_scooter", "is_disabled": 0, "rental_uris": {"android": "https://dc.lft.to/lastmile_qr_scan", "ios": "https://dc.lft.to/lastmile_qr_scan"}, "is_reserved": 0, "bike_id": "8c9229006b21465c39c0794056f30722", "name": "8c9229006b21465c39c0794056f30722", "fusion_lon": 0.0, "lon": -77.00192233333334, "fusion_lat": 0.0}, {"lat": 38.879212, "type": "electric_scooter", "is_disabled": 0, "rental_uris": {"android": "https://dc.lft.to/lastmile_qr_scan", "ios": "https://dc.lft.to/lastmile_qr_scan"}, "is_reserved": 0, "bike_id": "e3ec7a8a82bef066558263d558a47741", "name": "e3ec7a8a82bef066558263d558a47741", "fusion_lon": 0.0, "lon": -77.00482516666666, "fusion_lat": 0.0}, {"lat": 38.92602733333333, "type": "electric_scooter", "is_disabled": 0, "rental_uris": {"android": "https://dc.lft.to/lastmile_qr_scan", "ios": "https://dc.lft.to/lastmile_qr_scan"}, "is_reserved": 0, "bike_id": "56c754255170650fcdfbe862eff57af8", "name": "56c754255170650fcdfbe862eff57af8", "fusion_lon": 0.0, "lon": -77.02152316666667, "fusion_lat": 0.0}, {"lat": 38.90275583333333, "type": "electric_scooter", "is_disabled": 0, "rental_uris": {"android": "https://dc.lft.to/lastmile_qr_scan", "ios": "https://dc.lft.to/lastmile_qr_scan"}, "is_reserved": 0, "bike_id": "0846a63b30ceb3c5976429b03f5b7948", "name": "0846a63b30ceb3c5976429b03f5b7948", "fusion_lon": 0.0, "lon": -77.03839916666666, "fusion_lat": 0.0}, {"lat": 38.91908816666667, "type": "electric_scooter", "is_disabled": 0, "rental_uris": {"android": "https://dc.lft.to/lastmile_qr_scan", "ios": "https://dc.lft.to/lastmile_qr_scan"}, "is_reserved": 0, "bike_id": "590b4d4e8b5875463d1d03f6cd3f8b23", "name": "590b4d4e8b5875463d1d03f6cd3f8b23", "fusion_lon": 0.0, "lon": -77.04168566666667, "fusion_lat": 0.0}, {"lat": 38.91658316666667, "type": "electric_scooter", "is_disabled": 0, "rental_uris": {"android": "https://dc.lft.to/lastmile_qr_scan", "ios": "https://dc.lft.to/lastmile_qr_scan"}, "is_reserved": 0, "bike_id": "a8c379ce0f951d915c6610ca4fcbd680", "name": "a8c379ce0f951d915c6610ca4fcbd680", "fusion_lon": 0.0, "lon": -77.046527, "fusion_lat": 0.0}, {"lat": 38.9095595, "type": "electric_scooter", "is_disabled": 0, "rental_uris": {"android": "https://dc.lft.to/lastmile_qr_scan", "ios": "https://dc.lft.to/lastmile_qr_scan"}, "is_reserved": 0, "bike_id": "56d990bc7dc4b87c51a16e5518ef79d6", "name": "56d990bc7dc4b87c51a16e5518ef79d6", "fusion_lon": 0.0, "lon": -77.0445925, "fusion_lat": 0.0}, {"lat": 38.887368333333335, "type": "electric_scooter", "is_disabled": 0, "rental_uris": {"android": "https://dc.lft.to/lastmile_qr_scan", "ios": "https://dc.lft.to/lastmile_qr_scan"}, "is_reserved": 0, "bike_id": "d49c3d1d7bc8fd68ff92c0742ffa1343", "name": "d49c3d1d7bc8fd68ff92c0742ffa1343", "fusion_lon": 0.0, "lon": -77.01532116666667, "fusion_lat": 0.0}, {"lat": 38.913015333333334, "type": "electric_scooter", "is_disabled": 0, "rental_uris": {"android": "https://dc.lft.to/lastmile_qr_scan", "ios": "https://dc.lft.to/lastmile_qr_scan"}, "is_reserved": 0, "bike_id": "50ad56b68ef18a421be4a6d8bdba0f40", "name": "50ad56b68ef18a421be4a6d8bdba0f40", "fusion_lon": 0.0, "lon": -77.02035483333333, "fusion_lat": 0.0}, {"lat": 39.05203316666667, "type": "electric_bike", "is_disabled": 0, "rental_uris": {"android": "https://dc.lft.to/lastmile_qr_scan", "ios": "https://dc.lft.to/lastmile_qr_scan"}, "is_reserved": 0, "bike_id": "63e42b6278e29edc3a7fcf6829aa5fb1", "name": "63e42b6278e29edc3a7fcf6829aa5fb1", "fusion_lon": 0.0, "lon": -77.0440915, "fusion_lat": 0.0}, {"lat": 38.913585, "type": "electric_scooter", "is_disabled": 0, "rental_uris": {"android": "https://dc.lft.to/lastmile_qr_scan", "ios": "https://dc.lft.to/lastmile_qr_scan"}, "is_reserved": 0, "bike_id": "09fa5f84d438e38bdf597c83802bcfcb", "name": "09fa5f84d438e38bdf597c83802bcfcb", "fusion_lon": 0.0, "lon": -77.04161966666666, "fusion_lat": 0.0}, {"lat": 38.886686, "type": "electric_scooter", "is_disabled": 0, "rental_uris": {"android": "https://dc.lft.to/lastmile_qr_scan", "ios": "https://dc.lft.to/lastmile_qr_scan"}, "is_reserved": 0, "bike_id": "bb01034d13659bfbd7bda94d609ce043", "name": "bb01034d13659bfbd7bda94d609ce043", "fusion_lon": 0.0, "lon": -77.00340933333334, "fusion_lat": 0.0}, {"lat": 38.886403, "type": "electric_scooter", "is_disabled": 0, "rental_uris": {"android": "https://dc.lft.to/lastmile_qr_scan", "ios": "https://dc.lft.to/lastmile_qr_scan"}, "is_reserved": 0, "bike_id": "ff9f9d1a988c00328a90c377feed2153", "name": "ff9f9d1a988c00328a90c377feed2153", "fusion_lon": 0.0, "lon": -77.0136535, "fusion_lat": 0.0}, {"lat": 38.93525116666667, "type": "electric_scooter", "is_disabled": 0, "rental_uris": {"android": "https://dc.lft.to/lastmile_qr_scan", "ios": "https://dc.lft.to/lastmile_qr_scan"}, "is_reserved": 0, "bike_id": "15ecbf570e39c57858c3902842f2b4ea", "name": "15ecbf570e39c57858c3902842f2b4ea", "fusion_lon": 0.0, "lon": -77.03255566666667, "fusion_lat": 0.0}, {"lat": 38.88081066666667, "type": "electric_scooter", "is_disabled": 0, "rental_uris": {"android": "https://dc.lft.to/lastmile_qr_scan", "ios": "https://dc.lft.to/lastmile_qr_scan"}, "is_reserved": 0, "bike_id": "b4ee173e145ee4e82d8def006b3e71ec", "name": "b4ee173e145ee4e82d8def006b3e71ec", "fusion_lon": 0.0, "lon": -77.025732, "fusion_lat": 0.0}, {"lat": 38.875961833333335, "type": "electric_scooter", "is_disabled": 0, "rental_uris": {"android": "https://dc.lft.to/lastmile_qr_scan", "ios": "https://dc.lft.to/lastmile_qr_scan"}, "is_reserved": 0, "bike_id": "ee0688835141b865f6585f5f957357c4", "name": "ee0688835141b865f6585f5f957357c4", "fusion_lon": 0.0, "lon": -77.00574183333333, "fusion_lat": 0.0}, {"lat": 38.9052125, "type": "electric_scooter", "is_disabled": 0, "rental_uris": {"android": "https://dc.lft.to/lastmile_qr_scan", "ios": "https://dc.lft.to/lastmile_qr_scan"}, "is_reserved": 0, "bike_id": "40da2c53835d7dec7559b53aef8baf57", "name": "40da2c53835d7dec7559b53aef8baf57", "fusion_lon": 0.0, "lon": -77.05001416666667, "fusion_lat": 0.0}, {"lat": 38.9056045, "type": "electric_scooter", "is_disabled": 0, "rental_uris": {"android": "https://dc.lft.to/lastmile_qr_scan", "ios": "https://dc.lft.to/lastmile_qr_scan"}, "is_reserved": 0, "bike_id": "51ec2c4731e9df0487ed28d29b561ed3", "name": "51ec2c4731e9df0487ed28d29b561ed3", "fusion_lon": 0.0, "lon": -77.00608933333334, "fusion_lat": 0.0}, {"lat": 38.897324, "type": "electric_bike", "is_disabled": 0, "rental_uris": {"android": "https://dc.lft.to/lastmile_qr_scan", "ios": "https://dc.lft.to/lastmile_qr_scan"}, "is_reserved": 0, "bike_id": "3058e7477636b22028b036ab57b81a95", "name": "3058e7477636b22028b036ab57b81a95", "fusion_lon": 0.0, "lon": -76.90540233333333, "fusion_lat": 0.0}, {"lat": 38.90988816666667, "type": "electric_scooter", "is_disabled": 0, "rental_uris": {"android": "https://dc.lft.to/lastmile_qr_scan", "ios": "https://dc.lft.to/lastmile_qr_scan"}, "is_reserved": 0, "bike_id": "66064a59c760e187fe7fca4602dbf7c5", "name": "66064a59c760e187fe7fca4602dbf7c5", "fusion_lon": 0.0, "lon": -77.009108, "fusion_lat": 0.0}, {"lat": 38.920272833333335, "type": "electric_scooter", "is_disabled": 0, "rental_uris": {"android": "https://dc.lft.to/lastmile_qr_scan", "ios": "https://dc.lft.to/lastmile_qr_scan"}, "is_reserved": 0, "bike_id": "c62c0d7d1748f9a70fdb197df80904fc", "name": "c62c0d7d1748f9a70fdb197df80904fc", "fusion_lon": 0.0, "lon": -77.01140883333333, "fusion_lat": 0.0}, {"lat": 38.914041833333336, "type": "electric_scooter", "is_disabled": 0, "rental_uris": {"android": "https://dc.lft.to/lastmile_qr_scan", "ios": "https://dc.lft.to/lastmile_qr_scan"}, "is_reserved": 0, "bike_id": "f8c64579295924b5cc85f716b11c66ee", "name": "f8c64579295924b5cc85f716b11c66ee", "fusion_lon": 0.0, "lon": -77.03172983333333, "fusion_lat": 0.0}, {"lat": 38.863536833333335, "type": "electric_scooter", "is_disabled": 0, "rental_uris": {"android": "https://dc.lft.to/lastmile_qr_scan", "ios": "https://dc.lft.to/lastmile_qr_scan"}, "is_reserved": 0, "bike_id": "c7e9116613cc5a3066f457f49d9ba0ae", "name": "c7e9116613cc5a3066f457f49d9ba0ae", "fusion_lon": 0.0, "lon": -76.990598, "fusion_lat": 0.0}, {"lat": 38.919398, "type": "electric_scooter", "is_disabled": 0, "rental_uris": {"android": "https://dc.lft.to/lastmile_qr_scan", "ios": "https://dc.lft.to/lastmile_qr_scan"}, "is_reserved": 0, "bike_id": "e7741966cfa1d8c9d3d38f82dd3d6897", "name": "e7741966cfa1d8c9d3d38f82dd3d6897", "fusion_lon": 0.0, "lon": -77.01806483333333, "fusion_lat": 0.0}, {"lat": 38.90488216666667, "type": "electric_scooter", "is_disabled": 0, "rental_uris": {"android": "https://dc.lft.to/lastmile_qr_scan", "ios": "https://dc.lft.to/lastmile_qr_scan"}, "is_reserved": 0, "bike_id": "cf37f376ddacf01253a5c6b13659b27c", "name": "cf37f376ddacf01253a5c6b13659b27c", "fusion_lon": 0.0, "lon": -77.02942866666666, "fusion_lat": 0.0}, {"lat": 38.891879333333335, "type": "electric_scooter", "is_disabled": 0, "rental_uris": {"android": "https://dc.lft.to/lastmile_qr_scan", "ios": "https://dc.lft.to/lastmile_qr_scan"}, "is_reserved": 0, "bike_id": "e90c4d49c3e13e6d7c7aba444f20575b", "name": "e90c4d49c3e13e6d7c7aba444f20575b", "fusion_lon": 0.0, "lon": -77.03169833333334, "fusion_lat": 0.0}, {"lat": 38.937161, "type": "electric_scooter", "is_disabled": 0, "rental_uris": {"android": "https://dc.lft.to/lastmile_qr_scan", "ios": "https://dc.lft.to/lastmile_qr_scan"}, "is_reserved": 0, "bike_id": "30ba14a237663486da4b84cdc611afbb", "name": "30ba14a237663486da4b84cdc611afbb", "fusion_lon": 0.0, "lon": -77.032634, "fusion_lat": 0.0}, {"lat": 38.90999466666667, "type": "electric_scooter", "is_disabled": 0, "rental_uris": {"android": "https://dc.lft.to/lastmile_qr_scan", "ios": "https://dc.lft.to/lastmile_qr_scan"}, "is_reserved": 0, "bike_id": "a4296cf08eac0a7e6e4ae11061431482", "name": "a4296cf08eac0a7e6e4ae11061431482", "fusion_lon": 0.0, "lon": -77.03446983333333, "fusion_lat": 0.0}, {"lat": 38.918277333333336, "type": "electric_scooter", "is_disabled": 0, "rental_uris": {"android": "https://dc.lft.to/lastmile_qr_scan", "ios": "https://dc.lft.to/lastmile_qr_scan"}, "is_reserved": 0, "bike_id": "e8c108f72a310559dc18c018dfd02ed5", "name": "e8c108f72a310559dc18c018dfd02ed5", "fusion_lon": 0.0, "lon": -76.96549216666666, "fusion_lat": 0.0}, {"lat": 38.88381066666667, "type": "electric_scooter", "is_disabled": 0, "rental_uris": {"android": "https://dc.lft.to/lastmile_qr_scan", "ios": "https://dc.lft.to/lastmile_qr_scan"}, "is_reserved": 0, "bike_id": "5a4fc2c8497b3550f129425b60390fcc", "name": "5a4fc2c8497b3550f129425b60390fcc", "fusion_lon": 0.0, "lon": -76.99489416666667, "fusion_lat": 0.0}, {"lat": 38.90563616666667, "type": "electric_scooter", "is_disabled": 0, "rental_uris": {"android": "https://dc.lft.to/lastmile_qr_scan", "ios": "https://dc.lft.to/lastmile_qr_scan"}, "is_reserved": 0, "bike_id": "818a147e56a915b45c4026be06307571", "name": "818a147e56a915b45c4026be06307571", "fusion_lon": 0.0, "lon": -77.0223135, "fusion_lat": 0.0}, {"lat": 38.930004, "type": "electric_scooter", "is_disabled": 0, "rental_uris": {"android": "https://dc.lft.to/lastmile_qr_scan", "ios": "https://dc.lft.to/lastmile_qr_scan"}, "is_reserved": 0, "bike_id": "f271e253df1716f8ad4fb2e17c54a478", "name": "f271e253df1716f8ad4fb2e17c54a478", "fusion_lon": 0.0, "lon": -77.07829533333333, "fusion_lat": 0.0}, {"lat": 38.88747083333333, "type": "electric_scooter", "is_disabled": 0, "rental_uris": {"android": "https://dc.lft.to/lastmile_qr_scan", "ios": "https://dc.lft.to/lastmile_qr_scan"}, "is_reserved": 0, "bike_id": "563f1f0b20ff46f614b543544690fa58", "name": "563f1f0b20ff46f614b543544690fa58", "fusion_lon": 0.0, "lon": -77.0286705, "fusion_lat": 0.0}, {"lat": 38.892206333333334, "type": "electric_scooter", "is_disabled": 0, "rental_uris": {"android": "https://dc.lft.to/lastmile_qr_scan", "ios": "https://dc.lft.to/lastmile_qr_scan"}, "is_reserved": 0, "bike_id": "c954b54753cfe9171ea0e15696caf63e", "name": "c954b54753cfe9171ea0e15696caf63e", "fusion_lon": 0.0, "lon": -77.03977666666667, "fusion_lat": 0.0}, {"lat": 38.907267166666664, "type": "electric_scooter", "is_disabled": 0, "rental_uris": {"android": "https://dc.lft.to/lastmile_qr_scan", "ios": "https://dc.lft.to/lastmile_qr_scan"}, "is_reserved": 0, "bike_id": "ebccced72a284ee068448a497ab8558c", "name": "ebccced72a284ee068448a497ab8558c", "fusion_lon": 0.0, "lon": -77.02372783333334, "fusion_lat": 0.0}, {"lat": 38.88745516666667, "type": "electric_scooter", "is_disabled": 0, "rental_uris": {"android": "https://dc.lft.to/lastmile_qr_scan", "ios": "https://dc.lft.to/lastmile_qr_scan"}, "is_reserved": 0, "bike_id": "6b783667de4c012facc9e3b226a1316b", "name": "6b783667de4c012facc9e3b226a1316b", "fusion_lon": 0.0, "lon": -77.02224366666667, "fusion_lat": 0.0}, {"lat": 38.84435166666667, "type": "electric_scooter", "is_disabled": 0, "rental_uris": {"android": "https://dc.lft.to/lastmile_qr_scan", "ios": "https://dc.lft.to/lastmile_qr_scan"}, "is_reserved": 0, "bike_id": "1647239c411257d533cea2d6b82701fb", "name": "1647239c411257d533cea2d6b82701fb", "fusion_lon": 0.0, "lon": -76.9841055, "fusion_lat": 0.0}, {"lat": 38.90133566666667, "type": "electric_scooter", "is_disabled": 0, "rental_uris": {"android": "https://dc.lft.to/lastmile_qr_scan", "ios": "https://dc.lft.to/lastmile_qr_scan"}, "is_reserved": 0, "bike_id": "e7da3e1af3d40b82d68def7b52f37232", "name": "e7da3e1af3d40b82d68def7b52f37232", "fusion_lon": 0.0, "lon": -77.01313033333334, "fusion_lat": 0.0}, {"lat": 38.92900016666667, "type": "electric_scooter", "is_disabled": 0, "rental_uris": {"android": "https://dc.lft.to/lastmile_qr_scan", "ios": "https://dc.lft.to/lastmile_qr_scan"}, "is_reserved": 0, "bike_id": "10bf3bb735b4fbf30ab1ddfd2d0de274", "name": "10bf3bb735b4fbf30ab1ddfd2d0de274", "fusion_lon": 0.0, "lon": -77.01663, "fusion_lat": 0.0}, {"lat": 38.88820666666667, "type": "electric_bike", "is_disabled": 0, "rental_uris": {"android": "https://dc.lft.to/lastmile_qr_scan", "ios": "https://dc.lft.to/lastmile_qr_scan"}, "is_reserved": 0, "bike_id": "6f7e66bc378632b9cc42f6669014c56a", "name": "6f7e66bc378632b9cc42f6669014c56a", "fusion_lon": 0.0, "lon": -77.12741416666667, "fusion_lat": 0.0}, {"lat": 38.975766166666666, "type": "electric_bike", "is_disabled": 0, "rental_uris": {"android": "https://dc.lft.to/lastmile_qr_scan", "ios": "https://dc.lft.to/lastmile_qr_scan"}, "is_reserved": 0, "bike_id": "b63bf57894efdb4d118dc538df703126", "name": "b63bf57894efdb4d118dc538df703126", "fusion_lon": 0.0, "lon": -76.96387116666666, "fusion_lat": 0.0}, {"lat": 38.99229066666667, "type": "electric_bike", "is_disabled": 0, "rental_uris": {"android": "https://dc.lft.to/lastmile_qr_scan", "ios": "https://dc.lft.to/lastmile_qr_scan"}, "is_reserved": 0, "bike_id": "ea32ae80c0a6949056d5378d3e19bbb5", "name": "ea32ae80c0a6949056d5378d3e19bbb5", "fusion_lon": 0.0, "lon": -76.877746, "fusion_lat": 0.0}, {"lat": 38.889662333333334, "type": "electric_bike", "is_disabled": 0, "rental_uris": {"android": "https://dc.lft.to/lastmile_qr_scan", "ios": "https://dc.lft.to/lastmile_qr_scan"}, "is_reserved": 0, "bike_id": "64e21c27ff7e121df232b0cd4082779d", "name": "64e21c27ff7e121df232b0cd4082779d", "fusion_lon": 0.0, "lon": -76.94866616666667, "fusion_lat": 0.0}, {"lat": 38.90767016666667, "type": "electric_scooter", "is_disabled": 0, "rental_uris": {"android": "https://dc.lft.to/lastmile_qr_scan", "ios": "https://dc.lft.to/lastmile_qr_scan"}, "is_reserved": 0, "bike_id": "847c6f2f59c25b0118178d20a56b5839", "name": "847c6f2f59c25b0118178d20a56b5839", "fusion_lon": 0.0, "lon": -77.032539, "fusion_lat": 0.0}, {"lat": 38.8922315, "type": "electric_scooter", "is_disabled": 0, "rental_uris": {"android": "https://dc.lft.to/lastmile_qr_scan", "ios": "https://dc.lft.to/lastmile_qr_scan"}, "is_reserved": 0, "bike_id": "6fa0e1319212b693f2e3f7cbcf79352b", "name": "6fa0e1319212b693f2e3f7cbcf79352b", "fusion_lon": 0.0, "lon": -77.03184483333334, "fusion_lat": 0.0}, {"lat": 38.90516016666667, "type": "electric_scooter", "is_disabled": 0, "rental_uris": {"android": "https://dc.lft.to/lastmile_qr_scan", "ios": "https://dc.lft.to/lastmile_qr_scan"}, "is_reserved": 0, "bike_id": "fa7f8982f5228d29a86acd7a00863ef2", "name": "fa7f8982f5228d29a86acd7a00863ef2", "fusion_lon": 0.0, "lon": -77.06152033333333, "fusion_lat": 0.0}, {"lat": 38.9018995, "type": "electric_scooter", "is_disabled": 0, "rental_uris": {"android": "https://dc.lft.to/lastmile_qr_scan", "ios": "https://dc.lft.to/lastmile_qr_scan"}, "is_reserved": 0, "bike_id": "1bd18d2809f482d35e3a6332fed76689", "name": "1bd18d2809f482d35e3a6332fed76689", "fusion_lon": 0.0, "lon": -77.0241055, "fusion_lat": 0.0}, {"lat": 38.88743933333333, "type": "electric_scooter", "is_disabled": 0, "rental_uris": {"android": "https://dc.lft.to/lastmile_qr_scan", "ios": "https://dc.lft.to/lastmile_qr_scan"}, "is_reserved": 0, "bike_id": "2baaa76084332a90e18b78a8afa5794d", "name": "2baaa76084332a90e18b78a8afa5794d", "fusion_lon": 0.0, "lon": -77.0222435, "fusion_lat": 0.0}, {"lat": 38.929674, "type": "electric_scooter", "is_disabled": 0, "rental_uris": {"android": "https://dc.lft.to/lastmile_qr_scan", "ios": "https://dc.lft.to/lastmile_qr_scan"}, "is_reserved": 0, "bike_id": "37f5faf741a8240b1cf4b0c18535bc5d", "name": "37f5faf741a8240b1cf4b0c18535bc5d", "fusion_lon": 0.0, "lon": -77.00533783333333, "fusion_lat": 0.0}, {"lat": 38.92749716666667, "type": "electric_scooter", "is_disabled": 0, "rental_uris": {"android": "https://dc.lft.to/lastmile_qr_scan", "ios": "https://dc.lft.to/lastmile_qr_scan"}, "is_reserved": 0, "bike_id": "367a30b1460f86057c942e28141820c3", "name": "367a30b1460f86057c942e28141820c3", "fusion_lon": 0.0, "lon": -77.03316683333334, "fusion_lat": 0.0}, {"lat": 38.90118566666666, "type": "electric_scooter", "is_disabled": 0, "rental_uris": {"android": "https://dc.lft.to/lastmile_qr_scan", "ios": "https://dc.lft.to/lastmile_qr_scan"}, "is_reserved": 0, "bike_id": "2058f9004d3ca173fa6661816f0e7478", "name": "2058f9004d3ca173fa6661816f0e7478", "fusion_lon": 0.0, "lon": -77.02815833333334, "fusion_lat": 0.0}, {"lat": 38.8874235, "type": "electric_scooter", "is_disabled": 0, "rental_uris": {"android": "https://dc.lft.to/lastmile_qr_scan", "ios": "https://dc.lft.to/lastmile_qr_scan"}, "is_reserved": 0, "bike_id": "c93b9d1d248a6785daaadff172efaf65", "name": "c93b9d1d248a6785daaadff172efaf65", "fusion_lon": 0.0, "lon": -77.02120816666667, "fusion_lat": 0.0}, {"lat": 38.89356033333333, "type": "electric_scooter", "is_disabled": 0, "rental_uris": {"android": "https://dc.lft.to/lastmile_qr_scan", "ios": "https://dc.lft.to/lastmile_qr_scan"}, "is_reserved": 0, "bike_id": "08fe3064c8adeac085fdfc431704a9b2", "name": "08fe3064c8adeac085fdfc431704a9b2", "fusion_lon": 0.0, "lon": -77.0033515, "fusion_lat": 0.0}, {"lat": 38.917703333333336, "type": "electric_scooter", "is_disabled": 0, "rental_uris": {"android": "https://dc.lft.to/lastmile_qr_scan", "ios": "https://dc.lft.to/lastmile_qr_scan"}, "is_reserved": 0, "bike_id": "a85ef0d638dbd2dd97033da8328cccf9", "name": "a85ef0d638dbd2dd97033da8328cccf9", "fusion_lon": 0.0, "lon": -77.01494516666666, "fusion_lat": 0.0}, {"lat": 39.058118666666665, "type": "electric_bike", "is_disabled": 0, "rental_uris": {"android": "https://dc.lft.to/lastmile_qr_scan", "ios": "https://dc.lft.to/lastmile_qr_scan"}, "is_reserved": 0, "bike_id": "3c6291b7497adcbe1c25c4409bc26d7d", "name": "3c6291b7497adcbe1c25c4409bc26d7d", "fusion_lon": 0.0, "lon": -77.1262895, "fusion_lat": 0.0}, {"lat": 38.904887333333335, "type": "electric_bike", "is_disabled": 0, "rental_uris": {"android": "https://dc.lft.to/lastmile_qr_scan", "ios": "https://dc.lft.to/lastmile_qr_scan"}, "is_reserved": 0, "bike_id": "ed6f2e526c81f0504a410a161378c6a5", "name": "ed6f2e526c81f0504a410a161378c6a5", "fusion_lon": 0.0, "lon": -77.007379, "fusion_lat": 0.0}, {"lat": 38.9061775, "type": "electric_scooter", "is_disabled": 0, "rental_uris": {"android": "https://dc.lft.to/lastmile_qr_scan", "ios": "https://dc.lft.to/lastmile_qr_scan"}, "is_reserved": 0, "bike_id": "a933d222eeaa3cd04a7538757f2b0fc1", "name": "a933d222eeaa3cd04a7538757f2b0fc1", "fusion_lon": 0.0, "lon": -77.041389, "fusion_lat": 0.0}, {"lat": 38.91762333333333, "type": "electric_scooter", "is_disabled": 0, "rental_uris": {"android": "https://dc.lft.to/lastmile_qr_scan", "ios": "https://dc.lft.to/lastmile_qr_scan"}, "is_reserved": 0, "bike_id": "437137a399e4a6f1832db5b5499d1ea8", "name": "437137a399e4a6f1832db5b5499d1ea8", "fusion_lon": 0.0, "lon": -77.0455145, "fusion_lat": 0.0}, {"lat": 38.92423683333333, "type": "electric_scooter", "is_disabled": 0, "rental_uris": {"android": "https://dc.lft.to/lastmile_qr_scan", "ios": "https://dc.lft.to/lastmile_qr_scan"}, "is_reserved": 0, "bike_id": "72abe6c2dd0f1c7ceeb413747b00acff", "name": "72abe6c2dd0f1c7ceeb413747b00acff", "fusion_lon": 0.0, "lon": -77.04480116666667, "fusion_lat": 0.0}, {"lat": 38.895659, "type": "electric_scooter", "is_disabled": 0, "rental_uris": {"android": "https://dc.lft.to/lastmile_qr_scan", "ios": "https://dc.lft.to/lastmile_qr_scan"}, "is_reserved": 0, "bike_id": "8c04ebdb06f501241040deec18f2d88f", "name": "8c04ebdb06f501241040deec18f2d88f", "fusion_lon": 0.0, "lon": -77.0231895, "fusion_lat": 0.0}, {"lat": 38.91689683333333, "type": "electric_scooter", "is_disabled": 0, "rental_uris": {"android": "https://dc.lft.to/lastmile_qr_scan", "ios": "https://dc.lft.to/lastmile_qr_scan"}, "is_reserved": 0, "bike_id": "3be29d7cf61335c533f1bb40afec5938", "name": "3be29d7cf61335c533f1bb40afec5938", "fusion_lon": 0.0, "lon": -77.03592583333334, "fusion_lat": 0.0}, {"lat": 38.914831666666664, "type": "electric_scooter", "is_disabled": 0, "rental_uris": {"android": "https://dc.lft.to/lastmile_qr_scan", "ios": "https://dc.lft.to/lastmile_qr_scan"}, "is_reserved": 0, "bike_id": "b306b7e8db45f880dd54b53568c52ebc", "name": "b306b7e8db45f880dd54b53568c52ebc", "fusion_lon": 0.0, "lon": -77.03244566666666, "fusion_lat": 0.0}, {"lat": 38.935255, "type": "electric_scooter", "is_disabled": 0, "rental_uris": {"android": "https://dc.lft.to/lastmile_qr_scan", "ios": "https://dc.lft.to/lastmile_qr_scan"}, "is_reserved": 0, "bike_id": "891ad551a9d8d13743aa88d77aacacf8", "name": "891ad551a9d8d13743aa88d77aacacf8", "fusion_lon": 0.0, "lon": -77.03259433333334, "fusion_lat": 0.0}, {"lat": 38.88492266666667, "type": "electric_scooter", "is_disabled": 0, "rental_uris": {"android": "https://dc.lft.to/lastmile_qr_scan", "ios": "https://dc.lft.to/lastmile_qr_scan"}, "is_reserved": 0, "bike_id": "7deec7745fa0f680d3def25907ed1518", "name": "7deec7745fa0f680d3def25907ed1518", "fusion_lon": 0.0, "lon": -77.00892716666667, "fusion_lat": 0.0}, {"lat": 38.912651333333336, "type": "electric_scooter", "is_disabled": 0, "rental_uris": {"android": "https://dc.lft.to/lastmile_qr_scan", "ios": "https://dc.lft.to/lastmile_qr_scan"}, "is_reserved": 0, "bike_id": "52b54af13d1cf0fc1d5fc7c914646812", "name": "52b54af13d1cf0fc1d5fc7c914646812", "fusion_lon": 0.0, "lon": -77.04152183333333, "fusion_lat": 0.0}, {"lat": 38.93546883333333, "type": "electric_scooter", "is_disabled": 0, "rental_uris": {"android": "https://dc.lft.to/lastmile_qr_scan", "ios": "https://dc.lft.to/lastmile_qr_scan"}, "is_reserved": 0, "bike_id": "82d557d21644464ecf7c64f6da745c0d", "name": "82d557d21644464ecf7c64f6da745c0d", "fusion_lon": 0.0, "lon": -77.05813716666667, "fusion_lat": 0.0}, {"lat": 38.922568, "type": "electric_scooter", "is_disabled": 0, "rental_uris": {"android": "https://dc.lft.to/lastmile_qr_scan", "ios": "https://dc.lft.to/lastmile_qr_scan"}, "is_reserved": 0, "bike_id": "1e2e547fd7917bf2f5f7300199aefbec", "name": "1e2e547fd7917bf2f5f7300199aefbec", "fusion_lon": 0.0, "lon": -77.04300116666667, "fusion_lat": 0.0}, {"lat": 38.91848616666667, "type": "electric_scooter", "is_disabled": 0, "rental_uris": {"android": "https://dc.lft.to/lastmile_qr_scan", "ios": "https://dc.lft.to/lastmile_qr_scan"}, "is_reserved": 0, "bike_id": "5978b0d2ea64115bb079809b2a925849", "name": "5978b0d2ea64115bb079809b2a925849", "fusion_lon": 0.0, "lon": -77.03216, "fusion_lat": 0.0}, {"lat": 38.94314083333333, "type": "electric_scooter", "is_disabled": 0, "rental_uris": {"android": "https://dc.lft.to/lastmile_qr_scan", "ios": "https://dc.lft.to/lastmile_qr_scan"}, "is_reserved": 0, "bike_id": "0c44a03ce791bf97ad5b51d02bb34485", "name": "0c44a03ce791bf97ad5b51d02bb34485", "fusion_lon": 0.0, "lon": -77.061713, "fusion_lat": 0.0}, {"lat": 38.89748216666667, "type": "electric_scooter", "is_disabled": 0, "rental_uris": {"android": "https://dc.lft.to/lastmile_qr_scan", "ios": "https://dc.lft.to/lastmile_qr_scan"}, "is_reserved": 0, "bike_id": "1c3185a82c2f5786aac0160c1f4b42f3", "name": "1c3185a82c2f5786aac0160c1f4b42f3", "fusion_lon": 0.0, "lon": -77.00358866666667, "fusion_lat": 0.0}, {"lat": 39.02494733333333, "type": "electric_bike", "is_disabled": 0, "rental_uris": {"android": "https://dc.lft.to/lastmile_qr_scan", "ios": "https://dc.lft.to/lastmile_qr_scan"}, "is_reserved": 0, "bike_id": "594006d0d504ee878f0bb7e72e2a0f19", "name": "594006d0d504ee878f0bb7e72e2a0f19", "fusion_lon": 0.0, "lon": -77.12568133333333, "fusion_lat": 0.0}, {"lat": 38.91692316666666, "type": "electric_scooter", "is_disabled": 0, "rental_uris": {"android": "https://dc.lft.to/lastmile_qr_scan", "ios": "https://dc.lft.to/lastmile_qr_scan"}, "is_reserved": 0, "bike_id": "37d1100a180b591fbe47fbe299f265ee", "name": "37d1100a180b591fbe47fbe299f265ee", "fusion_lon": 0.0, "lon": -77.02732633333333, "fusion_lat": 0.0}, {"lat": 38.916134, "type": "electric_scooter", "is_disabled": 0, "rental_uris": {"android": "https://dc.lft.to/lastmile_qr_scan", "ios": "https://dc.lft.to/lastmile_qr_scan"}, "is_reserved": 0, "bike_id": "e56cb2f78745832ffcd6de1876475915", "name": "e56cb2f78745832ffcd6de1876475915", "fusion_lon": 0.0, "lon": -77.0316755, "fusion_lat": 0.0}, {"lat": 38.89010283333333, "type": "electric_scooter", "is_disabled": 0, "rental_uris": {"android": "https://dc.lft.to/lastmile_qr_scan", "ios": "https://dc.lft.to/lastmile_qr_scan"}, "is_reserved": 0, "bike_id": "10e72bb4e8ed167fa0b7d443e418ef1f", "name": "10e72bb4e8ed167fa0b7d443e418ef1f", "fusion_lon": 0.0, "lon": -76.938374, "fusion_lat": 0.0}, {"lat": 38.896089833333335, "type": "electric_scooter", "is_disabled": 0, "rental_uris": {"android": "https://dc.lft.to/lastmile_qr_scan", "ios": "https://dc.lft.to/lastmile_qr_scan"}, "is_reserved": 0, "bike_id": "a5e1b5efb7d1ea5c9bdb8e7b9b61426f", "name": "a5e1b5efb7d1ea5c9bdb8e7b9b61426f", "fusion_lon": 0.0, "lon": -77.04646116666666, "fusion_lat": 0.0}, {"lat": 38.9308475, "type": "electric_scooter", "is_disabled": 0, "rental_uris": {"android": "https://dc.lft.to/lastmile_qr_scan", "ios": "https://dc.lft.to/lastmile_qr_scan"}, "is_reserved": 0, "bike_id": "f0dedc3b9e410ceea9403af8f905c3ef", "name": "f0dedc3b9e410ceea9403af8f905c3ef", "fusion_lon": 0.0, "lon": -77.0362355, "fusion_lat": 0.0}, {"lat": 38.930553333333336, "type": "electric_scooter", "is_disabled": 0, "rental_uris": {"android": "https://dc.lft.to/lastmile_qr_scan", "ios": "https://dc.lft.to/lastmile_qr_scan"}, "is_reserved": 0, "bike_id": "4e919cf5fa852cd23e9beb6461440fce", "name": "4e919cf5fa852cd23e9beb6461440fce", "fusion_lon": 0.0, "lon": -77.02963383333334, "fusion_lat": 0.0}, {"lat": 38.9058235, "type": "electric_scooter", "is_disabled": 0, "rental_uris": {"android": "https://dc.lft.to/lastmile_qr_scan", "ios": "https://dc.lft.to/lastmile_qr_scan"}, "is_reserved": 0, "bike_id": "683bf10928596914c12a03345c3492d0", "name": "683bf10928596914c12a03345c3492d0", "fusion_lon": 0.0, "lon": -77.04874283333334, "fusion_lat": 0.0}, {"lat": 38.87661, "type": "electric_scooter", "is_disabled": 0, "rental_uris": {"android": "https://dc.lft.to/lastmile_qr_scan", "ios": "https://dc.lft.to/lastmile_qr_scan"}, "is_reserved": 0, "bike_id": "e3ba4bb547284325a24c3bc116bf0d47", "name": "e3ba4bb547284325a24c3bc116bf0d47", "fusion_lon": 0.0, "lon": -77.00942566666667, "fusion_lat": 0.0}, {"lat": 38.93364966666667, "type": "electric_scooter", "is_disabled": 0, "rental_uris": {"android": "https://dc.lft.to/lastmile_qr_scan", "ios": "https://dc.lft.to/lastmile_qr_scan"}, "is_reserved": 0, "bike_id": "7e8f0f519648b11838bd13d243a20154", "name": "7e8f0f519648b11838bd13d243a20154", "fusion_lon": 0.0, "lon": -77.05753466666667, "fusion_lat": 0.0}, {"lat": 38.926601166666664, "type": "electric_scooter", "is_disabled": 0, "rental_uris": {"android": "https://dc.lft.to/lastmile_qr_scan", "ios": "https://dc.lft.to/lastmile_qr_scan"}, "is_reserved": 0, "bike_id": "bc88853de20cd17425bbd64103cc7c6e", "name": "bc88853de20cd17425bbd64103cc7c6e", "fusion_lon": 0.0, "lon": -77.01502516666666, "fusion_lat": 0.0}, {"lat": 38.8650255, "type": "electric_scooter", "is_disabled": 0, "rental_uris": {"android": "https://dc.lft.to/lastmile_qr_scan", "ios": "https://dc.lft.to/lastmile_qr_scan"}, "is_reserved": 0, "bike_id": "8a755a3891e73640d295c71ca8dbd305", "name": "8a755a3891e73640d295c71ca8dbd305", "fusion_lon": 0.0, "lon": -76.99001716666666, "fusion_lat": 0.0}, {"lat": 38.92811833333333, "type": "electric_scooter", "is_disabled": 0, "rental_uris": {"android": "https://dc.lft.to/lastmile_qr_scan", "ios": "https://dc.lft.to/lastmile_qr_scan"}, "is_reserved": 0, "bike_id": "5db36933524fe82e1804d9c8ef9af8c2", "name": "5db36933524fe82e1804d9c8ef9af8c2", "fusion_lon": 0.0, "lon": -77.02350416666667, "fusion_lat": 0.0}, {"lat": 39.0526205, "type": "electric_bike", "is_disabled": 0, "rental_uris": {"android": "https://dc.lft.to/lastmile_qr_scan", "ios": "https://dc.lft.to/lastmile_qr_scan"}, "is_reserved": 0, "bike_id": "af9b43f039d808918d3044c1a8b175ff", "name": "af9b43f039d808918d3044c1a8b175ff", "fusion_lon": 0.0, "lon": -77.04389383333333, "fusion_lat": 0.0}, {"lat": 38.94887666666666, "type": "electric_bike", "is_disabled": 0, "rental_uris": {"android": "https://dc.lft.to/lastmile_qr_scan", "ios": "https://dc.lft.to/lastmile_qr_scan"}, "is_reserved": 0, "bike_id": "33191aaab4dcc6c06bf129cb76b58f8a", "name": "33191aaab4dcc6c06bf129cb76b58f8a", "fusion_lon": 0.0, "lon": -76.96373966666667, "fusion_lat": 0.0}, {"lat": 38.902898, "type": "electric_scooter", "is_disabled": 0, "rental_uris": {"android": "https://dc.lft.to/lastmile_qr_scan", "ios": "https://dc.lft.to/lastmile_qr_scan"}, "is_reserved": 0, "bike_id": "482bd7c3377889d97f437817828aa557", "name": "482bd7c3377889d97f437817828aa557", "fusion_lon": 0.0, "lon": -77.02117066666666, "fusion_lat": 0.0}, {"lat": 38.90959633333333, "type": "electric_scooter", "is_disabled": 0, "rental_uris": {"android": "https://dc.lft.to/lastmile_qr_scan", "ios": "https://dc.lft.to/lastmile_qr_scan"}, "is_reserved": 0, "bike_id": "ddb2bfcb5a3834de3e137d7615fa3b39", "name": "ddb2bfcb5a3834de3e137d7615fa3b39", "fusion_lon": 0.0, "lon": -77.03951233333333, "fusion_lat": 0.0}, {"lat": 38.89421683333333, "type": "electric_scooter", "is_disabled": 0, "rental_uris": {"android": "https://dc.lft.to/lastmile_qr_scan", "ios": "https://dc.lft.to/lastmile_qr_scan"}, "is_reserved": 0, "bike_id": "a67038252ff7c0fb65a22f4b32a06ca4", "name": "a67038252ff7c0fb65a22f4b32a06ca4", "fusion_lon": 0.0, "lon": -76.91222483333334, "fusion_lat": 0.0}, {"lat": 38.8963505, "type": "electric_scooter", "is_disabled": 0, "rental_uris": {"android": "https://dc.lft.to/lastmile_qr_scan", "ios": "https://dc.lft.to/lastmile_qr_scan"}, "is_reserved": 0, "bike_id": "5332a16d2e476488ac89bed4e0174ae2", "name": "5332a16d2e476488ac89bed4e0174ae2", "fusion_lon": 0.0, "lon": -77.05028, "fusion_lat": 0.0}, {"lat": 38.91833166666667, "type": "electric_scooter", "is_disabled": 0, "rental_uris": {"android": "https://dc.lft.to/lastmile_qr_scan", "ios": "https://dc.lft.to/lastmile_qr_scan"}, "is_reserved": 0, "bike_id": "7b6ee2334fc2bba2f3f95afa2224b870", "name": "7b6ee2334fc2bba2f3f95afa2224b870", "fusion_lon": 0.0, "lon": -76.965576, "fusion_lat": 0.0}, {"lat": 38.92100283333333, "type": "electric_scooter", "is_disabled": 0, "rental_uris": {"android": "https://dc.lft.to/lastmile_qr_scan", "ios": "https://dc.lft.to/lastmile_qr_scan"}, "is_reserved": 0, "bike_id": "93dbbaa79b9d5e6dfc89144ccec8a385", "name": "93dbbaa79b9d5e6dfc89144ccec8a385", "fusion_lon": 0.0, "lon": -77.01808816666667, "fusion_lat": 0.0}, {"lat": 38.90499166666667, "type": "electric_scooter", "is_disabled": 0, "rental_uris": {"android": "https://dc.lft.to/lastmile_qr_scan", "ios": "https://dc.lft.to/lastmile_qr_scan"}, "is_reserved": 0, "bike_id": "2948778cbc53ea16e36b675f901f17a4", "name": "2948778cbc53ea16e36b675f901f17a4", "fusion_lon": 0.0, "lon": -77.029497, "fusion_lat": 0.0}, {"lat": 38.909859833333336, "type": "electric_scooter", "is_disabled": 0, "rental_uris": {"android": "https://dc.lft.to/lastmile_qr_scan", "ios": "https://dc.lft.to/lastmile_qr_scan"}, "is_reserved": 0, "bike_id": "8ca5a9f97fb9de27e3f754c06359d262", "name": "8ca5a9f97fb9de27e3f754c06359d262", "fusion_lon": 0.0, "lon": -76.98489216666667, "fusion_lat": 0.0}, {"lat": 38.88305033333334, "type": "electric_scooter", "is_disabled": 0, "rental_uris": {"android": "https://dc.lft.to/lastmile_qr_scan", "ios": "https://dc.lft.to/lastmile_qr_scan"}, "is_reserved": 0, "bike_id": "7bd50809ca777e2bc9b29f4a06081682", "name": "7bd50809ca777e2bc9b29f4a06081682", "fusion_lon": 0.0, "lon": -77.01747766666666, "fusion_lat": 0.0}, {"lat": 38.904772333333334, "type": "electric_scooter", "is_disabled": 0, "rental_uris": {"android": "https://dc.lft.to/lastmile_qr_scan", "ios": "https://dc.lft.to/lastmile_qr_scan"}, "is_reserved": 0, "bike_id": "942d7a16c67579e2c44e16df105cbb60", "name": "942d7a16c67579e2c44e16df105cbb60", "fusion_lon": 0.0, "lon": -77.02807516666667, "fusion_lat": 0.0}, {"lat": 38.91198216666667, "type": "electric_scooter", "is_disabled": 0, "rental_uris": {"android": "https://dc.lft.to/lastmile_qr_scan", "ios": "https://dc.lft.to/lastmile_qr_scan"}, "is_reserved": 0, "bike_id": "9d780fdcc69fe6672c72137066eb4764", "name": "9d780fdcc69fe6672c72137066eb4764", "fusion_lon": 0.0, "lon": -77.04175633333334, "fusion_lat": 0.0}, {"lat": 38.9197855, "type": "electric_scooter", "is_disabled": 0, "rental_uris": {"android": "https://dc.lft.to/lastmile_qr_scan", "ios": "https://dc.lft.to/lastmile_qr_scan"}, "is_reserved": 0, "bike_id": "67b522f279a4d115176a2948ce99250e", "name": "67b522f279a4d115176a2948ce99250e", "fusion_lon": 0.0, "lon": -77.02153866666667, "fusion_lat": 0.0}, {"lat": 38.93704183333333, "type": "electric_scooter", "is_disabled": 0, "rental_uris": {"android": "https://dc.lft.to/lastmile_qr_scan", "ios": "https://dc.lft.to/lastmile_qr_scan"}, "is_reserved": 0, "bike_id": "29bae85302282f409f7e281172697ca4", "name": "29bae85302282f409f7e281172697ca4", "fusion_lon": 0.0, "lon": -77.06103166666666, "fusion_lat": 0.0}, {"lat": 38.9371295, "type": "electric_scooter", "is_disabled": 0, "rental_uris": {"android": "https://dc.lft.to/lastmile_qr_scan", "ios": "https://dc.lft.to/lastmile_qr_scan"}, "is_reserved": 0, "bike_id": "eb680bbf8491faa1a8ee41445aa9b568", "name": "eb680bbf8491faa1a8ee41445aa9b568", "fusion_lon": 0.0, "lon": -77.02425716666667, "fusion_lat": 0.0}, {"lat": 38.907189, "type": "electric_scooter", "is_disabled": 0, "rental_uris": {"android": "https://dc.lft.to/lastmile_qr_scan", "ios": "https://dc.lft.to/lastmile_qr_scan"}, "is_reserved": 0, "bike_id": "736abe40cbc701ab2da0fa4b26f43812", "name": "736abe40cbc701ab2da0fa4b26f43812", "fusion_lon": 0.0, "lon": -77.03861966666666, "fusion_lat": 0.0}, {"lat": 38.900641, "type": "electric_scooter", "is_disabled": 0, "rental_uris": {"android": "https://dc.lft.to/lastmile_qr_scan", "ios": "https://dc.lft.to/lastmile_qr_scan"}, "is_reserved": 0, "bike_id": "fe7891a1d2a54635b5ca2eb83996a920", "name": "fe7891a1d2a54635b5ca2eb83996a920", "fusion_lon": 0.0, "lon": -77.0489175, "fusion_lat": 0.0}, {"lat": 38.945762333333334, "type": "electric_bike", "is_disabled": 0, "rental_uris": {"android": "https://dc.lft.to/lastmile_qr_scan", "ios": "https://dc.lft.to/lastmile_qr_scan"}, "is_reserved": 0, "bike_id": "dec30e068cd4345f9453932737e46625", "name": "dec30e068cd4345f9453932737e46625", "fusion_lon": 0.0, "lon": -76.987761, "fusion_lat": 0.0}, {"lat": 38.93175933333333, "type": "electric_scooter", "is_disabled": 0, "rental_uris": {"android": "https://dc.lft.to/lastmile_qr_scan", "ios": "https://dc.lft.to/lastmile_qr_scan"}, "is_reserved": 0, "bike_id": "0fffb51ade8c52490c271a0981a41249", "name": "0fffb51ade8c52490c271a0981a41249", "fusion_lon": 0.0, "lon": -77.03639, "fusion_lat": 0.0}, {"lat": 38.84618416666667, "type": "electric_scooter", "is_disabled": 0, "rental_uris": {"android": "https://dc.lft.to/lastmile_qr_scan", "ios": "https://dc.lft.to/lastmile_qr_scan"}, "is_reserved": 0, "bike_id": "bd108fce2e87ab9a0487fd8691cafd95", "name": "bd108fce2e87ab9a0487fd8691cafd95", "fusion_lon": 0.0, "lon": -76.996317, "fusion_lat": 0.0}, {"lat": 38.887941833333336, "type": "electric_scooter", "is_disabled": 0, "rental_uris": {"android": "https://dc.lft.to/lastmile_qr_scan", "ios": "https://dc.lft.to/lastmile_qr_scan"}, "is_reserved": 0, "bike_id": "4c13a8ffdeaba8d5477036c9194015aa", "name": "4c13a8ffdeaba8d5477036c9194015aa", "fusion_lon": 0.0, "lon": -76.933525, "fusion_lat": 0.0}, {"lat": 38.900319, "type": "electric_scooter", "is_disabled": 0, "rental_uris": {"android": "https://dc.lft.to/lastmile_qr_scan", "ios": "https://dc.lft.to/lastmile_qr_scan"}, "is_reserved": 0, "bike_id": "0e01f0154c90326a61c7fea109c883e9", "name": "0e01f0154c90326a61c7fea109c883e9", "fusion_lon": 0.0, "lon": -76.99954633333333, "fusion_lat": 0.0}, {"lat": 38.87635616666667, "type": "electric_scooter", "is_disabled": 0, "rental_uris": {"android": "https://dc.lft.to/lastmile_qr_scan", "ios": "https://dc.lft.to/lastmile_qr_scan"}, "is_reserved": 0, "bike_id": "42b102e53cf4de6ba76573fbef4a376f", "name": "42b102e53cf4de6ba76573fbef4a376f", "fusion_lon": 0.0, "lon": -77.0071215, "fusion_lat": 0.0}, {"lat": 38.93662116666667, "type": "electric_bike", "is_disabled": 0, "rental_uris": {"android": "https://dc.lft.to/lastmile_qr_scan", "ios": "https://dc.lft.to/lastmile_qr_scan"}, "is_reserved": 0, "bike_id": "d43127a7eb23f61724c9c6c0d70fe414", "name": "d43127a7eb23f61724c9c6c0d70fe414", "fusion_lon": 0.0, "lon": -76.954971, "fusion_lat": 0.0}, {"lat": 38.9261245, "type": "electric_scooter", "is_disabled": 0, "rental_uris": {"android": "https://dc.lft.to/lastmile_qr_scan", "ios": "https://dc.lft.to/lastmile_qr_scan"}, "is_reserved": 0, "bike_id": "21e8e50e2d59dffe60d3405dee89d823", "name": "21e8e50e2d59dffe60d3405dee89d823", "fusion_lon": 0.0, "lon": -77.02158583333333, "fusion_lat": 0.0}, {"lat": 38.915761833333335, "type": "electric_scooter", "is_disabled": 0, "rental_uris": {"android": "https://dc.lft.to/lastmile_qr_scan", "ios": "https://dc.lft.to/lastmile_qr_scan"}, "is_reserved": 0, "bike_id": "1541461a25aada372c87053ba844f09a", "name": "1541461a25aada372c87053ba844f09a", "fusion_lon": 0.0, "lon": -77.05008666666667, "fusion_lat": 0.0}, {"lat": 38.92161466666667, "type": "electric_scooter", "is_disabled": 0, "rental_uris": {"android": "https://dc.lft.to/lastmile_qr_scan", "ios": "https://dc.lft.to/lastmile_qr_scan"}, "is_reserved": 0, "bike_id": "28d083b1297331af5bb992ee21053a0b", "name": "28d083b1297331af5bb992ee21053a0b", "fusion_lon": 0.0, "lon": -77.04692333333334, "fusion_lat": 0.0}, {"lat": 38.9072175, "type": "electric_scooter", "is_disabled": 0, "rental_uris": {"android": "https://dc.lft.to/lastmile_qr_scan", "ios": "https://dc.lft.to/lastmile_qr_scan"}, "is_reserved": 0, "bike_id": "efb19eb6adb1d16b8f2a4808dcd7dded", "name": "efb19eb6adb1d16b8f2a4808dcd7dded", "fusion_lon": 0.0, "lon": -77.04334916666667, "fusion_lat": 0.0}, {"lat": 38.90469366666667, "type": "electric_scooter", "is_disabled": 0, "rental_uris": {"android": "https://dc.lft.to/lastmile_qr_scan", "ios": "https://dc.lft.to/lastmile_qr_scan"}, "is_reserved": 0, "bike_id": "ede8dc692a1aa002b2baaf344a86ce83", "name": "ede8dc692a1aa002b2baaf344a86ce83", "fusion_lon": 0.0, "lon": -77.0357025, "fusion_lat": 0.0}, {"lat": 38.884844, "type": "electric_scooter", "is_disabled": 0, "rental_uris": {"android": "https://dc.lft.to/lastmile_qr_scan", "ios": "https://dc.lft.to/lastmile_qr_scan"}, "is_reserved": 0, "bike_id": "370f316b7b63dcbdb774ca2e850ddbd8", "name": "370f316b7b63dcbdb774ca2e850ddbd8", "fusion_lon": 0.0, "lon": -77.0070955, "fusion_lat": 0.0}, {"lat": 38.87625966666667, "type": "electric_scooter", "is_disabled": 0, "rental_uris": {"android": "https://dc.lft.to/lastmile_qr_scan", "ios": "https://dc.lft.to/lastmile_qr_scan"}, "is_reserved": 0, "bike_id": "a7ac29e0f2d6013d49bb4e35f5d78388", "name": "a7ac29e0f2d6013d49bb4e35f5d78388", "fusion_lon": 0.0, "lon": -76.9652785, "fusion_lat": 0.0}, {"lat": 38.9079095, "type": "electric_scooter", "is_disabled": 0, "rental_uris": {"android": "https://dc.lft.to/lastmile_qr_scan", "ios": "https://dc.lft.to/lastmile_qr_scan"}, "is_reserved": 0, "bike_id": "d394035e1da56dcddd16c3fdbb4a4c93", "name": "d394035e1da56dcddd16c3fdbb4a4c93", "fusion_lon": 0.0, "lon": -77.0409705, "fusion_lat": 0.0}, {"lat": 38.91571916666667, "type": "electric_scooter", "is_disabled": 0, "rental_uris": {"android": "https://dc.lft.to/lastmile_qr_scan", "ios": "https://dc.lft.to/lastmile_qr_scan"}, "is_reserved": 0, "bike_id": "8f2b4ea443cf213ea7d7e53ba5855a6e", "name": "8f2b4ea443cf213ea7d7e53ba5855a6e", "fusion_lon": 0.0, "lon": -77.0319675, "fusion_lat": 0.0}, {"lat": 38.9165935, "type": "electric_scooter", "is_disabled": 0, "rental_uris": {"android": "https://dc.lft.to/lastmile_qr_scan", "ios": "https://dc.lft.to/lastmile_qr_scan"}, "is_reserved": 0, "bike_id": "637492f89104e3f34d3ab5cd71e22a2a", "name": "637492f89104e3f34d3ab5cd71e22a2a", "fusion_lon": 0.0, "lon": -77.03844266666667, "fusion_lat": 0.0}, {"lat": 38.950869, "type": "electric_bike", "is_disabled": 0, "rental_uris": {"android": "https://dc.lft.to/lastmile_qr_scan", "ios": "https://dc.lft.to/lastmile_qr_scan"}, "is_reserved": 0, "bike_id": "f87b6c7074511728fdfa89852c39bfcb", "name": "f87b6c7074511728fdfa89852c39bfcb", "fusion_lon": 0.0, "lon": -76.965613, "fusion_lat": 0.0}, {"lat": 38.90560466666667, "type": "electric_scooter", "is_disabled": 0, "rental_uris": {"android": "https://dc.lft.to/lastmile_qr_scan", "ios": "https://dc.lft.to/lastmile_qr_scan"}, "is_reserved": 0, "bike_id": "d1043319f1e56b2072bf2dd876ff14c6", "name": "d1043319f1e56b2072bf2dd876ff14c6", "fusion_lon": 0.0, "lon": -77.04508166666666, "fusion_lat": 0.0}, {"lat": 38.898374833333335, "type": "electric_scooter", "is_disabled": 0, "rental_uris": {"android": "https://dc.lft.to/lastmile_qr_scan", "ios": "https://dc.lft.to/lastmile_qr_scan"}, "is_reserved": 0, "bike_id": "968aee6cd24a9dd432726ebc1735a2e1", "name": "968aee6cd24a9dd432726ebc1735a2e1", "fusion_lon": 0.0, "lon": -77.0294615, "fusion_lat": 0.0}, {"lat": 38.90960883333333, "type": "electric_scooter", "is_disabled": 0, "rental_uris": {"android": "https://dc.lft.to/lastmile_qr_scan", "ios": "https://dc.lft.to/lastmile_qr_scan"}, "is_reserved": 0, "bike_id": "5f4969713b8ace194edd1ffeae975863", "name": "5f4969713b8ace194edd1ffeae975863", "fusion_lon": 0.0, "lon": -77.048653, "fusion_lat": 0.0}, {"lat": 38.93639616666667, "type": "electric_scooter", "is_disabled": 0, "rental_uris": {"android": "https://dc.lft.to/lastmile_qr_scan", "ios": "https://dc.lft.to/lastmile_qr_scan"}, "is_reserved": 0, "bike_id": "b2f646a26d8d6517be1899def5a3578e", "name": "b2f646a26d8d6517be1899def5a3578e", "fusion_lon": 0.0, "lon": -77.0269705, "fusion_lat": 0.0}, {"lat": 38.90604866666666, "type": "electric_scooter", "is_disabled": 0, "rental_uris": {"android": "https://dc.lft.to/lastmile_qr_scan", "ios": "https://dc.lft.to/lastmile_qr_scan"}, "is_reserved": 0, "bike_id": "ff09795211620839472cd22e73e45c93", "name": "ff09795211620839472cd22e73e45c93", "fusion_lon": 0.0, "lon": -77.0433235, "fusion_lat": 0.0}, {"lat": 38.85517333333333, "type": "electric_bike", "is_disabled": 0, "rental_uris": {"android": "https://dc.lft.to/lastmile_qr_scan", "ios": "https://dc.lft.to/lastmile_qr_scan"}, "is_reserved": 0, "bike_id": "f15ea7ec00564bf7b286235b1892cf94", "name": "f15ea7ec00564bf7b286235b1892cf94", "fusion_lon": 0.0, "lon": -76.98428366666667, "fusion_lat": 0.0}, {"lat": 38.99394183333333, "type": "electric_bike", "is_disabled": 0, "rental_uris": {"android": "https://dc.lft.to/lastmile_qr_scan", "ios": "https://dc.lft.to/lastmile_qr_scan"}, "is_reserved": 0, "bike_id": "dba4f01a2cdc4dd427215415b7b44fc7", "name": "dba4f01a2cdc4dd427215415b7b44fc7", "fusion_lon": 0.0, "lon": -77.02405783333333, "fusion_lat": 0.0}, {"lat": 38.8965935, "type": "electric_scooter", "is_disabled": 0, "rental_uris": {"android": "https://dc.lft.to/lastmile_qr_scan", "ios": "https://dc.lft.to/lastmile_qr_scan"}, "is_reserved": 0, "bike_id": "fa34722755005846947fdd700a7d2ebb", "name": "fa34722755005846947fdd700a7d2ebb", "fusion_lon": 0.0, "lon": -77.02716616666666, "fusion_lat": 0.0}, {"lat": 38.908521666666665, "type": "electric_scooter", "is_disabled": 0, "rental_uris": {"android": "https://dc.lft.to/lastmile_qr_scan", "ios": "https://dc.lft.to/lastmile_qr_scan"}, "is_reserved": 0, "bike_id": "8177c06a484f7cf91509f9f8fbdc2525", "name": "8177c06a484f7cf91509f9f8fbdc2525", "fusion_lon": 0.0, "lon": -77.0477175, "fusion_lat": 0.0}, {"lat": 38.92528933333333, "type": "electric_scooter", "is_disabled": 0, "rental_uris": {"android": "https://dc.lft.to/lastmile_qr_scan", "ios": "https://dc.lft.to/lastmile_qr_scan"}, "is_reserved": 0, "bike_id": "72f8db2880d1dee29e31218c7facd0a3", "name": "72f8db2880d1dee29e31218c7facd0a3", "fusion_lon": 0.0, "lon": -77.0409675, "fusion_lat": 0.0}, {"lat": 38.892382166666664, "type": "electric_scooter", "is_disabled": 0, "rental_uris": {"android": "https://dc.lft.to/lastmile_qr_scan", "ios": "https://dc.lft.to/lastmile_qr_scan"}, "is_reserved": 0, "bike_id": "6670f0e2d71ae5481c1b2ac60df227e8", "name": "6670f0e2d71ae5481c1b2ac60df227e8", "fusion_lon": 0.0, "lon": -77.03181716666667, "fusion_lat": 0.0}, {"lat": 38.908489, "type": "electric_scooter", "is_disabled": 0, "rental_uris": {"android": "https://dc.lft.to/lastmile_qr_scan", "ios": "https://dc.lft.to/lastmile_qr_scan"}, "is_reserved": 0, "bike_id": "6af8c83f8ea7fad7af9a96ae243acb28", "name": "6af8c83f8ea7fad7af9a96ae243acb28", "fusion_lon": 0.0, "lon": -77.06077866666666, "fusion_lat": 0.0}, {"lat": 38.89841766666667, "type": "electric_scooter", "is_disabled": 0, "rental_uris": {"android": "https://dc.lft.to/lastmile_qr_scan", "ios": "https://dc.lft.to/lastmile_qr_scan"}, "is_reserved": 0, "bike_id": "a4246dc209046e485231056a13349e92", "name": "a4246dc209046e485231056a13349e92", "fusion_lon": 0.0, "lon": -76.94634766666667, "fusion_lat": 0.0}, {"lat": 38.8874155, "type": "electric_scooter", "is_disabled": 0, "rental_uris": {"android": "https://dc.lft.to/lastmile_qr_scan", "ios": "https://dc.lft.to/lastmile_qr_scan"}, "is_reserved": 0, "bike_id": "fa69b20a90e923075b8c164a073a2411", "name": "fa69b20a90e923075b8c164a073a2411", "fusion_lon": 0.0, "lon": -77.02224283333334, "fusion_lat": 0.0}, {"lat": 38.923714333333336, "type": "electric_scooter", "is_disabled": 0, "rental_uris": {"android": "https://dc.lft.to/lastmile_qr_scan", "ios": "https://dc.lft.to/lastmile_qr_scan"}, "is_reserved": 0, "bike_id": "9708e778f25f1deedf861e23ae87ef57", "name": "9708e778f25f1deedf861e23ae87ef57", "fusion_lon": 0.0, "lon": -77.031309, "fusion_lat": 0.0}, {"lat": 38.9047595, "type": "electric_scooter", "is_disabled": 0, "rental_uris": {"android": "https://dc.lft.to/lastmile_qr_scan", "ios": "https://dc.lft.to/lastmile_qr_scan"}, "is_reserved": 0, "bike_id": "97c0d750fe3f709260ad7e9969bec117", "name": "97c0d750fe3f709260ad7e9969bec117", "fusion_lon": 0.0, "lon": -77.06217616666666, "fusion_lat": 0.0}, {"lat": 38.9185785, "type": "electric_scooter", "is_disabled": 0, "rental_uris": {"android": "https://dc.lft.to/lastmile_qr_scan", "ios": "https://dc.lft.to/lastmile_qr_scan"}, "is_reserved": 0, "bike_id": "60dc31238e1849ec84b91074094e2f45", "name": "60dc31238e1849ec84b91074094e2f45", "fusion_lon": 0.0, "lon": -77.04028016666666, "fusion_lat": 0.0}, {"lat": 38.9038335, "type": "electric_scooter", "is_disabled": 0, "rental_uris": {"android": "https://dc.lft.to/lastmile_qr_scan", "ios": "https://dc.lft.to/lastmile_qr_scan"}, "is_reserved": 0, "bike_id": "a777f04a1d8e4a58485cba5f7f15bb49", "name": "a777f04a1d8e4a58485cba5f7f15bb49", "fusion_lon": 0.0, "lon": -77.028033, "fusion_lat": 0.0}, {"lat": 38.9530865, "type": "electric_scooter", "is_disabled": 0, "rental_uris": {"android": "https://dc.lft.to/lastmile_qr_scan", "ios": "https://dc.lft.to/lastmile_qr_scan"}, "is_reserved": 0, "bike_id": "7cefbf80b5e0e4c7bd627c64f8d354cb", "name": "7cefbf80b5e0e4c7bd627c64f8d354cb", "fusion_lon": 0.0, "lon": -77.03597183333333, "fusion_lat": 0.0}, {"lat": 38.90817966666667, "type": "electric_scooter", "is_disabled": 0, "rental_uris": {"android": "https://dc.lft.to/lastmile_qr_scan", "ios": "https://dc.lft.to/lastmile_qr_scan"}, "is_reserved": 0, "bike_id": "1e3f092ee44ae8cb83b4f74b7579ad7b", "name": "1e3f092ee44ae8cb83b4f74b7579ad7b", "fusion_lon": 0.0, "lon": -77.04166883333333, "fusion_lat": 0.0}, {"lat": 38.898421, "type": "electric_scooter", "is_disabled": 0, "rental_uris": {"android": "https://dc.lft.to/lastmile_qr_scan", "ios": "https://dc.lft.to/lastmile_qr_scan"}, "is_reserved": 0, "bike_id": "d4e5e3c35a5fb8cc6a265d700573945a", "name": "d4e5e3c35a5fb8cc6a265d700573945a", "fusion_lon": 0.0, "lon": -76.94636566666667, "fusion_lat": 0.0}, {"lat": 38.8747155, "type": "electric_scooter", "is_disabled": 0, "rental_uris": {"android": "https://dc.lft.to/lastmile_qr_scan", "ios": "https://dc.lft.to/lastmile_qr_scan"}, "is_reserved": 0, "bike_id": "75ad362a3659756537d65ad16b219b3a", "name": "75ad362a3659756537d65ad16b219b3a", "fusion_lon": 0.0, "lon": -77.01234033333333, "fusion_lat": 0.0}, {"lat": 38.89297416666667, "type": "electric_scooter", "is_disabled": 0, "rental_uris": {"android": "https://dc.lft.to/lastmile_qr_scan", "ios": "https://dc.lft.to/lastmile_qr_scan"}, "is_reserved": 0, "bike_id": "cdf89d4982609b9abc870a8e1ed69928", "name": "cdf89d4982609b9abc870a8e1ed69928", "fusion_lon": 0.0, "lon": -77.01217816666667, "fusion_lat": 0.0}, {"lat": 38.899637, "type": "electric_scooter", "is_disabled": 0, "rental_uris": {"android": "https://dc.lft.to/lastmile_qr_scan", "ios": "https://dc.lft.to/lastmile_qr_scan"}, "is_reserved": 0, "bike_id": "294eaa2f1a8bef2b83967b3d916b8a17", "name": "294eaa2f1a8bef2b83967b3d916b8a17", "fusion_lon": 0.0, "lon": -77.04611666666666, "fusion_lat": 0.0}, {"lat": 38.9341665, "type": "electric_scooter", "is_disabled": 0, "rental_uris": {"android": "https://dc.lft.to/lastmile_qr_scan", "ios": "https://dc.lft.to/lastmile_qr_scan"}, "is_reserved": 0, "bike_id": "783d917cfa55665db88b6a27c722c2d9", "name": "783d917cfa55665db88b6a27c722c2d9", "fusion_lon": 0.0, "lon": -77.04151383333334, "fusion_lat": 0.0}, {"lat": 38.911375666666665, "type": "electric_scooter", "is_disabled": 0, "rental_uris": {"android": "https://dc.lft.to/lastmile_qr_scan", "ios": "https://dc.lft.to/lastmile_qr_scan"}, "is_reserved": 0, "bike_id": "a8e836d08b17e0c9b6dfd6920bf52453", "name": "a8e836d08b17e0c9b6dfd6920bf52453", "fusion_lon": 0.0, "lon": -77.04190516666667, "fusion_lat": 0.0}, {"lat": 38.89331116666666, "type": "electric_bike", "is_disabled": 0, "rental_uris": {"android": "https://dc.lft.to/lastmile_qr_scan", "ios": "https://dc.lft.to/lastmile_qr_scan"}, "is_reserved": 0, "bike_id": "02d37b17c1ceaff18038f40408b5e8a0", "name": "02d37b17c1ceaff18038f40408b5e8a0", "fusion_lon": 0.0, "lon": -77.12405616666666, "fusion_lat": 0.0}, {"lat": 38.931476, "type": "electric_scooter", "is_disabled": 0, "rental_uris": {"android": "https://dc.lft.to/lastmile_qr_scan", "ios": "https://dc.lft.to/lastmile_qr_scan"}, "is_reserved": 0, "bike_id": "2898fec421e2b3da1190e0a54caad142", "name": "2898fec421e2b3da1190e0a54caad142", "fusion_lon": 0.0, "lon": -77.0345115, "fusion_lat": 0.0}, {"lat": 38.919982833333336, "type": "electric_scooter", "is_disabled": 0, "rental_uris": {"android": "https://dc.lft.to/lastmile_qr_scan", "ios": "https://dc.lft.to/lastmile_qr_scan"}, "is_reserved": 0, "bike_id": "dcfecab43f9c9d1eb42ae22dda9dc70f", "name": "dcfecab43f9c9d1eb42ae22dda9dc70f", "fusion_lon": 0.0, "lon": -77.024112, "fusion_lat": 0.0}, {"lat": 38.921153, "type": "electric_scooter", "is_disabled": 0, "rental_uris": {"android": "https://dc.lft.to/lastmile_qr_scan", "ios": "https://dc.lft.to/lastmile_qr_scan"}, "is_reserved": 0, "bike_id": "3b9a3d632c6cf283801f387f70d5e7bc", "name": "3b9a3d632c6cf283801f387f70d5e7bc", "fusion_lon": 0.0, "lon": -77.04685266666667, "fusion_lat": 0.0}, {"lat": 38.921012, "type": "electric_scooter", "is_disabled": 0, "rental_uris": {"android": "https://dc.lft.to/lastmile_qr_scan", "ios": "https://dc.lft.to/lastmile_qr_scan"}, "is_reserved": 0, "bike_id": "9a10c589439c2c799d04f7d54cb101e9", "name": "9a10c589439c2c799d04f7d54cb101e9", "fusion_lon": 0.0, "lon": -77.030511, "fusion_lat": 0.0}, {"lat": 38.9122215, "type": "electric_scooter", "is_disabled": 0, "rental_uris": {"android": "https://dc.lft.to/lastmile_qr_scan", "ios": "https://dc.lft.to/lastmile_qr_scan"}, "is_reserved": 0, "bike_id": "1d317ff645b151e0bdb551aca6e16cc3", "name": "1d317ff645b151e0bdb551aca6e16cc3", "fusion_lon": 0.0, "lon": -77.03204983333333, "fusion_lat": 0.0}, {"lat": 38.92458083333333, "type": "electric_scooter", "is_disabled": 0, "rental_uris": {"android": "https://dc.lft.to/lastmile_qr_scan", "ios": "https://dc.lft.to/lastmile_qr_scan"}, "is_reserved": 0, "bike_id": "2bcb672c546aa0bcc455dd1c365b4d8e", "name": "2bcb672c546aa0bcc455dd1c365b4d8e", "fusion_lon": 0.0, "lon": -76.99739883333334, "fusion_lat": 0.0}, {"lat": 38.915880666666666, "type": "electric_scooter", "is_disabled": 0, "rental_uris": {"android": "https://dc.lft.to/lastmile_qr_scan", "ios": "https://dc.lft.to/lastmile_qr_scan"}, "is_reserved": 0, "bike_id": "26e283b3eea0269a57ee90e3ad5dc3d1", "name": "26e283b3eea0269a57ee90e3ad5dc3d1", "fusion_lon": 0.0, "lon": -77.04676283333333, "fusion_lat": 0.0}, {"lat": 38.898627166666664, "type": "electric_scooter", "is_disabled": 0, "rental_uris": {"android": "https://dc.lft.to/lastmile_qr_scan", "ios": "https://dc.lft.to/lastmile_qr_scan"}, "is_reserved": 0, "bike_id": "81d0c5135e5fc8d8cc0a21b8e0985c61", "name": "81d0c5135e5fc8d8cc0a21b8e0985c61", "fusion_lon": 0.0, "lon": -77.01623566666666, "fusion_lat": 0.0}, {"lat": 38.90144383333333, "type": "electric_scooter", "is_disabled": 0, "rental_uris": {"android": "https://dc.lft.to/lastmile_qr_scan", "ios": "https://dc.lft.to/lastmile_qr_scan"}, "is_reserved": 0, "bike_id": "b1fd351045f8035604f1910d47d9cef3", "name": "b1fd351045f8035604f1910d47d9cef3", "fusion_lon": 0.0, "lon": -77.044009, "fusion_lat": 0.0}, {"lat": 38.908129833333334, "type": "electric_scooter", "is_disabled": 0, "rental_uris": {"android": "https://dc.lft.to/lastmile_qr_scan", "ios": "https://dc.lft.to/lastmile_qr_scan"}, "is_reserved": 0, "bike_id": "8a7ba5e3a102ed975afeaff912edb58c", "name": "8a7ba5e3a102ed975afeaff912edb58c", "fusion_lon": 0.0, "lon": -77.038523, "fusion_lat": 0.0}, {"lat": 38.9390375, "type": "electric_scooter", "is_disabled": 0, "rental_uris": {"android": "https://dc.lft.to/lastmile_qr_scan", "ios": "https://dc.lft.to/lastmile_qr_scan"}, "is_reserved": 0, "bike_id": "5fc5e03d0776a0895c0b0dacac90699f", "name": "5fc5e03d0776a0895c0b0dacac90699f", "fusion_lon": 0.0, "lon": -77.02491233333333, "fusion_lat": 0.0}, {"lat": 38.949966333333336, "type": "electric_bike", "is_disabled": 0, "rental_uris": {"android": "https://dc.lft.to/lastmile_qr_scan", "ios": "https://dc.lft.to/lastmile_qr_scan"}, "is_reserved": 0, "bike_id": "8f3703770676b5f9a91b78b73bd8b720", "name": "8f3703770676b5f9a91b78b73bd8b720", "fusion_lon": 0.0, "lon": -77.353096, "fusion_lat": 0.0}, {"lat": 38.887448666666664, "type": "electric_scooter", "is_disabled": 0, "rental_uris": {"android": "https://dc.lft.to/lastmile_qr_scan", "ios": "https://dc.lft.to/lastmile_qr_scan"}, "is_reserved": 0, "bike_id": "cf0045b4352e208dde268c22db787570", "name": "cf0045b4352e208dde268c22db787570", "fusion_lon": 0.0, "lon": -77.02224483333333, "fusion_lat": 0.0}, {"lat": 38.9019435, "type": "electric_scooter", "is_disabled": 0, "rental_uris": {"android": "https://dc.lft.to/lastmile_qr_scan", "ios": "https://dc.lft.to/lastmile_qr_scan"}, "is_reserved": 0, "bike_id": "54a2bda5f1dd9ce0d6845043c1083c65", "name": "54a2bda5f1dd9ce0d6845043c1083c65", "fusion_lon": 0.0, "lon": -77.05480333333334, "fusion_lat": 0.0}, {"lat": 38.9085115, "type": "electric_scooter", "is_disabled": 0, "rental_uris": {"android": "https://dc.lft.to/lastmile_qr_scan", "ios": "https://dc.lft.to/lastmile_qr_scan"}, "is_reserved": 0, "bike_id": "86d66c24bb5b45a591e87dcf5276a68b", "name": "86d66c24bb5b45a591e87dcf5276a68b", "fusion_lon": 0.0, "lon": -77.02388716666667, "fusion_lat": 0.0}, {"lat": 38.82442066666667, "type": "electric_bike", "is_disabled": 0, "rental_uris": {"android": "https://dc.lft.to/lastmile_qr_scan", "ios": "https://dc.lft.to/lastmile_qr_scan"}, "is_reserved": 0, "bike_id": "021fde0440bbd0a1a1e93ed40c120f94", "name": "021fde0440bbd0a1a1e93ed40c120f94", "fusion_lon": 0.0, "lon": -77.070448, "fusion_lat": 0.0}, {"lat": 38.922793, "type": "electric_scooter", "is_disabled": 0, "rental_uris": {"android": "https://dc.lft.to/lastmile_qr_scan", "ios": "https://dc.lft.to/lastmile_qr_scan"}, "is_reserved": 0, "bike_id": "1b066e5da5c4bff4c6da52d6b43cdcc9", "name": "1b066e5da5c4bff4c6da52d6b43cdcc9", "fusion_lon": 0.0, "lon": -77.04460816666666, "fusion_lat": 0.0}, {"lat": 38.91406, "type": "electric_scooter", "is_disabled": 0, "rental_uris": {"android": "https://dc.lft.to/lastmile_qr_scan", "ios": "https://dc.lft.to/lastmile_qr_scan"}, "is_reserved": 0, "bike_id": "5872363bc7d2f9d4c21fd187b0cb5768", "name": "5872363bc7d2f9d4c21fd187b0cb5768", "fusion_lon": 0.0, "lon": -77.03218616666666, "fusion_lat": 0.0}, {"lat": 38.916743833333335, "type": "electric_bike", "is_disabled": 0, "rental_uris": {"android": "https://dc.lft.to/lastmile_qr_scan", "ios": "https://dc.lft.to/lastmile_qr_scan"}, "is_reserved": 0, "bike_id": "84c4457b025a8aa06dcbc5afc94c85e7", "name": "84c4457b025a8aa06dcbc5afc94c85e7", "fusion_lon": 0.0, "lon": -77.09576066666666, "fusion_lat": 0.0}, {"lat": 38.922745666666664, "type": "electric_scooter", "is_disabled": 0, "rental_uris": {"android": "https://dc.lft.to/lastmile_qr_scan", "ios": "https://dc.lft.to/lastmile_qr_scan"}, "is_reserved": 0, "bike_id": "1ef28253c81a5f30b9d1929a6b326591", "name": "1ef28253c81a5f30b9d1929a6b326591", "fusion_lon": 0.0, "lon": -77.0422105, "fusion_lat": 0.0}, {"lat": 38.863564, "type": "electric_scooter", "is_disabled": 0, "rental_uris": {"android": "https://dc.lft.to/lastmile_qr_scan", "ios": "https://dc.lft.to/lastmile_qr_scan"}, "is_reserved": 0, "bike_id": "dedc87c68815cf40ea516c8d15f57854", "name": "dedc87c68815cf40ea516c8d15f57854", "fusion_lon": 0.0, "lon": -76.99059716666666, "fusion_lat": 0.0}, {"lat": 38.865247833333335, "type": "electric_bike", "is_disabled": 0, "rental_uris": {"android": "https://dc.lft.to/lastmile_qr_scan", "ios": "https://dc.lft.to/lastmile_qr_scan"}, "is_reserved": 0, "bike_id": "2d253eee91156b9911770f9f696b644e", "name": "2d253eee91156b9911770f9f696b644e", "fusion_lon": 0.0, "lon": -77.12824916666666, "fusion_lat": 0.0}, {"lat": 38.898333666666666, "type": "electric_scooter", "is_disabled": 0, "rental_uris": {"android": "https://dc.lft.to/lastmile_qr_scan", "ios": "https://dc.lft.to/lastmile_qr_scan"}, "is_reserved": 0, "bike_id": "ca85713e2f196715798a5ca02d44593c", "name": "ca85713e2f196715798a5ca02d44593c", "fusion_lon": 0.0, "lon": -77.04340866666666, "fusion_lat": 0.0}, {"lat": 38.898100666666664, "type": "electric_scooter", "is_disabled": 0, "rental_uris": {"android": "https://dc.lft.to/lastmile_qr_scan", "ios": "https://dc.lft.to/lastmile_qr_scan"}, "is_reserved": 0, "bike_id": "085c7a1c0b99d292c494c7955c4a3dbd", "name": "085c7a1c0b99d292c494c7955c4a3dbd", "fusion_lon": 0.0, "lon": -77.051397, "fusion_lat": 0.0}, {"lat": 38.892057666666666, "type": "electric_scooter", "is_disabled": 0, "rental_uris": {"android": "https://dc.lft.to/lastmile_qr_scan", "ios": "https://dc.lft.to/lastmile_qr_scan"}, "is_reserved": 0, "bike_id": "f4a3cbc889f27db0daf7543e6534aa12", "name": "f4a3cbc889f27db0daf7543e6534aa12", "fusion_lon": 0.0, "lon": -76.98804966666667, "fusion_lat": 0.0}, {"lat": 38.865033, "type": "electric_scooter", "is_disabled": 0, "rental_uris": {"android": "https://dc.lft.to/lastmile_qr_scan", "ios": "https://dc.lft.to/lastmile_qr_scan"}, "is_reserved": 0, "bike_id": "95382b7f993b1b814e4620260034d2a0", "name": "95382b7f993b1b814e4620260034d2a0", "fusion_lon": 0.0, "lon": -76.99008266666667, "fusion_lat": 0.0}, {"lat": 38.86670983333333, "type": "electric_scooter", "is_disabled": 0, "rental_uris": {"android": "https://dc.lft.to/lastmile_qr_scan", "ios": "https://dc.lft.to/lastmile_qr_scan"}, "is_reserved": 0, "bike_id": "f5dcd2dc764aa86f1d132e4b3086dcec", "name": "f5dcd2dc764aa86f1d132e4b3086dcec", "fusion_lon": 0.0, "lon": -76.98883533333333, "fusion_lat": 0.0}, {"lat": 39.0884335, "type": "electric_bike", "is_disabled": 0, "rental_uris": {"android": "https://dc.lft.to/lastmile_qr_scan", "ios": "https://dc.lft.to/lastmile_qr_scan"}, "is_reserved": 0, "bike_id": "18e2a9bc045133e518fea2a5548f6f8c", "name": "18e2a9bc045133e518fea2a5548f6f8c", "fusion_lon": 0.0, "lon": -77.17800033333333, "fusion_lat": 0.0}, {"lat": 38.906070166666666, "type": "electric_scooter", "is_disabled": 0, "rental_uris": {"android": "https://dc.lft.to/lastmile_qr_scan", "ios": "https://dc.lft.to/lastmile_qr_scan"}, "is_reserved": 0, "bike_id": "835d5e93689f938b2ed45ec10b748c97", "name": "835d5e93689f938b2ed45ec10b748c97", "fusion_lon": 0.0, "lon": -77.04130566666667, "fusion_lat": 0.0}, {"lat": 38.88427266666667, "type": "electric_scooter", "is_disabled": 0, "rental_uris": {"android": "https://dc.lft.to/lastmile_qr_scan", "ios": "https://dc.lft.to/lastmile_qr_scan"}, "is_reserved": 0, "bike_id": "89db26c5a583c1d25ecbdb406d06b502", "name": "89db26c5a583c1d25ecbdb406d06b502", "fusion_lon": 0.0, "lon": -76.95416016666667, "fusion_lat": 0.0}, {"lat": 38.914776833333335, "type": "electric_scooter", "is_disabled": 0, "rental_uris": {"android": "https://dc.lft.to/lastmile_qr_scan", "ios": "https://dc.lft.to/lastmile_qr_scan"}, "is_reserved": 0, "bike_id": "6cb19bc75e19d59c3ef2ca95eca0b200", "name": "6cb19bc75e19d59c3ef2ca95eca0b200", "fusion_lon": 0.0, "lon": -77.034661, "fusion_lat": 0.0}, {"lat": 38.910463166666666, "type": "electric_scooter", "is_disabled": 0, "rental_uris": {"android": "https://dc.lft.to/lastmile_qr_scan", "ios": "https://dc.lft.to/lastmile_qr_scan"}, "is_reserved": 0, "bike_id": "72452fd9caeec9b59da8cee09dcb98ac", "name": "72452fd9caeec9b59da8cee09dcb98ac", "fusion_lon": 0.0, "lon": -77.01507183333334, "fusion_lat": 0.0}, {"lat": 38.913282833333334, "type": "electric_scooter", "is_disabled": 0, "rental_uris": {"android": "https://dc.lft.to/lastmile_qr_scan", "ios": "https://dc.lft.to/lastmile_qr_scan"}, "is_reserved": 0, "bike_id": "a340ea96c71baebe1b50de5f2af00be8", "name": "a340ea96c71baebe1b50de5f2af00be8", "fusion_lon": 0.0, "lon": -77.03260616666667, "fusion_lat": 0.0}, {"lat": 38.91792066666667, "type": "electric_scooter", "is_disabled": 0, "rental_uris": {"android": "https://dc.lft.to/lastmile_qr_scan", "ios": "https://dc.lft.to/lastmile_qr_scan"}, "is_reserved": 0, "bike_id": "4329b19fe043862f39e8e9f381f62eee", "name": "4329b19fe043862f39e8e9f381f62eee", "fusion_lon": 0.0, "lon": -77.03460183333334, "fusion_lat": 0.0}, {"lat": 38.931873333333336, "type": "electric_scooter", "is_disabled": 0, "rental_uris": {"android": "https://dc.lft.to/lastmile_qr_scan", "ios": "https://dc.lft.to/lastmile_qr_scan"}, "is_reserved": 0, "bike_id": "f1f27aeb8f59e733a1be3f590c81bcfe", "name": "f1f27aeb8f59e733a1be3f590c81bcfe", "fusion_lon": 0.0, "lon": -77.02835416666667, "fusion_lat": 0.0}, {"lat": 38.904775, "type": "electric_scooter", "is_disabled": 0, "rental_uris": {"android": "https://dc.lft.to/lastmile_qr_scan", "ios": "https://dc.lft.to/lastmile_qr_scan"}, "is_reserved": 0, "bike_id": "c25db128b85662be73c89c49838ddc04", "name": "c25db128b85662be73c89c49838ddc04", "fusion_lon": 0.0, "lon": -77.02806383333333, "fusion_lat": 0.0}, {"lat": 38.88395116666667, "type": "electric_bike", "is_disabled": 0, "rental_uris": {"android": "https://dc.lft.to/lastmile_qr_scan", "ios": "https://dc.lft.to/lastmile_qr_scan"}, "is_reserved": 0, "bike_id": "bc46631164f78888a520533c7f160ca7", "name": "bc46631164f78888a520533c7f160ca7", "fusion_lon": 0.0, "lon": -77.03083366666667, "fusion_lat": 0.0}, {"lat": 38.87672933333333, "type": "electric_scooter", "is_disabled": 0, "rental_uris": {"android": "https://dc.lft.to/lastmile_qr_scan", "ios": "https://dc.lft.to/lastmile_qr_scan"}, "is_reserved": 0, "bike_id": "cb5980e0bf0a48f2be10ed1b2ee9fe09", "name": "cb5980e0bf0a48f2be10ed1b2ee9fe09", "fusion_lon": 0.0, "lon": -77.00448033333333, "fusion_lat": 0.0}, {"lat": 38.88735333333333, "type": "electric_scooter", "is_disabled": 0, "rental_uris": {"android": "https://dc.lft.to/lastmile_qr_scan", "ios": "https://dc.lft.to/lastmile_qr_scan"}, "is_reserved": 0, "bike_id": "df519c8b7086ddb69d37d12dc4b217ce", "name": "df519c8b7086ddb69d37d12dc4b217ce", "fusion_lon": 0.0, "lon": -77.01530866666667, "fusion_lat": 0.0}, {"lat": 38.84603366666666, "type": "electric_bike", "is_disabled": 0, "rental_uris": {"android": "https://dc.lft.to/lastmile_qr_scan", "ios": "https://dc.lft.to/lastmile_qr_scan"}, "is_reserved": 0, "bike_id": "680ab52d94c783469e132d12a71aeba8", "name": "680ab52d94c783469e132d12a71aeba8", "fusion_lon": 0.0, "lon": -76.96886416666666, "fusion_lat": 0.0}, {"lat": 38.91774816666667, "type": "electric_scooter", "is_disabled": 0, "rental_uris": {"android": "https://dc.lft.to/lastmile_qr_scan", "ios": "https://dc.lft.to/lastmile_qr_scan"}, "is_reserved": 0, "bike_id": "19e8812b8e46b169839a5437d959ac42", "name": "19e8812b8e46b169839a5437d959ac42", "fusion_lon": 0.0, "lon": -77.023205, "fusion_lat": 0.0}, {"lat": 38.928445333333336, "type": "electric_scooter", "is_disabled": 0, "rental_uris": {"android": "https://dc.lft.to/lastmile_qr_scan", "ios": "https://dc.lft.to/lastmile_qr_scan"}, "is_reserved": 0, "bike_id": "3cbb957a6992573fa234121bbf6f503b", "name": "3cbb957a6992573fa234121bbf6f503b", "fusion_lon": 0.0, "lon": -77.01402716666666, "fusion_lat": 0.0}, {"lat": 38.886087333333336, "type": "electric_scooter", "is_disabled": 0, "rental_uris": {"android": "https://dc.lft.to/lastmile_qr_scan", "ios": "https://dc.lft.to/lastmile_qr_scan"}, "is_reserved": 0, "bike_id": "a37e2864323ca7f7c30609bd78779fca", "name": "a37e2864323ca7f7c30609bd78779fca", "fusion_lon": 0.0, "lon": -76.99654433333333, "fusion_lat": 0.0}, {"lat": 38.92481516666667, "type": "electric_scooter", "is_disabled": 0, "rental_uris": {"android": "https://dc.lft.to/lastmile_qr_scan", "ios": "https://dc.lft.to/lastmile_qr_scan"}, "is_reserved": 0, "bike_id": "da70f0480e5c30fc64d32dd5f896594e", "name": "da70f0480e5c30fc64d32dd5f896594e", "fusion_lon": 0.0, "lon": -77.0271985, "fusion_lat": 0.0}, {"lat": 38.9030815, "type": "electric_scooter", "is_disabled": 0, "rental_uris": {"android": "https://dc.lft.to/lastmile_qr_scan", "ios": "https://dc.lft.to/lastmile_qr_scan"}, "is_reserved": 0, "bike_id": "8d75083c85b44082810904b2b54d3e81", "name": "8d75083c85b44082810904b2b54d3e81", "fusion_lon": 0.0, "lon": -77.02365083333333, "fusion_lat": 0.0}, {"lat": 38.90545783333334, "type": "electric_scooter", "is_disabled": 0, "rental_uris": {"android": "https://dc.lft.to/lastmile_qr_scan", "ios": "https://dc.lft.to/lastmile_qr_scan"}, "is_reserved": 0, "bike_id": "b906340efb77b12cf1d7e8641bd29728", "name": "b906340efb77b12cf1d7e8641bd29728", "fusion_lon": 0.0, "lon": -77.05702316666667, "fusion_lat": 0.0}, {"lat": 38.938625, "type": "electric_scooter", "is_disabled": 0, "rental_uris": {"android": "https://dc.lft.to/lastmile_qr_scan", "ios": "https://dc.lft.to/lastmile_qr_scan"}, "is_reserved": 0, "bike_id": "c9b2ed356d6d11734a9f5ce6808e43b6", "name": "c9b2ed356d6d11734a9f5ce6808e43b6", "fusion_lon": 0.0, "lon": -77.024858, "fusion_lat": 0.0}, {"lat": 38.91695083333333, "type": "electric_scooter", "is_disabled": 0, "rental_uris": {"android": "https://dc.lft.to/lastmile_qr_scan", "ios": "https://dc.lft.to/lastmile_qr_scan"}, "is_reserved": 0, "bike_id": "d0a5371b42499e1ef61ededd4e625a4a", "name": "d0a5371b42499e1ef61ededd4e625a4a", "fusion_lon": 0.0, "lon": -77.04012033333333, "fusion_lat": 0.0}, {"lat": 38.905247, "type": "electric_scooter", "is_disabled": 0, "rental_uris": {"android": "https://dc.lft.to/lastmile_qr_scan", "ios": "https://dc.lft.to/lastmile_qr_scan"}, "is_reserved": 0, "bike_id": "da40888c62289d26e08be80d598e1077", "name": "da40888c62289d26e08be80d598e1077", "fusion_lon": 0.0, "lon": -77.05972766666666, "fusion_lat": 0.0}, {"lat": 38.93236316666667, "type": "electric_scooter", "is_disabled": 0, "rental_uris": {"android": "https://dc.lft.to/lastmile_qr_scan", "ios": "https://dc.lft.to/lastmile_qr_scan"}, "is_reserved": 0, "bike_id": "41da24aef41cf9d58725d2d258869083", "name": "41da24aef41cf9d58725d2d258869083", "fusion_lon": 0.0, "lon": -77.034113, "fusion_lat": 0.0}, {"lat": 38.918145, "type": "electric_scooter", "is_disabled": 0, "rental_uris": {"android": "https://dc.lft.to/lastmile_qr_scan", "ios": "https://dc.lft.to/lastmile_qr_scan"}, "is_reserved": 0, "bike_id": "e993dce7eddc3faef9994e46f3572e5a", "name": "e993dce7eddc3faef9994e46f3572e5a", "fusion_lon": 0.0, "lon": -77.02479516666666, "fusion_lat": 0.0}, {"lat": 38.918803, "type": "electric_scooter", "is_disabled": 0, "rental_uris": {"android": "https://dc.lft.to/lastmile_qr_scan", "ios": "https://dc.lft.to/lastmile_qr_scan"}, "is_reserved": 0, "bike_id": "b127834e01b87fec4a07ad94b57c9f7e", "name": "b127834e01b87fec4a07ad94b57c9f7e", "fusion_lon": 0.0, "lon": -77.04172266666667, "fusion_lat": 0.0}, {"lat": 38.9310005, "type": "electric_scooter", "is_disabled": 0, "rental_uris": {"android": "https://dc.lft.to/lastmile_qr_scan", "ios": "https://dc.lft.to/lastmile_qr_scan"}, "is_reserved": 0, "bike_id": "c815d8325726125dd88b1c8f8a45c3c6", "name": "c815d8325726125dd88b1c8f8a45c3c6", "fusion_lon": 0.0, "lon": -77.02473016666667, "fusion_lat": 0.0}, {"lat": 38.946216166666666, "type": "electric_bike", "is_disabled": 0, "rental_uris": {"android": "https://dc.lft.to/lastmile_qr_scan", "ios": "https://dc.lft.to/lastmile_qr_scan"}, "is_reserved": 0, "bike_id": "6f89f903517c9be2104e8d43d94cf397", "name": "6f89f903517c9be2104e8d43d94cf397", "fusion_lon": 0.0, "lon": -76.93413216666667, "fusion_lat": 0.0}, {"lat": 38.876324333333336, "type": "electric_scooter", "is_disabled": 0, "rental_uris": {"android": "https://dc.lft.to/lastmile_qr_scan", "ios": "https://dc.lft.to/lastmile_qr_scan"}, "is_reserved": 0, "bike_id": "8d799e3724eb29980515b09fe16cc6f8", "name": "8d799e3724eb29980515b09fe16cc6f8", "fusion_lon": 0.0, "lon": -77.01258133333333, "fusion_lat": 0.0}, {"lat": 38.88741516666666, "type": "electric_scooter", "is_disabled": 0, "rental_uris": {"android": "https://dc.lft.to/lastmile_qr_scan", "ios": "https://dc.lft.to/lastmile_qr_scan"}, "is_reserved": 0, "bike_id": "05f916aeb2d3b0ca5ec4cbe2e0c0532c", "name": "05f916aeb2d3b0ca5ec4cbe2e0c0532c", "fusion_lon": 0.0, "lon": -77.02118316666666, "fusion_lat": 0.0}, {"lat": 38.912706, "type": "electric_scooter", "is_disabled": 0, "rental_uris": {"android": "https://dc.lft.to/lastmile_qr_scan", "ios": "https://dc.lft.to/lastmile_qr_scan"}, "is_reserved": 0, "bike_id": "25dfaef441f278ffbfbefcdcf24d0ffc", "name": "25dfaef441f278ffbfbefcdcf24d0ffc", "fusion_lon": 0.0, "lon": -77.02267266666667, "fusion_lat": 0.0}, {"lat": 38.904476333333335, "type": "electric_scooter", "is_disabled": 0, "rental_uris": {"android": "https://dc.lft.to/lastmile_qr_scan", "ios": "https://dc.lft.to/lastmile_qr_scan"}, "is_reserved": 0, "bike_id": "a703a29c55241a84954a9f0bf29dd18a", "name": "a703a29c55241a84954a9f0bf29dd18a", "fusion_lon": 0.0, "lon": -77.03838733333333, "fusion_lat": 0.0}, {"lat": 38.906094333333336, "type": "electric_scooter", "is_disabled": 0, "rental_uris": {"android": "https://dc.lft.to/lastmile_qr_scan", "ios": "https://dc.lft.to/lastmile_qr_scan"}, "is_reserved": 0, "bike_id": "c7af50cee4ffd48681dfd6c8d977c852", "name": "c7af50cee4ffd48681dfd6c8d977c852", "fusion_lon": 0.0, "lon": -77.000458, "fusion_lat": 0.0}, {"lat": 38.90860983333334, "type": "electric_scooter", "is_disabled": 0, "rental_uris": {"android": "https://dc.lft.to/lastmile_qr_scan", "ios": "https://dc.lft.to/lastmile_qr_scan"}, "is_reserved": 0, "bike_id": "693605c9103687cc9a2be46c74a52119", "name": "693605c9103687cc9a2be46c74a52119", "fusion_lon": 0.0, "lon": -77.0241935, "fusion_lat": 0.0}, {"lat": 38.887388, "type": "electric_scooter", "is_disabled": 0, "rental_uris": {"android": "https://dc.lft.to/lastmile_qr_scan", "ios": "https://dc.lft.to/lastmile_qr_scan"}, "is_reserved": 0, "bike_id": "ba3544b2a901e9f73831a86b83236fcb", "name": "ba3544b2a901e9f73831a86b83236fcb", "fusion_lon": 0.0, "lon": -77.01534633333333, "fusion_lat": 0.0}, {"lat": 38.88489383333334, "type": "electric_scooter", "is_disabled": 0, "rental_uris": {"android": "https://dc.lft.to/lastmile_qr_scan", "ios": "https://dc.lft.to/lastmile_qr_scan"}, "is_reserved": 0, "bike_id": "110fac8c0e87956f5bba717de5eaba38", "name": "110fac8c0e87956f5bba717de5eaba38", "fusion_lon": 0.0, "lon": -77.00709683333334, "fusion_lat": 0.0}, {"lat": 38.802924, "type": "electric_bike", "is_disabled": 0, "rental_uris": {"android": "https://dc.lft.to/lastmile_qr_scan", "ios": "https://dc.lft.to/lastmile_qr_scan"}, "is_reserved": 0, "bike_id": "db2fbd632db20a6192e8de23edd743d3", "name": "db2fbd632db20a6192e8de23edd743d3", "fusion_lon": 0.0, "lon": -77.03987466666666, "fusion_lat": 0.0}, {"lat": 38.915479500000004, "type": "electric_scooter", "is_disabled": 0, "rental_uris": {"android": "https://dc.lft.to/lastmile_qr_scan", "ios": "https://dc.lft.to/lastmile_qr_scan"}, "is_reserved": 0, "bike_id": "def039147e1497b5192edf11c8e8ec5b", "name": "def039147e1497b5192edf11c8e8ec5b", "fusion_lon": 0.0, "lon": -76.98342866666667, "fusion_lat": 0.0}, {"lat": 38.9278495, "type": "electric_scooter", "is_disabled": 0, "rental_uris": {"android": "https://dc.lft.to/lastmile_qr_scan", "ios": "https://dc.lft.to/lastmile_qr_scan"}, "is_reserved": 0, "bike_id": "e9a08a031fefda40ebd7ff4276cd5f8b", "name": "e9a08a031fefda40ebd7ff4276cd5f8b", "fusion_lon": 0.0, "lon": -77.02739033333333, "fusion_lat": 0.0},