{"data": {"bikes": [{"rental_uris": {"android": "https://dc.lft.to/lastmile_qr_scan", "ios": "https://dc.lft.to/lastmile_qr_scan"}, "lon": -77.04484916666667, "name": "31df01c4b306589ba83f34f21da8564d", "lat": 38.91594666666667, "is_reserved": 0, "fusion_lat": 0.0, "bike_id": "31df01c4b306589ba83f34f21da8564d", "type": "electric_scooter", "is_disabled": 0, "fusion_lon": 0.0}, {"rental_uris": {"android": "https://dc.lft.to/lastmile_qr_scan", "ios": "https://dc.lft.to/lastmile_qr_scan"}, "lon": -77.02210866666667, "name": "d38a2d825abf0aca10e57970c1b88a1d", "lat": 38.905761166666665, "is_reserved": 0, "fusion_lat": 0.0, "bike_id": "d38a2d825abf0aca10e57970c1b88a1d", "type": "electric_scooter", "is_disabled": 0, "fusion_lon": 0.0}, {"rental_uris": {"android": "https://dc.lft.to/lastmile_qr_scan", "ios": "https://dc.lft.to/lastmile_qr_scan"}, "lon": -77.0417045, "name": "059c5e05cd7e4575b82cafc7588463a1", "lat": 38.913972333333334, "is_reserved": 0, "fusion_lat": 0.0, "bike_id": "059c5e05cd7e4575b82cafc7588463a1", "type": "electric_scooter", "is_disabled": 0, "fusion_lon": 0.0}, {"rental_uris": {"android": "https://dc.lft.to/lastmile_qr_scan", "ios": "https://dc.lft.to/lastmile_qr_scan"}, "lon": -77.02746216666667, "name": "f87d5fda33546545e53bd812ec0fbc28", "lat": 38.899970333333336, "is_reserved": 0, "fusion_lat": 0.0, "bike_id": "f87d5fda33546545e53bd812ec0fbc28", "type": "electric_scooter", "is_disabled": 0, "fusion_lon": 0.0}, {"rental_uris": {"android": "https://dc.lft.to/lastmile_qr_scan", "ios": "https://dc.lft.to/lastmile_qr_scan"}, "lon": -77.0254005, "name": "fb26ba948a0d75bb085300ac09cbd14b", "lat": 38.920572, "is_reserved": 0, "fusion_lat": 0.0, "bike_id": "fb26ba948a0d75bb085300ac09cbd14b", "type": "electric_scooter", "is_disabled": 0, "fusion_lon": 0.0}, {"rental_uris": {"android": "https://dc.lft.to/lastmile_qr_scan", "ios": "https://dc.lft.to/lastmile_qr_scan"}, "lon": -77.02723116666667, "name": "a41cfc6b4fd319eddc3a75f492b981c1", "lat": 38.926760333333334, "is_reserved": 0, "fusion_lat": 0.0, "bike_id": "a41cfc6b4fd319eddc3a75f492b981c1", "type": "electric_scooter", "is_disabled": 0, "fusion_lon": 0.0}, {"rental_uris": {"android": "https://dc.lft.to/lastmile_qr_scan", "ios": "https://dc.lft.to/lastmile_qr_scan"}, "lon": -77.04736383333334, "name": "5ea3c09bfc0b47997d53911a094bea05", "lat": 38.90869283333333, "is_reserved": 0, "fusion_lat": 0.0, "bike_id": "5ea3c09bfc0b47997d53911a094bea05", "type": "electric_scooter", "is_disabled": 0, "fusion_lon": 0.0}, {"rental_uris": {"android": "https://dc.lft.to/lastmile_qr_scan", "ios": "https://dc.lft.to/lastmile_qr_scan"}, "lon": -77.02757866666667, "name": "8a5a95fd639b4b8e889b72a663507907", "lat": 38.9027625, "is_reserved": 0, "fusion_lat": 0.0, "bike_id": "8a5a95fd639b4b8e889b72a663507907", "type": "electric_scooter", "is_disabled": 0, "fusion_lon": 0.0}, {"rental_uris": {"android": "https://dc.lft.to/lastmile_qr_scan", "ios": "https://dc.lft.to/lastmile_qr_scan"}, "lon": -77.03842766666666, "name": "6be019f5dd4991206e6b61b72b343934", "lat": 38.941911, "is_reserved": 0, "fusion_lat": 0.0, "bike_id": "6be019f5dd4991206e6b61b72b343934", "type": "electric_scooter", "is_disabled": 0, "fusion_lon": 0.0}, {"rental_uris": {"android": "https://dc.lft.to/lastmile_qr_scan", "ios": "https://dc.lft.to/lastmile_qr_scan"}, "lon": -77.02867066666667, "name": "02e2a0262bd52b54dc17617a081fc259", "lat": 38.89349633333333, "is_reserved": 0, "fusion_lat": 0.0, "bike_id": "02e2a0262bd52b54dc17617a081fc259", "type": "electric_scooter", "is_disabled": 0, "fusion_lon": 0.0}, {"rental_uris": {"android": "https://dc.lft.to/lastmile_qr_scan", "ios": "https://dc.lft.to/lastmile_qr_scan"}, "lon": -77.00817483333333, "name": "8dfd95c3cc62f8b6059397bd455ad51a", "lat": 38.902615, "is_reserved": 0, "fusion_lat": 0.0, "bike_id": "8dfd95c3cc62f8b6059397bd455ad51a", "type": "electric_scooter", "is_disabled": 0, "fusion_lon": 0.0}, {"rental_uris": {"android": "https://dc.lft.to/lastmile_qr_scan", "ios": "https://dc.lft.to/lastmile_qr_scan"}, "lon": -77.04700416666667, "name": "6dfca882f39a1bd2ddfb358c6a8dabd4", "lat": 38.92181566666667, "is_reserved": 0, "fusion_lat": 0.0, "bike_id": "6dfca882f39a1bd2ddfb358c6a8dabd4", "type": "electric_scooter", "is_disabled": 0, "fusion_lon": 0.0}, {"rental_uris": {"android": "https://dc.lft.to/lastmile_qr_scan", "ios": "https://dc.lft.to/lastmile_qr_scan"}, "lon": -77.03679683333333, "name": "ef490aeaea58303a85a14c558143a919", "lat": 38.922935833333334, "is_reserved": 0, "fusion_lat": 0.0, "bike_id": "ef490aeaea58303a85a14c558143a919", "type": "electric_scooter", "is_disabled": 0, "fusion_lon": 0.0}, {"rental_uris": {"android": "https://dc.lft.to/lastmile_qr_scan", "ios": "https://dc.lft.to/lastmile_qr_scan"}, "lon": -76.946528, "name": "39775c74991894f744efeeefe595f907", "lat": 38.898288, "is_reserved": 0, "fusion_lat": 0.0, "bike_id": "39775c74991894f744efeeefe595f907", "type": "electric_scooter", "is_disabled": 0, "fusion_lon": 0.0}, {"rental_uris": {"android": "https://dc.lft.to/lastmile_qr_scan", "ios": "https://dc.lft.to/lastmile_qr_scan"}, "lon": -77.02158483333334, "name": "58882a70d4a7fb49c63604e8a7f768f1", "lat": 38.9246165, "is_reserved": 0, "fusion_lat": 0.0, "bike_id": "58882a70d4a7fb49c63604e8a7f768f1", "type": "electric_scooter", "is_disabled": 0, "fusion_lon": 0.0}, {"rental_uris": {"android": "https://dc.lft.to/lastmile_qr_scan", "ios": "https://dc.lft.to/lastmile_qr_scan"}, "lon": -77.00870083333334, "name": "96663ea1fc01d02de45aaab390b91bd5", "lat": 38.9646245, "is_reserved": 0, "fusion_lat": 0.0, "bike_id": "96663ea1fc01d02de45aaab390b91bd5", "type": "electric_bike", "is_disabled": 0, "fusion_lon": 0.0}, {"rental_uris": {"android": "https://dc.lft.to/lastmile_qr_scan", "ios": "https://dc.lft.to/lastmile_qr_scan"}, "lon": -77.032791, "name": "3e70f2847c1158460cfd9587f48aaa1a", "lat": 38.92813366666667, "is_reserved": 0, "fusion_lat": 0.0, "bike_id": "3e70f2847c1158460cfd9587f48aaa1a", "type": "electric_scooter", "is_disabled": 0, "fusion_lon": 0.0}, {"rental_uris": {"android": "https://dc.lft.to/lastmile_qr_scan", "ios": "https://dc.lft.to/lastmile_qr_scan"}, "lon": -77.0200265, "name": "1b14bd414b108eb9b8aba03241dcae9e", "lat": 38.91362816666667, "is_reserved": 0, "fusion_lat": 0.0, "bike_id": "1b14bd414b108eb9b8aba03241dcae9e", "type": "electric_scooter", "is_disabled": 0, "fusion_lon": 0.0}, {"rental_uris": {"android": "https://dc.lft.to/lastmile_qr_scan", "ios": "https://dc.lft.to/lastmile_qr_scan"}, "lon": -77.0283345, "name": "54efd3d090607ec7c9626ad4a183b7f4", "lat": 38.931910333333335, "is_reserved": 0, "fusion_lat": 0.0, "bike_id": "54efd3d090607ec7c9626ad4a183b7f4", "type": "electric_scooter", "is_disabled": 0, "fusion_lon": 0.0}, {"rental_uris": {"android": "https://dc.lft.to/lastmile_qr_scan", "ios": "https://dc.lft.to/lastmile_qr_scan"}, "lon": -76.957616, "name": "b20250e732281e9cdee0a8acd9752876", "lat": 38.884266333333336, "is_reserved": 0, "fusion_lat": 0.0, "bike_id": "b20250e732281e9cdee0a8acd9752876", "type": "electric_scooter", "is_disabled": 0, "fusion_lon": 0.0}, {"rental_uris": {"android": "https://dc.lft.to/lastmile_qr_scan", "ios": "https://dc.lft.to/lastmile_qr_scan"}, "lon": -77.03542666666667, "name": "b734eb49e0e2a1cc3e68a28bcb340c4c", "lat": 38.92471166666667, "is_reserved": 0, "fusion_lat": 0.0, "bike_id": "b734eb49e0e2a1cc3e68a28bcb340c4c", "type": "electric_scooter", "is_disabled": 0, "fusion_lon": 0.0}, {"rental_uris": {"android": "https://dc.lft.to/lastmile_qr_scan", "ios": "https://dc.lft.to/lastmile_qr_scan"}, "lon": -77.03179716666666, "name": "b603bdcea2a2bbc5dcde1cd3f573873b", "lat": 38.909814, "is_reserved": 0, "fusion_lat": 0.0, "bike_id": "b603bdcea2a2bbc5dcde1cd3f573873b", "type": "electric_scooter", "is_disabled": 0, "fusion_lon": 0.0}, {"rental_uris": {"android": "https://dc.lft.to/lastmile_qr_scan", "ios": "https://dc.lft.to/lastmile_qr_scan"}, "lon": -77.0247395, "name": "ddcd70e23f0abe1202dbb3954c68d0ea", "lat": 38.931035, "is_reserved": 0, "fusion_lat": 0.0, "bike_id": "ddcd70e23f0abe1202dbb3954c68d0ea", "type": "electric_scooter", "is_disabled": 0, "fusion_lon": 0.0}, {"rental_uris": {"android": "https://dc.lft.to/lastmile_qr_scan", "ios": "https://dc.lft.to/lastmile_qr_scan"}, "lon": -77.0195975, "name": "647ecc645d64d771bb884692c1ada3bc", "lat": 38.90243666666667, "is_reserved": 0, "fusion_lat": 0.0, "bike_id": "647ecc645d64d771bb884692c1ada3bc", "type": "electric_scooter", "is_disabled": 0, "fusion_lon": 0.0}, {"rental_uris": {"android": "https://dc.lft.to/lastmile_qr_scan", "ios": "https://dc.lft.to/lastmile_qr_scan"}, "lon": -77.0256295, "name": "839af7647e39c7202c9c0c87517285ce", "lat": 38.923977, "is_reserved": 0, "fusion_lat": 0.0, "bike_id": "839af7647e39c7202c9c0c87517285ce", "type": "electric_scooter", "is_disabled": 0, "fusion_lon": 0.0}, {"rental_uris": {"android": "https://dc.lft.to/lastmile_qr_scan", "ios": "https://dc.lft.to/lastmile_qr_scan"}, "lon": -77.01975166666666, "name": "bc13294ca6c0f9c5aaad907f13792710", "lat": 38.8990135, "is_reserved": 0, "fusion_lat": 0.0, "bike_id": "bc13294ca6c0f9c5aaad907f13792710", "type": "electric_scooter", "is_disabled": 0, "fusion_lon": 0.0}, {"rental_uris": {"android": "https://dc.lft.to/lastmile_qr_scan", "ios": "https://dc.lft.to/lastmile_qr_scan"}, "lon": -77.00587333333333, "name": "f75a92b09a41cc6435946534ba53128d", "lat": 38.92942933333333, "is_reserved": 0, "fusion_lat": 0.0, "bike_id": "f75a92b09a41cc6435946534ba53128d", "type": "electric_scooter", "is_disabled": 0, "fusion_lon": 0.0}, {"rental_uris": {"android": "https://dc.lft.to/lastmile_qr_scan", "ios": "https://dc.lft.to/lastmile_qr_scan"}, "lon": -76.998431, "name": "7ccc4ac6f4f4e9778b4a1f6bcbc5cb52", "lat": 38.88462033333333, "is_reserved": 0, "fusion_lat": 0.0, "bike_id": "7ccc4ac6f4f4e9778b4a1f6bcbc5cb52", "type": "electric_scooter", "is_disabled": 0, "fusion_lon": 0.0}, {"rental_uris": {"android": "https://dc.lft.to/lastmile_qr_scan", "ios": "https://dc.lft.to/lastmile_qr_scan"}, "lon": -77.04375816666666, "name": "c5b3c40fb23fe8a1f2496c118d2dacc1", "lat": 38.89224033333333, "is_reserved": 0, "fusion_lat": 0.0, "bike_id": "c5b3c40fb23fe8a1f2496c118d2dacc1", "type": "electric_scooter", "is_disabled": 0, "fusion_lon": 0.0}, {"rental_uris": {"android": "https://dc.lft.to/lastmile_qr_scan", "ios": "https://dc.lft.to/lastmile_qr_scan"}, "lon": -77.05131683333333, "name": "756f0ac08443bc50b0ced0242ba92c5b", "lat": 38.92515216666666, "is_reserved": 0, "fusion_lat": 0.0, "bike_id": "756f0ac08443bc50b0ced0242ba92c5b", "type": "electric_scooter", "is_disabled": 0, "fusion_lon": 0.0}, {"rental_uris": {"android": "https://dc.lft.to/lastmile_qr_scan", "ios": "https://dc.lft.to/lastmile_qr_scan"}, "lon": -77.0258895, "name": "6b8e9707d9fdcd913231315c668f5b24", "lat": 38.943071, "is_reserved": 0, "fusion_lat": 0.0, "bike_id": "6b8e9707d9fdcd913231315c668f5b24", "type": "electric_scooter", "is_disabled": 0, "fusion_lon": 0.0}, {"rental_uris": {"android": "https://dc.lft.to/lastmile_qr_scan", "ios": "https://dc.lft.to/lastmile_qr_scan"}, "lon": -77.03924966666666, "name": "2ceb9926261154400b0cb64a3ee2c17c", "lat": 38.90144316666667, "is_reserved": 0, "fusion_lat": 0.0, "bike_id": "2ceb9926261154400b0cb64a3ee2c17c", "type": "electric_scooter", "is_disabled": 0, "fusion_lon": 0.0}, {"rental_uris": {"android": "https://dc.lft.to/lastmile_qr_scan", "ios": "https://dc.lft.to/lastmile_qr_scan"}, "lon": -76.94640966666667, "name": "e52e4239d1dfe7ead6a275f90a6c53c4", "lat": 38.8986795, "is_reserved": 0, "fusion_lat": 0.0, "bike_id": "e52e4239d1dfe7ead6a275f90a6c53c4", "type": "electric_scooter", "is_disabled": 0, "fusion_lon": 0.0}, {"rental_uris": {"android": "https://dc.lft.to/lastmile_qr_scan", "ios": "https://dc.lft.to/lastmile_qr_scan"}, "lon": -77.03909866666666, "name": "3e35b3246e73329a9123443f9dab32d8", "lat": 38.9140705, "is_reserved": 0, "fusion_lat": 0.0, "bike_id": "3e35b3246e73329a9123443f9dab32d8", "type": "electric_scooter", "is_disabled": 0, "fusion_lon": 0.0}, {"rental_uris": {"android": "https://dc.lft.to/lastmile_qr_scan", "ios": "https://dc.lft.to/lastmile_qr_scan"}, "lon": -77.02132, "name": "64424e46ca3a538ec0298cf008179e5e", "lat": 38.923085666666665, "is_reserved": 0, "fusion_lat": 0.0, "bike_id": "64424e46ca3a538ec0298cf008179e5e", "type": "electric_scooter", "is_disabled": 0, "fusion_lon": 0.0}, {"rental_uris": {"android": "https://dc.lft.to/lastmile_qr_scan", "ios": "https://dc.lft.to/lastmile_qr_scan"}, "lon": -77.04404783333334, "name": "c74fc669d751d7f55e93527fc90baf48", "lat": 38.9259, "is_reserved": 0, "fusion_lat": 0.0, "bike_id": "c74fc669d751d7f55e93527fc90baf48", "type": "electric_scooter", "is_disabled": 0, "fusion_lon": 0.0}, {"rental_uris": {"android": "https://dc.lft.to/lastmile_qr_scan", "ios": "https://dc.lft.to/lastmile_qr_scan"}, "lon": -77.04527333333333, "name": "0077bc9b5b3dc2b4ca3da3c3e09af609", "lat": 38.91601516666667, "is_reserved": 0, "fusion_lat": 0.0, "bike_id": "0077bc9b5b3dc2b4ca3da3c3e09af609", "type": "electric_scooter", "is_disabled": 0, "fusion_lon": 0.0}, {"rental_uris": {"android": "https://dc.lft.to/lastmile_qr_scan", "ios": "https://dc.lft.to/lastmile_qr_scan"}, "lon": -77.0416835, "name": "9db4f83ba5e7946c69e676e69a129a14", "lat": 38.91394733333333, "is_reserved": 0, "fusion_lat": 0.0, "bike_id": "9db4f83ba5e7946c69e676e69a129a14", "type": "electric_scooter", "is_disabled": 0, "fusion_lon": 0.0}, {"rental_uris": {"android": "https://dc.lft.to/lastmile_qr_scan", "ios": "https://dc.lft.to/lastmile_qr_scan"}, "lon": -77.031568, "name": "81ece26e3ac7b6045fede09e8afccc22", "lat": 38.895377833333335, "is_reserved": 0, "fusion_lat": 0.0, "bike_id": "81ece26e3ac7b6045fede09e8afccc22", "type": "electric_scooter", "is_disabled": 0, "fusion_lon": 0.0}, {"rental_uris": {"android": "https://dc.lft.to/lastmile_qr_scan", "ios": "https://dc.lft.to/lastmile_qr_scan"}, "lon": -77.038466, "name": "654417f8c9b124703f86965c4d6bcd58", "lat": 38.909741833333335, "is_reserved": 0, "fusion_lat": 0.0, "bike_id": "654417f8c9b124703f86965c4d6bcd58", "type": "electric_scooter", "is_disabled": 0, "fusion_lon": 0.0}, {"rental_uris": {"android": "https://dc.lft.to/lastmile_qr_scan", "ios": "https://dc.lft.to/lastmile_qr_scan"}, "lon": -76.90744216666667, "name": "4c16e963eb7bc4e76584905ec6e43152", "lat": 38.89616183333333, "is_reserved": 0, "fusion_lat": 0.0, "bike_id": "4c16e963eb7bc4e76584905ec6e43152", "type": "electric_bike", "is_disabled": 0, "fusion_lon": 0.0}, {"rental_uris": {"android": "https://dc.lft.to/lastmile_qr_scan", "ios": "https://dc.lft.to/lastmile_qr_scan"}, "lon": -76.9795215, "name": "d73eccc031a078cead563e2fbac75311", "lat": 38.904293, "is_reserved": 0, "fusion_lat": 0.0, "bike_id": "d73eccc031a078cead563e2fbac75311", "type": "electric_scooter", "is_disabled": 0, "fusion_lon": 0.0}, {"rental_uris": {"android": "https://dc.lft.to/lastmile_qr_scan", "ios": "https://dc.lft.to/lastmile_qr_scan"}, "lon": -77.0539225, "name": "258b70f1e9ac557f556ae7721e02cf7e", "lat": 38.80449, "is_reserved": 0, "fusion_lat": 0.0, "bike_id": "258b70f1e9ac557f556ae7721e02cf7e", "type": "electric_bike", "is_disabled": 0, "fusion_lon": 0.0}, {"rental_uris": {"android": "https://dc.lft.to/lastmile_qr_scan", "ios": "https://dc.lft.to/lastmile_qr_scan"}, "lon": -77.014807, "name": "53ecf46d7fea4229df67964a0d87306d", "lat": 38.92679583333334, "is_reserved": 0, "fusion_lat": 0.0, "bike_id": "53ecf46d7fea4229df67964a0d87306d", "type": "electric_scooter", "is_disabled": 0, "fusion_lon": 0.0}, {"rental_uris": {"android": "https://dc.lft.to/lastmile_qr_scan", "ios": "https://dc.lft.to/lastmile_qr_scan"}, "lon": -77.0415895, "name": "7bdab0a93e21209f9513c49ceffa3717", "lat": 38.898466666666664, "is_reserved": 0, "fusion_lat": 0.0, "bike_id": "7bdab0a93e21209f9513c49ceffa3717", "type": "electric_scooter", "is_disabled": 0, "fusion_lon": 0.0}, {"rental_uris": {"android": "https://dc.lft.to/lastmile_qr_scan", "ios": "https://dc.lft.to/lastmile_qr_scan"}, "lon": -77.03441966666666, "name": "f4d70b1e98c297dce7552440ac324850", "lat": 38.9097835, "is_reserved": 0, "fusion_lat": 0.0, "bike_id": "f4d70b1e98c297dce7552440ac324850", "type": "electric_scooter", "is_disabled": 0, "fusion_lon": 0.0}, {"rental_uris": {"android": "https://dc.lft.to/lastmile_qr_scan", "ios": "https://dc.lft.to/lastmile_qr_scan"}, "lon": -77.02301833333334, "name": "6e7cdf015e6b73612c8864288959df41", "lat": 38.9087425, "is_reserved": 0, "fusion_lat": 0.0, "bike_id": "6e7cdf015e6b73612c8864288959df41", "type": "electric_scooter", "is_disabled": 0, "fusion_lon": 0.0}, {"rental_uris": {"android": "https://dc.lft.to/lastmile_qr_scan", "ios": "https://dc.lft.to/lastmile_qr_scan"}, "lon": -76.99849816666666, "name": "b03015973295cd42c15af9b370a1aa6c", "lat": 38.900338, "is_reserved": 0, "fusion_lat": 0.0, "bike_id": "b03015973295cd42c15af9b370a1aa6c", "type": "electric_scooter", "is_disabled": 0, "fusion_lon": 0.0}, {"rental_uris": {"android": "https://dc.lft.to/lastmile_qr_scan", "ios": "https://dc.lft.to/lastmile_qr_scan"}, "lon": -76.9722015, "name": "dd3ae6cbeacc20c5d65411737a921847", "lat": 38.90030316666667, "is_reserved": 0, "fusion_lat": 0.0, "bike_id": "dd3ae6cbeacc20c5d65411737a921847", "type": "electric_bike", "is_disabled": 0, "fusion_lon": 0.0}, {"rental_uris": {"android": "https://dc.lft.to/lastmile_qr_scan", "ios": "https://dc.lft.to/lastmile_qr_scan"}, "lon": -77.04695233333334, "name": "fbfa64d1595fe7a01c6e0f3af6901738", "lat": 38.90175833333333, "is_reserved": 0, "fusion_lat": 0.0, "bike_id": "fbfa64d1595fe7a01c6e0f3af6901738", "type": "electric_scooter", "is_disabled": 0, "fusion_lon": 0.0}, {"rental_uris": {"android": "https://dc.lft.to/lastmile_qr_scan", "ios": "https://dc.lft.to/lastmile_qr_scan"}, "lon": -77.01765516666667, "name": "9851eff0272698f5a75c51be96b9c0f1", "lat": 38.92045133333333, "is_reserved": 0, "fusion_lat": 0.0, "bike_id": "9851eff0272698f5a75c51be96b9c0f1", "type": "electric_scooter", "is_disabled": 0, "fusion_lon": 0.0}, {"rental_uris": {"android": "https://dc.lft.to/lastmile_qr_scan", "ios": "https://dc.lft.to/lastmile_qr_scan"}, "lon": -77.0328535, "name": "4450af96e5968b8b67fdd00b0192feea", "lat": 38.93252066666667, "is_reserved": 0, "fusion_lat": 0.0, "bike_id": "4450af96e5968b8b67fdd00b0192feea", "type": "electric_scooter", "is_disabled": 0, "fusion_lon": 0.0}, {"rental_uris": {"android": "https://dc.lft.to/lastmile_qr_scan", "ios": "https://dc.lft.to/lastmile_qr_scan"}, "lon": -76.99547883333334, "name": "0592aac6999a88618097c01a486b314e", "lat": 38.8315985, "is_reserved": 0, "fusion_lat": 0.0, "bike_id": "0592aac6999a88618097c01a486b314e", "type": "electric_bike", "is_disabled": 0, "fusion_lon": 0.0}, {"rental_uris": {"android": "https://dc.lft.to/lastmile_qr_scan", "ios": "https://dc.lft.to/lastmile_qr_scan"}, "lon": -77.02920583333334, "name": "65490b8d5d86886a9b83d81540144381", "lat": 38.898164333333334, "is_reserved": 0, "fusion_lat": 0.0, "bike_id": "65490b8d5d86886a9b83d81540144381", "type": "electric_scooter", "is_disabled": 0, "fusion_lon": 0.0}, {"rental_uris": {"android": "https://dc.lft.to/lastmile_qr_scan", "ios": "https://dc.lft.to/lastmile_qr_scan"}, "lon": -77.023603, "name": "54c0082d1253a94707f82b050dff189d", "lat": 38.902046, "is_reserved": 0, "fusion_lat": 0.0, "bike_id": "54c0082d1253a94707f82b050dff189d", "type": "electric_scooter", "is_disabled": 0, "fusion_lon": 0.0}, {"rental_uris": {"android": "https://dc.lft.to/lastmile_qr_scan", "ios": "https://dc.lft.to/lastmile_qr_scan"}, "lon": -77.019799, "name": "7a3952a152f374d9858897dec83a0031", "lat": 38.911662166666666, "is_reserved": 0, "fusion_lat": 0.0, "bike_id": "7a3952a152f374d9858897dec83a0031", "type": "electric_scooter", "is_disabled": 0, "fusion_lon": 0.0}, {"rental_uris": {"android": "https://dc.lft.to/lastmile_qr_scan", "ios": "https://dc.lft.to/lastmile_qr_scan"}, "lon": -77.03523333333334, "name": "08441774badbaf31506de1cb88e4f4bf", "lat": 38.90038, "is_reserved": 0, "fusion_lat": 0.0, "bike_id": "08441774badbaf31506de1cb88e4f4bf", "type": "electric_scooter", "is_disabled": 0, "fusion_lon": 0.0}, {"rental_uris": {"android": "https://dc.lft.to/lastmile_qr_scan", "ios": "https://dc.lft.to/lastmile_qr_scan"}, "lon": -77.004056, "name": "9699d56e1f6ffd54932e4d1178b46986", "lat": 38.877167666666665, "is_reserved": 0, "fusion_lat": 0.0, "bike_id": "9699d56e1f6ffd54932e4d1178b46986", "type": "electric_scooter", "is_disabled": 0, "fusion_lon": 0.0}, {"rental_uris": {"android": "https://dc.lft.to/lastmile_qr_scan", "ios": "https://dc.lft.to/lastmile_qr_scan"}, "lon": -77.02835766666666, "name": "442ab8a3f5208b4db01f362d07db56a4", "lat": 38.9246985, "is_reserved": 0, "fusion_lat": 0.0, "bike_id": "442ab8a3f5208b4db01f362d07db56a4", "type": "electric_scooter", "is_disabled": 0, "fusion_lon": 0.0}, {"rental_uris": {"android": "https://dc.lft.to/lastmile_qr_scan", "ios": "https://dc.lft.to/lastmile_qr_scan"}, "lon": -76.99970933333333, "name": "0f85b2790414eb95cbc320118f0c1b60", "lat": 38.9083375, "is_reserved": 0, "fusion_lat": 0.0, "bike_id": "0f85b2790414eb95cbc320118f0c1b60", "type": "electric_scooter", "is_disabled": 0, "fusion_lon": 0.0}, {"rental_uris": {"android": "https://dc.lft.to/lastmile_qr_scan", "ios": "https://dc.lft.to/lastmile_qr_scan"}, "lon": -76.94652383333333, "name": "908c951803392fa67a99214822a15e8b", "lat": 38.898276833333334, "is_reserved": 0, "fusion_lat": 0.0, "bike_id": "908c951803392fa67a99214822a15e8b", "type": "electric_scooter", "is_disabled": 0, "fusion_lon": 0.0}, {"rental_uris": {"android": "https://dc.lft.to/lastmile_qr_scan", "ios": "https://dc.lft.to/lastmile_qr_scan"}, "lon": -77.03846933333334, "name": "21e47b38edaa9da08fa7fe3c9f8786d8", "lat": 38.907751833333336, "is_reserved": 0, "fusion_lat": 0.0, "bike_id": "21e47b38edaa9da08fa7fe3c9f8786d8", "type": "electric_scooter", "is_disabled": 0, "fusion_lon": 0.0}, {"rental_uris": {"android": "https://dc.lft.to/lastmile_qr_scan", "ios": "https://dc.lft.to/lastmile_qr_scan"}, "lon": -77.02810266666667, "name": "840d32419d0c2f9843561e72ba441095", "lat": 38.917587833333336, "is_reserved": 0, "fusion_lat": 0.0, "bike_id": "840d32419d0c2f9843561e72ba441095", "type": "electric_scooter", "is_disabled": 0, "fusion_lon": 0.0}, {"rental_uris": {"android": "https://dc.lft.to/lastmile_qr_scan", "ios": "https://dc.lft.to/lastmile_qr_scan"}, "lon": -77.01974883333334, "name": "0d0d0f9dfdc5a5bb2543769a511f6b41", "lat": 38.899017, "is_reserved": 0, "fusion_lat": 0.0, "bike_id": "0d0d0f9dfdc5a5bb2543769a511f6b41", "type": "electric_scooter", "is_disabled": 0, "fusion_lon": 0.0}, {"rental_uris": {"android": "https://dc.lft.to/lastmile_qr_scan", "ios": "https://dc.lft.to/lastmile_qr_scan"}, "lon": -77.02688616666667, "name": "3a1293418ed9100473c68188f5b67d1e", "lat": 38.9035515, "is_reserved": 0, "fusion_lat": 0.0, "bike_id": "3a1293418ed9100473c68188f5b67d1e", "type": "electric_scooter", "is_disabled": 0, "fusion_lon": 0.0}, {"rental_uris": {"android": "https://dc.lft.to/lastmile_qr_scan", "ios": "https://dc.lft.to/lastmile_qr_scan"}, "lon": -76.9747505, "name": "0991134e7e898ed5d82d10b27d8d30d2", "lat": 38.863822666666664, "is_reserved": 0, "fusion_lat": 0.0, "bike_id": "0991134e7e898ed5d82d10b27d8d30d2", "type": "electric_bike", "is_disabled": 0, "fusion_lon": 0.0}, {"rental_uris": {"android": "https://dc.lft.to/lastmile_qr_scan", "ios": "https://dc.lft.to/lastmile_qr_scan"}, "lon": -77.0417595, "name": "a43fe0ef25f81adff5827ca3af81a9d2", "lat": 38.91394616666667, "is_reserved": 0, "fusion_lat": 0.0, "bike_id": "a43fe0ef25f81adff5827ca3af81a9d2", "type": "electric_scooter", "is_disabled": 0, "fusion_lon": 0.0}, {"rental_uris": {"android": "https://dc.lft.to/lastmile_qr_scan", "ios": "https://dc.lft.to/lastmile_qr_scan"}, "lon": -76.98278283333333, "name": "e6e01f061e9f4c32a9b146029e847bd2", "lat": 38.90849433333333, "is_reserved": 0, "fusion_lat": 0.0, "bike_id": "e6e01f061e9f4c32a9b146029e847bd2", "type": "electric_bike", "is_disabled": 0, "fusion_lon": 0.0}, {"rental_uris": {"android": "https://dc.lft.to/lastmile_qr_scan", "ios": "https://dc.lft.to/lastmile_qr_scan"}, "lon": -76.98536883333334, "name": "f09318513bf3bb1646e9a746abdd0f07", "lat": 38.904061166666665, "is_reserved": 0, "fusion_lat": 0.0, "bike_id": "f09318513bf3bb1646e9a746abdd0f07", "type": "electric_scooter", "is_disabled": 0, "fusion_lon": 0.0}, {"rental_uris": {"android": "https://dc.lft.to/lastmile_qr_scan", "ios": "https://dc.lft.to/lastmile_qr_scan"}, "lon": -76.99405866666666, "name": "f79753dda412c959181e772d77e43bfd", "lat": 38.92172983333333, "is_reserved": 0, "fusion_lat": 0.0, "bike_id": "f79753dda412c959181e772d77e43bfd", "type": "electric_bike", "is_disabled": 0, "fusion_lon": 0.0}, {"rental_uris": {"android": "https://dc.lft.to/lastmile_qr_scan", "ios": "https://dc.lft.to/lastmile_qr_scan"}, "lon": -77.03263566666666, "name": "3ff5a7191432dd84365e33fa898d303a", "lat": 38.93216483333333, "is_reserved": 0, "fusion_lat": 0.0, "bike_id": "3ff5a7191432dd84365e33fa898d303a", "type": "electric_scooter", "is_disabled": 0, "fusion_lon": 0.0}, {"rental_uris": {"android": "https://dc.lft.to/lastmile_qr_scan", "ios": "https://dc.lft.to/lastmile_qr_scan"}, "lon": -77.03230983333333, "name": "e9eb7003093307a0823afecb7e006352", "lat": 38.93706433333333, "is_reserved": 0, "fusion_lat": 0.0, "bike_id": "e9eb7003093307a0823afecb7e006352", "type": "electric_scooter", "is_disabled": 0, "fusion_lon": 0.0}, {"rental_uris": {"android": "https://dc.lft.to/lastmile_qr_scan", "ios": "https://dc.lft.to/lastmile_qr_scan"}, "lon": -77.02222733333333, "name": "5164c1ebbd276e166af7e918e4ccf6e7", "lat": 38.90159716666667, "is_reserved": 0, "fusion_lat": 0.0, "bike_id": "5164c1ebbd276e166af7e918e4ccf6e7", "type": "electric_scooter", "is_disabled": 0, "fusion_lon": 0.0}, {"rental_uris": {"android": "https://dc.lft.to/lastmile_qr_scan", "ios": "https://dc.lft.to/lastmile_qr_scan"}, "lon": -77.041672, "name": "d29570b9f98b3ec516129279542d7535", "lat": 38.908427, "is_reserved": 0, "fusion_lat": 0.0, "bike_id": "d29570b9f98b3ec516129279542d7535", "type": "electric_scooter", "is_disabled": 0, "fusion_lon": 0.0}, {"rental_uris": {"android": "https://dc.lft.to/lastmile_qr_scan", "ios": "https://dc.lft.to/lastmile_qr_scan"}, "lon": -76.990053, "name": "d3a02d0f20e80205c3113dcf0fb3d85e", "lat": 38.86504, "is_reserved": 0, "fusion_lat": 0.0, "bike_id": "d3a02d0f20e80205c3113dcf0fb3d85e", "type": "electric_scooter", "is_disabled": 0, "fusion_lon": 0.0}, {"rental_uris": {"android": "https://dc.lft.to/lastmile_qr_scan", "ios": "https://dc.lft.to/lastmile_qr_scan"}, "lon": -77.04223, "name": "bfadd9cf3aa1e6784c2d8812b21946db", "lat": 38.921463833333334, "is_reserved": 0, "fusion_lat": 0.0, "bike_id": "bfadd9cf3aa1e6784c2d8812b21946db", "type": "electric_scooter", "is_disabled": 0, "fusion_lon": 0.0}, {"rental_uris": {"android": "https://dc.lft.to/lastmile_qr_scan", "ios": "https://dc.lft.to/lastmile_qr_scan"}, "lon": -77.02805483333333, "name": "dd16bf44c5fc1facada9fb1a3ce62e72", "lat": 38.90620083333334, "is_reserved": 0, "fusion_lat": 0.0, "bike_id": "dd16bf44c5fc1facada9fb1a3ce62e72", "type": "electric_scooter", "is_disabled": 0, "fusion_lon": 0.0}, {"rental_uris": {"android": "https://dc.lft.to/lastmile_qr_scan", "ios": "https://dc.lft.to/lastmile_qr_scan"}, "lon": -76.925752, "name": "1a9b0d3856043b9ad4524374dab405b3", "lat": 38.8935555, "is_reserved": 0, "fusion_lat": 0.0, "bike_id": "1a9b0d3856043b9ad4524374dab405b3", "type": "electric_scooter", "is_disabled": 0, "fusion_lon": 0.0}, {"rental_uris": {"android": "https://dc.lft.to/lastmile_qr_scan", "ios": "https://dc.lft.to/lastmile_qr_scan"}, "lon": -77.028015, "name": "f878bb85e6723f7f26da5b58fa434292", "lat": 38.960487, "is_reserved": 0, "fusion_lat": 0.0, "bike_id": "f878bb85e6723f7f26da5b58fa434292", "type": "electric_scooter", "is_disabled": 0, "fusion_lon": 0.0}, {"rental_uris": {"android": "https://dc.lft.to/lastmile_qr_scan", "ios": "https://dc.lft.to/lastmile_qr_scan"}, "lon": -77.06360966666666, "name": "0993e06b159aaf128bc2deb3004eea85", "lat": 38.94445916666667, "is_reserved": 0, "fusion_lat": 0.0, "bike_id": "0993e06b159aaf128bc2deb3004eea85", "type": "electric_scooter", "is_disabled": 0, "fusion_lon": 0.0}, {"rental_uris": {"android": "https://dc.lft.to/lastmile_qr_scan", "ios": "https://dc.lft.to/lastmile_qr_scan"}, "lon": -77.037077, "name": "66d1ead57ea85ba22162161ffe1db3d5", "lat": 38.926414, "is_reserved": 0, "fusion_lat": 0.0, "bike_id": "66d1ead57ea85ba22162161ffe1db3d5", "type": "electric_scooter", "is_disabled": 0, "fusion_lon": 0.0}, {"rental_uris": {"android": "https://dc.lft.to/lastmile_qr_scan", "ios": "https://dc.lft.to/lastmile_qr_scan"}, "lon": -77.00167533333334, "name": "f48ba791e828fdfcb415b8a7c69adb55", "lat": 38.90713066666667, "is_reserved": 0, "fusion_lat": 0.0, "bike_id": "f48ba791e828fdfcb415b8a7c69adb55", "type": "electric_scooter", "is_disabled": 0, "fusion_lon": 0.0}, {"rental_uris": {"android": "https://dc.lft.to/lastmile_qr_scan", "ios": "https://dc.lft.to/lastmile_qr_scan"}, "lon": -77.03078716666667, "name": "5c6cf2f93f872207d495219d77116c3c", "lat": 38.924756333333335, "is_reserved": 0, "fusion_lat": 0.0, "bike_id": "5c6cf2f93f872207d495219d77116c3c", "type": "electric_scooter", "is_disabled": 0, "fusion_lon": 0.0}, {"rental_uris": {"android": "https://dc.lft.to/lastmile_qr_scan", "ios": "https://dc.lft.to/lastmile_qr_scan"}, "lon": -77.12937083333334, "name": "f8905ec3e8b6a454599ccafc664a9d91", "lat": 38.86516433333333, "is_reserved": 0, "fusion_lat": 0.0, "bike_id": "f8905ec3e8b6a454599ccafc664a9d91", "type": "electric_bike", "is_disabled": 0, "fusion_lon": 0.0}, {"rental_uris": {"android": "https://dc.lft.to/lastmile_qr_scan", "ios": "https://dc.lft.to/lastmile_qr_scan"}, "lon": -77.03158216666667, "name": "afa31d0bc78723e3fd8d502395d15b36", "lat": 38.8953475, "is_reserved": 0, "fusion_lat": 0.0, "bike_id": "afa31d0bc78723e3fd8d502395d15b36", "type": "electric_scooter", "is_disabled": 0, "fusion_lon": 0.0}, {"rental_uris": {"android": "https://dc.lft.to/lastmile_qr_scan", "ios": "https://dc.lft.to/lastmile_qr_scan"}, "lon": -77.04852766666667, "name": "3167b5ae80664c33ae8058a475dc9282", "lat": 38.912659, "is_reserved": 0, "fusion_lat": 0.0, "bike_id": "3167b5ae80664c33ae8058a475dc9282", "type": "electric_scooter", "is_disabled": 0, "fusion_lon": 0.0}, {"rental_uris": {"android": "https://dc.lft.to/lastmile_qr_scan", "ios": "https://dc.lft.to/lastmile_qr_scan"}, "lon": -77.02691516666667, "name": "49157ea4e135672168b94663f11dcea6", "lat": 38.90232666666667, "is_reserved": 0, "fusion_lat": 0.0, "bike_id": "49157ea4e135672168b94663f11dcea6", "type": "electric_scooter", "is_disabled": 0, "fusion_lon": 0.0}, {"rental_uris": {"android": "https://dc.lft.to/lastmile_qr_scan", "ios": "https://dc.lft.to/lastmile_qr_scan"}, "lon": -77.04839866666667, "name": "ef8184e6eb1a3e95dc777e82397cad1c", "lat": 38.91487033333333, "is_reserved": 0, "fusion_lat": 0.0, "bike_id": "ef8184e6eb1a3e95dc777e82397cad1c", "type": "electric_scooter", "is_disabled": 0, "fusion_lon": 0.0}, {"rental_uris": {"android": "https://dc.lft.to/lastmile_qr_scan", "ios": "https://dc.lft.to/lastmile_qr_scan"}, "lon": -77.00804, "name": "e084e74571412dab1705a7bcce7cf99e", "lat": 38.91270633333333, "is_reserved": 0, "fusion_lat": 0.0, "bike_id": "e084e74571412dab1705a7bcce7cf99e", "type": "electric_scooter", "is_disabled": 0, "fusion_lon": 0.0}, {"rental_uris": {"android": "https://dc.lft.to/lastmile_qr_scan", "ios": "https://dc.lft.to/lastmile_qr_scan"}, "lon": -77.02461116666667, "name": "613a7089271a183d50108f98fafa6d90", "lat": 38.90850016666667, "is_reserved": 0, "fusion_lat": 0.0, "bike_id": "613a7089271a183d50108f98fafa6d90", "type": "electric_scooter", "is_disabled": 0, "fusion_lon": 0.0}, {"rental_uris": {"android": "https://dc.lft.to/lastmile_qr_scan", "ios": "https://dc.lft.to/lastmile_qr_scan"}, "lon": -77.00892066666667, "name": "3e14af521544e53b7dafa3968b7502bd", "lat": 38.88501566666667, "is_reserved": 0, "fusion_lat": 0.0, "bike_id": "3e14af521544e53b7dafa3968b7502bd", "type": "electric_scooter", "is_disabled": 0, "fusion_lon": 0.0}, {"rental_uris": {"android": "https://dc.lft.to/lastmile_qr_scan", "ios": "https://dc.lft.to/lastmile_qr_scan"}, "lon": -77.03698333333334, "name": "ca1ab6508303df351f4bf99dd92d9f8e", "lat": 38.935573166666664, "is_reserved": 0, "fusion_lat": 0.0, "bike_id": "ca1ab6508303df351f4bf99dd92d9f8e", "type": "electric_bike", "is_disabled": 0, "fusion_lon": 0.0}, {"rental_uris": {"android": "https://dc.lft.to/lastmile_qr_scan", "ios": "https://dc.lft.to/lastmile_qr_scan"}, "lon": -77.03499883333333, "name": "b681347237e6adef00f660bb541e8f88", "lat": 38.92139516666667, "is_reserved": 0, "fusion_lat": 0.0, "bike_id": "b681347237e6adef00f660bb541e8f88", "type": "electric_scooter", "is_disabled": 0, "fusion_lon": 0.0}, {"rental_uris": {"android": "https://dc.lft.to/lastmile_qr_scan", "ios": "https://dc.lft.to/lastmile_qr_scan"}, "lon": -77.02208666666667, "name": "ca224190e4f408847f03252570d66693", "lat": 38.910152333333336, "is_reserved": 0, "fusion_lat": 0.0, "bike_id": "ca224190e4f408847f03252570d66693", "type": "electric_scooter", "is_disabled": 0, "fusion_lon": 0.0}, {"rental_uris": {"android": "https://dc.lft.to/lastmile_qr_scan", "ios": "https://dc.lft.to/lastmile_qr_scan"}, "lon": -77.036585, "name": "185413ffb637795b8bcf5e6c6c44a729", "lat": 38.92084766666667, "is_reserved": 0, "fusion_lat": 0.0, "bike_id": "185413ffb637795b8bcf5e6c6c44a729", "type": "electric_scooter", "is_disabled": 0, "fusion_lon": 0.0}, {"rental_uris": {"android": "https://dc.lft.to/lastmile_qr_scan", "ios": "https://dc.lft.to/lastmile_qr_scan"}, "lon": -77.02982683333333, "name": "9f2c0ad5a8447d3dc6d1a38fe9cbfbe5", "lat": 38.907324, "is_reserved": 0, "fusion_lat": 0.0, "bike_id": "9f2c0ad5a8447d3dc6d1a38fe9cbfbe5", "type": "electric_scooter", "is_disabled": 0, "fusion_lon": 0.0}, {"rental_uris": {"android": "https://dc.lft.to/lastmile_qr_scan", "ios": "https://dc.lft.to/lastmile_qr_scan"}, "lon": -77.02480133333333, "name": "0b84057197a7409a597c636fc36eab12", "lat": 38.92074783333333, "is_reserved": 0, "fusion_lat": 0.0, "bike_id": "0b84057197a7409a597c636fc36eab12", "type": "electric_scooter", "is_disabled": 0, "fusion_lon": 0.0}, {"rental_uris": {"android": "https://dc.lft.to/lastmile_qr_scan", "ios": "https://dc.lft.to/lastmile_qr_scan"}, "lon": -77.03466683333333, "name": "c951af975c6d73403f7c0fb6de8cf242", "lat": 38.90575666666667, "is_reserved": 0, "fusion_lat": 0.0, "bike_id": "c951af975c6d73403f7c0fb6de8cf242", "type": "electric_scooter", "is_disabled": 0, "fusion_lon": 0.0}, {"rental_uris": {"android": "https://dc.lft.to/lastmile_qr_scan", "ios": "https://dc.lft.to/lastmile_qr_scan"}, "lon": -77.0356155, "name": "726e194760e2c7e927c517b11c17b329", "lat": 38.901387, "is_reserved": 0, "fusion_lat": 0.0, "bike_id": "726e194760e2c7e927c517b11c17b329", "type": "electric_scooter", "is_disabled": 0, "fusion_lon": 0.0}, {"rental_uris": {"android": "https://dc.lft.to/lastmile_qr_scan", "ios": "https://dc.lft.to/lastmile_qr_scan"}, "lon": -77.0274065, "name": "18b245e51cbeb733161c6163da6f6f8d", "lat": 38.92765516666667, "is_reserved": 0, "fusion_lat": 0.0, "bike_id": "18b245e51cbeb733161c6163da6f6f8d", "type": "electric_scooter", "is_disabled": 0, "fusion_lon": 0.0}, {"rental_uris": {"android": "https://dc.lft.to/lastmile_qr_scan", "ios": "https://dc.lft.to/lastmile_qr_scan"}, "lon": -76.93340083333334, "name": "3f8135dd6efb0e0a090cf8f5febff18e", "lat": 38.90867216666667, "is_reserved": 0, "fusion_lat": 0.0, "bike_id": "3f8135dd6efb0e0a090cf8f5febff18e", "type": "electric_scooter", "is_disabled": 0, "fusion_lon": 0.0}, {"rental_uris": {"android": "https://dc.lft.to/lastmile_qr_scan", "ios": "https://dc.lft.to/lastmile_qr_scan"}, "lon": -76.99633983333334, "name": "6d7f42ac146eed090e542cd37905c32e", "lat": 38.905294833333336, "is_reserved": 0, "fusion_lat": 0.0, "bike_id": "6d7f42ac146eed090e542cd37905c32e", "type": "electric_scooter", "is_disabled": 0, "fusion_lon": 0.0}, {"rental_uris": {"android": "https://dc.lft.to/lastmile_qr_scan", "ios": "https://dc.lft.to/lastmile_qr_scan"}, "lon": -77.01911883333334, "name": "b585473fb9ab796ec38a8fa78b1b0e4e", "lat": 38.937697666666665, "is_reserved": 0, "fusion_lat": 0.0, "bike_id": "b585473fb9ab796ec38a8fa78b1b0e4e", "type": "electric_bike", "is_disabled": 0, "fusion_lon": 0.0}, {"rental_uris": {"android": "https://dc.lft.to/lastmile_qr_scan", "ios": "https://dc.lft.to/lastmile_qr_scan"}, "lon": -77.044454, "name": "920488e7ad25f005229193fa99552f25", "lat": 38.902631166666666, "is_reserved": 0, "fusion_lat": 0.0, "bike_id": "920488e7ad25f005229193fa99552f25", "type": "electric_scooter", "is_disabled": 0, "fusion_lon": 0.0}, {"rental_uris": {"android": "https://dc.lft.to/lastmile_qr_scan", "ios": "https://dc.lft.to/lastmile_qr_scan"}, "lon": -77.03210316666667, "name": "79a77c4f93ae3eb6f39c48d4ecc5d7eb", "lat": 38.92127266666667, "is_reserved": 0, "fusion_lat": 0.0, "bike_id": "79a77c4f93ae3eb6f39c48d4ecc5d7eb", "type": "electric_scooter", "is_disabled": 0, "fusion_lon": 0.0}, {"rental_uris": {"android": "https://dc.lft.to/lastmile_qr_scan", "ios": "https://dc.lft.to/lastmile_qr_scan"}, "lon": -76.99129716666667, "name": "11d7fac4e832b2344f916fae267e9a48", "lat": 38.84640483333333, "is_reserved": 0, "fusion_lat": 0.0, "bike_id": "11d7fac4e832b2344f916fae267e9a48", "type": "electric_scooter", "is_disabled": 0, "fusion_lon": 0.0}, {"rental_uris": {"android": "https://dc.lft.to/lastmile_qr_scan", "ios": "https://dc.lft.to/lastmile_qr_scan"}, "lon": -76.99512366666667, "name": "752982b5fa7ad7acdb893052a141a739", "lat": 38.82176316666666, "is_reserved": 0, "fusion_lat": 0.0, "bike_id": "752982b5fa7ad7acdb893052a141a739", "type": "electric_bike", "is_disabled": 0, "fusion_lon": 0.0}, {"rental_uris": {"android": "https://dc.lft.to/lastmile_qr_scan", "ios": "https://dc.lft.to/lastmile_qr_scan"}, "lon": -77.009304, "name": "d86ac06c8fe93752643c11d6482201d6", "lat": 38.907458166666665, "is_reserved": 0, "fusion_lat": 0.0, "bike_id": "d86ac06c8fe93752643c11d6482201d6", "type": "electric_scooter", "is_disabled": 0, "fusion_lon": 0.0}, {"rental_uris": {"android": "https://dc.lft.to/lastmile_qr_scan", "ios": "https://dc.lft.to/lastmile_qr_scan"}, "lon": -77.1078935, "name": "b74611f1652bd3d14c3ba582b8cdf161", "lat": 38.85248583333333, "is_reserved": 0, "fusion_lat": 0.0, "bike_id": "b74611f1652bd3d14c3ba582b8cdf161", "type": "electric_bike", "is_disabled": 0, "fusion_lon": 0.0}, {"rental_uris": {"android": "https://dc.lft.to/lastmile_qr_scan", "ios": "https://dc.lft.to/lastmile_qr_scan"}, "lon": -77.0369365, "name": "0c37d0b6ace34c6262c52d8c94b94194", "lat": 38.918092666666666, "is_reserved": 0, "fusion_lat": 0.0, "bike_id": "0c37d0b6ace34c6262c52d8c94b94194", "type": "electric_scooter", "is_disabled": 0, "fusion_lon": 0.0}, {"rental_uris": {"android": "https://dc.lft.to/lastmile_qr_scan", "ios": "https://dc.lft.to/lastmile_qr_scan"}, "lon": -77.0208625, "name": "38c9c7c048aff735fa54aa251a9b8ba9", "lat": 38.92164833333333, "is_reserved": 0, "fusion_lat": 0.0, "bike_id": "38c9c7c048aff735fa54aa251a9b8ba9", "type": "electric_scooter", "is_disabled": 0, "fusion_lon": 0.0}, {"rental_uris": {"android": "https://dc.lft.to/lastmile_qr_scan", "ios": "https://dc.lft.to/lastmile_qr_scan"}, "lon": -76.99733333333333, "name": "6944d170ba30c5bd2d2f19c441d74af9", "lat": 38.89942583333333, "is_reserved": 0, "fusion_lat": 0.0, "bike_id": "6944d170ba30c5bd2d2f19c441d74af9", "type": "electric_scooter", "is_disabled": 0, "fusion_lon": 0.0}, {"rental_uris": {"android": "https://dc.lft.to/lastmile_qr_scan", "ios": "https://dc.lft.to/lastmile_qr_scan"}, "lon": -77.0815355, "name": "eaa16eba5e3f42c6bedc4f810fcbda64", "lat": 38.9348395, "is_reserved": 0, "fusion_lat": 0.0, "bike_id": "eaa16eba5e3f42c6bedc4f810fcbda64", "type": "electric_scooter", "is_disabled": 0, "fusion_lon": 0.0}, {"rental_uris": {"android": "https://dc.lft.to/lastmile_qr_scan", "ios": "https://dc.lft.to/lastmile_qr_scan"}, "lon": -77.02520033333333, "name": "c39d344047402b45917d4424e325f31e", "lat": 38.92486983333333, "is_reserved": 0, "fusion_lat": 0.0, "bike_id": "c39d344047402b45917d4424e325f31e", "type": "electric_scooter", "is_disabled": 0, "fusion_lon": 0.0}, {"rental_uris": {"android": "https://dc.lft.to/lastmile_qr_scan", "ios": "https://dc.lft.to/lastmile_qr_scan"}, "lon": -76.985447, "name": "e4af1e4b53b36f5524f917a4bfb80700", "lat": 38.86689483333333, "is_reserved": 0, "fusion_lat": 0.0, "bike_id": "e4af1e4b53b36f5524f917a4bfb80700", "type": "electric_scooter", "is_disabled": 0, "fusion_lon": 0.0}, {"rental_uris": {"android": "https://dc.lft.to/lastmile_qr_scan", "ios": "https://dc.lft.to/lastmile_qr_scan"}, "lon": -77.02372966666667, "name": "1f8b9196938d719bed90cff97c08d950", "lat": 38.91975766666667, "is_reserved": 0, "fusion_lat": 0.0, "bike_id": "1f8b9196938d719bed90cff97c08d950", "type": "electric_scooter", "is_disabled": 0, "fusion_lon": 0.0}, {"rental_uris": {"android": "https://dc.lft.to/lastmile_qr_scan", "ios": "https://dc.lft.to/lastmile_qr_scan"}, "lon": -76.946354, "name": "1be0489c1699481a508ff5faac9c100d", "lat": 38.898316333333334, "is_reserved": 0, "fusion_lat": 0.0, "bike_id": "1be0489c1699481a508ff5faac9c100d", "type": "electric_scooter", "is_disabled": 0, "fusion_lon": 0.0}, {"rental_uris": {"android": "https://dc.lft.to/lastmile_qr_scan", "ios": "https://dc.lft.to/lastmile_qr_scan"}, "lon": -77.02558483333334, "name": "2f493d7634aae0648a8db97fb7105ea4", "lat": 38.941662666666666, "is_reserved": 0, "fusion_lat": 0.0, "bike_id": "2f493d7634aae0648a8db97fb7105ea4", "type": "electric_scooter", "is_disabled": 0, "fusion_lon": 0.0}, {"rental_uris": {"android": "https://dc.lft.to/lastmile_qr_scan", "ios": "https://dc.lft.to/lastmile_qr_scan"}, "lon": -77.02629683333333, "name": "10c6515fd9f9628ac698e2efc2b60ebb", "lat": 38.881057166666665, "is_reserved": 0, "fusion_lat": 0.0, "bike_id": "10c6515fd9f9628ac698e2efc2b60ebb", "type": "electric_scooter", "is_disabled": 0, "fusion_lon": 0.0}, {"rental_uris": {"android": "https://dc.lft.to/lastmile_qr_scan", "ios": "https://dc.lft.to/lastmile_qr_scan"}, "lon": -77.024976, "name": "97ff37017a5bc0c1b0596a679468d5bd", "lat": 38.90718716666667, "is_reserved": 0, "fusion_lat": 0.0, "bike_id": "97ff37017a5bc0c1b0596a679468d5bd", "type": "electric_scooter", "is_disabled": 0, "fusion_lon": 0.0}, {"rental_uris": {"android": "https://dc.lft.to/lastmile_qr_scan", "ios": "https://dc.lft.to/lastmile_qr_scan"}, "lon": -77.0165265, "name": "8fcf42ebf008c86c7fe9077a1b2cb996", "lat": 38.881199, "is_reserved": 0, "fusion_lat": 0.0, "bike_id": "8fcf42ebf008c86c7fe9077a1b2cb996", "type": "electric_scooter", "is_disabled": 0, "fusion_lon": 0.0}, {"rental_uris": {"android": "https://dc.lft.to/lastmile_qr_scan", "ios": "https://dc.lft.to/lastmile_qr_scan"}, "lon": -77.02693416666666, "name": "265256d33cb38633407b7e415671cc0b", "lat": 38.9095065, "is_reserved": 0, "fusion_lat": 0.0, "bike_id": "265256d33cb38633407b7e415671cc0b", "type": "electric_scooter", "is_disabled": 0, "fusion_lon": 0.0}, {"rental_uris": {"android": "https://dc.lft.to/lastmile_qr_scan", "ios": "https://dc.lft.to/lastmile_qr_scan"}, "lon": -77.031337, "name": "a3734f9e0fedeb58cf0285072107a68a", "lat": 38.92969333333333, "is_reserved": 0, "fusion_lat": 0.0, "bike_id": "a3734f9e0fedeb58cf0285072107a68a", "type": "electric_scooter", "is_disabled": 0, "fusion_lon": 0.0}, {"rental_uris": {"android": "https://dc.lft.to/lastmile_qr_scan", "ios": "https://dc.lft.to/lastmile_qr_scan"}, "lon": -77.0309165, "name": "4603f1f70f9ba26ca92c94478ae1f6fb", "lat": 38.935404166666665, "is_reserved": 0, "fusion_lat": 0.0, "bike_id": "4603f1f70f9ba26ca92c94478ae1f6fb", "type": "electric_scooter", "is_disabled": 0, "fusion_lon": 0.0}, {"rental_uris": {"android": "https://dc.lft.to/lastmile_qr_scan", "ios": "https://dc.lft.to/lastmile_qr_scan"}, "lon": -76.99762066666666, "name": "5538e6a0ac82fc5d2c509dd422d7461b", "lat": 38.909044333333334, "is_reserved": 0, "fusion_lat": 0.0, "bike_id": "5538e6a0ac82fc5d2c509dd422d7461b", "type": "electric_scooter", "is_disabled": 0, "fusion_lon": 0.0}, {"rental_uris": {"android": "https://dc.lft.to/lastmile_qr_scan", "ios": "https://dc.lft.to/lastmile_qr_scan"}, "lon": -77.00209766666667, "name": "240e6415b0bd358ca8d8e976f74039d3", "lat": 38.900241333333334, "is_reserved": 0, "fusion_lat": 0.0, "bike_id": "240e6415b0bd358ca8d8e976f74039d3", "type": "electric_scooter", "is_disabled": 0, "fusion_lon": 0.0}, {"rental_uris": {"android": "https://dc.lft.to/lastmile_qr_scan", "ios": "https://dc.lft.to/lastmile_qr_scan"}, "lon": -77.0385115, "name": "24ff5036d204124722d6f604a7d1277f", "lat": 38.926535, "is_reserved": 0, "fusion_lat": 0.0, "bike_id": "24ff5036d204124722d6f604a7d1277f", "type": "electric_scooter", "is_disabled": 0, "fusion_lon": 0.0}, {"rental_uris": {"android": "https://dc.lft.to/lastmile_qr_scan", "ios": "https://dc.lft.to/lastmile_qr_scan"}, "lon": -76.99555066666667, "name": "b3801d8dea5d98138f6f2db551e49d02", "lat": 38.9002745, "is_reserved": 0, "fusion_lat": 0.0, "bike_id": "b3801d8dea5d98138f6f2db551e49d02", "type": "electric_scooter", "is_disabled": 0, "fusion_lon": 0.0}, {"rental_uris": {"android": "https://dc.lft.to/lastmile_qr_scan", "ios": "https://dc.lft.to/lastmile_qr_scan"}, "lon": -76.9836165, "name": "769be3125bc19db5e678f92ccb2b8ca9", "lat": 38.89437083333333, "is_reserved": 0, "fusion_lat": 0.0, "bike_id": "769be3125bc19db5e678f92ccb2b8ca9", "type": "electric_scooter", "is_disabled": 0, "fusion_lon": 0.0}, {"rental_uris": {"android": "https://dc.lft.to/lastmile_qr_scan", "ios": "https://dc.lft.to/lastmile_qr_scan"}, "lon": -77.03844216666667, "name": "49cc3eac1733d342fd295cec89281cf2", "lat": 38.91208366666667, "is_reserved": 0, "fusion_lat": 0.0, "bike_id": "49cc3eac1733d342fd295cec89281cf2", "type": "electric_scooter", "is_disabled": 0, "fusion_lon": 0.0}, {"rental_uris": {"android": "https://dc.lft.to/lastmile_qr_scan", "ios": "https://dc.lft.to/lastmile_qr_scan"}, "lon": -77.019612, "name": "4eba3d7b2d1ee5e2678543960639e2ff", "lat": 38.8925205, "is_reserved": 0, "fusion_lat": 0.0, "bike_id": "4eba3d7b2d1ee5e2678543960639e2ff", "type": "electric_scooter", "is_disabled": 0, "fusion_lon": 0.0}, {"rental_uris": {"android": "https://dc.lft.to/lastmile_qr_scan", "ios": "https://dc.lft.to/lastmile_qr_scan"}, "lon": -77.02423083333333, "name": "1271b44efc7c51cb80729f49528f67a3", "lat": 38.926624333333336, "is_reserved": 0, "fusion_lat": 0.0, "bike_id": "1271b44efc7c51cb80729f49528f67a3", "type": "electric_scooter", "is_disabled": 0, "fusion_lon": 0.0}, {"rental_uris": {"android": "https://dc.lft.to/lastmile_qr_scan", "ios": "https://dc.lft.to/lastmile_qr_scan"}, "lon": -77.00009983333334, "name": "043530e449ddab6d2d1688eb3bf050d3", "lat": 38.9024375, "is_reserved": 0, "fusion_lat": 0.0, "bike_id": "043530e449ddab6d2d1688eb3bf050d3", "type": "electric_scooter", "is_disabled": 0, "fusion_lon": 0.0}, {"rental_uris": {"android": "https://dc.lft.to/lastmile_qr_scan", "ios": "https://dc.lft.to/lastmile_qr_scan"}, "lon": -77.02376883333334, "name": "6009baf2b59637b21e465f39b8d593d5", "lat": 38.9073355, "is_reserved": 0, "fusion_lat": 0.0, "bike_id": "6009baf2b59637b21e465f39b8d593d5", "type": "electric_scooter", "is_disabled": 0, "fusion_lon": 0.0}, {"rental_uris": {"android": "https://dc.lft.to/lastmile_qr_scan", "ios": "https://dc.lft.to/lastmile_qr_scan"}, "lon": -77.0266735, "name": "cdc8aae3808b3d8bb38d76ad5280b3ac", "lat": 38.894888333333334, "is_reserved": 0, "fusion_lat": 0.0, "bike_id": "cdc8aae3808b3d8bb38d76ad5280b3ac", "type": "electric_scooter", "is_disabled": 0, "fusion_lon": 0.0}, {"rental_uris": {"android": "https://dc.lft.to/lastmile_qr_scan", "ios": "https://dc.lft.to/lastmile_qr_scan"}, "lon": -77.02267016666667, "name": "be6ef4a8ef2fc0c1731ba02fa306fab1", "lat": 38.908598, "is_reserved": 0, "fusion_lat": 0.0, "bike_id": "be6ef4a8ef2fc0c1731ba02fa306fab1", "type": "electric_scooter", "is_disabled": 0, "fusion_lon": 0.0}, {"rental_uris": {"android": "https://dc.lft.to/lastmile_qr_scan", "ios": "https://dc.lft.to/lastmile_qr_scan"}, "lon": -76.98448966666666, "name": "b47ed48724543d2c6439f282c4bed20a", "lat": 38.85525533333333, "is_reserved": 0, "fusion_lat": 0.0, "bike_id": "b47ed48724543d2c6439f282c4bed20a", "type": "electric_bike", "is_disabled": 0, "fusion_lon": 0.0}, {"rental_uris": {"android": "https://dc.lft.to/lastmile_qr_scan", "ios": "https://dc.lft.to/lastmile_qr_scan"}, "lon": -77.004571, "name": "a7a82a07e987c999ce8591b94e9e696e", "lat": 38.91241683333333, "is_reserved": 0, "fusion_lat": 0.0, "bike_id": "a7a82a07e987c999ce8591b94e9e696e", "type": "electric_scooter", "is_disabled": 0, "fusion_lon": 0.0}, {"rental_uris": {"android": "https://dc.lft.to/lastmile_qr_scan", "ios": "https://dc.lft.to/lastmile_qr_scan"}, "lon": -77.04744466666666, "name": "413abd037f44318d19d6862c042a61e4", "lat": 38.89731033333333, "is_reserved": 0, "fusion_lat": 0.0, "bike_id": "413abd037f44318d19d6862c042a61e4", "type": "electric_scooter", "is_disabled": 0, "fusion_lon": 0.0}, {"rental_uris": {"android": "https://dc.lft.to/lastmile_qr_scan", "ios": "https://dc.lft.to/lastmile_qr_scan"}, "lon": -77.0330495, "name": "0e8765e75f585b5b9774ebcd9d5adf82", "lat": 38.92454383333333, "is_reserved": 0, "fusion_lat": 0.0, "bike_id": "0e8765e75f585b5b9774ebcd9d5adf82", "type": "electric_scooter", "is_disabled": 0, "fusion_lon": 0.0}, {"rental_uris": {"android": "https://dc.lft.to/lastmile_qr_scan", "ios": "https://dc.lft.to/lastmile_qr_scan"}, "lon": -76.98020983333333, "name": "402f1f6fa0cd50ed018a42e6896e0848", "lat": 38.90124766666667, "is_reserved": 0, "fusion_lat": 0.0, "bike_id": "402f1f6fa0cd50ed018a42e6896e0848", "type": "electric_scooter", "is_disabled": 0, "fusion_lon": 0.0}, {"rental_uris": {"android": "https://dc.lft.to/lastmile_qr_scan", "ios": "https://dc.lft.to/lastmile_qr_scan"}, "lon": -77.04227866666666, "name": "90b121541ccf03ca86695d0eeaa27cf8", "lat": 38.91105066666667, "is_reserved": 0, "fusion_lat": 0.0, "bike_id": "90b121541ccf03ca86695d0eeaa27cf8", "type": "electric_scooter", "is_disabled": 0, "fusion_lon": 0.0}, {"rental_uris": {"android": "https://dc.lft.to/lastmile_qr_scan", "ios": "https://dc.lft.to/lastmile_qr_scan"}, "lon": -77.01170316666666, "name": "a885a0227dd7c75dba771f3bcbdbf2f7", "lat": 38.913376166666666, "is_reserved": 0, "fusion_lat": 0.0, "bike_id": "a885a0227dd7c75dba771f3bcbdbf2f7", "type": "electric_scooter", "is_disabled": 0, "fusion_lon": 0.0}, {"rental_uris": {"android": "https://dc.lft.to/lastmile_qr_scan", "ios": "https://dc.lft.to/lastmile_qr_scan"}, "lon": -77.03796033333333, "name": "6ce4a8f6f1bbd4dc2b27ace4204e3489", "lat": 38.9967945, "is_reserved": 0, "fusion_lat": 0.0, "bike_id": "6ce4a8f6f1bbd4dc2b27ace4204e3489", "type": "electric_bike", "is_disabled": 0, "fusion_lon": 0.0}, {"rental_uris": {"android": "https://dc.lft.to/lastmile_qr_scan", "ios": "https://dc.lft.to/lastmile_qr_scan"}, "lon": -77.02358916666667, "name": "d21c84495d709440f4dc49694bc57a34", "lat": 38.925169, "is_reserved": 0, "fusion_lat": 0.0, "bike_id": "d21c84495d709440f4dc49694bc57a34", "type": "electric_scooter", "is_disabled": 0, "fusion_lon": 0.0}, {"rental_uris": {"android": "https://dc.lft.to/lastmile_qr_scan", "ios": "https://dc.lft.to/lastmile_qr_scan"}, "lon": -77.04197483333333, "name": "0b0bd582a3d6b6859fb975f99bf1df2c", "lat": 38.8922115, "is_reserved": 0, "fusion_lat": 0.0, "bike_id": "0b0bd582a3d6b6859fb975f99bf1df2c", "type": "electric_scooter", "is_disabled": 0, "fusion_lon": 0.0}, {"rental_uris": {"android": "https://dc.lft.to/lastmile_qr_scan", "ios": "https://dc.lft.to/lastmile_qr_scan"}, "lon": -77.045018, "name": "18d0e019b71f2f11cbbfc70e65562ff0", "lat": 38.91110116666667, "is_reserved": 0, "fusion_lat": 0.0, "bike_id": "18d0e019b71f2f11cbbfc70e65562ff0", "type": "electric_scooter", "is_disabled": 0, "fusion_lon": 0.0}, {"rental_uris": {"android": "https://dc.lft.to/lastmile_qr_scan", "ios": "https://dc.lft.to/lastmile_qr_scan"}, "lon": -77.02985583333333, "name": "13d4482b3a5f38f5c6438b5bf48096c6", "lat": 38.907409333333334, "is_reserved": 0, "fusion_lat": 0.0, "bike_id": "13d4482b3a5f38f5c6438b5bf48096c6", "type": "electric_scooter", "is_disabled": 0, "fusion_lon": 0.0}, {"rental_uris": {"android": "https://dc.lft.to/lastmile_qr_scan", "ios": "https://dc.lft.to/lastmile_qr_scan"}, "lon": -77.03056116666667, "name": "6f1849a0bda302f13c94af237e60c4df", "lat": 38.90255533333333, "is_reserved": 0, "fusion_lat": 0.0, "bike_id": "6f1849a0bda302f13c94af237e60c4df", "type": "electric_scooter", "is_disabled": 0, "fusion_lon": 0.0}, {"rental_uris": {"android": "https://dc.lft.to/lastmile_qr_scan", "ios": "https://dc.lft.to/lastmile_qr_scan"}, "lon": -77.026825, "name": "b2421ec9f838fa045fc896ef6d16a0dd", "lat": 38.897500666666666, "is_reserved": 0, "fusion_lat": 0.0, "bike_id": "b2421ec9f838fa045fc896ef6d16a0dd", "type": "electric_scooter", "is_disabled": 0, "fusion_lon": 0.0}, {"rental_uris": {"android": "https://dc.lft.to/lastmile_qr_scan", "ios": "https://dc.lft.to/lastmile_qr_scan"}, "lon": -77.01393916666666, "name": "00647d4af00ab10a0d21ab47a216ac40", "lat": 38.9423185, "is_reserved": 0, "fusion_lat": 0.0, "bike_id": "00647d4af00ab10a0d21ab47a216ac40", "type": "electric_scooter", "is_disabled": 0, "fusion_lon": 0.0}, {"rental_uris": {"android": "https://dc.lft.to/lastmile_qr_scan", "ios": "https://dc.lft.to/lastmile_qr_scan"}, "lon": -76.96372766666667, "name": "f10ddf284774788f5fcf3c3f3a671285", "lat": 38.94901183333333, "is_reserved": 0, "fusion_lat": 0.0, "bike_id": "f10ddf284774788f5fcf3c3f3a671285", "type": "electric_bike", "is_disabled": 0, "fusion_lon": 0.0}, {"rental_uris": {"android": "https://dc.lft.to/lastmile_qr_scan", "ios": "https://dc.lft.to/lastmile_qr_scan"}, "lon": -76.9543215, "name": "200c8a2c68f71cf508542dd1d8379bff", "lat": 38.88987266666667, "is_reserved": 0, "fusion_lat": 0.0, "bike_id": "200c8a2c68f71cf508542dd1d8379bff", "type": "electric_scooter", "is_disabled": 0, "fusion_lon": 0.0}, {"rental_uris": {"android": "https://dc.lft.to/lastmile_qr_scan", "ios": "https://dc.lft.to/lastmile_qr_scan"}, "lon": -77.01066016666667, "name": "d79100522823a0bc08ac7a51f504966d", "lat": 38.9202505, "is_reserved": 0, "fusion_lat": 0.0, "bike_id": "d79100522823a0bc08ac7a51f504966d", "type": "electric_scooter", "is_disabled": 0, "fusion_lon": 0.0}, {"rental_uris": {"android": "https://dc.lft.to/lastmile_qr_scan", "ios": "https://dc.lft.to/lastmile_qr_scan"}, "lon": -77.04673833333334, "name": "fa7fef37f74aba859ce7181a98127475", "lat": 38.8956015, "is_reserved": 0, "fusion_lat": 0.0, "bike_id": "fa7fef37f74aba859ce7181a98127475", "type": "electric_scooter", "is_disabled": 0, "fusion_lon": 0.0}, {"rental_uris": {"android": "https://dc.lft.to/lastmile_qr_scan", "ios": "https://dc.lft.to/lastmile_qr_scan"}, "lon": -77.04228416666666, "name": "cc1bc2e7e3b29ba88cc38f3d267c9586", "lat": 38.911074, "is_reserved": 0, "fusion_lat": 0.0, "bike_id": "cc1bc2e7e3b29ba88cc38f3d267c9586", "type": "electric_scooter", "is_disabled": 0, "fusion_lon": 0.0}, {"rental_uris": {"android": "https://dc.lft.to/lastmile_qr_scan", "ios": "https://dc.lft.to/lastmile_qr_scan"}, "lon": -77.02352766666667, "name": "6d322d105821124f2761b1f5267dfd13", "lat": 38.935327, "is_reserved": 0, "fusion_lat": 0.0, "bike_id": "6d322d105821124f2761b1f5267dfd13", "type": "electric_scooter", "is_disabled": 0, "fusion_lon": 0.0}, {"rental_uris": {"android": "https://dc.lft.to/lastmile_qr_scan", "ios": "https://dc.lft.to/lastmile_qr_scan"}, "lon": -77.034761, "name": "4995a50ab9d0505eefd5ea6e2451af28", "lat": 38.905615833333336, "is_reserved": 0, "fusion_lat": 0.0, "bike_id": "4995a50ab9d0505eefd5ea6e2451af28", "type": "electric_scooter", "is_disabled": 0, "fusion_lon": 0.0}, {"rental_uris": {"android": "https://dc.lft.to/lastmile_qr_scan", "ios": "https://dc.lft.to/lastmile_qr_scan"}, "lon": -77.02304316666667, "name": "d382b5c7446085eda8e3f4362ac26791", "lat": 38.926612, "is_reserved": 0, "fusion_lat": 0.0, "bike_id": "d382b5c7446085eda8e3f4362ac26791", "type": "electric_scooter", "is_disabled": 0, "fusion_lon": 0.0}, {"rental_uris": {"android": "https://dc.lft.to/lastmile_qr_scan", "ios": "https://dc.lft.to/lastmile_qr_scan"}, "lon": -77.04350266666667, "name": "98bfb5fe19a859719b8dddca334e29e9", "lat": 38.90395216666667, "is_reserved": 0, "fusion_lat": 0.0, "bike_id": "98bfb5fe19a859719b8dddca334e29e9", "type": "electric_scooter", "is_disabled": 0, "fusion_lon": 0.0}, {"rental_uris": {"android": "https://dc.lft.to/lastmile_qr_scan", "ios": "https://dc.lft.to/lastmile_qr_scan"}, "lon": -77.0418125, "name": "ac29a264c0ec53b57eb6a6f121d00638", "lat": 38.9060785, "is_reserved": 0, "fusion_lat": 0.0, "bike_id": "ac29a264c0ec53b57eb6a6f121d00638", "type": "electric_scooter", "is_disabled": 0, "fusion_lon": 0.0}, {"rental_uris": {"android": "https://dc.lft.to/lastmile_qr_scan", "ios": "https://dc.lft.to/lastmile_qr_scan"}, "lon": -77.03285866666667, "name": "051cea6ce42ca0ae0c90d6e1ec8841f8", "lat": 38.94055633333333, "is_reserved": 0, "fusion_lat": 0.0, "bike_id": "051cea6ce42ca0ae0c90d6e1ec8841f8", "type": "electric_scooter", "is_disabled": 0, "fusion_lon": 0.0}, {"rental_uris": {"android": "https://dc.lft.to/lastmile_qr_scan", "ios": "https://dc.lft.to/lastmile_qr_scan"}, "lon": -77.0246745, "name": "f3a2cd96cee87859e33ff11fba46cdeb", "lat": 38.92064516666667, "is_reserved": 0, "fusion_lat": 0.0, "bike_id": "f3a2cd96cee87859e33ff11fba46cdeb", "type": "electric_scooter", "is_disabled": 0, "fusion_lon": 0.0}, {"rental_uris": {"android": "https://dc.lft.to/lastmile_qr_scan", "ios": "https://dc.lft.to/lastmile_qr_scan"}, "lon": -76.946466, "name": "d0696791bd9fbe30f9d090eb7c45d94b", "lat": 38.89864516666667, "is_reserved": 0, "fusion_lat": 0.0, "bike_id": "d0696791bd9fbe30f9d090eb7c45d94b", "type": "electric_scooter", "is_disabled": 0, "fusion_lon": 0.0}, {"rental_uris": {"android": "https://dc.lft.to/lastmile_qr_scan", "ios": "https://dc.lft.to/lastmile_qr_scan"}, "lon": -77.03800883333334, "name": "d8962716595e803ed958237e1845cf02", "lat": 38.920710166666666, "is_reserved": 0, "fusion_lat": 0.0, "bike_id": "d8962716595e803ed958237e1845cf02", "type": "electric_scooter", "is_disabled": 0, "fusion_lon": 0.0}, {"rental_uris": {"android": "https://dc.lft.to/lastmile_qr_scan", "ios": "https://dc.lft.to/lastmile_qr_scan"}, "lon": -77.03704283333333, "name": "98a3ddd5ebcee950ae8261f358d3cbb7", "lat": 38.92773016666666, "is_reserved": 0, "fusion_lat": 0.0, "bike_id": "98a3ddd5ebcee950ae8261f358d3cbb7", "type": "electric_scooter", "is_disabled": 0, "fusion_lon": 0.0}, {"rental_uris": {"android": "https://dc.lft.to/lastmile_qr_scan", "ios": "https://dc.lft.to/lastmile_qr_scan"}, "lon": -77.0765795, "name": "8892b84143d06a1327505284f99bdda8", "lat": 38.935243, "is_reserved": 0, "fusion_lat": 0.0, "bike_id": "8892b84143d06a1327505284f99bdda8", "type": "electric_scooter", "is_disabled": 0, "fusion_lon": 0.0}, {"rental_uris": {"android": "https://dc.lft.to/lastmile_qr_scan", "ios": "https://dc.lft.to/lastmile_qr_scan"}, "lon": -77.030863, "name": "0283411e3f5581df788a887dd1292c7c", "lat": 38.926748833333335, "is_reserved": 0, "fusion_lat": 0.0, "bike_id": "0283411e3f5581df788a887dd1292c7c", "type": "electric_scooter", "is_disabled": 0, "fusion_lon": 0.0}, {"rental_uris": {"android": "https://dc.lft.to/lastmile_qr_scan", "ios": "https://dc.lft.to/lastmile_qr_scan"}, "lon": -77.03319716666667, "name": "2fd37e0653a3a69aa3b2e8dc24002b19", "lat": 38.913907, "is_reserved": 0, "fusion_lat": 0.0, "bike_id": "2fd37e0653a3a69aa3b2e8dc24002b19", "type": "electric_scooter", "is_disabled": 0, "fusion_lon": 0.0}, {"rental_uris": {"android": "https://dc.lft.to/lastmile_qr_scan", "ios": "https://dc.lft.to/lastmile_qr_scan"}, "lon": -76.93476466666667, "name": "8ca8214e9798565bd51b64cb90ac2ce3", "lat": 38.8950325, "is_reserved": 0, "fusion_lat": 0.0, "bike_id": "8ca8214e9798565bd51b64cb90ac2ce3", "type": "electric_scooter", "is_disabled": 0, "fusion_lon": 0.0}, {"rental_uris": {"android": "https://dc.lft.to/lastmile_qr_scan", "ios": "https://dc.lft.to/lastmile_qr_scan"}, "lon": -76.98091833333334, "name": "3e41e93b45b0f96bfdf4b54e71ce9a3c", "lat": 38.95353766666667, "is_reserved": 0, "fusion_lat": 0.0, "bike_id": "3e41e93b45b0f96bfdf4b54e71ce9a3c", "type": "electric_bike", "is_disabled": 0, "fusion_lon": 0.0}, {"rental_uris": {"android": "https://dc.lft.to/lastmile_qr_scan", "ios": "https://dc.lft.to/lastmile_qr_scan"}, "lon": -77.031872, "name": "45de39bbff16e30ce90774450baa6f9a", "lat": 38.9072435, "is_reserved": 0, "fusion_lat": 0.0, "bike_id": "45de39bbff16e30ce90774450baa6f9a", "type": "electric_scooter", "is_disabled": 0, "fusion_lon": 0.0}, {"rental_uris": {"android": "https://dc.lft.to/lastmile_qr_scan", "ios": "https://dc.lft.to/lastmile_qr_scan"}, "lon": -77.0256265, "name": "f3ceff46440e67103a0f74f7e696a4bf", "lat": 38.90307033333333, "is_reserved": 0, "fusion_lat": 0.0, "bike_id": "f3ceff46440e67103a0f74f7e696a4bf", "type": "electric_scooter", "is_disabled": 0, "fusion_lon": 0.0}, {"rental_uris": {"android": "https://dc.lft.to/lastmile_qr_scan", "ios": "https://dc.lft.to/lastmile_qr_scan"}, "lon": -77.01842283333333, "name": "a89e5e90d9d54e9fe87a7727d6085497", "lat": 38.91534383333333, "is_reserved": 0, "fusion_lat": 0.0, "bike_id": "a89e5e90d9d54e9fe87a7727d6085497", "type": "electric_scooter", "is_disabled": 0, "fusion_lon": 0.0}, {"rental_uris": {"android": "https://dc.lft.to/lastmile_qr_scan", "ios": "https://dc.lft.to/lastmile_qr_scan"}, "lon": -77.0388425, "name": "a3db91d56156447cc681d9a1e5fc2d25", "lat": 38.918487166666665, "is_reserved": 0, "fusion_lat": 0.0, "bike_id": "a3db91d56156447cc681d9a1e5fc2d25", "type": "electric_scooter", "is_disabled": 0, "fusion_lon": 0.0}, {"rental_uris": {"android": "https://dc.lft.to/lastmile_qr_scan", "ios": "https://dc.lft.to/lastmile_qr_scan"}, "lon": -76.99857033333333, "name": "f15612292b5f83329832c1489b254046", "lat": 38.9003785, "is_reserved": 0, "fusion_lat": 0.0, "bike_id": "f15612292b5f83329832c1489b254046", "type": "electric_scooter", "is_disabled": 0, "fusion_lon": 0.0}, {"rental_uris": {"android": "https://dc.lft.to/lastmile_qr_scan", "ios": "https://dc.lft.to/lastmile_qr_scan"}, "lon": -77.03638316666667, "name": "3a797acb5cecf2258c50ee46f2e16890", "lat": 38.92812633333333, "is_reserved": 0, "fusion_lat": 0.0, "bike_id": "3a797acb5cecf2258c50ee46f2e16890", "type": "electric_scooter", "is_disabled": 0, "fusion_lon": 0.0}, {"rental_uris": {"android": "https://dc.lft.to/lastmile_qr_scan", "ios": "https://dc.lft.to/lastmile_qr_scan"}, "lon": -77.00596666666667, "name": "3248ff58343f17ccec1e997263b58dbf", "lat": 38.9077295, "is_reserved": 0, "fusion_lat": 0.0, "bike_id": "3248ff58343f17ccec1e997263b58dbf", "type": "electric_scooter", "is_disabled": 0, "fusion_lon": 0.0}, {"rental_uris": {"android": "https://dc.lft.to/lastmile_qr_scan", "ios": "https://dc.lft.to/lastmile_qr_scan"}, "lon": -77.05648666666667, "name": "0432f787d1900effdcacd0ef80ff9fee", "lat": 38.9233335, "is_reserved": 0, "fusion_lat": 0.0, "bike_id": "0432f787d1900effdcacd0ef80ff9fee", "type": "electric_scooter", "is_disabled": 0, "fusion_lon": 0.0}, {"rental_uris": {"android": "https://dc.lft.to/lastmile_qr_scan", "ios": "https://dc.lft.to/lastmile_qr_scan"}, "lon": -77.0386215, "name": "41a64b23efc8bb0f02b78d40997f494a", "lat": 38.901506, "is_reserved": 0, "fusion_lat": 0.0, "bike_id": "41a64b23efc8bb0f02b78d40997f494a", "type": "electric_scooter", "is_disabled": 0, "fusion_lon": 0.0}, {"rental_uris": {"android": "https://dc.lft.to/lastmile_qr_scan", "ios": "https://dc.lft.to/lastmile_qr_scan"}, "lon": -77.04155416666667, "name": "ed632ccf1c4deea8eff306a2b27c129d", "lat": 38.91598533333333, "is_reserved": 0, "fusion_lat": 0.0, "bike_id": "ed632ccf1c4deea8eff306a2b27c129d", "type": "electric_bike", "is_disabled": 0, "fusion_lon": 0.0}, {"rental_uris": {"android": "https://dc.lft.to/lastmile_qr_scan", "ios": "https://dc.lft.to/lastmile_qr_scan"}, "lon": -76.939312, "name": "8d3a7632c3d8c36813a125308b6a2f0d", "lat": 38.89330783333333, "is_reserved": 0, "fusion_lat": 0.0, "bike_id": "8d3a7632c3d8c36813a125308b6a2f0d", "type": "electric_scooter", "is_disabled": 0, "fusion_lon": 0.0}, {"rental_uris": {"android": "https://dc.lft.to/lastmile_qr_scan", "ios": "https://dc.lft.to/lastmile_qr_scan"}, "lon": -77.038676, "name": "df48659f69828288a8e331d7b195dfc1", "lat": 38.91712, "is_reserved": 0, "fusion_lat": 0.0, "bike_id": "df48659f69828288a8e331d7b195dfc1", "type": "electric_scooter", "is_disabled": 0, "fusion_lon": 0.0}, {"rental_uris": {"android": "https://dc.lft.to/lastmile_qr_scan", "ios": "https://dc.lft.to/lastmile_qr_scan"}, "lon": -77.0453615, "name": "3c518baf473ee6a9629c93dd526fedd2", "lat": 38.9346285, "is_reserved": 0, "fusion_lat": 0.0, "bike_id": "3c518baf473ee6a9629c93dd526fedd2", "type": "electric_scooter", "is_disabled": 0, "fusion_lon": 0.0}, {"rental_uris": {"android": "https://dc.lft.to/lastmile_qr_scan", "ios": "https://dc.lft.to/lastmile_qr_scan"}, "lon": -77.027211, "name": "534c7472feaf8321a57641a2fbe22ceb", "lat": 38.92571933333333, "is_reserved": 0, "fusion_lat": 0.0, "bike_id": "534c7472feaf8321a57641a2fbe22ceb", "type": "electric_scooter", "is_disabled": 0, "fusion_lon": 0.0}, {"rental_uris": {"android": "https://dc.lft.to/lastmile_qr_scan", "ios": "https://dc.lft.to/lastmile_qr_scan"}, "lon": -77.0326105, "name": "2e09b8069750ffae4e739c860ecb6430", "lat": 38.92783416666666, "is_reserved": 0, "fusion_lat": 0.0, "bike_id": "2e09b8069750ffae4e739c860ecb6430", "type": "electric_bike", "is_disabled": 0, "fusion_lon": 0.0}, {"rental_uris": {"android": "https://dc.lft.to/lastmile_qr_scan", "ios": "https://dc.lft.to/lastmile_qr_scan"}, "lon": -76.9997045, "name": "6b0251e16486d0723ce855e545d5db3c", "lat": 38.90846533333333, "is_reserved": 0, "fusion_lat": 0.0, "bike_id": "6b0251e16486d0723ce855e545d5db3c", "type": "electric_scooter", "is_disabled": 0, "fusion_lon": 0.0}, {"rental_uris": {"android": "https://dc.lft.to/lastmile_qr_scan", "ios": "https://dc.lft.to/lastmile_qr_scan"}, "lon": -77.01112333333333, "name": "a31a32981a1eac367cfbe95802ba2e31", "lat": 38.907265, "is_reserved": 0, "fusion_lat": 0.0, "bike_id": "a31a32981a1eac367cfbe95802ba2e31", "type": "electric_scooter", "is_disabled": 0, "fusion_lon": 0.0}, {"rental_uris": {"android": "https://dc.lft.to/lastmile_qr_scan", "ios": "https://dc.lft.to/lastmile_qr_scan"}, "lon": -77.044529, "name": "b2377f3cecf6fb48a6bd6f8cea959f99", "lat": 38.90255966666667, "is_reserved": 0, "fusion_lat": 0.0, "bike_id": "b2377f3cecf6fb48a6bd6f8cea959f99", "type": "electric_scooter", "is_disabled": 0, "fusion_lon": 0.0}, {"rental_uris": {"android": "https://dc.lft.to/lastmile_qr_scan", "ios": "https://dc.lft.to/lastmile_qr_scan"}, "lon": -77.03157816666666, "name": "22947715a852a8498a71f07e8419057c", "lat": 38.89538833333334, "is_reserved": 0, "fusion_lat": 0.0, "bike_id": "22947715a852a8498a71f07e8419057c", "type": "electric_scooter", "is_disabled": 0, "fusion_lon": 0.0}, {"rental_uris": {"android": "https://dc.lft.to/lastmile_qr_scan", "ios": "https://dc.lft.to/lastmile_qr_scan"}, "lon": -76.978568, "name": "09c05f8efa4651da801910fe78ad24e7", "lat": 38.8446685, "is_reserved": 0, "fusion_lat": 0.0, "bike_id": "09c05f8efa4651da801910fe78ad24e7", "type": "electric_bike", "is_disabled": 0, "fusion_lon": 0.0}, {"rental_uris": {"android": "https://dc.lft.to/lastmile_qr_scan", "ios": "https://dc.lft.to/lastmile_qr_scan"}, "lon": -76.96679133333333, "name": "25406505ab4a9709657f42f4a18f3f8d", "lat": 38.85597333333333, "is_reserved": 0, "fusion_lat": 0.0, "bike_id": "25406505ab4a9709657f42f4a18f3f8d", "type": "electric_scooter", "is_disabled": 0, "fusion_lon": 0.0}, {"rental_uris": {"android": "https://dc.lft.to/lastmile_qr_scan", "ios": "https://dc.lft.to/lastmile_qr_scan"}, "lon": -77.01762983333333, "name": "b074ee346bf23f96d12bade2687e491b", "lat": 38.90266166666667, "is_reserved": 0, "fusion_lat": 0.0, "bike_id": "b074ee346bf23f96d12bade2687e491b", "type": "electric_scooter", "is_disabled": 0, "fusion_lon": 0.0}, {"rental_uris": {"android": "https://dc.lft.to/lastmile_qr_scan", "ios": "https://dc.lft.to/lastmile_qr_scan"}, "lon": -77.02291416666667, "name": "31ec0df41aeabb54ab7ec464b914cb5d", "lat": 38.8970775, "is_reserved": 0, "fusion_lat": 0.0, "bike_id": "31ec0df41aeabb54ab7ec464b914cb5d", "type": "electric_scooter", "is_disabled": 0, "fusion_lon": 0.0}, {"rental_uris": {"android": "https://dc.lft.to/lastmile_qr_scan", "ios": "https://dc.lft.to/lastmile_qr_scan"}, "lon": -77.05029366666666, "name": "e1e823bf9ee04ef87e4a9f24a4bbdd0f", "lat": 38.923646833333336, "is_reserved": 0, "fusion_lat": 0.0, "bike_id": "e1e823bf9ee04ef87e4a9f24a4bbdd0f", "type": "electric_scooter", "is_disabled": 0, "fusion_lon": 0.0}, {"rental_uris": {"android": "https://dc.lft.to/lastmile_qr_scan", "ios": "https://dc.lft.to/lastmile_qr_scan"}, "lon": -77.01789983333333, "name": "ed7f71c916b38414639db1b2808f74ec", "lat": 38.92037166666667, "is_reserved": 0, "fusion_lat": 0.0, "bike_id": "ed7f71c916b38414639db1b2808f74ec", "type": "electric_scooter", "is_disabled": 0, "fusion_lon": 0.0}, {"rental_uris": {"android": "https://dc.lft.to/lastmile_qr_scan", "ios": "https://dc.lft.to/lastmile_qr_scan"}, "lon": -77.02379566666667, "name": "7e778785eb12fb1f9a5b536c6e128a6e", "lat": 38.9089625, "is_reserved": 0, "fusion_lat": 0.0, "bike_id": "7e778785eb12fb1f9a5b536c6e128a6e", "type": "electric_scooter", "is_disabled": 0, "fusion_lon": 0.0}, {"rental_uris": {"android": "https://dc.lft.to/lastmile_qr_scan", "ios": "https://dc.lft.to/lastmile_qr_scan"}, "lon": -77.02802016666666, "name": "14b6ae5bf53df9cc43c5dc9cde6817c9", "lat": 38.917129833333334, "is_reserved": 0, "fusion_lat": 0.0, "bike_id": "14b6ae5bf53df9cc43c5dc9cde6817c9", "type": "electric_scooter", "is_disabled": 0, "fusion_lon": 0.0}, {"rental_uris": {"android": "https://dc.lft.to/lastmile_qr_scan", "ios": "https://dc.lft.to/lastmile_qr_scan"}, "lon": -77.18742316666666, "name": "256fd282938edb9aac7ce68ce4168ecb", "lat": 38.89353066666666, "is_reserved": 0, "fusion_lat": 0.0, "bike_id": "256fd282938edb9aac7ce68ce4168ecb", "type": "electric_bike", "is_disabled": 0, "fusion_lon": 0.0}, {"rental_uris": {"android": "https://dc.lft.to/lastmile_qr_scan", "ios": "https://dc.lft.to/lastmile_qr_scan"}, "lon": -77.06301166666667, "name": "8577436188482a2471e0ff2c2e9d1133", "lat": 38.943743, "is_reserved": 0, "fusion_lat": 0.0, "bike_id": "8577436188482a2471e0ff2c2e9d1133", "type": "electric_scooter", "is_disabled": 0, "fusion_lon": 0.0}, {"rental_uris": {"android": "https://dc.lft.to/lastmile_qr_scan", "ios": "https://dc.lft.to/lastmile_qr_scan"}, "lon": -77.02823116666667, "name": "fc9d23c416787f398fe58012242e05e9", "lat": 38.9561535, "is_reserved": 0, "fusion_lat": 0.0, "bike_id": "fc9d23c416787f398fe58012242e05e9", "type": "electric_scooter", "is_disabled": 0, "fusion_lon": 0.0}, {"rental_uris": {"android": "https://dc.lft.to/lastmile_qr_scan", "ios": "https://dc.lft.to/lastmile_qr_scan"}, "lon": -77.05511733333333, "name": "aca7528d542a19449af2a5876658713f", "lat": 38.929449166666664, "is_reserved": 0, "fusion_lat": 0.0, "bike_id": "aca7528d542a19449af2a5876658713f", "type": "electric_scooter", "is_disabled": 0, "fusion_lon": 0.0}, {"rental_uris": {"android": "https://dc.lft.to/lastmile_qr_scan", "ios": "https://dc.lft.to/lastmile_qr_scan"}, "lon": -77.038232, "name": "41a4bf702451cccc1eb9dddce84725fa", "lat": 38.912517666666666, "is_reserved": 0, "fusion_lat": 0.0, "bike_id": "41a4bf702451cccc1eb9dddce84725fa", "type": "electric_scooter", "is_disabled": 0, "fusion_lon": 0.0}, {"rental_uris": {"android": "https://dc.lft.to/lastmile_qr_scan", "ios": "https://dc.lft.to/lastmile_qr_scan"}, "lon": -76.99780316666667, "name": "6d7f29a0c7ab27486bd7a3fee153df9e", "lat": 38.84435416666667, "is_reserved": 0, "fusion_lat": 0.0, "bike_id": "6d7f29a0c7ab27486bd7a3fee153df9e", "type": "electric_scooter", "is_disabled": 0, "fusion_lon": 0.0}, {"rental_uris": {"android": "https://dc.lft.to/lastmile_qr_scan", "ios": "https://dc.lft.to/lastmile_qr_scan"}, "lon": -76.951988, "name": "01ae69243ee6d01fa7cb549caf4e3e1c", "lat": 39.084482666666666, "is_reserved": 0, "fusion_lat": 0.0, "bike_id": "01ae69243ee6d01fa7cb549caf4e3e1c", "type": "electric_bike", "is_disabled": 0, "fusion_lon": 0.0}, {"rental_uris": {"android": "https://dc.lft.to/lastmile_qr_scan", "ios": "https://dc.lft.to/lastmile_qr_scan"}, "lon": -77.03841766666666, "name": "0af03057a2dea65f4ebc0f334234bb4b", "lat": 38.90976583333333, "is_reserved": 0, "fusion_lat": 0.0, "bike_id": "0af03057a2dea65f4ebc0f334234bb4b", "type": "electric_scooter", "is_disabled": 0, "fusion_lon": 0.0}, {"rental_uris": {"android": "https://dc.lft.to/lastmile_qr_scan", "ios": "https://dc.lft.to/lastmile_qr_scan"}, "lon": -77.02393333333333, "name": "8abe9b8c27315825321827682d756404", "lat": 38.91674183333333, "is_reserved": 0, "fusion_lat": 0.0, "bike_id": "8abe9b8c27315825321827682d756404", "type": "electric_scooter", "is_disabled": 0, "fusion_lon": 0.0}, {"rental_uris": {"android": "https://dc.lft.to/lastmile_qr_scan", "ios": "https://dc.lft.to/lastmile_qr_scan"}, "lon": -77.04309466666666, "name": "b81035f5e475307d2e27e5e09ef7a50a", "lat": 38.92666166666667, "is_reserved": 0, "fusion_lat": 0.0, "bike_id": "b81035f5e475307d2e27e5e09ef7a50a", "type": "electric_scooter", "is_disabled": 0, "fusion_lon": 0.0}, {"rental_uris": {"android": "https://dc.lft.to/lastmile_qr_scan", "ios": "https://dc.lft.to/lastmile_qr_scan"}, "lon": -77.026869, "name": "d09158bb7bd29811495ba916c90fb460", "lat": 38.923875333333335, "is_reserved": 0, "fusion_lat": 0.0, "bike_id": "d09158bb7bd29811495ba916c90fb460", "type": "electric_scooter", "is_disabled": 0, "fusion_lon": 0.0}, {"rental_uris": {"android": "https://dc.lft.to/lastmile_qr_scan", "ios": "https://dc.lft.to/lastmile_qr_scan"}, "lon": -77.04481583333333, "name": "563d92103fa046d1219e37adba1ae5b8", "lat": 38.91872266666667, "is_reserved": 0, "fusion_lat": 0.0, "bike_id": "563d92103fa046d1219e37adba1ae5b8", "type": "electric_scooter", "is_disabled": 0, "fusion_lon": 0.0}, {"rental_uris": {"android": "https://dc.lft.to/lastmile_qr_scan", "ios": "https://dc.lft.to/lastmile_qr_scan"}, "lon": -77.039581, "name": "2cdad2b9c74fa2e4e1acd9ab188fc5d6", "lat": 38.93331416666667, "is_reserved": 0, "fusion_lat": 0.0, "bike_id": "2cdad2b9c74fa2e4e1acd9ab188fc5d6", "type": "electric_bike", "is_disabled": 0, "fusion_lon": 0.0}, {"rental_uris": {"android": "https://dc.lft.to/lastmile_qr_scan", "ios": "https://dc.lft.to/lastmile_qr_scan"}, "lon": -77.04516666666666, "name": "da40c1dfc657389242dd30d054a3d6ec", "lat": 38.89609083333333, "is_reserved": 0, "fusion_lat": 0.0, "bike_id": "da40c1dfc657389242dd30d054a3d6ec", "type": "electric_scooter", "is_disabled": 0, "fusion_lon": 0.0}, {"rental_uris": {"android": "https://dc.lft.to/lastmile_qr_scan", "ios": "https://dc.lft.to/lastmile_qr_scan"}, "lon": -77.12530266666667, "name": "d32606b985c911652d1b4d149887c768", "lat": 39.056362666666665, "is_reserved": 0, "fusion_lat": 0.0, "bike_id": "d32606b985c911652d1b4d149887c768", "type": "electric_bike", "is_disabled": 0, "fusion_lon": 0.0}, {"rental_uris": {"android": "https://dc.lft.to/lastmile_qr_scan", "ios": "https://dc.lft.to/lastmile_qr_scan"}, "lon": -77.04191133333333, "name": "b70c9bf8a14e478497832a357e46ebc2", "lat": 38.9209355, "is_reserved": 0, "fusion_lat": 0.0, "bike_id": "b70c9bf8a14e478497832a357e46ebc2", "type": "electric_scooter", "is_disabled": 0, "fusion_lon": 0.0}, {"rental_uris": {"android": "https://dc.lft.to/lastmile_qr_scan", "ios": "https://dc.lft.to/lastmile_qr_scan"}, "lon": -77.04375183333333, "name": "83711afa9f39b67c1048404296e99a61", "lat": 38.8922445, "is_reserved": 0, "fusion_lat": 0.0, "bike_id": "83711afa9f39b67c1048404296e99a61", "type": "electric_scooter", "is_disabled": 0, "fusion_lon": 0.0}, {"rental_uris": {"android": "https://dc.lft.to/lastmile_qr_scan", "ios": "https://dc.lft.to/lastmile_qr_scan"}, "lon": -77.02623166666666, "name": "05a5b7f79ed8331deed467b295fa7481", "lat": 38.933377, "is_reserved": 0, "fusion_lat": 0.0, "bike_id": "05a5b7f79ed8331deed467b295fa7481", "type": "electric_scooter", "is_disabled": 0, "fusion_lon": 0.0}, {"rental_uris": {"android": "https://dc.lft.to/lastmile_qr_scan", "ios": "https://dc.lft.to/lastmile_qr_scan"}, "lon": -77.0285125, "name": "4d4092990c0a1ff20677ec6830f371cf", "lat": 38.93591633333333, "is_reserved": 0, "fusion_lat": 0.0, "bike_id": "4d4092990c0a1ff20677ec6830f371cf", "type": "electric_scooter", "is_disabled": 0, "fusion_lon": 0.0}, {"rental_uris": {"android": "https://dc.lft.to/lastmile_qr_scan", "ios": "https://dc.lft.to/lastmile_qr_scan"}, "lon": -77.02222533333334, "name": "68486afcd5a0de7ca98ba18093db59be", "lat": 38.91251883333334, "is_reserved": 0, "fusion_lat": 0.0, "bike_id": "68486afcd5a0de7ca98ba18093db59be", "type": "electric_scooter", "is_disabled": 0, "fusion_lon": 0.0}, {"rental_uris": {"android": "https://dc.lft.to/lastmile_qr_scan", "ios": "https://dc.lft.to/lastmile_qr_scan"}, "lon": -76.946399, "name": "e9bdda431281571d5994d256a94ed34c", "lat": 38.8986085, "is_reserved": 0, "fusion_lat": 0.0, "bike_id": "e9bdda431281571d5994d256a94ed34c", "type": "electric_scooter", "is_disabled": 0, "fusion_lon": 0.0}, {"rental_uris": {"android": "https://dc.lft.to/lastmile_qr_scan", "ios": "https://dc.lft.to/lastmile_qr_scan"}, "lon": -77.02813783333333, "name": "898d1662a54660be8f7a9dfee336bdbf", "lat": 38.898626166666666, "is_reserved": 0, "fusion_lat": 0.0, "bike_id": "898d1662a54660be8f7a9dfee336bdbf", "type": "electric_scooter", "is_disabled": 0, "fusion_lon": 0.0}, {"rental_uris": {"android": "https://dc.lft.to/lastmile_qr_scan", "ios": "https://dc.lft.to/lastmile_qr_scan"}, "lon": -77.04480416666667, "name": "b41e87bf4cfc7a2926e55c0762242151", "lat": 38.91882916666667, "is_reserved": 0, "fusion_lat": 0.0, "bike_id": "b41e87bf4cfc7a2926e55c0762242151", "type": "electric_scooter", "is_disabled": 0, "fusion_lon": 0.0}, {"rental_uris": {"android": "https://dc.lft.to/lastmile_qr_scan", "ios": "https://dc.lft.to/lastmile_qr_scan"}, "lon": -76.9717125, "name": "13fe2f2ca33c47f2b0746668714b672c", "lat": 38.8613995, "is_reserved": 0, "fusion_lat": 0.0, "bike_id": "13fe2f2ca33c47f2b0746668714b672c", "type": "electric_scooter", "is_disabled": 0, "fusion_lon": 0.0}, {"rental_uris": {"android": "https://dc.lft.to/lastmile_qr_scan", "ios": "https://dc.lft.to/lastmile_qr_scan"}, "lon": -77.03198716666667, "name": "147583778c9cb60fcfbb6245df93c4ca", "lat": 38.92149233333333, "is_reserved": 0, "fusion_lat": 0.0, "bike_id": "147583778c9cb60fcfbb6245df93c4ca", "type": "electric_scooter", "is_disabled": 0, "fusion_lon": 0.0}, {"rental_uris": {"android": "https://dc.lft.to/lastmile_qr_scan", "ios": "https://dc.lft.to/lastmile_qr_scan"}, "lon": -77.00589883333333, "name": "610a6cf70f0d0b1e3b65fc594f7691fa", "lat": 38.905649833333335, "is_reserved": 0, "fusion_lat": 0.0, "bike_id": "610a6cf70f0d0b1e3b65fc594f7691fa", "type": "electric_scooter", "is_disabled": 0, "fusion_lon": 0.0}, {"rental_uris": {"android": "https://dc.lft.to/lastmile_qr_scan", "ios": "https://dc.lft.to/lastmile_qr_scan"}, "lon": -77.02973266666666, "name": "166a0c1d960ccbdfd151233ae94f5d42", "lat": 38.931118166666664, "is_reserved": 0, "fusion_lat": 0.0, "bike_id": "166a0c1d960ccbdfd151233ae94f5d42", "type": "electric_scooter", "is_disabled": 0, "fusion_lon": 0.0}, {"rental_uris": {"android": "https://dc.lft.to/lastmile_qr_scan", "ios": "https://dc.lft.to/lastmile_qr_scan"}, "lon": -77.002259, "name": "5b917abbef162ffcbf026d4062b91a5f", "lat": 38.92509483333333, "is_reserved": 0, "fusion_lat": 0.0, "bike_id": "5b917abbef162ffcbf026d4062b91a5f", "type": "electric_scooter", "is_disabled": 0, "fusion_lon": 0.0}, {"rental_uris": {"android": "https://dc.lft.to/lastmile_qr_scan", "ios": "https://dc.lft.to/lastmile_qr_scan"}, "lon": -77.02180683333333, "name": "a611597d82ab5395aaeba0deb3220d4a", "lat": 38.91605116666667, "is_reserved": 0, "fusion_lat": 0.0, "bike_id": "a611597d82ab5395aaeba0deb3220d4a", "type": "electric_scooter", "is_disabled": 0, "fusion_lon": 0.0}, {"rental_uris": {"android": "https://dc.lft.to/lastmile_qr_scan", "ios": "https://dc.lft.to/lastmile_qr_scan"}, "lon": -77.00699183333333, "name": "15d6d39f0a62ed9cd32be0ef0f373b59", "lat": 38.876913, "is_reserved": 0, "fusion_lat": 0.0, "bike_id": "15d6d39f0a62ed9cd32be0ef0f373b59", "type": "electric_scooter", "is_disabled": 0, "fusion_lon": 0.0}, {"rental_uris": {"android": "https://dc.lft.to/lastmile_qr_scan", "ios": "https://dc.lft.to/lastmile_qr_scan"}, "lon": -76.9791845, "name": "95bcc885506f6c9868bcc533af8deb06", "lat": 38.92459083333333, "is_reserved": 0, "fusion_lat": 0.0, "bike_id": "95bcc885506f6c9868bcc533af8deb06", "type": "electric_scooter", "is_disabled": 0, "fusion_lon": 0.0}, {"rental_uris": {"android": "https://dc.lft.to/lastmile_qr_scan", "ios": "https://dc.lft.to/lastmile_qr_scan"}, "lon": -77.02798633333333, "name": "406a69db1279f70b63b0d1ffea6fbf2d", "lat": 38.930630666666666, "is_reserved": 0, "fusion_lat": 0.0, "bike_id": "406a69db1279f70b63b0d1ffea6fbf2d", "type": "electric_scooter", "is_disabled": 0, "fusion_lon": 0.0}, {"rental_uris": {"android": "https://dc.lft.to/lastmile_qr_scan", "ios": "https://dc.lft.to/lastmile_qr_scan"}, "lon": -77.02852833333333, "name": "858506e3473ec293b95c59e4b4eec08d", "lat": 38.927662833333336, "is_reserved": 0, "fusion_lat": 0.0, "bike_id": "858506e3473ec293b95c59e4b4eec08d", "type": "electric_scooter", "is_disabled": 0, "fusion_lon": 0.0}, {"rental_uris": {"android": "https://dc.lft.to/lastmile_qr_scan", "ios": "https://dc.lft.to/lastmile_qr_scan"}, "lon": -76.9856675, "name": "031bb2edf4234897f3eaea0fb9d3f33e", "lat": 38.866789833333335, "is_reserved": 0, "fusion_lat": 0.0, "bike_id": "031bb2edf4234897f3eaea0fb9d3f33e", "type": "electric_scooter", "is_disabled": 0, "fusion_lon": 0.0}, {"rental_uris": {"android": "https://dc.lft.to/lastmile_qr_scan", "ios": "https://dc.lft.to/lastmile_qr_scan"}, "lon": -76.97438533333333, "name": "608bd889bc45499968be8c9f4db09956", "lat": 38.90238866666667, "is_reserved": 0, "fusion_lat": 0.0, "bike_id": "608bd889bc45499968be8c9f4db09956", "type": "electric_scooter", "is_disabled": 0, "fusion_lon": 0.0}, {"rental_uris": {"android": "https://dc.lft.to/lastmile_qr_scan", "ios": "https://dc.lft.to/lastmile_qr_scan"}, "lon": -77.0733005, "name": "dad7ad7757c483f601ed73b9a6d2e8ed", "lat": 38.92728183333333, "is_reserved": 0, "fusion_lat": 0.0, "bike_id": "dad7ad7757c483f601ed73b9a6d2e8ed", "type": "electric_bike", "is_disabled": 0, "fusion_lon": 0.0}, {"rental_uris": {"android": "https://dc.lft.to/lastmile_qr_scan", "ios": "https://dc.lft.to/lastmile_qr_scan"}, "lon": -77.017143, "name": "264c9c8abb65f9ccd7b93820aa856273", "lat": 38.9024885, "is_reserved": 0, "fusion_lat": 0.0, "bike_id": "264c9c8abb65f9ccd7b93820aa856273", "type": "electric_scooter", "is_disabled": 0, "fusion_lon": 0.0}, {"rental_uris": {"android": "https://dc.lft.to/lastmile_qr_scan", "ios": "https://dc.lft.to/lastmile_qr_scan"}, "lon": -77.04473333333334, "name": "1413bf865bbbf3e4bc3d96d5b94ae536", "lat": 38.903652, "is_reserved": 0, "fusion_lat": 0.0, "bike_id": "1413bf865bbbf3e4bc3d96d5b94ae536", "type": "electric_scooter", "is_disabled": 0, "fusion_lon": 0.0}, {"rental_uris": {"android": "https://dc.lft.to/lastmile_qr_scan", "ios": "https://dc.lft.to/lastmile_qr_scan"}, "lon": -77.0434555, "name": "67709911bf646b2e9371efb94c5902bb", "lat": 38.923506833333334, "is_reserved": 0, "fusion_lat": 0.0, "bike_id": "67709911bf646b2e9371efb94c5902bb", "type": "electric_scooter", "is_disabled": 0, "fusion_lon": 0.0}, {"rental_uris": {"android": "https://dc.lft.to/lastmile_qr_scan", "ios": "https://dc.lft.to/lastmile_qr_scan"}, "lon": -77.03105833333333, "name": "16f2f73f308d05dcb1b6a34c03f62c29", "lat": 38.919197833333335, "is_reserved": 0, "fusion_lat": 0.0, "bike_id": "16f2f73f308d05dcb1b6a34c03f62c29", "type": "electric_scooter", "is_disabled": 0, "fusion_lon": 0.0}, {"rental_uris": {"android": "https://dc.lft.to/lastmile_qr_scan", "ios": "https://dc.lft.to/lastmile_qr_scan"}, "lon": -77.05524933333334, "name": "908de7b89a70eb12db861419a9b6e758", "lat": 38.8972455, "is_reserved": 0, "fusion_lat": 0.0, "bike_id": "908de7b89a70eb12db861419a9b6e758", "type": "electric_scooter", "is_disabled": 0, "fusion_lon": 0.0}, {"rental_uris": {"android": "https://dc.lft.to/lastmile_qr_scan", "ios": "https://dc.lft.to/lastmile_qr_scan"}, "lon": -76.98571666666666, "name": "5679488128f6bdd9ea16cff2e5472c06", "lat": 38.88379966666667, "is_reserved": 0, "fusion_lat": 0.0, "bike_id": "5679488128f6bdd9ea16cff2e5472c06", "type": "electric_scooter", "is_disabled": 0, "fusion_lon": 0.0}, {"rental_uris": {"android": "https://dc.lft.to/lastmile_qr_scan", "ios": "https://dc.lft.to/lastmile_qr_scan"}, "lon": -77.03198683333333, "name": "ecd508d5a42c1638d5152ee1722c7ff9", "lat": 38.916432666666665, "is_reserved": 0, "fusion_lat": 0.0, "bike_id": "ecd508d5a42c1638d5152ee1722c7ff9", "type": "electric_scooter", "is_disabled": 0, "fusion_lon": 0.0}, {"rental_uris": {"android": "https://dc.lft.to/lastmile_qr_scan", "ios": "https://dc.lft.to/lastmile_qr_scan"}, "lon": -77.064719, "name": "ca41344558fde8eb63082aad6d8649a4", "lat": 38.973818333333334, "is_reserved": 0, "fusion_lat": 0.0, "bike_id": "ca41344558fde8eb63082aad6d8649a4", "type": "electric_bike", "is_disabled": 0, "fusion_lon": 0.0}, {"rental_uris": {"android": "https://dc.lft.to/lastmile_qr_scan", "ios": "https://dc.lft.to/lastmile_qr_scan"}, "lon": -77.03843883333333, "name": "d68edc2ac3418bb82fc8e4cc6d09ddc4", "lat": 38.90266533333333, "is_reserved": 0, "fusion_lat": 0.0, "bike_id": "d68edc2ac3418bb82fc8e4cc6d09ddc4", "type": "electric_scooter", "is_disabled": 0, "fusion_lon": 0.0}, {"rental_uris": {"android": "https://dc.lft.to/lastmile_qr_scan", "ios": "https://dc.lft.to/lastmile_qr_scan"}, "lon": -77.03190333333333, "name": "043b349a2293f82e63c897311f7c2e87", "lat": 38.921075, "is_reserved": 0, "fusion_lat": 0.0, "bike_id": "043b349a2293f82e63c897311f7c2e87", "type": "electric_scooter", "is_disabled": 0, "fusion_lon": 0.0}, {"rental_uris": {"android": "https://dc.lft.to/lastmile_qr_scan", "ios": "https://dc.lft.to/lastmile_qr_scan"}, "lon": -76.9463865, "name": "2aec2d36f14dcf3257ff3b9e21155876", "lat": 38.89865, "is_reserved": 0, "fusion_lat": 0.0, "bike_id": "2aec2d36f14dcf3257ff3b9e21155876", "type": "electric_scooter", "is_disabled": 0, "fusion_lon": 0.0}, {"rental_uris": {"android": "https://dc.lft.to/lastmile_qr_scan", "ios": "https://dc.lft.to/lastmile_qr_scan"}, "lon": -77.02225216666666, "name": "bd308f0a1d43fd941674c2aa2e09ace9", "lat": 38.91251916666667, "is_reserved": 0, "fusion_lat": 0.0, "bike_id": "bd308f0a1d43fd941674c2aa2e09ace9", "type": "electric_scooter", "is_disabled": 0, "fusion_lon": 0.0}, {"rental_uris": {"android": "https://dc.lft.to/lastmile_qr_scan", "ios": "https://dc.lft.to/lastmile_qr_scan"}, "lon": -77.026981, "name": "642fc39db6d69f363b01ab25184b4580", "lat": 38.9162745, "is_reserved": 0, "fusion_lat": 0.0, "bike_id": "642fc39db6d69f363b01ab25184b4580", "type": "electric_scooter", "is_disabled": 0, "fusion_lon": 0.0}, {"rental_uris": {"android": "https://dc.lft.to/lastmile_qr_scan", "ios": "https://dc.lft.to/lastmile_qr_scan"}, "lon": -77.03431833333333, "name": "b5e21154d743797b64b9f0f3f11f4324", "lat": 38.9653395, "is_reserved": 0, "fusion_lat": 0.0, "bike_id": "b5e21154d743797b64b9f0f3f11f4324", "type": "electric_bike", "is_disabled": 0, "fusion_lon": 0.0}, {"rental_uris": {"android": "https://dc.lft.to/lastmile_qr_scan", "ios": "https://dc.lft.to/lastmile_qr_scan"}, "lon": -77.04871866666667, "name": "87993f99ac225f81295a861f20b8a9df", "lat": 38.916187, "is_reserved": 0, "fusion_lat": 0.0, "bike_id": "87993f99ac225f81295a861f20b8a9df", "type": "electric_scooter", "is_disabled": 0, "fusion_lon": 0.0}, {"rental_uris": {"android": "https://dc.lft.to/lastmile_qr_scan", "ios": "https://dc.lft.to/lastmile_qr_scan"}, "lon": -76.97776416666666, "name": "397066c52cf8b92779fbefb4ccdc923d", "lat": 38.891856833333335, "is_reserved": 0, "fusion_lat": 0.0, "bike_id": "397066c52cf8b92779fbefb4ccdc923d", "type": "electric_bike", "is_disabled": 0, "fusion_lon": 0.0}, {"rental_uris": {"android": "https://dc.lft.to/lastmile_qr_scan", "ios": "https://dc.lft.to/lastmile_qr_scan"}, "lon": -77.04025566666667, "name": "b58d35668c8323e262607aa453444ca1", "lat": 38.90223433333333, "is_reserved": 0, "fusion_lat": 0.0, "bike_id": "b58d35668c8323e262607aa453444ca1", "type": "electric_scooter", "is_disabled": 0, "fusion_lon": 0.0}, {"rental_uris": {"android": "https://dc.lft.to/lastmile_qr_scan", "ios": "https://dc.lft.to/lastmile_qr_scan"}, "lon": -77.04540066666667, "name": "22a697e412ca3998117efa562b226b09", "lat": 38.898748, "is_reserved": 0, "fusion_lat": 0.0, "bike_id": "22a697e412ca3998117efa562b226b09", "type": "electric_scooter", "is_disabled": 0, "fusion_lon": 0.0}, {"rental_uris": {"android": "https://dc.lft.to/lastmile_qr_scan", "ios": "https://dc.lft.to/lastmile_qr_scan"}, "lon": -77.0367415, "name": "4e9b7e3799a2fd54db0f420f9fe9ea18", "lat": 38.91870383333333, "is_reserved": 0, "fusion_lat": 0.0, "bike_id": "4e9b7e3799a2fd54db0f420f9fe9ea18", "type": "electric_scooter", "is_disabled": 0, "fusion_lon": 0.0}, {"rental_uris": {"android": "https://dc.lft.to/lastmile_qr_scan", "ios": "https://dc.lft.to/lastmile_qr_scan"}, "lon": -77.0386935, "name": "cdc5d53a8b414367273b021232dcbd55", "lat": 38.91253116666667, "is_reserved": 0, "fusion_lat": 0.0, "bike_id": "cdc5d53a8b414367273b021232dcbd55", "type": "electric_scooter", "is_disabled": 0, "fusion_lon": 0.0}, {"rental_uris": {"android": "https://dc.lft.to/lastmile_qr_scan", "ios": "https://dc.lft.to/lastmile_qr_scan"}, "lon": -77.02602916666666, "name": "cb8d538105d38ba5dede6fa88ba2471e", "lat": 38.9023815, "is_reserved": 0, "fusion_lat": 0.0, "bike_id": "cb8d538105d38ba5dede6fa88ba2471e", "type": "electric_scooter", "is_disabled": 0, "fusion_lon": 0.0}, {"rental_uris": {"android": "https://dc.lft.to/lastmile_qr_scan", "ios": "https://dc.lft.to/lastmile_qr_scan"}, "lon": -77.02584833333333, "name": "ab8c8cd0ade8cbb54857bc995ab44c8d", "lat": 38.887322166666664, "is_reserved": 0, "fusion_lat": 0.0, "bike_id": "ab8c8cd0ade8cbb54857bc995ab44c8d", "type": "electric_scooter", "is_disabled": 0, "fusion_lon": 0.0}, {"rental_uris": {"android": "https://dc.lft.to/lastmile_qr_scan", "ios": "https://dc.lft.to/lastmile_qr_scan"}, "lon": -77.14052649999999, "name": "24c97e8e4739df51fa39d984113894e4", "lat": 38.987679, "is_reserved": 0, "fusion_lat": 0.0, "bike_id": "24c97e8e4739df51fa39d984113894e4", "type": "electric_bike", "is_disabled": 0, "fusion_lon": 0.0}, {"rental_uris": {"android": "https://dc.lft.to/lastmile_qr_scan", "ios": "https://dc.lft.to/lastmile_qr_scan"}, "lon": -77.00306833333333, "name": "ac922ab73e883234b6ad8c8ec943f0f5", "lat": 38.9203455, "is_reserved": 0, "fusion_lat": 0.0, "bike_id": "ac922ab73e883234b6ad8c8ec943f0f5", "type": "electric_scooter", "is_disabled": 0, "fusion_lon": 0.0}, {"rental_uris": {"android": "https://dc.lft.to/lastmile_qr_scan", "ios": "https://dc.lft.to/lastmile_qr_scan"}, "lon": -77.024978, "name": "1740f0d3d945dc6f118b5aa322e670d6", "lat": 38.919541, "is_reserved": 0, "fusion_lat": 0.0, "bike_id": "1740f0d3d945dc6f118b5aa322e670d6", "type": "electric_scooter", "is_disabled": 0, "fusion_lon": 0.0}, {"rental_uris": {"android": "https://dc.lft.to/lastmile_qr_scan", "ios": "https://dc.lft.to/lastmile_qr_scan"}, "lon": -76.9870055, "name": "721d0a286830523411dd85047fa8cc08", "lat": 38.8672215, "is_reserved": 0, "fusion_lat": 0.0, "bike_id": "721d0a286830523411dd85047fa8cc08", "type": "electric_scooter", "is_disabled": 0, "fusion_lon": 0.0}, {"rental_uris": {"android": "https://dc.lft.to/lastmile_qr_scan", "ios": "https://dc.lft.to/lastmile_qr_scan"}, "lon": -77.00712483333334, "name": "9a58363616635349f8a87b9d4c10902a", "lat": 38.884876166666665, "is_reserved": 0, "fusion_lat": 0.0, "bike_id": "9a58363616635349f8a87b9d4c10902a", "type": "electric_scooter", "is_disabled": 0, "fusion_lon": 0.0}, {"rental_uris": {"android": "https://dc.lft.to/lastmile_qr_scan", "ios": "https://dc.lft.to/lastmile_qr_scan"}, "lon": -76.90079166666666, "name": "2a5a9bcbebb492bc7d9b089c123ed370", "lat": 38.887592833333336, "is_reserved": 0, "fusion_lat": 0.0, "bike_id": "2a5a9bcbebb492bc7d9b089c123ed370", "type": "electric_bike", "is_disabled": 0, "fusion_lon": 0.0}, {"rental_uris": {"android": "https://dc.lft.to/lastmile_qr_scan", "ios": "https://dc.lft.to/lastmile_qr_scan"}, "lon": -77.03283083333334, "name": "a86953eeef42b0a439fde1fddeaff767", "lat": 38.93754916666666, "is_reserved": 0, "fusion_lat": 0.0, "bike_id": "a86953eeef42b0a439fde1fddeaff767", "type": "electric_scooter", "is_disabled": 0, "fusion_lon": 0.0}, {"rental_uris": {"android": "https://dc.lft.to/lastmile_qr_scan", "ios": "https://dc.lft.to/lastmile_qr_scan"}, "lon": -77.04701516666667, "name": "531ce7af7f4e506b6667ec3abe622486", "lat": 38.921511333333335, "is_reserved": 0, "fusion_lat": 0.0, "bike_id": "531ce7af7f4e506b6667ec3abe622486", "type": "electric_scooter", "is_disabled": 0, "fusion_lon": 0.0}, {"rental_uris": {"android": "https://dc.lft.to/lastmile_qr_scan", "ios": "https://dc.lft.to/lastmile_qr_scan"}, "lon": -77.03868183333333, "name": "ccee388a188668b73a102a828be90b44", "lat": 38.99053633333333, "is_reserved": 0, "fusion_lat": 0.0, "bike_id": "ccee388a188668b73a102a828be90b44", "type": "electric_bike", "is_disabled": 0, "fusion_lon": 0.0}, {"rental_uris": {"android": "https://dc.lft.to/lastmile_qr_scan", "ios": "https://dc.lft.to/lastmile_qr_scan"}, "lon": -76.987254, "name": "39bf0b534bb87c01cc5e96b51f375dbb", "lat": 38.83552483333333, "is_reserved": 0, "fusion_lat": 0.0, "bike_id": "39bf0b534bb87c01cc5e96b51f375dbb", "type": "electric_bike", "is_disabled": 0, "fusion_lon": 0.0}, {"rental_uris": {"android": "https://dc.lft.to/lastmile_qr_scan", "ios": "https://dc.lft.to/lastmile_qr_scan"}, "lon": -77.026962, "name": "85718a530f9c97935c428ae73866f35c", "lat": 38.94978116666667, "is_reserved": 0, "fusion_lat": 0.0, "bike_id": "85718a530f9c97935c428ae73866f35c", "type": "electric_scooter", "is_disabled": 0, "fusion_lon": 0.0}, {"rental_uris": {"android": "https://dc.lft.to/lastmile_qr_scan", "ios": "https://dc.lft.to/lastmile_qr_scan"}, "lon": -77.01231133333333, "name": "dd2ee8154d32870edb831d3d0c80f288", "lat": 38.91684, "is_reserved": 0, "fusion_lat": 0.0, "bike_id": "dd2ee8154d32870edb831d3d0c80f288", "type": "electric_scooter", "is_disabled": 0, "fusion_lon": 0.0}, {"rental_uris": {"android": "https://dc.lft.to/lastmile_qr_scan", "ios": "https://dc.lft.to/lastmile_qr_scan"}, "lon": -76.9879245, "name": "0453e113b40a7a43fe2fdec40ab14f9d", "lat": 38.8448885, "is_reserved": 0, "fusion_lat": 0.0, "bike_id": "0453e113b40a7a43fe2fdec40ab14f9d", "type": "electric_scooter", "is_disabled": 0, "fusion_lon": 0.0}, {"rental_uris": {"android": "https://dc.lft.to/lastmile_qr_scan", "ios": "https://dc.lft.to/lastmile_qr_scan"}, "lon": -77.00226516666666, "name": "767b8141f530c88469735169b7503bd6", "lat": 38.907726333333336, "is_reserved": 0, "fusion_lat": 0.0, "bike_id": "767b8141f530c88469735169b7503bd6", "type": "electric_scooter", "is_disabled": 0, "fusion_lon": 0.0}, {"rental_uris": {"android": "https://dc.lft.to/lastmile_qr_scan", "ios": "https://dc.lft.to/lastmile_qr_scan"}, "lon": -77.01776433333333, "name": "72e75cf13a243f2be5417e222cf26d22", "lat": 38.887123833333334, "is_reserved": 0, "fusion_lat": 0.0, "bike_id": "72e75cf13a243f2be5417e222cf26d22", "type": "electric_scooter", "is_disabled": 0, "fusion_lon": 0.0}, {"rental_uris": {"android": "https://dc.lft.to/lastmile_qr_scan", "ios": "https://dc.lft.to/lastmile_qr_scan"}, "lon": -77.023807, "name": "9ac32759f3733500f1c679dd3b32fea3", "lat": 38.892221166666666, "is_reserved": 0, "fusion_lat": 0.0, "bike_id": "9ac32759f3733500f1c679dd3b32fea3", "type": "electric_scooter", "is_disabled": 0, "fusion_lon": 0.0}, {"rental_uris": {"android": "https://dc.lft.to/lastmile_qr_scan", "ios": "https://dc.lft.to/lastmile_qr_scan"}, "lon": -77.0422245, "name": "bb2d5a03e5c27102b8d183caddae2df8", "lat": 38.90268316666667, "is_reserved": 0, "fusion_lat": 0.0, "bike_id": "bb2d5a03e5c27102b8d183caddae2df8", "type": "electric_scooter", "is_disabled": 0, "fusion_lon": 0.0}, {"rental_uris": {"android": "https://dc.lft.to/lastmile_qr_scan", "ios": "https://dc.lft.to/lastmile_qr_scan"}, "lon": -77.0419745, "name": "015e32a17b81446ad406571249899427", "lat": 38.89222016666667, "is_reserved": 0, "fusion_lat": 0.0, "bike_id": "015e32a17b81446ad406571249899427", "type": "electric_scooter", "is_disabled": 0, "fusion_lon": 0.0}, {"rental_uris": {"android": "https://dc.lft.to/lastmile_qr_scan", "ios": "https://dc.lft.to/lastmile_qr_scan"}, "lon": -77.0056495, "name": "0c46d20627a3af5e72c31ca72d43fce9", "lat": 38.90567333333333, "is_reserved": 0, "fusion_lat": 0.0, "bike_id": "0c46d20627a3af5e72c31ca72d43fce9", "type": "electric_scooter", "is_disabled": 0, "fusion_lon": 0.0}, {"rental_uris": {"android": "https://dc.lft.to/lastmile_qr_scan", "ios": "https://dc.lft.to/lastmile_qr_scan"}, "lon": -77.16608733333334, "name": "576a2fcea37bda4197075051771db1ff", "lat": 39.11977816666667, "is_reserved": 0, "fusion_lat": 0.0, "bike_id": "576a2fcea37bda4197075051771db1ff", "type": "electric_bike", "is_disabled": 0, "fusion_lon": 0.0}, {"rental_uris": {"android": "https://dc.lft.to/lastmile_qr_scan", "ios": "https://dc.lft.to/lastmile_qr_scan"}, "lon": -77.02606, "name": "f203c4d8781ae4079cdca18bfaeb76ee", "lat": 38.928491333333334, "is_reserved": 0, "fusion_lat": 0.0, "bike_id": "f203c4d8781ae4079cdca18bfaeb76ee", "type": "electric_bike", "is_disabled": 0, "fusion_lon": 0.0}, {"rental_uris": {"android": "https://dc.lft.to/lastmile_qr_scan", "ios": "https://dc.lft.to/lastmile_qr_scan"}, "lon": -77.032645, "name": "cb2c491c226284d90ce81aaaaa41eba1", "lat": 38.93979816666667, "is_reserved": 0, "fusion_lat": 0.0, "bike_id": "cb2c491c226284d90ce81aaaaa41eba1", "type": "electric_scooter", "is_disabled": 0, "fusion_lon": 0.0}, {"rental_uris": {"android": "https://dc.lft.to/lastmile_qr_scan", "ios": "https://dc.lft.to/lastmile_qr_scan"}, "lon": -76.98338733333334, "name": "49a2f0b8805fec6c4e518d71a8288d55", "lat": 38.865667333333334, "is_reserved": 0, "fusion_lat": 0.0, "bike_id": "49a2f0b8805fec6c4e518d71a8288d55", "type": "electric_scooter", "is_disabled": 0, "fusion_lon": 0.0}, {"rental_uris": {"android": "https://dc.lft.to/lastmile_qr_scan", "ios": "https://dc.lft.to/lastmile_qr_scan"}, "lon": -76.99961783333333, "name": "e186d8426a29e5dfe254811fa2b36620", "lat": 38.87485483333333, "is_reserved": 0, "fusion_lat": 0.0, "bike_id": "e186d8426a29e5dfe254811fa2b36620", "type": "electric_scooter", "is_disabled": 0, "fusion_lon": 0.0}, {"rental_uris": {"android": "https://dc.lft.to/lastmile_qr_scan", "ios": "https://dc.lft.to/lastmile_qr_scan"}, "lon": -77.02715616666667, "name": "35c1ec3686ec560c57f4cf38fd92a733", "lat": 38.928775333333334, "is_reserved": 0, "fusion_lat": 0.0, "bike_id": "35c1ec3686ec560c57f4cf38fd92a733", "type": "electric_scooter", "is_disabled": 0, "fusion_lon": 0.0}, {"rental_uris": {"android": "https://dc.lft.to/lastmile_qr_scan", "ios": "https://dc.lft.to/lastmile_qr_scan"}, "lon": -77.02793916666667, "name": "6646c7a33b45bfb6d64d78413ab1db5a", "lat": 38.929726, "is_reserved": 0, "fusion_lat": 0.0, "bike_id": "6646c7a33b45bfb6d64d78413ab1db5a", "type": "electric_scooter", "is_disabled": 0, "fusion_lon": 0.0}, {"rental_uris": {"android": "https://dc.lft.to/lastmile_qr_scan", "ios": "https://dc.lft.to/lastmile_qr_scan"},