{"data": {"bikes": [{"rental_uris": {"android": "https://dc.lft.to/lastmile_qr_scan", "ios": "https://dc.lft.to/lastmile_qr_scan"}, "lon": -77.036214, "name": "a491f9379105520e7fcc00920b252d11", "fusion_lon": 0.0, "bike_id": "a491f9379105520e7fcc00920b252d11", "is_reserved": 0, "type": "electric_scooter", "lat": 38.931608, "fusion_lat": 0.0, "is_disabled": 0}, {"rental_uris": {"android": "https://dc.lft.to/lastmile_qr_scan", "ios": "https://dc.lft.to/lastmile_qr_scan"}, "lon": -77.03798016666667, "name": "0c168736eecfc0d00d55b8e3aeaf527b", "fusion_lon": 0.0, "bike_id": "0c168736eecfc0d00d55b8e3aeaf527b", "is_reserved": 0, "type": "electric_scooter", "lat": 38.92309616666667, "fusion_lat": 0.0, "is_disabled": 0}, {"rental_uris": {"android": "https://dc.lft.to/lastmile_qr_scan", "ios": "https://dc.lft.to/lastmile_qr_scan"}, "lon": -77.02750883333333, "name": "c8eea405cd6564cc92201558b3da6fef", "fusion_lon": 0.0, "bike_id": "c8eea405cd6564cc92201558b3da6fef", "is_reserved": 0, "type": "electric_scooter", "lat": 38.92672866666667, "fusion_lat": 0.0, "is_disabled": 0}, {"rental_uris": {"android": "https://dc.lft.to/lastmile_qr_scan", "ios": "https://dc.lft.to/lastmile_qr_scan"}, "lon": -77.04800966666667, "name": "e7f1e6c538b60dfbdfd35bac7ad7aeda", "fusion_lon": 0.0, "bike_id": "e7f1e6c538b60dfbdfd35bac7ad7aeda", "is_reserved": 0, "type": "electric_scooter", "lat": 38.9133645, "fusion_lat": 0.0, "is_disabled": 0}, {"rental_uris": {"android": "https://dc.lft.to/lastmile_qr_scan", "ios": "https://dc.lft.to/lastmile_qr_scan"}, "lon": -77.0275205, "name": "9e6f1c398d744f4f3b59bf65d9567e47", "fusion_lon": 0.0, "bike_id": "9e6f1c398d744f4f3b59bf65d9567e47", "is_reserved": 0, "type": "electric_scooter", "lat": 38.926684333333334, "fusion_lat": 0.0, "is_disabled": 0}, {"rental_uris": {"android": "https://dc.lft.to/lastmile_qr_scan", "ios": "https://dc.lft.to/lastmile_qr_scan"}, "lon": -77.0169965, "name": "c4c417672a382c7db82e5c7f0fffadef", "fusion_lon": 0.0, "bike_id": "c4c417672a382c7db82e5c7f0fffadef", "is_reserved": 0, "type": "electric_scooter", "lat": 38.9750245, "fusion_lat": 0.0, "is_disabled": 0}, {"rental_uris": {"android": "https://dc.lft.to/lastmile_qr_scan", "ios": "https://dc.lft.to/lastmile_qr_scan"}, "lon": -77.04212333333334, "name": "e3e1a4ff588797fd889fe5d5757142a8", "fusion_lon": 0.0, "bike_id": "e3e1a4ff588797fd889fe5d5757142a8", "is_reserved": 0, "type": "electric_scooter", "lat": 38.90573783333333, "fusion_lat": 0.0, "is_disabled": 0}, {"rental_uris": {"android": "https://dc.lft.to/lastmile_qr_scan", "ios": "https://dc.lft.to/lastmile_qr_scan"}, "lon": -77.038538, "name": "dab17df68e1975509297bfc72b36cfec", "fusion_lon": 0.0, "bike_id": "dab17df68e1975509297bfc72b36cfec", "is_reserved": 0, "type": "electric_scooter", "lat": 38.906511333333334, "fusion_lat": 0.0, "is_disabled": 0}, {"rental_uris": {"android": "https://dc.lft.to/lastmile_qr_scan", "ios": "https://dc.lft.to/lastmile_qr_scan"}, "lon": -77.02312766666667, "name": "432260ea15eead7a07e681195be135fa", "fusion_lon": 0.0, "bike_id": "432260ea15eead7a07e681195be135fa", "is_reserved": 0, "type": "electric_scooter", "lat": 38.930237, "fusion_lat": 0.0, "is_disabled": 0}, {"rental_uris": {"android": "https://dc.lft.to/lastmile_qr_scan", "ios": "https://dc.lft.to/lastmile_qr_scan"}, "lon": -77.01988833333333, "name": "e2cfdb152fa52dd1e8cac2d9a26665b8", "fusion_lon": 0.0, "bike_id": "e2cfdb152fa52dd1e8cac2d9a26665b8", "is_reserved": 0, "type": "electric_scooter", "lat": 38.877496666666666, "fusion_lat": 0.0, "is_disabled": 0}, {"rental_uris": {"android": "https://dc.lft.to/lastmile_qr_scan", "ios": "https://dc.lft.to/lastmile_qr_scan"}, "lon": -77.0296985, "name": "9d33d6290a2a34342904196ffdf1b8ba", "fusion_lon": 0.0, "bike_id": "9d33d6290a2a34342904196ffdf1b8ba", "is_reserved": 0, "type": "electric_scooter", "lat": 38.93448516666667, "fusion_lat": 0.0, "is_disabled": 0}, {"rental_uris": {"android": "https://dc.lft.to/lastmile_qr_scan", "ios": "https://dc.lft.to/lastmile_qr_scan"}, "lon": -77.04316183333333, "name": "e2e9a1bff827ec1ec86e552b01c774e0", "fusion_lon": 0.0, "bike_id": "e2e9a1bff827ec1ec86e552b01c774e0", "is_reserved": 0, "type": "electric_scooter", "lat": 38.9088585, "fusion_lat": 0.0, "is_disabled": 0}, {"rental_uris": {"android": "https://dc.lft.to/lastmile_qr_scan", "ios": "https://dc.lft.to/lastmile_qr_scan"}, "lon": -77.04479083333334, "name": "1b9c3b1de246830bd51c56b8e9d6ddd0", "fusion_lon": 0.0, "bike_id": "1b9c3b1de246830bd51c56b8e9d6ddd0", "is_reserved": 0, "type": "electric_scooter", "lat": 38.896173833333336, "fusion_lat": 0.0, "is_disabled": 0}, {"rental_uris": {"android": "https://dc.lft.to/lastmile_qr_scan", "ios": "https://dc.lft.to/lastmile_qr_scan"}, "lon": -77.03853033333333, "name": "b4012f6b7b1a721c4839489e093081c8", "fusion_lon": 0.0, "bike_id": "b4012f6b7b1a721c4839489e093081c8", "is_reserved": 0, "type": "electric_scooter", "lat": 38.916670833333335, "fusion_lat": 0.0, "is_disabled": 0}, {"rental_uris": {"android": "https://dc.lft.to/lastmile_qr_scan", "ios": "https://dc.lft.to/lastmile_qr_scan"}, "lon": -77.02475733333333, "name": "06a1917781d291fafcb83fe3d93573d1", "fusion_lon": 0.0, "bike_id": "06a1917781d291fafcb83fe3d93573d1", "is_reserved": 0, "type": "electric_scooter", "lat": 38.941978, "fusion_lat": 0.0, "is_disabled": 0}, {"rental_uris": {"android": "https://dc.lft.to/lastmile_qr_scan", "ios": "https://dc.lft.to/lastmile_qr_scan"}, "lon": -77.02159833333333, "name": "ef959a75d85cef09a6428f2e5a25605e", "fusion_lon": 0.0, "bike_id": "ef959a75d85cef09a6428f2e5a25605e", "is_reserved": 0, "type": "electric_scooter", "lat": 38.92615216666667, "fusion_lat": 0.0, "is_disabled": 0}, {"rental_uris": {"android": "https://dc.lft.to/lastmile_qr_scan", "ios": "https://dc.lft.to/lastmile_qr_scan"}, "lon": -77.043461, "name": "b9b0d3d13db462c44f7c1fd7a102d285", "fusion_lon": 0.0, "bike_id": "b9b0d3d13db462c44f7c1fd7a102d285", "is_reserved": 0, "type": "electric_scooter", "lat": 38.90821866666667, "fusion_lat": 0.0, "is_disabled": 0}, {"rental_uris": {"android": "https://dc.lft.to/lastmile_qr_scan", "ios": "https://dc.lft.to/lastmile_qr_scan"}, "lon": -77.0217975, "name": "38fc67d96a2bb934885428cc73b0f60a", "fusion_lon": 0.0, "bike_id": "38fc67d96a2bb934885428cc73b0f60a", "is_reserved": 0, "type": "electric_scooter", "lat": 38.91999233333333, "fusion_lat": 0.0, "is_disabled": 0}, {"rental_uris": {"android": "https://dc.lft.to/lastmile_qr_scan", "ios": "https://dc.lft.to/lastmile_qr_scan"}, "lon": -77.00890833333334, "name": "ae3b9831325cee18a489ed9cb1012054", "fusion_lon": 0.0, "bike_id": "ae3b9831325cee18a489ed9cb1012054", "is_reserved": 0, "type": "electric_scooter", "lat": 38.9664805, "fusion_lat": 0.0, "is_disabled": 0}, {"rental_uris": {"android": "https://dc.lft.to/lastmile_qr_scan", "ios": "https://dc.lft.to/lastmile_qr_scan"}, "lon": -77.01357666666667, "name": "eee92806ae5b9c2598d185089fe1564d", "fusion_lon": 0.0, "bike_id": "eee92806ae5b9c2598d185089fe1564d", "is_reserved": 0, "type": "electric_scooter", "lat": 38.918687, "fusion_lat": 0.0, "is_disabled": 0}, {"rental_uris": {"android": "https://dc.lft.to/lastmile_qr_scan", "ios": "https://dc.lft.to/lastmile_qr_scan"}, "lon": -77.0229985, "name": "df79909aa9c9c1c81552b99257e490b8", "fusion_lon": 0.0, "bike_id": "df79909aa9c9c1c81552b99257e490b8", "is_reserved": 0, "type": "electric_scooter", "lat": 38.92825833333333, "fusion_lat": 0.0, "is_disabled": 0}, {"rental_uris": {"android": "https://dc.lft.to/lastmile_qr_scan", "ios": "https://dc.lft.to/lastmile_qr_scan"}, "lon": -76.98543083333334, "name": "2b3554bda597d0844318234489de6c99", "fusion_lon": 0.0, "bike_id": "2b3554bda597d0844318234489de6c99", "is_reserved": 0, "type": "electric_scooter", "lat": 38.920351, "fusion_lat": 0.0, "is_disabled": 0}, {"rental_uris": {"android": "https://dc.lft.to/lastmile_qr_scan", "ios": "https://dc.lft.to/lastmile_qr_scan"}, "lon": -77.02209466666666, "name": "38fd793fdaf997ed08e0b27afab1509f", "fusion_lon": 0.0, "bike_id": "38fd793fdaf997ed08e0b27afab1509f", "is_reserved": 0, "type": "electric_scooter", "lat": 38.91257, "fusion_lat": 0.0, "is_disabled": 0}, {"rental_uris": {"android": "https://dc.lft.to/lastmile_qr_scan", "ios": "https://dc.lft.to/lastmile_qr_scan"}, "lon": -77.01725883333333, "name": "e56af57f7b5f931d59fb9fdd1f61337c", "fusion_lon": 0.0, "bike_id": "e56af57f7b5f931d59fb9fdd1f61337c", "is_reserved": 0, "type": "electric_scooter", "lat": 38.907308, "fusion_lat": 0.0, "is_disabled": 0}, {"rental_uris": {"android": "https://dc.lft.to/lastmile_qr_scan", "ios": "https://dc.lft.to/lastmile_qr_scan"}, "lon": -77.01911483333333, "name": "1554ac23a5667c1c790b48a4f5b7ed72", "fusion_lon": 0.0, "bike_id": "1554ac23a5667c1c790b48a4f5b7ed72", "is_reserved": 0, "type": "electric_scooter", "lat": 38.92180783333333, "fusion_lat": 0.0, "is_disabled": 0}, {"rental_uris": {"android": "https://dc.lft.to/lastmile_qr_scan", "ios": "https://dc.lft.to/lastmile_qr_scan"}, "lon": -76.90081816666667, "name": "b47083eba1f38de98c7cd4854223363f", "fusion_lon": 0.0, "bike_id": "b47083eba1f38de98c7cd4854223363f", "is_reserved": 0, "type": "electric_bike", "lat": 38.887466833333335, "fusion_lat": 0.0, "is_disabled": 0}, {"rental_uris": {"android": "https://dc.lft.to/lastmile_qr_scan", "ios": "https://dc.lft.to/lastmile_qr_scan"}, "lon": -77.02301366666667, "name": "ec4540749b1997f7c5bcab96e9a9e812", "fusion_lon": 0.0, "bike_id": "ec4540749b1997f7c5bcab96e9a9e812", "is_reserved": 0, "type": "electric_bike", "lat": 38.9667675, "fusion_lat": 0.0, "is_disabled": 0}, {"rental_uris": {"android": "https://dc.lft.to/lastmile_qr_scan", "ios": "https://dc.lft.to/lastmile_qr_scan"}, "lon": -76.93260683333334, "name": "2550440ed380dd6450ee9df54f5ac1ac", "fusion_lon": 0.0, "bike_id": "2550440ed380dd6450ee9df54f5ac1ac", "is_reserved": 0, "type": "electric_scooter", "lat": 38.8877135, "fusion_lat": 0.0, "is_disabled": 0}, {"rental_uris": {"android": "https://dc.lft.to/lastmile_qr_scan", "ios": "https://dc.lft.to/lastmile_qr_scan"}, "lon": -77.01800616666667, "name": "c2666b6797474ed65a0c1b748cf7fadb", "fusion_lon": 0.0, "bike_id": "c2666b6797474ed65a0c1b748cf7fadb", "is_reserved": 0, "type": "electric_scooter", "lat": 38.921438, "fusion_lat": 0.0, "is_disabled": 0}, {"rental_uris": {"android": "https://dc.lft.to/lastmile_qr_scan", "ios": "https://dc.lft.to/lastmile_qr_scan"}, "lon": -77.02192533333333, "name": "5fa2d5caa55a542687d8a948e611dea7", "fusion_lon": 0.0, "bike_id": "5fa2d5caa55a542687d8a948e611dea7", "is_reserved": 0, "type": "electric_scooter", "lat": 38.91578116666667, "fusion_lat": 0.0, "is_disabled": 0}, {"rental_uris": {"android": "https://dc.lft.to/lastmile_qr_scan", "ios": "https://dc.lft.to/lastmile_qr_scan"}, "lon": -77.03379166666667, "name": "b71abf5a9f55c407ff244be966967f18", "fusion_lon": 0.0, "bike_id": "b71abf5a9f55c407ff244be966967f18", "is_reserved": 0, "type": "electric_scooter", "lat": 38.921580166666665, "fusion_lat": 0.0, "is_disabled": 0}, {"rental_uris": {"android": "https://dc.lft.to/lastmile_qr_scan", "ios": "https://dc.lft.to/lastmile_qr_scan"}, "lon": -77.0502925, "name": "5e4c60729e7a338430bd131e2c2fe3dd", "fusion_lon": 0.0, "bike_id": "5e4c60729e7a338430bd131e2c2fe3dd", "is_reserved": 0, "type": "electric_scooter", "lat": 38.923648166666666, "fusion_lat": 0.0, "is_disabled": 0}, {"rental_uris": {"android": "https://dc.lft.to/lastmile_qr_scan", "ios": "https://dc.lft.to/lastmile_qr_scan"}, "lon": -77.01490483333333, "name": "8d33d363e8066bc6c4a404aaa9dc7dd0", "fusion_lon": 0.0, "bike_id": "8d33d363e8066bc6c4a404aaa9dc7dd0", "is_reserved": 0, "type": "electric_scooter", "lat": 38.95767033333333, "fusion_lat": 0.0, "is_disabled": 0}, {"rental_uris": {"android": "https://dc.lft.to/lastmile_qr_scan", "ios": "https://dc.lft.to/lastmile_qr_scan"}, "lon": -76.98417266666667, "name": "e6d03bc2b4ebf2b9f8ad9b984766e11e", "fusion_lon": 0.0, "bike_id": "e6d03bc2b4ebf2b9f8ad9b984766e11e", "is_reserved": 0, "type": "electric_scooter", "lat": 38.905839, "fusion_lat": 0.0, "is_disabled": 0}, {"rental_uris": {"android": "https://dc.lft.to/lastmile_qr_scan", "ios": "https://dc.lft.to/lastmile_qr_scan"}, "lon": -77.010943, "name": "fb6c9d979e54da8f4eac2b5ac93b79ab", "fusion_lon": 0.0, "bike_id": "fb6c9d979e54da8f4eac2b5ac93b79ab", "is_reserved": 0, "type": "electric_scooter", "lat": 38.89474833333333, "fusion_lat": 0.0, "is_disabled": 0}, {"rental_uris": {"android": "https://dc.lft.to/lastmile_qr_scan", "ios": "https://dc.lft.to/lastmile_qr_scan"}, "lon": -77.03043533333333, "name": "1ac42d98f708ba7438eea1093e079274", "fusion_lon": 0.0, "bike_id": "1ac42d98f708ba7438eea1093e079274", "is_reserved": 0, "type": "electric_scooter", "lat": 38.924797166666664, "fusion_lat": 0.0, "is_disabled": 0}, {"rental_uris": {"android": "https://dc.lft.to/lastmile_qr_scan", "ios": "https://dc.lft.to/lastmile_qr_scan"}, "lon": -77.02183516666666, "name": "9595c1e26018c2ff9e55a06571d0ae5d", "fusion_lon": 0.0, "bike_id": "9595c1e26018c2ff9e55a06571d0ae5d", "is_reserved": 0, "type": "electric_bike", "lat": 38.910858166666664, "fusion_lat": 0.0, "is_disabled": 0}, {"rental_uris": {"android": "https://dc.lft.to/lastmile_qr_scan", "ios": "https://dc.lft.to/lastmile_qr_scan"}, "lon": -77.04191883333333, "name": "d4248fb2f75852c7363374d23ba9593b", "fusion_lon": 0.0, "bike_id": "d4248fb2f75852c7363374d23ba9593b", "is_reserved": 0, "type": "electric_scooter", "lat": 38.920534833333335, "fusion_lat": 0.0, "is_disabled": 0}, {"rental_uris": {"android": "https://dc.lft.to/lastmile_qr_scan", "ios": "https://dc.lft.to/lastmile_qr_scan"}, "lon": -76.86841233333334, "name": "708d0e824f3081d265f2dc5de4a089a6", "fusion_lon": 0.0, "bike_id": "708d0e824f3081d265f2dc5de4a089a6", "is_reserved": 0, "type": "electric_bike", "lat": 38.8940495, "fusion_lat": 0.0, "is_disabled": 0}, {"rental_uris": {"android": "https://dc.lft.to/lastmile_qr_scan", "ios": "https://dc.lft.to/lastmile_qr_scan"}, "lon": -77.03861533333334, "name": "59e6714a23ff1801b50fa02aeed3f498", "fusion_lon": 0.0, "bike_id": "59e6714a23ff1801b50fa02aeed3f498", "is_reserved": 0, "type": "electric_scooter", "lat": 38.91757583333333, "fusion_lat": 0.0, "is_disabled": 0}, {"rental_uris": {"android": "https://dc.lft.to/lastmile_qr_scan", "ios": "https://dc.lft.to/lastmile_qr_scan"}, "lon": -76.9874605, "name": "1cb36b33df5034ebdde69c4345f56699", "fusion_lon": 0.0, "bike_id": "1cb36b33df5034ebdde69c4345f56699", "is_reserved": 0, "type": "electric_bike", "lat": 38.8579075, "fusion_lat": 0.0, "is_disabled": 0}, {"rental_uris": {"android": "https://dc.lft.to/lastmile_qr_scan", "ios": "https://dc.lft.to/lastmile_qr_scan"}, "lon": -77.032597, "name": "74e8e812158a8b4688e9b324b87e560b", "fusion_lon": 0.0, "bike_id": "74e8e812158a8b4688e9b324b87e560b", "is_reserved": 0, "type": "electric_scooter", "lat": 38.930127, "fusion_lat": 0.0, "is_disabled": 0}, {"rental_uris": {"android": "https://dc.lft.to/lastmile_qr_scan", "ios": "https://dc.lft.to/lastmile_qr_scan"}, "lon": -76.9106185, "name": "8eb7a25d0d51b40fd933d38ddd9f2676", "fusion_lon": 0.0, "bike_id": "8eb7a25d0d51b40fd933d38ddd9f2676", "is_reserved": 0, "type": "electric_bike", "lat": 39.01077333333333, "fusion_lat": 0.0, "is_disabled": 0}, {"rental_uris": {"android": "https://dc.lft.to/lastmile_qr_scan", "ios": "https://dc.lft.to/lastmile_qr_scan"}, "lon": -77.0637855, "name": "694b3fac39c0e6d276af05dbe89f4189", "fusion_lon": 0.0, "bike_id": "694b3fac39c0e6d276af05dbe89f4189", "is_reserved": 0, "type": "electric_scooter", "lat": 38.9052145, "fusion_lat": 0.0, "is_disabled": 0}, {"rental_uris": {"android": "https://dc.lft.to/lastmile_qr_scan", "ios": "https://dc.lft.to/lastmile_qr_scan"}, "lon": -77.00221033333334, "name": "0bfb91fde820f5003b76ef68c8f08fd5", "fusion_lon": 0.0, "bike_id": "0bfb91fde820f5003b76ef68c8f08fd5", "is_reserved": 0, "type": "electric_scooter", "lat": 38.88502666666667, "fusion_lat": 0.0, "is_disabled": 0}, {"rental_uris": {"android": "https://dc.lft.to/lastmile_qr_scan", "ios": "https://dc.lft.to/lastmile_qr_scan"}, "lon": -77.033378, "name": "befc708894529283c3740ccee7e488f3", "fusion_lon": 0.0, "bike_id": "befc708894529283c3740ccee7e488f3", "is_reserved": 0, "type": "electric_scooter", "lat": 38.91702, "fusion_lat": 0.0, "is_disabled": 0}, {"rental_uris": {"android": "https://dc.lft.to/lastmile_qr_scan", "ios": "https://dc.lft.to/lastmile_qr_scan"}, "lon": -77.029785, "name": "5db419edce333c7bd1c62d5de0a19842", "fusion_lon": 0.0, "bike_id": "5db419edce333c7bd1c62d5de0a19842", "is_reserved": 0, "type": "electric_scooter", "lat": 38.9167975, "fusion_lat": 0.0, "is_disabled": 0}, {"rental_uris": {"android": "https://dc.lft.to/lastmile_qr_scan", "ios": "https://dc.lft.to/lastmile_qr_scan"}, "lon": -76.99668333333334, "name": "f0c4c9acd269c08e4273866903eb0ec9", "fusion_lon": 0.0, "bike_id": "f0c4c9acd269c08e4273866903eb0ec9", "is_reserved": 0, "type": "electric_scooter", "lat": 38.924380166666666, "fusion_lat": 0.0, "is_disabled": 0}, {"rental_uris": {"android": "https://dc.lft.to/lastmile_qr_scan", "ios": "https://dc.lft.to/lastmile_qr_scan"}, "lon": -77.01951966666667, "name": "f95f07424ab1a3b49abb5dcb41e77737", "fusion_lon": 0.0, "bike_id": "f95f07424ab1a3b49abb5dcb41e77737", "is_reserved": 0, "type": "electric_scooter", "lat": 38.9233135, "fusion_lat": 0.0, "is_disabled": 0}, {"rental_uris": {"android": "https://dc.lft.to/lastmile_qr_scan", "ios": "https://dc.lft.to/lastmile_qr_scan"}, "lon": -77.0495165, "name": "b59b1bf66cea0d5473111bc3dabc68ca", "fusion_lon": 0.0, "bike_id": "b59b1bf66cea0d5473111bc3dabc68ca", "is_reserved": 0, "type": "electric_bike", "lat": 39.0109225, "fusion_lat": 0.0, "is_disabled": 0}, {"rental_uris": {"android": "https://dc.lft.to/lastmile_qr_scan", "ios": "https://dc.lft.to/lastmile_qr_scan"}, "lon": -77.055494, "name": "a8ff234510ef472509f63efa4e4ded0b", "fusion_lon": 0.0, "bike_id": "a8ff234510ef472509f63efa4e4ded0b", "is_reserved": 0, "type": "electric_scooter", "lat": 38.89986583333334, "fusion_lat": 0.0, "is_disabled": 0}, {"rental_uris": {"android": "https://dc.lft.to/lastmile_qr_scan", "ios": "https://dc.lft.to/lastmile_qr_scan"}, "lon": -77.11508233333333, "name": "6e937200ef86b2c1936214df774d5695", "fusion_lon": 0.0, "bike_id": "6e937200ef86b2c1936214df774d5695", "is_reserved": 0, "type": "electric_bike", "lat": 39.074686666666665, "fusion_lat": 0.0, "is_disabled": 0}, {"rental_uris": {"android": "https://dc.lft.to/lastmile_qr_scan", "ios": "https://dc.lft.to/lastmile_qr_scan"}, "lon": -77.03562333333333, "name": "23902e58eb0948cb80abcea1860cfdd7", "fusion_lon": 0.0, "bike_id": "23902e58eb0948cb80abcea1860cfdd7", "is_reserved": 0, "type": "electric_scooter", "lat": 38.92746433333333, "fusion_lat": 0.0, "is_disabled": 0}, {"rental_uris": {"android": "https://dc.lft.to/lastmile_qr_scan", "ios": "https://dc.lft.to/lastmile_qr_scan"}, "lon": -77.01795466666667, "name": "3dbe21ccc4aab2b2eb0e32721b1d7929", "fusion_lon": 0.0, "bike_id": "3dbe21ccc4aab2b2eb0e32721b1d7929", "is_reserved": 0, "type": "electric_scooter", "lat": 38.921420499999996, "fusion_lat": 0.0, "is_disabled": 0}, {"rental_uris": {"android": "https://dc.lft.to/lastmile_qr_scan", "ios": "https://dc.lft.to/lastmile_qr_scan"}, "lon": -77.0140915, "name": "18283239e72f64411d6103fd9271d755", "fusion_lon": 0.0, "bike_id": "18283239e72f64411d6103fd9271d755", "is_reserved": 0, "type": "electric_scooter", "lat": 38.915525833333334, "fusion_lat": 0.0, "is_disabled": 0}, {"rental_uris": {"android": "https://dc.lft.to/lastmile_qr_scan", "ios": "https://dc.lft.to/lastmile_qr_scan"}, "lon": -77.01489933333333, "name": "6362ce1ee0c67d55fef7fb7cd3851819", "fusion_lon": 0.0, "bike_id": "6362ce1ee0c67d55fef7fb7cd3851819", "is_reserved": 0, "type": "electric_scooter", "lat": 38.943299833333334, "fusion_lat": 0.0, "is_disabled": 0}, {"rental_uris": {"android": "https://dc.lft.to/lastmile_qr_scan", "ios": "https://dc.lft.to/lastmile_qr_scan"}, "lon": -77.02490533333334, "name": "c6979b2daf37f4f1e4d4b5965fbf758e", "fusion_lon": 0.0, "bike_id": "c6979b2daf37f4f1e4d4b5965fbf758e", "is_reserved": 0, "type": "electric_scooter", "lat": 38.9198805, "fusion_lat": 0.0, "is_disabled": 0}, {"rental_uris": {"android": "https://dc.lft.to/lastmile_qr_scan", "ios": "https://dc.lft.to/lastmile_qr_scan"}, "lon": -77.02802583333333, "name": "e5c3283322231c0412635204cf0320b3", "fusion_lon": 0.0, "bike_id": "e5c3283322231c0412635204cf0320b3", "is_reserved": 0, "type": "electric_scooter", "lat": 38.906610666666666, "fusion_lat": 0.0, "is_disabled": 0}, {"rental_uris": {"android": "https://dc.lft.to/lastmile_qr_scan", "ios": "https://dc.lft.to/lastmile_qr_scan"}, "lon": -77.02439716666666, "name": "375b9a76d94d8fb718c02967cf5ce3aa", "fusion_lon": 0.0, "bike_id": "375b9a76d94d8fb718c02967cf5ce3aa", "is_reserved": 0, "type": "electric_scooter", "lat": 38.937472166666666, "fusion_lat": 0.0, "is_disabled": 0}, {"rental_uris": {"android": "https://dc.lft.to/lastmile_qr_scan", "ios": "https://dc.lft.to/lastmile_qr_scan"}, "lon": -77.033401, "name": "0c07ddc93456ef833cc4ccf4b0cba9a9", "fusion_lon": 0.0, "bike_id": "0c07ddc93456ef833cc4ccf4b0cba9a9", "is_reserved": 0, "type": "electric_scooter", "lat": 38.8969005, "fusion_lat": 0.0, "is_disabled": 0}, {"rental_uris": {"android": "https://dc.lft.to/lastmile_qr_scan", "ios": "https://dc.lft.to/lastmile_qr_scan"}, "lon": -77.03440166666667, "name": "73916eb28730bd3cc11b3d9b3e49106c", "fusion_lon": 0.0, "bike_id": "73916eb28730bd3cc11b3d9b3e49106c", "is_reserved": 0, "type": "electric_scooter", "lat": 38.917984833333335, "fusion_lat": 0.0, "is_disabled": 0}, {"rental_uris": {"android": "https://dc.lft.to/lastmile_qr_scan", "ios": "https://dc.lft.to/lastmile_qr_scan"}, "lon": -77.02690983333333, "name": "11f873f7a8c3c1f9c1f52c5744daf621", "fusion_lon": 0.0, "bike_id": "11f873f7a8c3c1f9c1f52c5744daf621", "is_reserved": 0, "type": "electric_scooter", "lat": 38.90699433333333, "fusion_lat": 0.0, "is_disabled": 0}, {"rental_uris": {"android": "https://dc.lft.to/lastmile_qr_scan", "ios": "https://dc.lft.to/lastmile_qr_scan"}, "lon": -77.032093, "name": "0208eed5c395a209a9d9a63228fec0c7", "fusion_lon": 0.0, "bike_id": "0208eed5c395a209a9d9a63228fec0c7", "is_reserved": 0, "type": "electric_scooter", "lat": 38.91417, "fusion_lat": 0.0, "is_disabled": 0}, {"rental_uris": {"android": "https://dc.lft.to/lastmile_qr_scan", "ios": "https://dc.lft.to/lastmile_qr_scan"}, "lon": -77.042111, "name": "264b9f8a72a957dba4fa79bf62ed83a8", "fusion_lon": 0.0, "bike_id": "264b9f8a72a957dba4fa79bf62ed83a8", "is_reserved": 0, "type": "electric_scooter", "lat": 38.919246666666666, "fusion_lat": 0.0, "is_disabled": 0}, {"rental_uris": {"android": "https://dc.lft.to/lastmile_qr_scan", "ios": "https://dc.lft.to/lastmile_qr_scan"}, "lon": -76.99815233333334, "name": "a60c9f9e6d94cf1131feb4121362d0fc", "fusion_lon": 0.0, "bike_id": "a60c9f9e6d94cf1131feb4121362d0fc", "is_reserved": 0, "type": "electric_scooter", "lat": 38.929200333333334, "fusion_lat": 0.0, "is_disabled": 0}, {"rental_uris": {"android": "https://dc.lft.to/lastmile_qr_scan", "ios": "https://dc.lft.to/lastmile_qr_scan"}, "lon": -77.0315975, "name": "d897483c0853046620540561ccaa4946", "fusion_lon": 0.0, "bike_id": "d897483c0853046620540561ccaa4946", "is_reserved": 0, "type": "electric_scooter", "lat": 38.918236666666665, "fusion_lat": 0.0, "is_disabled": 0}, {"rental_uris": {"android": "https://dc.lft.to/lastmile_qr_scan", "ios": "https://dc.lft.to/lastmile_qr_scan"}, "lon": -77.02557683333333, "name": "8818122a5004053a297e25615e633fb8", "fusion_lon": 0.0, "bike_id": "8818122a5004053a297e25615e633fb8", "is_reserved": 0, "type": "electric_scooter", "lat": 38.904274, "fusion_lat": 0.0, "is_disabled": 0}, {"rental_uris": {"android": "https://dc.lft.to/lastmile_qr_scan", "ios": "https://dc.lft.to/lastmile_qr_scan"}, "lon": -77.01869616666667, "name": "61d8c439312f24fb992f5a748544431a", "fusion_lon": 0.0, "bike_id": "61d8c439312f24fb992f5a748544431a", "is_reserved": 0, "type": "electric_scooter", "lat": 38.89739266666667, "fusion_lat": 0.0, "is_disabled": 0}, {"rental_uris": {"android": "https://dc.lft.to/lastmile_qr_scan", "ios": "https://dc.lft.to/lastmile_qr_scan"}, "lon": -77.01692666666666, "name": "025893a2b35de986c83e85c9d7999030", "fusion_lon": 0.0, "bike_id": "025893a2b35de986c83e85c9d7999030", "is_reserved": 0, "type": "electric_scooter", "lat": 38.88132, "fusion_lat": 0.0, "is_disabled": 0}, {"rental_uris": {"android": "https://dc.lft.to/lastmile_qr_scan", "ios": "https://dc.lft.to/lastmile_qr_scan"}, "lon": -76.9829205, "name": "016cc045726f00d70928644a3b7a0671", "fusion_lon": 0.0, "bike_id": "016cc045726f00d70928644a3b7a0671", "is_reserved": 0, "type": "electric_scooter", "lat": 38.895447833333336, "fusion_lat": 0.0, "is_disabled": 0}, {"rental_uris": {"android": "https://dc.lft.to/lastmile_qr_scan", "ios": "https://dc.lft.to/lastmile_qr_scan"}, "lon": -77.03847483333334, "name": "e8327a2a04cc5d6e8c7aac1412d7884b", "fusion_lon": 0.0, "bike_id": "e8327a2a04cc5d6e8c7aac1412d7884b", "is_reserved": 0, "type": "electric_scooter", "lat": 38.9026705, "fusion_lat": 0.0, "is_disabled": 0}, {"rental_uris": {"android": "https://dc.lft.to/lastmile_qr_scan", "ios": "https://dc.lft.to/lastmile_qr_scan"}, "lon": -77.022169, "name": "bd6dbd1032fa88e0bde737ae30364ab8", "fusion_lon": 0.0, "bike_id": "bd6dbd1032fa88e0bde737ae30364ab8", "is_reserved": 0, "type": "electric_scooter", "lat": 38.93400483333333, "fusion_lat": 0.0, "is_disabled": 0}, {"rental_uris": {"android": "https://dc.lft.to/lastmile_qr_scan", "ios": "https://dc.lft.to/lastmile_qr_scan"}, "lon": -77.00225083333333, "name": "88aa25d5ad8c6834620075493b3ffa36", "fusion_lon": 0.0, "bike_id": "88aa25d5ad8c6834620075493b3ffa36", "is_reserved": 0, "type": "electric_scooter", "lat": 38.90715516666667, "fusion_lat": 0.0, "is_disabled": 0}, {"rental_uris": {"android": "https://dc.lft.to/lastmile_qr_scan", "ios": "https://dc.lft.to/lastmile_qr_scan"}, "lon": -76.97625516666666, "name": "8ba6ea0c631f70b8552169c106a934b8", "fusion_lon": 0.0, "bike_id": "8ba6ea0c631f70b8552169c106a934b8", "is_reserved": 0, "type": "electric_bike", "lat": 38.84042783333334, "fusion_lat": 0.0, "is_disabled": 0}, {"rental_uris": {"android": "https://dc.lft.to/lastmile_qr_scan", "ios": "https://dc.lft.to/lastmile_qr_scan"}, "lon": -77.04229216666667, "name": "98b899b9ea5570b6df054ce0f62aed0d", "fusion_lon": 0.0, "bike_id": "98b899b9ea5570b6df054ce0f62aed0d", "is_reserved": 0, "type": "electric_scooter", "lat": 38.92184433333333, "fusion_lat": 0.0, "is_disabled": 0}, {"rental_uris": {"android": "https://dc.lft.to/lastmile_qr_scan", "ios": "https://dc.lft.to/lastmile_qr_scan"}, "lon": -77.01183266666666, "name": "7f0cc6ed13c57c04fbba51f00c1924fb", "fusion_lon": 0.0, "bike_id": "7f0cc6ed13c57c04fbba51f00c1924fb", "is_reserved": 0, "type": "electric_scooter", "lat": 38.8979785, "fusion_lat": 0.0, "is_disabled": 0}, {"rental_uris": {"android": "https://dc.lft.to/lastmile_qr_scan", "ios": "https://dc.lft.to/lastmile_qr_scan"}, "lon": -77.02557483333334, "name": "2b4c2f37d472a17a0d239a8e5812c9eb", "fusion_lon": 0.0, "bike_id": "2b4c2f37d472a17a0d239a8e5812c9eb", "is_reserved": 0, "type": "electric_scooter", "lat": 38.88060866666667, "fusion_lat": 0.0, "is_disabled": 0}, {"rental_uris": {"android": "https://dc.lft.to/lastmile_qr_scan", "ios": "https://dc.lft.to/lastmile_qr_scan"}, "lon": -76.98072033333334, "name": "710d06ee3ebddb8de7d3dda29c9199bd", "fusion_lon": 0.0, "bike_id": "710d06ee3ebddb8de7d3dda29c9199bd", "is_reserved": 0, "type": "electric_scooter", "lat": 38.86719566666667, "fusion_lat": 0.0, "is_disabled": 0}, {"rental_uris": {"android": "https://dc.lft.to/lastmile_qr_scan", "ios": "https://dc.lft.to/lastmile_qr_scan"}, "lon": -77.03639616666666, "name": "d0583b7dc5a1a08a5e7948cccfcee8b2", "fusion_lon": 0.0, "bike_id": "d0583b7dc5a1a08a5e7948cccfcee8b2", "is_reserved": 0, "type": "electric_scooter", "lat": 38.9181535, "fusion_lat": 0.0, "is_disabled": 0}, {"rental_uris": {"android": "https://dc.lft.to/lastmile_qr_scan", "ios": "https://dc.lft.to/lastmile_qr_scan"}, "lon": -77.0343925, "name": "52d3a31ac8beaa3b322aa385611357dc", "fusion_lon": 0.0, "bike_id": "52d3a31ac8beaa3b322aa385611357dc", "is_reserved": 0, "type": "electric_scooter", "lat": 38.918063833333335, "fusion_lat": 0.0, "is_disabled": 0}, {"rental_uris": {"android": "https://dc.lft.to/lastmile_qr_scan", "ios": "https://dc.lft.to/lastmile_qr_scan"}, "lon": -76.988289, "name": "6bb4e9938ff47fbd93b3bbf8702806d8", "fusion_lon": 0.0, "bike_id": "6bb4e9938ff47fbd93b3bbf8702806d8", "is_reserved": 0, "type": "electric_scooter", "lat": 38.90046366666667, "fusion_lat": 0.0, "is_disabled": 0}, {"rental_uris": {"android": "https://dc.lft.to/lastmile_qr_scan", "ios": "https://dc.lft.to/lastmile_qr_scan"}, "lon": -77.04012916666667, "name": "3522f3f2a5e9f503b4015f2ff4c015fd", "fusion_lon": 0.0, "bike_id": "3522f3f2a5e9f503b4015f2ff4c015fd", "is_reserved": 0, "type": "electric_scooter", "lat": 38.89634083333333, "fusion_lat": 0.0, "is_disabled": 0}, {"rental_uris": {"android": "https://dc.lft.to/lastmile_qr_scan", "ios": "https://dc.lft.to/lastmile_qr_scan"}, "lon": -77.02079366666666, "name": "71288fa65944cff0a31f9b46b1a8f9c6", "fusion_lon": 0.0, "bike_id": "71288fa65944cff0a31f9b46b1a8f9c6", "is_reserved": 0, "type": "electric_scooter", "lat": 38.90186833333333, "fusion_lat": 0.0, "is_disabled": 0}, {"rental_uris": {"android": "https://dc.lft.to/lastmile_qr_scan", "ios": "https://dc.lft.to/lastmile_qr_scan"}, "lon": -77.03863266666667, "name": "c82f22d4478b7b0a45c2fc020066d3f4", "fusion_lon": 0.0, "bike_id": "c82f22d4478b7b0a45c2fc020066d3f4", "is_reserved": 0, "type": "electric_scooter", "lat": 38.9035445, "fusion_lat": 0.0, "is_disabled": 0}, {"rental_uris": {"android": "https://dc.lft.to/lastmile_qr_scan", "ios": "https://dc.lft.to/lastmile_qr_scan"}, "lon": -77.024633, "name": "2a03cb98fc2b709273ee13fd8006b02f", "fusion_lon": 0.0, "bike_id": "2a03cb98fc2b709273ee13fd8006b02f", "is_reserved": 0, "type": "electric_scooter", "lat": 38.916678833333336, "fusion_lat": 0.0, "is_disabled": 0}, {"rental_uris": {"android": "https://dc.lft.to/lastmile_qr_scan", "ios": "https://dc.lft.to/lastmile_qr_scan"}, "lon": -77.04361883333333, "name": "5752a89601c075a3793af019a1051970", "fusion_lon": 0.0, "bike_id": "5752a89601c075a3793af019a1051970", "is_reserved": 0, "type": "electric_scooter", "lat": 38.9196115, "fusion_lat": 0.0, "is_disabled": 0}, {"rental_uris": {"android": "https://dc.lft.to/lastmile_qr_scan", "ios": "https://dc.lft.to/lastmile_qr_scan"}, "lon": -77.05261016666667, "name": "f3f2b694efaad338eef6d942288aaaf9", "fusion_lon": 0.0, "bike_id": "f3f2b694efaad338eef6d942288aaaf9", "is_reserved": 0, "type": "electric_scooter", "lat": 38.9276405, "fusion_lat": 0.0, "is_disabled": 0}, {"rental_uris": {"android": "https://dc.lft.to/lastmile_qr_scan", "ios": "https://dc.lft.to/lastmile_qr_scan"}, "lon": -77.02477133333333, "name": "4da003ed041835cf2fc8f24e53f6adb7", "fusion_lon": 0.0, "bike_id": "4da003ed041835cf2fc8f24e53f6adb7", "is_reserved": 0, "type": "electric_scooter", "lat": 38.938582833333335, "fusion_lat": 0.0, "is_disabled": 0}, {"rental_uris": {"android": "https://dc.lft.to/lastmile_qr_scan", "ios": "https://dc.lft.to/lastmile_qr_scan"}, "lon": -76.98050966666666, "name": "944a4962b5dcf76c39412fb52b407feb", "fusion_lon": 0.0, "bike_id": "944a4962b5dcf76c39412fb52b407feb", "is_reserved": 0, "type": "electric_scooter", "lat": 38.88533433333333, "fusion_lat": 0.0, "is_disabled": 0}, {"rental_uris": {"android": "https://dc.lft.to/lastmile_qr_scan", "ios": "https://dc.lft.to/lastmile_qr_scan"}, "lon": -76.99042616666667, "name": "628b4a53849ad8d0e13cfc19862d518b", "fusion_lon": 0.0, "bike_id": "628b4a53849ad8d0e13cfc19862d518b", "is_reserved": 0, "type": "electric_scooter", "lat": 38.865819333333334, "fusion_lat": 0.0, "is_disabled": 0}, {"rental_uris": {"android": "https://dc.lft.to/lastmile_qr_scan", "ios": "https://dc.lft.to/lastmile_qr_scan"}, "lon": -77.022978, "name": "b4d541934295f8b9dc9344d6e7aa2d68", "fusion_lon": 0.0, "bike_id": "b4d541934295f8b9dc9344d6e7aa2d68", "is_reserved": 0, "type": "electric_scooter", "lat": 38.928271333333335, "fusion_lat": 0.0, "is_disabled": 0}, {"rental_uris": {"android": "https://dc.lft.to/lastmile_qr_scan", "ios": "https://dc.lft.to/lastmile_qr_scan"}, "lon": -77.00195133333334, "name": "66c7d9ab2592e43b2826f30e3e0f64aa", "fusion_lon": 0.0, "bike_id": "66c7d9ab2592e43b2826f30e3e0f64aa", "is_reserved": 0, "type": "electric_scooter", "lat": 38.88676, "fusion_lat": 0.0, "is_disabled": 0}, {"rental_uris": {"android": "https://dc.lft.to/lastmile_qr_scan", "ios": "https://dc.lft.to/lastmile_qr_scan"}, "lon": -77.04150366666667, "name": "aac4d5ab9b3ebaf9d0acc064103769b0", "fusion_lon": 0.0, "bike_id": "aac4d5ab9b3ebaf9d0acc064103769b0", "is_reserved": 0, "type": "electric_scooter", "lat": 38.917197, "fusion_lat": 0.0, "is_disabled": 0}, {"rental_uris": {"android": "https://dc.lft.to/lastmile_qr_scan", "ios": "https://dc.lft.to/lastmile_qr_scan"}, "lon": -77.0006145, "name": "f0f690ba273f137a51af071d04833a66", "fusion_lon": 0.0, "bike_id": "f0f690ba273f137a51af071d04833a66", "is_reserved": 0, "type": "electric_scooter", "lat": 38.899969666666664, "fusion_lat": 0.0, "is_disabled": 0}, {"rental_uris": {"android": "https://dc.lft.to/lastmile_qr_scan", "ios": "https://dc.lft.to/lastmile_qr_scan"}, "lon": -77.00248916666666, "name": "dd4d35030dc6a8269f7e72ffe3185425", "fusion_lon": 0.0, "bike_id": "dd4d35030dc6a8269f7e72ffe3185425", "is_reserved": 0, "type": "electric_scooter", "lat": 38.907285, "fusion_lat": 0.0, "is_disabled": 0}, {"rental_uris": {"android": "https://dc.lft.to/lastmile_qr_scan", "ios": "https://dc.lft.to/lastmile_qr_scan"}, "lon": -77.022013, "name": "ab1f4ac8245417c28044784fa3bea711", "fusion_lon": 0.0, "bike_id": "ab1f4ac8245417c28044784fa3bea711", "is_reserved": 0, "type": "electric_scooter", "lat": 38.915489666666666, "fusion_lat": 0.0, "is_disabled": 0}, {"rental_uris": {"android": "https://dc.lft.to/lastmile_qr_scan", "ios": "https://dc.lft.to/lastmile_qr_scan"}, "lon": -76.97678816666667, "name": "4c2aead57cea0214bc20d0cb679faac2", "fusion_lon": 0.0, "bike_id": "4c2aead57cea0214bc20d0cb679faac2", "is_reserved": 0, "type": "electric_scooter", "lat": 38.896163, "fusion_lat": 0.0, "is_disabled": 0}, {"rental_uris": {"android": "https://dc.lft.to/lastmile_qr_scan", "ios": "https://dc.lft.to/lastmile_qr_scan"}, "lon": -76.92999316666666, "name": "4b0010e0e0856467be45b60c6f997691", "fusion_lon": 0.0, "bike_id": "4b0010e0e0856467be45b60c6f997691", "is_reserved": 0, "type": "electric_scooter", "lat": 38.892721333333334, "fusion_lat": 0.0, "is_disabled": 0}, {"rental_uris": {"android": "https://dc.lft.to/lastmile_qr_scan", "ios": "https://dc.lft.to/lastmile_qr_scan"}, "lon": -76.93046816666667, "name": "bdd82af1d621f2caf5e2143c1bbcf818", "fusion_lon": 0.0, "bike_id": "bdd82af1d621f2caf5e2143c1bbcf818", "is_reserved": 0, "type": "electric_scooter", "lat": 38.883797, "fusion_lat": 0.0, "is_disabled": 0}, {"rental_uris": {"android": "https://dc.lft.to/lastmile_qr_scan", "ios": "https://dc.lft.to/lastmile_qr_scan"}, "lon": -76.93023633333334, "name": "ab11e2a73e550a872373b940cbef3afb", "fusion_lon": 0.0, "bike_id": "ab11e2a73e550a872373b940cbef3afb", "is_reserved": 0, "type": "electric_scooter", "lat": 38.90012433333333, "fusion_lat": 0.0, "is_disabled": 0}, {"rental_uris": {"android": "https://dc.lft.to/lastmile_qr_scan", "ios": "https://dc.lft.to/lastmile_qr_scan"}, "lon": -77.031776, "name": "550a5e329b123d0e48daa88e6de7a966", "fusion_lon": 0.0, "bike_id": "550a5e329b123d0e48daa88e6de7a966", "is_reserved": 0, "type": "electric_scooter", "lat": 38.9011515, "fusion_lat": 0.0, "is_disabled": 0}, {"rental_uris": {"android": "https://dc.lft.to/lastmile_qr_scan", "ios": "https://dc.lft.to/lastmile_qr_scan"}, "lon": -77.02153983333334, "name": "aa68ae0d4bbb5ac65cef80ce8c0974ac", "fusion_lon": 0.0, "bike_id": "aa68ae0d4bbb5ac65cef80ce8c0974ac", "is_reserved": 0, "type": "electric_scooter", "lat": 38.879304, "fusion_lat": 0.0, "is_disabled": 0}, {"rental_uris": {"android": "https://dc.lft.to/lastmile_qr_scan", "ios": "https://dc.lft.to/lastmile_qr_scan"}, "lon": -77.0079525, "name": "ddbf900a159b6b94a21dbc719a107453", "fusion_lon": 0.0, "bike_id": "ddbf900a159b6b94a21dbc719a107453", "is_reserved": 0, "type": "electric_scooter", "lat": 38.89718116666667, "fusion_lat": 0.0, "is_disabled": 0}, {"rental_uris": {"android": "https://dc.lft.to/lastmile_qr_scan", "ios": "https://dc.lft.to/lastmile_qr_scan"}, "lon": -77.01022266666666, "name": "bccadeccfe1885802876e435c33a146d", "fusion_lon": 0.0, "bike_id": "bccadeccfe1885802876e435c33a146d", "is_reserved": 0, "type": "electric_scooter", "lat": 38.916542, "fusion_lat": 0.0, "is_disabled": 0}, {"rental_uris": {"android": "https://dc.lft.to/lastmile_qr_scan", "ios": "https://dc.lft.to/lastmile_qr_scan"}, "lon": -76.993248, "name": "8abcc6649681f6dab2d5480c91637d65", "fusion_lon": 0.0, "bike_id": "8abcc6649681f6dab2d5480c91637d65", "is_reserved": 0, "type": "electric_scooter", "lat": 38.906265, "fusion_lat": 0.0, "is_disabled": 0}, {"rental_uris": {"android": "https://dc.lft.to/lastmile_qr_scan", "ios": "https://dc.lft.to/lastmile_qr_scan"}, "lon": -76.980706, "name": "788cee560e5670d13cab637a36e26783", "fusion_lon": 0.0, "bike_id": "788cee560e5670d13cab637a36e26783", "is_reserved": 0, "type": "electric_scooter", "lat": 38.901713, "fusion_lat": 0.0, "is_disabled": 0}, {"rental_uris": {"android": "https://dc.lft.to/lastmile_qr_scan", "ios": "https://dc.lft.to/lastmile_qr_scan"}, "lon": -77.02155233333333, "name": "f9abf113e556f12913f28cd27cd33aac", "fusion_lon": 0.0, "bike_id": "f9abf113e556f12913f28cd27cd33aac", "is_reserved": 0, "type": "electric_scooter", "lat": 38.9261145, "fusion_lat": 0.0, "is_disabled": 0}, {"rental_uris": {"android": "https://dc.lft.to/lastmile_qr_scan", "ios": "https://dc.lft.to/lastmile_qr_scan"}, "lon": -77.03242, "name": "6c504e7dfd62d7d16a5a7ae812e35a4e", "fusion_lon": 0.0, "bike_id": "6c504e7dfd62d7d16a5a7ae812e35a4e", "is_reserved": 0, "type": "electric_scooter", "lat": 38.9287155, "fusion_lat": 0.0, "is_disabled": 0}, {"rental_uris": {"android": "https://dc.lft.to/lastmile_qr_scan", "ios": "https://dc.lft.to/lastmile_qr_scan"}, "lon": -77.0217315, "name": "10335447bb25b00f208ca1dd6523fa15", "fusion_lon": 0.0, "bike_id": "10335447bb25b00f208ca1dd6523fa15", "is_reserved": 0, "type": "electric_scooter", "lat": 38.902059666666666, "fusion_lat": 0.0, "is_disabled": 0}, {"rental_uris": {"android": "https://dc.lft.to/lastmile_qr_scan", "ios": "https://dc.lft.to/lastmile_qr_scan"}, "lon": -77.01982816666667, "name": "b06b8c1073929f4a13a944c6417e9800", "fusion_lon": 0.0, "bike_id": "b06b8c1073929f4a13a944c6417e9800", "is_reserved": 0, "type": "electric_scooter", "lat": 38.883543, "fusion_lat": 0.0, "is_disabled": 0}, {"rental_uris": {"android": "https://dc.lft.to/lastmile_qr_scan", "ios": "https://dc.lft.to/lastmile_qr_scan"}, "lon": -77.03277483333333, "name": "e62eb77883ede96d202f992dc4dbe30b", "fusion_lon": 0.0, "bike_id": "e62eb77883ede96d202f992dc4dbe30b", "is_reserved": 0, "type": "electric_scooter", "lat": 38.94877916666667, "fusion_lat": 0.0, "is_disabled": 0}, {"rental_uris": {"android": "https://dc.lft.to/lastmile_qr_scan", "ios": "https://dc.lft.to/lastmile_qr_scan"}, "lon": -77.04965283333334, "name": "4cb1944b38a2a5040d610b4e3506ee08", "fusion_lon": 0.0, "bike_id": "4cb1944b38a2a5040d610b4e3506ee08", "is_reserved": 0, "type": "electric_scooter", "lat": 38.90543483333333, "fusion_lat": 0.0, "is_disabled": 0}, {"rental_uris": {"android": "https://dc.lft.to/lastmile_qr_scan", "ios": "https://dc.lft.to/lastmile_qr_scan"}, "lon": -77.05909116666666, "name": "740fef32f7f9519a55c0c56411697d32", "fusion_lon": 0.0, "bike_id": "740fef32f7f9519a55c0c56411697d32", "is_reserved": 0, "type": "electric_scooter", "lat": 38.90197033333333, "fusion_lat": 0.0, "is_disabled": 0}, {"rental_uris": {"android": "https://dc.lft.to/lastmile_qr_scan", "ios": "https://dc.lft.to/lastmile_qr_scan"}, "lon": -77.01696633333333, "name": "79d637ab8f11e43a955c85d0ca68a301", "fusion_lon": 0.0, "bike_id": "79d637ab8f11e43a955c85d0ca68a301", "is_reserved": 0, "type": "electric_scooter", "lat": 38.975004, "fusion_lat": 0.0, "is_disabled": 0}, {"rental_uris": {"android": "https://dc.lft.to/lastmile_qr_scan", "ios": "https://dc.lft.to/lastmile_qr_scan"}, "lon": -76.993763, "name": "5f8716e2802060aec1a5b275732026af", "fusion_lon": 0.0, "bike_id": "5f8716e2802060aec1a5b275732026af", "is_reserved": 0, "type": "electric_scooter", "lat": 38.90647583333333, "fusion_lat": 0.0, "is_disabled": 0}, {"rental_uris": {"android": "https://dc.lft.to/lastmile_qr_scan", "ios": "https://dc.lft.to/lastmile_qr_scan"}, "lon": -77.04471633333333, "name": "39a0a1acbe35bf38f4714687bebd2d9e", "fusion_lon": 0.0, "bike_id": "39a0a1acbe35bf38f4714687bebd2d9e", "is_reserved": 0, "type": "electric_scooter", "lat": 38.895301833333335, "fusion_lat": 0.0, "is_disabled": 0}, {"rental_uris": {"android": "https://dc.lft.to/lastmile_qr_scan", "ios": "https://dc.lft.to/lastmile_qr_scan"}, "lon": -77.04585116666667, "name": "977c57f5312d3dfd6dc6a4bc5c6ef8d4", "fusion_lon": 0.0, "bike_id": "977c57f5312d3dfd6dc6a4bc5c6ef8d4", "is_reserved": 0, "type": "electric_scooter", "lat": 38.9214575, "fusion_lat": 0.0, "is_disabled": 0}, {"rental_uris": {"android": "https://dc.lft.to/lastmile_qr_scan", "ios": "https://dc.lft.to/lastmile_qr_scan"}, "lon": -77.04187666666667, "name": "50cc8bcc832d199432715fea4d931cb1", "fusion_lon": 0.0, "bike_id": "50cc8bcc832d199432715fea4d931cb1", "is_reserved": 0, "type": "electric_scooter", "lat": 38.92057366666667, "fusion_lat": 0.0, "is_disabled": 0}, {"rental_uris": {"android": "https://dc.lft.to/lastmile_qr_scan", "ios": "https://dc.lft.to/lastmile_qr_scan"}, "lon": -77.03230016666667, "name": "39dc7ab41df0b35f020dcb2770c0364d", "fusion_lon": 0.0, "bike_id": "39dc7ab41df0b35f020dcb2770c0364d", "is_reserved": 0, "type": "electric_scooter", "lat": 38.914962833333334, "fusion_lat": 0.0, "is_disabled": 0}, {"rental_uris": {"android": "https://dc.lft.to/lastmile_qr_scan", "ios": "https://dc.lft.to/lastmile_qr_scan"}, "lon": -77.02678066666667, "name": "3522ed3e61288e40d2235b33bd5dc265", "fusion_lon": 0.0, "bike_id": "3522ed3e61288e40d2235b33bd5dc265", "is_reserved": 0, "type": "electric_scooter", "lat": 38.89460666666667, "fusion_lat": 0.0, "is_disabled": 0}, {"rental_uris": {"android": "https://dc.lft.to/lastmile_qr_scan", "ios": "https://dc.lft.to/lastmile_qr_scan"}, "lon": -77.0168405, "name": "12e3f1a4cda450a3f40fe3d1ebf2b9db", "fusion_lon": 0.0, "bike_id": "12e3f1a4cda450a3f40fe3d1ebf2b9db", "is_reserved": 0, "type": "electric_scooter", "lat": 38.920472, "fusion_lat": 0.0, "is_disabled": 0}, {"rental_uris": {"android": "https://dc.lft.to/lastmile_qr_scan", "ios": "https://dc.lft.to/lastmile_qr_scan"}, "lon": -76.95057716666666, "name": "a4b3af74f65d22dc3cd6d43fd8101b28", "fusion_lon": 0.0, "bike_id": "a4b3af74f65d22dc3cd6d43fd8101b28", "is_reserved": 0, "type": "electric_bike", "lat": 39.08493433333334, "fusion_lat": 0.0, "is_disabled": 0}, {"rental_uris": {"android": "https://dc.lft.to/lastmile_qr_scan", "ios": "https://dc.lft.to/lastmile_qr_scan"}, "lon": -76.99086266666667, "name": "19a317cbaff7058f30eff75c28dfec27", "fusion_lon": 0.0, "bike_id": "19a317cbaff7058f30eff75c28dfec27", "is_reserved": 0, "type": "electric_bike", "lat": 38.931733333333334, "fusion_lat": 0.0, "is_disabled": 0}, {"rental_uris": {"android": "https://dc.lft.to/lastmile_qr_scan", "ios": "https://dc.lft.to/lastmile_qr_scan"}, "lon": -77.04198366666667, "name": "07d06ec4fb4ae3c7af63ad3687b94056", "fusion_lon": 0.0, "bike_id": "07d06ec4fb4ae3c7af63ad3687b94056", "is_reserved": 0, "type": "electric_scooter", "lat": 38.905613333333335, "fusion_lat": 0.0, "is_disabled": 0}, {"rental_uris": {"android": "https://dc.lft.to/lastmile_qr_scan", "ios": "https://dc.lft.to/lastmile_qr_scan"}, "lon": -77.02350466666667, "name": "96b3ebaae0d05bee8ca718bcb5de06c8", "fusion_lon": 0.0, "bike_id": "96b3ebaae0d05bee8ca718bcb5de06c8", "is_reserved": 0, "type": "electric_scooter", "lat": 38.91558666666667, "fusion_lat": 0.0, "is_disabled": 0}, {"rental_uris": {"android": "https://dc.lft.to/lastmile_qr_scan", "ios": "https://dc.lft.to/lastmile_qr_scan"}, "lon": -77.03562233333334, "name": "1a79e9ddb7accaaf7f84a51159677f52", "fusion_lon": 0.0, "bike_id": "1a79e9ddb7accaaf7f84a51159677f52", "is_reserved": 0, "type": "electric_scooter", "lat": 38.9187155, "fusion_lat": 0.0, "is_disabled": 0}, {"rental_uris": {"android": "https://dc.lft.to/lastmile_qr_scan", "ios": "https://dc.lft.to/lastmile_qr_scan"}, "lon": -77.02108616666666, "name": "1c273fe3edfdb9e8e57b7708ef747c0a", "fusion_lon": 0.0, "bike_id": "1c273fe3edfdb9e8e57b7708ef747c0a", "is_reserved": 0, "type": "electric_scooter", "lat": 38.9275625, "fusion_lat": 0.0, "is_disabled": 0}, {"rental_uris": {"android": "https://dc.lft.to/lastmile_qr_scan", "ios": "https://dc.lft.to/lastmile_qr_scan"}, "lon": -77.01956016666666, "name": "11e184760f989f7be72c08a0eee956fb", "fusion_lon": 0.0, "bike_id": "11e184760f989f7be72c08a0eee956fb", "is_reserved": 0, "type": "electric_scooter", "lat": 38.92326166666667, "fusion_lat": 0.0, "is_disabled": 0}, {"rental_uris": {"android": "https://dc.lft.to/lastmile_qr_scan", "ios": "https://dc.lft.to/lastmile_qr_scan"}, "lon": -76.98374466666667, "name": "8f0a8e4357f35492a233ed4c2c2f31a4", "fusion_lon": 0.0, "bike_id": "8f0a8e4357f35492a233ed4c2c2f31a4", "is_reserved": 0, "type": "electric_scooter", "lat": 38.8872755, "fusion_lat": 0.0, "is_disabled": 0}, {"rental_uris": {"android": "https://dc.lft.to/lastmile_qr_scan", "ios": "https://dc.lft.to/lastmile_qr_scan"}, "lon": -77.0442555, "name": "47879b65adb2d85f114de1b6f5ae4c6d", "fusion_lon": 0.0, "bike_id": "47879b65adb2d85f114de1b6f5ae4c6d", "is_reserved": 0, "type": "electric_scooter", "lat": 38.9212505, "fusion_lat": 0.0, "is_disabled": 0}, {"rental_uris": {"android": "https://dc.lft.to/lastmile_qr_scan", "ios": "https://dc.lft.to/lastmile_qr_scan"}, "lon": -77.0317005, "name": "b77b1a510d03f63c2dc0570ca9d78872", "fusion_lon": 0.0, "bike_id": "b77b1a510d03f63c2dc0570ca9d78872", "is_reserved": 0, "type": "electric_scooter", "lat": 38.914148, "fusion_lat": 0.0, "is_disabled": 0}, {"rental_uris": {"android": "https://dc.lft.to/lastmile_qr_scan", "ios": "https://dc.lft.to/lastmile_qr_scan"}, "lon": -77.031972, "name": "4e8361a0090d40708778062b542c052c", "fusion_lon": 0.0, "bike_id": "4e8361a0090d40708778062b542c052c", "is_reserved": 0, "type": "electric_scooter", "lat": 38.915031, "fusion_lat": 0.0, "is_disabled": 0}, {"rental_uris": {"android": "https://dc.lft.to/lastmile_qr_scan", "ios": "https://dc.lft.to/lastmile_qr_scan"}, "lon": -77.04833616666667, "name": "2dc1a8c710e47363d35b88276554851a", "fusion_lon": 0.0, "bike_id": "2dc1a8c710e47363d35b88276554851a", "is_reserved": 0, "type": "electric_scooter", "lat": 38.899597, "fusion_lat": 0.0, "is_disabled": 0}, {"rental_uris": {"android": "https://dc.lft.to/lastmile_qr_scan", "ios": "https://dc.lft.to/lastmile_qr_scan"}, "lon": -77.04533916666666, "name": "9ebf981072526d49c83632eb55f08e74", "fusion_lon": 0.0, "bike_id": "9ebf981072526d49c83632eb55f08e74", "is_reserved": 0, "type": "electric_scooter", "lat": 38.8944775, "fusion_lat": 0.0, "is_disabled": 0}, {"rental_uris": {"android": "https://dc.lft.to/lastmile_qr_scan", "ios": "https://dc.lft.to/lastmile_qr_scan"}, "lon": -77.04139733333334, "name": "edd1f62a3520baf1594ac77b69506938", "fusion_lon": 0.0, "bike_id": "edd1f62a3520baf1594ac77b69506938", "is_reserved": 0, "type": "electric_scooter", "lat": 38.89578566666667, "fusion_lat": 0.0, "is_disabled": 0}, {"rental_uris": {"android": "https://dc.lft.to/lastmile_qr_scan", "ios": "https://dc.lft.to/lastmile_qr_scan"}, "lon": -77.005824, "name": "320f193610d272354bb40601999440d5", "fusion_lon": 0.0, "bike_id": "320f193610d272354bb40601999440d5", "is_reserved": 0, "type": "electric_scooter", "lat": 38.905689333333335, "fusion_lat": 0.0, "is_disabled": 0}, {"rental_uris": {"android": "https://dc.lft.to/lastmile_qr_scan", "ios": "https://dc.lft.to/lastmile_qr_scan"}, "lon": -77.01355016666666, "name": "d4f6c9bf94b92ff9a2553276838f4e7a", "fusion_lon": 0.0, "bike_id": "d4f6c9bf94b92ff9a2553276838f4e7a", "is_reserved": 0, "type": "electric_scooter", "lat": 38.892388, "fusion_lat": 0.0, "is_disabled": 0}, {"rental_uris": {"android": "https://dc.lft.to/lastmile_qr_scan", "ios": "https://dc.lft.to/lastmile_qr_scan"}, "lon": -77.02123166666667, "name": "7966bc9d41938da878e07f75f4f39005", "fusion_lon": 0.0, "bike_id": "7966bc9d41938da878e07f75f4f39005", "is_reserved": 0, "type": "electric_scooter", "lat": 38.923215166666665, "fusion_lat": 0.0, "is_disabled": 0}, {"rental_uris": {"android": "https://dc.lft.to/lastmile_qr_scan", "ios": "https://dc.lft.to/lastmile_qr_scan"}, "lon": -77.01933783333334, "name": "06220b8082af316605fe469e7a63e937", "fusion_lon": 0.0, "bike_id": "06220b8082af316605fe469e7a63e937", "is_reserved": 0, "type": "electric_scooter", "lat": 38.89469883333334, "fusion_lat": 0.0, "is_disabled": 0}, {"rental_uris": {"android": "https://dc.lft.to/lastmile_qr_scan", "ios": "https://dc.lft.to/lastmile_qr_scan"}, "lon": -77.02762933333334, "name": "55508f6078f6eac950785f11b462a9ac", "fusion_lon": 0.0, "bike_id": "55508f6078f6eac950785f11b462a9ac", "is_reserved": 0, "type": "electric_scooter", "lat": 38.901091666666666, "fusion_lat": 0.0, "is_disabled": 0}, {"rental_uris": {"android": "https://dc.lft.to/lastmile_qr_scan", "ios": "https://dc.lft.to/lastmile_qr_scan"}, "lon": -77.0560055, "name": "4ca9a1347ef49146ae9ed98b1c788baf", "fusion_lon": 0.0, "bike_id": "4ca9a1347ef49146ae9ed98b1c788baf", "is_reserved": 0, "type": "electric_scooter", "lat": 38.9359765, "fusion_lat": 0.0, "is_disabled": 0}, {"rental_uris": {"android": "https://dc.lft.to/lastmile_qr_scan", "ios": "https://dc.lft.to/lastmile_qr_scan"}, "lon": -77.05408983333334, "name": "1fa6d9ff2783bd558aa3c1ad89f9b1d0", "fusion_lon": 0.0, "bike_id": "1fa6d9ff2783bd558aa3c1ad89f9b1d0", "is_reserved": 0, "type": "electric_bike", "lat": 38.848841166666666, "fusion_lat": 0.0, "is_disabled": 0}, {"rental_uris": {"android": "https://dc.lft.to/lastmile_qr_scan", "ios": "https://dc.lft.to/lastmile_qr_scan"}, "lon": -77.07032166666667, "name": "f56699f736926dcca4b903f4479a4be3", "fusion_lon": 0.0, "bike_id": "f56699f736926dcca4b903f4479a4be3", "is_reserved": 0, "type": "electric_bike", "lat": 38.922593166666665, "fusion_lat": 0.0, "is_disabled": 0}, {"rental_uris": {"android": "https://dc.lft.to/lastmile_qr_scan", "ios": "https://dc.lft.to/lastmile_qr_scan"}, "lon": -76.98371433333334, "name": "2917dff6f9d587f2774717aaa9a180a8", "fusion_lon": 0.0, "bike_id": "2917dff6f9d587f2774717aaa9a180a8", "is_reserved": 0, "type": "electric_scooter", "lat": 38.88727383333333, "fusion_lat": 0.0, "is_disabled": 0}, {"rental_uris": {"android": "https://dc.lft.to/lastmile_qr_scan", "ios": "https://dc.lft.to/lastmile_qr_scan"}, "lon": -77.04913866666666, "name": "02b1b705ba2816c5567152dd5306ad76", "fusion_lon": 0.0, "bike_id": "02b1b705ba2816c5567152dd5306ad76", "is_reserved": 0, "type": "electric_scooter", "lat": 38.900790666666666, "fusion_lat": 0.0, "is_disabled": 0}, {"rental_uris": {"android": "https://dc.lft.to/lastmile_qr_scan", "ios": "https://dc.lft.to/lastmile_qr_scan"}, "lon": -77.05657066666667, "name": "c72a940be65911c199a011302c05f2ce", "fusion_lon": 0.0, "bike_id": "c72a940be65911c199a011302c05f2ce", "is_reserved": 0, "type": "electric_bike", "lat": 38.91673766666667, "fusion_lat": 0.0, "is_disabled": 0}, {"rental_uris": {"android": "https://dc.lft.to/lastmile_qr_scan", "ios": "https://dc.lft.to/lastmile_qr_scan"}, "lon": -77.022051, "name": "e5160bbd780fd6898e170e911e9c4e3a", "fusion_lon": 0.0, "bike_id": "e5160bbd780fd6898e170e911e9c4e3a", "is_reserved": 0, "type": "electric_scooter", "lat": 38.90199966666667, "fusion_lat": 0.0, "is_disabled": 0}, {"rental_uris": {"android": "https://dc.lft.to/lastmile_qr_scan", "ios": "https://dc.lft.to/lastmile_qr_scan"}, "lon": -77.0264045, "name": "251d6ff2802342c95859008b635745ab", "fusion_lon": 0.0, "bike_id": "251d6ff2802342c95859008b635745ab", "is_reserved": 0, "type": "electric_scooter", "lat": 38.89214333333334, "fusion_lat": 0.0, "is_disabled": 0}, {"rental_uris": {"android": "https://dc.lft.to/lastmile_qr_scan", "ios": "https://dc.lft.to/lastmile_qr_scan"}, "lon": -77.01585983333334, "name": "4ac21ce4286f4cc507fff2d51c5dbfce", "fusion_lon": 0.0, "bike_id": "4ac21ce4286f4cc507fff2d51c5dbfce", "is_reserved": 0, "type": "electric_scooter", "lat": 38.8978695, "fusion_lat": 0.0, "is_disabled": 0}, {"rental_uris": {"android": "https://dc.lft.to/lastmile_qr_scan", "ios": "https://dc.lft.to/lastmile_qr_scan"}, "lon": -77.02971533333333, "name": "30803805ad30679486f1787fbc7db00c", "fusion_lon": 0.0, "bike_id": "30803805ad30679486f1787fbc7db00c", "is_reserved": 0, "type": "electric_scooter", "lat": 38.905198, "fusion_lat": 0.0, "is_disabled": 0}, {"rental_uris": {"android": "https://dc.lft.to/lastmile_qr_scan", "ios": "https://dc.lft.to/lastmile_qr_scan"}, "lon": -76.98500066666666, "name": "dac6361122f2481769d727ef98633f9f", "fusion_lon": 0.0, "bike_id": "dac6361122f2481769d727ef98633f9f", "is_reserved": 0, "type": "electric_scooter", "lat": 38.880862, "fusion_lat": 0.0, "is_disabled": 0}, {"rental_uris": {"android": "https://dc.lft.to/lastmile_qr_scan", "ios": "https://dc.lft.to/lastmile_qr_scan"}, "lon": -76.97094483333333, "name": "308eace2d92f7c914ce73ff33161c4ad", "fusion_lon": 0.0, "bike_id": "308eace2d92f7c914ce73ff33161c4ad", "is_reserved": 0, "type": "electric_bike", "lat": 38.950327, "fusion_lat": 0.0, "is_disabled": 0}, {"rental_uris": {"android": "https://dc.lft.to/lastmile_qr_scan", "ios": "https://dc.lft.to/lastmile_qr_scan"}, "lon": -77.01940283333333, "name": "cb1dd391baacf35c2641338f72cb3c3e", "fusion_lon": 0.0, "bike_id": "cb1dd391baacf35c2641338f72cb3c3e", "is_reserved": 0, "type": "electric_scooter", "lat": 38.92432433333333, "fusion_lat": 0.0, "is_disabled": 0}, {"rental_uris": {"android": "https://dc.lft.to/lastmile_qr_scan", "ios": "https://dc.lft.to/lastmile_qr_scan"}, "lon": -77.00756183333333, "name": "477b983c78009a05fac7e5d097c76f98", "fusion_lon": 0.0, "bike_id": "477b983c78009a05fac7e5d097c76f98", "is_reserved": 0, "type": "electric_scooter", "lat": 38.90063816666667, "fusion_lat": 0.0, "is_disabled": 0}, {"rental_uris": {"android": "https://dc.lft.to/lastmile_qr_scan", "ios": "https://dc.lft.to/lastmile_qr_scan"}, "lon": -77.04658133333334, "name": "d15a14156ae614da120dbb73f9436d24", "fusion_lon": 0.0, "bike_id": "d15a14156ae614da120dbb73f9436d24", "is_reserved": 0, "type": "electric_bike", "lat": 38.894792, "fusion_lat": 0.0, "is_disabled": 0}, {"rental_uris": {"android": "https://dc.lft.to/lastmile_qr_scan", "ios": "https://dc.lft.to/lastmile_qr_scan"}, "lon": -77.0379895, "name": "d30e4295086e2b98422bc00e13100592", "fusion_lon": 0.0, "bike_id": "d30e4295086e2b98422bc00e13100592", "is_reserved": 0, "type": "electric_scooter", "lat": 38.90670466666667, "fusion_lat": 0.0, "is_disabled": 0}, {"rental_uris": {"android": "https://dc.lft.to/lastmile_qr_scan", "ios": "https://dc.lft.to/lastmile_qr_scan"}, "lon": -76.99014633333333, "name": "3b443c496c54c0672796832ccdcb2306", "fusion_lon": 0.0, "bike_id": "3b443c496c54c0672796832ccdcb2306", "is_reserved": 0, "type": "electric_scooter", "lat": 38.882729833333336, "fusion_lat": 0.0, "is_disabled": 0}, {"rental_uris": {"android": "https://dc.lft.to/lastmile_qr_scan", "ios": "https://dc.lft.to/lastmile_qr_scan"}, "lon": -77.03266, "name": "819172c1297b476313670546a00ac5d4", "fusion_lon": 0.0, "bike_id": "819172c1297b476313670546a00ac5d4", "is_reserved": 0, "type": "electric_scooter", "lat": 38.9325555, "fusion_lat": 0.0, "is_disabled": 0}, {"rental_uris": {"android": "https://dc.lft.to/lastmile_qr_scan", "ios": "https://dc.lft.to/lastmile_qr_scan"}, "lon": -77.03312266666667, "name": "c90dd9e876607b2b6414998c9324058c", "fusion_lon": 0.0, "bike_id": "c90dd9e876607b2b6414998c9324058c", "is_reserved": 0, "type": "electric_scooter", "lat": 38.90223833333334, "fusion_lat": 0.0, "is_disabled": 0}, {"rental_uris": {"android": "https://dc.lft.to/lastmile_qr_scan", "ios": "https://dc.lft.to/lastmile_qr_scan"}, "lon": -77.041178, "name": "f9691af49cbada0fc650d242cd8b5948", "fusion_lon": 0.0, "bike_id": "f9691af49cbada0fc650d242cd8b5948", "is_reserved": 0, "type": "electric_scooter", "lat": 38.92534583333333, "fusion_lat": 0.0, "is_disabled": 0}, {"rental_uris": {"android": "https://dc.lft.to/lastmile_qr_scan", "ios": "https://dc.lft.to/lastmile_qr_scan"}, "lon": -76.95764666666666, "name": "20fcb3d709d30e79db06dc99f1919c8d", "fusion_lon": 0.0, "bike_id": "20fcb3d709d30e79db06dc99f1919c8d", "is_reserved": 0, "type": "electric_scooter", "lat": 38.884407, "fusion_lat": 0.0, "is_disabled": 0}, {"rental_uris": {"android": "https://dc.lft.to/lastmile_qr_scan", "ios": "https://dc.lft.to/lastmile_qr_scan"}, "lon": -77.024905, "name": "1264556f74a257dc624ddb5a0dd55490", "fusion_lon": 0.0, "bike_id": "1264556f74a257dc624ddb5a0dd55490", "is_reserved": 0, "type": "electric_scooter", "lat": 38.9207905, "fusion_lat": 0.0, "is_disabled": 0}, {"rental_uris": {"android": "https://dc.lft.to/lastmile_qr_scan", "ios": "https://dc.lft.to/lastmile_qr_scan"}, "lon": -77.00504133333334, "name": "84a627214d6a22584fc72b0d5bfaedff", "fusion_lon": 0.0, "bike_id": "84a627214d6a22584fc72b0d5bfaedff", "is_reserved": 0, "type": "electric_scooter", "lat": 38.89592316666667, "fusion_lat": 0.0, "is_disabled": 0}, {"rental_uris": {"android": "https://dc.lft.to/lastmile_qr_scan", "ios": "https://dc.lft.to/lastmile_qr_scan"}, "lon": -77.03082616666667, "name": "f7303d4ac98e42c3fafd287089c1f7b1", "fusion_lon": 0.0, "bike_id": "f7303d4ac98e42c3fafd287089c1f7b1", "is_reserved": 0, "type": "electric_scooter", "lat": 38.92251783333333, "fusion_lat": 0.0, "is_disabled": 0}, {"rental_uris": {"android": "https://dc.lft.to/lastmile_qr_scan", "ios": "https://dc.lft.to/lastmile_qr_scan"}, "lon": -77.0213535, "name": "b70b28d6842f95322f1b361086491308", "fusion_lon": 0.0, "bike_id": "b70b28d6842f95322f1b361086491308", "is_reserved": 0, "type": "electric_scooter", "lat": 38.924894, "fusion_lat": 0.0, "is_disabled": 0}, {"rental_uris": {"android": "https://dc.lft.to/lastmile_qr_scan", "ios": "https://dc.lft.to/lastmile_qr_scan"}, "lon": -77.0087325, "name": "297bdae8bbcbafa65e55eacc505b129e", "fusion_lon": 0.0, "bike_id": "297bdae8bbcbafa65e55eacc505b129e", "is_reserved": 0, "type": "electric_scooter", "lat": 38.88376016666667, "fusion_lat": 0.0, "is_disabled": 0}, {"rental_uris": {"android": "https://dc.lft.to/lastmile_qr_scan", "ios": "https://dc.lft.to/lastmile_qr_scan"}, "lon": -77.0715105, "name": "fb78f21ff11eebf90db6add678df8873", "fusion_lon": 0.0, "bike_id": "fb78f21ff11eebf90db6add678df8873", "is_reserved": 0, "type": "electric_scooter", "lat": 38.9087695, "fusion_lat": 0.0, "is_disabled": 0}, {"rental_uris": {"android": "https://dc.lft.to/lastmile_qr_scan", "ios": "https://dc.lft.to/lastmile_qr_scan"}, "lon": -77.02187066666667, "name": "528f96cb18be96f688f5e49b506b1cfc", "fusion_lon": 0.0, "bike_id": "528f96cb18be96f688f5e49b506b1cfc", "is_reserved": 0, "type": "electric_scooter", "lat": 38.9046005, "fusion_lat": 0.0, "is_disabled": 0}, {"rental_uris": {"android": "https://dc.lft.to/lastmile_qr_scan", "ios": "https://dc.lft.to/lastmile_qr_scan"}, "lon": -76.99458016666667, "name": "2058eea548a1eba7fdd03c015522d188", "fusion_lon": 0.0, "bike_id": "2058eea548a1eba7fdd03c015522d188", "is_reserved": 0, "type": "electric_scooter", "lat": 38.8622275, "fusion_lat": 0.0, "is_disabled": 0}, {"rental_uris": {"android": "https://dc.lft.to/lastmile_qr_scan", "ios": "https://dc.lft.to/lastmile_qr_scan"}, "lon": -77.012252, "name": "65d672d5cf9441f2a07b2e4b8c6b3d0a", "fusion_lon": 0.0, "bike_id": "65d672d5cf9441f2a07b2e4b8c6b3d0a", "is_reserved": 0, "type": "electric_bike", "lat": 38.901393666666664, "fusion_lat": 0.0, "is_disabled": 0}, {"rental_uris": {"android": "https://dc.lft.to/lastmile_qr_scan", "ios": "https://dc.lft.to/lastmile_qr_scan"}, "lon": -77.0440615, "name": "efb9a08a5e9c05baf7132d304086111b", "fusion_lon": 0.0, "bike_id": "efb9a08a5e9c05baf7132d304086111b", "is_reserved": 0, "type": "electric_scooter", "lat": 38.8961105, "fusion_lat": 0.0, "is_disabled": 0}, {"rental_uris": {"android": "https://dc.lft.to/lastmile_qr_scan", "ios": "https://dc.lft.to/lastmile_qr_scan"}, "lon": -77.042014, "name": "2267bb49ff8a592aadb1e5397f17ce83", "fusion_lon": 0.0, "bike_id": "2267bb49ff8a592aadb1e5397f17ce83", "is_reserved": 0, "type": "electric_scooter", "lat": 38.902794166666666, "fusion_lat": 0.0, "is_disabled": 0}, {"rental_uris": {"android": "https://dc.lft.to/lastmile_qr_scan", "ios": "https://dc.lft.to/lastmile_qr_scan"}, "lon": -76.99772583333333, "name": "57138780b4cc6058b82e1bd5c947209a", "fusion_lon": 0.0, "bike_id": "57138780b4cc6058b82e1bd5c947209a", "is_reserved": 0, "type": "electric_bike", "lat": 38.92293316666667, "fusion_lat": 0.0, "is_disabled": 0}, {"rental_uris": {"android": "https://dc.lft.to/lastmile_qr_scan", "ios": "https://dc.lft.to/lastmile_qr_scan"}, "lon": -77.00057833333334, "name": "c4b8d800962fb593ab0c86378080e73f", "fusion_lon": 0.0, "bike_id": "c4b8d800962fb593ab0c86378080e73f", "is_reserved": 0, "type": "electric_scooter", "lat": 38.875127166666665, "fusion_lat": 0.0, "is_disabled": 0}, {"rental_uris": {"android": "https://dc.lft.to/lastmile_qr_scan", "ios": "https://dc.lft.to/lastmile_qr_scan"}, "lon": -77.03181416666666, "name": "96505bc5080ac8cd9ef1f3e4c0279777", "fusion_lon": 0.0, "bike_id": "96505bc5080ac8cd9ef1f3e4c0279777", "is_reserved": 0, "type": "electric_scooter", "lat": 38.91607416666667, "fusion_lat": 0.0, "is_disabled": 0}, {"rental_uris": {"android": "https://dc.lft.to/lastmile_qr_scan", "ios": "https://dc.lft.to/lastmile_qr_scan"}, "lon": -76.99847316666667, "name": "5165dced97b2682d38e5466f7c36adad", "fusion_lon": 0.0, "bike_id": "5165dced97b2682d38e5466f7c36adad", "is_reserved": 0, "type": "electric_scooter", "lat": 38.896233, "fusion_lat": 0.0, "is_disabled": 0}, {"rental_uris": {"android": "https://dc.lft.to/lastmile_qr_scan", "ios": "https://dc.lft.to/lastmile_qr_scan"}, "lon": -76.99910766666666, "name": "93035dcc41ef38e9017bf397c787f951", "fusion_lon": 0.0, "bike_id": "93035dcc41ef38e9017bf397c787f951", "is_reserved": 0, "type": "electric_scooter", "lat": 38.9245775, "fusion_lat": 0.0, "is_disabled": 0}, {"rental_uris": {"android": "https://dc.lft.to/lastmile_qr_scan", "ios": "https://dc.lft.to/lastmile_qr_scan"}, "lon": -77.01958633333334, "name": "9ac200a3bedf1af163d81a1f964d97df", "fusion_lon": 0.0, "bike_id": "9ac200a3bedf1af163d81a1f964d97df", "is_reserved": 0, "type": "electric_scooter", "lat": 38.923271166666666, "fusion_lat": 0.0, "is_disabled": 0}, {"rental_uris": {"android": "https://dc.lft.to/lastmile_qr_scan", "ios": "https://dc.lft.to/lastmile_qr_scan"}, "lon": -77.02385933333333, "name": "19fe9632ddcc20f78db4ecb73f0cd085", "fusion_lon": 0.0, "bike_id": "19fe9632ddcc20f78db4ecb73f0cd085", "is_reserved": 0, "type": "electric_scooter", "lat": 38.90991616666667, "fusion_lat": 0.0, "is_disabled": 0}, {"rental_uris": {"android": "https://dc.lft.to/lastmile_qr_scan", "ios": "https://dc.lft.to/lastmile_qr_scan"}, "lon": -77.01949616666667, "name": "e59d27a9f0951222e36edbd6c1690f50", "fusion_lon": 0.0, "bike_id": "e59d27a9f0951222e36edbd6c1690f50", "is_reserved": 0, "type": "electric_scooter", "lat": 38.92257133333333, "fusion_lat": 0.0, "is_disabled": 0}, {"rental_uris": {"android": "https://dc.lft.to/lastmile_qr_scan", "ios": "https://dc.lft.to/lastmile_qr_scan"}, "lon": -77.019967, "name": "2b242874bc6aeff18c9b055a094eb329", "fusion_lon": 0.0, "bike_id": "2b242874bc6aeff18c9b055a094eb329", "is_reserved": 0, "type": "electric_scooter", "lat": 38.875865833333336, "fusion_lat": 0.0, "is_disabled": 0}, {"rental_uris": {"android": "https://dc.lft.to/lastmile_qr_scan", "ios": "https://dc.lft.to/lastmile_qr_scan"}, "lon": -77.00336216666666, "name": "3dd11ce3b0450334b4a11ad1a8db6c83", "fusion_lon": 0.0, "bike_id": "3dd11ce3b0450334b4a11ad1a8db6c83", "is_reserved": 0, "type": "electric_scooter", "lat": 38.918956333333334, "fusion_lat": 0.0, "is_disabled": 0}, {"rental_uris": {"android": "https://dc.lft.to/lastmile_qr_scan", "ios": "https://dc.lft.to/lastmile_qr_scan"}, "lon": -77.05717883333334, "name": "7103c4dcc85e06a91f84ff7ec45d5895", "fusion_lon": 0.0, "bike_id": "7103c4dcc85e06a91f84ff7ec45d5895", "is_reserved": 0, "type": "electric_bike", "lat": 38.917045333333334, "fusion_lat": 0.0, "is_disabled": 0}, {"rental_uris": {"android": "https://dc.lft.to/lastmile_qr_scan", "ios": "https://dc.lft.to/lastmile_qr_scan"}, "lon": -77.02491733333333, "name": "4cdd86db2ec10293d9f8ea2452adbb3d", "fusion_lon": 0.0, "bike_id": "4cdd86db2ec10293d9f8ea2452adbb3d", "is_reserved": 0, "type": "electric_scooter", "lat": 38.923942, "fusion_lat": 0.0, "is_disabled": 0}, {"rental_uris": {"android": "https://dc.lft.to/lastmile_qr_scan", "ios": "https://dc.lft.to/lastmile_qr_scan"}, "lon": -77.02969483333334, "name": "8d900d4859803dd3495d5851a2828110", "fusion_lon": 0.0, "bike_id": "8d900d4859803dd3495d5851a2828110", "is_reserved": 0, "type": "electric_scooter", "lat": 38.923336166666665, "fusion_lat": 0.0, "is_disabled": 0}, {"rental_uris": {"android": "https://dc.lft.to/lastmile_qr_scan", "ios": "https://dc.lft.to/lastmile_qr_scan"}, "lon": -77.0425775, "name": "0d463a4a203c949dd6a9fd17c19b94fa", "fusion_lon": 0.0, "bike_id": "0d463a4a203c949dd6a9fd17c19b94fa", "is_reserved": 0, "type": "electric_scooter", "lat": 38.90793766666667, "fusion_lat": 0.0, "is_disabled": 0}, {"rental_uris": {"android": "https://dc.lft.to/lastmile_qr_scan", "ios": "https://dc.lft.to/lastmile_qr_scan"}, "lon": -77.0232105, "name": "d73fd31c18011c0c66dd44fe4af785f8", "fusion_lon": 0.0, "bike_id": "d73fd31c18011c0c66dd44fe4af785f8", "is_reserved": 0, "type": "electric_scooter", "lat": 38.92069733333334, "fusion_lat": 0.0, "is_disabled": 0}, {"rental_uris": {"android": "https://dc.lft.to/lastmile_qr_scan", "ios": "https://dc.lft.to/lastmile_qr_scan"}, "lon": -77.02754833333333, "name": "a28cc70a3779bf7d8104c60475e8bb4b", "fusion_lon": 0.0, "bike_id": "a28cc70a3779bf7d8104c60475e8bb4b", "is_reserved": 0, "type": "electric_scooter", "lat": 38.93955666666667, "fusion_lat": 0.0, "is_disabled": 0}, {"rental_uris": {"android": "https://dc.lft.to/lastmile_qr_scan", "ios": "https://dc.lft.to/lastmile_qr_scan"}, "lon": -77.02959, "name": "f016dc58082a8e2fe7aeade449c3ee21", "fusion_lon": 0.0, "bike_id": "f016dc58082a8e2fe7aeade449c3ee21", "is_reserved": 0, "type": "electric_scooter", "lat": 38.905791, "fusion_lat": 0.0, "is_disabled": 0}, {"rental_uris": {"android": "https://dc.lft.to/lastmile_qr_scan", "ios": "https://dc.lft.to/lastmile_qr_scan"}, "lon": -77.0287965, "name": "42ec1b56dd7175e4793c400d5dd91a80", "fusion_lon": 0.0, "bike_id": "42ec1b56dd7175e4793c400d5dd91a80", "is_reserved": 0, "type": "electric_scooter", "lat": 38.92672316666667, "fusion_lat": 0.0, "is_disabled": 0}, {"rental_uris": {"android": "https://dc.lft.to/lastmile_qr_scan", "ios": "https://dc.lft.to/lastmile_qr_scan"}, "lon": -77.02215133333333, "name": "dc72af4d0c3d14d540f104e36773cc07", "fusion_lon": 0.0, "bike_id": "dc72af4d0c3d14d540f104e36773cc07", "is_reserved": 0, "type": "electric_scooter", "lat": 38.898457666666665, "fusion_lat": 0.0, "is_disabled": 0}, {"rental_uris": {"android": "https://dc.lft.to/lastmile_qr_scan", "ios": "https://dc.lft.to/lastmile_qr_scan"}, "lon": -76.99624483333334, "name": "f5963535b13600b21ee7c0119e9c378e", "fusion_lon": 0.0, "bike_id": "f5963535b13600b21ee7c0119e9c378e", "is_reserved": 0, "type": "electric_scooter", "lat": 38.93228833333333, "fusion_lat": 0.0, "is_disabled": 0}, {"rental_uris": {"android": "https://dc.lft.to/lastmile_qr_scan", "ios": "https://dc.lft.to/lastmile_qr_scan"}, "lon": -77.003546, "name": "ea44081e36bcf03f51579573ce9d2143", "fusion_lon": 0.0, "bike_id": "ea44081e36bcf03f51579573ce9d2143", "is_reserved": 0, "type": "electric_scooter", "lat": 38.90863083333333, "fusion_lat": 0.0, "is_disabled": 0}, {"rental_uris": {"android": "https://dc.lft.to/lastmile_qr_scan", "ios": "https://dc.lft.to/lastmile_qr_scan"}, "lon": -77.036533, "name": "5c09cf8ca6a2b6bc1e10816e008ab51a", "fusion_lon": 0.0, "bike_id": "5c09cf8ca6a2b6bc1e10816e008ab51a", "is_reserved": 0, "type": "electric_scooter", "lat": 38.923881333333334, "fusion_lat": 0.0, "is_disabled": 0}, {"rental_uris": {"android": "https://dc.lft.to/lastmile_qr_scan", "ios": "https://dc.lft.to/lastmile_qr_scan"}, "lon": -77.02034233333333, "name": "16e4b03b09b51cc325cdee9a4c0789fa", "fusion_lon": 0.0, "bike_id": "16e4b03b09b51cc325cdee9a4c0789fa", "is_reserved": 0, "type": "electric_scooter", "lat": 38.92205466666667, "fusion_lat": 0.0, "is_disabled": 0}, {"rental_uris": {"android": "https://dc.lft.to/lastmile_qr_scan", "ios": "https://dc.lft.to/lastmile_qr_scan"}, "lon": -77.042919, "name": "7bc1cf915b03907a07e00f7db693c113", "fusion_lon": 0.0, "bike_id": "7bc1cf915b03907a07e00f7db693c113", "is_reserved": 0, "type": "electric_scooter", "lat": 38.92261516666667, "fusion_lat": 0.0, "is_disabled": 0}, {"rental_uris": {"android": "https://dc.lft.to/lastmile_qr_scan", "ios": "https://dc.lft.to/lastmile_qr_scan"}, "lon": -76.9936835, "name": "c1f73680765af9345bfdcc06e86b7220", "fusion_lon": 0.0, "bike_id": "c1f73680765af9345bfdcc06e86b7220", "is_reserved": 0, "type": "electric_scooter", "lat": 38.910188833333336, "fusion_lat": 0.0, "is_disabled": 0}, {"rental_uris": {"android": "https://dc.lft.to/lastmile_qr_scan", "ios": "https://dc.lft.to/lastmile_qr_scan"}, "lon": -77.03083666666667, "name": "158549f3c050ffba2fc969e79aa259f6", "fusion_lon": 0.0, "bike_id": "158549f3c050ffba2fc969e79aa259f6", "is_reserved": 0, "type": "electric_scooter", "lat": 38.92031883333333, "fusion_lat": 0.0, "is_disabled": 0}, {"rental_uris": {"android": "https://dc.lft.to/lastmile_qr_scan", "ios": "https://dc.lft.to/lastmile_qr_scan"}, "lon": -76.99403866666667, "name": "39c88db70369909d6339e0302405c853", "fusion_lon": 0.0, "bike_id": "39c88db70369909d6339e0302405c853", "is_reserved": 0, "type": "electric_scooter", "lat": 38.90792016666666, "fusion_lat": 0.0, "is_disabled": 0}, {"rental_uris": {"android": "https://dc.lft.to/lastmile_qr_scan", "ios": "https://dc.lft.to/lastmile_qr_scan"}, "lon": -77.03654216666666, "name": "b9165bc9e1a69fd136aefe47045720ae", "fusion_lon": 0.0, "bike_id": "b9165bc9e1a69fd136aefe47045720ae", "is_reserved": 0, "type": "electric_scooter", "lat": 38.92287116666667, "fusion_lat": 0.0, "is_disabled": 0}, {"rental_uris": {"android": "https://dc.lft.to/lastmile_qr_scan", "ios": "https://dc.lft.to/lastmile_qr_scan"}, "lon": -77.04634966666667, "name": "57c72a06e6728be9ec88896df472f77d", "fusion_lon": 0.0, "bike_id": "57c72a06e6728be9ec88896df472f77d", "is_reserved": 0, "type": "electric_scooter", "lat": 38.919387666666665, "fusion_lat": 0.0, "is_disabled": 0}, {"rental_uris": {"android": "https://dc.lft.to/lastmile_qr_scan", "ios": "https://dc.lft.to/lastmile_qr_scan"}, "lon": -77.059286, "name": "5f3692a7dbfee44be97a24251090b138", "fusion_lon": 0.0, "bike_id": "5f3692a7dbfee44be97a24251090b138", "is_reserved": 0, "type": "electric_scooter", "lat": 38.94309483333333, "fusion_lat": 0.0, "is_disabled": 0}, {"rental_uris": {"android": "https://dc.lft.to/lastmile_qr_scan", "ios": "https://dc.lft.to/lastmile_qr_scan"}, "lon": -77.00493466666667, "name": "881094d86f3de573781ccbcd9c90ff89", "fusion_lon": 0.0, "bike_id": "881094d86f3de573781ccbcd9c90ff89", "is_reserved": 0, "type": "electric_scooter", "lat": 38.896885166666664, "fusion_lat": 0.0, "is_disabled": 0}, {"rental_uris": {"android": "https://dc.lft.to/lastmile_qr_scan", "ios": "https://dc.lft.to/lastmile_qr_scan"}, "lon": -77.002791, "name": "1ed52845b6080e704e9ff1d4f0856c62", "fusion_lon": 0.0, "bike_id": "1ed52845b6080e704e9ff1d4f0856c62", "is_reserved": 0, "type": "electric_bike", "lat": 38.91172916666667, "fusion_lat": 0.0, "is_disabled": 0}, {"rental_uris": {"android": "https://dc.lft.to/lastmile_qr_scan", "ios": "https://dc.lft.to/lastmile_qr_scan"}, "lon": -77.07810933333333, "name": "e4e80555cd271b74d6bc5bbafda98194", "fusion_lon": 0.0, "bike_id": "e4e80555cd271b74d6bc5bbafda98194", "is_reserved": 0, "type": "electric_bike", "lat": 38.8490785, "fusion_lat": 0.0, "is_disabled": 0}, {"rental_uris": {"android": "https://dc.lft.to/lastmile_qr_scan", "ios": "https://dc.lft.to/lastmile_qr_scan"}, "lon": -77.001968, "name": "6a882f810a221747f7b5adf8b161bc45", "fusion_lon": 0.0, "bike_id": "6a882f810a221747f7b5adf8b161bc45", "is_reserved": 0, "type": "electric_scooter", "lat": 38.90240433333334, "fusion_lat": 0.0, "is_disabled": 0}, {"rental_uris": {"android": "https://dc.lft.to/lastmile_qr_scan", "ios": "https://dc.lft.to/lastmile_qr_scan"}, "lon": -77.0722075, "name": "77f3dbdb81ae171bec21a588a89b613b", "fusion_lon": 0.0, "bike_id": "77f3dbdb81ae171bec21a588a89b613b", "is_reserved": 0, "type": "electric_scooter", "lat": 38.9278355, "fusion_lat": 0.0, "is_disabled": 0}, {"rental_uris": {"android": "https://dc.lft.to/lastmile_qr_scan", "ios": "https://dc.lft.to/lastmile_qr_scan"}, "lon": -77.02578016666666, "name": "254b6ffacde9864766b1445121d938d2", "fusion_lon": 0.0, "bike_id": "254b6ffacde9864766b1445121d938d2", "is_reserved": 0, "type": "electric_scooter", "lat": 38.92694566666667, "fusion_lat": 0.0, "is_disabled": 0}, {"rental_uris": {"android": "https://dc.lft.to/lastmile_qr_scan", "ios": "https://dc.lft.to/lastmile_qr_scan"}, "lon": -77.03160633333333, "name": "6ffe87015dcadd50de9ec8e1d1a611db", "fusion_lon": 0.0, "bike_id": "6ffe87015dcadd50de9ec8e1d1a611db", "is_reserved": 0, "type": "electric_scooter", "lat": 38.91811416666667, "fusion_lat": 0.0, "is_disabled": 0}, {"rental_uris": {"android": "https://dc.lft.to/lastmile_qr_scan", "ios": "https://dc.lft.to/lastmile_qr_scan"}, "lon": -77.0405435, "name": "0f375c317c35293b094c1768d60e63ad", "fusion_lon": 0.0, "bike_id": "0f375c317c35293b094c1768d60e63ad", "is_reserved": 0, "type": "electric_scooter", "lat": 38.925424, "fusion_lat": 0.0, "is_disabled": 0}, {"rental_uris": {"android": "https://dc.lft.to/lastmile_qr_scan", "ios": "https://dc.lft.to/lastmile_qr_scan"}, "lon": -77.03215266666666, "name": "8aebce7dbee9e9019e2124f33f170bf9", "fusion_lon": 0.0, "bike_id": "8aebce7dbee9e9019e2124f33f170bf9", "is_reserved": 0, "type": "electric_scooter", "lat": 38.916806, "fusion_lat": 0.0, "is_disabled": 0}, {"rental_uris": {"android": "https://dc.lft.to/lastmile_qr_scan", "ios": "https://dc.lft.to/lastmile_qr_scan"}, "lon": -77.01787066666667, "name": "28df26993297f06c8dd98ae20080cbe2", "fusion_lon": 0.0, "bike_id": "28df26993297f06c8dd98ae20080cbe2", "is_reserved": 0, "type": "electric_scooter", "lat": 38.88630783333333, "fusion_lat": 0.0, "is_disabled": 0}, {"rental_uris": {"android": "https://dc.lft.to/lastmile_qr_scan", "ios": "https://dc.lft.to/lastmile_qr_scan"}, "lon": -77.0102715, "name": "d0d557ebfc3425c68c911585ddce92ec", "fusion_lon": 0.0, "bike_id": "d0d557ebfc3425c68c911585ddce92ec", "is_reserved": 0, "type": "electric_scooter", "lat": 38.92032566666666, "fusion_lat": 0.0, "is_disabled": 0}, {"rental_uris": {"android": "https://dc.lft.to/lastmile_qr_scan", "ios": "https://dc.lft.to/lastmile_qr_scan"}, "lon": -77.03249783333334, "name": "c587f3a7074c6fcf76cd03c2adc66731", "fusion_lon": 0.0, "bike_id": "c587f3a7074c6fcf76cd03c2adc66731", "is_reserved": 0, "type": "electric_scooter", "lat": 38.93377916666667, "fusion_lat": 0.0, "is_disabled": 0}, {"rental_uris": {"android": "https://dc.lft.to/lastmile_qr_scan", "ios": "https://dc.lft.to/lastmile_qr_scan"}, "lon": -77.03614983333334, "name": "d696f2bf8315968bcfd844043c582a15", "fusion_lon": 0.0, "bike_id": "d696f2bf8315968bcfd844043c582a15", "is_reserved": 0, "type": "electric_scooter", "lat": 38.923326833333334, "fusion_lat": 0.0, "is_disabled": 0}, {"rental_uris": {"android": "https://dc.lft.to/lastmile_qr_scan", "ios": "https://dc.lft.to/lastmile_qr_scan"}, "lon": -77.019909, "name": "57a75084907cbd7bd22269df1457974b", "fusion_lon": 0.0, "bike_id": "57a75084907cbd7bd22269df1457974b", "is_reserved": 0, "type": "electric_scooter", "lat": 38.901390666666664, "fusion_lat": 0.0, "is_disabled": 0}, {"rental_uris": {"android": "https://dc.lft.to/lastmile_qr_scan", "ios": "https://dc.lft.to/lastmile_qr_scan"}, "lon": -77.06290483333333, "name": "acfd7a5011f81eb5bea832c2ad1927e2", "fusion_lon": 0.0, "bike_id": "acfd7a5011f81eb5bea832c2ad1927e2", "is_reserved": 0, "type": "electric_scooter", "lat": 38.90607933333333, "fusion_lat": 0.0, "is_disabled": 0}, {"rental_uris": {"android": "https://dc.lft.to/lastmile_qr_scan", "ios": "https://dc.lft.to/lastmile_qr_scan"}, "lon": -77.0217815, "name": "853473a74c26dbccdf2ff0072f60d947", "fusion_lon": 0.0, "bike_id": "853473a74c26dbccdf2ff0072f60d947", "is_reserved": 0, "type": "electric_scooter", "lat": 38.943091833333334, "fusion_lat": 0.0, "is_disabled": 0}, {"rental_uris": {"android": "https://dc.lft.to/lastmile_qr_scan", "ios": "https://dc.lft.to/lastmile_qr_scan"}, "lon": -77.03796283333334, "name": "685a10248b4be2b4f84e9bfa4fd1827b", "fusion_lon": 0.0, "bike_id": "685a10248b4be2b4f84e9bfa4fd1827b", "is_reserved": 0, "type": "electric_bike", "lat": 38.996657166666665, "fusion_lat": 0.0, "is_disabled": 0}, {"rental_uris": {"android": "https://dc.lft.to/lastmile_qr_scan", "ios": "https://dc.lft.to/lastmile_qr_scan"}, "lon": -76.94890516666666, "name": "9b3567b3eddd7ac1047aed511cd5c014", "fusion_lon": 0.0, "bike_id": "9b3567b3eddd7ac1047aed511cd5c014", "is_reserved": 0, "type": "electric_scooter", "lat": 38.8953275, "fusion_lat": 0.0, "is_disabled": 0}, {"rental_uris": {"android": "https://dc.lft.to/lastmile_qr_scan", "ios": "https://dc.lft.to/lastmile_qr_scan"}, "lon": -76.9985265, "name": "ce14166563e6afcd2a91335eb29d77a2", "fusion_lon": 0.0, "bike_id": "ce14166563e6afcd2a91335eb29d77a2", "is_reserved": 0, "type": "electric_scooter", "lat": 38.900338166666664, "fusion_lat": 0.0, "is_disabled": 0}, {"rental_uris": {"android": "https://dc.lft.to/lastmile_qr_scan", "ios": "https://dc.lft.to/lastmile_qr_scan"}, "lon": -77.02690316666667, "name": "5aac316e0ded1af11bcd91c9003eadda", "fusion_lon": 0.0, "bike_id": "5aac316e0ded1af11bcd91c9003eadda", "is_reserved": 0, "type": "electric_scooter", "lat": 38.899470666666666, "fusion_lat": 0.0, "is_disabled": 0}, {"rental_uris": {"android": "https://dc.lft.to/lastmile_qr_scan", "ios": "https://dc.lft.to/lastmile_qr_scan"}, "lon": -76.98287766666667, "name": "b1dc2721372b436dce90c44904301b15", "fusion_lon": 0.0, "bike_id": "b1dc2721372b436dce90c44904301b15", "is_reserved": 0, "type": "electric_scooter", "lat": 38.87846616666667, "fusion_lat": 0.0, "is_disabled": 0}, {"rental_uris": {"android": "https://dc.lft.to/lastmile_qr_scan", "ios": "https://dc.lft.to/lastmile_qr_scan"}, "lon": -77.034352, "name": "7be059b78af6e0836ac05622a5c1b1ce", "fusion_lon": 0.0, "bike_id": "7be059b78af6e0836ac05622a5c1b1ce", "is_reserved": 0, "type": "electric_scooter", "lat": 38.918066333333336, "fusion_lat": 0.0, "is_disabled": 0}, {"rental_uris": {"android": "https://dc.lft.to/lastmile_qr_scan", "ios": "https://dc.lft.to/lastmile_qr_scan"}, "lon": -77.01107483333334, "name": "0bc736c701b0a0188699438b77551724", "fusion_lon": 0.0, "bike_id": "0bc736c701b0a0188699438b77551724", "is_reserved": 0, "type": "electric_scooter", "lat": 38.9069845, "fusion_lat": 0.0, "is_disabled": 0}, {"rental_uris": {"android": "https://dc.lft.to/lastmile_qr_scan", "ios": "https://dc.lft.to/lastmile_qr_scan"}, "lon": -77.00009316666667, "name": "afaefc4ef503fdb85ca009bf55d40dfc", "fusion_lon": 0.0, "bike_id": "afaefc4ef503fdb85ca009bf55d40dfc", "is_reserved": 0, "type": "electric_scooter", "lat": 38.886484833333334, "fusion_lat": 0.0, "is_disabled": 0}, {"rental_uris": {"android": "https://dc.lft.to/lastmile_qr_scan", "ios": "https://dc.lft.to/lastmile_qr_scan"}, "lon": -77.019136, "name": "c59a46710065a7f9f2504f80040a048a", "fusion_lon": 0.0, "bike_id": "c59a46710065a7f9f2504f80040a048a", "is_reserved": 0, "type": "electric_scooter", "lat": 38.90254916666667, "fusion_lat": 0.0, "is_disabled": 0}, {"rental_uris": {"android": "https://dc.lft.to/lastmile_qr_scan", "ios": "https://dc.lft.to/lastmile_qr_scan"}, "lon": -77.02427033333333, "name": "400c1e7f5e680721162301b8dbc5624d", "fusion_lon": 0.0, "bike_id": "400c1e7f5e680721162301b8dbc5624d", "is_reserved": 0, "type": "electric_scooter", "lat": 38.905698, "fusion_lat": 0.0, "is_disabled": 0}, {"rental_uris": {"android": "https://dc.lft.to/lastmile_qr_scan", "ios": "https://dc.lft.to/lastmile_qr_scan"}, "lon": -76.93673666666666, "name": "ced085d5698e769ca37c61cbf19acd5e", "fusion_lon": 0.0, "bike_id": "ced085d5698e769ca37c61cbf19acd5e", "is_reserved": 0, "type": "electric_scooter", "lat": 38.886614333333334, "fusion_lat": 0.0, "is_disabled": 0}, {"rental_uris": {"android": "https://dc.lft.to/lastmile_qr_scan", "ios": "https://dc.lft.to/lastmile_qr_scan"}, "lon": -77.02792616666666, "name": "830c1ca97369399b1b01256c2f363e86", "fusion_lon": 0.0, "bike_id": "830c1ca97369399b1b01256c2f363e86", "is_reserved": 0, "type": "electric_scooter", "lat": 38.929731, "fusion_lat": 0.0, "is_disabled": 0}, {"rental_uris": {"android": "https://dc.lft.to/lastmile_qr_scan", "ios": "https://dc.lft.to/lastmile_qr_scan"}, "lon": -77.0716065, "name": "2ba9f8e7199d828eaaa5d98c2f6cb4cb", "fusion_lon": 0.0, "bike_id": "2ba9f8e7199d828eaaa5d98c2f6cb4cb", "is_reserved": 0, "type": "electric_bike", "lat": 38.9087295, "fusion_lat": 0.0, "is_disabled": 0}, {"rental_uris": {"android": "https://dc.lft.to/lastmile_qr_scan", "ios": "https://dc.lft.to/lastmile_qr_scan"}, "lon": -77.023988, "name": "63c59efc7d8caeb06bf1a6f841ed8050", "fusion_lon": 0.0, "bike_id": "63c59efc7d8caeb06bf1a6f841ed8050", "is_reserved": 0, "type": "electric_scooter", "lat": 38.90991133333333, "fusion_lat": 0.0, "is_disabled": 0}, {"rental_uris": {"android": "https://dc.lft.to/lastmile_qr_scan", "ios": "https://dc.lft.to/lastmile_qr_scan"}, "lon": -76.951468, "name": "60cd971c2c7731da78e0d1ed54adbe1d", "fusion_lon": 0.0, "bike_id": "60cd971c2c7731da78e0d1ed54adbe1d", "is_reserved": 0, "type": "electric_bike", "lat": 39.08433933333333, "fusion_lat": 0.0, "is_disabled": 0}, {"rental_uris": {"android": "https://dc.lft.to/lastmile_qr_scan", "ios": "https://dc.lft.to/lastmile_qr_scan"}, "lon": -77.02156566666666, "name": "b65278cc0e896099899b81089464c04e", "fusion_lon": 0.0, "bike_id": "b65278cc0e896099899b81089464c04e", "is_reserved": 0, "type": "electric_scooter", "lat": 38.9245415, "fusion_lat": 0.0, "is_disabled": 0}, {"rental_uris": {"android": "https://dc.lft.to/lastmile_qr_scan", "ios": "https://dc.lft.to/lastmile_qr_scan"}, "lon": -77.01757983333333, "name": "653f7f9fd87dcc275f97895f9662f60d", "fusion_lon": 0.0, "bike_id": "653f7f9fd87dcc275f97895f9662f60d", "is_reserved": 0, "type": "electric_scooter", "lat": 38.90263316666667, "fusion_lat": 0.0, "is_disabled": 0}, {"rental_uris": {"android": "https://dc.lft.to/lastmile_qr_scan", "ios": "https://dc.lft.to/lastmile_qr_scan"}, "lon": -77.0403685, "name": "bb572f3bc72242bbf11047cdf70b925c", "fusion_lon": 0.0, "bike_id": "bb572f3bc72242bbf11047cdf70b925c", "is_reserved": 0, "type": "electric_scooter", "lat": 38.905210333333336, "fusion_lat": 0.0, "is_disabled": 0}, {"rental_uris": {"android": "https://dc.lft.to/lastmile_qr_scan", "ios": "https://dc.lft.to/lastmile_qr_scan"}, "lon": -77.02713466666667, "name": "1fdc69f08ccdf160d852f505144c3677", "fusion_lon": 0.0, "bike_id": "1fdc69f08ccdf160d852f505144c3677", "is_reserved": 0, "type": "electric_scooter", "lat": 38.9248575, "fusion_lat": 0.0, "is_disabled": 0}, {"rental_uris": {"android": "https://dc.lft.to/lastmile_qr_scan", "ios": "https://dc.lft.to/lastmile_qr_scan"}, "lon": -77.03193466666667, "name": "7bed6abbf160f64ee3ff13d9ceef9eb2", "fusion_lon": 0.0, "bike_id": "7bed6abbf160f64ee3ff13d9ceef9eb2", "is_reserved": 0, "type": "electric_scooter", "lat": 38.907459333333335, "fusion_lat": 0.0, "is_disabled": 0}, {"rental_uris": {"android": "https://dc.lft.to/lastmile_qr_scan", "ios": "https://dc.lft.to/lastmile_qr_scan"}, "lon": -77.0232205, "name": "2281ac9a9bbfd0cc1b2c03d1064d9c45", "fusion_lon": 0.0, "bike_id": "2281ac9a9bbfd0cc1b2c03d1064d9c45", "is_reserved": 0, "type": "electric_scooter", "lat": 38.92067933333333, "fusion_lat": 0.0, "is_disabled": 0}, {"rental_uris": {"android": "https://dc.lft.to/lastmile_qr_scan", "ios": "https://dc.lft.to/lastmile_qr_scan"}, "lon": -77.34455733333333, "name": "0bf3fcc472cb3aa45a2a39cb1017402c", "fusion_lon": 0.0, "bike_id": "0bf3fcc472cb3aa45a2a39cb1017402c", "is_reserved": 0, "type": "electric_bike", "lat": 38.945446833333335, "fusion_lat": 0.0, "is_disabled": 0}, {"rental_uris": {"android": "https://dc.lft.to/lastmile_qr_scan", "ios": "https://dc.lft.to/lastmile_qr_scan"}, "lon": -77.0415585, "name": "47fae4a2e7c712e0d9fc58432314fd85", "fusion_lon": 0.0, "bike_id": "47fae4a2e7c712e0d9fc58432314fd85", "is_reserved": 0, "type": "electric_scooter", "lat": 38.9175215, "fusion_lat": 0.0, "is_disabled": 0}, {"rental_uris": {"android": "https://dc.lft.to/lastmile_qr_scan", "ios": "https://dc.lft.to/lastmile_qr_scan"}, "lon": -77.03158983333333, "name": "74120a27fd174a96984018d71d1fcf93", "fusion_lon": 0.0, "bike_id": "74120a27fd174a96984018d71d1fcf93", "is_reserved": 0, "type": "electric_scooter", "lat": 38.887196833333334, "fusion_lat": 0.0, "is_disabled": 0}, {"rental_uris": {"android": "https://dc.lft.to/lastmile_qr_scan", "ios": "https://dc.lft.to/lastmile_qr_scan"}, "lon": -76.98058033333334, "name": "f12d31258491b98b9e0bcc4216a40899", "fusion_lon": 0.0, "bike_id": "f12d31258491b98b9e0bcc4216a40899", "is_reserved": 0, "type": "electric_scooter", "lat": 38.86500816666667, "fusion_lat": 0.0, "is_disabled": 0}, {"rental_uris": {"android": "https://dc.lft.to/lastmile_qr_scan", "ios": "https://dc.lft.to/lastmile_qr_scan"}, "lon": -77.003352, "name": "821f28d09c8ef84c6fe94a08a6c4ca45", "fusion_lon": 0.0, "bike_id": "821f28d09c8ef84c6fe94a08a6c4ca45", "is_reserved": 0, "type": "electric_scooter", "lat": 38.89356983333333, "fusion_lat": 0.0, "is_disabled": 0}, {"rental_uris": {"android": "https://dc.lft.to/lastmile_qr_scan", "ios": "https://dc.lft.to/lastmile_qr_scan"}, "lon": -77.00200266666667, "name": "d565aaea1bc37588ce17dc4ab5278a24", "fusion_lon": 0.0, "bike_id": "d565aaea1bc37588ce17dc4ab5278a24", "is_reserved": 0, "type": "electric_scooter", "lat": 38.90035683333333, "fusion_lat": 0.0, "is_disabled": 0}, {"rental_uris": {"android": "https://dc.lft.to/lastmile_qr_scan", "ios": "https://dc.lft.to/lastmile_qr_scan"}, "lon": -77.00750366666666, "name": "141f8582d86d6d3930e10b1db6eabf10", "fusion_lon": 0.0, "bike_id": "141f8582d86d6d3930e10b1db6eabf10", "is_reserved": 0, "type": "electric_bike", "lat": 38.835437666666664, "fusion_lat": 0.0, "is_disabled": 0}, {"rental_uris": {"android": "https://dc.lft.to/lastmile_qr_scan", "ios": "https://dc.lft.to/lastmile_qr_scan"}, "lon": -77.03179516666667, "name": "bfc4f000463b665163970fc03a07620d", "fusion_lon": 0.0, "bike_id": "bfc4f000463b665163970fc03a07620d", "is_reserved": 0, "type": "electric_scooter", "lat": 38.907523, "fusion_lat": 0.0, "is_disabled": 0}, {"rental_uris": {"android": "https://dc.lft.to/lastmile_qr_scan", "ios": "https://dc.lft.to/lastmile_qr_scan"}, "lon": -77.07267116666667, "name": "e6c8f132bb8de009c868192d5166221f", "fusion_lon": 0.0, "bike_id": "e6c8f132bb8de009c868192d5166221f", "is_reserved": 0, "type": "electric_scooter", "lat": 38.908993333333335, "fusion_lat": 0.0, "is_disabled": 0}, {"rental_uris": {"android": "https://dc.lft.to/lastmile_qr_scan", "ios": "https://dc.lft.to/lastmile_qr_scan"}, "lon": -77.04170183333333, "name": "bb637393232059d2924c31fca9d6f138", "fusion_lon": 0.0, "bike_id": "bb637393232059d2924c31fca9d6f138", "is_reserved": 0, "type": "electric_scooter", "lat": 38.905368833333334, "fusion_lat": 0.0, "is_disabled": 0}, {"rental_uris": {"android": "https://dc.lft.to/lastmile_qr_scan", "ios": "https://dc.lft.to/lastmile_qr_scan"}, "lon": -77.03310166666667, "name": "13fe7034bc2aa17632ff511b3a7e09d1", "fusion_lon": 0.0, "bike_id": "13fe7034bc2aa17632ff511b3a7e09d1", "is_reserved": 0, "type": "electric_scooter", "lat": 38.91987233333333, "fusion_lat": 0.0, "is_disabled": 0}, {"rental_uris": {"android": "https://dc.lft.to/lastmile_qr_scan", "ios": "https://dc.lft.to/lastmile_qr_scan"}, "lon": -77.05318233333334, "name": "33486dd7bc38db8e37f43e1e4d05ae49", "fusion_lon": 0.0, "bike_id": "33486dd7bc38db8e37f43e1e4d05ae49", "is_reserved": 0, "type": "electric_scooter", "lat": 38.9064685, "fusion_lat": 0.0, "is_disabled": 0}, {"rental_uris": {"android": "https://dc.lft.to/lastmile_qr_scan", "ios": "https://dc.lft.to/lastmile_qr_scan"}, "lon": -77.0250415, "name": "c7ac24c4fc3fbf04f95ce67aaf3fc0f1", "fusion_lon": 0.0, "bike_id": "c7ac24c4fc3fbf04f95ce67aaf3fc0f1", "is_reserved": 0, "type": "electric_scooter", "lat": 38.90400833333333, "fusion_lat": 0.0, "is_disabled": 0}, {"rental_uris": {"android": "https://dc.lft.to/lastmile_qr_scan", "ios": "https://dc.lft.to/lastmile_qr_scan"}, "lon": -77.02692983333333, "name": "d85b44fca27af0c31d7aba603fbd25dc", "fusion_lon": 0.0, "bike_id": "d85b44fca27af0c31d7aba603fbd25dc", "is_reserved": 0, "type": "electric_scooter", "lat": 38.924720666666666, "fusion_lat": 0.0, "is_disabled": 0}, {"rental_uris": {"android": "https://dc.lft.to/lastmile_qr_scan", "ios": "https://dc.lft.to/lastmile_qr_scan"}, "lon": -77.04454216666667, "name": "326d88b20be20bdd6e6c81aa64cd33a6", "fusion_lon": 0.0, "bike_id": "326d88b20be20bdd6e6c81aa64cd33a6", "is_reserved": 0, "type": "electric_scooter", "lat": 38.93497466666667, "fusion_lat": 0.0, "is_disabled": 0}, {"rental_uris": {"android": "https://dc.lft.to/lastmile_qr_scan", "ios": "https://dc.lft.to/lastmile_qr_scan"}, "lon": -77.033578, "name": "8b11d131cc472b95cf744b1769f59a31", "fusion_lon": 0.0, "bike_id": "8b11d131cc472b95cf744b1769f59a31", "is_reserved": 0, "type": "electric_scooter", "lat": 38.989924333333335, "fusion_lat": 0.0, "is_disabled": 0}, {"rental_uris": {"android": "https://dc.lft.to/lastmile_qr_scan", "ios": "https://dc.lft.to/lastmile_qr_scan"}, "lon": -76.988333, "name": "82ebd4ba9b43f24f1d4546a846135025", "fusion_lon": 0.0, "bike_id": "82ebd4ba9b43f24f1d4546a846135025", "is_reserved": 0, "type": "electric_scooter", "lat": 38.898844, "fusion_lat": 0.0, "is_disabled": 0}, {"rental_uris": {"android": "https://dc.lft.to/lastmile_qr_scan", "ios": "https://dc.lft.to/lastmile_qr_scan"}, "lon": -77.03257183333334, "name": "9e2130d906f1f5abf05192a114697a86", "fusion_lon": 0.0, "bike_id": "9e2130d906f1f5abf05192a114697a86", "is_reserved": 0, "type": "electric_scooter", "lat": 38.92899666666667, "fusion_lat": 0.0, "is_disabled": 0}, {"rental_uris": {"android": "https://dc.lft.to/lastmile_qr_scan", "ios": "https://dc.lft.to/lastmile_qr_scan"}, "lon": -77.02486583333334, "name": "c6fc5966a0fff27b6f73ee2eab78d4e5", "fusion_lon": 0.0, "bike_id": "c6fc5966a0fff27b6f73ee2eab78d4e5", "is_reserved": 0, "type": "electric_scooter", "lat": 38.928437333333335, "fusion_lat": 0.0, "is_disabled": 0}, {"rental_uris": {"android": "https://dc.lft.to/lastmile_qr_scan", "ios": "https://dc.lft.to/lastmile_qr_scan"}, "lon": -77.02504383333333, "name": "f607ceedeb5ab77bfb54153938dd6501", "fusion_lon": 0.0, "bike_id": "f607ceedeb5ab77bfb54153938dd6501", "is_reserved": 0, "type": "electric_scooter", "lat": 38.926435, "fusion_lat": 0.0, "is_disabled": 0}, {"rental_uris": {"android": "https://dc.lft.to/lastmile_qr_scan", "ios": "https://dc.lft.to/lastmile_qr_scan"}, "lon": -76.9926745, "name": "0355c5fb8b172b096c494a6b3114c26e", "fusion_lon": 0.0, "bike_id": "0355c5fb8b172b096c494a6b3114c26e", "is_reserved": 0, "type": "electric_scooter", "lat": 38.897773666666666, "fusion_lat": 0.0, "is_disabled": 0}, {"rental_uris": {"android": "https://dc.lft.to/lastmile_qr_scan", "ios": "https://dc.lft.to/lastmile_qr_scan"}, "lon": -77.037863, "name": "79843db3e954b039095f56c2d7bf9366", "fusion_lon": 0.0, "bike_id": "79843db3e954b039095f56c2d7bf9366", "is_reserved": 0, "type": "electric_scooter", "lat": 38.933275333333334, "fusion_lat": 0.0, "is_disabled": 0}, {"rental_uris": {"android": "https://dc.lft.to/lastmile_qr_scan", "ios": "https://dc.lft.to/lastmile_qr_scan"}, "lon": -76.97698316666667, "name": "9b66f32bce282b7cf5b596ed683f84e3", "fusion_lon": 0.0, "bike_id": "9b66f32bce282b7cf5b596ed683f84e3", "is_reserved": 0, "type": "electric_scooter", "lat": 38.898894166666665, "fusion_lat": 0.0, "is_disabled": 0}, {"rental_uris": {"android": "https://dc.lft.to/lastmile_qr_scan", "ios": "https://dc.lft.to/lastmile_qr_scan"}, "lon": -77.01980383333333, "name": "36b0cce571842c82c50952f514fc8890", "fusion_lon": 0.0, "bike_id": "36b0cce571842c82c50952f514fc8890", "is_reserved": 0, "type": "electric_scooter", "lat": 38.904925, "fusion_lat": 0.0, "is_disabled": 0}, {"rental_uris": {"android": "https://dc.lft.to/lastmile_qr_scan", "ios": "https://dc.lft.to/lastmile_qr_scan"}, "lon": -77.01948483333334, "name": "c502f1c60f04713b06f690291e890876", "fusion_lon": 0.0, "bike_id": "c502f1c60f04713b06f690291e890876", "is_reserved": 0, "type": "electric_scooter", "lat": 38.92369433333333, "fusion_lat": 0.0, "is_disabled": 0}, {"rental_uris": {"android": "https://dc.lft.to/lastmile_qr_scan", "ios": "https://dc.lft.to/lastmile_qr_scan"}, "lon": -77.05988416666666, "name": "b8f612041502ae4ba0618d6de4503c28", "fusion_lon": 0.0, "bike_id": "b8f612041502ae4ba0618d6de4503c28", "is_reserved": 0, "type": "electric_scooter", "lat": 38.927161166666664, "fusion_lat": 0.0, "is_disabled": 0}, {"rental_uris": {"android": "https://dc.lft.to/lastmile_qr_scan", "ios": "https://dc.lft.to/lastmile_qr_scan"}, "lon": -76.99675316666666, "name": "18a9ac7fd42d42bf361911c77aa228e0", "fusion_lon": 0.0, "bike_id": "18a9ac7fd42d42bf361911c77aa228e0", "is_reserved": 0, "type": "electric_scooter", "lat": 38.88726416666667, "fusion_lat": 0.0, "is_disabled": 0}, {"rental_uris": {"android": "https://dc.lft.to/lastmile_qr_scan", "ios": "https://dc.lft.to/lastmile_qr_scan"}, "lon": -77.0447975, "name": "709d3b1222b1239671c44737d0cbe88c", "fusion_lon": 0.0, "bike_id": "709d3b1222b1239671c44737d0cbe88c", "is_reserved": 0, "type": "electric_scooter", "lat": 38.90118, "fusion_lat": 0.0, "is_disabled": 0}, {"rental_uris": {"android": "https://dc.lft.to/lastmile_qr_scan", "ios": "https://dc.lft.to/lastmile_qr_scan"}, "lon": -77.04200416666667, "name": "d29c4623ac5902a688484f9a4345a744", "fusion_lon": 0.0, "bike_id": "d29c4623ac5902a688484f9a4345a744", "is_reserved": 0, "type": "electric_scooter", "lat": 38.92055633333333, "fusion_lat": 0.0, "is_disabled": 0}, {"rental_uris": {"android": "https://dc.lft.to/lastmile_qr_scan", "ios": "https://dc.lft.to/lastmile_qr_scan"}, "lon": -77.03210216666666, "name": "2d7654e14ec4ea7c4d3ad8de8c73f8ab", "fusion_lon": 0.0, "bike_id": "2d7654e14ec4ea7c4d3ad8de8c73f8ab", "is_reserved": 0, "type": "electric_scooter", "lat": 38.914768333333335, "fusion_lat": 0.0, "is_disabled": 0}, {"rental_uris": {"android": "https://dc.lft.to/lastmile_qr_scan", "ios": "https://dc.lft.to/lastmile_qr_scan"}, "lon": -77.05696933333333, "name": "5a9ce64531b6d5f939f22c20c54195c4", "fusion_lon": 0.0, "bike_id": "5a9ce64531b6d5f939f22c20c54195c4", "is_reserved": 0, "type": "electric_scooter", "lat": 38.933526666666666, "fusion_lat": 0.0, "is_disabled": 0}, {"rental_uris": {"android": "https://dc.lft.to/lastmile_qr_scan", "ios": "https://dc.lft.to/lastmile_qr_scan"}, "lon": -77.0243875, "name": "9eb025f0538ac248215764cac9c59a78", "fusion_lon": 0.0, "bike_id": "9eb025f0538ac248215764cac9c59a78", "is_reserved": 0, "type": "electric_scooter", "lat": 38.92041316666667, "fusion_lat": 0.0, "is_disabled": 0}, {"rental_uris": {"android": "https://dc.lft.to/lastmile_qr_scan", "ios": "https://dc.lft.to/lastmile_qr_scan"}, "lon": -77.0352445, "name": "a40d2b252b9a2d432259a32c51521283", "fusion_lon": 0.0, "bike_id": "a40d2b252b9a2d432259a32c51521283", "is_reserved": 0, "type": "electric_scooter", "lat": 38.906784, "fusion_lat": 0.0, "is_disabled": 0}, {"rental_uris": {"android": "https://dc.lft.to/lastmile_qr_scan", "ios": "https://dc.lft.to/lastmile_qr_scan"}, "lon": -77.02798283333334, "name": "d57ef1b37342d86654ba05c3487a18bc", "fusion_lon": 0.0, "bike_id": "d57ef1b37342d86654ba05c3487a18bc", "is_reserved": 0, "type": "electric_scooter", "lat": 38.8961295, "fusion_lat": 0.0, "is_disabled": 0}, {"rental_uris": {"android": "https://dc.lft.to/lastmile_qr_scan", "ios": "https://dc.lft.to/lastmile_qr_scan"}, "lon": -77.09520766666667, "name": "ee663317f968d89bd427132e35954e40", "fusion_lon": 0.0, "bike_id": "ee663317f968d89bd427132e35954e40", "is_reserved": 0, "type": "electric_bike", "lat": 38.83813333333333, "fusion_lat": 0.0, "is_disabled": 0}, {"rental_uris": {"android": "https://dc.lft.to/lastmile_qr_scan", "ios": "https://dc.lft.to/lastmile_qr_scan"}, "lon": -77.04189916666667, "name": "4eed7811d614de6c50e3fd4cad3e9e34", "fusion_lon": 0.0, "bike_id": "4eed7811d614de6c50e3fd4cad3e9e34", "is_reserved": 0, "type": "electric_scooter", "lat": 38.90541616666667, "fusion_lat": 0.0, "is_disabled": 0}, {"rental_uris": {"android": "https://dc.lft.to/lastmile_qr_scan", "ios": "https://dc.lft.to/lastmile_qr_scan"}, "lon": -76.97622966666667, "name": "b3843dea24adaafb697c3545cbba09e6", "fusion_lon": 0.0, "bike_id": "b3843dea24adaafb697c3545cbba09e6", "is_reserved": 0, "type": "electric_bike", "lat": 38.840332, "fusion_lat": 0.0, "is_disabled": 0}, {"rental_uris": {"android": "https://dc.lft.to/lastmile_qr_scan", "ios": "https://dc.lft.to/lastmile_qr_scan"}, "lon": -77.02559816666667, "name": "d0d9332da67e7590463cf283a6a7c26c", "fusion_lon": 0.0, "bike_id": "d0d9332da67e7590463cf283a6a7c26c", "is_reserved": 0, "type": "electric_scooter", "lat": 38.933529, "fusion_lat": 0.0, "is_disabled": 0}, {"rental_uris": {"android": "https://dc.lft.to/lastmile_qr_scan", "ios": "https://dc.lft.to/lastmile_qr_scan"}, "lon": -77.020062, "name": "50d501f9549ae2e303b90a8c6e265ee9", "fusion_lon": 0.0, "bike_id": "50d501f9549ae2e303b90a8c6e265ee9", "is_reserved": 0, "type": "electric_scooter", "lat": 38.93507833333334, "fusion_lat": 0.0, "is_disabled": 0}, {"rental_uris": {"android": "https://dc.lft.to/lastmile_qr_scan", "ios": "https://dc.lft.to/lastmile_qr_scan"}, "lon": -77.03203783333333, "name": "665364546619bb0ffd084589b36c158a", "fusion_lon": 0.0, "bike_id": "665364546619bb0ffd084589b36c158a", "is_reserved": 0, "type": "electric_scooter", "lat": 38.91475783333333, "fusion_lat": 0.0, "is_disabled": 0}, {"rental_uris": {"android": "https://dc.lft.to/lastmile_qr_scan", "ios": "https://dc.lft.to/lastmile_qr_scan"}, "lon": -77.0316105, "name": "e82d3871e86a685d74e9fc23627a56a0", "fusion_lon": 0.0, "bike_id": "e82d3871e86a685d74e9fc23627a56a0", "is_reserved": 0, "type": "electric_scooter", "lat": 38.916326, "fusion_lat": 0.0, "is_disabled": 0}, {"rental_uris": {"android": "https://dc.lft.to/lastmile_qr_scan", "ios": "https://dc.lft.to/lastmile_qr_scan"}, "lon": -77.01793383333333, "name": "8f92b781b6d0a36bbcf782ef46edacd6", "fusion_lon": 0.0, "bike_id": "8f92b781b6d0a36bbcf782ef46edacd6", "is_reserved": 0, "type": "electric_scooter", "lat": 38.92135966666667, "fusion_lat": 0.0, "is_disabled": 0}, {"rental_uris": {"android": "https://dc.lft.to/lastmile_qr_scan", "ios": "https://dc.lft.to/lastmile_qr_scan"}, "lon": -77.02516433333334, "name": "a4615f5aa432d5c099846aaec3b15fea", "fusion_lon": 0.0, "bike_id": "a4615f5aa432d5c099846aaec3b15fea", "is_reserved": 0, "type": "electric_scooter", "lat": 38.921049833333335, "fusion_lat": 0.0, "is_disabled": 0}, {"rental_uris": {"android": "https://dc.lft.to/lastmile_qr_scan", "ios": "https://dc.lft.to/lastmile_qr_scan"},