{"data": {"bikes": [{"name": "e303bdf86b87ec8446853d9545996d8d", "type": "electric_scooter", "lat": 38.898153666666666, "is_reserved": 0, "lon": -77.03274783333333, "fusion_lon": 0.0, "is_disabled": 0, "fusion_lat": 0.0, "bike_id": "e303bdf86b87ec8446853d9545996d8d", "rental_uris": {"ios": "https://dc.lft.to/lastmile_qr_scan", "android": "https://dc.lft.to/lastmile_qr_scan"}}, {"name": "df4b54d5321aabfbad8fffb15d66520f", "type": "electric_scooter", "lat": 38.9413735, "is_reserved": 0, "lon": -77.01549916666667, "fusion_lon": 0.0, "is_disabled": 0, "fusion_lat": 0.0, "bike_id": "df4b54d5321aabfbad8fffb15d66520f", "rental_uris": {"ios": "https://dc.lft.to/lastmile_qr_scan", "android": "https://dc.lft.to/lastmile_qr_scan"}}, {"name": "52ba10454e53582dc7dcd2f4b05186b3", "type": "electric_scooter", "lat": 38.90593916666667, "is_reserved": 0, "lon": -77.03848966666666, "fusion_lon": 0.0, "is_disabled": 0, "fusion_lat": 0.0, "bike_id": "52ba10454e53582dc7dcd2f4b05186b3", "rental_uris": {"ios": "https://dc.lft.to/lastmile_qr_scan", "android": "https://dc.lft.to/lastmile_qr_scan"}}, {"name": "cab2bb47b130689c9e2e2cea86d6dcd4", "type": "electric_bike", "lat": 38.8714275, "is_reserved": 0, "lon": -76.93727416666667, "fusion_lon": 0.0, "is_disabled": 0, "fusion_lat": 0.0, "bike_id": "cab2bb47b130689c9e2e2cea86d6dcd4", "rental_uris": {"ios": "https://dc.lft.to/lastmile_qr_scan", "android": "https://dc.lft.to/lastmile_qr_scan"}}, {"name": "47eea7f8e566a204a219cd8814b4edfa", "type": "electric_scooter", "lat": 38.9160505, "is_reserved": 0, "lon": -76.98381833333333, "fusion_lon": 0.0, "is_disabled": 0, "fusion_lat": 0.0, "bike_id": "47eea7f8e566a204a219cd8814b4edfa", "rental_uris": {"ios": "https://dc.lft.to/lastmile_qr_scan", "android": "https://dc.lft.to/lastmile_qr_scan"}}, {"name": "83f0d38a2abc1b3854ecc9d211ca3eb8", "type": "electric_bike", "lat": 38.83241733333333, "is_reserved": 0, "lon": -76.946207, "fusion_lon": 0.0, "is_disabled": 0, "fusion_lat": 0.0, "bike_id": "83f0d38a2abc1b3854ecc9d211ca3eb8", "rental_uris": {"ios": "https://dc.lft.to/lastmile_qr_scan", "android": "https://dc.lft.to/lastmile_qr_scan"}}, {"name": "9668d0832a639e6fddeb2c25cc3bdf5e", "type": "electric_scooter", "lat": 38.92601, "is_reserved": 0, "lon": -77.02497216666667, "fusion_lon": 0.0, "is_disabled": 0, "fusion_lat": 0.0, "bike_id": "9668d0832a639e6fddeb2c25cc3bdf5e", "rental_uris": {"ios": "https://dc.lft.to/lastmile_qr_scan", "android": "https://dc.lft.to/lastmile_qr_scan"}}, {"name": "ebafb26affda0eecd3de0862bd7a3c48", "type": "electric_scooter", "lat": 38.929879166666666, "is_reserved": 0, "lon": -77.079399, "fusion_lon": 0.0, "is_disabled": 0, "fusion_lat": 0.0, "bike_id": "ebafb26affda0eecd3de0862bd7a3c48", "rental_uris": {"ios": "https://dc.lft.to/lastmile_qr_scan", "android": "https://dc.lft.to/lastmile_qr_scan"}}, {"name": "bb2f4a8877019ce919bece4862c9ea61", "type": "electric_scooter", "lat": 38.92496366666666, "is_reserved": 0, "lon": -77.02715533333334, "fusion_lon": 0.0, "is_disabled": 0, "fusion_lat": 0.0, "bike_id": "bb2f4a8877019ce919bece4862c9ea61", "rental_uris": {"ios": "https://dc.lft.to/lastmile_qr_scan", "android": "https://dc.lft.to/lastmile_qr_scan"}}, {"name": "b7be605a340f59ff2c5413ecc6a07eb4", "type": "electric_scooter", "lat": 38.923751, "is_reserved": 0, "lon": -77.01952316666667, "fusion_lon": 0.0, "is_disabled": 0, "fusion_lat": 0.0, "bike_id": "b7be605a340f59ff2c5413ecc6a07eb4", "rental_uris": {"ios": "https://dc.lft.to/lastmile_qr_scan", "android": "https://dc.lft.to/lastmile_qr_scan"}}, {"name": "004865325cff48dd92ef74c644ebdee4", "type": "electric_scooter", "lat": 38.90088083333333, "is_reserved": 0, "lon": -77.04902516666667, "fusion_lon": 0.0, "is_disabled": 0, "fusion_lat": 0.0, "bike_id": "004865325cff48dd92ef74c644ebdee4", "rental_uris": {"ios": "https://dc.lft.to/lastmile_qr_scan", "android": "https://dc.lft.to/lastmile_qr_scan"}}, {"name": "1b954b8c266b4946e3823ac795ea42c1", "type": "electric_scooter", "lat": 38.910685, "is_reserved": 0, "lon": -77.0219715, "fusion_lon": 0.0, "is_disabled": 0, "fusion_lat": 0.0, "bike_id": "1b954b8c266b4946e3823ac795ea42c1", "rental_uris": {"ios": "https://dc.lft.to/lastmile_qr_scan", "android": "https://dc.lft.to/lastmile_qr_scan"}}, {"name": "b99225f4110cb9b469898ead6b24417c", "type": "electric_scooter", "lat": 38.905213333333336, "is_reserved": 0, "lon": -77.0694005, "fusion_lon": 0.0, "is_disabled": 0, "fusion_lat": 0.0, "bike_id": "b99225f4110cb9b469898ead6b24417c", "rental_uris": {"ios": "https://dc.lft.to/lastmile_qr_scan", "android": "https://dc.lft.to/lastmile_qr_scan"}}, {"name": "09e634c551a236131b0cd5ce79763140", "type": "electric_scooter", "lat": 38.89653766666667, "is_reserved": 0, "lon": -77.05024866666666, "fusion_lon": 0.0, "is_disabled": 0, "fusion_lat": 0.0, "bike_id": "09e634c551a236131b0cd5ce79763140", "rental_uris": {"ios": "https://dc.lft.to/lastmile_qr_scan", "android": "https://dc.lft.to/lastmile_qr_scan"}}, {"name": "aeec0709b7e345c61ee5fef00002c2d4", "type": "electric_scooter", "lat": 38.923492333333336, "is_reserved": 0, "lon": -77.01907733333333, "fusion_lon": 0.0, "is_disabled": 0, "fusion_lat": 0.0, "bike_id": "aeec0709b7e345c61ee5fef00002c2d4", "rental_uris": {"ios": "https://dc.lft.to/lastmile_qr_scan", "android": "https://dc.lft.to/lastmile_qr_scan"}}, {"name": "03abe3f1e67850ae767593f54af5d21c", "type": "electric_scooter", "lat": 38.89249183333333, "is_reserved": 0, "lon": -77.032105, "fusion_lon": 0.0, "is_disabled": 0, "fusion_lat": 0.0, "bike_id": "03abe3f1e67850ae767593f54af5d21c", "rental_uris": {"ios": "https://dc.lft.to/lastmile_qr_scan", "android": "https://dc.lft.to/lastmile_qr_scan"}}, {"name": "9a0ef0b1998b00157e925a4309cb1526", "type": "electric_bike", "lat": 38.86168383333333, "is_reserved": 0, "lon": -76.95069066666667, "fusion_lon": 0.0, "is_disabled": 0, "fusion_lat": 0.0, "bike_id": "9a0ef0b1998b00157e925a4309cb1526", "rental_uris": {"ios": "https://dc.lft.to/lastmile_qr_scan", "android": "https://dc.lft.to/lastmile_qr_scan"}}, {"name": "c90622c6baff95a31ac860b41ff07291", "type": "electric_scooter", "lat": 38.93914566666667, "is_reserved": 0, "lon": -77.02491283333333, "fusion_lon": 0.0, "is_disabled": 0, "fusion_lat": 0.0, "bike_id": "c90622c6baff95a31ac860b41ff07291", "rental_uris": {"ios": "https://dc.lft.to/lastmile_qr_scan", "android": "https://dc.lft.to/lastmile_qr_scan"}}, {"name": "243293fbd25b0cee554f3d5bf7da68a9", "type": "electric_scooter", "lat": 38.916842, "is_reserved": 0, "lon": -77.02969833333333, "fusion_lon": 0.0, "is_disabled": 0, "fusion_lat": 0.0, "bike_id": "243293fbd25b0cee554f3d5bf7da68a9", "rental_uris": {"ios": "https://dc.lft.to/lastmile_qr_scan", "android": "https://dc.lft.to/lastmile_qr_scan"}}, {"name": "2af021a79025c67f4e34623e90572941", "type": "electric_scooter", "lat": 38.923341, "is_reserved": 0, "lon": -77.03891933333334, "fusion_lon": 0.0, "is_disabled": 0, "fusion_lat": 0.0, "bike_id": "2af021a79025c67f4e34623e90572941", "rental_uris": {"ios": "https://dc.lft.to/lastmile_qr_scan", "android": "https://dc.lft.to/lastmile_qr_scan"}}, {"name": "ac87f3dfd415eb61e1a392a95fa47cf0", "type": "electric_scooter", "lat": 38.903112, "is_reserved": 0, "lon": -77.04347433333334, "fusion_lon": 0.0, "is_disabled": 0, "fusion_lat": 0.0, "bike_id": "ac87f3dfd415eb61e1a392a95fa47cf0", "rental_uris": {"ios": "https://dc.lft.to/lastmile_qr_scan", "android": "https://dc.lft.to/lastmile_qr_scan"}}, {"name": "47a0e1241b7850a617fb5a3dbfd2d440", "type": "electric_scooter", "lat": 38.939888833333335, "is_reserved": 0, "lon": -77.028968, "fusion_lon": 0.0, "is_disabled": 0, "fusion_lat": 0.0, "bike_id": "47a0e1241b7850a617fb5a3dbfd2d440", "rental_uris": {"ios": "https://dc.lft.to/lastmile_qr_scan", "android": "https://dc.lft.to/lastmile_qr_scan"}}, {"name": "c583a9eb24ef15df09fbe823462f9934", "type": "electric_bike", "lat": 38.9994245, "is_reserved": 0, "lon": -77.01767833333334, "fusion_lon": 0.0, "is_disabled": 0, "fusion_lat": 0.0, "bike_id": "c583a9eb24ef15df09fbe823462f9934", "rental_uris": {"ios": "https://dc.lft.to/lastmile_qr_scan", "android": "https://dc.lft.to/lastmile_qr_scan"}}, {"name": "8b8f9ade86fd671e5df3aaf099afc497", "type": "electric_bike", "lat": 38.8585065, "is_reserved": 0, "lon": -77.09747933333334, "fusion_lon": 0.0, "is_disabled": 0, "fusion_lat": 0.0, "bike_id": "8b8f9ade86fd671e5df3aaf099afc497", "rental_uris": {"ios": "https://dc.lft.to/lastmile_qr_scan", "android": "https://dc.lft.to/lastmile_qr_scan"}}, {"name": "705194fa075d82b4ffaac0ebea731955", "type": "electric_scooter", "lat": 38.92073083333333, "is_reserved": 0, "lon": -77.03196833333334, "fusion_lon": 0.0, "is_disabled": 0, "fusion_lat": 0.0, "bike_id": "705194fa075d82b4ffaac0ebea731955", "rental_uris": {"ios": "https://dc.lft.to/lastmile_qr_scan", "android": "https://dc.lft.to/lastmile_qr_scan"}}, {"name": "b2eaf8d15bbb05a0ca8530f807458b9b", "type": "electric_scooter", "lat": 38.90020033333333, "is_reserved": 0, "lon": -77.04492783333333, "fusion_lon": 0.0, "is_disabled": 0, "fusion_lat": 0.0, "bike_id": "b2eaf8d15bbb05a0ca8530f807458b9b", "rental_uris": {"ios": "https://dc.lft.to/lastmile_qr_scan", "android": "https://dc.lft.to/lastmile_qr_scan"}}, {"name": "932e323793f0e4a8787d66de608c89af", "type": "electric_scooter", "lat": 38.902839666666665, "is_reserved": 0, "lon": -77.03863966666667, "fusion_lon": 0.0, "is_disabled": 0, "fusion_lat": 0.0, "bike_id": "932e323793f0e4a8787d66de608c89af", "rental_uris": {"ios": "https://dc.lft.to/lastmile_qr_scan", "android": "https://dc.lft.to/lastmile_qr_scan"}}, {"name": "2d61216bf6a776818d5e21b884a07dca", "type": "electric_scooter", "lat": 38.899536833333336, "is_reserved": 0, "lon": -77.03172766666667, "fusion_lon": 0.0, "is_disabled": 0, "fusion_lat": 0.0, "bike_id": "2d61216bf6a776818d5e21b884a07dca", "rental_uris": {"ios": "https://dc.lft.to/lastmile_qr_scan", "android": "https://dc.lft.to/lastmile_qr_scan"}}, {"name": "06fa418fb6dc8c31d3a8238c385e85a6", "type": "electric_scooter", "lat": 38.92062966666667, "is_reserved": 0, "lon": -77.03343566666666, "fusion_lon": 0.0, "is_disabled": 0, "fusion_lat": 0.0, "bike_id": "06fa418fb6dc8c31d3a8238c385e85a6", "rental_uris": {"ios": "https://dc.lft.to/lastmile_qr_scan", "android": "https://dc.lft.to/lastmile_qr_scan"}}, {"name": "7be4fbad15861971fe273d0b6e105386", "type": "electric_bike", "lat": 38.9662615, "is_reserved": 0, "lon": -76.97669466666666, "fusion_lon": 0.0, "is_disabled": 0, "fusion_lat": 0.0, "bike_id": "7be4fbad15861971fe273d0b6e105386", "rental_uris": {"ios": "https://dc.lft.to/lastmile_qr_scan", "android": "https://dc.lft.to/lastmile_qr_scan"}}, {"name": "ade7471208c24f39e4b9927fc9d352df", "type": "electric_scooter", "lat": 38.8670495, "is_reserved": 0, "lon": -76.98715916666667, "fusion_lon": 0.0, "is_disabled": 0, "fusion_lat": 0.0, "bike_id": "ade7471208c24f39e4b9927fc9d352df", "rental_uris": {"ios": "https://dc.lft.to/lastmile_qr_scan", "android": "https://dc.lft.to/lastmile_qr_scan"}}, {"name": "a131f8464294953c6efdb86b5cf66333", "type": "electric_scooter", "lat": 38.92849916666667, "is_reserved": 0, "lon": -77.03291983333334, "fusion_lon": 0.0, "is_disabled": 0, "fusion_lat": 0.0, "bike_id": "a131f8464294953c6efdb86b5cf66333", "rental_uris": {"ios": "https://dc.lft.to/lastmile_qr_scan", "android": "https://dc.lft.to/lastmile_qr_scan"}}, {"name": "5e64f3f475fb9eb94609996020177e40", "type": "electric_scooter", "lat": 38.890528, "is_reserved": 0, "lon": -76.93752583333334, "fusion_lon": 0.0, "is_disabled": 0, "fusion_lat": 0.0, "bike_id": "5e64f3f475fb9eb94609996020177e40", "rental_uris": {"ios": "https://dc.lft.to/lastmile_qr_scan", "android": "https://dc.lft.to/lastmile_qr_scan"}}, {"name": "ea0a4cc7d8dc2878d34edd421a2b89c0", "type": "electric_scooter", "lat": 38.9100275, "is_reserved": 0, "lon": -77.02185733333333, "fusion_lon": 0.0, "is_disabled": 0, "fusion_lat": 0.0, "bike_id": "ea0a4cc7d8dc2878d34edd421a2b89c0", "rental_uris": {"ios": "https://dc.lft.to/lastmile_qr_scan", "android": "https://dc.lft.to/lastmile_qr_scan"}}, {"name": "f1493e96612cc02aa590932ceaae2842", "type": "electric_bike", "lat": 38.973304, "is_reserved": 0, "lon": -77.02150433333334, "fusion_lon": 0.0, "is_disabled": 0, "fusion_lat": 0.0, "bike_id": "f1493e96612cc02aa590932ceaae2842", "rental_uris": {"ios": "https://dc.lft.to/lastmile_qr_scan", "android": "https://dc.lft.to/lastmile_qr_scan"}}, {"name": "e0b6585289178c8b087c8262ab2d5fa5", "type": "electric_scooter", "lat": 38.9270115, "is_reserved": 0, "lon": -77.03594933333333, "fusion_lon": 0.0, "is_disabled": 0, "fusion_lat": 0.0, "bike_id": "e0b6585289178c8b087c8262ab2d5fa5", "rental_uris": {"ios": "https://dc.lft.to/lastmile_qr_scan", "android": "https://dc.lft.to/lastmile_qr_scan"}}, {"name": "b2441d0c63e63b7a16ee88441a3b904f", "type": "electric_scooter", "lat": 38.93231316666667, "is_reserved": 0, "lon": -77.03544283333333, "fusion_lon": 0.0, "is_disabled": 0, "fusion_lat": 0.0, "bike_id": "b2441d0c63e63b7a16ee88441a3b904f", "rental_uris": {"ios": "https://dc.lft.to/lastmile_qr_scan", "android": "https://dc.lft.to/lastmile_qr_scan"}}, {"name": "bbd74ebddec64248b027254538d7ad34", "type": "electric_bike", "lat": 38.838600166666666, "is_reserved": 0, "lon": -77.088655, "fusion_lon": 0.0, "is_disabled": 0, "fusion_lat": 0.0, "bike_id": "bbd74ebddec64248b027254538d7ad34", "rental_uris": {"ios": "https://dc.lft.to/lastmile_qr_scan", "android": "https://dc.lft.to/lastmile_qr_scan"}}, {"name": "4d140592630098d65257d33dfb2e69bf", "type": "electric_scooter", "lat": 38.9043165, "is_reserved": 0, "lon": -77.02956966666666, "fusion_lon": 0.0, "is_disabled": 0, "fusion_lat": 0.0, "bike_id": "4d140592630098d65257d33dfb2e69bf", "rental_uris": {"ios": "https://dc.lft.to/lastmile_qr_scan", "android": "https://dc.lft.to/lastmile_qr_scan"}}, {"name": "7e9fce178d8e830967d79b8b236974dc", "type": "electric_bike", "lat": 38.900891, "is_reserved": 0, "lon": -76.98001916666666, "fusion_lon": 0.0, "is_disabled": 0, "fusion_lat": 0.0, "bike_id": "7e9fce178d8e830967d79b8b236974dc", "rental_uris": {"ios": "https://dc.lft.to/lastmile_qr_scan", "android": "https://dc.lft.to/lastmile_qr_scan"}}, {"name": "7c2fc70835fba132ff914b43b4d09ce9", "type": "electric_scooter", "lat": 38.90031316666666, "is_reserved": 0, "lon": -76.99446066666667, "fusion_lon": 0.0, "is_disabled": 0, "fusion_lat": 0.0, "bike_id": "7c2fc70835fba132ff914b43b4d09ce9", "rental_uris": {"ios": "https://dc.lft.to/lastmile_qr_scan", "android": "https://dc.lft.to/lastmile_qr_scan"}}, {"name": "faed764f2aa6424ecedd8a9319d369d7", "type": "electric_scooter", "lat": 38.90327383333333, "is_reserved": 0, "lon": -77.03861383333333, "fusion_lon": 0.0, "is_disabled": 0, "fusion_lat": 0.0, "bike_id": "faed764f2aa6424ecedd8a9319d369d7", "rental_uris": {"ios": "https://dc.lft.to/lastmile_qr_scan", "android": "https://dc.lft.to/lastmile_qr_scan"}}, {"name": "892b9b7c76b0716bb5e73933b3d8e351", "type": "electric_scooter", "lat": 38.90279683333333, "is_reserved": 0, "lon": -77.038656, "fusion_lon": 0.0, "is_disabled": 0, "fusion_lat": 0.0, "bike_id": "892b9b7c76b0716bb5e73933b3d8e351", "rental_uris": {"ios": "https://dc.lft.to/lastmile_qr_scan", "android": "https://dc.lft.to/lastmile_qr_scan"}}, {"name": "6acae36eb523b97bf2253b720a2178bf", "type": "electric_scooter", "lat": 38.92000216666667, "is_reserved": 0, "lon": -77.03470466666667, "fusion_lon": 0.0, "is_disabled": 0, "fusion_lat": 0.0, "bike_id": "6acae36eb523b97bf2253b720a2178bf", "rental_uris": {"ios": "https://dc.lft.to/lastmile_qr_scan", "android": "https://dc.lft.to/lastmile_qr_scan"}}, {"name": "cbd84b3c4afb616745925588b05863ea", "type": "electric_scooter", "lat": 38.8990485, "is_reserved": 0, "lon": -77.03924116666667, "fusion_lon": 0.0, "is_disabled": 0, "fusion_lat": 0.0, "bike_id": "cbd84b3c4afb616745925588b05863ea", "rental_uris": {"ios": "https://dc.lft.to/lastmile_qr_scan", "android": "https://dc.lft.to/lastmile_qr_scan"}}, {"name": "ecdffee6c9f820d1dd4359016e2db2d6", "type": "electric_scooter", "lat": 38.89206033333333, "is_reserved": 0, "lon": -77.00239216666667, "fusion_lon": 0.0, "is_disabled": 0, "fusion_lat": 0.0, "bike_id": "ecdffee6c9f820d1dd4359016e2db2d6", "rental_uris": {"ios": "https://dc.lft.to/lastmile_qr_scan", "android": "https://dc.lft.to/lastmile_qr_scan"}}, {"name": "74884940053180525c65ddddd1fb8c82", "type": "electric_scooter", "lat": 38.9335895, "is_reserved": 0, "lon": -77.069379, "fusion_lon": 0.0, "is_disabled": 0, "fusion_lat": 0.0, "bike_id": "74884940053180525c65ddddd1fb8c82", "rental_uris": {"ios": "https://dc.lft.to/lastmile_qr_scan", "android": "https://dc.lft.to/lastmile_qr_scan"}}, {"name": "273e485e955de2a6f3a70fddd45714f2", "type": "electric_scooter", "lat": 38.88784316666667, "is_reserved": 0, "lon": -76.95532466666667, "fusion_lon": 0.0, "is_disabled": 0, "fusion_lat": 0.0, "bike_id": "273e485e955de2a6f3a70fddd45714f2", "rental_uris": {"ios": "https://dc.lft.to/lastmile_qr_scan", "android": "https://dc.lft.to/lastmile_qr_scan"}}, {"name": "b9184ecda4c39cb96b2631ad9be1102c", "type": "electric_scooter", "lat": 38.88532516666667, "is_reserved": 0, "lon": -77.005862, "fusion_lon": 0.0, "is_disabled": 0, "fusion_lat": 0.0, "bike_id": "b9184ecda4c39cb96b2631ad9be1102c", "rental_uris": {"ios": "https://dc.lft.to/lastmile_qr_scan", "android": "https://dc.lft.to/lastmile_qr_scan"}}, {"name": "e5c6b27ab112124be765823d7231f7e0", "type": "electric_scooter", "lat": 38.907776, "is_reserved": 0, "lon": -77.06910466666666, "fusion_lon": 0.0, "is_disabled": 0, "fusion_lat": 0.0, "bike_id": "e5c6b27ab112124be765823d7231f7e0", "rental_uris": {"ios": "https://dc.lft.to/lastmile_qr_scan", "android": "https://dc.lft.to/lastmile_qr_scan"}}, {"name": "5c3ea1f08fe6cc00939a6805d281426e", "type": "electric_scooter", "lat": 38.92114483333334, "is_reserved": 0, "lon": -77.04223516666667, "fusion_lon": 0.0, "is_disabled": 0, "fusion_lat": 0.0, "bike_id": "5c3ea1f08fe6cc00939a6805d281426e", "rental_uris": {"ios": "https://dc.lft.to/lastmile_qr_scan", "android": "https://dc.lft.to/lastmile_qr_scan"}}, {"name": "b46290a23258b237e3a6f4714dbfb99e", "type": "electric_scooter", "lat": 38.90285933333333, "is_reserved": 0, "lon": -77.02316616666667, "fusion_lon": 0.0, "is_disabled": 0, "fusion_lat": 0.0, "bike_id": "b46290a23258b237e3a6f4714dbfb99e", "rental_uris": {"ios": "https://dc.lft.to/lastmile_qr_scan", "android": "https://dc.lft.to/lastmile_qr_scan"}}, {"name": "0ea080ae7d93f6e1b894fbef19a671c7", "type": "electric_bike", "lat": 38.90485316666667, "is_reserved": 0, "lon": -77.02764166666667, "fusion_lon": 0.0, "is_disabled": 0, "fusion_lat": 0.0, "bike_id": "0ea080ae7d93f6e1b894fbef19a671c7", "rental_uris": {"ios": "https://dc.lft.to/lastmile_qr_scan", "android": "https://dc.lft.to/lastmile_qr_scan"}}, {"name": "77719d2ae45f9e9a0226603ad25e85eb", "type": "electric_scooter", "lat": 38.90479216666667, "is_reserved": 0, "lon": -77.06018483333334, "fusion_lon": 0.0, "is_disabled": 0, "fusion_lat": 0.0, "bike_id": "77719d2ae45f9e9a0226603ad25e85eb", "rental_uris": {"ios": "https://dc.lft.to/lastmile_qr_scan", "android": "https://dc.lft.to/lastmile_qr_scan"}}, {"name": "cb86ea7d9c0ab1a97304dc4986d3e72d", "type": "electric_scooter", "lat": 38.893593333333335, "is_reserved": 0, "lon": -77.003324, "fusion_lon": 0.0, "is_disabled": 0, "fusion_lat": 0.0, "bike_id": "cb86ea7d9c0ab1a97304dc4986d3e72d", "rental_uris": {"ios": "https://dc.lft.to/lastmile_qr_scan", "android": "https://dc.lft.to/lastmile_qr_scan"}}, {"name": "7baf52ce8f835d8e8a3b9de0d32d7abd", "type": "electric_bike", "lat": 39.030479666666665, "is_reserved": 0, "lon": -77.09476366666667, "fusion_lon": 0.0, "is_disabled": 0, "fusion_lat": 0.0, "bike_id": "7baf52ce8f835d8e8a3b9de0d32d7abd", "rental_uris": {"ios": "https://dc.lft.to/lastmile_qr_scan", "android": "https://dc.lft.to/lastmile_qr_scan"}}, {"name": "0999d80f5b422ab31cba88275572d74e", "type": "electric_scooter", "lat": 38.90209466666667, "is_reserved": 0, "lon": -77.050344, "fusion_lon": 0.0, "is_disabled": 0, "fusion_lat": 0.0, "bike_id": "0999d80f5b422ab31cba88275572d74e", "rental_uris": {"ios": "https://dc.lft.to/lastmile_qr_scan", "android": "https://dc.lft.to/lastmile_qr_scan"}}, {"name": "fbbb4e6198d43abfecc98be831e61e17", "type": "electric_bike", "lat": 38.9705785, "is_reserved": 0, "lon": -76.93615016666666, "fusion_lon": 0.0, "is_disabled": 0, "fusion_lat": 0.0, "bike_id": "fbbb4e6198d43abfecc98be831e61e17", "rental_uris": {"ios": "https://dc.lft.to/lastmile_qr_scan", "android": "https://dc.lft.to/lastmile_qr_scan"}}, {"name": "d5a1d39f67ca5ac597d4f9917011ba8d", "type": "electric_scooter", "lat": 38.931146166666664, "is_reserved": 0, "lon": -77.03842266666666, "fusion_lon": 0.0, "is_disabled": 0, "fusion_lat": 0.0, "bike_id": "d5a1d39f67ca5ac597d4f9917011ba8d", "rental_uris": {"ios": "https://dc.lft.to/lastmile_qr_scan", "android": "https://dc.lft.to/lastmile_qr_scan"}}, {"name": "c03fbb5c3cc733c4390508d6329297a9", "type": "electric_bike", "lat": 38.9136095, "is_reserved": 0, "lon": -77.028747, "fusion_lon": 0.0, "is_disabled": 0, "fusion_lat": 0.0, "bike_id": "c03fbb5c3cc733c4390508d6329297a9", "rental_uris": {"ios": "https://dc.lft.to/lastmile_qr_scan", "android": "https://dc.lft.to/lastmile_qr_scan"}}, {"name": "210c05b98e675ea79b25c0dcb07b88a4", "type": "electric_scooter", "lat": 38.894954166666665, "is_reserved": 0, "lon": -77.02397083333334, "fusion_lon": 0.0, "is_disabled": 0, "fusion_lat": 0.0, "bike_id": "210c05b98e675ea79b25c0dcb07b88a4", "rental_uris": {"ios": "https://dc.lft.to/lastmile_qr_scan", "android": "https://dc.lft.to/lastmile_qr_scan"}}, {"name": "f66170359b718a240c13eb2620acae13", "type": "electric_scooter", "lat": 38.92799016666667, "is_reserved": 0, "lon": -77.05357016666666, "fusion_lon": 0.0, "is_disabled": 0, "fusion_lat": 0.0, "bike_id": "f66170359b718a240c13eb2620acae13", "rental_uris": {"ios": "https://dc.lft.to/lastmile_qr_scan", "android": "https://dc.lft.to/lastmile_qr_scan"}}, {"name": "c33e5387f70e3986454a5ba1a6ef72ec", "type": "electric_bike", "lat": 38.827318, "is_reserved": 0, "lon": -77.00865666666667, "fusion_lon": 0.0, "is_disabled": 0, "fusion_lat": 0.0, "bike_id": "c33e5387f70e3986454a5ba1a6ef72ec", "rental_uris": {"ios": "https://dc.lft.to/lastmile_qr_scan", "android": "https://dc.lft.to/lastmile_qr_scan"}}, {"name": "ecf15189995e2a2196d461dd224fc238", "type": "electric_scooter", "lat": 38.90235166666667, "is_reserved": 0, "lon": -77.04339066666667, "fusion_lon": 0.0, "is_disabled": 0, "fusion_lat": 0.0, "bike_id": "ecf15189995e2a2196d461dd224fc238", "rental_uris": {"ios": "https://dc.lft.to/lastmile_qr_scan", "android": "https://dc.lft.to/lastmile_qr_scan"}}, {"name": "3fea96960a7c212953a0235735167a21", "type": "electric_scooter", "lat": 38.90024016666667, "is_reserved": 0, "lon": -77.03223416666667, "fusion_lon": 0.0, "is_disabled": 0, "fusion_lat": 0.0, "bike_id": "3fea96960a7c212953a0235735167a21", "rental_uris": {"ios": "https://dc.lft.to/lastmile_qr_scan", "android": "https://dc.lft.to/lastmile_qr_scan"}}, {"name": "f318205454a0974871879196e687038b", "type": "electric_scooter", "lat": 38.92610233333333, "is_reserved": 0, "lon": -77.02158133333333, "fusion_lon": 0.0, "is_disabled": 0, "fusion_lat": 0.0, "bike_id": "f318205454a0974871879196e687038b", "rental_uris": {"ios": "https://dc.lft.to/lastmile_qr_scan", "android": "https://dc.lft.to/lastmile_qr_scan"}}, {"name": "39a01c82ede3f298a1a60946ef6190ba", "type": "electric_scooter", "lat": 38.900698166666665, "is_reserved": 0, "lon": -77.031927, "fusion_lon": 0.0, "is_disabled": 0, "fusion_lat": 0.0, "bike_id": "39a01c82ede3f298a1a60946ef6190ba", "rental_uris": {"ios": "https://dc.lft.to/lastmile_qr_scan", "android": "https://dc.lft.to/lastmile_qr_scan"}}, {"name": "a25115751ff2b68cac4dfdaa51d860de", "type": "electric_scooter", "lat": 38.90586783333333, "is_reserved": 0, "lon": -77.04034166666666, "fusion_lon": 0.0, "is_disabled": 0, "fusion_lat": 0.0, "bike_id": "a25115751ff2b68cac4dfdaa51d860de", "rental_uris": {"ios": "https://dc.lft.to/lastmile_qr_scan", "android": "https://dc.lft.to/lastmile_qr_scan"}}, {"name": "12bd7bf9789153a0ada99228bb27eb16", "type": "electric_scooter", "lat": 38.885000166666664, "is_reserved": 0, "lon": -77.007282, "fusion_lon": 0.0, "is_disabled": 0, "fusion_lat": 0.0, "bike_id": "12bd7bf9789153a0ada99228bb27eb16", "rental_uris": {"ios": "https://dc.lft.to/lastmile_qr_scan", "android": "https://dc.lft.to/lastmile_qr_scan"}}, {"name": "d0279d6f7073c59cd0a734cb0920ac45", "type": "electric_scooter", "lat": 38.89887216666666, "is_reserved": 0, "lon": -77.03277933333334, "fusion_lon": 0.0, "is_disabled": 0, "fusion_lat": 0.0, "bike_id": "d0279d6f7073c59cd0a734cb0920ac45", "rental_uris": {"ios": "https://dc.lft.to/lastmile_qr_scan", "android": "https://dc.lft.to/lastmile_qr_scan"}}, {"name": "fdd32ed76e050f680f1a8a47953cc239", "type": "electric_scooter", "lat": 38.89740283333333, "is_reserved": 0, "lon": -76.94721766666666, "fusion_lon": 0.0, "is_disabled": 0, "fusion_lat": 0.0, "bike_id": "fdd32ed76e050f680f1a8a47953cc239", "rental_uris": {"ios": "https://dc.lft.to/lastmile_qr_scan", "android": "https://dc.lft.to/lastmile_qr_scan"}}, {"name": "cedc575564a44ca9f3df55fe5cd68dce", "type": "electric_scooter", "lat": 38.880315333333336, "is_reserved": 0, "lon": -76.931406, "fusion_lon": 0.0, "is_disabled": 0, "fusion_lat": 0.0, "bike_id": "cedc575564a44ca9f3df55fe5cd68dce", "rental_uris": {"ios": "https://dc.lft.to/lastmile_qr_scan", "android": "https://dc.lft.to/lastmile_qr_scan"}}, {"name": "4b413db70aa163cdba6bafaa0262ed97", "type": "electric_scooter", "lat": 38.919807666666664, "is_reserved": 0, "lon": -77.02181283333333, "fusion_lon": 0.0, "is_disabled": 0, "fusion_lat": 0.0, "bike_id": "4b413db70aa163cdba6bafaa0262ed97", "rental_uris": {"ios": "https://dc.lft.to/lastmile_qr_scan", "android": "https://dc.lft.to/lastmile_qr_scan"}}, {"name": "f80635abb763e350633bf49891f50490", "type": "electric_scooter", "lat": 38.891971833333336, "is_reserved": 0, "lon": -77.002928, "fusion_lon": 0.0, "is_disabled": 0, "fusion_lat": 0.0, "bike_id": "f80635abb763e350633bf49891f50490", "rental_uris": {"ios": "https://dc.lft.to/lastmile_qr_scan", "android": "https://dc.lft.to/lastmile_qr_scan"}}, {"name": "2c92661b7d86a77b475d2a1281fe575a", "type": "electric_scooter", "lat": 38.90115516666667, "is_reserved": 0, "lon": -77.05164566666667, "fusion_lon": 0.0, "is_disabled": 0, "fusion_lat": 0.0, "bike_id": "2c92661b7d86a77b475d2a1281fe575a", "rental_uris": {"ios": "https://dc.lft.to/lastmile_qr_scan", "android": "https://dc.lft.to/lastmile_qr_scan"}}, {"name": "5b797ee9c1e0016a1c52fdb87c8a9b80", "type": "electric_scooter", "lat": 38.903502833333334, "is_reserved": 0, "lon": -77.0384815, "fusion_lon": 0.0, "is_disabled": 0, "fusion_lat": 0.0, "bike_id": "5b797ee9c1e0016a1c52fdb87c8a9b80", "rental_uris": {"ios": "https://dc.lft.to/lastmile_qr_scan", "android": "https://dc.lft.to/lastmile_qr_scan"}}, {"name": "1b95afd2ff2e796f1d34e8a737d6e13a", "type": "electric_scooter", "lat": 38.9058855, "is_reserved": 0, "lon": -77.039753, "fusion_lon": 0.0, "is_disabled": 0, "fusion_lat": 0.0, "bike_id": "1b95afd2ff2e796f1d34e8a737d6e13a", "rental_uris": {"ios": "https://dc.lft.to/lastmile_qr_scan", "android": "https://dc.lft.to/lastmile_qr_scan"}}, {"name": "0bd51ca370d9b116497d260fb4bcc9a3", "type": "electric_bike", "lat": 38.905140833333334, "is_reserved": 0, "lon": -77.06021616666666, "fusion_lon": 0.0, "is_disabled": 0, "fusion_lat": 0.0, "bike_id": "0bd51ca370d9b116497d260fb4bcc9a3", "rental_uris": {"ios": "https://dc.lft.to/lastmile_qr_scan", "android": "https://dc.lft.to/lastmile_qr_scan"}}, {"name": "0bf35d3dfdd24b7e907a54f12058a370", "type": "electric_scooter", "lat": 38.959224666666664, "is_reserved": 0, "lon": -77.0332425, "fusion_lon": 0.0, "is_disabled": 0, "fusion_lat": 0.0, "bike_id": "0bf35d3dfdd24b7e907a54f12058a370", "rental_uris": {"ios": "https://dc.lft.to/lastmile_qr_scan", "android": "https://dc.lft.to/lastmile_qr_scan"}}, {"name": "0be205419dbe04c09d86897fe2915b79", "type": "electric_scooter", "lat": 38.911999, "is_reserved": 0, "lon": -77.0609705, "fusion_lon": 0.0, "is_disabled": 0, "fusion_lat": 0.0, "bike_id": "0be205419dbe04c09d86897fe2915b79", "rental_uris": {"ios": "https://dc.lft.to/lastmile_qr_scan", "android": "https://dc.lft.to/lastmile_qr_scan"}}, {"name": "ed46f35c03ab4042aa2e7450d7107c58", "type": "electric_scooter", "lat": 38.884966166666665, "is_reserved": 0, "lon": -77.00725583333333, "fusion_lon": 0.0, "is_disabled": 0, "fusion_lat": 0.0, "bike_id": "ed46f35c03ab4042aa2e7450d7107c58", "rental_uris": {"ios": "https://dc.lft.to/lastmile_qr_scan", "android": "https://dc.lft.to/lastmile_qr_scan"}}, {"name": "51ba1ef051fcf1b1beb52b52d86bbe42", "type": "electric_scooter", "lat": 38.90284183333333, "is_reserved": 0, "lon": -77.0596975, "fusion_lon": 0.0, "is_disabled": 0, "fusion_lat": 0.0, "bike_id": "51ba1ef051fcf1b1beb52b52d86bbe42", "rental_uris": {"ios": "https://dc.lft.to/lastmile_qr_scan", "android": "https://dc.lft.to/lastmile_qr_scan"}}, {"name": "dd66e2ca179746845b415ed9da0e745a", "type": "electric_bike", "lat": 38.916814, "is_reserved": 0, "lon": -77.03199166666667, "fusion_lon": 0.0, "is_disabled": 0, "fusion_lat": 0.0, "bike_id": "dd66e2ca179746845b415ed9da0e745a", "rental_uris": {"ios": "https://dc.lft.to/lastmile_qr_scan", "android": "https://dc.lft.to/lastmile_qr_scan"}}, {"name": "145d3e190ec1c4ffd0b338b065c48def", "type": "electric_scooter", "lat": 38.904029333333334, "is_reserved": 0, "lon": -77.04353316666666, "fusion_lon": 0.0, "is_disabled": 0, "fusion_lat": 0.0, "bike_id": "145d3e190ec1c4ffd0b338b065c48def", "rental_uris": {"ios": "https://dc.lft.to/lastmile_qr_scan", "android": "https://dc.lft.to/lastmile_qr_scan"}}, {"name": "adf7cf3710f97d3d35aa32df84205aff", "type": "electric_scooter", "lat": 38.8970065, "is_reserved": 0, "lon": -77.0270485, "fusion_lon": 0.0, "is_disabled": 0, "fusion_lat": 0.0, "bike_id": "adf7cf3710f97d3d35aa32df84205aff", "rental_uris": {"ios": "https://dc.lft.to/lastmile_qr_scan", "android": "https://dc.lft.to/lastmile_qr_scan"}}, {"name": "5ef07183ad95279178b962a57b3483a9", "type": "electric_scooter", "lat": 38.912014166666665, "is_reserved": 0, "lon": -77.07313833333333, "fusion_lon": 0.0, "is_disabled": 0, "fusion_lat": 0.0, "bike_id": "5ef07183ad95279178b962a57b3483a9", "rental_uris": {"ios": "https://dc.lft.to/lastmile_qr_scan", "android": "https://dc.lft.to/lastmile_qr_scan"}}, {"name": "151fa0527df3ee0fc509b5049cf7ccd8", "type": "electric_scooter", "lat": 38.906708333333334, "is_reserved": 0, "lon": -77.00902266666667, "fusion_lon": 0.0, "is_disabled": 0, "fusion_lat": 0.0, "bike_id": "151fa0527df3ee0fc509b5049cf7ccd8", "rental_uris": {"ios": "https://dc.lft.to/lastmile_qr_scan", "android": "https://dc.lft.to/lastmile_qr_scan"}}, {"name": "6cb60a29133485e4e3691345519d82f4", "type": "electric_scooter", "lat": 38.929608, "is_reserved": 0, "lon": -77.02334583333334, "fusion_lon": 0.0, "is_disabled": 0, "fusion_lat": 0.0, "bike_id": "6cb60a29133485e4e3691345519d82f4", "rental_uris": {"ios": "https://dc.lft.to/lastmile_qr_scan", "android": "https://dc.lft.to/lastmile_qr_scan"}}, {"name": "ffa3acd50eea3fc4642b00711c8d9bea", "type": "electric_scooter", "lat": 38.9298775, "is_reserved": 0, "lon": -77.02488766666667, "fusion_lon": 0.0, "is_disabled": 0, "fusion_lat": 0.0, "bike_id": "ffa3acd50eea3fc4642b00711c8d9bea", "rental_uris": {"ios": "https://dc.lft.to/lastmile_qr_scan", "android": "https://dc.lft.to/lastmile_qr_scan"}}, {"name": "4bae9e0940886a9a22d8b3c4b47f942f", "type": "electric_scooter", "lat": 38.92156883333333, "is_reserved": 0, "lon": -77.0353165, "fusion_lon": 0.0, "is_disabled": 0, "fusion_lat": 0.0, "bike_id": "4bae9e0940886a9a22d8b3c4b47f942f", "rental_uris": {"ios": "https://dc.lft.to/lastmile_qr_scan", "android": "https://dc.lft.to/lastmile_qr_scan"}}, {"name": "fc9fa116430cb36bca4fb359ba4380a5", "type": "electric_scooter", "lat": 38.895090333333336, "is_reserved": 0, "lon": -77.00339966666667, "fusion_lon": 0.0, "is_disabled": 0, "fusion_lat": 0.0, "bike_id": "fc9fa116430cb36bca4fb359ba4380a5", "rental_uris": {"ios": "https://dc.lft.to/lastmile_qr_scan", "android": "https://dc.lft.to/lastmile_qr_scan"}}, {"name": "3062a9b2f85626923537a9c65e8aa51b", "type": "electric_scooter", "lat": 38.90955316666667, "is_reserved": 0, "lon": -77.048619, "fusion_lon": 0.0, "is_disabled": 0, "fusion_lat": 0.0, "bike_id": "3062a9b2f85626923537a9c65e8aa51b", "rental_uris": {"ios": "https://dc.lft.to/lastmile_qr_scan", "android": "https://dc.lft.to/lastmile_qr_scan"}}, {"name": "bc1a541dc6e1651c0c4697f4d4516f9d", "type": "electric_bike", "lat": 38.95959883333333, "is_reserved": 0, "lon": -77.10090383333333, "fusion_lon": 0.0, "is_disabled": 0, "fusion_lat": 0.0, "bike_id": "bc1a541dc6e1651c0c4697f4d4516f9d", "rental_uris": {"ios": "https://dc.lft.to/lastmile_qr_scan", "android": "https://dc.lft.to/lastmile_qr_scan"}}, {"name": "f522c6193ee6f9c07bc73d0c486f7b6c", "type": "electric_scooter", "lat": 38.90789683333333, "is_reserved": 0, "lon": -77.00964583333334, "fusion_lon": 0.0, "is_disabled": 0, "fusion_lat": 0.0, "bike_id": "f522c6193ee6f9c07bc73d0c486f7b6c", "rental_uris": {"ios": "https://dc.lft.to/lastmile_qr_scan", "android": "https://dc.lft.to/lastmile_qr_scan"}}, {"name": "9e727ab863e92620556200c20d64d6d9", "type": "electric_scooter", "lat": 38.89558316666667, "is_reserved": 0, "lon": -77.00925216666667, "fusion_lon": 0.0, "is_disabled": 0, "fusion_lat": 0.0, "bike_id": "9e727ab863e92620556200c20d64d6d9", "rental_uris": {"ios": "https://dc.lft.to/lastmile_qr_scan", "android": "https://dc.lft.to/lastmile_qr_scan"}}, {"name": "c7e6fd45d9ed8fe5458ab07042b09698", "type": "electric_scooter", "lat": 38.928466666666665, "is_reserved": 0, "lon": -77.05428133333334, "fusion_lon": 0.0, "is_disabled": 0, "fusion_lat": 0.0, "bike_id": "c7e6fd45d9ed8fe5458ab07042b09698", "rental_uris": {"ios": "https://dc.lft.to/lastmile_qr_scan", "android": "https://dc.lft.to/lastmile_qr_scan"}}, {"name": "28506418d46b716b47fc22b5a820d97b", "type": "electric_bike", "lat": 38.87426933333333, "is_reserved": 0, "lon": -77.08569883333334, "fusion_lon": 0.0, "is_disabled": 0, "fusion_lat": 0.0, "bike_id": "28506418d46b716b47fc22b5a820d97b", "rental_uris": {"ios": "https://dc.lft.to/lastmile_qr_scan", "android": "https://dc.lft.to/lastmile_qr_scan"}}, {"name": "2b3e5efb7720a90678febc39e168bb85", "type": "electric_scooter", "lat": 38.89469316666667, "is_reserved": 0, "lon": -77.02138683333334, "fusion_lon": 0.0, "is_disabled": 0, "fusion_lat": 0.0, "bike_id": "2b3e5efb7720a90678febc39e168bb85", "rental_uris": {"ios": "https://dc.lft.to/lastmile_qr_scan", "android": "https://dc.lft.to/lastmile_qr_scan"}}, {"name": "e3d38cd727a61691caf8bfe9d06b2c5a", "type": "electric_scooter", "lat": 38.87833916666666, "is_reserved": 0, "lon": -76.99035333333333, "fusion_lon": 0.0, "is_disabled": 0, "fusion_lat": 0.0, "bike_id": "e3d38cd727a61691caf8bfe9d06b2c5a", "rental_uris": {"ios": "https://dc.lft.to/lastmile_qr_scan", "android": "https://dc.lft.to/lastmile_qr_scan"}}, {"name": "3a192fcdad30c018c6903c7ac4475523", "type": "electric_scooter", "lat": 38.90560416666667, "is_reserved": 0, "lon": -77.00607383333333, "fusion_lon": 0.0, "is_disabled": 0, "fusion_lat": 0.0, "bike_id": "3a192fcdad30c018c6903c7ac4475523", "rental_uris": {"ios": "https://dc.lft.to/lastmile_qr_scan", "android": "https://dc.lft.to/lastmile_qr_scan"}}, {"name": "fef4e1317263a61fdeca3bca1260cdf4", "type": "electric_scooter", "lat": 38.91915766666666, "is_reserved": 0, "lon": -77.01350816666667, "fusion_lon": 0.0, "is_disabled": 0, "fusion_lat": 0.0, "bike_id": "fef4e1317263a61fdeca3bca1260cdf4", "rental_uris": {"ios": "https://dc.lft.to/lastmile_qr_scan", "android": "https://dc.lft.to/lastmile_qr_scan"}}, {"name": "fcd925f8304a97c0a5a714d11168c602", "type": "electric_scooter", "lat": 38.90298966666667, "is_reserved": 0, "lon": -76.998566, "fusion_lon": 0.0, "is_disabled": 0, "fusion_lat": 0.0, "bike_id": "fcd925f8304a97c0a5a714d11168c602", "rental_uris": {"ios": "https://dc.lft.to/lastmile_qr_scan", "android": "https://dc.lft.to/lastmile_qr_scan"}}, {"name": "ae0a04fca1f3dd76e255917686358934", "type": "electric_scooter", "lat": 38.933077, "is_reserved": 0, "lon": -77.03090966666667, "fusion_lon": 0.0, "is_disabled": 0, "fusion_lat": 0.0, "bike_id": "ae0a04fca1f3dd76e255917686358934", "rental_uris": {"ios": "https://dc.lft.to/lastmile_qr_scan", "android": "https://dc.lft.to/lastmile_qr_scan"}}, {"name": "6c819e46094f0a99050df2cac55f5454", "type": "electric_scooter", "lat": 38.904515833333335, "is_reserved": 0, "lon": -76.99627416666667, "fusion_lon": 0.0, "is_disabled": 0, "fusion_lat": 0.0, "bike_id": "6c819e46094f0a99050df2cac55f5454", "rental_uris": {"ios": "https://dc.lft.to/lastmile_qr_scan", "android": "https://dc.lft.to/lastmile_qr_scan"}}, {"name": "bbab29500c40d811afd6c97c89a08983", "type": "electric_scooter", "lat": 38.856199833333335, "is_reserved": 0, "lon": -76.98023216666667, "fusion_lon": 0.0, "is_disabled": 0, "fusion_lat": 0.0, "bike_id": "bbab29500c40d811afd6c97c89a08983", "rental_uris": {"ios": "https://dc.lft.to/lastmile_qr_scan", "android": "https://dc.lft.to/lastmile_qr_scan"}}, {"name": "870f2ef4b3bdb35ed550c1d2908a155d", "type": "electric_scooter", "lat": 38.87631733333333, "is_reserved": 0, "lon": -76.965283, "fusion_lon": 0.0, "is_disabled": 0, "fusion_lat": 0.0, "bike_id": "870f2ef4b3bdb35ed550c1d2908a155d", "rental_uris": {"ios": "https://dc.lft.to/lastmile_qr_scan", "android": "https://dc.lft.to/lastmile_qr_scan"}}, {"name": "f19d5b44f2514bf9310f3e093390b89a", "type": "electric_scooter", "lat": 38.895844833333335, "is_reserved": 0, "lon": -76.93716616666667, "fusion_lon": 0.0, "is_disabled": 0, "fusion_lat": 0.0, "bike_id": "f19d5b44f2514bf9310f3e093390b89a", "rental_uris": {"ios": "https://dc.lft.to/lastmile_qr_scan", "android": "https://dc.lft.to/lastmile_qr_scan"}}, {"name": "32b8375c99ab245d45afb2db3da69f70", "type": "electric_scooter", "lat": 38.842921833333335, "is_reserved": 0, "lon": -76.99946933333334, "fusion_lon": 0.0, "is_disabled": 0, "fusion_lat": 0.0, "bike_id": "32b8375c99ab245d45afb2db3da69f70", "rental_uris": {"ios": "https://dc.lft.to/lastmile_qr_scan", "android": "https://dc.lft.to/lastmile_qr_scan"}}, {"name": "7dc6848e01bb3010cbd5f2752bc6bfc4", "type": "electric_scooter", "lat": 38.9593385, "is_reserved": 0, "lon": -77.031247, "fusion_lon": 0.0, "is_disabled": 0, "fusion_lat": 0.0, "bike_id": "7dc6848e01bb3010cbd5f2752bc6bfc4", "rental_uris": {"ios": "https://dc.lft.to/lastmile_qr_scan", "android": "https://dc.lft.to/lastmile_qr_scan"}}, {"name": "fbb04896077f1f9ee1adb69ca4ce21b6", "type": "electric_scooter", "lat": 38.8850395, "is_reserved": 0, "lon": -77.0057115, "fusion_lon": 0.0, "is_disabled": 0, "fusion_lat": 0.0, "bike_id": "fbb04896077f1f9ee1adb69ca4ce21b6", "rental_uris": {"ios": "https://dc.lft.to/lastmile_qr_scan", "android": "https://dc.lft.to/lastmile_qr_scan"}}, {"name": "ef08d88f794fdba29d0e3b46eafabd7f", "type": "electric_scooter", "lat": 38.90434966666667, "is_reserved": 0, "lon": -77.036486, "fusion_lon": 0.0, "is_disabled": 0, "fusion_lat": 0.0, "bike_id": "ef08d88f794fdba29d0e3b46eafabd7f", "rental_uris": {"ios": "https://dc.lft.to/lastmile_qr_scan", "android": "https://dc.lft.to/lastmile_qr_scan"}}, {"name": "689e86e198d60b8067703249716ab5d4", "type": "electric_scooter", "lat": 38.905793333333335, "is_reserved": 0, "lon": -77.045353, "fusion_lon": 0.0, "is_disabled": 0, "fusion_lat": 0.0, "bike_id": "689e86e198d60b8067703249716ab5d4", "rental_uris": {"ios": "https://dc.lft.to/lastmile_qr_scan", "android": "https://dc.lft.to/lastmile_qr_scan"}}, {"name": "6b36ea0f15654cf0c6485a6ee13a61ad", "type": "electric_scooter", "lat": 38.90379383333333, "is_reserved": 0, "lon": -77.044769, "fusion_lon": 0.0, "is_disabled": 0, "fusion_lat": 0.0, "bike_id": "6b36ea0f15654cf0c6485a6ee13a61ad", "rental_uris": {"ios": "https://dc.lft.to/lastmile_qr_scan", "android": "https://dc.lft.to/lastmile_qr_scan"}}, {"name": "53808f5b1588419a6f2310f9f8d0c9f6", "type": "electric_scooter", "lat": 38.91360983333333, "is_reserved": 0, "lon": -77.0175485, "fusion_lon": 0.0, "is_disabled": 0, "fusion_lat": 0.0, "bike_id": "53808f5b1588419a6f2310f9f8d0c9f6", "rental_uris": {"ios": "https://dc.lft.to/lastmile_qr_scan", "android": "https://dc.lft.to/lastmile_qr_scan"}}, {"name": "89c714440d092b3c5d77e11da8cef906", "type": "electric_scooter", "lat": 38.914064833333335, "is_reserved": 0, "lon": -77.00840416666666, "fusion_lon": 0.0, "is_disabled": 0, "fusion_lat": 0.0, "bike_id": "89c714440d092b3c5d77e11da8cef906", "rental_uris": {"ios": "https://dc.lft.to/lastmile_qr_scan", "android": "https://dc.lft.to/lastmile_qr_scan"}}, {"name": "a474ec648fcb3c76d25b1e44d9e92332", "type": "electric_bike", "lat": 38.903095, "is_reserved": 0, "lon": -77.0418195, "fusion_lon": 0.0, "is_disabled": 0, "fusion_lat": 0.0, "bike_id": "a474ec648fcb3c76d25b1e44d9e92332", "rental_uris": {"ios": "https://dc.lft.to/lastmile_qr_scan", "android": "https://dc.lft.to/lastmile_qr_scan"}}, {"name": "452252ab46dfcb036853bb9f08f8d1f4", "type": "electric_scooter", "lat": 38.91707733333333, "is_reserved": 0, "lon": -77.03123066666667, "fusion_lon": 0.0, "is_disabled": 0, "fusion_lat": 0.0, "bike_id": "452252ab46dfcb036853bb9f08f8d1f4", "rental_uris": {"ios": "https://dc.lft.to/lastmile_qr_scan", "android": "https://dc.lft.to/lastmile_qr_scan"}}, {"name": "7b2f339ded8db078c2a5d0d0feb5fa6a", "type": "electric_scooter", "lat": 38.9224435, "is_reserved": 0, "lon": -77.03089033333333, "fusion_lon": 0.0, "is_disabled": 0, "fusion_lat": 0.0, "bike_id": "7b2f339ded8db078c2a5d0d0feb5fa6a", "rental_uris": {"ios": "https://dc.lft.to/lastmile_qr_scan", "android": "https://dc.lft.to/lastmile_qr_scan"}}, {"name": "fc2f67936a01f20ea2f4cec7e819fd62", "type": "electric_scooter", "lat": 38.90503666666667, "is_reserved": 0, "lon": -76.99016566666667, "fusion_lon": 0.0, "is_disabled": 0, "fusion_lat": 0.0, "bike_id": "fc2f67936a01f20ea2f4cec7e819fd62", "rental_uris": {"ios": "https://dc.lft.to/lastmile_qr_scan", "android": "https://dc.lft.to/lastmile_qr_scan"}}, {"name": "3f4b493de05c32e7b30bfff33647cae1", "type": "electric_scooter", "lat": 38.904303166666665, "is_reserved": 0, "lon": -77.03271083333334, "fusion_lon": 0.0, "is_disabled": 0, "fusion_lat": 0.0, "bike_id": "3f4b493de05c32e7b30bfff33647cae1", "rental_uris": {"ios": "https://dc.lft.to/lastmile_qr_scan", "android": "https://dc.lft.to/lastmile_qr_scan"}}, {"name": "ed271db90f0e0d40600f867047405ef5", "type": "electric_scooter", "lat": 38.90046316666667, "is_reserved": 0, "lon": -77.03197816666666, "fusion_lon": 0.0, "is_disabled": 0, "fusion_lat": 0.0, "bike_id": "ed271db90f0e0d40600f867047405ef5", "rental_uris": {"ios": "https://dc.lft.to/lastmile_qr_scan", "android": "https://dc.lft.to/lastmile_qr_scan"}}, {"name": "5614127e37deb00a05a968913b3f03b9", "type": "electric_scooter", "lat": 38.894974500000004, "is_reserved": 0, "lon": -77.01092833333334, "fusion_lon": 0.0, "is_disabled": 0, "fusion_lat": 0.0, "bike_id": "5614127e37deb00a05a968913b3f03b9", "rental_uris": {"ios": "https://dc.lft.to/lastmile_qr_scan", "android": "https://dc.lft.to/lastmile_qr_scan"}}, {"name": "9c48a967774c69a02395e1c51e59d9ef", "type": "electric_bike", "lat": 38.892266166666666, "is_reserved": 0, "lon": -76.97025133333334, "fusion_lon": 0.0, "is_disabled": 0, "fusion_lat": 0.0, "bike_id": "9c48a967774c69a02395e1c51e59d9ef", "rental_uris": {"ios": "https://dc.lft.to/lastmile_qr_scan", "android": "https://dc.lft.to/lastmile_qr_scan"}}, {"name": "ca90e47d9be1b039bab899b417df678d", "type": "electric_scooter", "lat": 38.898771833333335, "is_reserved": 0, "lon": -76.93157616666667, "fusion_lon": 0.0, "is_disabled": 0, "fusion_lat": 0.0, "bike_id": "ca90e47d9be1b039bab899b417df678d", "rental_uris": {"ios": "https://dc.lft.to/lastmile_qr_scan", "android": "https://dc.lft.to/lastmile_qr_scan"}}, {"name": "9cdee2fffea5c35861025d6dd3a1b158", "type": "electric_scooter", "lat": 38.9210465, "is_reserved": 0, "lon": -77.03756133333333, "fusion_lon": 0.0, "is_disabled": 0, "fusion_lat": 0.0, "bike_id": "9cdee2fffea5c35861025d6dd3a1b158", "rental_uris": {"ios": "https://dc.lft.to/lastmile_qr_scan", "android": "https://dc.lft.to/lastmile_qr_scan"}}, {"name": "0f60ca45bf7465827bd0230be4eed7b5", "type": "electric_scooter", "lat": 38.863757666666665, "is_reserved": 0, "lon": -76.99061416666666, "fusion_lon": 0.0, "is_disabled": 0, "fusion_lat": 0.0, "bike_id": "0f60ca45bf7465827bd0230be4eed7b5", "rental_uris": {"ios": "https://dc.lft.to/lastmile_qr_scan", "android": "https://dc.lft.to/lastmile_qr_scan"}}, {"name": "f2d4bedf21e31ca1abed1673c4549c79", "type": "electric_scooter", "lat": 38.897735, "is_reserved": 0, "lon": -76.977321, "fusion_lon": 0.0, "is_disabled": 0, "fusion_lat": 0.0, "bike_id": "f2d4bedf21e31ca1abed1673c4549c79", "rental_uris": {"ios": "https://dc.lft.to/lastmile_qr_scan", "android": "https://dc.lft.to/lastmile_qr_scan"}}, {"name": "17ac9d6c668d89ae6519300df8f216fa", "type": "electric_scooter", "lat": 38.89381133333333, "is_reserved": 0, "lon": -77.0199605, "fusion_lon": 0.0, "is_disabled": 0, "fusion_lat": 0.0, "bike_id": "17ac9d6c668d89ae6519300df8f216fa", "rental_uris": {"ios": "https://dc.lft.to/lastmile_qr_scan", "android": "https://dc.lft.to/lastmile_qr_scan"}}, {"name": "d10a159ae30051467cbaaa459fec1542", "type": "electric_scooter", "lat": 38.92538183333333, "is_reserved": 0, "lon": -77.0386025, "fusion_lon": 0.0, "is_disabled": 0, "fusion_lat": 0.0, "bike_id": "d10a159ae30051467cbaaa459fec1542", "rental_uris": {"ios": "https://dc.lft.to/lastmile_qr_scan", "android": "https://dc.lft.to/lastmile_qr_scan"}}, {"name": "cb8806835980cd05465ea84a87c34a07", "type": "electric_scooter", "lat": 38.89474, "is_reserved": 0, "lon": -77.04660316666667, "fusion_lon": 0.0, "is_disabled": 0, "fusion_lat": 0.0, "bike_id": "cb8806835980cd05465ea84a87c34a07", "rental_uris": {"ios": "https://dc.lft.to/lastmile_qr_scan", "android": "https://dc.lft.to/lastmile_qr_scan"}}, {"name": "f60cd54c54fde5d883731f758270846f", "type": "electric_scooter", "lat": 38.8987615, "is_reserved": 0, "lon": -77.03314716666667, "fusion_lon": 0.0, "is_disabled": 0, "fusion_lat": 0.0, "bike_id": "f60cd54c54fde5d883731f758270846f", "rental_uris": {"ios": "https://dc.lft.to/lastmile_qr_scan", "android": "https://dc.lft.to/lastmile_qr_scan"}}, {"name": "bf7773051d206407d9e20d76f377e1f6", "type": "electric_bike", "lat": 38.9221115, "is_reserved": 0, "lon": -76.9879975, "fusion_lon": 0.0, "is_disabled": 0, "fusion_lat": 0.0, "bike_id": "bf7773051d206407d9e20d76f377e1f6", "rental_uris": {"ios": "https://dc.lft.to/lastmile_qr_scan", "android": "https://dc.lft.to/lastmile_qr_scan"}}, {"name": "b87149005d2a4d97af1d9f9af90e0859", "type": "electric_scooter", "lat": 38.943675666666664, "is_reserved": 0, "lon": -77.02177883333333, "fusion_lon": 0.0, "is_disabled": 0, "fusion_lat": 0.0, "bike_id": "b87149005d2a4d97af1d9f9af90e0859", "rental_uris": {"ios": "https://dc.lft.to/lastmile_qr_scan", "android": "https://dc.lft.to/lastmile_qr_scan"}}, {"name": "92833e9a283bf11ae178960e6e9e9e13", "type": "electric_scooter", "lat": 38.88755, "is_reserved": 0, "lon": -76.979805, "fusion_lon": 0.0, "is_disabled": 0, "fusion_lat": 0.0, "bike_id": "92833e9a283bf11ae178960e6e9e9e13", "rental_uris": {"ios": "https://dc.lft.to/lastmile_qr_scan", "android": "https://dc.lft.to/lastmile_qr_scan"}}, {"name": "8da610c11ce6366e153d9debdb61f8fd", "type": "electric_bike", "lat": 38.875792, "is_reserved": 0, "lon": -77.105651, "fusion_lon": 0.0, "is_disabled": 0, "fusion_lat": 0.0, "bike_id": "8da610c11ce6366e153d9debdb61f8fd", "rental_uris": {"ios": "https://dc.lft.to/lastmile_qr_scan", "android": "https://dc.lft.to/lastmile_qr_scan"}}, {"name": "8f89bed8ef492d4b6102285a5dc1148d", "type": "electric_scooter", "lat": 38.93505283333333, "is_reserved": 0, "lon": -77.02001283333334, "fusion_lon": 0.0, "is_disabled": 0, "fusion_lat": 0.0, "bike_id": "8f89bed8ef492d4b6102285a5dc1148d", "rental_uris": {"ios": "https://dc.lft.to/lastmile_qr_scan", "android": "https://dc.lft.to/lastmile_qr_scan"}}, {"name": "4c847acc097d5ee9778ce0f0c2fe3017", "type": "electric_scooter", "lat": 38.89490933333333, "is_reserved": 0, "lon": -77.01011933333334, "fusion_lon": 0.0, "is_disabled": 0, "fusion_lat": 0.0, "bike_id": "4c847acc097d5ee9778ce0f0c2fe3017", "rental_uris": {"ios": "https://dc.lft.to/lastmile_qr_scan", "android": "https://dc.lft.to/lastmile_qr_scan"}}, {"name": "ef339de08ec99365337ef6aa21f59875", "type": "electric_scooter", "lat": 38.9256515, "is_reserved": 0, "lon": -77.029816, "fusion_lon": 0.0, "is_disabled": 0, "fusion_lat": 0.0, "bike_id": "ef339de08ec99365337ef6aa21f59875", "rental_uris": {"ios": "https://dc.lft.to/lastmile_qr_scan", "android": "https://dc.lft.to/lastmile_qr_scan"}}, {"name": "4108e0071230d507a5ee3d7df2037de9", "type": "electric_scooter", "lat": 38.88521933333333, "is_reserved": 0, "lon": -76.97711116666666, "fusion_lon": 0.0, "is_disabled": 0, "fusion_lat": 0.0, "bike_id": "4108e0071230d507a5ee3d7df2037de9", "rental_uris": {"ios": "https://dc.lft.to/lastmile_qr_scan", "android": "https://dc.lft.to/lastmile_qr_scan"}}, {"name": "54355e57e5c804cbb8989deb2e74aea8", "type": "electric_scooter", "lat": 38.90401283333333, "is_reserved": 0, "lon": -77.0421115, "fusion_lon": 0.0, "is_disabled": 0, "fusion_lat": 0.0, "bike_id": "54355e57e5c804cbb8989deb2e74aea8", "rental_uris": {"ios": "https://dc.lft.to/lastmile_qr_scan", "android": "https://dc.lft.to/lastmile_qr_scan"}}, {"name": "596a516e3b52e91f92effe01f6404037", "type": "electric_scooter", "lat": 38.904105666666666, "is_reserved": 0, "lon": -76.97328133333333, "fusion_lon": 0.0, "is_disabled": 0, "fusion_lat": 0.0, "bike_id": "596a516e3b52e91f92effe01f6404037", "rental_uris": {"ios": "https://dc.lft.to/lastmile_qr_scan", "android": "https://dc.lft.to/lastmile_qr_scan"}}, {"name": "ce3e64e75527245199144ca9f6c510f1", "type": "electric_scooter", "lat": 38.90580166666667, "is_reserved": 0, "lon": -77.04358266666667, "fusion_lon": 0.0, "is_disabled": 0, "fusion_lat": 0.0, "bike_id": "ce3e64e75527245199144ca9f6c510f1", "rental_uris": {"ios": "https://dc.lft.to/lastmile_qr_scan", "android": "https://dc.lft.to/lastmile_qr_scan"}}, {"name": "5d37ac8a56423671b3d0e0af51ab4e91", "type": "electric_scooter", "lat": 38.892267333333336, "is_reserved": 0, "lon": -77.03215983333334, "fusion_lon": 0.0, "is_disabled": 0, "fusion_lat": 0.0, "bike_id": "5d37ac8a56423671b3d0e0af51ab4e91", "rental_uris": {"ios": "https://dc.lft.to/lastmile_qr_scan", "android": "https://dc.lft.to/lastmile_qr_scan"}}, {"name": "bdd4ec4c9b0eda32cd232740aef5a020", "type": "electric_scooter", "lat": 38.93176833333333, "is_reserved": 0, "lon": -77.02853683333333, "fusion_lon": 0.0, "is_disabled": 0, "fusion_lat": 0.0, "bike_id": "bdd4ec4c9b0eda32cd232740aef5a020", "rental_uris": {"ios": "https://dc.lft.to/lastmile_qr_scan", "android": "https://dc.lft.to/lastmile_qr_scan"}}, {"name": "6ac117ee9de4a02f0257956461191cd5", "type": "electric_scooter", "lat": 38.92017366666666, "is_reserved": 0, "lon": -77.0386545, "fusion_lon": 0.0, "is_disabled": 0, "fusion_lat": 0.0, "bike_id": "6ac117ee9de4a02f0257956461191cd5", "rental_uris": {"ios": "https://dc.lft.to/lastmile_qr_scan", "android": "https://dc.lft.to/lastmile_qr_scan"}}, {"name": "c7955681ae652f59df5009c28fffcc91", "type": "electric_scooter", "lat": 38.940175833333335, "is_reserved": 0, "lon": -77.0717075, "fusion_lon": 0.0, "is_disabled": 0, "fusion_lat": 0.0, "bike_id": "c7955681ae652f59df5009c28fffcc91", "rental_uris": {"ios": "https://dc.lft.to/lastmile_qr_scan", "android": "https://dc.lft.to/lastmile_qr_scan"}}, {"name": "d78bccef68a6f7d08ddf5a0fb31dc48b", "type": "electric_scooter", "lat": 38.91922133333333, "is_reserved": 0, "lon": -77.0097785, "fusion_lon": 0.0, "is_disabled": 0, "fusion_lat": 0.0, "bike_id": "d78bccef68a6f7d08ddf5a0fb31dc48b", "rental_uris": {"ios": "https://dc.lft.to/lastmile_qr_scan", "android": "https://dc.lft.to/lastmile_qr_scan"}}, {"name": "d51da7f87a3620ad00037c11c51ac94a", "type": "electric_scooter", "lat": 38.9043965, "is_reserved": 0, "lon": -76.98487266666666, "fusion_lon": 0.0, "is_disabled": 0, "fusion_lat": 0.0, "bike_id": "d51da7f87a3620ad00037c11c51ac94a", "rental_uris": {"ios": "https://dc.lft.to/lastmile_qr_scan", "android": "https://dc.lft.to/lastmile_qr_scan"}}, {"name": "85fa747071773623788375a018d75812", "type": "electric_scooter", "lat": 38.92255266666667, "is_reserved": 0, "lon": -77.03087166666667, "fusion_lon": 0.0, "is_disabled": 0, "fusion_lat": 0.0, "bike_id": "85fa747071773623788375a018d75812", "rental_uris": {"ios": "https://dc.lft.to/lastmile_qr_scan", "android": "https://dc.lft.to/lastmile_qr_scan"}}, {"name": "101001a91fcbc6ef215a94b9f09018a9", "type": "electric_scooter", "lat": 38.90655866666667, "is_reserved": 0, "lon": -77.03857566666667, "fusion_lon": 0.0, "is_disabled": 0, "fusion_lat": 0.0, "bike_id": "101001a91fcbc6ef215a94b9f09018a9", "rental_uris": {"ios": "https://dc.lft.to/lastmile_qr_scan", "android": "https://dc.lft.to/lastmile_qr_scan"}}, {"name": "8c4aed5c1703d14164a78d7f47bdf71e", "type": "electric_scooter", "lat": 38.8852135, "is_reserved": 0, "lon": -77.03345816666666, "fusion_lon": 0.0, "is_disabled": 0, "fusion_lat": 0.0, "bike_id": "8c4aed5c1703d14164a78d7f47bdf71e", "rental_uris": {"ios": "https://dc.lft.to/lastmile_qr_scan", "android": "https://dc.lft.to/lastmile_qr_scan"}}, {"name": "57f9ea659f8b8565d50d96a0ef785cd4", "type": "electric_scooter", "lat": 38.92351033333333, "is_reserved": 0, "lon": -77.01904216666667, "fusion_lon": 0.0, "is_disabled": 0, "fusion_lat": 0.0, "bike_id": "57f9ea659f8b8565d50d96a0ef785cd4", "rental_uris": {"ios": "https://dc.lft.to/lastmile_qr_scan", "android": "https://dc.lft.to/lastmile_qr_scan"}}, {"name": "1bd318f65865e19e26db90e4702f1933", "type": "electric_scooter", "lat": 38.92061433333333, "is_reserved": 0, "lon": -77.02983783333333, "fusion_lon": 0.0, "is_disabled": 0, "fusion_lat": 0.0, "bike_id": "1bd318f65865e19e26db90e4702f1933", "rental_uris": {"ios": "https://dc.lft.to/lastmile_qr_scan", "android": "https://dc.lft.to/lastmile_qr_scan"}}, {"name": "0eb118c1b769ac704da79e5db34088f7", "type": "electric_scooter", "lat": 38.896686833333334, "is_reserved": 0, "lon": -77.02970466666666, "fusion_lon": 0.0, "is_disabled": 0, "fusion_lat": 0.0, "bike_id": "0eb118c1b769ac704da79e5db34088f7", "rental_uris": {"ios": "https://dc.lft.to/lastmile_qr_scan", "android": "https://dc.lft.to/lastmile_qr_scan"}}, {"name": "d24ead57a45e3f6e8d9eed9b73a0edcf", "type": "electric_bike", "lat": 38.95530766666667, "is_reserved": 0, "lon": -77.0229585, "fusion_lon": 0.0, "is_disabled": 0, "fusion_lat": 0.0, "bike_id": "d24ead57a45e3f6e8d9eed9b73a0edcf", "rental_uris": {"ios": "https://dc.lft.to/lastmile_qr_scan", "android": "https://dc.lft.to/lastmile_qr_scan"}}, {"name": "c1052b90706b4dfe5d6f32b168b14c3c", "type": "electric_scooter", "lat": 38.905911833333334, "is_reserved": 0, "lon": -77.0651815, "fusion_lon": 0.0, "is_disabled": 0, "fusion_lat": 0.0, "bike_id": "c1052b90706b4dfe5d6f32b168b14c3c", "rental_uris": {"ios": "https://dc.lft.to/lastmile_qr_scan", "android": "https://dc.lft.to/lastmile_qr_scan"}}, {"name": "2a0c62175d6d812613349ae03637fcf8", "type": "electric_scooter", "lat": 38.92069216666667, "is_reserved": 0, "lon": -76.97811733333333, "fusion_lon": 0.0, "is_disabled": 0, "fusion_lat": 0.0, "bike_id": "2a0c62175d6d812613349ae03637fcf8", "rental_uris": {"ios": "https://dc.lft.to/lastmile_qr_scan", "android": "https://dc.lft.to/lastmile_qr_scan"}}, {"name": "1e133aa03367290d71f909cbc9d88722", "type": "electric_bike", "lat": 38.946133, "is_reserved": 0, "lon": -77.06984366666667, "fusion_lon": 0.0, "is_disabled": 0, "fusion_lat": 0.0, "bike_id": "1e133aa03367290d71f909cbc9d88722", "rental_uris": {"ios": "https://dc.lft.to/lastmile_qr_scan", "android": "https://dc.lft.to/lastmile_qr_scan"}}, {"name": "9b5cf4f9456dcd61a616af6878706c04", "type": "electric_scooter", "lat": 38.905129333333335, "is_reserved": 0, "lon": -77.06385716666666, "fusion_lon": 0.0, "is_disabled": 0, "fusion_lat": 0.0, "bike_id": "9b5cf4f9456dcd61a616af6878706c04", "rental_uris": {"ios": "https://dc.lft.to/lastmile_qr_scan", "android": "https://dc.lft.to/lastmile_qr_scan"}}, {"name": "152cc1ec5ebebb7405f447631838707c", "type": "electric_scooter", "lat": 38.90969783333333, "is_reserved": 0, "lon": -77.01121183333333, "fusion_lon": 0.0, "is_disabled": 0, "fusion_lat": 0.0, "bike_id": "152cc1ec5ebebb7405f447631838707c", "rental_uris": {"ios": "https://dc.lft.to/lastmile_qr_scan", "android": "https://dc.lft.to/lastmile_qr_scan"}}, {"name": "ea5e0158d86efe89f2dbebc0c71c69c0", "type": "electric_scooter", "lat": 38.926297166666664, "is_reserved": 0, "lon": -77.03507516666667, "fusion_lon": 0.0, "is_disabled": 0, "fusion_lat": 0.0, "bike_id": "ea5e0158d86efe89f2dbebc0c71c69c0", "rental_uris": {"ios": "https://dc.lft.to/lastmile_qr_scan", "android": "https://dc.lft.to/lastmile_qr_scan"}}, {"name": "274a55ec7a2ff270b469ee126997f0e0", "type": "electric_scooter", "lat": 38.90372883333333, "is_reserved": 0, "lon": -77.043503, "fusion_lon": 0.0, "is_disabled": 0, "fusion_lat": 0.0, "bike_id": "274a55ec7a2ff270b469ee126997f0e0", "rental_uris": {"ios": "https://dc.lft.to/lastmile_qr_scan", "android": "https://dc.lft.to/lastmile_qr_scan"}}, {"name": "f3cfb9de82ed3fb23826280505c05a06", "type": "electric_scooter", "lat": 38.9059575, "is_reserved": 0, "lon": -77.0652295, "fusion_lon": 0.0, "is_disabled": 0, "fusion_lat": 0.0, "bike_id": "f3cfb9de82ed3fb23826280505c05a06", "rental_uris": {"ios": "https://dc.lft.to/lastmile_qr_scan", "android": "https://dc.lft.to/lastmile_qr_scan"}}, {"name": "cb9f07645acd1b5423eb49920b716f60", "type": "electric_scooter", "lat": 38.91976416666667, "is_reserved": 0, "lon": -77.00108833333333, "fusion_lon": 0.0, "is_disabled": 0, "fusion_lat": 0.0, "bike_id": "cb9f07645acd1b5423eb49920b716f60", "rental_uris": {"ios": "https://dc.lft.to/lastmile_qr_scan", "android": "https://dc.lft.to/lastmile_qr_scan"}}, {"name": "00ff8df63ceee74a0dcf23099c66347e", "type": "electric_scooter", "lat": 38.92751666666667, "is_reserved": 0, "lon": -77.03267266666667, "fusion_lon": 0.0, "is_disabled": 0, "fusion_lat": 0.0, "bike_id": "00ff8df63ceee74a0dcf23099c66347e", "rental_uris": {"ios": "https://dc.lft.to/lastmile_qr_scan", "android": "https://dc.lft.to/lastmile_qr_scan"}}, {"name": "1574b5c2c9aa899e82246e0393b8940b", "type": "electric_scooter", "lat": 38.902357, "is_reserved": 0, "lon": -77.01746233333333, "fusion_lon": 0.0, "is_disabled": 0, "fusion_lat": 0.0, "bike_id": "1574b5c2c9aa899e82246e0393b8940b", "rental_uris": {"ios": "https://dc.lft.to/lastmile_qr_scan", "android": "https://dc.lft.to/lastmile_qr_scan"}}, {"name": "1d497ea17b9817d08849e222f59709a5", "type": "electric_scooter", "lat": 38.934438166666666, "is_reserved": 0, "lon": -77.02840916666666, "fusion_lon": 0.0, "is_disabled": 0, "fusion_lat": 0.0, "bike_id": "1d497ea17b9817d08849e222f59709a5", "rental_uris": {"ios": "https://dc.lft.to/lastmile_qr_scan", "android": "https://dc.lft.to/lastmile_qr_scan"}}, {"name": "ac0b90d899090b08218746e86a9ebfe2", "type": "electric_bike", "lat": 38.897742, "is_reserved": 0, "lon": -76.90437, "fusion_lon": 0.0, "is_disabled": 0, "fusion_lat": 0.0, "bike_id": "ac0b90d899090b08218746e86a9ebfe2", "rental_uris": {"ios": "https://dc.lft.to/lastmile_qr_scan", "android": "https://dc.lft.to/lastmile_qr_scan"}}, {"name": "5eec741171b5a081dd5b9de6788c026c", "type": "electric_scooter", "lat": 38.92477866666667, "is_reserved": 0, "lon": -77.03779266666666, "fusion_lon": 0.0, "is_disabled": 0, "fusion_lat": 0.0, "bike_id": "5eec741171b5a081dd5b9de6788c026c", "rental_uris": {"ios": "https://dc.lft.to/lastmile_qr_scan", "android": "https://dc.lft.to/lastmile_qr_scan"}}, {"name": "a9df7bae54537225562cc9a567298fde", "type": "electric_scooter", "lat": 38.91688933333333, "is_reserved": 0, "lon": -77.02971033333333, "fusion_lon": 0.0, "is_disabled": 0, "fusion_lat": 0.0, "bike_id": "a9df7bae54537225562cc9a567298fde", "rental_uris": {"ios": "https://dc.lft.to/lastmile_qr_scan", "android": "https://dc.lft.to/lastmile_qr_scan"}}, {"name": "c2acefd5884ec310507871d472a559e5", "type": "electric_scooter", "lat": 38.932503833333335, "is_reserved": 0, "lon": -77.0295445, "fusion_lon": 0.0, "is_disabled": 0, "fusion_lat": 0.0, "bike_id": "c2acefd5884ec310507871d472a559e5", "rental_uris": {"ios": "https://dc.lft.to/lastmile_qr_scan", "android": "https://dc.lft.to/lastmile_qr_scan"}}, {"name": "0aa1933d7929d02c62ffb222ad2f7eed", "type": "electric_scooter", "lat": 38.9312245, "is_reserved": 0, "lon": -77.03601366666666, "fusion_lon": 0.0, "is_disabled": 0, "fusion_lat": 0.0, "bike_id": "0aa1933d7929d02c62ffb222ad2f7eed", "rental_uris": {"ios": "https://dc.lft.to/lastmile_qr_scan", "android": "https://dc.lft.to/lastmile_qr_scan"}}, {"name": "ae8ad53de8482a6ddb4ffd9630b49b58", "type": "electric_scooter", "lat": 38.931105333333335, "is_reserved": 0, "lon": -77.03465633333333, "fusion_lon": 0.0, "is_disabled": 0, "fusion_lat": 0.0, "bike_id": "ae8ad53de8482a6ddb4ffd9630b49b58", "rental_uris": {"ios": "https://dc.lft.to/lastmile_qr_scan", "android": "https://dc.lft.to/lastmile_qr_scan"}}, {"name": "68e332cd60a9754009377311caf694db", "type": "electric_scooter", "lat": 38.89945816666667, "is_reserved": 0, "lon": -77.0317965, "fusion_lon": 0.0, "is_disabled": 0, "fusion_lat": 0.0, "bike_id": "68e332cd60a9754009377311caf694db", "rental_uris": {"ios": "https://dc.lft.to/lastmile_qr_scan", "android": "https://dc.lft.to/lastmile_qr_scan"}}, {"name": "1fb9cbfe6a092e76ba2cf5180fb8eafa", "type": "electric_scooter", "lat": 38.897569, "is_reserved": 0, "lon": -77.0271035, "fusion_lon": 0.0, "is_disabled": 0, "fusion_lat": 0.0, "bike_id": "1fb9cbfe6a092e76ba2cf5180fb8eafa", "rental_uris": {"ios": "https://dc.lft.to/lastmile_qr_scan", "android": "https://dc.lft.to/lastmile_qr_scan"}}, {"name": "38585d51e660020845dbcda5c2e1a243", "type": "electric_scooter", "lat": 38.86702, "is_reserved": 0, "lon": -76.98714183333334, "fusion_lon": 0.0, "is_disabled": 0, "fusion_lat": 0.0, "bike_id": "38585d51e660020845dbcda5c2e1a243", "rental_uris": {"ios": "https://dc.lft.to/lastmile_qr_scan", "android": "https://dc.lft.to/lastmile_qr_scan"}}, {"name": "351c0f3589606d3d78c99e9be4549b33", "type": "electric_scooter", "lat": 38.89807533333333, "is_reserved": 0, "lon": -76.99163533333333, "fusion_lon": 0.0, "is_disabled": 0, "fusion_lat": 0.0, "bike_id": "351c0f3589606d3d78c99e9be4549b33", "rental_uris": {"ios": "https://dc.lft.to/lastmile_qr_scan", "android": "https://dc.lft.to/lastmile_qr_scan"}}, {"name": "68cb7e06b9c77aaef6be2d43bde7f33c", "type": "electric_scooter", "lat": 38.92155783333333, "is_reserved": 0, "lon": -77.02423466666667, "fusion_lon": 0.0, "is_disabled": 0, "fusion_lat": 0.0, "bike_id": "68cb7e06b9c77aaef6be2d43bde7f33c", "rental_uris": {"ios": "https://dc.lft.to/lastmile_qr_scan", "android": "https://dc.lft.to/lastmile_qr_scan"}}, {"name": "b3545905a63d2d3a2886c6c305e7b36e", "type": "electric_scooter", "lat": 38.8979425, "is_reserved": 0, "lon": -77.01191916666667, "fusion_lon": 0.0, "is_disabled": 0, "fusion_lat": 0.0, "bike_id": "b3545905a63d2d3a2886c6c305e7b36e", "rental_uris": {"ios": "https://dc.lft.to/lastmile_qr_scan", "android": "https://dc.lft.to/lastmile_qr_scan"}}, {"name": "5639bf318924240a9a3c566ac9a5d07e", "type": "electric_scooter", "lat": 38.883394833333334, "is_reserved": 0, "lon": -77.017657, "fusion_lon": 0.0, "is_disabled": 0, "fusion_lat": 0.0, "bike_id": "5639bf318924240a9a3c566ac9a5d07e", "rental_uris": {"ios": "https://dc.lft.to/lastmile_qr_scan", "android": "https://dc.lft.to/lastmile_qr_scan"}}, {"name": "8d6419738ce15f3b6e09678c448779a4", "type": "electric_scooter", "lat": 38.9059375, "is_reserved": 0, "lon": -77.03872283333334, "fusion_lon": 0.0, "is_disabled": 0, "fusion_lat": 0.0, "bike_id": "8d6419738ce15f3b6e09678c448779a4", "rental_uris": {"ios": "https://dc.lft.to/lastmile_qr_scan", "android": "https://dc.lft.to/lastmile_qr_scan"}}, {"name": "6acf63b1e9217fb9d4c33fcccb835ae1", "type": "electric_scooter", "lat": 38.906144, "is_reserved": 0, "lon": -77.026977, "fusion_lon": 0.0, "is_disabled": 0, "fusion_lat": 0.0, "bike_id": "6acf63b1e9217fb9d4c33fcccb835ae1", "rental_uris": {"ios": "https://dc.lft.to/lastmile_qr_scan", "android": "https://dc.lft.to/lastmile_qr_scan"}}, {"name": "1c66133f3ceebf697256cdfa3471adab", "type": "electric_scooter", "lat": 38.91256633333333, "is_reserved": 0, "lon": -77.0122345, "fusion_lon": 0.0, "is_disabled": 0, "fusion_lat": 0.0, "bike_id": "1c66133f3ceebf697256cdfa3471adab", "rental_uris": {"ios": "https://dc.lft.to/lastmile_qr_scan", "android": "https://dc.lft.to/lastmile_qr_scan"}}, {"name": "f88cffa4b3c9c8ac4e7f95ecd033a072", "type": "electric_scooter", "lat": 38.90378883333333, "is_reserved": 0, "lon": -77.04165166666667, "fusion_lon": 0.0, "is_disabled": 0, "fusion_lat": 0.0, "bike_id": "f88cffa4b3c9c8ac4e7f95ecd033a072", "rental_uris": {"ios": "https://dc.lft.to/lastmile_qr_scan", "android": "https://dc.lft.to/lastmile_qr_scan"}}, {"name": "becfc516d2aed6383b3f835ad2d01db4", "type": "electric_scooter", "lat": 38.92926033333333, "is_reserved": 0, "lon": -77.03250066666666, "fusion_lon": 0.0, "is_disabled": 0, "fusion_lat": 0.0, "bike_id": "becfc516d2aed6383b3f835ad2d01db4", "rental_uris": {"ios": "https://dc.lft.to/lastmile_qr_scan", "android": "https://dc.lft.to/lastmile_qr_scan"}}, {"name": "5e650e85dbcf0dd2bf37f82997c018b2", "type": "electric_scooter", "lat": 38.92722066666666, "is_reserved": 0, "lon": -77.02098033333333, "fusion_lon": 0.0, "is_disabled": 0, "fusion_lat": 0.0, "bike_id": "5e650e85dbcf0dd2bf37f82997c018b2", "rental_uris": {"ios": "https://dc.lft.to/lastmile_qr_scan", "android": "https://dc.lft.to/lastmile_qr_scan"}}, {"name": "478575969d3ded3d0c85d048949ff114", "type": "electric_scooter", "lat": 38.866632333333335, "is_reserved": 0, "lon": -76.98882066666667, "fusion_lon": 0.0, "is_disabled": 0, "fusion_lat": 0.0, "bike_id": "478575969d3ded3d0c85d048949ff114", "rental_uris": {"ios": "https://dc.lft.to/lastmile_qr_scan", "android": "https://dc.lft.to/lastmile_qr_scan"}}, {"name": "b293c1c794f5238147d701cae4e1ccf9", "type": "electric_scooter", "lat": 38.94280916666666, "is_reserved": 0, "lon": -77.02502133333333, "fusion_lon": 0.0, "is_disabled": 0, "fusion_lat": 0.0, "bike_id": "b293c1c794f5238147d701cae4e1ccf9", "rental_uris": {"ios": "https://dc.lft.to/lastmile_qr_scan", "android": "https://dc.lft.to/lastmile_qr_scan"}}, {"name": "316b6d48aa45105d8e2a0b2cc58ed2d3", "type": "electric_scooter", "lat": 38.905771333333334, "is_reserved": 0, "lon": -77.03481766666667, "fusion_lon": 0.0, "is_disabled": 0, "fusion_lat": 0.0, "bike_id": "316b6d48aa45105d8e2a0b2cc58ed2d3", "rental_uris": {"ios": "https://dc.lft.to/lastmile_qr_scan", "android": "https://dc.lft.to/lastmile_qr_scan"}}, {"name": "93686343ad20a32ba9b8e27bbc23404f", "type": "electric_bike", "lat": 38.96504266666667, "is_reserved": 0, "lon": -77.10331016666666, "fusion_lon": 0.0, "is_disabled": 0, "fusion_lat": 0.0, "bike_id": "93686343ad20a32ba9b8e27bbc23404f", "rental_uris": {"ios": "https://dc.lft.to/lastmile_qr_scan", "android": "https://dc.lft.to/lastmile_qr_scan"}}, {"name": "627712c798323f3ad384ae5a465ee4e9", "type": "electric_scooter", "lat": 38.900295166666666, "is_reserved": 0, "lon": -77.04682466666667, "fusion_lon": 0.0, "is_disabled": 0, "fusion_lat": 0.0, "bike_id": "627712c798323f3ad384ae5a465ee4e9", "rental_uris": {"ios": "https://dc.lft.to/lastmile_qr_scan", "android": "https://dc.lft.to/lastmile_qr_scan"}}, {"name": "a4fc973b0ed6cacb66d10c97190e7b5e", "type": "electric_scooter", "lat": 38.87789216666667, "is_reserved": 0, "lon": -76.99411516666666, "fusion_lon": 0.0, "is_disabled": 0, "fusion_lat": 0.0, "bike_id": "a4fc973b0ed6cacb66d10c97190e7b5e", "rental_uris": {"ios": "https://dc.lft.to/lastmile_qr_scan", "android": "https://dc.lft.to/lastmile_qr_scan"}}, {"name": "1cc83c48963ab1734753da4916f75658", "type": "electric_bike", "lat": 38.92087466666667, "is_reserved": 0, "lon": -77.01098083333333, "fusion_lon": 0.0, "is_disabled": 0, "fusion_lat": 0.0, "bike_id": "1cc83c48963ab1734753da4916f75658", "rental_uris": {"ios": "https://dc.lft.to/lastmile_qr_scan", "android": "https://dc.lft.to/lastmile_qr_scan"}}, {"name": "1c2a794cdf755078a0bdd66c25ad2519", "type": "electric_scooter", "lat": 38.90665283333333, "is_reserved": 0, "lon": -77.05148066666666, "fusion_lon": 0.0, "is_disabled": 0, "fusion_lat": 0.0, "bike_id": "1c2a794cdf755078a0bdd66c25ad2519", "rental_uris": {"ios": "https://dc.lft.to/lastmile_qr_scan", "android": "https://dc.lft.to/lastmile_qr_scan"}}, {"name": "e3046ff007d8fa6d370b1258ea4a6df4", "type": "electric_bike", "lat": 38.928647, "is_reserved": 0, "lon": -77.22215616666666, "fusion_lon": 0.0, "is_disabled": 0, "fusion_lat": 0.0, "bike_id": "e3046ff007d8fa6d370b1258ea4a6df4", "rental_uris": {"ios": "https://dc.lft.to/lastmile_qr_scan", "android": "https://dc.lft.to/lastmile_qr_scan"}}, {"name": "ee5a67df6a3e4cc90bee74d2c0e10c66", "type": "electric_scooter", "lat": 38.95658816666667, "is_reserved": 0, "lon": -77.032914, "fusion_lon": 0.0, "is_disabled": 0, "fusion_lat": 0.0, "bike_id": "ee5a67df6a3e4cc90bee74d2c0e10c66", "rental_uris": {"ios": "https://dc.lft.to/lastmile_qr_scan", "android": "https://dc.lft.to/lastmile_qr_scan"}}, {"name": "e722e558e42d47027346afe8479ee0e0", "type": "electric_scooter", "lat": 38.935391333333335, "is_reserved": 0, "lon": -77.03421233333333, "fusion_lon": 0.0, "is_disabled": 0, "fusion_lat": 0.0, "bike_id": "e722e558e42d47027346afe8479ee0e0", "rental_uris": {"ios": "https://dc.lft.to/lastmile_qr_scan", "android": "https://dc.lft.to/lastmile_qr_scan"}}, {"name": "c29bbc90747182c24dc5a36518a6d555", "type": "electric_scooter", "lat": 38.9574995, "is_reserved": 0, "lon": -77.02416283333334, "fusion_lon": 0.0, "is_disabled": 0, "fusion_lat": 0.0, "bike_id": "c29bbc90747182c24dc5a36518a6d555", "rental_uris": {"ios": "https://dc.lft.to/lastmile_qr_scan", "android": "https://dc.lft.to/lastmile_qr_scan"}}, {"name": "3ebeda93f55f8512a8f15db2bfcf71be", "type": "electric_bike", "lat": 38.93881583333334, "is_reserved": 0, "lon": -76.9541105, "fusion_lon": 0.0, "is_disabled": 0, "fusion_lat": 0.0, "bike_id": "3ebeda93f55f8512a8f15db2bfcf71be", "rental_uris": {"ios": "https://dc.lft.to/lastmile_qr_scan", "android": "https://dc.lft.to/lastmile_qr_scan"}}, {"name": "df482361e4a875fdd6ebe3dc9d8eaaaf", "type": "electric_bike", "lat": 39.08860283333333, "is_reserved": 0, "lon": -77.17844983333333, "fusion_lon": 0.0, "is_disabled": 0, "fusion_lat": 0.0, "bike_id": "df482361e4a875fdd6ebe3dc9d8eaaaf", "rental_uris": {"ios": "https://dc.lft.to/lastmile_qr_scan", "android": "https://dc.lft.to/lastmile_qr_scan"}}, {"name": "7f9fef4bbb76e95b81f57926ab7cd7e5", "type": "electric_scooter", "lat": 38.865408, "is_reserved": 0, "lon": -76.98713833333333, "fusion_lon": 0.0, "is_disabled": 0, "fusion_lat": 0.0, "bike_id": "7f9fef4bbb76e95b81f57926ab7cd7e5", "rental_uris": {"ios": "https://dc.lft.to/lastmile_qr_scan", "android": "https://dc.lft.to/lastmile_qr_scan"}}, {"name": "fbae819658c5539f5e3d3aa043c3dd31", "type": "electric_scooter", "lat": 38.892246666666665, "is_reserved": 0, "lon": -77.03087116666667, "fusion_lon": 0.0, "is_disabled": 0, "fusion_lat": 0.0, "bike_id": "fbae819658c5539f5e3d3aa043c3dd31", "rental_uris": {"ios": "https://dc.lft.to/lastmile_qr_scan", "android": "https://dc.lft.to/lastmile_qr_scan"}}, {"name": "a97fcdc739759b8bbda706f964843d20", "type": "electric_scooter", "lat": 38.89824183333333, "is_reserved": 0, "lon": -77.01058483333334, "fusion_lon": 0.0, "is_disabled": 0, "fusion_lat": 0.0, "bike_id": "a97fcdc739759b8bbda706f964843d20", "rental_uris": {"ios": "https://dc.lft.to/lastmile_qr_scan", "android": "https://dc.lft.to/lastmile_qr_scan"}}, {"name": "9035642d2874d565b2ad870b6ca2e7e4", "type": "electric_scooter", "lat": 38.8972275, "is_reserved": 0, "lon": -77.02712433333333, "fusion_lon": 0.0, "is_disabled": 0, "fusion_lat": 0.0, "bike_id": "9035642d2874d565b2ad870b6ca2e7e4", "rental_uris": {"ios": "https://dc.lft.to/lastmile_qr_scan", "android": "https://dc.lft.to/lastmile_qr_scan"}}, {"name": "21cae16860296cff67d1d8f72f335fe6", "type": "electric_scooter", "lat": 38.894808166666664, "is_reserved": 0, "lon": -76.94873433333333, "fusion_lon": 0.0, "is_disabled": 0, "fusion_lat": 0.0, "bike_id": "21cae16860296cff67d1d8f72f335fe6", "rental_uris": {"ios": "https://dc.lft.to/lastmile_qr_scan", "android": "https://dc.lft.to/lastmile_qr_scan"}}, {"name": "29ee81d5137f40652a9b96f5691b55f8", "type": "electric_scooter", "lat": 38.928759, "is_reserved": 0, "lon": -77.01393933333334, "fusion_lon": 0.0, "is_disabled": 0, "fusion_lat": 0.0, "bike_id": "29ee81d5137f40652a9b96f5691b55f8", "rental_uris": {"ios": "https://dc.lft.to/lastmile_qr_scan", "android": "https://dc.lft.to/lastmile_qr_scan"}}, {"name": "564d73ca7ac17ae5fb7c5b1e6d1f6073", "type": "electric_scooter", "lat": 38.90592816666667, "is_reserved": 0, "lon": -77.05101066666667, "fusion_lon": 0.0, "is_disabled": 0, "fusion_lat": 0.0, "bike_id": "564d73ca7ac17ae5fb7c5b1e6d1f6073", "rental_uris": {"ios": "https://dc.lft.to/lastmile_qr_scan", "android": "https://dc.lft.to/lastmile_qr_scan"}}, {"name": "ce9f731ef13ecaab55e3730b90eda153", "type": "electric_scooter", "lat": 38.9143165, "is_reserved": 0, "lon": -77.04651783333334, "fusion_lon": 0.0, "is_disabled": 0, "fusion_lat": 0.0, "bike_id": "ce9f731ef13ecaab55e3730b90eda153", "rental_uris": {"ios": "https://dc.lft.to/lastmile_qr_scan", "android": "https://dc.lft.to/lastmile_qr_scan"}}, {"name": "c61ef4da74db0111c9d910924d840927", "type": "electric_scooter", "lat": 38.9397155, "is_reserved": 0, "lon": -77.03260716666666, "fusion_lon": 0.0, "is_disabled": 0, "fusion_lat": 0.0, "bike_id": "c61ef4da74db0111c9d910924d840927", "rental_uris": {"ios": "https://dc.lft.to/lastmile_qr_scan", "android": "https://dc.lft.to/lastmile_qr_scan"}}, {"name": "62d0534da5bd3476e334e0c5bf46872a", "type": "electric_scooter", "lat": 38.89722233333333, "is_reserved": 0, "lon": -77.03248333333333, "fusion_lon": 0.0, "is_disabled": 0, "fusion_lat": 0.0, "bike_id": "62d0534da5bd3476e334e0c5bf46872a", "rental_uris": {"ios": "https://dc.lft.to/lastmile_qr_scan", "android": "https://dc.lft.to/lastmile_qr_scan"}}, {"name": "a2c4465a3c8807776f13d80b55a69442", "type": "electric_bike", "lat": 38.83726016666667, "is_reserved": 0, "lon": -76.997828, "fusion_lon": 0.0, "is_disabled": 0, "fusion_lat": 0.0, "bike_id": "a2c4465a3c8807776f13d80b55a69442", "rental_uris": {"ios": "https://dc.lft.to/lastmile_qr_scan", "android": "https://dc.lft.to/lastmile_qr_scan"}}, {"name": "2b3f55c15f2b9e5e8c7743f74985fcdf", "type": "electric_scooter", "lat": 38.9027705, "is_reserved": 0, "lon": -77.03071283333334, "fusion_lon": 0.0, "is_disabled": 0, "fusion_lat": 0.0, "bike_id": "2b3f55c15f2b9e5e8c7743f74985fcdf", "rental_uris": {"ios": "https://dc.lft.to/lastmile_qr_scan", "android": "https://dc.lft.to/lastmile_qr_scan"}}, {"name": "ebc3b60c4f1cb70c5b0f6794ecfc8067", "type": "electric_scooter", "lat": 38.917371333333335, "is_reserved": 0, "lon": -77.02292716666666, "fusion_lon": 0.0, "is_disabled": 0, "fusion_lat": 0.0, "bike_id": "ebc3b60c4f1cb70c5b0f6794ecfc8067", "rental_uris": {"ios": "https://dc.lft.to/lastmile_qr_scan", "android": "https://dc.lft.to/lastmile_qr_scan"}}, {"name": "5b8d1061cd6abcb513473b50d90eca4b", "type": "electric_bike", "lat": 38.950791833333334, "is_reserved": 0, "lon": -77.01212816666667, "fusion_lon": 0.0, "is_disabled": 0, "fusion_lat": 0.0, "bike_id": "5b8d1061cd6abcb513473b50d90eca4b", "rental_uris": {"ios": "https://dc.lft.to/lastmile_qr_scan", "android": "https://dc.lft.to/lastmile_qr_scan"}}, {"name": "6ac5d24a0e54113399195705e8cc9ff4", "type": "electric_bike", "lat": 38.8314535, "is_reserved": 0, "lon": -77.11310666666667, "fusion_lon": 0.0, "is_disabled": 0, "fusion_lat": 0.0, "bike_id": "6ac5d24a0e54113399195705e8cc9ff4", "rental_uris": {"ios": "https://dc.lft.to/lastmile_qr_scan", "android": "https://dc.lft.to/lastmile_qr_scan"}}, {"name": "d72060829ca15b4a0e14a4359b9c50ca", "type": "electric_scooter", "lat": 38.937164, "is_reserved": 0, "lon": -77.02933716666666, "fusion_lon": 0.0, "is_disabled": 0, "fusion_lat": 0.0, "bike_id": "d72060829ca15b4a0e14a4359b9c50ca", "rental_uris": {"ios": "https://dc.lft.to/lastmile_qr_scan", "android": "https://dc.lft.to/lastmile_qr_scan"}}, {"name": "cf553ac8153c34f7891bc34a026eee93", "type": "electric_scooter", "lat": 38.900371666666665, "is_reserved": 0, "lon": -77.002073, "fusion_lon": 0.0, "is_disabled": 0, "fusion_lat": 0.0, "bike_id": "cf553ac8153c34f7891bc34a026eee93", "rental_uris": {"ios": "https://dc.lft.to/lastmile_qr_scan", "android": "https://dc.lft.to/lastmile_qr_scan"}}, {"name": "c9b7ba3502f0cedd8fa08dd2cd4c4e2b", "type": "electric_scooter", "lat": 38.88516533333333, "is_reserved": 0, "lon": -77.00569233333333, "fusion_lon": 0.0, "is_disabled": 0, "fusion_lat": 0.0, "bike_id": "c9b7ba3502f0cedd8fa08dd2cd4c4e2b", "rental_uris": {"ios": "https://dc.lft.to/lastmile_qr_scan", "android": "https://dc.lft.to/lastmile_qr_scan"}}, {"name": "f43b505172221d1517471f920bc88eff", "type": "electric_scooter", "lat": 38.90101333333333, "is_reserved": 0, "lon": -77.0193015, "fusion_lon": 0.0, "is_disabled": 0, "fusion_lat": 0.0, "bike_id": "f43b505172221d1517471f920bc88eff", "rental_uris": {"ios": "https://dc.lft.to/lastmile_qr_scan", "android": "https://dc.lft.to/lastmile_qr_scan"}}, {"name": "fc62133883c786edce8038906f103b9d", "type": "electric_scooter", "lat": 38.934380833333336, "is_reserved": 0, "lon": -77.040028, "fusion_lon": 0.0, "is_disabled": 0, "fusion_lat": 0.0, "bike_id": "fc62133883c786edce8038906f103b9d", "rental_uris": {"ios": "https://dc.lft.to/lastmile_qr_scan", "android": "https://dc.lft.to/lastmile_qr_scan"}}, {"name": "0ae7c863867031875221dd845e392994", "type": "electric_scooter", "lat": 38.87657466666667, "is_reserved": 0, "lon": -77.00439116666666, "fusion_lon": 0.0, "is_disabled": 0, "fusion_lat": 0.0, "bike_id": "0ae7c863867031875221dd845e392994", "rental_uris": {"ios": "https://dc.lft.to/lastmile_qr_scan", "android": "https://dc.lft.to/lastmile_qr_scan"}}, {"name": "44095bbe3f6ce841945949f13a138dd5", "type": "electric_scooter", "lat": 38.8903615, "is_reserved": 0, "lon": -76.93628283333334, "fusion_lon": 0.0, "is_disabled": 0, "fusion_lat": 0.0, "bike_id": "44095bbe3f6ce841945949f13a138dd5", "rental_uris": {"ios": "https://dc.lft.to/lastmile_qr_scan", "android": "https://dc.lft.to/lastmile_qr_scan"}}, {"name": "a48a919ca33dee6d6ff7d571597af5d1", "type": "electric_scooter", "lat": 38.8850695, "is_reserved": 0, "lon": -77.01546966666666, "fusion_lon": 0.0, "is_disabled": 0, "fusion_lat": 0.0, "bike_id": "a48a919ca33dee6d6ff7d571597af5d1", "rental_uris": {"ios": "https://dc.lft.to/lastmile_qr_scan", "android": "https://dc.lft.to/lastmile_qr_scan"}}, {"name": "353b954ccb6b7be1e52057d532cc46af", "type": "electric_scooter", "lat": 38.935847833333334, "is_reserved": 0, "lon": -77.02747783333334, "fusion_lon": 0.0, "is_disabled": 0, "fusion_lat": 0.0, "bike_id": "353b954ccb6b7be1e52057d532cc46af", "rental_uris": {"ios": "https://dc.lft.to/lastmile_qr_scan", "android": "https://dc.lft.to/lastmile_qr_scan"}}, {"name": "042496ed74e805490c8be5e384180fcf", "type": "electric_scooter", "lat": 38.90264583333333, "is_reserved": 0, "lon": -77.01648216666666, "fusion_lon": 0.0, "is_disabled": 0, "fusion_lat": 0.0, "bike_id": "042496ed74e805490c8be5e384180fcf", "rental_uris": {"ios": "https://dc.lft.to/lastmile_qr_scan", "android": "https://dc.lft.to/lastmile_qr_scan"}}, {"name": "732043794e84830b9c10988df811972d", "type": "electric_scooter", "lat": 38.9133365, "is_reserved": 0, "lon": -77.0487475, "fusion_lon": 0.0, "is_disabled": 0, "fusion_lat": 0.0, "bike_id": "732043794e84830b9c10988df811972d", "rental_uris": {"ios": "https://dc.lft.to/lastmile_qr_scan", "android": "https://dc.lft.to/lastmile_qr_scan"}}, {"name": "612aaf2aabd3851d316a5eec281b704f", "type": "electric_scooter", "lat": 38.9188335, "is_reserved": 0, "lon": -77.01627866666666, "fusion_lon": 0.0, "is_disabled": 0, "fusion_lat": 0.0, "bike_id": "612aaf2aabd3851d316a5eec281b704f", "rental_uris": {"ios": "https://dc.lft.to/lastmile_qr_scan", "android": "https://dc.lft.to/lastmile_qr_scan"}}, {"name": "7555e94b618f5cdd083bf2bfb229a256", "type": "electric_scooter", "lat": 38.9058735, "is_reserved": 0, "lon": -77.00257166666667, "fusion_lon": 0.0, "is_disabled": 0, "fusion_lat": 0.0, "bike_id": "7555e94b618f5cdd083bf2bfb229a256", "rental_uris": {"ios": "https://dc.lft.to/lastmile_qr_scan", "android": "https://dc.lft.to/lastmile_qr_scan"}}, {"name": "c517b32cee5d9d43c6a2108faae48301", "type": "electric_scooter", "lat": 38.926254166666666, "is_reserved": 0, "lon": -77.03786583333333, "fusion_lon": 0.0, "is_disabled": 0, "fusion_lat": 0.0, "bike_id": "c517b32cee5d9d43c6a2108faae48301", "rental_uris": {"ios": "https://dc.lft.to/lastmile_qr_scan", "android": "https://dc.lft.to/lastmile_qr_scan"}}, {"name": "9befb027496e9b3041d41857401c769e", "type": "electric_scooter", "lat": 38.925825833333334, "is_reserved": 0, "lon": -77.004706, "fusion_lon": 0.0, "is_disabled": 0, "fusion_lat": 0.0, "bike_id": "9befb027496e9b3041d41857401c769e", "rental_uris": {"ios": "https://dc.lft.to/lastmile_qr_scan", "android": "https://dc.lft.to/lastmile_qr_scan"}}, {"name": "c5a2fec3ed282341a384c01c3953f9cc", "type": "electric_scooter", "lat": 38.899265666666665, "is_reserved": 0, "lon": -77.03296, "fusion_lon": 0.0, "is_disabled": 0, "fusion_lat": 0.0, "bike_id": "c5a2fec3ed282341a384c01c3953f9cc", "rental_uris": {"ios": "https://dc.lft.to/lastmile_qr_scan", "android": "https://dc.lft.to/lastmile_qr_scan"}}, {"name": "36f95861cba9370ad652114cdd077c0e", "type": "electric_scooter", "lat": 38.90260933333333, "is_reserved": 0, "lon": -77.04619566666666, "fusion_lon": 0.0, "is_disabled": 0, "fusion_lat": 0.0, "bike_id": "36f95861cba9370ad652114cdd077c0e", "rental_uris": {"ios": "https://dc.lft.to/lastmile_qr_scan", "android": "https://dc.lft.to/lastmile_qr_scan"}}, {"name": "375f08a804cce1d3934797e33883faa8", "type": "electric_scooter", "lat": 38.90457716666667, "is_reserved": 0, "lon": -77.04895533333334, "fusion_lon": 0.0, "is_disabled": 0, "fusion_lat": 0.0, "bike_id": "375f08a804cce1d3934797e33883faa8", "rental_uris": {"ios": "https://dc.lft.to/lastmile_qr_scan", "android": "https://dc.lft.to/lastmile_qr_scan"}}, {"name": "12649f4d3f8a2c67f5ae499ed6175103", "type": "electric_scooter", "lat": 38.9314265, "is_reserved": 0, "lon": -77.038477, "fusion_lon": 0.0, "is_disabled": 0, "fusion_lat": 0.0, "bike_id": "12649f4d3f8a2c67f5ae499ed6175103", "rental_uris": {"ios": "https://dc.lft.to/lastmile_qr_scan", "android": "https://dc.lft.to/lastmile_qr_scan"}}, {"name": "b4c7daa96d3e87ce10e68c3a42de4b45", "type": "electric_scooter", "lat": 38.9032045, "is_reserved": 0, "lon": -77.0385565, "fusion_lon": 0.0, "is_disabled": 0, "fusion_lat": 0.0, "bike_id": "b4c7daa96d3e87ce10e68c3a42de4b45", "rental_uris": {"ios": "https://dc.lft.to/lastmile_qr_scan", "android": "https://dc.lft.to/lastmile_qr_scan"}}, {"name": "0e77bdcdf875717cbeba7369d8c20a51", "type": "electric_scooter", "lat": 38.90551333333333, "is_reserved": 0, "lon": -77.00536883333334, "fusion_lon": 0.0, "is_disabled": 0, "fusion_lat": 0.0, "bike_id": "0e77bdcdf875717cbeba7369d8c20a51", "rental_uris": {"ios": "https://dc.lft.to/lastmile_qr_scan", "android": "https://dc.lft.to/lastmile_qr_scan"}}, {"name": "1089dd635e0b2292896b6c9de40f552c", "type": "electric_scooter", "lat": 38.89738666666667, "is_reserved": 0, "lon": -77.0131975, "fusion_lon": 0.0, "is_disabled": 0, "fusion_lat": 0.0, "bike_id": "1089dd635e0b2292896b6c9de40f552c", "rental_uris": {"ios": "https://dc.lft.to/lastmile_qr_scan", "android": "https://dc.lft.to/lastmile_qr_scan"}}, {"name": "decca6084f934dc647402a0e2fca441b", "type": "electric_scooter", "lat": 38.927421333333335, "is_reserved": 0, "lon": -77.0120475, "fusion_lon": 0.0, "is_disabled": 0, "fusion_lat": 0.0, "bike_id": "decca6084f934dc647402a0e2fca441b", "rental_uris": {"ios": "https://dc.lft.to/lastmile_qr_scan", "android": "https://dc.lft.to/lastmile_qr_scan"}}, {"name": "bbb85200f823f724a5dc19319fc976d4", "type": "electric_scooter", "lat": 38.904408333333336, "is_reserved": 0, "lon": -77.02995616666666, "fusion_lon": 0.0, "is_disabled": 0, "fusion_lat": 0.0, "bike_id": "bbb85200f823f724a5dc19319fc976d4", "rental_uris": {"ios": "https://dc.lft.to/lastmile_qr_scan", "android": "https://dc.lft.to/lastmile_qr_scan"}}, {"name": "5d6fbf00d9d95e4ea196fb8e6c4a6d25", "type": "electric_scooter", "lat": 38.9134245, "is_reserved": 0, "lon": -77.03125416666667, "fusion_lon": 0.0, "is_disabled": 0, "fusion_lat": 0.0, "bike_id": "5d6fbf00d9d95e4ea196fb8e6c4a6d25", "rental_uris": {"ios": "https://dc.lft.to/lastmile_qr_scan", "android": "https://dc.lft.to/lastmile_qr_scan"}}, {"name": "e515ac1d6bacf9883f544cfc2c8e4e1d", "type": "electric_scooter", "lat": 38.949756666666666, "is_reserved": 0, "lon": -77.079309, "fusion_lon": 0.0, "is_disabled": 0, "fusion_lat": 0.0, "bike_id": "e515ac1d6bacf9883f544cfc2c8e4e1d", "rental_uris": {"ios": "https://dc.lft.to/lastmile_qr_scan", "android": "https://dc.lft.to/lastmile_qr_scan"}}, {"name": "0356a9af2a142c253287b3771d68637b", "type": "electric_scooter", "lat": 38.8999025, "is_reserved": 0, "lon": -77.02929083333333, "fusion_lon": 0.0, "is_disabled": 0, "fusion_lat": 0.0, "bike_id": "0356a9af2a142c253287b3771d68637b", "rental_uris": {"ios": "https://dc.lft.to/lastmile_qr_scan", "android": "https://dc.lft.to/lastmile_qr_scan"}}, {"name": "bd816b4ce3c56f0c1724dba509bc803c", "type": "electric_scooter", "lat": 38.88416016666667, "is_reserved": 0, "lon": -76.97601483333334, "fusion_lon": 0.0, "is_disabled": 0, "fusion_lat": 0.0, "bike_id": "bd816b4ce3c56f0c1724dba509bc803c", "rental_uris": {"ios": "https://dc.lft.to/lastmile_qr_scan", "android": "https://dc.lft.to/lastmile_qr_scan"}}, {"name": "55e0551b246bbf39a5698e35011f8b61", "type": "electric_scooter", "lat": 38.84294766666667, "is_reserved": 0, "lon": -76.99950583333333, "fusion_lon": 0.0, "is_disabled": 0, "fusion_lat": 0.0, "bike_id": "55e0551b246bbf39a5698e35011f8b61", "rental_uris": {"ios": "https://dc.lft.to/lastmile_qr_scan", "android": "https://dc.lft.to/lastmile_qr_scan"}}, {"name": "4bd64f76965588868739e2446571d9d9", "type": "electric_scooter", "lat": 38.86700533333333, "is_reserved": 0, "lon": -76.9871345, "fusion_lon": 0.0, "is_disabled": 0, "fusion_lat": 0.0, "bike_id": "4bd64f76965588868739e2446571d9d9", "rental_uris": {"ios": "https://dc.lft.to/lastmile_qr_scan", "android": "https://dc.lft.to/lastmile_qr_scan"}}, {"name": "7d4d483b47b26a047f64e10e04dcdebc", "type": "electric_scooter", "lat": 38.90730516666667, "is_reserved": 0, "lon": -77.00102616666666, "fusion_lon": 0.0, "is_disabled": 0, "fusion_lat": 0.0, "bike_id": "7d4d483b47b26a047f64e10e04dcdebc", "rental_uris": {"ios": "https://dc.lft.to/lastmile_qr_scan", "android": "https://dc.lft.to/lastmile_qr_scan"}}, {"name": "f0528142d782ae4a79e869ad688c3800", "type": "electric_scooter", "lat": 38.920151, "is_reserved": 0, "lon": -77.0389155, "fusion_lon": 0.0, "is_disabled": 0, "fusion_lat": 0.0, "bike_id": "f0528142d782ae4a79e869ad688c3800", "rental_uris": {"ios": "https://dc.lft.to/lastmile_qr_scan", "android": "https://dc.lft.to/lastmile_qr_scan"}}, {"name": "d0c2ba43ee29445a535c89f8f79a3874", "type": "electric_scooter", "lat": 38.93615883333333, "is_reserved": 0, "lon": -77.02252883333334, "fusion_lon": 0.0, "is_disabled": 0, "fusion_lat": 0.0, "bike_id": "d0c2ba43ee29445a535c89f8f79a3874", "rental_uris": {"ios": "https://dc.lft.to/lastmile_qr_scan", "android": "https://dc.lft.to/lastmile_qr_scan"}}, {"name": "d4c0ddfe961bd7d8475fec251ba429d5", "type": "electric_scooter", "lat": 38.86242333333333, "is_reserved": 0, "lon": -76.9949475, "fusion_lon": 0.0, "is_disabled": 0, "fusion_lat": 0.0, "bike_id": "d4c0ddfe961bd7d8475fec251ba429d5", "rental_uris": {"ios": "https://dc.lft.to/lastmile_qr_scan", "android": "https://dc.lft.to/lastmile_qr_scan"}}, {"name": "540a04582fdc15b4bda645c6b851ac87", "type": "electric_scooter", "lat": 38.92491733333333, "is_reserved": 0, "lon": -77.05206716666666, "fusion_lon": 0.0, "is_disabled": 0, "fusion_lat": 0.0, "bike_id": "540a04582fdc15b4bda645c6b851ac87", "rental_uris": {"ios": "https://dc.lft.to/lastmile_qr_scan", "android": "https://dc.lft.to/lastmile_qr_scan"}}, {"name": "1feea162ae460778307a3ce596f56962", "type": "electric_scooter", "lat": 38.92273466666666, "is_reserved": 0, "lon": -77.01831016666667, "fusion_lon": 0.0, "is_disabled": 0, "fusion_lat": 0.0, "bike_id": "1feea162ae460778307a3ce596f56962", "rental_uris": {"ios": "https://dc.lft.to/lastmile_qr_scan", "android": "https://dc.lft.to/lastmile_qr_scan"}}, {"name": "d6effaf53be48f6dffda3f48be628f24", "type": "electric_scooter", "lat": 38.87016633333333, "is_reserved": 0, "lon": -77.01228216666667, "fusion_lon": 0.0, "is_disabled": 0, "fusion_lat": 0.0, "bike_id": "d6effaf53be48f6dffda3f48be628f24", "rental_uris": {"ios": "https://dc.lft.to/lastmile_qr_scan", "android": "https://dc.lft.to/lastmile_qr_scan"}}, {"name": "70400d7e3f65c5a0251c21465197f7cd", "type": "electric_bike", "lat": 38.86996833333333, "is_reserved": 0, "lon": -76.95982033333334, "fusion_lon": 0.0, "is_disabled": 0, "fusion_lat": 0.0, "bike_id": "70400d7e3f65c5a0251c21465197f7cd", "rental_uris": {"ios": "https://dc.lft.to/lastmile_qr_scan", "android": "https://dc.lft.to/lastmile_qr_scan"}}, {"name": "7a1c09f5c588e9a9beed23aefcb1e534", "type": "electric_scooter", "lat": 38.884947833333335, "is_reserved": 0, "lon": -77.00710316666667, "fusion_lon": 0.0, "is_disabled": 0, "fusion_lat": 0.0, "bike_id": "7a1c09f5c588e9a9beed23aefcb1e534", "rental_uris": {"ios": "https://dc.lft.to/lastmile_qr_scan", "android": "https://dc.lft.to/lastmile_qr_scan"}}, {"name": "1279965c56cf5db8c7294297c4abd1ba", "type": "electric_scooter", "lat": 38.93242683333333, "is_reserved": 0, "lon": -77.038319, "fusion_lon": 0.0, "is_disabled": 0, "fusion_lat": 0.0, "bike_id": "1279965c56cf5db8c7294297c4abd1ba", "rental_uris": {"ios": "https://dc.lft.to/lastmile_qr_scan", "android": "https://dc.lft.to/lastmile_qr_scan"}}, {"name": "0522144de5d037c5660b1d2f9327c822", "type": "electric_scooter", "lat": 38.94464416666667, "is_reserved": 0, "lon": -77.00660216666667, "fusion_lon": 0.0, "is_disabled": 0, "fusion_lat": 0.0, "bike_id": "0522144de5d037c5660b1d2f9327c822", "rental_uris": {"ios": "https://dc.lft.to/lastmile_qr_scan", "android": "https://dc.lft.to/lastmile_qr_scan"}}, {"name": "9ccbff55b7272dc4e11069ba4bd94c49", "type": "electric_bike", "lat": 38.985077833333335, "is_reserved": 0, "lon": -76.98207166666667, "fusion_lon": 0.0, "is_disabled": 0, "fusion_lat": 0.0, "bike_id": "9ccbff55b7272dc4e11069ba4bd94c49", "rental_uris": {"ios": "https://dc.lft.to/lastmile_qr_scan", "android": "https://dc.lft.to/lastmile_qr_scan"}}, {"name": "7f627f4104a2250aa58bd313ceb27a89", "type": "electric_scooter", "lat": 38.8657195, "is_reserved": 0, "lon": -76.98553133333333, "fusion_lon": 0.0, "is_disabled": 0, "fusion_lat": 0.0, "bike_id": "7f627f4104a2250aa58bd313ceb27a89", "rental_uris": {"ios": "https://dc.lft.to/lastmile_qr_scan", "android": "https://dc.lft.to/lastmile_qr_scan"}}, {"name": "a221ef49940369c2b9a931cc0e762930", "type": "electric_bike", "lat": 38.82049283333333, "is_reserved": 0, "lon": -77.0531335, "fusion_lon": 0.0, "is_disabled": 0, "fusion_lat": 0.0, "bike_id": "a221ef49940369c2b9a931cc0e762930", "rental_uris": {"ios": "https://dc.lft.to/lastmile_qr_scan", "android": "https://dc.lft.to/lastmile_qr_scan"}}, {"name": "9955d5525a3230c27178b4fcccad9161", "type": "electric_scooter", "lat": 38.909294833333334, "is_reserved": 0, "lon": -76.99967, "fusion_lon": 0.0, "is_disabled": 0, "fusion_lat": 0.0, "bike_id": "9955d5525a3230c27178b4fcccad9161", "rental_uris": {"ios": "https://dc.lft.to/lastmile_qr_scan", "android": "https://dc.lft.to/lastmile_qr_scan"}}, {"name": "a3c1494d49e0312c12d1f6c92061b1b9", "type": "electric_scooter", "lat": 38.9080395, "is_reserved": 0, "lon": -77.03668583333334, "fusion_lon": 0.0, "is_disabled": 0, "fusion_lat": 0.0, "bike_id": "a3c1494d49e0312c12d1f6c92061b1b9", "rental_uris": {"ios": "https://dc.lft.to/lastmile_qr_scan", "android": "https://dc.lft.to/lastmile_qr_scan"}}, {"name": "07094a887c6a1f8edb353a8ed8271a37", "type": "electric_scooter", "lat": 38.905491166666664, "is_reserved": 0, "lon": -77.04745516666667, "fusion_lon": 0.0, "is_disabled": 0, "fusion_lat": 0.0, "bike_id": "07094a887c6a1f8edb353a8ed8271a37", "rental_uris": {"ios": "https://dc.lft.to/lastmile_qr_scan", "android": "https://dc.lft.to/lastmile_qr_scan"}}, {"name": "46c94ddb0df1d7fde25e543987828fc9", "type": "electric_scooter", "lat": 38.930797, "is_reserved": 0, "lon": -77.03389283333334, "fusion_lon": 0.0, "is_disabled": 0, "fusion_lat": 0.0, "bike_id": "46c94ddb0df1d7fde25e543987828fc9", "rental_uris": {"ios": "https://dc.lft.to/lastmile_qr_scan", "android": "https://dc.lft.to/lastmile_qr_scan"}}, {"name": "fc6aac365bf206d8756cba883bb040fe", "type": "electric_scooter", "lat": 38.9006655, "is_reserved": 0, "lon": -76.98712066666667, "fusion_lon": 0.0, "is_disabled": 0, "fusion_lat": 0.0, "bike_id": "fc6aac365bf206d8756cba883bb040fe", "rental_uris": {"ios": "https://dc.lft.to/lastmile_qr_scan", "android": "https://dc.lft.to/lastmile_qr_scan"}}, {"name": "3a2820e940bb9f520f74d8470f5829d1", "type": "electric_scooter", "lat": 38.903133833333335, "is_reserved": 0, "lon": -77.0319415, "fusion_lon": 0.0, "is_disabled": 0, "fusion_lat": 0.0, "bike_id": "3a2820e940bb9f520f74d8470f5829d1", "rental_uris": {"ios": "https://dc.lft.to/lastmile_qr_scan", "android": "https://dc.lft.to/lastmile_qr_scan"}}, {"name": "74f6d04a3de35e965602cbcc26a4b8dd", "type": "electric_scooter", "lat": 38.8853355, "is_reserved": 0, "lon": -77.00582383333334, "fusion_lon": 0.0, "is_disabled": 0, "fusion_lat": 0.0, "bike_id": "74f6d04a3de35e965602cbcc26a4b8dd", "rental_uris": {"ios": "https://dc.lft.to/lastmile_qr_scan", "android": "https://dc.lft.to/lastmile_qr_scan"}}, {"name": "7e516cbcd7604f5e0c2e750006d7d0d4", "type": "electric_scooter", "lat": 38.94325216666667, "is_reserved": 0, "lon": -77.0738925, "fusion_lon": 0.0, "is_disabled": 0, "fusion_lat": 0.0, "bike_id": "7e516cbcd7604f5e0c2e750006d7d0d4", "rental_uris": {"ios": "https://dc.lft.to/lastmile_qr_scan", "android": "https://dc.lft.to/lastmile_qr_scan"}}, {"name": "4ee109bbadaeb12ccb35a9355c8558d9", "type": "electric_scooter", "lat": 38.9492955, "is_reserved": 0, "lon": -77.019364, "fusion_lon": 0.0, "is_disabled": 0, "fusion_lat": 0.0, "bike_id": "4ee109bbadaeb12ccb35a9355c8558d9", "rental_uris": {"ios": "https://dc.lft.to/lastmile_qr_scan", "android": "https://dc.lft.to/lastmile_qr_scan"}}, {"name": "7ac20e4e5da7a6879d701c5391d30909", "type": "electric_scooter", "lat": 38.907236, "is_reserved": 0, "lon": -77.04211783333334, "fusion_lon": 0.0, "is_disabled": 0, "fusion_lat": 0.0, "bike_id": "7ac20e4e5da7a6879d701c5391d30909", "rental_uris": {"ios": "https://dc.lft.to/lastmile_qr_scan", "android": "https://dc.lft.to/lastmile_qr_scan"}}, {"name": "713d294517eb6f140e8d8de23c8ca7c6", "type": "electric_scooter", "lat": 38.90852483333333, "is_reserved": 0, "lon": -77.02062683333334, "fusion_lon": 0.0, "is_disabled": 0, "fusion_lat": 0.0, "bike_id": "713d294517eb6f140e8d8de23c8ca7c6", "rental_uris": {"ios": "https://dc.lft.to/lastmile_qr_scan", "android": "https://dc.lft.to/lastmile_qr_scan"}}, {"name": "f7016898ecd8f4b3d3dbb881c0a55cb5", "type": "electric_scooter", "lat": 38.8833465, "is_reserved": 0, "lon": -77.017731, "fusion_lon": 0.0, "is_disabled": 0, "fusion_lat": 0.0, "bike_id": "f7016898ecd8f4b3d3dbb881c0a55cb5", "rental_uris": {"ios": "https://dc.lft.to/lastmile_qr_scan", "android": "https://dc.lft.to/lastmile_qr_scan"}}, {"name": "df5e8ff75f1da38ec7f4aba96540fdc9", "type": "electric_scooter", "lat": 38.9311315, "is_reserved": 0, "lon": -77.02102983333333, "fusion_lon": 0.0, "is_disabled": 0, "fusion_lat": 0.0, "bike_id": "df5e8ff75f1da38ec7f4aba96540fdc9", "rental_uris": {"ios": "https://dc.lft.to/lastmile_qr_scan", "android": "https://dc.lft.to/lastmile_qr_scan"}}, {"name": "a510cf44e328f994315786ddd110bbbe", "type": "electric_scooter", "lat": 38.90247, "is_reserved": 0, "lon": -77.02806916666667, "fusion_lon": 0.0, "is_disabled": 0, "fusion_lat": 0.0, "bike_id": "a510cf44e328f994315786ddd110bbbe", "rental_uris": {"ios": "https://dc.lft.to/lastmile_qr_scan", "android": "https://dc.lft.to/lastmile_qr_scan"}}, {"name": "cf2396d5e98ac0d47bee22dfd9af9500", "type": "electric_scooter", "lat": 38.9098285, "is_reserved": 0, "lon": -77.06714383333333, "fusion_lon": 0.0, "is_disabled": 0, "fusion_lat": 0.0, "bike_id": "cf2396d5e98ac0d47bee22dfd9af9500", "rental_uris": {"ios": "https://dc.lft.to/lastmile_qr_scan", "android": "https://dc.lft.to/lastmile_qr_scan"}}, {"name": "db6a2d8302310a3c9153702004408a5b", "type": "electric_scooter", "lat": 38.921565, "is_reserved": 0, "lon": -76.999581, "fusion_lon": 0.0, "is_disabled": 0, "fusion_lat": 0.0, "bike_id": "db6a2d8302310a3c9153702004408a5b", "rental_uris": {"ios": "https://dc.lft.to/lastmile_qr_scan", "android": "https://dc.lft.to/lastmile_qr_scan"}}, {"name": "0b24316850d2e1c4606d69eb70ed024b", "type": "electric_scooter", "lat": 38.862045333333334, "is_reserved": 0, "lon": -76.99465683333334, "fusion_lon": 0.0, "is_disabled": 0, "fusion_lat": 0.0, "bike_id": "0b24316850d2e1c4606d69eb70ed024b", "rental_uris": {"ios": "https://dc.lft.to/lastmile_qr_scan", "android": "https://dc.lft.to/lastmile_qr_scan"}}, {"name": "347e3c3d52b9dc574596df261ab573eb", "type": "electric_scooter", "lat": 38.932499166666666, "is_reserved": 0, "lon": -77.03280683333334, "fusion_lon": 0.0, "is_disabled": 0, "fusion_lat": 0.0, "bike_id": "347e3c3d52b9dc574596df261ab573eb", "rental_uris": {"ios": "https://dc.lft.to/lastmile_qr_scan", "android": "https://dc.lft.to/lastmile_qr_scan"}}, {"name": "5fcbacff22a4c64ae5d793b999aa42da", "type": "electric_scooter", "lat": 38.900355, "is_reserved": 0, "lon": -77.01161866666666, "fusion_lon": 0.0, "is_disabled": 0, "fusion_lat": 0.0, "bike_id": "5fcbacff22a4c64ae5d793b999aa42da", "rental_uris": {"ios": "https://dc.lft.to/lastmile_qr_scan", "android": "https://dc.lft.to/lastmile_qr_scan"}}, {"name": "c85127abf93af37b19277274b70e3a1a", "type": "electric_scooter", "lat": 38.877362833333336, "is_reserved": 0, "lon": -76.97282383333334, "fusion_lon": 0.0, "is_disabled": 0, "fusion_lat": 0.0, "bike_id": "c85127abf93af37b19277274b70e3a1a", "rental_uris": {"ios": "https://dc.lft.to/lastmile_qr_scan", "android": "https://dc.lft.to/lastmile_qr_scan"}}, {"name": "1166f99cb19f707b63ba269b83639886", "type": "electric_scooter", "lat": 38.948385333333334, "is_reserved": 0, "lon": -77.02550033333333, "fusion_lon": 0.0, "is_disabled": 0, "fusion_lat": 0.0, "bike_id": "1166f99cb19f707b63ba269b83639886", "rental_uris": {"ios": "https://dc.lft.to/lastmile_qr_scan", "android": "https://dc.lft.to/lastmile_qr_scan"}}, {"name": "3326ee13a2c817f0c2ba36ac44bcf2f6", "type": "electric_scooter", "lat": 38.935002, "is_reserved": 0, "lon": -77.02726, "fusion_lon": 0.0, "is_disabled": 0, "fusion_lat": 0.0, "bike_id": "3326ee13a2c817f0c2ba36ac44bcf2f6", "rental_uris": {"ios": "https://dc.lft.to/lastmile_qr_scan", "android": "https://dc.lft.to/lastmile_qr_scan"}}, {"name": "562d9b045256192545b6808857edc01e", "type": "electric_scooter", "lat": 38.89486383333333, "is_reserved": 0, "lon": -77.05012883333333, "fusion_lon": 0.0, "is_disabled": 0, "fusion_lat": 0.0, "bike_id": "562d9b045256192545b6808857edc01e", "rental_uris": {"ios": "https://dc.lft.to/lastmile_qr_scan", "android": "https://dc.lft.to/lastmile_qr_scan"}},