{"data": {"bikes": [{"lon": -77.00621066666666, "bike_id": "8a102d464945ab6b7bcd710545f84e80", "lat": 38.906511333333334, "fusion_lon": 0.0, "fusion_lat": 0.0, "type": "electric_scooter", "name": "8a102d464945ab6b7bcd710545f84e80", "is_disabled": 0, "rental_uris": {"ios": "https://dc.lft.to/lastmile_qr_scan", "android": "https://dc.lft.to/lastmile_qr_scan"}, "is_reserved": 0}, {"lon": -77.05132883333333, "bike_id": "25c741638fa42e4af61e16ef277d1954", "lat": 38.905523, "fusion_lon": 0.0, "fusion_lat": 0.0, "type": "electric_scooter", "name": "25c741638fa42e4af61e16ef277d1954", "is_disabled": 0, "rental_uris": {"ios": "https://dc.lft.to/lastmile_qr_scan", "android": "https://dc.lft.to/lastmile_qr_scan"}, "is_reserved": 0}, {"lon": -76.977277, "bike_id": "c41a8660b289cce1710ebf20017ccc60", "lat": 38.87244483333333, "fusion_lon": 0.0, "fusion_lat": 0.0, "type": "electric_scooter", "name": "c41a8660b289cce1710ebf20017ccc60", "is_disabled": 0, "rental_uris": {"ios": "https://dc.lft.to/lastmile_qr_scan", "android": "https://dc.lft.to/lastmile_qr_scan"}, "is_reserved": 0}, {"lon": -77.03661083333333, "bike_id": "739a712dcfc7e2aebbd1369ce3a18140", "lat": 38.90372383333333, "fusion_lon": 0.0, "fusion_lat": 0.0, "type": "electric_scooter", "name": "739a712dcfc7e2aebbd1369ce3a18140", "is_disabled": 0, "rental_uris": {"ios": "https://dc.lft.to/lastmile_qr_scan", "android": "https://dc.lft.to/lastmile_qr_scan"}, "is_reserved": 0}, {"lon": -77.04433416666667, "bike_id": "5da79e6b8839cc314c5916761798f906", "lat": 38.921553333333335, "fusion_lon": 0.0, "fusion_lat": 0.0, "type": "electric_scooter", "name": "5da79e6b8839cc314c5916761798f906", "is_disabled": 0, "rental_uris": {"ios": "https://dc.lft.to/lastmile_qr_scan", "android": "https://dc.lft.to/lastmile_qr_scan"}, "is_reserved": 0}, {"lon": -77.03449966666666, "bike_id": "2ab7b98bc6d49452bcdcec1b4e060d86", "lat": 38.90814833333334, "fusion_lon": 0.0, "fusion_lat": 0.0, "type": "electric_scooter", "name": "2ab7b98bc6d49452bcdcec1b4e060d86", "is_disabled": 0, "rental_uris": {"ios": "https://dc.lft.to/lastmile_qr_scan", "android": "https://dc.lft.to/lastmile_qr_scan"}, "is_reserved": 0}, {"lon": -77.04463483333333, "bike_id": "9505dfdd90a80f2d66d493dac140970f", "lat": 38.90854016666667, "fusion_lon": 0.0, "fusion_lat": 0.0, "type": "electric_scooter", "name": "9505dfdd90a80f2d66d493dac140970f", "is_disabled": 0, "rental_uris": {"ios": "https://dc.lft.to/lastmile_qr_scan", "android": "https://dc.lft.to/lastmile_qr_scan"}, "is_reserved": 0}, {"lon": -77.03046733333333, "bike_id": "5e9e9a70c89a857101cecd583e88e9cb", "lat": 38.8842515, "fusion_lon": 0.0, "fusion_lat": 0.0, "type": "electric_scooter", "name": "5e9e9a70c89a857101cecd583e88e9cb", "is_disabled": 0, "rental_uris": {"ios": "https://dc.lft.to/lastmile_qr_scan", "android": "https://dc.lft.to/lastmile_qr_scan"}, "is_reserved": 0}, {"lon": -76.95750433333333, "bike_id": "c3be9d9edd040520ed65941df2548175", "lat": 38.88427383333333, "fusion_lon": 0.0, "fusion_lat": 0.0, "type": "electric_scooter", "name": "c3be9d9edd040520ed65941df2548175", "is_disabled": 0, "rental_uris": {"ios": "https://dc.lft.to/lastmile_qr_scan", "android": "https://dc.lft.to/lastmile_qr_scan"}, "is_reserved": 0}, {"lon": -77.0609805, "bike_id": "ad9c23efa66b6d5828ae90ac376d46f1", "lat": 38.905247, "fusion_lon": 0.0, "fusion_lat": 0.0, "type": "electric_scooter", "name": "ad9c23efa66b6d5828ae90ac376d46f1", "is_disabled": 0, "rental_uris": {"ios": "https://dc.lft.to/lastmile_qr_scan", "android": "https://dc.lft.to/lastmile_qr_scan"}, "is_reserved": 0}, {"lon": -77.02366083333334, "bike_id": "64b861ce1a20de6773a7531efda3a3a4", "lat": 38.90009833333333, "fusion_lon": 0.0, "fusion_lat": 0.0, "type": "electric_scooter", "name": "64b861ce1a20de6773a7531efda3a3a4", "is_disabled": 0, "rental_uris": {"ios": "https://dc.lft.to/lastmile_qr_scan", "android": "https://dc.lft.to/lastmile_qr_scan"}, "is_reserved": 0}, {"lon": -77.029717, "bike_id": "3b382c177bc5082b7f4c81c29be64faf", "lat": 38.9124155, "fusion_lon": 0.0, "fusion_lat": 0.0, "type": "electric_scooter", "name": "3b382c177bc5082b7f4c81c29be64faf", "is_disabled": 0, "rental_uris": {"ios": "https://dc.lft.to/lastmile_qr_scan", "android": "https://dc.lft.to/lastmile_qr_scan"}, "is_reserved": 0}, {"lon": -76.9892125, "bike_id": "7e607934fd7125d80dd7dabd22222166", "lat": 38.901834666666666, "fusion_lon": 0.0, "fusion_lat": 0.0, "type": "electric_scooter", "name": "7e607934fd7125d80dd7dabd22222166", "is_disabled": 0, "rental_uris": {"ios": "https://dc.lft.to/lastmile_qr_scan", "android": "https://dc.lft.to/lastmile_qr_scan"}, "is_reserved": 0}, {"lon": -77.04063483333333, "bike_id": "74db675fe0152177142683cdd95b6318", "lat": 38.90963633333333, "fusion_lon": 0.0, "fusion_lat": 0.0, "type": "electric_scooter", "name": "74db675fe0152177142683cdd95b6318", "is_disabled": 0, "rental_uris": {"ios": "https://dc.lft.to/lastmile_qr_scan", "android": "https://dc.lft.to/lastmile_qr_scan"}, "is_reserved": 0}, {"lon": -77.0503815, "bike_id": "c7f99042373e27240fd0eafc36f495a4", "lat": 38.9016155, "fusion_lon": 0.0, "fusion_lat": 0.0, "type": "electric_scooter", "name": "c7f99042373e27240fd0eafc36f495a4", "is_disabled": 0, "rental_uris": {"ios": "https://dc.lft.to/lastmile_qr_scan", "android": "https://dc.lft.to/lastmile_qr_scan"}, "is_reserved": 0}, {"lon": -76.9743655, "bike_id": "58df65725435e12083f390aac4d2ce3f", "lat": 38.8642415, "fusion_lon": 0.0, "fusion_lat": 0.0, "type": "electric_scooter", "name": "58df65725435e12083f390aac4d2ce3f", "is_disabled": 0, "rental_uris": {"ios": "https://dc.lft.to/lastmile_qr_scan", "android": "https://dc.lft.to/lastmile_qr_scan"}, "is_reserved": 0}, {"lon": -77.04108983333333, "bike_id": "ecfc203782eee0a1a8ee790a8cd91b3c", "lat": 38.92309633333333, "fusion_lon": 0.0, "fusion_lat": 0.0, "type": "electric_scooter", "name": "ecfc203782eee0a1a8ee790a8cd91b3c", "is_disabled": 0, "rental_uris": {"ios": "https://dc.lft.to/lastmile_qr_scan", "android": "https://dc.lft.to/lastmile_qr_scan"}, "is_reserved": 0}, {"lon": -77.03202083333333, "bike_id": "f8bd45b34ccfa218dc15bffcd5aad9dd", "lat": 38.9124985, "fusion_lon": 0.0, "fusion_lat": 0.0, "type": "electric_scooter", "name": "f8bd45b34ccfa218dc15bffcd5aad9dd", "is_disabled": 0, "rental_uris": {"ios": "https://dc.lft.to/lastmile_qr_scan", "android": "https://dc.lft.to/lastmile_qr_scan"}, "is_reserved": 0}, {"lon": -77.030908, "bike_id": "7418be62429b09f330790eba7bda0a04", "lat": 38.90995516666667, "fusion_lon": 0.0, "fusion_lat": 0.0, "type": "electric_scooter", "name": "7418be62429b09f330790eba7bda0a04", "is_disabled": 0, "rental_uris": {"ios": "https://dc.lft.to/lastmile_qr_scan", "android": "https://dc.lft.to/lastmile_qr_scan"}, "is_reserved": 0}, {"lon": -77.0296535, "bike_id": "edd9ae1a534319c2f5b4dc2326fa8b0e", "lat": 38.92282566666667, "fusion_lon": 0.0, "fusion_lat": 0.0, "type": "electric_scooter", "name": "edd9ae1a534319c2f5b4dc2326fa8b0e", "is_disabled": 0, "rental_uris": {"ios": "https://dc.lft.to/lastmile_qr_scan", "android": "https://dc.lft.to/lastmile_qr_scan"}, "is_reserved": 0}, {"lon": -77.0635995, "bike_id": "6b4c44e54aef0fd69a552c9ef1a173ba", "lat": 38.944035666666664, "fusion_lon": 0.0, "fusion_lat": 0.0, "type": "electric_bike", "name": "6b4c44e54aef0fd69a552c9ef1a173ba", "is_disabled": 0, "rental_uris": {"ios": "https://dc.lft.to/lastmile_qr_scan", "android": "https://dc.lft.to/lastmile_qr_scan"}, "is_reserved": 0}, {"lon": -77.06861966666666, "bike_id": "9bbfc46dbd368b1eeb1123ad3b96ddba", "lat": 38.9040255, "fusion_lon": 0.0, "fusion_lat": 0.0, "type": "electric_bike", "name": "9bbfc46dbd368b1eeb1123ad3b96ddba", "is_disabled": 0, "rental_uris": {"ios": "https://dc.lft.to/lastmile_qr_scan", "android": "https://dc.lft.to/lastmile_qr_scan"}, "is_reserved": 0}, {"lon": -76.93546333333333, "bike_id": "16a6a833487945b56509d8b608c75bd9", "lat": 38.8901745, "fusion_lon": 0.0, "fusion_lat": 0.0, "type": "electric_scooter", "name": "16a6a833487945b56509d8b608c75bd9", "is_disabled": 0, "rental_uris": {"ios": "https://dc.lft.to/lastmile_qr_scan", "android": "https://dc.lft.to/lastmile_qr_scan"}, "is_reserved": 0}, {"lon": -77.03659583333334, "bike_id": "c6b1d7a4daedc2690390b216f3abf466", "lat": 38.92281933333334, "fusion_lon": 0.0, "fusion_lat": 0.0, "type": "electric_scooter", "name": "c6b1d7a4daedc2690390b216f3abf466", "is_disabled": 0, "rental_uris": {"ios": "https://dc.lft.to/lastmile_qr_scan", "android": "https://dc.lft.to/lastmile_qr_scan"}, "is_reserved": 0}, {"lon": -77.04473083333333, "bike_id": "3fe4c7fda72ca782635752b49380d8eb", "lat": 38.892230166666664, "fusion_lon": 0.0, "fusion_lat": 0.0, "type": "electric_scooter", "name": "3fe4c7fda72ca782635752b49380d8eb", "is_disabled": 0, "rental_uris": {"ios": "https://dc.lft.to/lastmile_qr_scan", "android": "https://dc.lft.to/lastmile_qr_scan"}, "is_reserved": 0}, {"lon": -77.02324816666666, "bike_id": "c091f91a2ad22cf2d9138f78e6f3dc5f", "lat": 38.87881266666667, "fusion_lon": 0.0, "fusion_lat": 0.0, "type": "electric_scooter", "name": "c091f91a2ad22cf2d9138f78e6f3dc5f", "is_disabled": 0, "rental_uris": {"ios": "https://dc.lft.to/lastmile_qr_scan", "android": "https://dc.lft.to/lastmile_qr_scan"}, "is_reserved": 0}, {"lon": -77.00050633333333, "bike_id": "d9f1177854d7f9c927d5516724474044", "lat": 38.906971666666664, "fusion_lon": 0.0, "fusion_lat": 0.0, "type": "electric_scooter", "name": "d9f1177854d7f9c927d5516724474044", "is_disabled": 0, "rental_uris": {"ios": "https://dc.lft.to/lastmile_qr_scan", "android": "https://dc.lft.to/lastmile_qr_scan"}, "is_reserved": 0}, {"lon": -77.06892816666667, "bike_id": "7b1d6a7f697ab5b26dd96ade60d290c4", "lat": 38.9051145, "fusion_lon": 0.0, "fusion_lat": 0.0, "type": "electric_scooter", "name": "7b1d6a7f697ab5b26dd96ade60d290c4", "is_disabled": 0, "rental_uris": {"ios": "https://dc.lft.to/lastmile_qr_scan", "android": "https://dc.lft.to/lastmile_qr_scan"}, "is_reserved": 0}, {"lon": -77.039002, "bike_id": "8cc7a101718d73fc44d53a69f18c7484", "lat": 38.922355333333336, "fusion_lon": 0.0, "fusion_lat": 0.0, "type": "electric_scooter", "name": "8cc7a101718d73fc44d53a69f18c7484", "is_disabled": 0, "rental_uris": {"ios": "https://dc.lft.to/lastmile_qr_scan", "android": "https://dc.lft.to/lastmile_qr_scan"}, "is_reserved": 0}, {"lon": -77.00306433333333, "bike_id": "20c48ee9c4d0e3c9654e7baf51df6d73", "lat": 38.92350533333333, "fusion_lon": 0.0, "fusion_lat": 0.0, "type": "electric_scooter", "name": "20c48ee9c4d0e3c9654e7baf51df6d73", "is_disabled": 0, "rental_uris": {"ios": "https://dc.lft.to/lastmile_qr_scan", "android": "https://dc.lft.to/lastmile_qr_scan"}, "is_reserved": 0}, {"lon": -77.03643183333334, "bike_id": "a7876f74cbbb77dd1a60888022f3913e", "lat": 38.9117775, "fusion_lon": 0.0, "fusion_lat": 0.0, "type": "electric_scooter", "name": "a7876f74cbbb77dd1a60888022f3913e", "is_disabled": 0, "rental_uris": {"ios": "https://dc.lft.to/lastmile_qr_scan", "android": "https://dc.lft.to/lastmile_qr_scan"}, "is_reserved": 0}, {"lon": -77.04132633333333, "bike_id": "71214ecc4ae9e76e9f280dca0c1c2291", "lat": 38.9236405, "fusion_lon": 0.0, "fusion_lat": 0.0, "type": "electric_scooter", "name": "71214ecc4ae9e76e9f280dca0c1c2291", "is_disabled": 0, "rental_uris": {"ios": "https://dc.lft.to/lastmile_qr_scan", "android": "https://dc.lft.to/lastmile_qr_scan"}, "is_reserved": 0}, {"lon": -76.94634366666666, "bike_id": "1c9cdb7953faee516237e2fa04c7457d", "lat": 38.898328666666664, "fusion_lon": 0.0, "fusion_lat": 0.0, "type": "electric_scooter", "name": "1c9cdb7953faee516237e2fa04c7457d", "is_disabled": 0, "rental_uris": {"ios": "https://dc.lft.to/lastmile_qr_scan", "android": "https://dc.lft.to/lastmile_qr_scan"}, "is_reserved": 0}, {"lon": -76.98381683333334, "bike_id": "9cfef73b0141cc181b161a3e3f5988fb", "lat": 38.90643766666667, "fusion_lon": 0.0, "fusion_lat": 0.0, "type": "electric_scooter", "name": "9cfef73b0141cc181b161a3e3f5988fb", "is_disabled": 0, "rental_uris": {"ios": "https://dc.lft.to/lastmile_qr_scan", "android": "https://dc.lft.to/lastmile_qr_scan"}, "is_reserved": 0}, {"lon": -77.03090966666667, "bike_id": "33e0ea856903c93ea27f770959bc1c9f", "lat": 38.909940666666664, "fusion_lon": 0.0, "fusion_lat": 0.0, "type": "electric_scooter", "name": "33e0ea856903c93ea27f770959bc1c9f", "is_disabled": 0, "rental_uris": {"ios": "https://dc.lft.to/lastmile_qr_scan", "android": "https://dc.lft.to/lastmile_qr_scan"}, "is_reserved": 0}, {"lon": -77.03823066666666, "bike_id": "ae1663f52941aed32743ec97e46eda86", "lat": 38.90972716666667, "fusion_lon": 0.0, "fusion_lat": 0.0, "type": "electric_scooter", "name": "ae1663f52941aed32743ec97e46eda86", "is_disabled": 0, "rental_uris": {"ios": "https://dc.lft.to/lastmile_qr_scan", "android": "https://dc.lft.to/lastmile_qr_scan"}, "is_reserved": 0}, {"lon": -77.01369766666667, "bike_id": "595b679fe07b9e0af3c91f7049a640c2", "lat": 38.928603, "fusion_lon": 0.0, "fusion_lat": 0.0, "type": "electric_scooter", "name": "595b679fe07b9e0af3c91f7049a640c2", "is_disabled": 0, "rental_uris": {"ios": "https://dc.lft.to/lastmile_qr_scan", "android": "https://dc.lft.to/lastmile_qr_scan"}, "is_reserved": 0}, {"lon": -76.98590083333333, "bike_id": "fbb42ef92c2017867fa41bf4c47010d4", "lat": 38.88396566666667, "fusion_lon": 0.0, "fusion_lat": 0.0, "type": "electric_scooter", "name": "fbb42ef92c2017867fa41bf4c47010d4", "is_disabled": 0, "rental_uris": {"ios": "https://dc.lft.to/lastmile_qr_scan", "android": "https://dc.lft.to/lastmile_qr_scan"}, "is_reserved": 0}, {"lon": -76.978685, "bike_id": "c34e60d16dbb17248caf8b8d072e0db4", "lat": 38.883057, "fusion_lon": 0.0, "fusion_lat": 0.0, "type": "electric_scooter", "name": "c34e60d16dbb17248caf8b8d072e0db4", "is_disabled": 0, "rental_uris": {"ios": "https://dc.lft.to/lastmile_qr_scan", "android": "https://dc.lft.to/lastmile_qr_scan"}, "is_reserved": 0}, {"lon": -76.99365933333333, "bike_id": "73911e3ac23d91c17151b1d2098bbc4b", "lat": 38.940278, "fusion_lon": 0.0, "fusion_lat": 0.0, "type": "electric_scooter", "name": "73911e3ac23d91c17151b1d2098bbc4b", "is_disabled": 0, "rental_uris": {"ios": "https://dc.lft.to/lastmile_qr_scan", "android": "https://dc.lft.to/lastmile_qr_scan"}, "is_reserved": 0}, {"lon": -77.032046, "bike_id": "fd979fb20f1ccb1955b0cbc2ef0ea987", "lat": 38.91839016666667, "fusion_lon": 0.0, "fusion_lat": 0.0, "type": "electric_scooter", "name": "fd979fb20f1ccb1955b0cbc2ef0ea987", "is_disabled": 0, "rental_uris": {"ios": "https://dc.lft.to/lastmile_qr_scan", "android": "https://dc.lft.to/lastmile_qr_scan"}, "is_reserved": 0}, {"lon": -77.051528, "bike_id": "a0e586c9f962535bdebd4259e3e6480a", "lat": 38.898681333333336, "fusion_lon": 0.0, "fusion_lat": 0.0, "type": "electric_scooter", "name": "a0e586c9f962535bdebd4259e3e6480a", "is_disabled": 0, "rental_uris": {"ios": "https://dc.lft.to/lastmile_qr_scan", "android": "https://dc.lft.to/lastmile_qr_scan"}, "is_reserved": 0}, {"lon": -77.01765416666667, "bike_id": "c08c5bb1dfb775ba4abc1f2104f94e81", "lat": 38.887286333333336, "fusion_lon": 0.0, "fusion_lat": 0.0, "type": "electric_scooter", "name": "c08c5bb1dfb775ba4abc1f2104f94e81", "is_disabled": 0, "rental_uris": {"ios": "https://dc.lft.to/lastmile_qr_scan", "android": "https://dc.lft.to/lastmile_qr_scan"}, "is_reserved": 0}, {"lon": -77.04981266666667, "bike_id": "44a8ddcfc04d7b3d3a0731bc27b32b03", "lat": 39.062954833333336, "fusion_lon": 0.0, "fusion_lat": 0.0, "type": "electric_bike", "name": "44a8ddcfc04d7b3d3a0731bc27b32b03", "is_disabled": 0, "rental_uris": {"ios": "https://dc.lft.to/lastmile_qr_scan", "android": "https://dc.lft.to/lastmile_qr_scan"}, "is_reserved": 0}, {"lon": -77.02970766666667, "bike_id": "63d882b29c97f47c0aa799072a9f13d2", "lat": 38.912767833333334, "fusion_lon": 0.0, "fusion_lat": 0.0, "type": "electric_scooter", "name": "63d882b29c97f47c0aa799072a9f13d2", "is_disabled": 0, "rental_uris": {"ios": "https://dc.lft.to/lastmile_qr_scan", "android": "https://dc.lft.to/lastmile_qr_scan"}, "is_reserved": 0}, {"lon": -77.062704, "bike_id": "baf428c3f380d8e3cf241f3d5e57abd4", "lat": 38.86544716666667, "fusion_lon": 0.0, "fusion_lat": 0.0, "type": "electric_bike", "name": "baf428c3f380d8e3cf241f3d5e57abd4", "is_disabled": 0, "rental_uris": {"ios": "https://dc.lft.to/lastmile_qr_scan", "android": "https://dc.lft.to/lastmile_qr_scan"}, "is_reserved": 0}, {"lon": -77.03871566666666, "bike_id": "d2ba8646b56997039ff6ba6d3923352e", "lat": 38.92018683333333, "fusion_lon": 0.0, "fusion_lat": 0.0, "type": "electric_scooter", "name": "d2ba8646b56997039ff6ba6d3923352e", "is_disabled": 0, "rental_uris": {"ios": "https://dc.lft.to/lastmile_qr_scan", "android": "https://dc.lft.to/lastmile_qr_scan"}, "is_reserved": 0}, {"lon": -77.02557083333333, "bike_id": "9895553138f768e4cfc7d9ed67ec08c0", "lat": 38.94174483333333, "fusion_lon": 0.0, "fusion_lat": 0.0, "type": "electric_scooter", "name": "9895553138f768e4cfc7d9ed67ec08c0", "is_disabled": 0, "rental_uris": {"ios": "https://dc.lft.to/lastmile_qr_scan", "android": "https://dc.lft.to/lastmile_qr_scan"}, "is_reserved": 0}, {"lon": -77.02707466666666, "bike_id": "81b861e6ca3c2b145839c6accf951e34", "lat": 38.949891, "fusion_lon": 0.0, "fusion_lat": 0.0, "type": "electric_scooter", "name": "81b861e6ca3c2b145839c6accf951e34", "is_disabled": 0, "rental_uris": {"ios": "https://dc.lft.to/lastmile_qr_scan", "android": "https://dc.lft.to/lastmile_qr_scan"}, "is_reserved": 0}, {"lon": -77.139278, "bike_id": "b722dac4525a799bee26911bd6aa20ee", "lat": 38.87295866666667, "fusion_lon": 0.0, "fusion_lat": 0.0, "type": "electric_bike", "name": "b722dac4525a799bee26911bd6aa20ee", "is_disabled": 0, "rental_uris": {"ios": "https://dc.lft.to/lastmile_qr_scan", "android": "https://dc.lft.to/lastmile_qr_scan"}, "is_reserved": 0}, {"lon": -77.0295575, "bike_id": "38d79652eda411b07f581bf74f06aec6", "lat": 38.904944666666665, "fusion_lon": 0.0, "fusion_lat": 0.0, "type": "electric_scooter", "name": "38d79652eda411b07f581bf74f06aec6", "is_disabled": 0, "rental_uris": {"ios": "https://dc.lft.to/lastmile_qr_scan", "android": "https://dc.lft.to/lastmile_qr_scan"}, "is_reserved": 0}, {"lon": -77.04493466666666, "bike_id": "9c5bfbc2e614608b36c8f191208cc030", "lat": 38.913190166666666, "fusion_lon": 0.0, "fusion_lat": 0.0, "type": "electric_scooter", "name": "9c5bfbc2e614608b36c8f191208cc030", "is_disabled": 0, "rental_uris": {"ios": "https://dc.lft.to/lastmile_qr_scan", "android": "https://dc.lft.to/lastmile_qr_scan"}, "is_reserved": 0}, {"lon": -77.03208283333333, "bike_id": "2e2d935dd103a606fd47244c0a4b87f8", "lat": 38.91501216666666, "fusion_lon": 0.0, "fusion_lat": 0.0, "type": "electric_scooter", "name": "2e2d935dd103a606fd47244c0a4b87f8", "is_disabled": 0, "rental_uris": {"ios": "https://dc.lft.to/lastmile_qr_scan", "android": "https://dc.lft.to/lastmile_qr_scan"}, "is_reserved": 0}, {"lon": -76.988396, "bike_id": "5c545df783cad46a86fcec2f68a6c234", "lat": 38.89665183333334, "fusion_lon": 0.0, "fusion_lat": 0.0, "type": "electric_scooter", "name": "5c545df783cad46a86fcec2f68a6c234", "is_disabled": 0, "rental_uris": {"ios": "https://dc.lft.to/lastmile_qr_scan", "android": "https://dc.lft.to/lastmile_qr_scan"}, "is_reserved": 0}, {"lon": -77.12434716666667, "bike_id": "3316339e988d04329c44b5803a314662", "lat": 38.853745333333336, "fusion_lon": 0.0, "fusion_lat": 0.0, "type": "electric_bike", "name": "3316339e988d04329c44b5803a314662", "is_disabled": 0, "rental_uris": {"ios": "https://dc.lft.to/lastmile_qr_scan", "android": "https://dc.lft.to/lastmile_qr_scan"}, "is_reserved": 0}, {"lon": -77.022195, "bike_id": "0b7a004782e50dcd8f22a84860d6f137", "lat": 38.893588333333334, "fusion_lon": 0.0, "fusion_lat": 0.0, "type": "electric_scooter", "name": "0b7a004782e50dcd8f22a84860d6f137", "is_disabled": 0, "rental_uris": {"ios": "https://dc.lft.to/lastmile_qr_scan", "android": "https://dc.lft.to/lastmile_qr_scan"}, "is_reserved": 0}, {"lon": -77.0382145, "bike_id": "fa9a9a7464921326c8ca9932e95d19b3", "lat": 38.9309735, "fusion_lon": 0.0, "fusion_lat": 0.0, "type": "electric_scooter", "name": "fa9a9a7464921326c8ca9932e95d19b3", "is_disabled": 0, "rental_uris": {"ios": "https://dc.lft.to/lastmile_qr_scan", "android": "https://dc.lft.to/lastmile_qr_scan"}, "is_reserved": 0}, {"lon": -77.05000316666667, "bike_id": "b9246246c8416dfcd9e99f64d6db35ce", "lat": 38.90509483333334, "fusion_lon": 0.0, "fusion_lat": 0.0, "type": "electric_scooter", "name": "b9246246c8416dfcd9e99f64d6db35ce", "is_disabled": 0, "rental_uris": {"ios": "https://dc.lft.to/lastmile_qr_scan", "android": "https://dc.lft.to/lastmile_qr_scan"}, "is_reserved": 0}, {"lon": -77.05570366666667, "bike_id": "336cb0be0c3f2b6a7640bfa50949137e", "lat": 38.930552666666664, "fusion_lon": 0.0, "fusion_lat": 0.0, "type": "electric_scooter", "name": "336cb0be0c3f2b6a7640bfa50949137e", "is_disabled": 0, "rental_uris": {"ios": "https://dc.lft.to/lastmile_qr_scan", "android": "https://dc.lft.to/lastmile_qr_scan"}, "is_reserved": 0}, {"lon": -76.97705083333334, "bike_id": "f34693c27ec91c59e41972a5f9372311", "lat": 38.88519683333333, "fusion_lon": 0.0, "fusion_lat": 0.0, "type": "electric_scooter", "name": "f34693c27ec91c59e41972a5f9372311", "is_disabled": 0, "rental_uris": {"ios": "https://dc.lft.to/lastmile_qr_scan", "android": "https://dc.lft.to/lastmile_qr_scan"}, "is_reserved": 0}, {"lon": -77.0087695, "bike_id": "6432f4c5e8816a5b2f9f40408f4ae536", "lat": 38.825381666666665, "fusion_lon": 0.0, "fusion_lat": 0.0, "type": "electric_scooter", "name": "6432f4c5e8816a5b2f9f40408f4ae536", "is_disabled": 0, "rental_uris": {"ios": "https://dc.lft.to/lastmile_qr_scan", "android": "https://dc.lft.to/lastmile_qr_scan"}, "is_reserved": 0}, {"lon": -77.04181083333333, "bike_id": "77152682b11a499e309be398b9f7a8e1", "lat": 38.91550316666667, "fusion_lon": 0.0, "fusion_lat": 0.0, "type": "electric_scooter", "name": "77152682b11a499e309be398b9f7a8e1", "is_disabled": 0, "rental_uris": {"ios": "https://dc.lft.to/lastmile_qr_scan", "android": "https://dc.lft.to/lastmile_qr_scan"}, "is_reserved": 0}, {"lon": -76.9927055, "bike_id": "c3370ced770b437305f870db5fa8f231", "lat": 38.86025433333333, "fusion_lon": 0.0, "fusion_lat": 0.0, "type": "electric_scooter", "name": "c3370ced770b437305f870db5fa8f231", "is_disabled": 0, "rental_uris": {"ios": "https://dc.lft.to/lastmile_qr_scan", "android": "https://dc.lft.to/lastmile_qr_scan"}, "is_reserved": 0}, {"lon": -76.9720715, "bike_id": "d1a522d34eca801a209076475c85083d", "lat": 38.89289016666667, "fusion_lon": 0.0, "fusion_lat": 0.0, "type": "electric_bike", "name": "d1a522d34eca801a209076475c85083d", "is_disabled": 0, "rental_uris": {"ios": "https://dc.lft.to/lastmile_qr_scan", "android": "https://dc.lft.to/lastmile_qr_scan"}, "is_reserved": 0}, {"lon": -77.0365805, "bike_id": "2e99203179cddb1039f66f7cbee3936f", "lat": 38.922611333333336, "fusion_lon": 0.0, "fusion_lat": 0.0, "type": "electric_scooter", "name": "2e99203179cddb1039f66f7cbee3936f", "is_disabled": 0, "rental_uris": {"ios": "https://dc.lft.to/lastmile_qr_scan", "android": "https://dc.lft.to/lastmile_qr_scan"}, "is_reserved": 0}, {"lon": -77.02955033333333, "bike_id": "7197c9058a316686bb02ead63e071fdf", "lat": 38.90491316666667, "fusion_lon": 0.0, "fusion_lat": 0.0, "type": "electric_scooter", "name": "7197c9058a316686bb02ead63e071fdf", "is_disabled": 0, "rental_uris": {"ios": "https://dc.lft.to/lastmile_qr_scan", "android": "https://dc.lft.to/lastmile_qr_scan"}, "is_reserved": 0}, {"lon": -77.01479816666667, "bike_id": "c6bbb571e16302102902dd49b3c77a31", "lat": 38.919180833333336, "fusion_lon": 0.0, "fusion_lat": 0.0, "type": "electric_scooter", "name": "c6bbb571e16302102902dd49b3c77a31", "is_disabled": 0, "rental_uris": {"ios": "https://dc.lft.to/lastmile_qr_scan", "android": "https://dc.lft.to/lastmile_qr_scan"}, "is_reserved": 0}, {"lon": -77.00570866666666, "bike_id": "f331a6d6698d10beb175c605c9838b09", "lat": 38.872981333333335, "fusion_lon": 0.0, "fusion_lat": 0.0, "type": "electric_scooter", "name": "f331a6d6698d10beb175c605c9838b09", "is_disabled": 0, "rental_uris": {"ios": "https://dc.lft.to/lastmile_qr_scan", "android": "https://dc.lft.to/lastmile_qr_scan"}, "is_reserved": 0}, {"lon": -77.01621633333333, "bike_id": "d24cb83e458776009d0e02fa26673033", "lat": 38.906874, "fusion_lon": 0.0, "fusion_lat": 0.0, "type": "electric_scooter", "name": "d24cb83e458776009d0e02fa26673033", "is_disabled": 0, "rental_uris": {"ios": "https://dc.lft.to/lastmile_qr_scan", "android": "https://dc.lft.to/lastmile_qr_scan"}, "is_reserved": 0}, {"lon": -77.09490133333334, "bike_id": "551a285d1d28fc75757ac079e964ed4b", "lat": 38.807629, "fusion_lon": 0.0, "fusion_lat": 0.0, "type": "electric_bike", "name": "551a285d1d28fc75757ac079e964ed4b", "is_disabled": 0, "rental_uris": {"ios": "https://dc.lft.to/lastmile_qr_scan", "android": "https://dc.lft.to/lastmile_qr_scan"}, "is_reserved": 0}, {"lon": -77.031927, "bike_id": "95d5d27f8119abd08ca04da51ed220dc", "lat": 38.89955483333333, "fusion_lon": 0.0, "fusion_lat": 0.0, "type": "electric_scooter", "name": "95d5d27f8119abd08ca04da51ed220dc", "is_disabled": 0, "rental_uris": {"ios": "https://dc.lft.to/lastmile_qr_scan", "android": "https://dc.lft.to/lastmile_qr_scan"}, "is_reserved": 0}, {"lon": -77.04876066666667, "bike_id": "8a0ada1a558884e528b42e635f18186a", "lat": 38.89233083333333, "fusion_lon": 0.0, "fusion_lat": 0.0, "type": "electric_scooter", "name": "8a0ada1a558884e528b42e635f18186a", "is_disabled": 0, "rental_uris": {"ios": "https://dc.lft.to/lastmile_qr_scan", "android": "https://dc.lft.to/lastmile_qr_scan"}, "is_reserved": 0}, {"lon": -76.98829683333334, "bike_id": "d7dac837eb4e369d3ba57ef914ef23fc", "lat": 38.901225333333336, "fusion_lon": 0.0, "fusion_lat": 0.0, "type": "electric_scooter", "name": "d7dac837eb4e369d3ba57ef914ef23fc", "is_disabled": 0, "rental_uris": {"ios": "https://dc.lft.to/lastmile_qr_scan", "android": "https://dc.lft.to/lastmile_qr_scan"}, "is_reserved": 0}, {"lon": -77.04009616666667, "bike_id": "7c8bf0a0718ba3579adc41ef4519973b", "lat": 38.92172, "fusion_lon": 0.0, "fusion_lat": 0.0, "type": "electric_scooter", "name": "7c8bf0a0718ba3579adc41ef4519973b", "is_disabled": 0, "rental_uris": {"ios": "https://dc.lft.to/lastmile_qr_scan", "android": "https://dc.lft.to/lastmile_qr_scan"}, "is_reserved": 0}, {"lon": -77.03641733333333, "bike_id": "0dda63cf1b5896ef1fc19de44d152ee5", "lat": 38.924598, "fusion_lon": 0.0, "fusion_lat": 0.0, "type": "electric_scooter", "name": "0dda63cf1b5896ef1fc19de44d152ee5", "is_disabled": 0, "rental_uris": {"ios": "https://dc.lft.to/lastmile_qr_scan", "android": "https://dc.lft.to/lastmile_qr_scan"}, "is_reserved": 0}, {"lon": -77.0446855, "bike_id": "f433f89acb6ef50f2c648a9abeb1ad97", "lat": 38.89218483333333, "fusion_lon": 0.0, "fusion_lat": 0.0, "type": "electric_scooter", "name": "f433f89acb6ef50f2c648a9abeb1ad97", "is_disabled": 0, "rental_uris": {"ios": "https://dc.lft.to/lastmile_qr_scan", "android": "https://dc.lft.to/lastmile_qr_scan"}, "is_reserved": 0}, {"lon": -77.0240315, "bike_id": "7ed8d1b1d00afaf4255df5e7efbb9922", "lat": 38.90696233333333, "fusion_lon": 0.0, "fusion_lat": 0.0, "type": "electric_scooter", "name": "7ed8d1b1d00afaf4255df5e7efbb9922", "is_disabled": 0, "rental_uris": {"ios": "https://dc.lft.to/lastmile_qr_scan", "android": "https://dc.lft.to/lastmile_qr_scan"}, "is_reserved": 0}, {"lon": -77.02088933333333, "bike_id": "a526eaa0d31855cd5811ac94af6930b1", "lat": 38.9270805, "fusion_lon": 0.0, "fusion_lat": 0.0, "type": "electric_scooter", "name": "a526eaa0d31855cd5811ac94af6930b1", "is_disabled": 0, "rental_uris": {"ios": "https://dc.lft.to/lastmile_qr_scan", "android": "https://dc.lft.to/lastmile_qr_scan"}, "is_reserved": 0}, {"lon": -77.0277525, "bike_id": "38b3940f58f6cf325198ffd5e4efa15d", "lat": 38.892208, "fusion_lon": 0.0, "fusion_lat": 0.0, "type": "electric_scooter", "name": "38b3940f58f6cf325198ffd5e4efa15d", "is_disabled": 0, "rental_uris": {"ios": "https://dc.lft.to/lastmile_qr_scan", "android": "https://dc.lft.to/lastmile_qr_scan"}, "is_reserved": 0}, {"lon": -77.02591833333334, "bike_id": "dae5c8ba29bedafa3088e2f6e2e90dfe", "lat": 38.90345116666667, "fusion_lon": 0.0, "fusion_lat": 0.0, "type": "electric_scooter", "name": "dae5c8ba29bedafa3088e2f6e2e90dfe", "is_disabled": 0, "rental_uris": {"ios": "https://dc.lft.to/lastmile_qr_scan", "android": "https://dc.lft.to/lastmile_qr_scan"}, "is_reserved": 0}, {"lon": -77.0419255, "bike_id": "ce8c8bfb36020042133854cdda92a137", "lat": 38.911273666666666, "fusion_lon": 0.0, "fusion_lat": 0.0, "type": "electric_scooter", "name": "ce8c8bfb36020042133854cdda92a137", "is_disabled": 0, "rental_uris": {"ios": "https://dc.lft.to/lastmile_qr_scan", "android": "https://dc.lft.to/lastmile_qr_scan"}, "is_reserved": 0}, {"lon": -77.02294983333333, "bike_id": "0f5b8623007886be1c6a7fd27200a5b6", "lat": 38.9167035, "fusion_lon": 0.0, "fusion_lat": 0.0, "type": "electric_scooter", "name": "0f5b8623007886be1c6a7fd27200a5b6", "is_disabled": 0, "rental_uris": {"ios": "https://dc.lft.to/lastmile_qr_scan", "android": "https://dc.lft.to/lastmile_qr_scan"}, "is_reserved": 0}, {"lon": -77.03665166666667, "bike_id": "adce787e91ca395e63be9fd63b3823ed", "lat": 38.917149333333334, "fusion_lon": 0.0, "fusion_lat": 0.0, "type": "electric_scooter", "name": "adce787e91ca395e63be9fd63b3823ed", "is_disabled": 0, "rental_uris": {"ios": "https://dc.lft.to/lastmile_qr_scan", "android": "https://dc.lft.to/lastmile_qr_scan"}, "is_reserved": 0}, {"lon": -77.03810633333333, "bike_id": "2e3810c96a7d816214559d1a2d460613", "lat": 38.9141575, "fusion_lon": 0.0, "fusion_lat": 0.0, "type": "electric_scooter", "name": "2e3810c96a7d816214559d1a2d460613", "is_disabled": 0, "rental_uris": {"ios": "https://dc.lft.to/lastmile_qr_scan", "android": "https://dc.lft.to/lastmile_qr_scan"}, "is_reserved": 0}, {"lon": -77.04425, "bike_id": "c14a3590616d0c7c72252593ccbc1b71", "lat": 38.911251166666666, "fusion_lon": 0.0, "fusion_lat": 0.0, "type": "electric_scooter", "name": "c14a3590616d0c7c72252593ccbc1b71", "is_disabled": 0, "rental_uris": {"ios": "https://dc.lft.to/lastmile_qr_scan", "android": "https://dc.lft.to/lastmile_qr_scan"}, "is_reserved": 0}, {"lon": -77.0281545, "bike_id": "e2db4f473b49f31a825835998049f627", "lat": 38.931703666666664, "fusion_lon": 0.0, "fusion_lat": 0.0, "type": "electric_scooter", "name": "e2db4f473b49f31a825835998049f627", "is_disabled": 0, "rental_uris": {"ios": "https://dc.lft.to/lastmile_qr_scan", "android": "https://dc.lft.to/lastmile_qr_scan"}, "is_reserved": 0}, {"lon": -76.91600166666667, "bike_id": "3a753ef5a887e64965ee4d79c6232d12", "lat": 38.8798375, "fusion_lon": 0.0, "fusion_lat": 0.0, "type": "electric_bike", "name": "3a753ef5a887e64965ee4d79c6232d12", "is_disabled": 0, "rental_uris": {"ios": "https://dc.lft.to/lastmile_qr_scan", "android": "https://dc.lft.to/lastmile_qr_scan"}, "is_reserved": 0}, {"lon": -77.0446295, "bike_id": "68e90a5afb626a076b772b624f084728", "lat": 38.90535366666667, "fusion_lon": 0.0, "fusion_lat": 0.0, "type": "electric_scooter", "name": "68e90a5afb626a076b772b624f084728", "is_disabled": 0, "rental_uris": {"ios": "https://dc.lft.to/lastmile_qr_scan", "android": "https://dc.lft.to/lastmile_qr_scan"}, "is_reserved": 0}, {"lon": -77.02228033333333, "bike_id": "0a01691b1e239125f4e77775418bc148", "lat": 38.8932275, "fusion_lon": 0.0, "fusion_lat": 0.0, "type": "electric_scooter", "name": "0a01691b1e239125f4e77775418bc148", "is_disabled": 0, "rental_uris": {"ios": "https://dc.lft.to/lastmile_qr_scan", "android": "https://dc.lft.to/lastmile_qr_scan"}, "is_reserved": 0}, {"lon": -77.03280466666666, "bike_id": "0646d2ba4e868a3fadb89ff577d91bcb", "lat": 38.934854, "fusion_lon": 0.0, "fusion_lat": 0.0, "type": "electric_scooter", "name": "0646d2ba4e868a3fadb89ff577d91bcb", "is_disabled": 0, "rental_uris": {"ios": "https://dc.lft.to/lastmile_qr_scan", "android": "https://dc.lft.to/lastmile_qr_scan"}, "is_reserved": 0}, {"lon": -77.0230935, "bike_id": "30e5b25e69a4cf3251cc9e4a5d926adf", "lat": 38.93282283333333, "fusion_lon": 0.0, "fusion_lat": 0.0, "type": "electric_scooter", "name": "30e5b25e69a4cf3251cc9e4a5d926adf", "is_disabled": 0, "rental_uris": {"ios": "https://dc.lft.to/lastmile_qr_scan", "android": "https://dc.lft.to/lastmile_qr_scan"}, "is_reserved": 0}, {"lon": -76.93030683333333, "bike_id": "c1c09965acadc655a752dceb1c8249c1", "lat": 38.900129666666665, "fusion_lon": 0.0, "fusion_lat": 0.0, "type": "electric_scooter", "name": "c1c09965acadc655a752dceb1c8249c1", "is_disabled": 0, "rental_uris": {"ios": "https://dc.lft.to/lastmile_qr_scan", "android": "https://dc.lft.to/lastmile_qr_scan"}, "is_reserved": 0}, {"lon": -77.02770683333334, "bike_id": "32fa56c9dc5d0bf26e118436fbb687f5", "lat": 38.934631333333336, "fusion_lon": 0.0, "fusion_lat": 0.0, "type": "electric_scooter", "name": "32fa56c9dc5d0bf26e118436fbb687f5", "is_disabled": 0, "rental_uris": {"ios": "https://dc.lft.to/lastmile_qr_scan", "android": "https://dc.lft.to/lastmile_qr_scan"}, "is_reserved": 0}, {"lon": -77.0445425, "bike_id": "fa46b467df402669cc34f0fe9462310b", "lat": 38.90863983333333, "fusion_lon": 0.0, "fusion_lat": 0.0, "type": "electric_scooter", "name": "fa46b467df402669cc34f0fe9462310b", "is_disabled": 0, "rental_uris": {"ios": "https://dc.lft.to/lastmile_qr_scan", "android": "https://dc.lft.to/lastmile_qr_scan"}, "is_reserved": 0}, {"lon": -77.02959683333333, "bike_id": "3bd98cc6e16bae41474661716b882e81", "lat": 38.924893833333336, "fusion_lon": 0.0, "fusion_lat": 0.0, "type": "electric_scooter", "name": "3bd98cc6e16bae41474661716b882e81", "is_disabled": 0, "rental_uris": {"ios": "https://dc.lft.to/lastmile_qr_scan", "android": "https://dc.lft.to/lastmile_qr_scan"}, "is_reserved": 0}, {"lon": -77.03205216666667, "bike_id": "42642c24ce9b345bccfb93dc08530567", "lat": 38.904363333333336, "fusion_lon": 0.0, "fusion_lat": 0.0, "type": "electric_scooter", "name": "42642c24ce9b345bccfb93dc08530567", "is_disabled": 0, "rental_uris": {"ios": "https://dc.lft.to/lastmile_qr_scan", "android": "https://dc.lft.to/lastmile_qr_scan"}, "is_reserved": 0}, {"lon": -77.03907266666667, "bike_id": "9ddcb4d88e8f052d0c56c9a5a5718186", "lat": 38.925932, "fusion_lon": 0.0, "fusion_lat": 0.0, "type": "electric_scooter", "name": "9ddcb4d88e8f052d0c56c9a5a5718186", "is_disabled": 0, "rental_uris": {"ios": "https://dc.lft.to/lastmile_qr_scan", "android": "https://dc.lft.to/lastmile_qr_scan"}, "is_reserved": 0}, {"lon": -77.02722216666666, "bike_id": "44a05173dcdf538269c63ac690dd56a0", "lat": 38.92480183333333, "fusion_lon": 0.0, "fusion_lat": 0.0, "type": "electric_scooter", "name": "44a05173dcdf538269c63ac690dd56a0", "is_disabled": 0, "rental_uris": {"ios": "https://dc.lft.to/lastmile_qr_scan", "android": "https://dc.lft.to/lastmile_qr_scan"}, "is_reserved": 0}, {"lon": -77.03555883333334, "bike_id": "a8fda07bfc877940984009c0441abf16", "lat": 38.908347, "fusion_lon": 0.0, "fusion_lat": 0.0, "type": "electric_scooter", "name": "a8fda07bfc877940984009c0441abf16", "is_disabled": 0, "rental_uris": {"ios": "https://dc.lft.to/lastmile_qr_scan", "android": "https://dc.lft.to/lastmile_qr_scan"}, "is_reserved": 0}, {"lon": -77.03517916666667, "bike_id": "b6329300e5c03cb836201b80e7a28f72", "lat": 38.92198833333333, "fusion_lon": 0.0, "fusion_lat": 0.0, "type": "electric_scooter", "name": "b6329300e5c03cb836201b80e7a28f72", "is_disabled": 0, "rental_uris": {"ios": "https://dc.lft.to/lastmile_qr_scan", "android": "https://dc.lft.to/lastmile_qr_scan"}, "is_reserved": 0}, {"lon": -77.09964, "bike_id": "ebe7e6cd94df0e7ab03eb54d4aa1261c", "lat": 38.85790466666667, "fusion_lon": 0.0, "fusion_lat": 0.0, "type": "electric_bike", "name": "ebe7e6cd94df0e7ab03eb54d4aa1261c", "is_disabled": 0, "rental_uris": {"ios": "https://dc.lft.to/lastmile_qr_scan", "android": "https://dc.lft.to/lastmile_qr_scan"}, "is_reserved": 0}, {"lon": -77.035394, "bike_id": "e9ccdf7dc5f74f5099d62bad7ab50b5c", "lat": 38.924636666666665, "fusion_lon": 0.0, "fusion_lat": 0.0, "type": "electric_scooter", "name": "e9ccdf7dc5f74f5099d62bad7ab50b5c", "is_disabled": 0, "rental_uris": {"ios": "https://dc.lft.to/lastmile_qr_scan", "android": "https://dc.lft.to/lastmile_qr_scan"}, "is_reserved": 0}, {"lon": -77.032586, "bike_id": "8685983c9d011580d943c0f01f29b4b3", "lat": 38.92980433333334, "fusion_lon": 0.0, "fusion_lat": 0.0, "type": "electric_scooter", "name": "8685983c9d011580d943c0f01f29b4b3", "is_disabled": 0, "rental_uris": {"ios": "https://dc.lft.to/lastmile_qr_scan", "android": "https://dc.lft.to/lastmile_qr_scan"}, "is_reserved": 0}, {"lon": -77.04673783333334, "bike_id": "3d91837aad9f580ea0542d5c92be28fb", "lat": 38.892333, "fusion_lon": 0.0, "fusion_lat": 0.0, "type": "electric_scooter", "name": "3d91837aad9f580ea0542d5c92be28fb", "is_disabled": 0, "rental_uris": {"ios": "https://dc.lft.to/lastmile_qr_scan", "android": "https://dc.lft.to/lastmile_qr_scan"}, "is_reserved": 0}, {"lon": -76.978599, "bike_id": "97ca08588d6cee8662fc60d893496b11", "lat": 38.90724016666667, "fusion_lon": 0.0, "fusion_lat": 0.0, "type": "electric_scooter", "name": "97ca08588d6cee8662fc60d893496b11", "is_disabled": 0, "rental_uris": {"ios": "https://dc.lft.to/lastmile_qr_scan", "android": "https://dc.lft.to/lastmile_qr_scan"}, "is_reserved": 0}, {"lon": -77.03260083333333, "bike_id": "4fb4fe997f53c6a9602a83efcd96d17c", "lat": 38.937734166666665, "fusion_lon": 0.0, "fusion_lat": 0.0, "type": "electric_scooter", "name": "4fb4fe997f53c6a9602a83efcd96d17c", "is_disabled": 0, "rental_uris": {"ios": "https://dc.lft.to/lastmile_qr_scan", "android": "https://dc.lft.to/lastmile_qr_scan"}, "is_reserved": 0}, {"lon": -77.0177795, "bike_id": "fea4a61ab7020ac795f31c4a49adad46", "lat": 38.886238166666665, "fusion_lon": 0.0, "fusion_lat": 0.0, "type": "electric_scooter", "name": "fea4a61ab7020ac795f31c4a49adad46", "is_disabled": 0, "rental_uris": {"ios": "https://dc.lft.to/lastmile_qr_scan", "android": "https://dc.lft.to/lastmile_qr_scan"}, "is_reserved": 0}, {"lon": -77.04458966666667, "bike_id": "bee84ed9fe63cd151aedec69043bd0f0", "lat": 38.9053965, "fusion_lon": 0.0, "fusion_lat": 0.0, "type": "electric_scooter", "name": "bee84ed9fe63cd151aedec69043bd0f0", "is_disabled": 0, "rental_uris": {"ios": "https://dc.lft.to/lastmile_qr_scan", "android": "https://dc.lft.to/lastmile_qr_scan"}, "is_reserved": 0}, {"lon": -77.0385155, "bike_id": "c62976e7132b2228182df87501443122", "lat": 38.932474166666665, "fusion_lon": 0.0, "fusion_lat": 0.0, "type": "electric_scooter", "name": "c62976e7132b2228182df87501443122", "is_disabled": 0, "rental_uris": {"ios": "https://dc.lft.to/lastmile_qr_scan", "android": "https://dc.lft.to/lastmile_qr_scan"}, "is_reserved": 0}, {"lon": -77.03287533333334, "bike_id": "00b5bd4a087cf5fdfcae51b6f6e85222", "lat": 38.910508666666665, "fusion_lon": 0.0, "fusion_lat": 0.0, "type": "electric_scooter", "name": "00b5bd4a087cf5fdfcae51b6f6e85222", "is_disabled": 0, "rental_uris": {"ios": "https://dc.lft.to/lastmile_qr_scan", "android": "https://dc.lft.to/lastmile_qr_scan"}, "is_reserved": 0}, {"lon": -77.03439766666666, "bike_id": "46acd4b4d990eae5e6c448fd819c0e8f", "lat": 38.909800833333335, "fusion_lon": 0.0, "fusion_lat": 0.0, "type": "electric_scooter", "name": "46acd4b4d990eae5e6c448fd819c0e8f", "is_disabled": 0, "rental_uris": {"ios": "https://dc.lft.to/lastmile_qr_scan", "android": "https://dc.lft.to/lastmile_qr_scan"}, "is_reserved": 0}, {"lon": -77.05046533333334, "bike_id": "4be0ceedc5ac59c66c9560e94cade239", "lat": 38.92361916666667, "fusion_lon": 0.0, "fusion_lat": 0.0, "type": "electric_scooter", "name": "4be0ceedc5ac59c66c9560e94cade239", "is_disabled": 0, "rental_uris": {"ios": "https://dc.lft.to/lastmile_qr_scan", "android": "https://dc.lft.to/lastmile_qr_scan"}, "is_reserved": 0}, {"lon": -77.03936866666666, "bike_id": "9813f5260b8693c6e2651d2d74b09f04", "lat": 38.8989605, "fusion_lon": 0.0, "fusion_lat": 0.0, "type": "electric_scooter", "name": "9813f5260b8693c6e2651d2d74b09f04", "is_disabled": 0, "rental_uris": {"ios": "https://dc.lft.to/lastmile_qr_scan", "android": "https://dc.lft.to/lastmile_qr_scan"}, "is_reserved": 0}, {"lon": -76.99597783333333, "bike_id": "f0d09ade2450236807f4b313cd9f63f0", "lat": 38.950690333333334, "fusion_lon": 0.0, "fusion_lat": 0.0, "type": "electric_bike", "name": "f0d09ade2450236807f4b313cd9f63f0", "is_disabled": 0, "rental_uris": {"ios": "https://dc.lft.to/lastmile_qr_scan", "android": "https://dc.lft.to/lastmile_qr_scan"}, "is_reserved": 0}, {"lon": -76.94993783333334, "bike_id": "520a9c2f2a8ddb657a3fe6e5a4d9be89", "lat": 38.89382116666667, "fusion_lon": 0.0, "fusion_lat": 0.0, "type": "electric_scooter", "name": "520a9c2f2a8ddb657a3fe6e5a4d9be89", "is_disabled": 0, "rental_uris": {"ios": "https://dc.lft.to/lastmile_qr_scan", "android": "https://dc.lft.to/lastmile_qr_scan"}, "is_reserved": 0}, {"lon": -77.03553733333334, "bike_id": "47f5d0be63189359509646db8f80f281", "lat": 38.93381, "fusion_lon": 0.0, "fusion_lat": 0.0, "type": "electric_scooter", "name": "47f5d0be63189359509646db8f80f281", "is_disabled": 0, "rental_uris": {"ios": "https://dc.lft.to/lastmile_qr_scan", "android": "https://dc.lft.to/lastmile_qr_scan"}, "is_reserved": 0}, {"lon": -77.02090083333333, "bike_id": "3e8ade3de230f42035d230517afaaf1a", "lat": 38.929082333333334, "fusion_lon": 0.0, "fusion_lat": 0.0, "type": "electric_scooter", "name": "3e8ade3de230f42035d230517afaaf1a", "is_disabled": 0, "rental_uris": {"ios": "https://dc.lft.to/lastmile_qr_scan", "android": "https://dc.lft.to/lastmile_qr_scan"}, "is_reserved": 0}, {"lon": -76.97559533333333, "bike_id": "a0ad2c997300e72d117f3a240809ccbf", "lat": 38.9245295, "fusion_lon": 0.0, "fusion_lat": 0.0, "type": "electric_bike", "name": "a0ad2c997300e72d117f3a240809ccbf", "is_disabled": 0, "rental_uris": {"ios": "https://dc.lft.to/lastmile_qr_scan", "android": "https://dc.lft.to/lastmile_qr_scan"}, "is_reserved": 0}, {"lon": -77.03716783333333, "bike_id": "466af40e9c7dc34573737d6f3f8549dc", "lat": 38.9264535, "fusion_lon": 0.0, "fusion_lat": 0.0, "type": "electric_scooter", "name": "466af40e9c7dc34573737d6f3f8549dc", "is_disabled": 0, "rental_uris": {"ios": "https://dc.lft.to/lastmile_qr_scan", "android": "https://dc.lft.to/lastmile_qr_scan"}, "is_reserved": 0}, {"lon": -77.04145616666666, "bike_id": "c6a1e52e057f5b150998fa27bb9c1c7b", "lat": 38.9034285, "fusion_lon": 0.0, "fusion_lat": 0.0, "type": "electric_scooter", "name": "c6a1e52e057f5b150998fa27bb9c1c7b", "is_disabled": 0, "rental_uris": {"ios": "https://dc.lft.to/lastmile_qr_scan", "android": "https://dc.lft.to/lastmile_qr_scan"}, "is_reserved": 0}, {"lon": -76.93175166666667, "bike_id": "64a73bd68315db1f42f844bd84bad83b", "lat": 38.898817333333334, "fusion_lon": 0.0, "fusion_lat": 0.0, "type": "electric_scooter", "name": "64a73bd68315db1f42f844bd84bad83b", "is_disabled": 0, "rental_uris": {"ios": "https://dc.lft.to/lastmile_qr_scan", "android": "https://dc.lft.to/lastmile_qr_scan"}, "is_reserved": 0}, {"lon": -76.99887733333334, "bike_id": "8bff02310bdc26f0c00efbbb8b75c66b", "lat": 38.909555833333336, "fusion_lon": 0.0, "fusion_lat": 0.0, "type": "electric_scooter", "name": "8bff02310bdc26f0c00efbbb8b75c66b", "is_disabled": 0, "rental_uris": {"ios": "https://dc.lft.to/lastmile_qr_scan", "android": "https://dc.lft.to/lastmile_qr_scan"}, "is_reserved": 0}, {"lon": -77.032909, "bike_id": "a0feee69806bbe216b4381de297ff14e", "lat": 38.95648516666667, "fusion_lon": 0.0, "fusion_lat": 0.0, "type": "electric_scooter", "name": "a0feee69806bbe216b4381de297ff14e", "is_disabled": 0, "rental_uris": {"ios": "https://dc.lft.to/lastmile_qr_scan", "android": "https://dc.lft.to/lastmile_qr_scan"}, "is_reserved": 0}, {"lon": -77.03863683333333, "bike_id": "62e807eeaf82c07fd987c4ba789b2968", "lat": 38.9066335, "fusion_lon": 0.0, "fusion_lat": 0.0, "type": "electric_scooter", "name": "62e807eeaf82c07fd987c4ba789b2968", "is_disabled": 0, "rental_uris": {"ios": "https://dc.lft.to/lastmile_qr_scan", "android": "https://dc.lft.to/lastmile_qr_scan"}, "is_reserved": 0}, {"lon": -76.874975, "bike_id": "c28bcd805faeab429e69c6bf2b861a02", "lat": 38.99091116666666, "fusion_lon": 0.0, "fusion_lat": 0.0, "type": "electric_bike", "name": "c28bcd805faeab429e69c6bf2b861a02", "is_disabled": 0, "rental_uris": {"ios": "https://dc.lft.to/lastmile_qr_scan", "android": "https://dc.lft.to/lastmile_qr_scan"}, "is_reserved": 0}, {"lon": -77.025635, "bike_id": "a6663d9a0c38e32447ea1d1ca9119cd9", "lat": 38.9385795, "fusion_lon": 0.0, "fusion_lat": 0.0, "type": "electric_scooter", "name": "a6663d9a0c38e32447ea1d1ca9119cd9", "is_disabled": 0, "rental_uris": {"ios": "https://dc.lft.to/lastmile_qr_scan", "android": "https://dc.lft.to/lastmile_qr_scan"}, "is_reserved": 0}, {"lon": -76.95745816666667, "bike_id": "7366f9d10f99ef3afbb3c4eba376b568", "lat": 38.88424916666666, "fusion_lon": 0.0, "fusion_lat": 0.0, "type": "electric_scooter", "name": "7366f9d10f99ef3afbb3c4eba376b568", "is_disabled": 0, "rental_uris": {"ios": "https://dc.lft.to/lastmile_qr_scan", "android": "https://dc.lft.to/lastmile_qr_scan"}, "is_reserved": 0}, {"lon": -77.02719283333333, "bike_id": "67a7adbbf5d69efe8f72047289facf07", "lat": 38.8972535, "fusion_lon": 0.0, "fusion_lat": 0.0, "type": "electric_scooter", "name": "67a7adbbf5d69efe8f72047289facf07", "is_disabled": 0, "rental_uris": {"ios": "https://dc.lft.to/lastmile_qr_scan", "android": "https://dc.lft.to/lastmile_qr_scan"}, "is_reserved": 0}, {"lon": -76.99882916666667, "bike_id": "1d8986296c3819f8f280d1e57c9c09b4", "lat": 38.920549, "fusion_lon": 0.0, "fusion_lat": 0.0, "type": "electric_scooter", "name": "1d8986296c3819f8f280d1e57c9c09b4", "is_disabled": 0, "rental_uris": {"ios": "https://dc.lft.to/lastmile_qr_scan", "android": "https://dc.lft.to/lastmile_qr_scan"}, "is_reserved": 0}, {"lon": -76.93015816666667, "bike_id": "75196f0f3796a2f1d9f523835d30cda6", "lat": 38.896550833333336, "fusion_lon": 0.0, "fusion_lat": 0.0, "type": "electric_bike", "name": "75196f0f3796a2f1d9f523835d30cda6", "is_disabled": 0, "rental_uris": {"ios": "https://dc.lft.to/lastmile_qr_scan", "android": "https://dc.lft.to/lastmile_qr_scan"}, "is_reserved": 0}, {"lon": -77.00651133333334, "bike_id": "49c92aef75efca0c84f6494548b1beba", "lat": 38.83896416666666, "fusion_lon": 0.0, "fusion_lat": 0.0, "type": "electric_scooter", "name": "49c92aef75efca0c84f6494548b1beba", "is_disabled": 0, "rental_uris": {"ios": "https://dc.lft.to/lastmile_qr_scan", "android": "https://dc.lft.to/lastmile_qr_scan"}, "is_reserved": 0}, {"lon": -77.0326505, "bike_id": "e2b324762eb0f9b2f2744eb169b3967f", "lat": 38.938881, "fusion_lon": 0.0, "fusion_lat": 0.0, "type": "electric_scooter", "name": "e2b324762eb0f9b2f2744eb169b3967f", "is_disabled": 0, "rental_uris": {"ios": "https://dc.lft.to/lastmile_qr_scan", "android": "https://dc.lft.to/lastmile_qr_scan"}, "is_reserved": 0}, {"lon": -77.03205133333333, "bike_id": "73cc249c0771c145584fd0f8d414d656", "lat": 38.90373616666667, "fusion_lon": 0.0, "fusion_lat": 0.0, "type": "electric_scooter", "name": "73cc249c0771c145584fd0f8d414d656", "is_disabled": 0, "rental_uris": {"ios": "https://dc.lft.to/lastmile_qr_scan", "android": "https://dc.lft.to/lastmile_qr_scan"}, "is_reserved": 0}, {"lon": -77.02719916666666, "bike_id": "e1863c6c52c25f84fd5166e807071568", "lat": 38.89733533333333, "fusion_lon": 0.0, "fusion_lat": 0.0, "type": "electric_scooter", "name": "e1863c6c52c25f84fd5166e807071568", "is_disabled": 0, "rental_uris": {"ios": "https://dc.lft.to/lastmile_qr_scan", "android": "https://dc.lft.to/lastmile_qr_scan"}, "is_reserved": 0}, {"lon": -77.0531475, "bike_id": "d266846e480f9bfdfd4ada2d742e48e3", "lat": 38.941052166666665, "fusion_lon": 0.0, "fusion_lat": 0.0, "type": "electric_bike", "name": "d266846e480f9bfdfd4ada2d742e48e3", "is_disabled": 0, "rental_uris": {"ios": "https://dc.lft.to/lastmile_qr_scan", "android": "https://dc.lft.to/lastmile_qr_scan"}, "is_reserved": 0}, {"lon": -77.031744, "bike_id": "898a6031f0162273153e77f54af4254d", "lat": 38.887375166666665, "fusion_lon": 0.0, "fusion_lat": 0.0, "type": "electric_scooter", "name": "898a6031f0162273153e77f54af4254d", "is_disabled": 0, "rental_uris": {"ios": "https://dc.lft.to/lastmile_qr_scan", "android": "https://dc.lft.to/lastmile_qr_scan"}, "is_reserved": 0}, {"lon": -77.0311935, "bike_id": "fe3d0dc319ebff62152eacb7a3932d79", "lat": 38.98827983333334, "fusion_lon": 0.0, "fusion_lat": 0.0, "type": "electric_scooter", "name": "fe3d0dc319ebff62152eacb7a3932d79", "is_disabled": 0, "rental_uris": {"ios": "https://dc.lft.to/lastmile_qr_scan", "android": "https://dc.lft.to/lastmile_qr_scan"}, "is_reserved": 0}, {"lon": -76.9638615, "bike_id": "227346e065b2d36840cb6059a5c6e0eb", "lat": 38.95174, "fusion_lon": 0.0, "fusion_lat": 0.0, "type": "electric_bike", "name": "227346e065b2d36840cb6059a5c6e0eb", "is_disabled": 0, "rental_uris": {"ios": "https://dc.lft.to/lastmile_qr_scan", "android": "https://dc.lft.to/lastmile_qr_scan"}, "is_reserved": 0}, {"lon": -77.02795833333333, "bike_id": "3b58f37701e4071d52bb9e645829e3e1", "lat": 38.954076666666666, "fusion_lon": 0.0, "fusion_lat": 0.0, "type": "electric_scooter", "name": "3b58f37701e4071d52bb9e645829e3e1", "is_disabled": 0, "rental_uris": {"ios": "https://dc.lft.to/lastmile_qr_scan", "android": "https://dc.lft.to/lastmile_qr_scan"}, "is_reserved": 0}, {"lon": -77.03187533333333, "bike_id": "41e69218bcc6bfac01b383e3e8312dc9", "lat": 38.909907, "fusion_lon": 0.0, "fusion_lat": 0.0, "type": "electric_scooter", "name": "41e69218bcc6bfac01b383e3e8312dc9", "is_disabled": 0, "rental_uris": {"ios": "https://dc.lft.to/lastmile_qr_scan", "android": "https://dc.lft.to/lastmile_qr_scan"}, "is_reserved": 0}, {"lon": -77.2280165, "bike_id": "15e63a24747f094c744e4425090e1266", "lat": 38.91010816666667, "fusion_lon": 0.0, "fusion_lat": 0.0, "type": "electric_bike", "name": "15e63a24747f094c744e4425090e1266", "is_disabled": 0, "rental_uris": {"ios": "https://dc.lft.to/lastmile_qr_scan", "android": "https://dc.lft.to/lastmile_qr_scan"}, "is_reserved": 0}, {"lon": -77.03160666666666, "bike_id": "79a84ea92c2127dde81d060c738349ea", "lat": 38.9237255, "fusion_lon": 0.0, "fusion_lat": 0.0, "type": "electric_scooter", "name": "79a84ea92c2127dde81d060c738349ea", "is_disabled": 0, "rental_uris": {"ios": "https://dc.lft.to/lastmile_qr_scan", "android": "https://dc.lft.to/lastmile_qr_scan"}, "is_reserved": 0}, {"lon": -77.02091616666667, "bike_id": "53ea23e070d2b73c84aa4d1cfacd856c", "lat": 38.9291185, "fusion_lon": 0.0, "fusion_lat": 0.0, "type": "electric_scooter", "name": "53ea23e070d2b73c84aa4d1cfacd856c", "is_disabled": 0, "rental_uris": {"ios": "https://dc.lft.to/lastmile_qr_scan", "android": "https://dc.lft.to/lastmile_qr_scan"}, "is_reserved": 0}, {"lon": -77.00745633333334, "bike_id": "6f514821336c20b62dbd472f0e09bae2", "lat": 38.925286, "fusion_lon": 0.0, "fusion_lat": 0.0, "type": "electric_scooter", "name": "6f514821336c20b62dbd472f0e09bae2", "is_disabled": 0, "rental_uris": {"ios": "https://dc.lft.to/lastmile_qr_scan", "android": "https://dc.lft.to/lastmile_qr_scan"}, "is_reserved": 0}, {"lon": -77.004628, "bike_id": "43bb782acd5fe9ac27271e1a173de9cd", "lat": 38.91199366666667, "fusion_lon": 0.0, "fusion_lat": 0.0, "type": "electric_scooter", "name": "43bb782acd5fe9ac27271e1a173de9cd", "is_disabled": 0, "rental_uris": {"ios": "https://dc.lft.to/lastmile_qr_scan", "android": "https://dc.lft.to/lastmile_qr_scan"}, "is_reserved": 0}, {"lon": -77.04141966666667, "bike_id": "6fa3b4f9a8c95b513f2ae5155cae2bd5", "lat": 38.92294, "fusion_lon": 0.0, "fusion_lat": 0.0, "type": "electric_scooter", "name": "6fa3b4f9a8c95b513f2ae5155cae2bd5", "is_disabled": 0, "rental_uris": {"ios": "https://dc.lft.to/lastmile_qr_scan", "android": "https://dc.lft.to/lastmile_qr_scan"}, "is_reserved": 0}, {"lon": -77.02710616666667, "bike_id": "dda7835cab3b95814e60823364b8e9b1", "lat": 38.90666383333333, "fusion_lon": 0.0, "fusion_lat": 0.0, "type": "electric_scooter", "name": "dda7835cab3b95814e60823364b8e9b1", "is_disabled": 0, "rental_uris": {"ios": "https://dc.lft.to/lastmile_qr_scan", "android": "https://dc.lft.to/lastmile_qr_scan"}, "is_reserved": 0}, {"lon": -77.02800016666667, "bike_id": "7a0e5a3791c4908303785473963ce3bb", "lat": 38.9121595, "fusion_lon": 0.0, "fusion_lat": 0.0, "type": "electric_scooter", "name": "7a0e5a3791c4908303785473963ce3bb", "is_disabled": 0, "rental_uris": {"ios": "https://dc.lft.to/lastmile_qr_scan", "android": "https://dc.lft.to/lastmile_qr_scan"}, "is_reserved": 0}, {"lon": -77.03846583333333, "bike_id": "b5de0082948121ab50d4d2a851dca765", "lat": 38.912109666666666, "fusion_lon": 0.0, "fusion_lat": 0.0, "type": "electric_scooter", "name": "b5de0082948121ab50d4d2a851dca765", "is_disabled": 0, "rental_uris": {"ios": "https://dc.lft.to/lastmile_qr_scan", "android": "https://dc.lft.to/lastmile_qr_scan"}, "is_reserved": 0}, {"lon": -77.0260785, "bike_id": "8b18433611e1ff5ffa04461d68d96def", "lat": 38.91833233333333, "fusion_lon": 0.0, "fusion_lat": 0.0, "type": "electric_scooter", "name": "8b18433611e1ff5ffa04461d68d96def", "is_disabled": 0, "rental_uris": {"ios": "https://dc.lft.to/lastmile_qr_scan", "android": "https://dc.lft.to/lastmile_qr_scan"}, "is_reserved": 0}, {"lon": -76.94878733333333, "bike_id": "2b3509fc127f8cc3c16f984de7914c98", "lat": 38.895015, "fusion_lon": 0.0, "fusion_lat": 0.0, "type": "electric_scooter", "name": "2b3509fc127f8cc3c16f984de7914c98", "is_disabled": 0, "rental_uris": {"ios": "https://dc.lft.to/lastmile_qr_scan", "android": "https://dc.lft.to/lastmile_qr_scan"}, "is_reserved": 0}, {"lon": -77.11149583333334, "bike_id": "2efa9c9b8d74a5ef77e0e7d4f175e58e", "lat": 38.855142666666666, "fusion_lon": 0.0, "fusion_lat": 0.0, "type": "electric_bike", "name": "2efa9c9b8d74a5ef77e0e7d4f175e58e", "is_disabled": 0, "rental_uris": {"ios": "https://dc.lft.to/lastmile_qr_scan", "android": "https://dc.lft.to/lastmile_qr_scan"}, "is_reserved": 0}, {"lon": -77.04876633333333, "bike_id": "5d44cc5a3261cce5a4e12bcc1dbfb001", "lat": 38.8922875, "fusion_lon": 0.0, "fusion_lat": 0.0, "type": "electric_scooter", "name": "5d44cc5a3261cce5a4e12bcc1dbfb001", "is_disabled": 0, "rental_uris": {"ios": "https://dc.lft.to/lastmile_qr_scan", "android": "https://dc.lft.to/lastmile_qr_scan"}, "is_reserved": 0}, {"lon": -77.03470216666666, "bike_id": "c7a8124b23dac00866a0c8d93f7f117d", "lat": 38.917591, "fusion_lon": 0.0, "fusion_lat": 0.0, "type": "electric_scooter", "name": "c7a8124b23dac00866a0c8d93f7f117d", "is_disabled": 0, "rental_uris": {"ios": "https://dc.lft.to/lastmile_qr_scan", "android": "https://dc.lft.to/lastmile_qr_scan"}, "is_reserved": 0}, {"lon": -77.03136783333333, "bike_id": "ac237eae61abb260cd59200baa412d7b", "lat": 38.915547833333335, "fusion_lon": 0.0, "fusion_lat": 0.0, "type": "electric_scooter", "name": "ac237eae61abb260cd59200baa412d7b", "is_disabled": 0, "rental_uris": {"ios": "https://dc.lft.to/lastmile_qr_scan", "android": "https://dc.lft.to/lastmile_qr_scan"}, "is_reserved": 0}, {"lon": -77.03197566666667, "bike_id": "c2c58a9667f128ccb5531027b5d8d2c2", "lat": 38.909919333333335, "fusion_lon": 0.0, "fusion_lat": 0.0, "type": "electric_scooter", "name": "c2c58a9667f128ccb5531027b5d8d2c2", "is_disabled": 0, "rental_uris": {"ios": "https://dc.lft.to/lastmile_qr_scan", "android": "https://dc.lft.to/lastmile_qr_scan"}, "is_reserved": 0}, {"lon": -77.04361266666666, "bike_id": "8c33ec35b4f1573d8d1218f840559e4c", "lat": 39.0153665, "fusion_lon": 0.0, "fusion_lat": 0.0, "type": "electric_bike", "name": "8c33ec35b4f1573d8d1218f840559e4c", "is_disabled": 0, "rental_uris": {"ios": "https://dc.lft.to/lastmile_qr_scan", "android": "https://dc.lft.to/lastmile_qr_scan"}, "is_reserved": 0}, {"lon": -77.0387285, "bike_id": "eb585608c5dec981175b755ca8ba25ee", "lat": 38.91270033333333, "fusion_lon": 0.0, "fusion_lat": 0.0, "type": "electric_scooter", "name": "eb585608c5dec981175b755ca8ba25ee", "is_disabled": 0, "rental_uris": {"ios": "https://dc.lft.to/lastmile_qr_scan", "android": "https://dc.lft.to/lastmile_qr_scan"}, "is_reserved": 0}, {"lon": -77.0010805, "bike_id": "57cd9f10118da4f884fd768679d2b50a", "lat": 38.91244, "fusion_lon": 0.0, "fusion_lat": 0.0, "type": "electric_scooter", "name": "57cd9f10118da4f884fd768679d2b50a", "is_disabled": 0, "rental_uris": {"ios": "https://dc.lft.to/lastmile_qr_scan", "android": "https://dc.lft.to/lastmile_qr_scan"}, "is_reserved": 0}, {"lon": -77.04238416666666, "bike_id": "816579925475345b2f46edab7f20d43b", "lat": 38.921859833333336, "fusion_lon": 0.0, "fusion_lat": 0.0, "type": "electric_scooter", "name": "816579925475345b2f46edab7f20d43b", "is_disabled": 0, "rental_uris": {"ios": "https://dc.lft.to/lastmile_qr_scan", "android": "https://dc.lft.to/lastmile_qr_scan"}, "is_reserved": 0}, {"lon": -77.025809, "bike_id": "a2418eb19ded1c0a2447047263005080", "lat": 38.887384833333336, "fusion_lon": 0.0, "fusion_lat": 0.0, "type": "electric_scooter", "name": "a2418eb19ded1c0a2447047263005080", "is_disabled": 0, "rental_uris": {"ios": "https://dc.lft.to/lastmile_qr_scan", "android": "https://dc.lft.to/lastmile_qr_scan"}, "is_reserved": 0}, {"lon": -76.9948475, "bike_id": "c30de9e45db537f4803c341c7da52f0d", "lat": 38.88604483333334, "fusion_lon": 0.0, "fusion_lat": 0.0, "type": "electric_scooter", "name": "c30de9e45db537f4803c341c7da52f0d", "is_disabled": 0, "rental_uris": {"ios": "https://dc.lft.to/lastmile_qr_scan", "android": "https://dc.lft.to/lastmile_qr_scan"}, "is_reserved": 0}, {"lon": -77.02377933333334, "bike_id": "70d97534c99aecf28b8f8d012e4ea700", "lat": 38.90955066666667, "fusion_lon": 0.0, "fusion_lat": 0.0, "type": "electric_scooter", "name": "70d97534c99aecf28b8f8d012e4ea700", "is_disabled": 0, "rental_uris": {"ios": "https://dc.lft.to/lastmile_qr_scan", "android": "https://dc.lft.to/lastmile_qr_scan"}, "is_reserved": 0}, {"lon": -77.04874, "bike_id": "0a0fd15bb72c9514b37abc063b6ce663", "lat": 38.892318333333336, "fusion_lon": 0.0, "fusion_lat": 0.0, "type": "electric_scooter", "name": "0a0fd15bb72c9514b37abc063b6ce663", "is_disabled": 0, "rental_uris": {"ios": "https://dc.lft.to/lastmile_qr_scan", "android": "https://dc.lft.to/lastmile_qr_scan"}, "is_reserved": 0}, {"lon": -77.02174216666667, "bike_id": "4658222b287507123c4fe6ce4532ebb9", "lat": 38.88726716666667, "fusion_lon": 0.0, "fusion_lat": 0.0, "type": "electric_scooter", "name": "4658222b287507123c4fe6ce4532ebb9", "is_disabled": 0, "rental_uris": {"ios": "https://dc.lft.to/lastmile_qr_scan", "android": "https://dc.lft.to/lastmile_qr_scan"}, "is_reserved": 0}, {"lon": -77.0217745, "bike_id": "a356d244e4423974046c24792fa404fe", "lat": 38.914829833333336, "fusion_lon": 0.0, "fusion_lat": 0.0, "type": "electric_scooter", "name": "a356d244e4423974046c24792fa404fe", "is_disabled": 0, "rental_uris": {"ios": "https://dc.lft.to/lastmile_qr_scan", "android": "https://dc.lft.to/lastmile_qr_scan"}, "is_reserved": 0}, {"lon": -77.03227683333333, "bike_id": "bff817d7117175417688742c9b6bc670", "lat": 38.9140605, "fusion_lon": 0.0, "fusion_lat": 0.0, "type": "electric_scooter", "name": "bff817d7117175417688742c9b6bc670", "is_disabled": 0, "rental_uris": {"ios": "https://dc.lft.to/lastmile_qr_scan", "android": "https://dc.lft.to/lastmile_qr_scan"}, "is_reserved": 0}, {"lon": -77.05660266666666, "bike_id": "142a9b61a44969497889dda8be096622", "lat": 38.89546983333334, "fusion_lon": 0.0, "fusion_lat": 0.0, "type": "electric_scooter", "name": "142a9b61a44969497889dda8be096622", "is_disabled": 0, "rental_uris": {"ios": "https://dc.lft.to/lastmile_qr_scan", "android": "https://dc.lft.to/lastmile_qr_scan"}, "is_reserved": 0}, {"lon": -77.0177055, "bike_id": "74e4c31117accdc6dcde3bfac0497b16", "lat": 38.884056333333334, "fusion_lon": 0.0, "fusion_lat": 0.0, "type": "electric_scooter", "name": "74e4c31117accdc6dcde3bfac0497b16", "is_disabled": 0, "rental_uris": {"ios": "https://dc.lft.to/lastmile_qr_scan", "android": "https://dc.lft.to/lastmile_qr_scan"}, "is_reserved": 0}, {"lon": -77.023693, "bike_id": "86598ec65d91f63149dc1dbc3a56bbb4", "lat": 38.902060166666665, "fusion_lon": 0.0, "fusion_lat": 0.0, "type": "electric_scooter", "name": "86598ec65d91f63149dc1dbc3a56bbb4", "is_disabled": 0, "rental_uris": {"ios": "https://dc.lft.to/lastmile_qr_scan", "android": "https://dc.lft.to/lastmile_qr_scan"}, "is_reserved": 0}, {"lon": -77.0548515, "bike_id": "4db9a60fc98e79329e9ab711bd636f5a", "lat": 38.90424816666667, "fusion_lon": 0.0, "fusion_lat": 0.0, "type": "electric_scooter", "name": "4db9a60fc98e79329e9ab711bd636f5a", "is_disabled": 0, "rental_uris": {"ios": "https://dc.lft.to/lastmile_qr_scan", "android": "https://dc.lft.to/lastmile_qr_scan"}, "is_reserved": 0}, {"lon": -77.03216883333333, "bike_id": "2ef0f6745fc26781020802b22eb3dc19", "lat": 38.892246666666665, "fusion_lon": 0.0, "fusion_lat": 0.0, "type": "electric_scooter", "name": "2ef0f6745fc26781020802b22eb3dc19", "is_disabled": 0, "rental_uris": {"ios": "https://dc.lft.to/lastmile_qr_scan", "android": "https://dc.lft.to/lastmile_qr_scan"}, "is_reserved": 0}, {"lon": -76.97239066666667, "bike_id": "5aa6c83f83276275cfb4f9169c4264a7", "lat": 38.903440333333336, "fusion_lon": 0.0, "fusion_lat": 0.0, "type": "electric_scooter", "name": "5aa6c83f83276275cfb4f9169c4264a7", "is_disabled": 0, "rental_uris": {"ios": "https://dc.lft.to/lastmile_qr_scan", "android": "https://dc.lft.to/lastmile_qr_scan"}, "is_reserved": 0}, {"lon": -77.0218025, "bike_id": "74be37a64c0fb45d7b4ed7768249159d", "lat": 38.91486416666667, "fusion_lon": 0.0, "fusion_lat": 0.0, "type": "electric_scooter", "name": "74be37a64c0fb45d7b4ed7768249159d", "is_disabled": 0, "rental_uris": {"ios": "https://dc.lft.to/lastmile_qr_scan", "android": "https://dc.lft.to/lastmile_qr_scan"}, "is_reserved": 0}, {"lon": -77.07589833333333, "bike_id": "c0ce214afb53be4ca40b199df3bd7399", "lat": 38.9121945, "fusion_lon": 0.0, "fusion_lat": 0.0, "type": "electric_scooter", "name": "c0ce214afb53be4ca40b199df3bd7399", "is_disabled": 0, "rental_uris": {"ios": "https://dc.lft.to/lastmile_qr_scan", "android": "https://dc.lft.to/lastmile_qr_scan"}, "is_reserved": 0}, {"lon": -77.032853, "bike_id": "ab5c9d7c06df32a6e0ddb2413dfe5ae6", "lat": 38.937605, "fusion_lon": 0.0, "fusion_lat": 0.0, "type": "electric_scooter", "name": "ab5c9d7c06df32a6e0ddb2413dfe5ae6", "is_disabled": 0, "rental_uris": {"ios": "https://dc.lft.to/lastmile_qr_scan", "android": "https://dc.lft.to/lastmile_qr_scan"}, "is_reserved": 0}, {"lon": -76.99458733333333, "bike_id": "3310fdb8de5f269b95114f88d2041946", "lat": 38.90370033333333, "fusion_lon": 0.0, "fusion_lat": 0.0, "type": "electric_scooter", "name": "3310fdb8de5f269b95114f88d2041946", "is_disabled": 0, "rental_uris": {"ios": "https://dc.lft.to/lastmile_qr_scan", "android": "https://dc.lft.to/lastmile_qr_scan"}, "is_reserved": 0}, {"lon": -76.9852715, "bike_id": "40c13eaf505772cd5bb872c3af729855", "lat": 38.86686133333333, "fusion_lon": 0.0, "fusion_lat": 0.0, "type": "electric_scooter", "name": "40c13eaf505772cd5bb872c3af729855", "is_disabled": 0, "rental_uris": {"ios": "https://dc.lft.to/lastmile_qr_scan", "android": "https://dc.lft.to/lastmile_qr_scan"}, "is_reserved": 0}, {"lon": -77.0723645, "bike_id": "91643ebb21da8f91b03d3a3041fbfd8f", "lat": 38.898865666666666, "fusion_lon": 0.0, "fusion_lat": 0.0, "type": "electric_scooter", "name": "91643ebb21da8f91b03d3a3041fbfd8f", "is_disabled": 0, "rental_uris": {"ios": "https://dc.lft.to/lastmile_qr_scan", "android": "https://dc.lft.to/lastmile_qr_scan"}, "is_reserved": 0}, {"lon": -76.98843783333334, "bike_id": "daca973d61f160cd216535cd1cb6ee07", "lat": 38.8427185, "fusion_lon": 0.0, "fusion_lat": 0.0, "type": "electric_bike", "name": "daca973d61f160cd216535cd1cb6ee07", "is_disabled": 0, "rental_uris": {"ios": "https://dc.lft.to/lastmile_qr_scan", "android": "https://dc.lft.to/lastmile_qr_scan"}, "is_reserved": 0}, {"lon": -77.01454783333334, "bike_id": "3cef74290a665076f83751b05fd63d76", "lat": 38.91921983333334, "fusion_lon": 0.0, "fusion_lat": 0.0, "type": "electric_scooter", "name": "3cef74290a665076f83751b05fd63d76", "is_disabled": 0, "rental_uris": {"ios": "https://dc.lft.to/lastmile_qr_scan", "android": "https://dc.lft.to/lastmile_qr_scan"}, "is_reserved": 0}, {"lon": -77.02805233333333, "bike_id": "f4441550850798237f1645313cffd795", "lat": 38.9141975, "fusion_lon": 0.0, "fusion_lat": 0.0, "type": "electric_scooter", "name": "f4441550850798237f1645313cffd795", "is_disabled": 0, "rental_uris": {"ios": "https://dc.lft.to/lastmile_qr_scan", "android": "https://dc.lft.to/lastmile_qr_scan"}, "is_reserved": 0}, {"lon": -77.03867266666667, "bike_id": "625b592d45374aa0dfca027c9fcd81fb", "lat": 38.912638666666666, "fusion_lon": 0.0, "fusion_lat": 0.0, "type": "electric_scooter", "name": "625b592d45374aa0dfca027c9fcd81fb", "is_disabled": 0, "rental_uris": {"ios": "https://dc.lft.to/lastmile_qr_scan", "android": "https://dc.lft.to/lastmile_qr_scan"}, "is_reserved": 0}, {"lon": -77.05915816666666, "bike_id": "6fa9bd94e4fe9a4de7fcd7b59b0ebdb6", "lat": 38.903752833333336, "fusion_lon": 0.0, "fusion_lat": 0.0, "type": "electric_bike", "name": "6fa9bd94e4fe9a4de7fcd7b59b0ebdb6", "is_disabled": 0, "rental_uris": {"ios": "https://dc.lft.to/lastmile_qr_scan", "android": "https://dc.lft.to/lastmile_qr_scan"}, "is_reserved": 0}, {"lon": -76.9889935, "bike_id": "46df37be3cfaf89f047f0f06c1bed22c", "lat": 38.86665516666667, "fusion_lon": 0.0, "fusion_lat": 0.0, "type": "electric_scooter", "name": "46df37be3cfaf89f047f0f06c1bed22c", "is_disabled": 0, "rental_uris": {"ios": "https://dc.lft.to/lastmile_qr_scan", "android": "https://dc.lft.to/lastmile_qr_scan"}, "is_reserved": 0}, {"lon": -77.04492283333333, "bike_id": "36f89167529fd50f3d0f3ed56ef3a7a3", "lat": 38.913585833333336, "fusion_lon": 0.0, "fusion_lat": 0.0, "type": "electric_scooter", "name": "36f89167529fd50f3d0f3ed56ef3a7a3", "is_disabled": 0, "rental_uris": {"ios": "https://dc.lft.to/lastmile_qr_scan", "android": "https://dc.lft.to/lastmile_qr_scan"}, "is_reserved": 0}, {"lon": -77.01903583333333, "bike_id": "3aff1fac98701beaceed262ea2dc525c", "lat": 38.9089855, "fusion_lon": 0.0, "fusion_lat": 0.0, "type": "electric_scooter", "name": "3aff1fac98701beaceed262ea2dc525c", "is_disabled": 0, "rental_uris": {"ios": "https://dc.lft.to/lastmile_qr_scan", "android": "https://dc.lft.to/lastmile_qr_scan"}, "is_reserved": 0}, {"lon": -76.98495183333333, "bike_id": "2348db2e5c792f943674cf049a291490", "lat": 38.87832366666667, "fusion_lon": 0.0, "fusion_lat": 0.0, "type": "electric_scooter", "name": "2348db2e5c792f943674cf049a291490", "is_disabled": 0, "rental_uris": {"ios": "https://dc.lft.to/lastmile_qr_scan", "android": "https://dc.lft.to/lastmile_qr_scan"}, "is_reserved": 0}, {"lon": -76.96523283333333, "bike_id": "932abe5572700c74a27c0224591d5aa1", "lat": 38.87627633333334, "fusion_lon": 0.0, "fusion_lat": 0.0, "type": "electric_scooter", "name": "932abe5572700c74a27c0224591d5aa1", "is_disabled": 0, "rental_uris": {"ios": "https://dc.lft.to/lastmile_qr_scan", "android": "https://dc.lft.to/lastmile_qr_scan"}, "is_reserved": 0}, {"lon": -77.05000016666666, "bike_id": "ab088794de86f7aef76f483bd2fd8a02", "lat": 38.901302333333334, "fusion_lon": 0.0, "fusion_lat": 0.0, "type": "electric_scooter", "name": "ab088794de86f7aef76f483bd2fd8a02", "is_disabled": 0, "rental_uris": {"ios": "https://dc.lft.to/lastmile_qr_scan", "android": "https://dc.lft.to/lastmile_qr_scan"}, "is_reserved": 0}, {"lon": -77.0059705, "bike_id": "f3647c39010cb4da92bbc9451b6327d4", "lat": 38.8718455, "fusion_lon": 0.0, "fusion_lat": 0.0, "type": "electric_scooter", "name": "f3647c39010cb4da92bbc9451b6327d4", "is_disabled": 0, "rental_uris": {"ios": "https://dc.lft.to/lastmile_qr_scan", "android": "https://dc.lft.to/lastmile_qr_scan"}, "is_reserved": 0}, {"lon": -77.02170333333333, "bike_id": "b9eb52494ae51734ba10a1611a629f17", "lat": 38.88724966666667, "fusion_lon": 0.0, "fusion_lat": 0.0, "type": "electric_scooter", "name": "b9eb52494ae51734ba10a1611a629f17", "is_disabled": 0, "rental_uris": {"ios": "https://dc.lft.to/lastmile_qr_scan", "android": "https://dc.lft.to/lastmile_qr_scan"}, "is_reserved": 0}, {"lon": -77.02361283333333, "bike_id": "20c2ce15779c042d9374d480add178c5", "lat": 38.89218316666667, "fusion_lon": 0.0, "fusion_lat": 0.0, "type": "electric_scooter", "name": "20c2ce15779c042d9374d480add178c5", "is_disabled": 0, "rental_uris": {"ios": "https://dc.lft.to/lastmile_qr_scan", "android": "https://dc.lft.to/lastmile_qr_scan"}, "is_reserved": 0}, {"lon": -77.03455283333334, "bike_id": "6a90cc941d9347e793e764301c7d175c", "lat": 38.90870233333333, "fusion_lon": 0.0, "fusion_lat": 0.0, "type": "electric_scooter", "name": "6a90cc941d9347e793e764301c7d175c", "is_disabled": 0, "rental_uris": {"ios": "https://dc.lft.to/lastmile_qr_scan", "android": "https://dc.lft.to/lastmile_qr_scan"}, "is_reserved": 0}, {"lon": -77.0601035, "bike_id": "b1ee5671eb6b31f917a531cdb5995550", "lat": 38.9011695, "fusion_lon": 0.0, "fusion_lat": 0.0, "type": "electric_scooter", "name": "b1ee5671eb6b31f917a531cdb5995550", "is_disabled": 0, "rental_uris": {"ios": "https://dc.lft.to/lastmile_qr_scan", "android": "https://dc.lft.to/lastmile_qr_scan"}, "is_reserved": 0}, {"lon": -77.0078395, "bike_id": "2f51946ecf836975c47b3401883a9119", "lat": 38.905703, "fusion_lon": 0.0, "fusion_lat": 0.0, "type": "electric_scooter", "name": "2f51946ecf836975c47b3401883a9119", "is_disabled": 0, "rental_uris": {"ios": "https://dc.lft.to/lastmile_qr_scan", "android": "https://dc.lft.to/lastmile_qr_scan"}, "is_reserved": 0}, {"lon": -77.03266783333333, "bike_id": "38881a95cb81b0c4ecef1358e63639b6", "lat": 38.937687333333336, "fusion_lon": 0.0, "fusion_lat": 0.0, "type": "electric_scooter", "name": "38881a95cb81b0c4ecef1358e63639b6", "is_disabled": 0, "rental_uris": {"ios": "https://dc.lft.to/lastmile_qr_scan", "android": "https://dc.lft.to/lastmile_qr_scan"}, "is_reserved": 0}, {"lon": -77.0219625, "bike_id": "2bc843aac2bde168e1b34a004330d809", "lat": 38.9291375, "fusion_lon": 0.0, "fusion_lat": 0.0, "type": "electric_scooter", "name": "2bc843aac2bde168e1b34a004330d809", "is_disabled": 0, "rental_uris": {"ios": "https://dc.lft.to/lastmile_qr_scan", "android": "https://dc.lft.to/lastmile_qr_scan"}, "is_reserved": 0}, {"lon": -77.03173516666666, "bike_id": "aa4f49e7df92976654c8b902c8095ac4", "lat": 38.91626816666667, "fusion_lon": 0.0, "fusion_lat": 0.0, "type": "electric_scooter", "name": "aa4f49e7df92976654c8b902c8095ac4", "is_disabled": 0, "rental_uris": {"ios": "https://dc.lft.to/lastmile_qr_scan", "android": "https://dc.lft.to/lastmile_qr_scan"}, "is_reserved": 0}, {"lon": -77.037744, "bike_id": "ffa1478730f7075737e74d6546afca0c", "lat": 38.90780483333333, "fusion_lon": 0.0, "fusion_lat": 0.0, "type": "electric_scooter", "name": "ffa1478730f7075737e74d6546afca0c", "is_disabled": 0, "rental_uris": {"ios": "https://dc.lft.to/lastmile_qr_scan", "android": "https://dc.lft.to/lastmile_qr_scan"}, "is_reserved": 0}, {"lon": -76.93175683333334, "bike_id": "1619efe4bd85e5d81d33d2bb45f5dc11", "lat": 38.898836, "fusion_lon": 0.0, "fusion_lat": 0.0, "type": "electric_scooter", "name": "1619efe4bd85e5d81d33d2bb45f5dc11", "is_disabled": 0, "rental_uris": {"ios": "https://dc.lft.to/lastmile_qr_scan", "android": "https://dc.lft.to/lastmile_qr_scan"}, "is_reserved": 0}, {"lon": -77.0532495, "bike_id": "3559fde0ed709ed5703746cf3ea9623a", "lat": 38.906509166666666, "fusion_lon": 0.0, "fusion_lat": 0.0, "type": "electric_scooter", "name": "3559fde0ed709ed5703746cf3ea9623a", "is_disabled": 0, "rental_uris": {"ios": "https://dc.lft.to/lastmile_qr_scan", "android": "https://dc.lft.to/lastmile_qr_scan"}, "is_reserved": 0}, {"lon": -76.99259216666667, "bike_id": "6bc79a8ecfbf874d7dc79198fda4b27d", "lat": 38.890649833333335, "fusion_lon": 0.0, "fusion_lat": 0.0, "type": "electric_bike", "name": "6bc79a8ecfbf874d7dc79198fda4b27d", "is_disabled": 0, "rental_uris": {"ios": "https://dc.lft.to/lastmile_qr_scan", "android": "https://dc.lft.to/lastmile_qr_scan"}, "is_reserved": 0}, {"lon": -76.99571583333334, "bike_id": "733cddb4bf1fc11fd6f4fcf683fc7b82", "lat": 38.85182783333333, "fusion_lon": 0.0, "fusion_lat": 0.0, "type": "electric_bike", "name": "733cddb4bf1fc11fd6f4fcf683fc7b82", "is_disabled": 0, "rental_uris": {"ios": "https://dc.lft.to/lastmile_qr_scan", "android": "https://dc.lft.to/lastmile_qr_scan"}, "is_reserved": 0}, {"lon": -77.03183183333333, "bike_id": "994bb92e571821fb977b23bde450a149", "lat": 38.8873605, "fusion_lon": 0.0, "fusion_lat": 0.0, "type": "electric_scooter", "name": "994bb92e571821fb977b23bde450a149", "is_disabled": 0, "rental_uris": {"ios": "https://dc.lft.to/lastmile_qr_scan", "android": "https://dc.lft.to/lastmile_qr_scan"}, "is_reserved": 0}, {"lon": -76.933699, "bike_id": "e18c1e3c7fe820404f117812ca6f4643", "lat": 38.899153166666665, "fusion_lon": 0.0, "fusion_lat": 0.0, "type": "electric_scooter", "name": "e18c1e3c7fe820404f117812ca6f4643", "is_disabled": 0, "rental_uris": {"ios": "https://dc.lft.to/lastmile_qr_scan", "android": "https://dc.lft.to/lastmile_qr_scan"}, "is_reserved": 0}, {"lon": -77.02707766666667, "bike_id": "3aeab5b6ed2e3f25fa309a66e175a349", "lat": 38.94988383333333, "fusion_lon": 0.0, "fusion_lat": 0.0, "type": "electric_scooter", "name": "3aeab5b6ed2e3f25fa309a66e175a349", "is_disabled": 0, "rental_uris": {"ios": "https://dc.lft.to/lastmile_qr_scan", "android": "https://dc.lft.to/lastmile_qr_scan"}, "is_reserved": 0}, {"lon": -77.04401616666667, "bike_id": "13f635a6fec66e8dc1392dcae8e17358", "lat": 38.9294955, "fusion_lon": 0.0, "fusion_lat": 0.0, "type": "electric_scooter", "name": "13f635a6fec66e8dc1392dcae8e17358", "is_disabled": 0, "rental_uris": {"ios": "https://dc.lft.to/lastmile_qr_scan", "android": "https://dc.lft.to/lastmile_qr_scan"}, "is_reserved": 0}, {"lon": -76.99946766666666, "bike_id": "4786e5bd61147a3fe055e2ff1f744abe", "lat": 38.90699466666667, "fusion_lon": 0.0, "fusion_lat": 0.0, "type": "electric_scooter", "name": "4786e5bd61147a3fe055e2ff1f744abe", "is_disabled": 0, "rental_uris": {"ios": "https://dc.lft.to/lastmile_qr_scan", "android": "https://dc.lft.to/lastmile_qr_scan"}, "is_reserved": 0}, {"lon": -77.00597933333333, "bike_id": "62bce0a1d319425e15f949d9f11e0eca", "lat": 38.87186466666667, "fusion_lon": 0.0, "fusion_lat": 0.0, "type": "electric_scooter", "name": "62bce0a1d319425e15f949d9f11e0eca", "is_disabled": 0, "rental_uris": {"ios": "https://dc.lft.to/lastmile_qr_scan", "android": "https://dc.lft.to/lastmile_qr_scan"}, "is_reserved": 0}, {"lon": -77.04449483333333, "bike_id": "f2ece7fb74e5a88975f040a11c813c0a", "lat": 38.919408, "fusion_lon": 0.0, "fusion_lat": 0.0, "type": "electric_scooter", "name": "f2ece7fb74e5a88975f040a11c813c0a", "is_disabled": 0, "rental_uris": {"ios": "https://dc.lft.to/lastmile_qr_scan", "android": "https://dc.lft.to/lastmile_qr_scan"}, "is_reserved": 0}, {"lon": -77.02158533333333, "bike_id": "807883ea2f299f986c4bc6ae2a631fd0", "lat": 38.887447, "fusion_lon": 0.0, "fusion_lat": 0.0, "type": "electric_scooter", "name": "807883ea2f299f986c4bc6ae2a631fd0", "is_disabled": 0, "rental_uris": {"ios": "https://dc.lft.to/lastmile_qr_scan", "android": "https://dc.lft.to/lastmile_qr_scan"}, "is_reserved": 0}, {"lon": -77.0388325, "bike_id": "85b2a63ec4dd5a342224a2ab45869a4c", "lat": 38.911192, "fusion_lon": 0.0, "fusion_lat": 0.0, "type": "electric_scooter", "name": "85b2a63ec4dd5a342224a2ab45869a4c", "is_disabled": 0, "rental_uris": {"ios": "https://dc.lft.to/lastmile_qr_scan", "android": "https://dc.lft.to/lastmile_qr_scan"}, "is_reserved": 0}, {"lon": -76.998079, "bike_id": "dbcab1e4073ac0ab08eaf26fa48d4889", "lat": 38.90014216666667, "fusion_lon": 0.0, "fusion_lat": 0.0, "type": "electric_scooter", "name": "dbcab1e4073ac0ab08eaf26fa48d4889", "is_disabled": 0, "rental_uris": {"ios": "https://dc.lft.to/lastmile_qr_scan", "android": "https://dc.lft.to/lastmile_qr_scan"}, "is_reserved": 0}, {"lon": -77.0287435, "bike_id": "50acfe866e62769f78b664dc192c5427", "lat": 38.932674166666665, "fusion_lon": 0.0, "fusion_lat": 0.0, "type": "electric_scooter", "name": "50acfe866e62769f78b664dc192c5427", "is_disabled": 0, "rental_uris": {"ios": "https://dc.lft.to/lastmile_qr_scan", "android": "https://dc.lft.to/lastmile_qr_scan"}, "is_reserved": 0}, {"lon": -77.026217, "bike_id": "927a0ab4e689a79d081a36795fafa4fe", "lat": 38.89221383333334, "fusion_lon": 0.0, "fusion_lat": 0.0, "type": "electric_scooter", "name": "927a0ab4e689a79d081a36795fafa4fe", "is_disabled": 0, "rental_uris": {"ios": "https://dc.lft.to/lastmile_qr_scan", "android": "https://dc.lft.to/lastmile_qr_scan"}, "is_reserved": 0}, {"lon": -77.02961083333334, "bike_id": "5f93d5b62d1e595b90caf6d2a81203ca", "lat": 38.9117655, "fusion_lon": 0.0, "fusion_lat": 0.0, "type": "electric_scooter", "name": "5f93d5b62d1e595b90caf6d2a81203ca", "is_disabled": 0, "rental_uris": {"ios": "https://dc.lft.to/lastmile_qr_scan", "android": "https://dc.lft.to/lastmile_qr_scan"}, "is_reserved": 0}, {"lon": -77.06104516666667, "bike_id": "c0dd245b61c6bd93db3700413c44d262", "lat": 38.937009, "fusion_lon": 0.0, "fusion_lat": 0.0, "type": "electric_scooter", "name": "c0dd245b61c6bd93db3700413c44d262", "is_disabled": 0, "rental_uris": {"ios": "https://dc.lft.to/lastmile_qr_scan", "android": "https://dc.lft.to/lastmile_qr_scan"}, "is_reserved": 0}, {"lon": -77.02421766666667, "bike_id": "f1d7ce9efebbc859d88fb9693067d40c", "lat": 38.9351445, "fusion_lon": 0.0, "fusion_lat": 0.0, "type": "electric_scooter", "name": "f1d7ce9efebbc859d88fb9693067d40c", "is_disabled": 0, "rental_uris": {"ios": "https://dc.lft.to/lastmile_qr_scan", "android": "https://dc.lft.to/lastmile_qr_scan"}, "is_reserved": 0}, {"lon": -77.04034116666666, "bike_id": "74256af2bda0df984432e6228f79b413", "lat": 38.925659, "fusion_lon": 0.0, "fusion_lat": 0.0, "type": "electric_scooter", "name": "74256af2bda0df984432e6228f79b413", "is_disabled": 0, "rental_uris": {"ios": "https://dc.lft.to/lastmile_qr_scan", "android": "https://dc.lft.to/lastmile_qr_scan"}, "is_reserved": 0}, {"lon": -77.07771166666667, "bike_id": "7a1c17986bf3ea8b32b12e43b493b9f7", "lat": 38.930410333333334, "fusion_lon": 0.0, "fusion_lat": 0.0, "type": "electric_scooter", "name": "7a1c17986bf3ea8b32b12e43b493b9f7", "is_disabled": 0, "rental_uris": {"ios": "https://dc.lft.to/lastmile_qr_scan", "android": "https://dc.lft.to/lastmile_qr_scan"}, "is_reserved": 0}, {"lon": -76.94885433333333, "bike_id": "a89c1aa28a4a4b4c2ac11d5b47264a94", "lat": 38.895103166666665, "fusion_lon": 0.0, "fusion_lat": 0.0, "type": "electric_scooter", "name": "a89c1aa28a4a4b4c2ac11d5b47264a94", "is_disabled": 0, "rental_uris": {"ios": "https://dc.lft.to/lastmile_qr_scan", "android": "https://dc.lft.to/lastmile_qr_scan"}, "is_reserved": 0}, {"lon": -77.02718816666666, "bike_id": "fe0f3d35f628de94fccf8b42ba7cc49a", "lat": 38.911408333333334, "fusion_lon": 0.0, "fusion_lat": 0.0, "type": "electric_scooter", "name": "fe0f3d35f628de94fccf8b42ba7cc49a", "is_disabled": 0, "rental_uris": {"ios": "https://dc.lft.to/lastmile_qr_scan", "android": "https://dc.lft.to/lastmile_qr_scan"}, "is_reserved": 0}, {"lon": -77.02705233333333, "bike_id": "a3faf7f2d0ff809adfa61d9e1463717e", "lat": 38.949866166666666, "fusion_lon": 0.0, "fusion_lat": 0.0, "type": "electric_scooter", "name": "a3faf7f2d0ff809adfa61d9e1463717e", "is_disabled": 0, "rental_uris": {"ios": "https://dc.lft.to/lastmile_qr_scan", "android": "https://dc.lft.to/lastmile_qr_scan"}, "is_reserved": 0}, {"lon": -77.04156216666667, "bike_id": "6676a0702bafd7e76c73605fe237e723", "lat": 38.91811283333333, "fusion_lon": 0.0, "fusion_lat": 0.0, "type": "electric_scooter", "name": "6676a0702bafd7e76c73605fe237e723", "is_disabled": 0, "rental_uris": {"ios": "https://dc.lft.to/lastmile_qr_scan", "android": "https://dc.lft.to/lastmile_qr_scan"}, "is_reserved": 0}, {"lon": -77.03376783333333, "bike_id": "0a96c41939a97ff9c15da39be5e09d23", "lat": 38.9213675, "fusion_lon": 0.0, "fusion_lat": 0.0, "type": "electric_scooter", "name": "0a96c41939a97ff9c15da39be5e09d23", "is_disabled": 0, "rental_uris": {"ios": "https://dc.lft.to/lastmile_qr_scan", "android": "https://dc.lft.to/lastmile_qr_scan"}, "is_reserved": 0}, {"lon": -77.02977866666667, "bike_id": "94c6bfcd88145f9fa181fda6e2aee4d6", "lat": 38.907111666666665, "fusion_lon": 0.0, "fusion_lat": 0.0, "type": "electric_scooter", "name": "94c6bfcd88145f9fa181fda6e2aee4d6", "is_disabled": 0, "rental_uris": {"ios": "https://dc.lft.to/lastmile_qr_scan", "android": "https://dc.lft.to/lastmile_qr_scan"}, "is_reserved": 0}, {"lon": -77.0347145, "bike_id": "646525c0c382ca2c7a0bd278ecf07d89", "lat": 38.90725583333333, "fusion_lon": 0.0, "fusion_lat": 0.0, "type": "electric_scooter", "name": "646525c0c382ca2c7a0bd278ecf07d89", "is_disabled": 0, "rental_uris": {"ios": "https://dc.lft.to/lastmile_qr_scan", "android": "https://dc.lft.to/lastmile_qr_scan"}, "is_reserved": 0}, {"lon": -77.01901766666667, "bike_id": "e70748a53af7003e1dd04dac7fb14d73", "lat": 38.90251516666667, "fusion_lon": 0.0, "fusion_lat": 0.0, "type": "electric_scooter", "name": "e70748a53af7003e1dd04dac7fb14d73", "is_disabled": 0, "rental_uris": {"ios": "https://dc.lft.to/lastmile_qr_scan", "android": "https://dc.lft.to/lastmile_qr_scan"}, "is_reserved": 0}, {"lon": -77.02160666666667, "bike_id": "a2f7be52b191e343e20a8b8cc724b888", "lat": 38.9261155, "fusion_lon": 0.0, "fusion_lat": 0.0, "type": "electric_scooter", "name": "a2f7be52b191e343e20a8b8cc724b888", "is_disabled": 0, "rental_uris": {"ios": "https://dc.lft.to/lastmile_qr_scan", "android": "https://dc.lft.to/lastmile_qr_scan"}, "is_reserved": 0}, {"lon": -77.03187966666667, "bike_id": "56187c06d3d06dc087fc3e3480e66aec", "lat": 38.912708, "fusion_lon": 0.0, "fusion_lat": 0.0, "type": "electric_scooter", "name": "56187c06d3d06dc087fc3e3480e66aec", "is_disabled": 0, "rental_uris": {"ios": "https://dc.lft.to/lastmile_qr_scan", "android": "https://dc.lft.to/lastmile_qr_scan"}, "is_reserved": 0}, {"lon": -77.034094, "bike_id": "7a755e20966b403ed2f3ea0279a2ea8b", "lat": 38.93420883333334, "fusion_lon": 0.0, "fusion_lat": 0.0, "type": "electric_scooter", "name": "7a755e20966b403ed2f3ea0279a2ea8b", "is_disabled": 0, "rental_uris": {"ios": "https://dc.lft.to/lastmile_qr_scan", "android": "https://dc.lft.to/lastmile_qr_scan"}, "is_reserved": 0}, {"lon": -77.04479216666667, "bike_id": "1ef804167ae502868e4804522ea020c5", "lat": 38.90053366666667, "fusion_lon": 0.0, "fusion_lat": 0.0, "type": "electric_scooter", "name": "1ef804167ae502868e4804522ea020c5", "is_disabled": 0, "rental_uris": {"ios": "https://dc.lft.to/lastmile_qr_scan", "android": "https://dc.lft.to/lastmile_qr_scan"}, "is_reserved": 0}, {"lon": -77.03643416666667, "bike_id": "f467ff05864b635e658d99ed875df9ed", "lat": 38.9046385, "fusion_lon": 0.0, "fusion_lat": 0.0, "type": "electric_scooter", "name": "f467ff05864b635e658d99ed875df9ed", "is_disabled": 0, "rental_uris": {"ios": "https://dc.lft.to/lastmile_qr_scan", "android": "https://dc.lft.to/lastmile_qr_scan"}, "is_reserved": 0}, {"lon": -77.04305183333334, "bike_id": "7461640c1cec469072bee65f9a241285", "lat": 38.908662166666666, "fusion_lon": 0.0, "fusion_lat": 0.0, "type": "electric_scooter", "name": "7461640c1cec469072bee65f9a241285", "is_disabled": 0, "rental_uris": {"ios": "https://dc.lft.to/lastmile_qr_scan", "android": "https://dc.lft.to/lastmile_qr_scan"}, "is_reserved": 0}, {"lon": -77.04640866666666, "bike_id": "dac18248b657f7a448fdc7261986b61b", "lat": 38.921166166666666, "fusion_lon": 0.0, "fusion_lat": 0.0, "type": "electric_scooter", "name": "dac18248b657f7a448fdc7261986b61b", "is_disabled": 0, "rental_uris": {"ios": "https://dc.lft.to/lastmile_qr_scan", "android": "https://dc.lft.to/lastmile_qr_scan"}, "is_reserved": 0}, {"lon": -77.03274616666667, "bike_id": "c987844b4deee67a793aa65e81ca2592", "lat": 38.940944333333334, "fusion_lon": 0.0, "fusion_lat": 0.0, "type": "electric_bike", "name": "c987844b4deee67a793aa65e81ca2592", "is_disabled": 0, "rental_uris": {"ios": "https://dc.lft.to/lastmile_qr_scan", "android": "https://dc.lft.to/lastmile_qr_scan"}, "is_reserved": 0}, {"lon": -76.96776983333334, "bike_id": "891b4b9df65c0bf49bbd3489f29f318e", "lat": 38.86854733333333, "fusion_lon": 0.0, "fusion_lat": 0.0, "type": "electric_scooter", "name": "891b4b9df65c0bf49bbd3489f29f318e", "is_disabled": 0, "rental_uris": {"ios": "https://dc.lft.to/lastmile_qr_scan", "android": "https://dc.lft.to/lastmile_qr_scan"}, "is_reserved": 0}, {"lon": -77.0677015, "bike_id": "60fabff88f8934f6ae071f55fc244193", "lat": 38.90345716666667, "fusion_lon": 0.0, "fusion_lat": 0.0, "type": "electric_scooter", "name": "60fabff88f8934f6ae071f55fc244193", "is_disabled": 0, "rental_uris": {"ios": "https://dc.lft.to/lastmile_qr_scan", "android": "https://dc.lft.to/lastmile_qr_scan"}, "is_reserved": 0}, {"lon": -77.03950916666666, "bike_id": "0b04237f95eccafed1331983af8a6304", "lat": 38.917023666666665, "fusion_lon": 0.0, "fusion_lat": 0.0, "type": "electric_scooter", "name": "0b04237f95eccafed1331983af8a6304", "is_disabled": 0, "rental_uris": {"ios": "https://dc.lft.to/lastmile_qr_scan", "android": "https://dc.lft.to/lastmile_qr_scan"}, "is_reserved": 0}, {"lon": -76.969146, "bike_id": "7cb7c1d994583cb2b920dd89983d59c1", "lat": 38.84607283333333, "fusion_lon": 0.0, "fusion_lat": 0.0, "type": "electric_bike", "name": "7cb7c1d994583cb2b920dd89983d59c1", "is_disabled": 0, "rental_uris": {"ios": "https://dc.lft.to/lastmile_qr_scan", "android": "https://dc.lft.to/lastmile_qr_scan"}, "is_reserved": 0}, {"lon": -77.04594283333333, "bike_id": "13a237f8c96d790ee74249a5f6c2d516", "lat": 38.915811, "fusion_lon": 0.0, "fusion_lat": 0.0, "type": "electric_scooter", "name": "13a237f8c96d790ee74249a5f6c2d516", "is_disabled": 0, "rental_uris": {"ios": "https://dc.lft.to/lastmile_qr_scan", "android": "https://dc.lft.to/lastmile_qr_scan"}, "is_reserved": 0}, {"lon": -77.03336633333333, "bike_id": "8619e2b95588d6e1687986770eef4bc3", "lat": 38.901254333333334, "fusion_lon": 0.0, "fusion_lat": 0.0, "type": "electric_scooter", "name": "8619e2b95588d6e1687986770eef4bc3", "is_disabled": 0, "rental_uris": {"ios": "https://dc.lft.to/lastmile_qr_scan", "android": "https://dc.lft.to/lastmile_qr_scan"}, "is_reserved": 0}, {"lon": -77.02720183333334, "bike_id": "bce9288cefe522ab40a9ccfa0d3f9f07", "lat": 38.9248065, "fusion_lon": 0.0, "fusion_lat": 0.0, "type": "electric_scooter", "name": "bce9288cefe522ab40a9ccfa0d3f9f07", "is_disabled": 0, "rental_uris": {"ios": "https://dc.lft.to/lastmile_qr_scan", "android": "https://dc.lft.to/lastmile_qr_scan"}, "is_reserved": 0}, {"lon": -77.036522, "bike_id": "fabea70bd9b792a11925287eeff6be8a", "lat": 38.9134305, "fusion_lon": 0.0, "fusion_lat": 0.0, "type": "electric_scooter", "name": "fabea70bd9b792a11925287eeff6be8a", "is_disabled": 0, "rental_uris": {"ios": "https://dc.lft.to/lastmile_qr_scan", "android": "https://dc.lft.to/lastmile_qr_scan"}, "is_reserved": 0}, {"lon": -77.04658683333334, "bike_id": "61b2b9f9bc8c3329247cf77ef1b055c9", "lat": 38.89668483333333, "fusion_lon": 0.0, "fusion_lat": 0.0, "type": "electric_scooter", "name": "61b2b9f9bc8c3329247cf77ef1b055c9", "is_disabled": 0, "rental_uris": {"ios": "https://dc.lft.to/lastmile_qr_scan", "android": "https://dc.lft.to/lastmile_qr_scan"}, "is_reserved": 0}, {"lon": -76.98336883333333, "bike_id": "6c1e8f66de2d1d8b975e1496504f0d8f", "lat": 38.89542816666667, "fusion_lon": 0.0, "fusion_lat": 0.0, "type": "electric_scooter", "name": "6c1e8f66de2d1d8b975e1496504f0d8f", "is_disabled": 0, "rental_uris": {"ios": "https://dc.lft.to/lastmile_qr_scan", "android": "https://dc.lft.to/lastmile_qr_scan"}, "is_reserved": 0}, {"lon": -76.96152566666666, "bike_id": "f3d3d831ce44bd43a0fedb40bd13f829", "lat": 38.88358, "fusion_lon": 0.0, "fusion_lat": 0.0, "type": "electric_scooter", "name": "f3d3d831ce44bd43a0fedb40bd13f829", "is_disabled": 0, "rental_uris": {"ios": "https://dc.lft.to/lastmile_qr_scan", "android": "https://dc.lft.to/lastmile_qr_scan"}, "is_reserved": 0}, {"lon": -76.99027816666667, "bike_id": "0c9f06b0edc2c5bba3fed9199484c783", "lat": 38.89177733333333, "fusion_lon": 0.0, "fusion_lat": 0.0, "type": "electric_scooter", "name": "0c9f06b0edc2c5bba3fed9199484c783", "is_disabled": 0, "rental_uris": {"ios": "https://dc.lft.to/lastmile_qr_scan", "android": "https://dc.lft.to/lastmile_qr_scan"}, "is_reserved": 0}, {"lon": -77.04185583333333, "bike_id": "e9c5708162a1f43fadef953e80a630f6", "lat": 38.899753833333335, "fusion_lon": 0.0, "fusion_lat": 0.0, "type": "electric_scooter", "name": "e9c5708162a1f43fadef953e80a630f6", "is_disabled": 0, "rental_uris": {"ios": "https://dc.lft.to/lastmile_qr_scan", "android": "https://dc.lft.to/lastmile_qr_scan"}, "is_reserved": 0}, {"lon": -77.06251466666667, "bike_id": "028ceac014cbb09b3039faf0cb26730c", "lat": 38.944119666666666, "fusion_lon": 0.0, "fusion_lat": 0.0, "type": "electric_scooter", "name": "028ceac014cbb09b3039faf0cb26730c", "is_disabled": 0, "rental_uris": {"ios": "https://dc.lft.to/lastmile_qr_scan", "android": "https://dc.lft.to/lastmile_qr_scan"}, "is_reserved": 0}, {"lon": -77.02171783333333, "bike_id": "b362087d5be61aa13ea1218762ef44e7", "lat": 38.887239, "fusion_lon": 0.0, "fusion_lat": 0.0, "type": "electric_scooter", "name": "b362087d5be61aa13ea1218762ef44e7", "is_disabled": 0, "rental_uris": {"ios": "https://dc.lft.to/lastmile_qr_scan", "android": "https://dc.lft.to/lastmile_qr_scan"}, "is_reserved": 0}, {"lon": -77.03258866666667, "bike_id": "3b250b15af7a3fafb15fa19a6b6e124a", "lat": 38.935469499999996, "fusion_lon": 0.0, "fusion_lat": 0.0, "type": "electric_scooter", "name": "3b250b15af7a3fafb15fa19a6b6e124a", "is_disabled": 0, "rental_uris": {"ios": "https://dc.lft.to/lastmile_qr_scan", "android": "https://dc.lft.to/lastmile_qr_scan"}, "is_reserved": 0}, {"lon": -77.10093266666667, "bike_id": "c9f94777ea871667d6386ea0dd4149b3", "lat": 38.95956866666667, "fusion_lon": 0.0, "fusion_lat": 0.0, "type": "electric_bike", "name": "c9f94777ea871667d6386ea0dd4149b3", "is_disabled": 0, "rental_uris": {"ios": "https://dc.lft.to/lastmile_qr_scan", "android": "https://dc.lft.to/lastmile_qr_scan"}, "is_reserved": 0}, {"lon": -77.00572366666667, "bike_id": "d7312500276d276881e0e23f4c866b2d", "lat": 38.905636333333334, "fusion_lon": 0.0, "fusion_lat": 0.0, "type": "electric_scooter", "name": "d7312500276d276881e0e23f4c866b2d", "is_disabled": 0, "rental_uris": {"ios": "https://dc.lft.to/lastmile_qr_scan", "android": "https://dc.lft.to/lastmile_qr_scan"}, "is_reserved": 0}, {"lon": -76.98938666666666, "bike_id": "74380909a51f6fbd8134755162bc9234", "lat": 38.8657275, "fusion_lon": 0.0, "fusion_lat": 0.0, "type": "electric_scooter", "name": "74380909a51f6fbd8134755162bc9234", "is_disabled": 0, "rental_uris": {"ios": "https://dc.lft.to/lastmile_qr_scan", "android": "https://dc.lft.to/lastmile_qr_scan"}, "is_reserved": 0}, {"lon": -77.0229115, "bike_id": "a57f34d7ca14da54b640c2e3c1d24f54", "lat": 38.91072716666667, "fusion_lon": 0.0, "fusion_lat": 0.0, "type": "electric_scooter", "name": "a57f34d7ca14da54b640c2e3c1d24f54", "is_disabled": 0, "rental_uris": {"ios": "https://dc.lft.to/lastmile_qr_scan", "android": "https://dc.lft.to/lastmile_qr_scan"}, "is_reserved": 0}, {"lon": -76.99548783333333, "bike_id": "17ab08719b95f5a18cedddd21adbecc3", "lat": 38.83161116666667, "fusion_lon": 0.0, "fusion_lat": 0.0, "type": "electric_bike", "name": "17ab08719b95f5a18cedddd21adbecc3", "is_disabled": 0, "rental_uris": {"ios": "https://dc.lft.to/lastmile_qr_scan", "android": "https://dc.lft.to/lastmile_qr_scan"}, "is_reserved": 0}, {"lon": -77.02626766666667, "bike_id": "e8d4fd2e5c10779b9fc8e5bc3995b20f", "lat": 38.962279833333334, "fusion_lon": 0.0, "fusion_lat": 0.0, "type": "electric_bike", "name": "e8d4fd2e5c10779b9fc8e5bc3995b20f", "is_disabled": 0, "rental_uris": {"ios": "https://dc.lft.to/lastmile_qr_scan", "android": "https://dc.lft.to/lastmile_qr_scan"}, "is_reserved": 0}, {"lon": -77.1083945, "bike_id": "0b5e7c3de4367a637a1c32c20234c265", "lat": 38.812014833333336, "fusion_lon": 0.0, "fusion_lat": 0.0, "type": "electric_bike", "name": "0b5e7c3de4367a637a1c32c20234c265", "is_disabled": 0, "rental_uris": {"ios": "https://dc.lft.to/lastmile_qr_scan", "android": "https://dc.lft.to/lastmile_qr_scan"}, "is_reserved": 0}, {"lon": -77.02386416666667, "bike_id": "6cad0be8956f5a7b0e77c5b3e4d91429", "lat": 38.909556333333335, "fusion_lon": 0.0, "fusion_lat": 0.0, "type": "electric_scooter", "name": "6cad0be8956f5a7b0e77c5b3e4d91429", "is_disabled": 0, "rental_uris": {"ios": "https://dc.lft.to/lastmile_qr_scan", "android": "https://dc.lft.to/lastmile_qr_scan"}, "is_reserved": 0}, {"lon": -76.98261316666667, "bike_id": "edd80bf54ed666e091eb3feaa7c6b5ad", "lat": 38.908555166666666, "fusion_lon": 0.0, "fusion_lat": 0.0, "type": "electric_scooter", "name": "edd80bf54ed666e091eb3feaa7c6b5ad", "is_disabled": 0, "rental_uris": {"ios": "https://dc.lft.to/lastmile_qr_scan", "android": "https://dc.lft.to/lastmile_qr_scan"}, "is_reserved": 0}, {"lon": -77.011608, "bike_id": "8d7d794d7c17bf3c5da0f644598cdd09", "lat": 38.8723215, "fusion_lon": 0.0, "fusion_lat": 0.0, "type": "electric_bike", "name": "8d7d794d7c17bf3c5da0f644598cdd09", "is_disabled": 0, "rental_uris": {"ios": "https://dc.lft.to/lastmile_qr_scan", "android": "https://dc.lft.to/lastmile_qr_scan"}, "is_reserved": 0}, {"lon": -76.98902816666667, "bike_id": "d8d1de0afb004df584060a2522be1935", "lat": 38.9134735, "fusion_lon": 0.0, "fusion_lat": 0.0, "type": "electric_scooter", "name": "d8d1de0afb004df584060a2522be1935", "is_disabled": 0, "rental_uris": {"ios": "https://dc.lft.to/lastmile_qr_scan", "android": "https://dc.lft.to/lastmile_qr_scan"}, "is_reserved": 0}, {"lon": -77.03531816666667, "bike_id": "793114a17c0c7d65a98a6b4e98d4ae95", "lat": 38.92629383333333, "fusion_lon": 0.0, "fusion_lat": 0.0, "type": "electric_scooter", "name": "793114a17c0c7d65a98a6b4e98d4ae95", "is_disabled": 0, "rental_uris": {"ios": "https://dc.lft.to/lastmile_qr_scan", "android": "https://dc.lft.to/lastmile_qr_scan"}, "is_reserved": 0}, {"lon": -77.03446516666666, "bike_id": "f57091b09fd3dbca9248072645f3935f", "lat": 38.9081095, "fusion_lon": 0.0, "fusion_lat": 0.0, "type": "electric_scooter", "name": "f57091b09fd3dbca9248072645f3935f", "is_disabled": 0, "rental_uris": {"ios": "https://dc.lft.to/lastmile_qr_scan", "android": "https://dc.lft.to/lastmile_qr_scan"}, "is_reserved": 0}, {"lon": -76.95472833333334, "bike_id": "3df26ac411af15e688d6ae6b7b158541", "lat": 38.88461433333333, "fusion_lon": 0.0, "fusion_lat": 0.0, "type": "electric_scooter", "name": "3df26ac411af15e688d6ae6b7b158541", "is_disabled": 0, "rental_uris": {"ios": "https://dc.lft.to/lastmile_qr_scan", "android": "https://dc.lft.to/lastmile_qr_scan"}, "is_reserved": 0}, {"lon": -76.9429095, "bike_id": "b33bddf2e95425e698feeb98aaac9f81", "lat": 38.938667833333334, "fusion_lon": 0.0, "fusion_lat": 0.0, "type": "electric_bike", "name": "b33bddf2e95425e698feeb98aaac9f81", "is_disabled": 0, "rental_uris": {"ios": "https://dc.lft.to/lastmile_qr_scan", "android": "https://dc.lft.to/lastmile_qr_scan"}, "is_reserved": 0}, {"lon": -77.02564066666666, "bike_id": "6e3c93e5e617bcb2ed02a715fea4e224", "lat": 38.88295733333333, "fusion_lon": 0.0, "fusion_lat": 0.0, "type": "electric_scooter", "name": "6e3c93e5e617bcb2ed02a715fea4e224", "is_disabled": 0, "rental_uris": {"ios": "https://dc.lft.to/lastmile_qr_scan", "android": "https://dc.lft.to/lastmile_qr_scan"}, "is_reserved": 0}, {"lon": -77.03289716666667, "bike_id": "c46c43eb7ccb6aeed8403b92a2f249a5", "lat": 38.956530666666666, "fusion_lon": 0.0, "fusion_lat": 0.0, "type": "electric_scooter", "name": "c46c43eb7ccb6aeed8403b92a2f249a5", "is_disabled": 0, "rental_uris": {"ios": "https://dc.lft.to/lastmile_qr_scan", "android": "https://dc.lft.to/lastmile_qr_scan"}, "is_reserved": 0}, {"lon": -77.02395666666666, "bike_id": "da064fd83909e732847a6fd920a8b6ab", "lat": 38.881331833333334, "fusion_lon": 0.0, "fusion_lat": 0.0, "type": "electric_scooter", "name": "da064fd83909e732847a6fd920a8b6ab", "is_disabled": 0, "rental_uris": {"ios": "https://dc.lft.to/lastmile_qr_scan", "android": "https://dc.lft.to/lastmile_qr_scan"}, "is_reserved": 0}, {"lon": -77.03994416666667, "bike_id": "de6ac297dfe0e70fc09137e457c761d2", "lat": 38.93338983333334, "fusion_lon": 0.0, "fusion_lat": 0.0, "type": "electric_scooter", "name": "de6ac297dfe0e70fc09137e457c761d2", "is_disabled": 0, "rental_uris": {"ios": "https://dc.lft.to/lastmile_qr_scan", "android": "https://dc.lft.to/lastmile_qr_scan"}, "is_reserved": 0}, {"lon": -77.0484345, "bike_id": "5157ce9c461dc39f763a8d74acb30ea2", "lat": 38.915125333333336, "fusion_lon": 0.0, "fusion_lat": 0.0, "type": "electric_scooter", "name": "5157ce9c461dc39f763a8d74acb30ea2", "is_disabled": 0, "rental_uris": {"ios": "https://dc.lft.to/lastmile_qr_scan", "android": "https://dc.lft.to/lastmile_qr_scan"}, "is_reserved": 0}, {"lon": -77.01622116666667, "bike_id": "b4419ce00c9318dfba4664b25a48714e", "lat": 38.89971766666667, "fusion_lon": 0.0, "fusion_lat": 0.0, "type": "electric_scooter", "name": "b4419ce00c9318dfba4664b25a48714e", "is_disabled": 0, "rental_uris": {"ios": "https://dc.lft.to/lastmile_qr_scan", "android": "https://dc.lft.to/lastmile_qr_scan"}, "is_reserved": 0}, {"lon": -77.01208233333334, "bike_id": "ff61c4beef08dbcf18b11de4317e60e6", "lat": 38.90004366666667, "fusion_lon": 0.0, "fusion_lat": 0.0, "type": "electric_scooter", "name": "ff61c4beef08dbcf18b11de4317e60e6", "is_disabled": 0, "rental_uris": {"ios": "https://dc.lft.to/lastmile_qr_scan", "android": "https://dc.lft.to/lastmile_qr_scan"}, "is_reserved": 0}, {"lon": -77.03201183333333, "bike_id": "5905510b32d26b6aee78234f41a591d4", "lat": 38.91565166666667, "fusion_lon": 0.0, "fusion_lat": 0.0, "type": "electric_scooter", "name": "5905510b32d26b6aee78234f41a591d4", "is_disabled": 0, "rental_uris": {"ios": "https://dc.lft.to/lastmile_qr_scan", "android": "https://dc.lft.to/lastmile_qr_scan"}, "is_reserved": 0}, {"lon": -76.997938, "bike_id": "b8201f4dcf27f8215973f41c40940a86", "lat": 38.956397833333334, "fusion_lon": 0.0, "fusion_lat": 0.0, "type": "electric_bike", "name": "b8201f4dcf27f8215973f41c40940a86", "is_disabled": 0, "rental_uris": {"ios": "https://dc.lft.to/lastmile_qr_scan", "android": "https://dc.lft.to/lastmile_qr_scan"}, "is_reserved": 0}, {"lon": -77.021769, "bike_id": "2de28ca8a6846fad01ecb5aa4868a270", "lat": 38.909784333333334, "fusion_lon": 0.0, "fusion_lat": 0.0, "type": "electric_scooter", "name": "2de28ca8a6846fad01ecb5aa4868a270", "is_disabled": 0, "rental_uris": {"ios": "https://dc.lft.to/lastmile_qr_scan", "android": "https://dc.lft.to/lastmile_qr_scan"}, "is_reserved": 0}, {"lon": -76.973229, "bike_id": "c66f690f29b700299793a2bffd70081f", "lat": 38.9048205, "fusion_lon": 0.0, "fusion_lat": 0.0, "type": "electric_bike", "name": "c66f690f29b700299793a2bffd70081f", "is_disabled": 0, "rental_uris": {"ios": "https://dc.lft.to/lastmile_qr_scan", "android": "https://dc.lft.to/lastmile_qr_scan"}, "is_reserved": 0}, {"lon": -77.04185566666666, "bike_id": "ecee5478543df8eeb46188b950e31ec9", "lat": 38.89974733333333, "fusion_lon": 0.0, "fusion_lat": 0.0, "type": "electric_scooter", "name": "ecee5478543df8eeb46188b950e31ec9", "is_disabled": 0, "rental_uris": {"ios": "https://dc.lft.to/lastmile_qr_scan", "android": "https://dc.lft.to/lastmile_qr_scan"}, "is_reserved": 0}, {"lon": -77.03832016666667, "bike_id": "194570f5e62b7ef3c6cb9ab3206e18b1", "lat": 38.910386333333335, "fusion_lon": 0.0, "fusion_lat": 0.0, "type": "electric_scooter", "name": "194570f5e62b7ef3c6cb9ab3206e18b1", "is_disabled": 0, "rental_uris": {"ios": "https://dc.lft.to/lastmile_qr_scan", "android": "https://dc.lft.to/lastmile_qr_scan"}, "is_reserved": 0}, {"lon": -77.04999383333333, "bike_id": "bcb962d971321fc86d5ce3e8605e35ad", "lat": 38.905116666666665, "fusion_lon": 0.0, "fusion_lat": 0.0, "type": "electric_scooter", "name": "bcb962d971321fc86d5ce3e8605e35ad", "is_disabled": 0, "rental_uris": {"ios": "https://dc.lft.to/lastmile_qr_scan", "android": "https://dc.lft.to/lastmile_qr_scan"}, "is_reserved": 0},