{"data": {"bikes": [{"type": "electric_scooter", "fusion_lon": 0.0, "bike_id": "978c71472f02ce61cbdd4540f6aa9d4a", "is_disabled": 0, "lat": 38.9181825, "rental_uris": {"ios": "https://dc.lft.to/lastmile_qr_scan", "android": "https://dc.lft.to/lastmile_qr_scan"}, "is_reserved": 0, "lon": -77.0253255, "fusion_lat": 0.0, "name": "978c71472f02ce61cbdd4540f6aa9d4a"}, {"type": "electric_scooter", "fusion_lon": 0.0, "bike_id": "b883bc6a7479feeff47a5af632b61eb7", "is_disabled": 0, "lat": 38.9644235, "rental_uris": {"ios": "https://dc.lft.to/lastmile_qr_scan", "android": "https://dc.lft.to/lastmile_qr_scan"}, "is_reserved": 0, "lon": -77.020017, "fusion_lat": 0.0, "name": "b883bc6a7479feeff47a5af632b61eb7"}, {"type": "electric_scooter", "fusion_lon": 0.0, "bike_id": "f9aaec2342c1ad3ed3ad192d79531fe5", "is_disabled": 0, "lat": 38.911226166666665, "rental_uris": {"ios": "https://dc.lft.to/lastmile_qr_scan", "android": "https://dc.lft.to/lastmile_qr_scan"}, "is_reserved": 0, "lon": -77.02082216666666, "fusion_lat": 0.0, "name": "f9aaec2342c1ad3ed3ad192d79531fe5"}, {"type": "electric_scooter", "fusion_lon": 0.0, "bike_id": "61e41ae2590233c4006ae3dbe1e365f1", "is_disabled": 0, "lat": 38.886414333333335, "rental_uris": {"ios": "https://dc.lft.to/lastmile_qr_scan", "android": "https://dc.lft.to/lastmile_qr_scan"}, "is_reserved": 0, "lon": -77.02138033333334, "fusion_lat": 0.0, "name": "61e41ae2590233c4006ae3dbe1e365f1"}, {"type": "electric_scooter", "fusion_lon": 0.0, "bike_id": "1a2903a9d52f59469ca661b8fa997009", "is_disabled": 0, "lat": 38.893406166666665, "rental_uris": {"ios": "https://dc.lft.to/lastmile_qr_scan", "android": "https://dc.lft.to/lastmile_qr_scan"}, "is_reserved": 0, "lon": -77.01230383333333, "fusion_lat": 0.0, "name": "1a2903a9d52f59469ca661b8fa997009"}, {"type": "electric_bike", "fusion_lon": 0.0, "bike_id": "163bab0994c589a1587ca4da9bebb714", "is_disabled": 0, "lat": 38.85087466666667, "rental_uris": {"ios": "https://dc.lft.to/lastmile_qr_scan", "android": "https://dc.lft.to/lastmile_qr_scan"}, "is_reserved": 0, "lon": -76.95698533333334, "fusion_lat": 0.0, "name": "163bab0994c589a1587ca4da9bebb714"}, {"type": "electric_scooter", "fusion_lon": 0.0, "bike_id": "8f0458d94c58f4d6ee420c43fb289993", "is_disabled": 0, "lat": 38.92324033333333, "rental_uris": {"ios": "https://dc.lft.to/lastmile_qr_scan", "android": "https://dc.lft.to/lastmile_qr_scan"}, "is_reserved": 0, "lon": -77.019491, "fusion_lat": 0.0, "name": "8f0458d94c58f4d6ee420c43fb289993"}, {"type": "electric_scooter", "fusion_lon": 0.0, "bike_id": "6d4a9ac1d4a4f085e853ac1fdd7b46f6", "is_disabled": 0, "lat": 38.919894166666666, "rental_uris": {"ios": "https://dc.lft.to/lastmile_qr_scan", "android": "https://dc.lft.to/lastmile_qr_scan"}, "is_reserved": 0, "lon": -77.024784, "fusion_lat": 0.0, "name": "6d4a9ac1d4a4f085e853ac1fdd7b46f6"}, {"type": "electric_scooter", "fusion_lon": 0.0, "bike_id": "ac3096f3584c31125ac426d597119a86", "is_disabled": 0, "lat": 38.932180333333335, "rental_uris": {"ios": "https://dc.lft.to/lastmile_qr_scan", "android": "https://dc.lft.to/lastmile_qr_scan"}, "is_reserved": 0, "lon": -77.035242, "fusion_lat": 0.0, "name": "ac3096f3584c31125ac426d597119a86"}, {"type": "electric_scooter", "fusion_lon": 0.0, "bike_id": "e441700637c53d0aa9a57a7ad8dc17f6", "is_disabled": 0, "lat": 38.942909666666665, "rental_uris": {"ios": "https://dc.lft.to/lastmile_qr_scan", "android": "https://dc.lft.to/lastmile_qr_scan"}, "is_reserved": 0, "lon": -77.0217105, "fusion_lat": 0.0, "name": "e441700637c53d0aa9a57a7ad8dc17f6"}, {"type": "electric_scooter", "fusion_lon": 0.0, "bike_id": "2a03ae6b0ebf64df330ecee2e5a51dea", "is_disabled": 0, "lat": 38.879343, "rental_uris": {"ios": "https://dc.lft.to/lastmile_qr_scan", "android": "https://dc.lft.to/lastmile_qr_scan"}, "is_reserved": 0, "lon": -77.01461433333333, "fusion_lat": 0.0, "name": "2a03ae6b0ebf64df330ecee2e5a51dea"}, {"type": "electric_bike", "fusion_lon": 0.0, "bike_id": "7f7080dbc60daf7c6a3c066461e9008d", "is_disabled": 0, "lat": 38.9266395, "rental_uris": {"ios": "https://dc.lft.to/lastmile_qr_scan", "android": "https://dc.lft.to/lastmile_qr_scan"}, "is_reserved": 0, "lon": -77.09006716666667, "fusion_lat": 0.0, "name": "7f7080dbc60daf7c6a3c066461e9008d"}, {"type": "electric_bike", "fusion_lon": 0.0, "bike_id": "d6807cd2bf8dd535efc8549f5a04607a", "is_disabled": 0, "lat": 38.980981666666665, "rental_uris": {"ios": "https://dc.lft.to/lastmile_qr_scan", "android": "https://dc.lft.to/lastmile_qr_scan"}, "is_reserved": 0, "lon": -77.00755866666667, "fusion_lat": 0.0, "name": "d6807cd2bf8dd535efc8549f5a04607a"}, {"type": "electric_scooter", "fusion_lon": 0.0, "bike_id": "c02268a24cacc6b63a0525bbcecf36a2", "is_disabled": 0, "lat": 38.92549966666667, "rental_uris": {"ios": "https://dc.lft.to/lastmile_qr_scan", "android": "https://dc.lft.to/lastmile_qr_scan"}, "is_reserved": 0, "lon": -77.00071116666666, "fusion_lat": 0.0, "name": "c02268a24cacc6b63a0525bbcecf36a2"}, {"type": "electric_scooter", "fusion_lon": 0.0, "bike_id": "9fcc5982bc9256b917384918754eba29", "is_disabled": 0, "lat": 38.89953916666666, "rental_uris": {"ios": "https://dc.lft.to/lastmile_qr_scan", "android": "https://dc.lft.to/lastmile_qr_scan"}, "is_reserved": 0, "lon": -77.0199485, "fusion_lat": 0.0, "name": "9fcc5982bc9256b917384918754eba29"}, {"type": "electric_scooter", "fusion_lon": 0.0, "bike_id": "c2da0fd514c02070c5e7cfba20f47487", "is_disabled": 0, "lat": 38.892185, "rental_uris": {"ios": "https://dc.lft.to/lastmile_qr_scan", "android": "https://dc.lft.to/lastmile_qr_scan"}, "is_reserved": 0, "lon": -77.026291, "fusion_lat": 0.0, "name": "c2da0fd514c02070c5e7cfba20f47487"}, {"type": "electric_scooter", "fusion_lon": 0.0, "bike_id": "c34011b0822e03056dd6da48a5b5a4f8", "is_disabled": 0, "lat": 38.908450333333334, "rental_uris": {"ios": "https://dc.lft.to/lastmile_qr_scan", "android": "https://dc.lft.to/lastmile_qr_scan"}, "is_reserved": 0, "lon": -77.02690066666666, "fusion_lat": 0.0, "name": "c34011b0822e03056dd6da48a5b5a4f8"}, {"type": "electric_scooter", "fusion_lon": 0.0, "bike_id": "4b1e5f328db3acf42d6172ae50bd36fc", "is_disabled": 0, "lat": 38.9170835, "rental_uris": {"ios": "https://dc.lft.to/lastmile_qr_scan", "android": "https://dc.lft.to/lastmile_qr_scan"}, "is_reserved": 0, "lon": -77.03864683333333, "fusion_lat": 0.0, "name": "4b1e5f328db3acf42d6172ae50bd36fc"}, {"type": "electric_scooter", "fusion_lon": 0.0, "bike_id": "0a0993e6e1e5f25bcec6ff9298f762ee", "is_disabled": 0, "lat": 38.9309565, "rental_uris": {"ios": "https://dc.lft.to/lastmile_qr_scan", "android": "https://dc.lft.to/lastmile_qr_scan"}, "is_reserved": 0, "lon": -77.03492683333333, "fusion_lat": 0.0, "name": "0a0993e6e1e5f25bcec6ff9298f762ee"}, {"type": "electric_scooter", "fusion_lon": 0.0, "bike_id": "94f52db1daa78f362076d68691bca0d8", "is_disabled": 0, "lat": 38.9288115, "rental_uris": {"ios": "https://dc.lft.to/lastmile_qr_scan", "android": "https://dc.lft.to/lastmile_qr_scan"}, "is_reserved": 0, "lon": -77.02655766666666, "fusion_lat": 0.0, "name": "94f52db1daa78f362076d68691bca0d8"}, {"type": "electric_scooter", "fusion_lon": 0.0, "bike_id": "462a4459110a58a28b4a65e0eae6a185", "is_disabled": 0, "lat": 38.91268733333333, "rental_uris": {"ios": "https://dc.lft.to/lastmile_qr_scan", "android": "https://dc.lft.to/lastmile_qr_scan"}, "is_reserved": 0, "lon": -77.04704183333334, "fusion_lat": 0.0, "name": "462a4459110a58a28b4a65e0eae6a185"}, {"type": "electric_scooter", "fusion_lon": 0.0, "bike_id": "afc6484c205c9af0de67c6fa0ee7386b", "is_disabled": 0, "lat": 38.917971, "rental_uris": {"ios": "https://dc.lft.to/lastmile_qr_scan", "android": "https://dc.lft.to/lastmile_qr_scan"}, "is_reserved": 0, "lon": -77.0270975, "fusion_lat": 0.0, "name": "afc6484c205c9af0de67c6fa0ee7386b"}, {"type": "electric_scooter", "fusion_lon": 0.0, "bike_id": "7d8ebcae0ea28c11b2a0b369eb5640ab", "is_disabled": 0, "lat": 38.94831833333333, "rental_uris": {"ios": "https://dc.lft.to/lastmile_qr_scan", "android": "https://dc.lft.to/lastmile_qr_scan"}, "is_reserved": 0, "lon": -77.02562366666666, "fusion_lat": 0.0, "name": "7d8ebcae0ea28c11b2a0b369eb5640ab"}, {"type": "electric_scooter", "fusion_lon": 0.0, "bike_id": "8849e5bd9b5e4f1fcb4bcdb7f91eb73c", "is_disabled": 0, "lat": 38.895445, "rental_uris": {"ios": "https://dc.lft.to/lastmile_qr_scan", "android": "https://dc.lft.to/lastmile_qr_scan"}, "is_reserved": 0, "lon": -76.98188066666667, "fusion_lat": 0.0, "name": "8849e5bd9b5e4f1fcb4bcdb7f91eb73c"}, {"type": "electric_scooter", "fusion_lon": 0.0, "bike_id": "dedefe5ec49a62edaf90a8460d4eee62", "is_disabled": 0, "lat": 38.8833835, "rental_uris": {"ios": "https://dc.lft.to/lastmile_qr_scan", "android": "https://dc.lft.to/lastmile_qr_scan"}, "is_reserved": 0, "lon": -77.017459, "fusion_lat": 0.0, "name": "dedefe5ec49a62edaf90a8460d4eee62"}, {"type": "electric_scooter", "fusion_lon": 0.0, "bike_id": "bc1e1f882bf5ab22cec6638f5db76e56", "is_disabled": 0, "lat": 38.914136666666664, "rental_uris": {"ios": "https://dc.lft.to/lastmile_qr_scan", "android": "https://dc.lft.to/lastmile_qr_scan"}, "is_reserved": 0, "lon": -77.03550883333334, "fusion_lat": 0.0, "name": "bc1e1f882bf5ab22cec6638f5db76e56"}, {"type": "electric_scooter", "fusion_lon": 0.0, "bike_id": "b3a3209c3c027377b867d55a7cf5ad57", "is_disabled": 0, "lat": 38.90473933333333, "rental_uris": {"ios": "https://dc.lft.to/lastmile_qr_scan", "android": "https://dc.lft.to/lastmile_qr_scan"}, "is_reserved": 0, "lon": -77.053484, "fusion_lat": 0.0, "name": "b3a3209c3c027377b867d55a7cf5ad57"}, {"type": "electric_scooter", "fusion_lon": 0.0, "bike_id": "b579f93e1bed90a67cf86e019514d0fe", "is_disabled": 0, "lat": 38.90559433333333, "rental_uris": {"ios": "https://dc.lft.to/lastmile_qr_scan", "android": "https://dc.lft.to/lastmile_qr_scan"}, "is_reserved": 0, "lon": -77.01763566666666, "fusion_lat": 0.0, "name": "b579f93e1bed90a67cf86e019514d0fe"}, {"type": "electric_scooter", "fusion_lon": 0.0, "bike_id": "f361f2864098d7b100ea5c3e02b21b46", "is_disabled": 0, "lat": 38.90565466666666, "rental_uris": {"ios": "https://dc.lft.to/lastmile_qr_scan", "android": "https://dc.lft.to/lastmile_qr_scan"}, "is_reserved": 0, "lon": -77.022132, "fusion_lat": 0.0, "name": "f361f2864098d7b100ea5c3e02b21b46"}, {"type": "electric_scooter", "fusion_lon": 0.0, "bike_id": "31da50ab4def7c9c1f5cdd2230b39d88", "is_disabled": 0, "lat": 38.9233445, "rental_uris": {"ios": "https://dc.lft.to/lastmile_qr_scan", "android": "https://dc.lft.to/lastmile_qr_scan"}, "is_reserved": 0, "lon": -77.03547666666667, "fusion_lat": 0.0, "name": "31da50ab4def7c9c1f5cdd2230b39d88"}, {"type": "electric_scooter", "fusion_lon": 0.0, "bike_id": "bd239769df0c701772a32d676994e26d", "is_disabled": 0, "lat": 38.884120333333335, "rental_uris": {"ios": "https://dc.lft.to/lastmile_qr_scan", "android": "https://dc.lft.to/lastmile_qr_scan"}, "is_reserved": 0, "lon": -77.004472, "fusion_lat": 0.0, "name": "bd239769df0c701772a32d676994e26d"}, {"type": "electric_scooter", "fusion_lon": 0.0, "bike_id": "62865d979f783d95120137b0ba0f4d37", "is_disabled": 0, "lat": 38.914842166666666, "rental_uris": {"ios": "https://dc.lft.to/lastmile_qr_scan", "android": "https://dc.lft.to/lastmile_qr_scan"}, "is_reserved": 0, "lon": -77.02186766666667, "fusion_lat": 0.0, "name": "62865d979f783d95120137b0ba0f4d37"}, {"type": "electric_scooter", "fusion_lon": 0.0, "bike_id": "42352cdddd41303863bf49a525cfcca0", "is_disabled": 0, "lat": 38.91754066666667, "rental_uris": {"ios": "https://dc.lft.to/lastmile_qr_scan", "android": "https://dc.lft.to/lastmile_qr_scan"}, "is_reserved": 0, "lon": -77.04060333333334, "fusion_lat": 0.0, "name": "42352cdddd41303863bf49a525cfcca0"}, {"type": "electric_scooter", "fusion_lon": 0.0, "bike_id": "fe14150f9f98133e0b0ceb221a24a306", "is_disabled": 0, "lat": 38.90412366666666, "rental_uris": {"ios": "https://dc.lft.to/lastmile_qr_scan", "android": "https://dc.lft.to/lastmile_qr_scan"}, "is_reserved": 0, "lon": -76.97329983333333, "fusion_lat": 0.0, "name": "fe14150f9f98133e0b0ceb221a24a306"}, {"type": "electric_scooter", "fusion_lon": 0.0, "bike_id": "08d285c4559657d910997ee1db691a02", "is_disabled": 0, "lat": 38.917727666666664, "rental_uris": {"ios": "https://dc.lft.to/lastmile_qr_scan", "android": "https://dc.lft.to/lastmile_qr_scan"}, "is_reserved": 0, "lon": -77.040977, "fusion_lat": 0.0, "name": "08d285c4559657d910997ee1db691a02"}, {"type": "electric_scooter", "fusion_lon": 0.0, "bike_id": "0faa00bf2dc9fc87d3599360da4e0b69", "is_disabled": 0, "lat": 38.883434666666666, "rental_uris": {"ios": "https://dc.lft.to/lastmile_qr_scan", "android": "https://dc.lft.to/lastmile_qr_scan"}, "is_reserved": 0, "lon": -76.93496533333334, "fusion_lat": 0.0, "name": "0faa00bf2dc9fc87d3599360da4e0b69"}, {"type": "electric_scooter", "fusion_lon": 0.0, "bike_id": "712496b6f78b7f1d6f4ce178d90bc085", "is_disabled": 0, "lat": 38.9274685, "rental_uris": {"ios": "https://dc.lft.to/lastmile_qr_scan", "android": "https://dc.lft.to/lastmile_qr_scan"}, "is_reserved": 0, "lon": -77.02536033333334, "fusion_lat": 0.0, "name": "712496b6f78b7f1d6f4ce178d90bc085"}, {"type": "electric_scooter", "fusion_lon": 0.0, "bike_id": "d5aba8a375b6e00bcdda7557902466ae", "is_disabled": 0, "lat": 38.90142766666666, "rental_uris": {"ios": "https://dc.lft.to/lastmile_qr_scan", "android": "https://dc.lft.to/lastmile_qr_scan"}, "is_reserved": 0, "lon": -77.04413083333333, "fusion_lat": 0.0, "name": "d5aba8a375b6e00bcdda7557902466ae"}, {"type": "electric_scooter", "fusion_lon": 0.0, "bike_id": "ffb9b8a5bce010fc3775377e61ead5f0", "is_disabled": 0, "lat": 38.91893966666667, "rental_uris": {"ios": "https://dc.lft.to/lastmile_qr_scan", "android": "https://dc.lft.to/lastmile_qr_scan"}, "is_reserved": 0, "lon": -77.038181, "fusion_lat": 0.0, "name": "ffb9b8a5bce010fc3775377e61ead5f0"}, {"type": "electric_scooter", "fusion_lon": 0.0, "bike_id": "520b2eeb44bcc0f557cb31ceb62c8e61", "is_disabled": 0, "lat": 38.920928, "rental_uris": {"ios": "https://dc.lft.to/lastmile_qr_scan", "android": "https://dc.lft.to/lastmile_qr_scan"}, "is_reserved": 0, "lon": -77.02500283333333, "fusion_lat": 0.0, "name": "520b2eeb44bcc0f557cb31ceb62c8e61"}, {"type": "electric_scooter", "fusion_lon": 0.0, "bike_id": "95b8b07f1c7046736eb758780ffa5ca4", "is_disabled": 0, "lat": 38.9228675, "rental_uris": {"ios": "https://dc.lft.to/lastmile_qr_scan", "android": "https://dc.lft.to/lastmile_qr_scan"}, "is_reserved": 0, "lon": -77.03661583333333, "fusion_lat": 0.0, "name": "95b8b07f1c7046736eb758780ffa5ca4"}, {"type": "electric_scooter", "fusion_lon": 0.0, "bike_id": "1193c8f3a02454c7a6dc31b1836ecc38", "is_disabled": 0, "lat": 38.892308, "rental_uris": {"ios": "https://dc.lft.to/lastmile_qr_scan", "android": "https://dc.lft.to/lastmile_qr_scan"}, "is_reserved": 0, "lon": -77.05000183333334, "fusion_lat": 0.0, "name": "1193c8f3a02454c7a6dc31b1836ecc38"}, {"type": "electric_scooter", "fusion_lon": 0.0, "bike_id": "38361374e1037fb82811f08147db62a6", "is_disabled": 0, "lat": 38.905508833333336, "rental_uris": {"ios": "https://dc.lft.to/lastmile_qr_scan", "android": "https://dc.lft.to/lastmile_qr_scan"}, "is_reserved": 0, "lon": -77.0325615, "fusion_lat": 0.0, "name": "38361374e1037fb82811f08147db62a6"}, {"type": "electric_scooter", "fusion_lon": 0.0, "bike_id": "a0840322ecfbd5918042f8bf59856849", "is_disabled": 0, "lat": 38.884279166666666, "rental_uris": {"ios": "https://dc.lft.to/lastmile_qr_scan", "android": "https://dc.lft.to/lastmile_qr_scan"}, "is_reserved": 0, "lon": -77.01515133333334, "fusion_lat": 0.0, "name": "a0840322ecfbd5918042f8bf59856849"}, {"type": "electric_scooter", "fusion_lon": 0.0, "bike_id": "7ba61a891c2c8477c2b1dce1d98d6f04", "is_disabled": 0, "lat": 38.8922585, "rental_uris": {"ios": "https://dc.lft.to/lastmile_qr_scan", "android": "https://dc.lft.to/lastmile_qr_scan"}, "is_reserved": 0, "lon": -77.0433875, "fusion_lat": 0.0, "name": "7ba61a891c2c8477c2b1dce1d98d6f04"}, {"type": "electric_scooter", "fusion_lon": 0.0, "bike_id": "fd0d3eec81d3f4da0f1ff42bcdb670d7", "is_disabled": 0, "lat": 38.894709666666664, "rental_uris": {"ios": "https://dc.lft.to/lastmile_qr_scan", "android": "https://dc.lft.to/lastmile_qr_scan"}, "is_reserved": 0, "lon": -76.9496155, "fusion_lat": 0.0, "name": "fd0d3eec81d3f4da0f1ff42bcdb670d7"}, {"type": "electric_scooter", "fusion_lon": 0.0, "bike_id": "64f11d6969029f3053246e7d5abf2f99", "is_disabled": 0, "lat": 38.90482433333333, "rental_uris": {"ios": "https://dc.lft.to/lastmile_qr_scan", "android": "https://dc.lft.to/lastmile_qr_scan"}, "is_reserved": 0, "lon": -77.03563566666666, "fusion_lat": 0.0, "name": "64f11d6969029f3053246e7d5abf2f99"}, {"type": "electric_scooter", "fusion_lon": 0.0, "bike_id": "07efdebd7f4f3a17e70904dae27062ce", "is_disabled": 0, "lat": 38.8929145, "rental_uris": {"ios": "https://dc.lft.to/lastmile_qr_scan", "android": "https://dc.lft.to/lastmile_qr_scan"}, "is_reserved": 0, "lon": -77.021118, "fusion_lat": 0.0, "name": "07efdebd7f4f3a17e70904dae27062ce"}, {"type": "electric_scooter", "fusion_lon": 0.0, "bike_id": "9d1c564381b0a3ce008844d402f6eb29", "is_disabled": 0, "lat": 38.9235735, "rental_uris": {"ios": "https://dc.lft.to/lastmile_qr_scan", "android": "https://dc.lft.to/lastmile_qr_scan"}, "is_reserved": 0, "lon": -77.03230716666667, "fusion_lat": 0.0, "name": "9d1c564381b0a3ce008844d402f6eb29"}, {"type": "electric_scooter", "fusion_lon": 0.0, "bike_id": "0a5ba8e9eec9825f829718550da12023", "is_disabled": 0, "lat": 38.928973666666664, "rental_uris": {"ios": "https://dc.lft.to/lastmile_qr_scan", "android": "https://dc.lft.to/lastmile_qr_scan"}, "is_reserved": 0, "lon": -77.019441, "fusion_lat": 0.0, "name": "0a5ba8e9eec9825f829718550da12023"}, {"type": "electric_scooter", "fusion_lon": 0.0, "bike_id": "4446c79d7e36b8ebb3fbf431b0e544dd", "is_disabled": 0, "lat": 38.933620833333336, "rental_uris": {"ios": "https://dc.lft.to/lastmile_qr_scan", "android": "https://dc.lft.to/lastmile_qr_scan"}, "is_reserved": 0, "lon": -77.02436066666667, "fusion_lat": 0.0, "name": "4446c79d7e36b8ebb3fbf431b0e544dd"}, {"type": "electric_scooter", "fusion_lon": 0.0, "bike_id": "2822d9537b03df366615be0574c8f631", "is_disabled": 0, "lat": 38.9250045, "rental_uris": {"ios": "https://dc.lft.to/lastmile_qr_scan", "android": "https://dc.lft.to/lastmile_qr_scan"}, "is_reserved": 0, "lon": -77.02142083333334, "fusion_lat": 0.0, "name": "2822d9537b03df366615be0574c8f631"}, {"type": "electric_scooter", "fusion_lon": 0.0, "bike_id": "1f42154eef5803da6b72202f46373e22", "is_disabled": 0, "lat": 38.924471, "rental_uris": {"ios": "https://dc.lft.to/lastmile_qr_scan", "android": "https://dc.lft.to/lastmile_qr_scan"}, "is_reserved": 0, "lon": -77.0333795, "fusion_lat": 0.0, "name": "1f42154eef5803da6b72202f46373e22"}, {"type": "electric_scooter", "fusion_lon": 0.0, "bike_id": "683c3c344ba583349328c2e6eb6517d9", "is_disabled": 0, "lat": 38.94629033333333, "rental_uris": {"ios": "https://dc.lft.to/lastmile_qr_scan", "android": "https://dc.lft.to/lastmile_qr_scan"}, "is_reserved": 0, "lon": -77.03947983333333, "fusion_lat": 0.0, "name": "683c3c344ba583349328c2e6eb6517d9"}, {"type": "electric_bike", "fusion_lon": 0.0, "bike_id": "4f278f3430c1372e45c7d93a4be0f2a5", "is_disabled": 0, "lat": 38.88268216666667, "rental_uris": {"ios": "https://dc.lft.to/lastmile_qr_scan", "android": "https://dc.lft.to/lastmile_qr_scan"}, "is_reserved": 0, "lon": -77.22825366666666, "fusion_lat": 0.0, "name": "4f278f3430c1372e45c7d93a4be0f2a5"}, {"type": "electric_scooter", "fusion_lon": 0.0, "bike_id": "5c0153175ec72309a2140e5a8888bc4c", "is_disabled": 0, "lat": 38.8922135, "rental_uris": {"ios": "https://dc.lft.to/lastmile_qr_scan", "android": "https://dc.lft.to/lastmile_qr_scan"}, "is_reserved": 0, "lon": -77.04367183333333, "fusion_lat": 0.0, "name": "5c0153175ec72309a2140e5a8888bc4c"}, {"type": "electric_scooter", "fusion_lon": 0.0, "bike_id": "89c7c8c1b785c7124f7ae4488d403e5d", "is_disabled": 0, "lat": 38.8839365, "rental_uris": {"ios": "https://dc.lft.to/lastmile_qr_scan", "android": "https://dc.lft.to/lastmile_qr_scan"}, "is_reserved": 0, "lon": -76.930433, "fusion_lat": 0.0, "name": "89c7c8c1b785c7124f7ae4488d403e5d"}, {"type": "electric_bike", "fusion_lon": 0.0, "bike_id": "1ef6f366c05a60a126189a15b15a65f6", "is_disabled": 0, "lat": 39.084420333333334, "rental_uris": {"ios": "https://dc.lft.to/lastmile_qr_scan", "android": "https://dc.lft.to/lastmile_qr_scan"}, "is_reserved": 0, "lon": -76.95165083333333, "fusion_lat": 0.0, "name": "1ef6f366c05a60a126189a15b15a65f6"}, {"type": "electric_scooter", "fusion_lon": 0.0, "bike_id": "bdcbed559ac6a94c0ffa31f26c6a1bef", "is_disabled": 0, "lat": 38.907163, "rental_uris": {"ios": "https://dc.lft.to/lastmile_qr_scan", "android": "https://dc.lft.to/lastmile_qr_scan"}, "is_reserved": 0, "lon": -77.02492516666666, "fusion_lat": 0.0, "name": "bdcbed559ac6a94c0ffa31f26c6a1bef"}, {"type": "electric_scooter", "fusion_lon": 0.0, "bike_id": "9bdcb8d8cc7fca1f7281cbc03550bc20", "is_disabled": 0, "lat": 38.91040533333333, "rental_uris": {"ios": "https://dc.lft.to/lastmile_qr_scan", "android": "https://dc.lft.to/lastmile_qr_scan"}, "is_reserved": 0, "lon": -77.04844016666667, "fusion_lat": 0.0, "name": "9bdcb8d8cc7fca1f7281cbc03550bc20"}, {"type": "electric_scooter", "fusion_lon": 0.0, "bike_id": "bc594fb583face3ec274d2cf974bc18d", "is_disabled": 0, "lat": 38.8972845, "rental_uris": {"ios": "https://dc.lft.to/lastmile_qr_scan", "android": "https://dc.lft.to/lastmile_qr_scan"}, "is_reserved": 0, "lon": -77.04739433333333, "fusion_lat": 0.0, "name": "bc594fb583face3ec274d2cf974bc18d"}, {"type": "electric_scooter", "fusion_lon": 0.0, "bike_id": "c9b03b5732ea5ea36b6caa34b1d748c5", "is_disabled": 0, "lat": 38.90520316666667, "rental_uris": {"ios": "https://dc.lft.to/lastmile_qr_scan", "android": "https://dc.lft.to/lastmile_qr_scan"}, "is_reserved": 0, "lon": -77.02950416666667, "fusion_lat": 0.0, "name": "c9b03b5732ea5ea36b6caa34b1d748c5"}, {"type": "electric_scooter", "fusion_lon": 0.0, "bike_id": "e5de3c0870de0e56433bce3ebdaeb4b5", "is_disabled": 0, "lat": 38.929523333333336, "rental_uris": {"ios": "https://dc.lft.to/lastmile_qr_scan", "android": "https://dc.lft.to/lastmile_qr_scan"}, "is_reserved": 0, "lon": -77.0550915, "fusion_lat": 0.0, "name": "e5de3c0870de0e56433bce3ebdaeb4b5"}, {"type": "electric_scooter", "fusion_lon": 0.0, "bike_id": "d5fc6ab7daa6020ca6c9860a863d6583", "is_disabled": 0, "lat": 38.90752466666667, "rental_uris": {"ios": "https://dc.lft.to/lastmile_qr_scan", "android": "https://dc.lft.to/lastmile_qr_scan"}, "is_reserved": 0, "lon": -77.00099016666667, "fusion_lat": 0.0, "name": "d5fc6ab7daa6020ca6c9860a863d6583"}, {"type": "electric_scooter", "fusion_lon": 0.0, "bike_id": "0dc8cef919eb83cb0da53fa37bca683a", "is_disabled": 0, "lat": 38.92440766666667, "rental_uris": {"ios": "https://dc.lft.to/lastmile_qr_scan", "android": "https://dc.lft.to/lastmile_qr_scan"}, "is_reserved": 0, "lon": -77.02038783333333, "fusion_lat": 0.0, "name": "0dc8cef919eb83cb0da53fa37bca683a"}, {"type": "electric_scooter", "fusion_lon": 0.0, "bike_id": "c78f6ded6c960461a5540c3c212f6e4f", "is_disabled": 0, "lat": 38.89224216666667, "rental_uris": {"ios": "https://dc.lft.to/lastmile_qr_scan", "android": "https://dc.lft.to/lastmile_qr_scan"}, "is_reserved": 0, "lon": -77.04690616666667, "fusion_lat": 0.0, "name": "c78f6ded6c960461a5540c3c212f6e4f"}, {"type": "electric_scooter", "fusion_lon": 0.0, "bike_id": "cbe201852f0ae9b0769aee50e007ffd6", "is_disabled": 0, "lat": 38.924654833333335, "rental_uris": {"ios": "https://dc.lft.to/lastmile_qr_scan", "android": "https://dc.lft.to/lastmile_qr_scan"}, "is_reserved": 0, "lon": -77.05236466666666, "fusion_lat": 0.0, "name": "cbe201852f0ae9b0769aee50e007ffd6"}, {"type": "electric_scooter", "fusion_lon": 0.0, "bike_id": "5e4da7ddb004421a6ada0bd005cc64a5", "is_disabled": 0, "lat": 38.900585166666666, "rental_uris": {"ios": "https://dc.lft.to/lastmile_qr_scan", "android": "https://dc.lft.to/lastmile_qr_scan"}, "is_reserved": 0, "lon": -76.99827266666667, "fusion_lat": 0.0, "name": "5e4da7ddb004421a6ada0bd005cc64a5"}, {"type": "electric_scooter", "fusion_lon": 0.0, "bike_id": "4f0d9b048e67d28ff86debefb8726af2", "is_disabled": 0, "lat": 38.92707433333333, "rental_uris": {"ios": "https://dc.lft.to/lastmile_qr_scan", "android": "https://dc.lft.to/lastmile_qr_scan"}, "is_reserved": 0, "lon": -77.02344366666667, "fusion_lat": 0.0, "name": "4f0d9b048e67d28ff86debefb8726af2"}, {"type": "electric_scooter", "fusion_lon": 0.0, "bike_id": "583a12b2e6f5e879d253fed9ad6a9714", "is_disabled": 0, "lat": 38.937749333333336, "rental_uris": {"ios": "https://dc.lft.to/lastmile_qr_scan", "android": "https://dc.lft.to/lastmile_qr_scan"}, "is_reserved": 0, "lon": -77.03266033333334, "fusion_lat": 0.0, "name": "583a12b2e6f5e879d253fed9ad6a9714"}, {"type": "electric_scooter", "fusion_lon": 0.0, "bike_id": "487f4cd57159f8db8857789b12d61e49", "is_disabled": 0, "lat": 38.91956533333333, "rental_uris": {"ios": "https://dc.lft.to/lastmile_qr_scan", "android": "https://dc.lft.to/lastmile_qr_scan"}, "is_reserved": 0, "lon": -77.02706716666667, "fusion_lat": 0.0, "name": "487f4cd57159f8db8857789b12d61e49"}, {"type": "electric_scooter", "fusion_lon": 0.0, "bike_id": "248c01f7f2277d52595abd3a1d6ac228", "is_disabled": 0, "lat": 38.911108, "rental_uris": {"ios": "https://dc.lft.to/lastmile_qr_scan", "android": "https://dc.lft.to/lastmile_qr_scan"}, "is_reserved": 0, "lon": -77.0383565, "fusion_lat": 0.0, "name": "248c01f7f2277d52595abd3a1d6ac228"}, {"type": "electric_scooter", "fusion_lon": 0.0, "bike_id": "4bc97c0e8e66fa582286f5523f0630af", "is_disabled": 0, "lat": 38.9176805, "rental_uris": {"ios": "https://dc.lft.to/lastmile_qr_scan", "android": "https://dc.lft.to/lastmile_qr_scan"}, "is_reserved": 0, "lon": -77.02340416666667, "fusion_lat": 0.0, "name": "4bc97c0e8e66fa582286f5523f0630af"}, {"type": "electric_scooter", "fusion_lon": 0.0, "bike_id": "a5547f0f6267ff35bb2bef06a7b00f4f", "is_disabled": 0, "lat": 38.89505716666667, "rental_uris": {"ios": "https://dc.lft.to/lastmile_qr_scan", "android": "https://dc.lft.to/lastmile_qr_scan"}, "is_reserved": 0, "lon": -77.0033115, "fusion_lat": 0.0, "name": "a5547f0f6267ff35bb2bef06a7b00f4f"}, {"type": "electric_scooter", "fusion_lon": 0.0, "bike_id": "cf95e48e4c40b334b5b8ea1343414044", "is_disabled": 0, "lat": 38.92287016666667, "rental_uris": {"ios": "https://dc.lft.to/lastmile_qr_scan", "android": "https://dc.lft.to/lastmile_qr_scan"}, "is_reserved": 0, "lon": -77.02713033333333, "fusion_lat": 0.0, "name": "cf95e48e4c40b334b5b8ea1343414044"}, {"type": "electric_scooter", "fusion_lon": 0.0, "bike_id": "cc8a9506be65d18e03973699c79f9fd3", "is_disabled": 0, "lat": 38.938441166666664, "rental_uris": {"ios": "https://dc.lft.to/lastmile_qr_scan", "android": "https://dc.lft.to/lastmile_qr_scan"}, "is_reserved": 0, "lon": -77.03397633333333, "fusion_lat": 0.0, "name": "cc8a9506be65d18e03973699c79f9fd3"}, {"type": "electric_scooter", "fusion_lon": 0.0, "bike_id": "aa9319d569d6834c91b7599693feff21", "is_disabled": 0, "lat": 38.908821333333336, "rental_uris": {"ios": "https://dc.lft.to/lastmile_qr_scan", "android": "https://dc.lft.to/lastmile_qr_scan"}, "is_reserved": 0, "lon": -77.0677735, "fusion_lat": 0.0, "name": "aa9319d569d6834c91b7599693feff21"}, {"type": "electric_scooter", "fusion_lon": 0.0, "bike_id": "661a321cad09df00f8cc2f8ce537f910", "is_disabled": 0, "lat": 38.92029, "rental_uris": {"ios": "https://dc.lft.to/lastmile_qr_scan", "android": "https://dc.lft.to/lastmile_qr_scan"}, "is_reserved": 0, "lon": -77.01431966666667, "fusion_lat": 0.0, "name": "661a321cad09df00f8cc2f8ce537f910"}, {"type": "electric_bike", "fusion_lon": 0.0, "bike_id": "faeb8ae97870d225ffd18d08b28444f8", "is_disabled": 0, "lat": 38.895725166666665, "rental_uris": {"ios": "https://dc.lft.to/lastmile_qr_scan", "android": "https://dc.lft.to/lastmile_qr_scan"}, "is_reserved": 0, "lon": -77.09618316666666, "fusion_lat": 0.0, "name": "faeb8ae97870d225ffd18d08b28444f8"}, {"type": "electric_scooter", "fusion_lon": 0.0, "bike_id": "57c3d58ee5f3111c794d4ca6c6ed1ab2", "is_disabled": 0, "lat": 38.905155, "rental_uris": {"ios": "https://dc.lft.to/lastmile_qr_scan", "android": "https://dc.lft.to/lastmile_qr_scan"}, "is_reserved": 0, "lon": -77.0477615, "fusion_lat": 0.0, "name": "57c3d58ee5f3111c794d4ca6c6ed1ab2"}, {"type": "electric_scooter", "fusion_lon": 0.0, "bike_id": "23b4f444891353b8db60a45e652148f2", "is_disabled": 0, "lat": 38.9147645, "rental_uris": {"ios": "https://dc.lft.to/lastmile_qr_scan", "android": "https://dc.lft.to/lastmile_qr_scan"}, "is_reserved": 0, "lon": -77.03247683333333, "fusion_lat": 0.0, "name": "23b4f444891353b8db60a45e652148f2"}, {"type": "electric_scooter", "fusion_lon": 0.0, "bike_id": "ba3da6c13cdf7ef88cc4b3dba5e0e575", "is_disabled": 0, "lat": 38.902548833333334, "rental_uris": {"ios": "https://dc.lft.to/lastmile_qr_scan", "android": "https://dc.lft.to/lastmile_qr_scan"}, "is_reserved": 0, "lon": -77.02679516666667, "fusion_lat": 0.0, "name": "ba3da6c13cdf7ef88cc4b3dba5e0e575"}, {"type": "electric_scooter", "fusion_lon": 0.0, "bike_id": "8e027909b6397aba8d7e7c8e5e6a6bfa", "is_disabled": 0, "lat": 38.95182883333333, "rental_uris": {"ios": "https://dc.lft.to/lastmile_qr_scan", "android": "https://dc.lft.to/lastmile_qr_scan"}, "is_reserved": 0, "lon": -77.02621216666667, "fusion_lat": 0.0, "name": "8e027909b6397aba8d7e7c8e5e6a6bfa"}, {"type": "electric_scooter", "fusion_lon": 0.0, "bike_id": "334a4902d7dac16261f19df5e8e77f77", "is_disabled": 0, "lat": 38.8877375, "rental_uris": {"ios": "https://dc.lft.to/lastmile_qr_scan", "android": "https://dc.lft.to/lastmile_qr_scan"}, "is_reserved": 0, "lon": -77.03348016666666, "fusion_lat": 0.0, "name": "334a4902d7dac16261f19df5e8e77f77"}, {"type": "electric_scooter", "fusion_lon": 0.0, "bike_id": "f7f9e75e7924e1e6bb7b1134d48dce60", "is_disabled": 0, "lat": 38.918383166666665, "rental_uris": {"ios": "https://dc.lft.to/lastmile_qr_scan", "android": "https://dc.lft.to/lastmile_qr_scan"}, "is_reserved": 0, "lon": -77.04175416666666, "fusion_lat": 0.0, "name": "f7f9e75e7924e1e6bb7b1134d48dce60"}, {"type": "electric_scooter", "fusion_lon": 0.0, "bike_id": "b58a6c21647fd94c883179aec0deb9a7", "is_disabled": 0, "lat": 38.90519116666667, "rental_uris": {"ios": "https://dc.lft.to/lastmile_qr_scan", "android": "https://dc.lft.to/lastmile_qr_scan"}, "is_reserved": 0, "lon": -77.0295215, "fusion_lat": 0.0, "name": "b58a6c21647fd94c883179aec0deb9a7"}, {"type": "electric_scooter", "fusion_lon": 0.0, "bike_id": "9b6ef4cb6562639aa84971dfe7ccb4d4", "is_disabled": 0, "lat": 38.892241166666665, "rental_uris": {"ios": "https://dc.lft.to/lastmile_qr_scan", "android": "https://dc.lft.to/lastmile_qr_scan"}, "is_reserved": 0, "lon": -77.024149, "fusion_lat": 0.0, "name": "9b6ef4cb6562639aa84971dfe7ccb4d4"}, {"type": "electric_scooter", "fusion_lon": 0.0, "bike_id": "cf8cc13eb62f4f6bbc6d67ae194b0862", "is_disabled": 0, "lat": 38.931015, "rental_uris": {"ios": "https://dc.lft.to/lastmile_qr_scan", "android": "https://dc.lft.to/lastmile_qr_scan"}, "is_reserved": 0, "lon": -77.0247935, "fusion_lat": 0.0, "name": "cf8cc13eb62f4f6bbc6d67ae194b0862"}, {"type": "electric_scooter", "fusion_lon": 0.0, "bike_id": "3d2b7cf632cc8d4a1c92462500909130", "is_disabled": 0, "lat": 38.917092333333336, "rental_uris": {"ios": "https://dc.lft.to/lastmile_qr_scan", "android": "https://dc.lft.to/lastmile_qr_scan"}, "is_reserved": 0, "lon": -77.03867233333334, "fusion_lat": 0.0, "name": "3d2b7cf632cc8d4a1c92462500909130"}, {"type": "electric_scooter", "fusion_lon": 0.0, "bike_id": "896e1c40be0a91f08d3da0b7bf27cf25", "is_disabled": 0, "lat": 38.915519833333335, "rental_uris": {"ios": "https://dc.lft.to/lastmile_qr_scan", "android": "https://dc.lft.to/lastmile_qr_scan"}, "is_reserved": 0, "lon": -77.01182316666667, "fusion_lat": 0.0, "name": "896e1c40be0a91f08d3da0b7bf27cf25"}, {"type": "electric_scooter", "fusion_lon": 0.0, "bike_id": "769311db033432a6484ab43eb7e3d7d0", "is_disabled": 0, "lat": 38.930511333333335, "rental_uris": {"ios": "https://dc.lft.to/lastmile_qr_scan", "android": "https://dc.lft.to/lastmile_qr_scan"}, "is_reserved": 0, "lon": -77.0583765, "fusion_lat": 0.0, "name": "769311db033432a6484ab43eb7e3d7d0"}, {"type": "electric_scooter", "fusion_lon": 0.0, "bike_id": "f6045168dae2648b93e7c9e99170b7ae", "is_disabled": 0, "lat": 38.9352385, "rental_uris": {"ios": "https://dc.lft.to/lastmile_qr_scan", "android": "https://dc.lft.to/lastmile_qr_scan"}, "is_reserved": 0, "lon": -77.0326625, "fusion_lat": 0.0, "name": "f6045168dae2648b93e7c9e99170b7ae"}, {"type": "electric_bike", "fusion_lon": 0.0, "bike_id": "6da41535fd603bf30006fc877d5a8f48", "is_disabled": 0, "lat": 38.956022833333336, "rental_uris": {"ios": "https://dc.lft.to/lastmile_qr_scan", "android": "https://dc.lft.to/lastmile_qr_scan"}, "is_reserved": 0, "lon": -76.94005866666667, "fusion_lat": 0.0, "name": "6da41535fd603bf30006fc877d5a8f48"}, {"type": "electric_scooter", "fusion_lon": 0.0, "bike_id": "a5ad5fec094830713a53cbd242f9ac3b", "is_disabled": 0, "lat": 38.908048666666666, "rental_uris": {"ios": "https://dc.lft.to/lastmile_qr_scan", "android": "https://dc.lft.to/lastmile_qr_scan"}, "is_reserved": 0, "lon": -77.03175983333334, "fusion_lat": 0.0, "name": "a5ad5fec094830713a53cbd242f9ac3b"}, {"type": "electric_scooter", "fusion_lon": 0.0, "bike_id": "98ed5c14b285f15b4fac08944c91975a", "is_disabled": 0, "lat": 38.91948816666667, "rental_uris": {"ios": "https://dc.lft.to/lastmile_qr_scan", "android": "https://dc.lft.to/lastmile_qr_scan"}, "is_reserved": 0, "lon": -77.031823, "fusion_lat": 0.0, "name": "98ed5c14b285f15b4fac08944c91975a"}, {"type": "electric_scooter", "fusion_lon": 0.0, "bike_id": "d9f3552c35eaccd0ab47bb23f4f04bec", "is_disabled": 0, "lat": 38.916847, "rental_uris": {"ios": "https://dc.lft.to/lastmile_qr_scan", "android": "https://dc.lft.to/lastmile_qr_scan"}, "is_reserved": 0, "lon": -77.02896083333333, "fusion_lat": 0.0, "name": "d9f3552c35eaccd0ab47bb23f4f04bec"}, {"type": "electric_scooter", "fusion_lon": 0.0, "bike_id": "4732eec8232968bb555dbb09c545767c", "is_disabled": 0, "lat": 38.8993825, "rental_uris": {"ios": "https://dc.lft.to/lastmile_qr_scan", "android": "https://dc.lft.to/lastmile_qr_scan"}, "is_reserved": 0, "lon": -77.05305183333333, "fusion_lat": 0.0, "name": "4732eec8232968bb555dbb09c545767c"}, {"type": "electric_scooter", "fusion_lon": 0.0, "bike_id": "9cf33266bb0573ec1bd4e5cff2ad235f", "is_disabled": 0, "lat": 38.92979583333333, "rental_uris": {"ios": "https://dc.lft.to/lastmile_qr_scan", "android": "https://dc.lft.to/lastmile_qr_scan"}, "is_reserved": 0, "lon": -77.0365915, "fusion_lat": 0.0, "name": "9cf33266bb0573ec1bd4e5cff2ad235f"}, {"type": "electric_scooter", "fusion_lon": 0.0, "bike_id": "9ce9584ccbfbc9f2b7a2128889cc462b", "is_disabled": 0, "lat": 38.892184, "rental_uris": {"ios": "https://dc.lft.to/lastmile_qr_scan", "android": "https://dc.lft.to/lastmile_qr_scan"}, "is_reserved": 0, "lon": -77.02219483333333, "fusion_lat": 0.0, "name": "9ce9584ccbfbc9f2b7a2128889cc462b"}, {"type": "electric_scooter", "fusion_lon": 0.0, "bike_id": "3b58686fc7faddc389f10320a923f8df", "is_disabled": 0, "lat": 38.900348666666666, "rental_uris": {"ios": "https://dc.lft.to/lastmile_qr_scan", "android": "https://dc.lft.to/lastmile_qr_scan"}, "is_reserved": 0, "lon": -77.00182016666666, "fusion_lat": 0.0, "name": "3b58686fc7faddc389f10320a923f8df"}, {"type": "electric_bike", "fusion_lon": 0.0, "bike_id": "382ce48217c4c6dcef737e8046f878df", "is_disabled": 0, "lat": 38.888878, "rental_uris": {"ios": "https://dc.lft.to/lastmile_qr_scan", "android": "https://dc.lft.to/lastmile_qr_scan"}, "is_reserved": 0, "lon": -77.0794395, "fusion_lat": 0.0, "name": "382ce48217c4c6dcef737e8046f878df"}, {"type": "electric_scooter", "fusion_lon": 0.0, "bike_id": "084656bc6a7c20023441f121c9595410", "is_disabled": 0, "lat": 38.8991255, "rental_uris": {"ios": "https://dc.lft.to/lastmile_qr_scan", "android": "https://dc.lft.to/lastmile_qr_scan"}, "is_reserved": 0, "lon": -77.0487015, "fusion_lat": 0.0, "name": "084656bc6a7c20023441f121c9595410"}, {"type": "electric_scooter", "fusion_lon": 0.0, "bike_id": "55c98d55021b465168bfbdaec1c0a546", "is_disabled": 0, "lat": 38.938954833333334, "rental_uris": {"ios": "https://dc.lft.to/lastmile_qr_scan", "android": "https://dc.lft.to/lastmile_qr_scan"}, "is_reserved": 0, "lon": -76.98607283333334, "fusion_lat": 0.0, "name": "55c98d55021b465168bfbdaec1c0a546"}, {"type": "electric_scooter", "fusion_lon": 0.0, "bike_id": "a7d095f89f8e2c1be90fc0d134f23e97", "is_disabled": 0, "lat": 38.9089735, "rental_uris": {"ios": "https://dc.lft.to/lastmile_qr_scan", "android": "https://dc.lft.to/lastmile_qr_scan"}, "is_reserved": 0, "lon": -77.02317366666666, "fusion_lat": 0.0, "name": "a7d095f89f8e2c1be90fc0d134f23e97"}, {"type": "electric_scooter", "fusion_lon": 0.0, "bike_id": "e3cd7775758417c9f316ba464467ccb3", "is_disabled": 0, "lat": 38.92379566666666, "rental_uris": {"ios": "https://dc.lft.to/lastmile_qr_scan", "android": "https://dc.lft.to/lastmile_qr_scan"}, "is_reserved": 0, "lon": -77.022459, "fusion_lat": 0.0, "name": "e3cd7775758417c9f316ba464467ccb3"}, {"type": "electric_scooter", "fusion_lon": 0.0, "bike_id": "164ddd0766a0f8967ab91517736570c9", "is_disabled": 0, "lat": 38.9075275, "rental_uris": {"ios": "https://dc.lft.to/lastmile_qr_scan", "android": "https://dc.lft.to/lastmile_qr_scan"}, "is_reserved": 0, "lon": -77.0076745, "fusion_lat": 0.0, "name": "164ddd0766a0f8967ab91517736570c9"}, {"type": "electric_scooter", "fusion_lon": 0.0, "bike_id": "3ec72267c85103f6087b5b91ed0a2053", "is_disabled": 0, "lat": 38.920268, "rental_uris": {"ios": "https://dc.lft.to/lastmile_qr_scan", "android": "https://dc.lft.to/lastmile_qr_scan"}, "is_reserved": 0, "lon": -76.9955455, "fusion_lat": 0.0, "name": "3ec72267c85103f6087b5b91ed0a2053"}, {"type": "electric_scooter", "fusion_lon": 0.0, "bike_id": "7a3ea68cf1dd343e705dc397b83a8821", "is_disabled": 0, "lat": 38.902638, "rental_uris": {"ios": "https://dc.lft.to/lastmile_qr_scan", "android": "https://dc.lft.to/lastmile_qr_scan"}, "is_reserved": 0, "lon": -77.01771983333333, "fusion_lat": 0.0, "name": "7a3ea68cf1dd343e705dc397b83a8821"}, {"type": "electric_scooter", "fusion_lon": 0.0, "bike_id": "29dc5d3608a956cc3e875d3a738f4d1a", "is_disabled": 0, "lat": 38.89527133333333, "rental_uris": {"ios": "https://dc.lft.to/lastmile_qr_scan", "android": "https://dc.lft.to/lastmile_qr_scan"}, "is_reserved": 0, "lon": -76.94928683333333, "fusion_lat": 0.0, "name": "29dc5d3608a956cc3e875d3a738f4d1a"}, {"type": "electric_scooter", "fusion_lon": 0.0, "bike_id": "0a518114e270f0616c71e3ac5948cbc4", "is_disabled": 0, "lat": 38.8755535, "rental_uris": {"ios": "https://dc.lft.to/lastmile_qr_scan", "android": "https://dc.lft.to/lastmile_qr_scan"}, "is_reserved": 0, "lon": -77.0004205, "fusion_lat": 0.0, "name": "0a518114e270f0616c71e3ac5948cbc4"}, {"type": "electric_scooter", "fusion_lon": 0.0, "bike_id": "df98c11c0e67a1028bf7fc03bcf551ff", "is_disabled": 0, "lat": 38.914240166666666, "rental_uris": {"ios": "https://dc.lft.to/lastmile_qr_scan", "android": "https://dc.lft.to/lastmile_qr_scan"}, "is_reserved": 0, "lon": -77.03815216666666, "fusion_lat": 0.0, "name": "df98c11c0e67a1028bf7fc03bcf551ff"}, {"type": "electric_scooter", "fusion_lon": 0.0, "bike_id": "3665f60d3d46c713cee25fcb9e6b837d", "is_disabled": 0, "lat": 38.92131833333333, "rental_uris": {"ios": "https://dc.lft.to/lastmile_qr_scan", "android": "https://dc.lft.to/lastmile_qr_scan"}, "is_reserved": 0, "lon": -77.04587033333334, "fusion_lat": 0.0, "name": "3665f60d3d46c713cee25fcb9e6b837d"}, {"type": "electric_scooter", "fusion_lon": 0.0, "bike_id": "48c607bb1aa33839d2f48df1a5e895d4", "is_disabled": 0, "lat": 38.91562066666667, "rental_uris": {"ios": "https://dc.lft.to/lastmile_qr_scan", "android": "https://dc.lft.to/lastmile_qr_scan"}, "is_reserved": 0, "lon": -77.0315725, "fusion_lat": 0.0, "name": "48c607bb1aa33839d2f48df1a5e895d4"}, {"type": "electric_scooter", "fusion_lon": 0.0, "bike_id": "0bb301ae6062ccc39bb24a7082518b86", "is_disabled": 0, "lat": 38.95733716666667, "rental_uris": {"ios": "https://dc.lft.to/lastmile_qr_scan", "android": "https://dc.lft.to/lastmile_qr_scan"}, "is_reserved": 0, "lon": -77.02399166666666, "fusion_lat": 0.0, "name": "0bb301ae6062ccc39bb24a7082518b86"}, {"type": "electric_scooter", "fusion_lon": 0.0, "bike_id": "e8e3c4273cff0f41b8801acf231bbf7a", "is_disabled": 0, "lat": 38.9660745, "rental_uris": {"ios": "https://dc.lft.to/lastmile_qr_scan", "android": "https://dc.lft.to/lastmile_qr_scan"}, "is_reserved": 0, "lon": -77.02748266666667, "fusion_lat": 0.0, "name": "e8e3c4273cff0f41b8801acf231bbf7a"}, {"type": "electric_scooter", "fusion_lon": 0.0, "bike_id": "dcc8380318338e6d6cb61a5363c007cf", "is_disabled": 0, "lat": 38.938517166666664, "rental_uris": {"ios": "https://dc.lft.to/lastmile_qr_scan", "android": "https://dc.lft.to/lastmile_qr_scan"}, "is_reserved": 0, "lon": -77.07233133333334, "fusion_lat": 0.0, "name": "dcc8380318338e6d6cb61a5363c007cf"}, {"type": "electric_scooter", "fusion_lon": 0.0, "bike_id": "2ba6b23522356c43013f5a80f8df568b", "is_disabled": 0, "lat": 38.923379833333335, "rental_uris": {"ios": "https://dc.lft.to/lastmile_qr_scan", "android": "https://dc.lft.to/lastmile_qr_scan"}, "is_reserved": 0, "lon": -77.05676383333333, "fusion_lat": 0.0, "name": "2ba6b23522356c43013f5a80f8df568b"}, {"type": "electric_scooter", "fusion_lon": 0.0, "bike_id": "40d22d161b99377b09b2be93df20fc43", "is_disabled": 0, "lat": 38.93631766666667, "rental_uris": {"ios": "https://dc.lft.to/lastmile_qr_scan", "android": "https://dc.lft.to/lastmile_qr_scan"}, "is_reserved": 0, "lon": -77.07260166666667, "fusion_lat": 0.0, "name": "40d22d161b99377b09b2be93df20fc43"}, {"type": "electric_scooter", "fusion_lon": 0.0, "bike_id": "4adb28d88131fdd5b52292b0e85907f6", "is_disabled": 0, "lat": 38.86116666666667, "rental_uris": {"ios": "https://dc.lft.to/lastmile_qr_scan", "android": "https://dc.lft.to/lastmile_qr_scan"}, "is_reserved": 0, "lon": -76.988916, "fusion_lat": 0.0, "name": "4adb28d88131fdd5b52292b0e85907f6"}, {"type": "electric_scooter", "fusion_lon": 0.0, "bike_id": "ca77969d75d8ba1b9a70a0808c4ca04b", "is_disabled": 0, "lat": 38.896269833333335, "rental_uris": {"ios": "https://dc.lft.to/lastmile_qr_scan", "android": "https://dc.lft.to/lastmile_qr_scan"}, "is_reserved": 0, "lon": -77.050271, "fusion_lat": 0.0, "name": "ca77969d75d8ba1b9a70a0808c4ca04b"}, {"type": "electric_scooter", "fusion_lon": 0.0, "bike_id": "be2028f63d8a9d984ee82327c8a8a05a", "is_disabled": 0, "lat": 38.83788633333333, "rental_uris": {"ios": "https://dc.lft.to/lastmile_qr_scan", "android": "https://dc.lft.to/lastmile_qr_scan"}, "is_reserved": 0, "lon": -77.00449383333333, "fusion_lat": 0.0, "name": "be2028f63d8a9d984ee82327c8a8a05a"}, {"type": "electric_scooter", "fusion_lon": 0.0, "bike_id": "cbffdc791ad7e2df88d3b5560d2da520", "is_disabled": 0, "lat": 38.88771583333333, "rental_uris": {"ios": "https://dc.lft.to/lastmile_qr_scan", "android": "https://dc.lft.to/lastmile_qr_scan"}, "is_reserved": 0, "lon": -77.0332255, "fusion_lat": 0.0, "name": "cbffdc791ad7e2df88d3b5560d2da520"}, {"type": "electric_bike", "fusion_lon": 0.0, "bike_id": "6f087a399bbf3b34cc333d18df30c406", "is_disabled": 0, "lat": 38.90865866666667, "rental_uris": {"ios": "https://dc.lft.to/lastmile_qr_scan", "android": "https://dc.lft.to/lastmile_qr_scan"}, "is_reserved": 0, "lon": -77.080766, "fusion_lat": 0.0, "name": "6f087a399bbf3b34cc333d18df30c406"}, {"type": "electric_bike", "fusion_lon": 0.0, "bike_id": "9e628f5866f179faf81177e674c36478", "is_disabled": 0, "lat": 39.00025633333333, "rental_uris": {"ios": "https://dc.lft.to/lastmile_qr_scan", "android": "https://dc.lft.to/lastmile_qr_scan"}, "is_reserved": 0, "lon": -77.047434, "fusion_lat": 0.0, "name": "9e628f5866f179faf81177e674c36478"}, {"type": "electric_scooter", "fusion_lon": 0.0, "bike_id": "6919de4388888f41a450479ebc7e698e", "is_disabled": 0, "lat": 38.91535, "rental_uris": {"ios": "https://dc.lft.to/lastmile_qr_scan", "android": "https://dc.lft.to/lastmile_qr_scan"}, "is_reserved": 0, "lon": -77.04445316666667, "fusion_lat": 0.0, "name": "6919de4388888f41a450479ebc7e698e"}, {"type": "electric_scooter", "fusion_lon": 0.0, "bike_id": "8de888ea97146c81d6f6b9d557bfb891", "is_disabled": 0, "lat": 38.924480833333334, "rental_uris": {"ios": "https://dc.lft.to/lastmile_qr_scan", "android": "https://dc.lft.to/lastmile_qr_scan"}, "is_reserved": 0, "lon": -76.98984816666666, "fusion_lat": 0.0, "name": "8de888ea97146c81d6f6b9d557bfb891"}, {"type": "electric_scooter", "fusion_lon": 0.0, "bike_id": "491763dbba48e06c049655cf55ccff51", "is_disabled": 0, "lat": 38.918468, "rental_uris": {"ios": "https://dc.lft.to/lastmile_qr_scan", "android": "https://dc.lft.to/lastmile_qr_scan"}, "is_reserved": 0, "lon": -77.0899645, "fusion_lat": 0.0, "name": "491763dbba48e06c049655cf55ccff51"}, {"type": "electric_scooter", "fusion_lon": 0.0, "bike_id": "624d91be41a992c44b4634e4d10db995", "is_disabled": 0, "lat": 38.934249666666666, "rental_uris": {"ios": "https://dc.lft.to/lastmile_qr_scan", "android": "https://dc.lft.to/lastmile_qr_scan"}, "is_reserved": 0, "lon": -77.03405166666667, "fusion_lat": 0.0, "name": "624d91be41a992c44b4634e4d10db995"}, {"type": "electric_scooter", "fusion_lon": 0.0, "bike_id": "be7752d6dda7d92ebcecf4190b430756", "is_disabled": 0, "lat": 38.9251105, "rental_uris": {"ios": "https://dc.lft.to/lastmile_qr_scan", "android": "https://dc.lft.to/lastmile_qr_scan"}, "is_reserved": 0, "lon": -77.02258783333333, "fusion_lat": 0.0, "name": "be7752d6dda7d92ebcecf4190b430756"}, {"type": "electric_scooter", "fusion_lon": 0.0, "bike_id": "f619b5fd1e4c4ab207bff406505e9601", "is_disabled": 0, "lat": 38.887143333333334, "rental_uris": {"ios": "https://dc.lft.to/lastmile_qr_scan", "android": "https://dc.lft.to/lastmile_qr_scan"}, "is_reserved": 0, "lon": -77.0220875, "fusion_lat": 0.0, "name": "f619b5fd1e4c4ab207bff406505e9601"}, {"type": "electric_scooter", "fusion_lon": 0.0, "bike_id": "3c4a2023f0ed6c902c9a6d03e84dd63c", "is_disabled": 0, "lat": 38.903197, "rental_uris": {"ios": "https://dc.lft.to/lastmile_qr_scan", "android": "https://dc.lft.to/lastmile_qr_scan"}, "is_reserved": 0, "lon": -77.02445016666667, "fusion_lat": 0.0, "name": "3c4a2023f0ed6c902c9a6d03e84dd63c"}, {"type": "electric_scooter", "fusion_lon": 0.0, "bike_id": "f06b4e79086defdc54da75f9abdb4096", "is_disabled": 0, "lat": 38.9084865, "rental_uris": {"ios": "https://dc.lft.to/lastmile_qr_scan", "android": "https://dc.lft.to/lastmile_qr_scan"}, "is_reserved": 0, "lon": -77.038412, "fusion_lat": 0.0, "name": "f06b4e79086defdc54da75f9abdb4096"}, {"type": "electric_scooter", "fusion_lon": 0.0, "bike_id": "1c313395e15ac6c4d2e81b2ee1e90581", "is_disabled": 0, "lat": 38.92505083333333, "rental_uris": {"ios": "https://dc.lft.to/lastmile_qr_scan", "android": "https://dc.lft.to/lastmile_qr_scan"}, "is_reserved": 0, "lon": -77.0216165, "fusion_lat": 0.0, "name": "1c313395e15ac6c4d2e81b2ee1e90581"}, {"type": "electric_scooter", "fusion_lon": 0.0, "bike_id": "81944cd19683d20cb2368352d846ee90", "is_disabled": 0, "lat": 38.9064715, "rental_uris": {"ios": "https://dc.lft.to/lastmile_qr_scan", "android": "https://dc.lft.to/lastmile_qr_scan"}, "is_reserved": 0, "lon": -76.98377216666667, "fusion_lat": 0.0, "name": "81944cd19683d20cb2368352d846ee90"}, {"type": "electric_scooter", "fusion_lon": 0.0, "bike_id": "163d296662222eff2be750276b397a17", "is_disabled": 0, "lat": 38.89174883333333, "rental_uris": {"ios": "https://dc.lft.to/lastmile_qr_scan", "android": "https://dc.lft.to/lastmile_qr_scan"}, "is_reserved": 0, "lon": -76.92661, "fusion_lat": 0.0, "name": "163d296662222eff2be750276b397a17"}, {"type": "electric_scooter", "fusion_lon": 0.0, "bike_id": "88e6faddf11beeaa19a8ff39a4162df3", "is_disabled": 0, "lat": 38.89598183333333, "rental_uris": {"ios": "https://dc.lft.to/lastmile_qr_scan", "android": "https://dc.lft.to/lastmile_qr_scan"}, "is_reserved": 0, "lon": -77.04756216666667, "fusion_lat": 0.0, "name": "88e6faddf11beeaa19a8ff39a4162df3"}, {"type": "electric_bike", "fusion_lon": 0.0, "bike_id": "7661f135eb4b4e7c5cbbbcdf873a0c07", "is_disabled": 0, "lat": 38.9090435, "rental_uris": {"ios": "https://dc.lft.to/lastmile_qr_scan", "android": "https://dc.lft.to/lastmile_qr_scan"}, "is_reserved": 0, "lon": -76.99890133333334, "fusion_lat": 0.0, "name": "7661f135eb4b4e7c5cbbbcdf873a0c07"}, {"type": "electric_scooter", "fusion_lon": 0.0, "bike_id": "234252058eb55dd3bb906435bb882ac2", "is_disabled": 0, "lat": 38.928669666666664, "rental_uris": {"ios": "https://dc.lft.to/lastmile_qr_scan", "android": "https://dc.lft.to/lastmile_qr_scan"}, "is_reserved": 0, "lon": -77.03105916666667, "fusion_lat": 0.0, "name": "234252058eb55dd3bb906435bb882ac2"}, {"type": "electric_bike", "fusion_lon": 0.0, "bike_id": "3f39d64af18810ff856dc1565e2c5101", "is_disabled": 0, "lat": 38.819771833333334, "rental_uris": {"ios": "https://dc.lft.to/lastmile_qr_scan", "android": "https://dc.lft.to/lastmile_qr_scan"}, "is_reserved": 0, "lon": -76.99815333333333, "fusion_lat": 0.0, "name": "3f39d64af18810ff856dc1565e2c5101"}, {"type": "electric_scooter", "fusion_lon": 0.0, "bike_id": "e35438216a44bbeea98b66c6d462551d", "is_disabled": 0, "lat": 38.91194866666667, "rental_uris": {"ios": "https://dc.lft.to/lastmile_qr_scan", "android": "https://dc.lft.to/lastmile_qr_scan"}, "is_reserved": 0, "lon": -76.98772133333334, "fusion_lat": 0.0, "name": "e35438216a44bbeea98b66c6d462551d"}, {"type": "electric_scooter", "fusion_lon": 0.0, "bike_id": "6e1be574e5aabf24ec9a5afb56771a38", "is_disabled": 0, "lat": 38.89227483333333, "rental_uris": {"ios": "https://dc.lft.to/lastmile_qr_scan", "android": "https://dc.lft.to/lastmile_qr_scan"}, "is_reserved": 0, "lon": -77.0333965, "fusion_lat": 0.0, "name": "6e1be574e5aabf24ec9a5afb56771a38"}, {"type": "electric_scooter", "fusion_lon": 0.0, "bike_id": "f6b27b4666e5b350995277071259770c", "is_disabled": 0, "lat": 38.90243666666667, "rental_uris": {"ios": "https://dc.lft.to/lastmile_qr_scan", "android": "https://dc.lft.to/lastmile_qr_scan"}, "is_reserved": 0, "lon": -77.02645416666667, "fusion_lat": 0.0, "name": "f6b27b4666e5b350995277071259770c"}, {"type": "electric_scooter", "fusion_lon": 0.0, "bike_id": "d900c3c688e5266d6febc306b4b2863f", "is_disabled": 0, "lat": 38.925199, "rental_uris": {"ios": "https://dc.lft.to/lastmile_qr_scan", "android": "https://dc.lft.to/lastmile_qr_scan"}, "is_reserved": 0, "lon": -77.05041816666666, "fusion_lat": 0.0, "name": "d900c3c688e5266d6febc306b4b2863f"}, {"type": "electric_scooter", "fusion_lon": 0.0, "bike_id": "d8b82b75da696dfeeb37fd04e70db077", "is_disabled": 0, "lat": 38.87175583333333, "rental_uris": {"ios": "https://dc.lft.to/lastmile_qr_scan", "android": "https://dc.lft.to/lastmile_qr_scan"}, "is_reserved": 0, "lon": -77.00580583333333, "fusion_lat": 0.0, "name": "d8b82b75da696dfeeb37fd04e70db077"}, {"type": "electric_bike", "fusion_lon": 0.0, "bike_id": "fa0e7e951da6359792ebabb03049b170", "is_disabled": 0, "lat": 38.993808333333334, "rental_uris": {"ios": "https://dc.lft.to/lastmile_qr_scan", "android": "https://dc.lft.to/lastmile_qr_scan"}, "is_reserved": 0, "lon": -77.04071066666667, "fusion_lat": 0.0, "name": "fa0e7e951da6359792ebabb03049b170"}, {"type": "electric_scooter", "fusion_lon": 0.0, "bike_id": "e609cd6881587e9d8b6bae5c4e7e7146", "is_disabled": 0, "lat": 38.934966833333334, "rental_uris": {"ios": "https://dc.lft.to/lastmile_qr_scan", "android": "https://dc.lft.to/lastmile_qr_scan"}, "is_reserved": 0, "lon": -77.04375616666667, "fusion_lat": 0.0, "name": "e609cd6881587e9d8b6bae5c4e7e7146"}, {"type": "electric_scooter", "fusion_lon": 0.0, "bike_id": "676449ca8b3c3e47743c3a09d7835e64", "is_disabled": 0, "lat": 38.934669666666665, "rental_uris": {"ios": "https://dc.lft.to/lastmile_qr_scan", "android": "https://dc.lft.to/lastmile_qr_scan"}, "is_reserved": 0, "lon": -77.04135933333333, "fusion_lat": 0.0, "name": "676449ca8b3c3e47743c3a09d7835e64"}, {"type": "electric_scooter", "fusion_lon": 0.0, "bike_id": "7b34e5ee5f4cf97527366f32cba67241", "is_disabled": 0, "lat": 38.90935116666667, "rental_uris": {"ios": "https://dc.lft.to/lastmile_qr_scan", "android": "https://dc.lft.to/lastmile_qr_scan"}, "is_reserved": 0, "lon": -76.99950366666667, "fusion_lat": 0.0, "name": "7b34e5ee5f4cf97527366f32cba67241"}, {"type": "electric_scooter", "fusion_lon": 0.0, "bike_id": "7bef0e37e7dcb418ea60698cc24d11ed", "is_disabled": 0, "lat": 38.924045, "rental_uris": {"ios": "https://dc.lft.to/lastmile_qr_scan", "android": "https://dc.lft.to/lastmile_qr_scan"}, "is_reserved": 0, "lon": -77.02691816666666, "fusion_lat": 0.0, "name": "7bef0e37e7dcb418ea60698cc24d11ed"}, {"type": "electric_scooter", "fusion_lon": 0.0, "bike_id": "ad402c9d64356b410d9fe27d1f1f6d66", "is_disabled": 0, "lat": 38.904264833333336, "rental_uris": {"ios": "https://dc.lft.to/lastmile_qr_scan", "android": "https://dc.lft.to/lastmile_qr_scan"}, "is_reserved": 0, "lon": -76.94973533333334, "fusion_lat": 0.0, "name": "ad402c9d64356b410d9fe27d1f1f6d66"}, {"type": "electric_scooter", "fusion_lon": 0.0, "bike_id": "9ee3cbb1a5e8440c284b73266d97df0f", "is_disabled": 0, "lat": 38.943668833333334, "rental_uris": {"ios": "https://dc.lft.to/lastmile_qr_scan", "android": "https://dc.lft.to/lastmile_qr_scan"}, "is_reserved": 0, "lon": -77.06098966666667, "fusion_lat": 0.0, "name": "9ee3cbb1a5e8440c284b73266d97df0f"}, {"type": "electric_scooter", "fusion_lon": 0.0, "bike_id": "ec5e55a13d4f98bd2c6be80e8f23e57a", "is_disabled": 0, "lat": 38.9178655, "rental_uris": {"ios": "https://dc.lft.to/lastmile_qr_scan", "android": "https://dc.lft.to/lastmile_qr_scan"}, "is_reserved": 0, "lon": -77.04345616666667, "fusion_lat": 0.0, "name": "ec5e55a13d4f98bd2c6be80e8f23e57a"}, {"type": "electric_bike", "fusion_lon": 0.0, "bike_id": "d8225de4c214de6157225d248921576e", "is_disabled": 0, "lat": 38.88464466666667, "rental_uris": {"ios": "https://dc.lft.to/lastmile_qr_scan", "android": "https://dc.lft.to/lastmile_qr_scan"}, "is_reserved": 0, "lon": -76.9524385, "fusion_lat": 0.0, "name": "d8225de4c214de6157225d248921576e"}, {"type": "electric_scooter", "fusion_lon": 0.0, "bike_id": "9d741af1fec4bb968851ea254201b9ef", "is_disabled": 0, "lat": 38.9213885, "rental_uris": {"ios": "https://dc.lft.to/lastmile_qr_scan", "android": "https://dc.lft.to/lastmile_qr_scan"}, "is_reserved": 0, "lon": -77.01809133333333, "fusion_lat": 0.0, "name": "9d741af1fec4bb968851ea254201b9ef"}, {"type": "electric_scooter", "fusion_lon": 0.0, "bike_id": "1af1dec4babc57ce8513dc5e1810ad4b", "is_disabled": 0, "lat": 38.91921966666666, "rental_uris": {"ios": "https://dc.lft.to/lastmile_qr_scan", "android": "https://dc.lft.to/lastmile_qr_scan"}, "is_reserved": 0, "lon": -77.0235245, "fusion_lat": 0.0, "name": "1af1dec4babc57ce8513dc5e1810ad4b"}, {"type": "electric_bike", "fusion_lon": 0.0, "bike_id": "46ebb2ffb90307698e34508b8ea2a5e0", "is_disabled": 0, "lat": 38.98814, "rental_uris": {"ios": "https://dc.lft.to/lastmile_qr_scan", "android": "https://dc.lft.to/lastmile_qr_scan"}, "is_reserved": 0, "lon": -76.939667, "fusion_lat": 0.0, "name": "46ebb2ffb90307698e34508b8ea2a5e0"}, {"type": "electric_bike", "fusion_lon": 0.0, "bike_id": "7865ccadcc269f30b3e2ccefa43290ad", "is_disabled": 0, "lat": 38.8633065, "rental_uris": {"ios": "https://dc.lft.to/lastmile_qr_scan", "android": "https://dc.lft.to/lastmile_qr_scan"}, "is_reserved": 0, "lon": -76.98721116666667, "fusion_lat": 0.0, "name": "7865ccadcc269f30b3e2ccefa43290ad"}, {"type": "electric_scooter", "fusion_lon": 0.0, "bike_id": "d3b09bb448123caaab74fd9cbdcb30cf", "is_disabled": 0, "lat": 38.9190945, "rental_uris": {"ios": "https://dc.lft.to/lastmile_qr_scan", "android": "https://dc.lft.to/lastmile_qr_scan"}, "is_reserved": 0, "lon": -77.03373116666667, "fusion_lat": 0.0, "name": "d3b09bb448123caaab74fd9cbdcb30cf"}, {"type": "electric_scooter", "fusion_lon": 0.0, "bike_id": "5312312119c3772e8eacc7cd0ce388ac", "is_disabled": 0, "lat": 38.892221, "rental_uris": {"ios": "https://dc.lft.to/lastmile_qr_scan", "android": "https://dc.lft.to/lastmile_qr_scan"}, "is_reserved": 0, "lon": -77.02013533333333, "fusion_lat": 0.0, "name": "5312312119c3772e8eacc7cd0ce388ac"}, {"type": "electric_scooter", "fusion_lon": 0.0, "bike_id": "1d1dc0a08e944a9e6ebaca721a106b2b", "is_disabled": 0, "lat": 38.938498833333334, "rental_uris": {"ios": "https://dc.lft.to/lastmile_qr_scan", "android": "https://dc.lft.to/lastmile_qr_scan"}, "is_reserved": 0, "lon": -77.033914, "fusion_lat": 0.0, "name": "1d1dc0a08e944a9e6ebaca721a106b2b"}, {"type": "electric_scooter", "fusion_lon": 0.0, "bike_id": "a6cfc1d035a6ce8715aaa42ce1c99c9e", "is_disabled": 0, "lat": 38.90382066666667, "rental_uris": {"ios": "https://dc.lft.to/lastmile_qr_scan", "android": "https://dc.lft.to/lastmile_qr_scan"}, "is_reserved": 0, "lon": -77.01838033333334, "fusion_lat": 0.0, "name": "a6cfc1d035a6ce8715aaa42ce1c99c9e"}, {"type": "electric_scooter", "fusion_lon": 0.0, "bike_id": "20ba3a7d94b43211db086005ce2e1a83", "is_disabled": 0, "lat": 38.91816716666666, "rental_uris": {"ios": "https://dc.lft.to/lastmile_qr_scan", "android": "https://dc.lft.to/lastmile_qr_scan"}, "is_reserved": 0, "lon": -77.00572483333333, "fusion_lat": 0.0, "name": "20ba3a7d94b43211db086005ce2e1a83"}, {"type": "electric_scooter", "fusion_lon": 0.0, "bike_id": "276a07b8c7639acb14d29a0c2efdf7d2", "is_disabled": 0, "lat": 38.927986833333335, "rental_uris": {"ios": "https://dc.lft.to/lastmile_qr_scan", "android": "https://dc.lft.to/lastmile_qr_scan"}, "is_reserved": 0, "lon": -77.02384666666667, "fusion_lat": 0.0, "name": "276a07b8c7639acb14d29a0c2efdf7d2"}, {"type": "electric_scooter", "fusion_lon": 0.0, "bike_id": "d824873b0698bb7d683f321515d53d85", "is_disabled": 0, "lat": 38.917501, "rental_uris": {"ios": "https://dc.lft.to/lastmile_qr_scan", "android": "https://dc.lft.to/lastmile_qr_scan"}, "is_reserved": 0, "lon": -77.04054616666667, "fusion_lat": 0.0, "name": "d824873b0698bb7d683f321515d53d85"}, {"type": "electric_scooter", "fusion_lon": 0.0, "bike_id": "e086192d076800b37ef51ca5a9baa096", "is_disabled": 0, "lat": 38.88517433333333, "rental_uris": {"ios": "https://dc.lft.to/lastmile_qr_scan", "android": "https://dc.lft.to/lastmile_qr_scan"}, "is_reserved": 0, "lon": -77.02823866666667, "fusion_lat": 0.0, "name": "e086192d076800b37ef51ca5a9baa096"}, {"type": "electric_scooter", "fusion_lon": 0.0, "bike_id": "753caf52f29bae73f67f2757931062f4", "is_disabled": 0, "lat": 38.907653, "rental_uris": {"ios": "https://dc.lft.to/lastmile_qr_scan", "android": "https://dc.lft.to/lastmile_qr_scan"}, "is_reserved": 0, "lon": -77.00923916666666, "fusion_lat": 0.0, "name": "753caf52f29bae73f67f2757931062f4"}, {"type": "electric_scooter", "fusion_lon": 0.0, "bike_id": "69d61fd6481b580047da50d31c964ba9", "is_disabled": 0, "lat": 38.94452316666667, "rental_uris": {"ios": "https://dc.lft.to/lastmile_qr_scan", "android": "https://dc.lft.to/lastmile_qr_scan"}, "is_reserved": 0, "lon": -77.02803816666666, "fusion_lat": 0.0, "name": "69d61fd6481b580047da50d31c964ba9"}, {"type": "electric_scooter", "fusion_lon": 0.0, "bike_id": "502acc30ea989613087aa54051f0950f", "is_disabled": 0, "lat": 38.91108083333334, "rental_uris": {"ios": "https://dc.lft.to/lastmile_qr_scan", "android": "https://dc.lft.to/lastmile_qr_scan"}, "is_reserved": 0, "lon": -77.03827183333334, "fusion_lat": 0.0, "name": "502acc30ea989613087aa54051f0950f"}, {"type": "electric_scooter", "fusion_lon": 0.0, "bike_id": "ba3228cdcb785eb3a68b2d652a4922e3", "is_disabled": 0, "lat": 38.92419133333333, "rental_uris": {"ios": "https://dc.lft.to/lastmile_qr_scan", "android": "https://dc.lft.to/lastmile_qr_scan"}, "is_reserved": 0, "lon": -77.019866, "fusion_lat": 0.0, "name": "ba3228cdcb785eb3a68b2d652a4922e3"}, {"type": "electric_scooter", "fusion_lon": 0.0, "bike_id": "84b2566afc12d550febafd612b4e1c8b", "is_disabled": 0, "lat": 38.91951916666667, "rental_uris": {"ios": "https://dc.lft.to/lastmile_qr_scan", "android": "https://dc.lft.to/lastmile_qr_scan"}, "is_reserved": 0, "lon": -77.01776383333333, "fusion_lat": 0.0, "name": "84b2566afc12d550febafd612b4e1c8b"}, {"type": "electric_scooter", "fusion_lon": 0.0, "bike_id": "063db36d4072481d7a33fb01fb493422", "is_disabled": 0, "lat": 38.891981333333334, "rental_uris": {"ios": "https://dc.lft.to/lastmile_qr_scan", "android": "https://dc.lft.to/lastmile_qr_scan"}, "is_reserved": 0, "lon": -77.02380516666666, "fusion_lat": 0.0, "name": "063db36d4072481d7a33fb01fb493422"}, {"type": "electric_scooter", "fusion_lon": 0.0, "bike_id": "88a883fe4a4abecbf97100211e99b1ee", "is_disabled": 0, "lat": 38.89888916666666, "rental_uris": {"ios": "https://dc.lft.to/lastmile_qr_scan", "android": "https://dc.lft.to/lastmile_qr_scan"}, "is_reserved": 0, "lon": -76.93176883333334, "fusion_lat": 0.0, "name": "88a883fe4a4abecbf97100211e99b1ee"}, {"type": "electric_scooter", "fusion_lon": 0.0, "bike_id": "c801e6f9318a66ff8437a13e42962125", "is_disabled": 0, "lat": 38.92787533333333, "rental_uris": {"ios": "https://dc.lft.to/lastmile_qr_scan", "android": "https://dc.lft.to/lastmile_qr_scan"}, "is_reserved": 0, "lon": -77.054125, "fusion_lat": 0.0, "name": "c801e6f9318a66ff8437a13e42962125"}, {"type": "electric_scooter", "fusion_lon": 0.0, "bike_id": "e0799f8f05aef41a38e47d80cd921fcc", "is_disabled": 0, "lat": 38.919942666666664, "rental_uris": {"ios": "https://dc.lft.to/lastmile_qr_scan", "android": "https://dc.lft.to/lastmile_qr_scan"}, "is_reserved": 0, "lon": -77.039732, "fusion_lat": 0.0, "name": "e0799f8f05aef41a38e47d80cd921fcc"}, {"type": "electric_scooter", "fusion_lon": 0.0, "bike_id": "9c1630cf95995739fda1f0649136969a", "is_disabled": 0, "lat": 38.90814733333333, "rental_uris": {"ios": "https://dc.lft.to/lastmile_qr_scan", "android": "https://dc.lft.to/lastmile_qr_scan"}, "is_reserved": 0, "lon": -77.03451383333334, "fusion_lat": 0.0, "name": "9c1630cf95995739fda1f0649136969a"}, {"type": "electric_scooter", "fusion_lon": 0.0, "bike_id": "1c5d7452577bd5ca90b32fe2359fffdd", "is_disabled": 0, "lat": 38.93394333333333, "rental_uris": {"ios": "https://dc.lft.to/lastmile_qr_scan", "android": "https://dc.lft.to/lastmile_qr_scan"}, "is_reserved": 0, "lon": -77.04550366666666, "fusion_lat": 0.0, "name": "1c5d7452577bd5ca90b32fe2359fffdd"}, {"type": "electric_scooter", "fusion_lon": 0.0, "bike_id": "d553edbae5a5ed758fdfb6c1dfc45cab", "is_disabled": 0, "lat": 38.9068425, "rental_uris": {"ios": "https://dc.lft.to/lastmile_qr_scan", "android": "https://dc.lft.to/lastmile_qr_scan"}, "is_reserved": 0, "lon": -77.02978766666666, "fusion_lat": 0.0, "name": "d553edbae5a5ed758fdfb6c1dfc45cab"}, {"type": "electric_scooter", "fusion_lon": 0.0, "bike_id": "c95b2788801ded33158f472f478acef9", "is_disabled": 0, "lat": 38.927643833333335, "rental_uris": {"ios": "https://dc.lft.to/lastmile_qr_scan", "android": "https://dc.lft.to/lastmile_qr_scan"}, "is_reserved": 0, "lon": -77.03247333333333, "fusion_lat": 0.0, "name": "c95b2788801ded33158f472f478acef9"}, {"type": "electric_scooter", "fusion_lon": 0.0, "bike_id": "0f5d902c050e72c18ccf08d5a449340b", "is_disabled": 0, "lat": 38.923953166666664, "rental_uris": {"ios": "https://dc.lft.to/lastmile_qr_scan", "android": "https://dc.lft.to/lastmile_qr_scan"}, "is_reserved": 0, "lon": -77.0248795, "fusion_lat": 0.0, "name": "0f5d902c050e72c18ccf08d5a449340b"}, {"type": "electric_scooter", "fusion_lon": 0.0, "bike_id": "04ea70487963c16560ea0821fa76a57e", "is_disabled": 0, "lat": 38.91934933333334, "rental_uris": {"ios": "https://dc.lft.to/lastmile_qr_scan", "android": "https://dc.lft.to/lastmile_qr_scan"}, "is_reserved": 0, "lon": -77.02469433333333, "fusion_lat": 0.0, "name": "04ea70487963c16560ea0821fa76a57e"}, {"type": "electric_bike", "fusion_lon": 0.0, "bike_id": "cab35302a7f1afc196b057821aa08003", "is_disabled": 0, "lat": 38.8229845, "rental_uris": {"ios": "https://dc.lft.to/lastmile_qr_scan", "android": "https://dc.lft.to/lastmile_qr_scan"}, "is_reserved": 0, "lon": -77.0814055, "fusion_lat": 0.0, "name": "cab35302a7f1afc196b057821aa08003"}, {"type": "electric_bike", "fusion_lon": 0.0, "bike_id": "c8a40c5981eada63145ab0bdd679f60b", "is_disabled": 0, "lat": 38.96694816666667, "rental_uris": {"ios": "https://dc.lft.to/lastmile_qr_scan", "android": "https://dc.lft.to/lastmile_qr_scan"}, "is_reserved": 0, "lon": -77.02275816666666, "fusion_lat": 0.0, "name": "c8a40c5981eada63145ab0bdd679f60b"}, {"type": "electric_scooter", "fusion_lon": 0.0, "bike_id": "44340ebfe9a4bd871b4389e4610bf251", "is_disabled": 0, "lat": 38.89946916666667, "rental_uris": {"ios": "https://dc.lft.to/lastmile_qr_scan", "android": "https://dc.lft.to/lastmile_qr_scan"}, "is_reserved": 0, "lon": -77.04498383333333, "fusion_lat": 0.0, "name": "44340ebfe9a4bd871b4389e4610bf251"}, {"type": "electric_scooter", "fusion_lon": 0.0, "bike_id": "fffba96bfae8dcc246e85c1dd0848bb2", "is_disabled": 0, "lat": 38.89982083333334, "rental_uris": {"ios": "https://dc.lft.to/lastmile_qr_scan", "android": "https://dc.lft.to/lastmile_qr_scan"}, "is_reserved": 0, "lon": -77.01593783333334, "fusion_lat": 0.0, "name": "fffba96bfae8dcc246e85c1dd0848bb2"}, {"type": "electric_scooter", "fusion_lon": 0.0, "bike_id": "ec714b949f58fe2c6af923b2f1590ef0", "is_disabled": 0, "lat": 38.9206135, "rental_uris": {"ios": "https://dc.lft.to/lastmile_qr_scan", "android": "https://dc.lft.to/lastmile_qr_scan"}, "is_reserved": 0, "lon": -77.04246816666667, "fusion_lat": 0.0, "name": "ec714b949f58fe2c6af923b2f1590ef0"}, {"type": "electric_scooter", "fusion_lon": 0.0, "bike_id": "a61f55a2383d5f380dc432af983ac09c", "is_disabled": 0, "lat": 38.9238565, "rental_uris": {"ios": "https://dc.lft.to/lastmile_qr_scan", "android": "https://dc.lft.to/lastmile_qr_scan"}, "is_reserved": 0, "lon": -77.03657733333333, "fusion_lat": 0.0, "name": "a61f55a2383d5f380dc432af983ac09c"}, {"type": "electric_bike", "fusion_lon": 0.0, "bike_id": "9f3224789cac6924edc6c6b5b637da65", "is_disabled": 0, "lat": 38.94038616666667, "rental_uris": {"ios": "https://dc.lft.to/lastmile_qr_scan", "android": "https://dc.lft.to/lastmile_qr_scan"}, "is_reserved": 0, "lon": -76.99471616666666, "fusion_lat": 0.0, "name": "9f3224789cac6924edc6c6b5b637da65"}, {"type": "electric_scooter", "fusion_lon": 0.0, "bike_id": "734d3d173076563f5a2f926aab5d6396", "is_disabled": 0, "lat": 38.91938433333333, "rental_uris": {"ios": "https://dc.lft.to/lastmile_qr_scan", "android": "https://dc.lft.to/lastmile_qr_scan"}, "is_reserved": 0, "lon": -77.04888133333333, "fusion_lat": 0.0, "name": "734d3d173076563f5a2f926aab5d6396"}, {"type": "electric_scooter", "fusion_lon": 0.0, "bike_id": "8c401c32b8ce954ef49623083aff427d", "is_disabled": 0, "lat": 38.925701833333335, "rental_uris": {"ios": "https://dc.lft.to/lastmile_qr_scan", "android": "https://dc.lft.to/lastmile_qr_scan"}, "is_reserved": 0, "lon": -77.07881, "fusion_lat": 0.0, "name": "8c401c32b8ce954ef49623083aff427d"}, {"type": "electric_scooter", "fusion_lon": 0.0, "bike_id": "096cb99388bfdc8175b1e211a256b7a1", "is_disabled": 0, "lat": 38.9330495, "rental_uris": {"ios": "https://dc.lft.to/lastmile_qr_scan", "android": "https://dc.lft.to/lastmile_qr_scan"}, "is_reserved": 0, "lon": -77.07234783333334, "fusion_lat": 0.0, "name": "096cb99388bfdc8175b1e211a256b7a1"}, {"type": "electric_scooter", "fusion_lon": 0.0, "bike_id": "e6d7ef31a0a84871faa81e124010e883", "is_disabled": 0, "lat": 38.9204395, "rental_uris": {"ios": "https://dc.lft.to/lastmile_qr_scan", "android": "https://dc.lft.to/lastmile_qr_scan"}, "is_reserved": 0, "lon": -77.04399883333333, "fusion_lat": 0.0, "name": "e6d7ef31a0a84871faa81e124010e883"}, {"type": "electric_scooter", "fusion_lon": 0.0, "bike_id": "7c1bf252c0fb51d39f905c542acee218", "is_disabled": 0, "lat": 38.892256, "rental_uris": {"ios": "https://dc.lft.to/lastmile_qr_scan", "android": "https://dc.lft.to/lastmile_qr_scan"}, "is_reserved": 0, "lon": -77.04807716666667, "fusion_lat": 0.0, "name": "7c1bf252c0fb51d39f905c542acee218"}, {"type": "electric_scooter", "fusion_lon": 0.0, "bike_id": "5b3ad6f80a4181a0d06f92905b7f39c8", "is_disabled": 0, "lat": 38.892202, "rental_uris": {"ios": "https://dc.lft.to/lastmile_qr_scan", "android": "https://dc.lft.to/lastmile_qr_scan"}, "is_reserved": 0, "lon": -77.04466083333334, "fusion_lat": 0.0, "name": "5b3ad6f80a4181a0d06f92905b7f39c8"}, {"type": "electric_scooter", "fusion_lon": 0.0, "bike_id": "9f4d28a1b9dc56dc727e31bef5bfb319", "is_disabled": 0, "lat": 38.909598833333334, "rental_uris": {"ios": "https://dc.lft.to/lastmile_qr_scan", "android": "https://dc.lft.to/lastmile_qr_scan"}, "is_reserved": 0, "lon": -77.04082833333334, "fusion_lat": 0.0, "name": "9f4d28a1b9dc56dc727e31bef5bfb319"}, {"type": "electric_scooter", "fusion_lon": 0.0, "bike_id": "b270b0bcb79551bb7b9ca03c278ce145", "is_disabled": 0, "lat": 38.92796083333333, "rental_uris": {"ios": "https://dc.lft.to/lastmile_qr_scan", "android": "https://dc.lft.to/lastmile_qr_scan"}, "is_reserved": 0, "lon": -77.05427733333333, "fusion_lat": 0.0, "name": "b270b0bcb79551bb7b9ca03c278ce145"}, {"type": "electric_scooter", "fusion_lon": 0.0, "bike_id": "e1bf51364efe9c65a820cf8340a98584", "is_disabled": 0, "lat": 38.900359, "rental_uris": {"ios": "https://dc.lft.to/lastmile_qr_scan", "android": "https://dc.lft.to/lastmile_qr_scan"}, "is_reserved": 0, "lon": -77.00211283333333, "fusion_lat": 0.0, "name": "e1bf51364efe9c65a820cf8340a98584"}, {"type": "electric_scooter", "fusion_lon": 0.0, "bike_id": "734b40e6ed7972a5b1808573ef01e3db", "is_disabled": 0, "lat": 38.89761716666667, "rental_uris": {"ios": "https://dc.lft.to/lastmile_qr_scan", "android": "https://dc.lft.to/lastmile_qr_scan"}, "is_reserved": 0, "lon": -76.9259185, "fusion_lat": 0.0, "name": "734b40e6ed7972a5b1808573ef01e3db"}, {"type": "electric_scooter", "fusion_lon": 0.0, "bike_id": "18ec625ddb703ce4b68cf84be9295460", "is_disabled": 0, "lat": 38.934249666666666, "rental_uris": {"ios": "https://dc.lft.to/lastmile_qr_scan", "android": "https://dc.lft.to/lastmile_qr_scan"}, "is_reserved": 0, "lon": -77.0400485, "fusion_lat": 0.0, "name": "18ec625ddb703ce4b68cf84be9295460"}, {"type": "electric_scooter", "fusion_lon": 0.0, "bike_id": "c176c7fa8d91e60867a8080fc9bf978e", "is_disabled": 0, "lat": 38.900223, "rental_uris": {"ios": "https://dc.lft.to/lastmile_qr_scan", "android": "https://dc.lft.to/lastmile_qr_scan"}, "is_reserved": 0, "lon": -76.99648933333333, "fusion_lat": 0.0, "name": "c176c7fa8d91e60867a8080fc9bf978e"}, {"type": "electric_scooter", "fusion_lon": 0.0, "bike_id": "3dc9f15ae4d65a327848b6609e58890a", "is_disabled": 0, "lat": 38.938489833333335, "rental_uris": {"ios": "https://dc.lft.to/lastmile_qr_scan", "android": "https://dc.lft.to/lastmile_qr_scan"}, "is_reserved": 0, "lon": -77.03401033333333, "fusion_lat": 0.0, "name": "3dc9f15ae4d65a327848b6609e58890a"}, {"type": "electric_scooter", "fusion_lon": 0.0, "bike_id": "4304963fceb32509ff0ea7d554c66fa6", "is_disabled": 0, "lat": 38.93542883333333, "rental_uris": {"ios": "https://dc.lft.to/lastmile_qr_scan", "android": "https://dc.lft.to/lastmile_qr_scan"}, "is_reserved": 0, "lon": -77.03416933333334, "fusion_lat": 0.0, "name": "4304963fceb32509ff0ea7d554c66fa6"}, {"type": "electric_scooter", "fusion_lon": 0.0, "bike_id": "76c7cb48c00ea8252d09e7d7d7724a8b", "is_disabled": 0, "lat": 38.925488666666666, "rental_uris": {"ios": "https://dc.lft.to/lastmile_qr_scan", "android": "https://dc.lft.to/lastmile_qr_scan"}, "is_reserved": 0, "lon": -77.038397, "fusion_lat": 0.0, "name": "76c7cb48c00ea8252d09e7d7d7724a8b"}, {"type": "electric_scooter", "fusion_lon": 0.0, "bike_id": "b8e6fadbe8ce1e953f9601e34a76d451", "is_disabled": 0, "lat": 38.91967616666667, "rental_uris": {"ios": "https://dc.lft.to/lastmile_qr_scan", "android": "https://dc.lft.to/lastmile_qr_scan"}, "is_reserved": 0, "lon": -77.048492, "fusion_lat": 0.0, "name": "b8e6fadbe8ce1e953f9601e34a76d451"}, {"type": "electric_scooter", "fusion_lon": 0.0, "bike_id": "59a81d754c8d356b9650ece7af5598ce", "is_disabled": 0, "lat": 38.89337033333334, "rental_uris": {"ios": "https://dc.lft.to/lastmile_qr_scan", "android": "https://dc.lft.to/lastmile_qr_scan"}, "is_reserved": 0, "lon": -77.03165933333334, "fusion_lat": 0.0, "name": "59a81d754c8d356b9650ece7af5598ce"}, {"type": "electric_scooter", "fusion_lon": 0.0, "bike_id": "df8275c3489f2d968198c4e71e4ca35c", "is_disabled": 0, "lat": 38.892674166666666, "rental_uris": {"ios": "https://dc.lft.to/lastmile_qr_scan", "android": "https://dc.lft.to/lastmile_qr_scan"}, "is_reserved": 0, "lon": -77.04201466666666, "fusion_lat": 0.0, "name": "df8275c3489f2d968198c4e71e4ca35c"}, {"type": "electric_scooter", "fusion_lon": 0.0, "bike_id": "0dd2de3da4c74d7278312b07cacc2d04", "is_disabled": 0, "lat": 38.90008683333333, "rental_uris": {"ios": "https://dc.lft.to/lastmile_qr_scan", "android": "https://dc.lft.to/lastmile_qr_scan"}, "is_reserved": 0, "lon": -77.026086, "fusion_lat": 0.0, "name": "0dd2de3da4c74d7278312b07cacc2d04"}, {"type": "electric_scooter", "fusion_lon": 0.0, "bike_id": "6ca1b58cb5f37dbfe8d54682119ffe79", "is_disabled": 0, "lat": 38.926829, "rental_uris": {"ios": "https://dc.lft.to/lastmile_qr_scan", "android": "https://dc.lft.to/lastmile_qr_scan"}, "is_reserved": 0, "lon": -77.02250033333333, "fusion_lat": 0.0, "name": "6ca1b58cb5f37dbfe8d54682119ffe79"}, {"type": "electric_scooter", "fusion_lon": 0.0, "bike_id": "c5c72dda1bf3b7fe53ed5d6cbd674764", "is_disabled": 0, "lat": 38.9120065, "rental_uris": {"ios": "https://dc.lft.to/lastmile_qr_scan", "android": "https://dc.lft.to/lastmile_qr_scan"}, "is_reserved": 0, "lon": -77.001845, "fusion_lat": 0.0, "name": "c5c72dda1bf3b7fe53ed5d6cbd674764"}, {"type": "electric_scooter", "fusion_lon": 0.0, "bike_id": "d56f5227b3ed31875a6fd279fd51c910", "is_disabled": 0, "lat": 38.91014066666666, "rental_uris": {"ios": "https://dc.lft.to/lastmile_qr_scan", "android": "https://dc.lft.to/lastmile_qr_scan"}, "is_reserved": 0, "lon": -77.03854266666667, "fusion_lat": 0.0, "name": "d56f5227b3ed31875a6fd279fd51c910"}, {"type": "electric_scooter", "fusion_lon": 0.0, "bike_id": "6e4fde2186bed23ee9f3e54609ad63d1", "is_disabled": 0, "lat": 38.91274666666666, "rental_uris": {"ios": "https://dc.lft.to/lastmile_qr_scan", "android": "https://dc.lft.to/lastmile_qr_scan"}, "is_reserved": 0, "lon": -77.02965416666666, "fusion_lat": 0.0, "name": "6e4fde2186bed23ee9f3e54609ad63d1"}, {"type": "electric_scooter", "fusion_lon": 0.0, "bike_id": "64f1e56f3bbd52779562d7ef7689b4ce", "is_disabled": 0, "lat": 38.93558733333333, "rental_uris": {"ios": "https://dc.lft.to/lastmile_qr_scan", "android": "https://dc.lft.to/lastmile_qr_scan"}, "is_reserved": 0, "lon": -77.074611, "fusion_lat": 0.0, "name": "64f1e56f3bbd52779562d7ef7689b4ce"}, {"type": "electric_scooter", "fusion_lon": 0.0, "bike_id": "24007a88e3f0dd614ed479228f57a1cd", "is_disabled": 0, "lat": 38.92150683333333, "rental_uris": {"ios": "https://dc.lft.to/lastmile_qr_scan", "android": "https://dc.lft.to/lastmile_qr_scan"}, "is_reserved": 0, "lon": -77.04114783333333, "fusion_lat": 0.0, "name": "24007a88e3f0dd614ed479228f57a1cd"}, {"type": "electric_scooter", "fusion_lon": 0.0, "bike_id": "4f522e8ab777325e1117abcad3753d23", "is_disabled": 0, "lat": 38.89228716666667, "rental_uris": {"ios": "https://dc.lft.to/lastmile_qr_scan", "android": "https://dc.lft.to/lastmile_qr_scan"}, "is_reserved": 0, "lon": -77.02824366666667, "fusion_lat": 0.0, "name": "4f522e8ab777325e1117abcad3753d23"}, {"type": "electric_scooter", "fusion_lon": 0.0, "bike_id": "3317f0e2804e64177bff971481d887c8", "is_disabled": 0, "lat": 38.8913675, "rental_uris": {"ios": "https://dc.lft.to/lastmile_qr_scan", "android": "https://dc.lft.to/lastmile_qr_scan"}, "is_reserved": 0, "lon": -76.9889265, "fusion_lat": 0.0, "name": "3317f0e2804e64177bff971481d887c8"}, {"type": "electric_scooter", "fusion_lon": 0.0, "bike_id": "44d7541b5b8184cf3df9446e915f72c7", "is_disabled": 0, "lat": 38.920282, "rental_uris": {"ios": "https://dc.lft.to/lastmile_qr_scan", "android": "https://dc.lft.to/lastmile_qr_scan"}, "is_reserved": 0, "lon": -77.00282233333333, "fusion_lat": 0.0, "name": "44d7541b5b8184cf3df9446e915f72c7"}, {"type": "electric_scooter", "fusion_lon": 0.0, "bike_id": "553ca8ae4aee4413b35391d31112bcf2", "is_disabled": 0, "lat": 38.88370916666667, "rental_uris": {"ios": "https://dc.lft.to/lastmile_qr_scan", "android": "https://dc.lft.to/lastmile_qr_scan"}, "is_reserved": 0, "lon": -76.95709633333334, "fusion_lat": 0.0, "name": "553ca8ae4aee4413b35391d31112bcf2"}, {"type": "electric_scooter", "fusion_lon": 0.0, "bike_id": "aa04a18cb102149f27c070ec173b7d87", "is_disabled": 0, "lat": 38.89991783333333, "rental_uris": {"ios": "https://dc.lft.to/lastmile_qr_scan", "android": "https://dc.lft.to/lastmile_qr_scan"}, "is_reserved": 0, "lon": -77.0210465, "fusion_lat": 0.0, "name": "aa04a18cb102149f27c070ec173b7d87"}, {"type": "electric_scooter", "fusion_lon": 0.0, "bike_id": "05e3810a58ccf3928620266d068996bc", "is_disabled": 0, "lat": 38.910017833333335, "rental_uris": {"ios": "https://dc.lft.to/lastmile_qr_scan", "android": "https://dc.lft.to/lastmile_qr_scan"}, "is_reserved": 0, "lon": -77.040046, "fusion_lat": 0.0, "name": "05e3810a58ccf3928620266d068996bc"}, {"type": "electric_scooter", "fusion_lon": 0.0, "bike_id": "b7090593d6e25c526eac992a6bca8440", "is_disabled": 0, "lat": 38.92335666666666, "rental_uris": {"ios": "https://dc.lft.to/lastmile_qr_scan", "android": "https://dc.lft.to/lastmile_qr_scan"}, "is_reserved": 0, "lon": -77.04147216666667, "fusion_lat": 0.0, "name": "b7090593d6e25c526eac992a6bca8440"}, {"type": "electric_scooter", "fusion_lon": 0.0, "bike_id": "7c7cd775ca5440fb1fa92db07927b4c8", "is_disabled": 0, "lat": 38.90455983333333, "rental_uris": {"ios": "https://dc.lft.to/lastmile_qr_scan", "android": "https://dc.lft.to/lastmile_qr_scan"}, "is_reserved": 0, "lon": -76.98253066666666, "fusion_lat": 0.0, "name": "7c7cd775ca5440fb1fa92db07927b4c8"}, {"type": "electric_scooter", "fusion_lon": 0.0, "bike_id": "ff6253daabefa0b5e4f174afd5435459", "is_disabled": 0, "lat": 38.9097435, "rental_uris": {"ios": "https://dc.lft.to/lastmile_qr_scan", "android": "https://dc.lft.to/lastmile_qr_scan"}, "is_reserved": 0, "lon": -77.0335885, "fusion_lat": 0.0, "name": "ff6253daabefa0b5e4f174afd5435459"}, {"type": "electric_scooter", "fusion_lon": 0.0, "bike_id": "3359efeaf7d5669f5df1e2c09d61dd3c", "is_disabled": 0, "lat": 38.909415833333334, "rental_uris": {"ios": "https://dc.lft.to/lastmile_qr_scan", "android": "https://dc.lft.to/lastmile_qr_scan"}, "is_reserved": 0, "lon": -77.05558233333333, "fusion_lat": 0.0, "name": "3359efeaf7d5669f5df1e2c09d61dd3c"}, {"type": "electric_scooter", "fusion_lon": 0.0, "bike_id": "8988c7da07cbba6c2464eb6bef9b307d", "is_disabled": 0, "lat": 38.8968915, "rental_uris": {"ios": "https://dc.lft.to/lastmile_qr_scan", "android": "https://dc.lft.to/lastmile_qr_scan"}, "is_reserved": 0, "lon": -77.0432125, "fusion_lat": 0.0, "name": "8988c7da07cbba6c2464eb6bef9b307d"}, {"type": "electric_scooter", "fusion_lon": 0.0, "bike_id": "c2c355a1cfae6b2b3a9c6ee01cabbfe2", "is_disabled": 0, "lat": 38.89804216666667, "rental_uris": {"ios": "https://dc.lft.to/lastmile_qr_scan", "android": "https://dc.lft.to/lastmile_qr_scan"}, "is_reserved": 0, "lon": -76.97949866666667, "fusion_lat": 0.0, "name": "c2c355a1cfae6b2b3a9c6ee01cabbfe2"}, {"type": "electric_scooter", "fusion_lon": 0.0, "bike_id": "18ef61a3c6d90b5cba331befffa9d316", "is_disabled": 0, "lat": 38.90410766666667, "rental_uris": {"ios": "https://dc.lft.to/lastmile_qr_scan", "android": "https://dc.lft.to/lastmile_qr_scan"}, "is_reserved": 0, "lon": -77.029537, "fusion_lat": 0.0, "name": "18ef61a3c6d90b5cba331befffa9d316"}, {"type": "electric_scooter", "fusion_lon": 0.0, "bike_id": "16b57ea48051c0ac74e9c9f65580b3fa", "is_disabled": 0, "lat": 38.892481, "rental_uris": {"ios": "https://dc.lft.to/lastmile_qr_scan", "android": "https://dc.lft.to/lastmile_qr_scan"}, "is_reserved": 0, "lon": -77.03342166666667, "fusion_lat": 0.0, "name": "16b57ea48051c0ac74e9c9f65580b3fa"}, {"type": "electric_scooter", "fusion_lon": 0.0, "bike_id": "4bb3f5eca0c693e82a3cd47bb4772402", "is_disabled": 0, "lat": 38.90886183333333, "rental_uris": {"ios": "https://dc.lft.to/lastmile_qr_scan", "android": "https://dc.lft.to/lastmile_qr_scan"}, "is_reserved": 0, "lon": -77.04301733333334, "fusion_lat": 0.0, "name": "4bb3f5eca0c693e82a3cd47bb4772402"}, {"type": "electric_scooter", "fusion_lon": 0.0, "bike_id": "045df087d9e265c30f971e40fdd5714e", "is_disabled": 0, "lat": 38.87663166666667, "rental_uris": {"ios": "https://dc.lft.to/lastmile_qr_scan", "android": "https://dc.lft.to/lastmile_qr_scan"}, "is_reserved": 0, "lon": -77.00939716666667, "fusion_lat": 0.0, "name": "045df087d9e265c30f971e40fdd5714e"}, {"type": "electric_scooter", "fusion_lon": 0.0, "bike_id": "4a6fbe7c2350a81532fd52cfc2123732", "is_disabled": 0, "lat": 38.88036, "rental_uris": {"ios": "https://dc.lft.to/lastmile_qr_scan", "android": "https://dc.lft.to/lastmile_qr_scan"}, "is_reserved": 0, "lon": -76.98641, "fusion_lat": 0.0, "name": "4a6fbe7c2350a81532fd52cfc2123732"}, {"type": "electric_scooter", "fusion_lon": 0.0, "bike_id": "3465cefcf99c6b57831dee220ca70675", "is_disabled": 0, "lat": 38.929557, "rental_uris": {"ios": "https://dc.lft.to/lastmile_qr_scan", "android": "https://dc.lft.to/lastmile_qr_scan"}, "is_reserved": 0, "lon": -77.027596, "fusion_lat": 0.0, "name": "3465cefcf99c6b57831dee220ca70675"}, {"type": "electric_scooter", "fusion_lon": 0.0, "bike_id": "4ff6943f715a7ca78c8436148bdcb6a8", "is_disabled": 0, "lat": 38.92107933333333, "rental_uris": {"ios": "https://dc.lft.to/lastmile_qr_scan", "android": "https://dc.lft.to/lastmile_qr_scan"}, "is_reserved": 0, "lon": -77.04386183333334, "fusion_lat": 0.0, "name": "4ff6943f715a7ca78c8436148bdcb6a8"}, {"type": "electric_scooter", "fusion_lon": 0.0, "bike_id": "fe0809d6cf916426b3b27a8ab7b0bbb8", "is_disabled": 0, "lat": 38.899087333333334, "rental_uris": {"ios": "https://dc.lft.to/lastmile_qr_scan", "android": "https://dc.lft.to/lastmile_qr_scan"}, "is_reserved": 0, "lon": -76.9338605, "fusion_lat": 0.0, "name": "fe0809d6cf916426b3b27a8ab7b0bbb8"}, {"type": "electric_bike", "fusion_lon": 0.0, "bike_id": "f802fd3c9b34e58ee5ceb85863cfd9dc", "is_disabled": 0, "lat": 39.002857666666664, "rental_uris": {"ios": "https://dc.lft.to/lastmile_qr_scan", "android": "https://dc.lft.to/lastmile_qr_scan"}, "is_reserved": 0, "lon": -76.90303733333333, "fusion_lat": 0.0, "name": "f802fd3c9b34e58ee5ceb85863cfd9dc"}, {"type": "electric_scooter", "fusion_lon": 0.0, "bike_id": "afd2c3c131f4b602c9d179b5af46a408", "is_disabled": 0, "lat": 38.886011833333335, "rental_uris": {"ios": "https://dc.lft.to/lastmile_qr_scan", "android": "https://dc.lft.to/lastmile_qr_scan"}, "is_reserved": 0, "lon": -77.017958, "fusion_lat": 0.0, "name": "afd2c3c131f4b602c9d179b5af46a408"}, {"type": "electric_scooter", "fusion_lon": 0.0, "bike_id": "c48e5bc175747b225fe20817408d38a9", "is_disabled": 0, "lat": 38.894184833333334, "rental_uris": {"ios": "https://dc.lft.to/lastmile_qr_scan", "android": "https://dc.lft.to/lastmile_qr_scan"}, "is_reserved": 0, "lon": -76.999584, "fusion_lat": 0.0, "name": "c48e5bc175747b225fe20817408d38a9"}, {"type": "electric_scooter", "fusion_lon": 0.0, "bike_id": "5bf7121a2a8ff8dee1d00c14ca2c5544", "is_disabled": 0, "lat": 38.938274166666666, "rental_uris": {"ios": "https://dc.lft.to/lastmile_qr_scan", "android": "https://dc.lft.to/lastmile_qr_scan"}, "is_reserved": 0, "lon": -77.06177683333334, "fusion_lat": 0.0, "name": "5bf7121a2a8ff8dee1d00c14ca2c5544"}, {"type": "electric_bike", "fusion_lon": 0.0, "bike_id": "d71aec9b024a53fec3a6c581cd8b38b8", "is_disabled": 0, "lat": 38.81329266666667, "rental_uris": {"ios": "https://dc.lft.to/lastmile_qr_scan", "android": "https://dc.lft.to/lastmile_qr_scan"}, "is_reserved": 0, "lon": -77.050857, "fusion_lat": 0.0, "name": "d71aec9b024a53fec3a6c581cd8b38b8"}, {"type": "electric_scooter", "fusion_lon": 0.0, "bike_id": "43d0c344e3fd71a02bffe68696db8d92", "is_disabled": 0, "lat": 38.94510416666667, "rental_uris": {"ios": "https://dc.lft.to/lastmile_qr_scan", "android": "https://dc.lft.to/lastmile_qr_scan"}, "is_reserved": 0, "lon": -77.0336365, "fusion_lat": 0.0, "name": "43d0c344e3fd71a02bffe68696db8d92"}, {"type": "electric_scooter", "fusion_lon": 0.0, "bike_id": "1d281d462dcc291666dafb1e85f3b584", "is_disabled": 0, "lat": 38.876354666666664, "rental_uris": {"ios": "https://dc.lft.to/lastmile_qr_scan", "android": "https://dc.lft.to/lastmile_qr_scan"}, "is_reserved": 0, "lon": -77.01576583333333, "fusion_lat": 0.0, "name": "1d281d462dcc291666dafb1e85f3b584"}, {"type": "electric_scooter", "fusion_lon": 0.0, "bike_id": "c4ce4692349bba4cc4069929c7fcd579", "is_disabled": 0, "lat": 38.9124645, "rental_uris": {"ios": "https://dc.lft.to/lastmile_qr_scan", "android": "https://dc.lft.to/lastmile_qr_scan"}, "is_reserved": 0, "lon": -77.03637583333334, "fusion_lat": 0.0, "name": "c4ce4692349bba4cc4069929c7fcd579"}, {"type": "electric_scooter", "fusion_lon": 0.0, "bike_id": "7c188592fdb7ec4c8297fd07de6c5a8d", "is_disabled": 0, "lat": 38.926786666666665, "rental_uris": {"ios": "https://dc.lft.to/lastmile_qr_scan", "android": "https://dc.lft.to/lastmile_qr_scan"}, "is_reserved": 0, "lon": -77.02789616666666, "fusion_lat": 0.0, "name": "7c188592fdb7ec4c8297fd07de6c5a8d"}, {"type": "electric_bike", "fusion_lon": 0.0, "bike_id": "a442fcadf4fde5eaa5f0a7147a900052", "is_disabled": 0, "lat": 38.784698166666665, "rental_uris": {"ios": "https://dc.lft.to/lastmile_qr_scan", "android": "https://dc.lft.to/lastmile_qr_scan"}, "is_reserved": 0, "lon": -77.01643266666666, "fusion_lat": 0.0, "name": "a442fcadf4fde5eaa5f0a7147a900052"}, {"type": "electric_scooter", "fusion_lon": 0.0, "bike_id": "436c532f9ae61c0d2ae6f6abb02e430c", "is_disabled": 0, "lat": 38.86029516666667, "rental_uris": {"ios": "https://dc.lft.to/lastmile_qr_scan", "android": "https://dc.lft.to/lastmile_qr_scan"}, "is_reserved": 0, "lon": -76.97002416666666, "fusion_lat": 0.0, "name": "436c532f9ae61c0d2ae6f6abb02e430c"}, {"type": "electric_bike", "fusion_lon": 0.0, "bike_id": "b724e53fee24a8be450bc242278f46a6", "is_disabled": 0, "lat": 38.967842166666664, "rental_uris": {"ios": "https://dc.lft.to/lastmile_qr_scan", "android": "https://dc.lft.to/lastmile_qr_scan"}, "is_reserved": 0, "lon": -76.96267766666666, "fusion_lat": 0.0, "name": "b724e53fee24a8be450bc242278f46a6"}, {"type": "electric_bike", "fusion_lon": 0.0, "bike_id": "2ed14c274ce2f181efc5edef3ae53d45", "is_disabled": 0, "lat": 38.94477066666666, "rental_uris": {"ios": "https://dc.lft.to/lastmile_qr_scan", "android": "https://dc.lft.to/lastmile_qr_scan"}, "is_reserved": 0, "lon": -76.986841, "fusion_lat": 0.0, "name": "2ed14c274ce2f181efc5edef3ae53d45"}, {"type": "electric_bike", "fusion_lon": 0.0, "bike_id": "12f199be4a851171b66033ca940929e7", "is_disabled": 0, "lat": 38.8985285, "rental_uris": {"ios": "https://dc.lft.to/lastmile_qr_scan", "android": "https://dc.lft.to/lastmile_qr_scan"}, "is_reserved": 0, "lon": -76.93188766666667, "fusion_lat": 0.0, "name": "12f199be4a851171b66033ca940929e7"}, {"type": "electric_scooter", "fusion_lon": 0.0, "bike_id": "dbbf1fc5ce28c1aa91f872651ca1cf5c", "is_disabled": 0, "lat": 38.89943316666667, "rental_uris": {"ios": "https://dc.lft.to/lastmile_qr_scan", "android": "https://dc.lft.to/lastmile_qr_scan"}, "is_reserved": 0, "lon": -76.99736066666667, "fusion_lat": 0.0, "name": "dbbf1fc5ce28c1aa91f872651ca1cf5c"}, {"type": "electric_scooter", "fusion_lon": 0.0, "bike_id": "1d99bd48523e64ee51ca220ffee48c01", "is_disabled": 0, "lat": 38.895698833333334, "rental_uris": {"ios": "https://dc.lft.to/lastmile_qr_scan", "android": "https://dc.lft.to/lastmile_qr_scan"}, "is_reserved": 0, "lon": -77.029868, "fusion_lat": 0.0, "name": "1d99bd48523e64ee51ca220ffee48c01"}, {"type": "electric_scooter", "fusion_lon": 0.0, "bike_id": "17814e64b1a6abf5c750378236abd240", "is_disabled": 0, "lat": 38.90566116666667, "rental_uris": {"ios": "https://dc.lft.to/lastmile_qr_scan", "android": "https://dc.lft.to/lastmile_qr_scan"}, "is_reserved": 0, "lon": -77.04320066666666, "fusion_lat": 0.0, "name": "17814e64b1a6abf5c750378236abd240"}, {"type": "electric_scooter", "fusion_lon": 0.0, "bike_id": "5755910c59df758e04f04961e4c87457", "is_disabled": 0, "lat": 38.9182795, "rental_uris": {"ios": "https://dc.lft.to/lastmile_qr_scan", "android": "https://dc.lft.to/lastmile_qr_scan"}, "is_reserved": 0, "lon": -77.0451805, "fusion_lat": 0.0, "name": "5755910c59df758e04f04961e4c87457"}, {"type": "electric_scooter", "fusion_lon": 0.0, "bike_id": "b701fae2a205ba8cbacbf8f735cb4b1b", "is_disabled": 0, "lat": 38.903689, "rental_uris": {"ios": "https://dc.lft.to/lastmile_qr_scan", "android": "https://dc.lft.to/lastmile_qr_scan"}, "is_reserved": 0, "lon": -77.00344766666667, "fusion_lat": 0.0, "name": "b701fae2a205ba8cbacbf8f735cb4b1b"}, {"type": "electric_scooter", "fusion_lon": 0.0, "bike_id": "a706ac30b0585369e81bcfb01a2718c1", "is_disabled": 0, "lat": 38.90470216666667, "rental_uris": {"ios": "https://dc.lft.to/lastmile_qr_scan", "android": "https://dc.lft.to/lastmile_qr_scan"}, "is_reserved": 0, "lon": -77.06597, "fusion_lat": 0.0, "name": "a706ac30b0585369e81bcfb01a2718c1"}, {"type": "electric_scooter", "fusion_lon": 0.0, "bike_id": "f0eb8bc04fbe151d0db506f4c49fafb9", "is_disabled": 0, "lat": 38.930182, "rental_uris": {"ios": "https://dc.lft.to/lastmile_qr_scan", "android": "https://dc.lft.to/lastmile_qr_scan"}, "is_reserved": 0, "lon": -77.02792966666667, "fusion_lat": 0.0, "name": "f0eb8bc04fbe151d0db506f4c49fafb9"}, {"type": "electric_scooter", "fusion_lon": 0.0, "bike_id": "e8b7ce9eca6666de826eda0cc3429eaa", "is_disabled": 0, "lat": 38.892232, "rental_uris": {"ios": "https://dc.lft.to/lastmile_qr_scan", "android": "https://dc.lft.to/lastmile_qr_scan"}, "is_reserved": 0, "lon": -77.0450425, "fusion_lat": 0.0, "name": "e8b7ce9eca6666de826eda0cc3429eaa"}, {"type": "electric_scooter", "fusion_lon": 0.0, "bike_id": "9ecf14b5dce2afdca35fbe8e28dc7d1c", "is_disabled": 0, "lat": 38.895454666666666, "rental_uris": {"ios": "https://dc.lft.to/lastmile_qr_scan", "android": "https://dc.lft.to/lastmile_qr_scan"}, "is_reserved": 0, "lon": -76.983339, "fusion_lat": 0.0, "name": "9ecf14b5dce2afdca35fbe8e28dc7d1c"}, {"type": "electric_scooter", "fusion_lon": 0.0, "bike_id": "5d0a0d637ffe55a8bc8cf3dcf8e3cac3", "is_disabled": 0, "lat": 38.908749, "rental_uris": {"ios": "https://dc.lft.to/lastmile_qr_scan", "android": "https://dc.lft.to/lastmile_qr_scan"}, "is_reserved": 0, "lon": -77.0188625, "fusion_lat": 0.0, "name": "5d0a0d637ffe55a8bc8cf3dcf8e3cac3"}, {"type": "electric_bike", "fusion_lon": 0.0, "bike_id": "93ee6a9cf389f509114afb03326d3805", "is_disabled": 0, "lat": 38.972589166666666, "rental_uris": {"ios": "https://dc.lft.to/lastmile_qr_scan", "android": "https://dc.lft.to/lastmile_qr_scan"}, "is_reserved": 0, "lon": -76.99277966666666, "fusion_lat": 0.0, "name": "93ee6a9cf389f509114afb03326d3805"}, {"type": "electric_scooter", "fusion_lon": 0.0, "bike_id": "b69daac741e2ac86851ab4529ba44d25", "is_disabled": 0, "lat": 38.89221633333333, "rental_uris": {"ios": "https://dc.lft.to/lastmile_qr_scan", "android": "https://dc.lft.to/lastmile_qr_scan"}, "is_reserved": 0, "lon": -77.02627416666667, "fusion_lat": 0.0, "name": "b69daac741e2ac86851ab4529ba44d25"}, {"type": "electric_scooter", "fusion_lon": 0.0, "bike_id": "85a31a123970bfbe8c5e511152bdb1a9", "is_disabled": 0, "lat": 38.91259483333333, "rental_uris": {"ios": "https://dc.lft.to/lastmile_qr_scan", "android": "https://dc.lft.to/lastmile_qr_scan"}, "is_reserved": 0, "lon": -77.038284, "fusion_lat": 0.0, "name": "85a31a123970bfbe8c5e511152bdb1a9"}, {"type": "electric_bike", "fusion_lon": 0.0, "bike_id": "5104d0f5da996403399a655bcb6042e6", "is_disabled": 0, "lat": 38.83849883333333, "rental_uris": {"ios": "https://dc.lft.to/lastmile_qr_scan", "android": "https://dc.lft.to/lastmile_qr_scan"}, "is_reserved": 0, "lon": -76.99725033333333, "fusion_lat": 0.0, "name": "5104d0f5da996403399a655bcb6042e6"}, {"type": "electric_scooter", "fusion_lon": 0.0, "bike_id": "15c9471b480d7c8d870d2d3bd100082f", "is_disabled": 0, "lat": 38.879908, "rental_uris": {"ios": "https://dc.lft.to/lastmile_qr_scan", "android": "https://dc.lft.to/lastmile_qr_scan"}, "is_reserved": 0, "lon": -76.9870735, "fusion_lat": 0.0, "name": "15c9471b480d7c8d870d2d3bd100082f"}, {"type": "electric_bike", "fusion_lon": 0.0, "bike_id": "df49ef86471eb4d75a83046ce9c020f9", "is_disabled": 0, "lat": 38.857717666666666, "rental_uris": {"ios": "https://dc.lft.to/lastmile_qr_scan", "android": "https://dc.lft.to/lastmile_qr_scan"}, "is_reserved": 0, "lon": -76.9876875, "fusion_lat": 0.0, "name": "df49ef86471eb4d75a83046ce9c020f9"}, {"type": "electric_scooter", "fusion_lon": 0.0, "bike_id": "b6b305fb08ca573fec0cbe9ec1032fd1", "is_disabled": 0, "lat": 38.896754666666666, "rental_uris": {"ios": "https://dc.lft.to/lastmile_qr_scan", "android": "https://dc.lft.to/lastmile_qr_scan"}, "is_reserved": 0, "lon": -77.0517625, "fusion_lat": 0.0, "name": "b6b305fb08ca573fec0cbe9ec1032fd1"}, {"type": "electric_scooter", "fusion_lon": 0.0, "bike_id": "7f61bfce76143c72267b1c2c93ab245e", "is_disabled": 0, "lat": 38.90263933333333, "rental_uris": {"ios": "https://dc.lft.to/lastmile_qr_scan", "android": "https://dc.lft.to/lastmile_qr_scan"}, "is_reserved": 0, "lon": -77.0373485, "fusion_lat": 0.0, "name": "7f61bfce76143c72267b1c2c93ab245e"}, {"type": "electric_scooter", "fusion_lon": 0.0, "bike_id": "8f6a70ac9193c5cd812e436f66366859", "is_disabled": 0, "lat": 38.91879633333333, "rental_uris": {"ios": "https://dc.lft.to/lastmile_qr_scan", "android": "https://dc.lft.to/lastmile_qr_scan"}, "is_reserved": 0, "lon": -77.0247685, "fusion_lat": 0.0, "name": "8f6a70ac9193c5cd812e436f66366859"}, {"type": "electric_scooter", "fusion_lon": 0.0, "bike_id": "85474804462e3f6b6e3f7d2a3d441eb0", "is_disabled": 0, "lat": 38.92313433333333, "rental_uris": {"ios": "https://dc.lft.to/lastmile_qr_scan", "android": "https://dc.lft.to/lastmile_qr_scan"}, "is_reserved": 0, "lon": -77.0380525, "fusion_lat": 0.0, "name": "85474804462e3f6b6e3f7d2a3d441eb0"}, {"type": "electric_scooter", "fusion_lon": 0.0, "bike_id": "bd3f7982d74477a0476ed0da21a65668", "is_disabled": 0, "lat": 38.89992133333333, "rental_uris": {"ios": "https://dc.lft.to/lastmile_qr_scan", "android": "https://dc.lft.to/lastmile_qr_scan"}, "is_reserved": 0, "lon": -77.02163933333334, "fusion_lat": 0.0, "name": "bd3f7982d74477a0476ed0da21a65668"}, {"type": "electric_scooter", "fusion_lon": 0.0, "bike_id": "904484b478792f953eef6e0618b98408", "is_disabled": 0, "lat": 38.92331166666666, "rental_uris": {"ios": "https://dc.lft.to/lastmile_qr_scan", "android": "https://dc.lft.to/lastmile_qr_scan"}, "is_reserved": 0, "lon": -77.00050983333334, "fusion_lat": 0.0, "name": "904484b478792f953eef6e0618b98408"}, {"type": "electric_scooter", "fusion_lon": 0.0, "bike_id": "0dcba75e29d36104f59f43d9ab3bda02", "is_disabled": 0, "lat": 38.93065516666667, "rental_uris": {"ios": "https://dc.lft.to/lastmile_qr_scan", "android": "https://dc.lft.to/lastmile_qr_scan"}, "is_reserved": 0, "lon": -77.03211183333333, "fusion_lat": 0.0, "name": "0dcba75e29d36104f59f43d9ab3bda02"}, {"type": "electric_scooter", "fusion_lon": 0.0, "bike_id": "4b89ee99b5343a8b1839bef698f2fdf8", "is_disabled": 0, "lat": 38.917122166666665, "rental_uris": {"ios": "https://dc.lft.to/lastmile_qr_scan", "android": "https://dc.lft.to/lastmile_qr_scan"}, "is_reserved": 0, "lon": -77.034744, "fusion_lat": 0.0, "name": "4b89ee99b5343a8b1839bef698f2fdf8"}, {"type": "electric_scooter", "fusion_lon": 0.0, "bike_id": "133edacb114330e9fc19b40d61d087b3", "is_disabled": 0, "lat": 38.90005333333333, "rental_uris": {"ios": "https://dc.lft.to/lastmile_qr_scan", "android": "https://dc.lft.to/lastmile_qr_scan"}, "is_reserved": 0, "lon": -77.04826083333333, "fusion_lat": 0.0, "name": "133edacb114330e9fc19b40d61d087b3"}, {"type": "electric_scooter", "fusion_lon": 0.0, "bike_id": "f170e92b05a636fda75f70210794eade", "is_disabled": 0, "lat": 38.91953433333333, "rental_uris": {"ios": "https://dc.lft.to/lastmile_qr_scan", "android": "https://dc.lft.to/lastmile_qr_scan"}, "is_reserved": 0, "lon": -77.0418115, "fusion_lat": 0.0, "name": "f170e92b05a636fda75f70210794eade"}, {"type": "electric_scooter", "fusion_lon": 0.0, "bike_id": "b160b85a31710690b9df2813eafc6258", "is_disabled": 0, "lat": 38.899551833333334, "rental_uris": {"ios": "https://dc.lft.to/lastmile_qr_scan", "android": "https://dc.lft.to/lastmile_qr_scan"}, "is_reserved": 0, "lon": -77.01621166666666, "fusion_lat": 0.0, "name": "b160b85a31710690b9df2813eafc6258"}, {"type": "electric_scooter", "fusion_lon": 0.0, "bike_id": "8b496dc0f9b1bedb53694ebade5d7d99", "is_disabled": 0, "lat": 38.7960925, "rental_uris": {"ios": "https://dc.lft.to/lastmile_qr_scan", "android": "https://dc.lft.to/lastmile_qr_scan"}, "is_reserved": 0, "lon": -77.07494533333333, "fusion_lat": 0.0, "name": "8b496dc0f9b1bedb53694ebade5d7d99"}, {"type": "electric_scooter", "fusion_lon": 0.0, "bike_id": "c77b22b8f2e53e828cebbacad50d8331", "is_disabled": 0, "lat": 38.877550166666666, "rental_uris": {"ios": "https://dc.lft.to/lastmile_qr_scan", "android": "https://dc.lft.to/lastmile_qr_scan"}, "is_reserved": 0, "lon": -77.00676216666666, "fusion_lat": 0.0, "name": "c77b22b8f2e53e828cebbacad50d8331"}, {"type": "electric_scooter", "fusion_lon": 0.0, "bike_id": "43e66d7174f52e74f61680c34d83bf1a", "is_disabled": 0, "lat": 38.92631516666667, "rental_uris": {"ios": "https://dc.lft.to/lastmile_qr_scan", "android": "https://dc.lft.to/lastmile_qr_scan"}, "is_reserved": 0, "lon": -77.03467566666667, "fusion_lat": 0.0, "name": "43e66d7174f52e74f61680c34d83bf1a"}, {"type": "electric_scooter", "fusion_lon": 0.0, "bike_id": "f27659716af3ec9812acc2ff0a0b2b8a", "is_disabled": 0, "lat": 38.93716383333334, "rental_uris": {"ios": "https://dc.lft.to/lastmile_qr_scan", "android": "https://dc.lft.to/lastmile_qr_scan"}, "is_reserved": 0, "lon": -77.02446216666667, "fusion_lat": 0.0, "name": "f27659716af3ec9812acc2ff0a0b2b8a"}, {"type": "electric_scooter", "fusion_lon": 0.0, "bike_id": "b5e94a7eda8352215e73270829886df8", "is_disabled": 0, "lat": 38.92090016666667, "rental_uris": {"ios": "https://dc.lft.to/lastmile_qr_scan", "android": "https://dc.lft.to/lastmile_qr_scan"}, "is_reserved": 0, "lon": -77.04691033333333, "fusion_lat": 0.0, "name": "b5e94a7eda8352215e73270829886df8"}, {"type": "electric_scooter", "fusion_lon": 0.0, "bike_id": "5d72ab0f56de31c6dfbbd6b2b72cfb74", "is_disabled": 0, "lat": 38.91262233333333, "rental_uris": {"ios": "https://dc.lft.to/lastmile_qr_scan", "android": "https://dc.lft.to/lastmile_qr_scan"}, "is_reserved": 0, "lon": -77.00663866666666, "fusion_lat": 0.0, "name": "5d72ab0f56de31c6dfbbd6b2b72cfb74"}, {"type": "electric_scooter", "fusion_lon": 0.0, "bike_id": "a30f097f628a7836fff55812d01ce432", "is_disabled": 0, "lat": 38.87834766666667, "rental_uris": {"ios": "https://dc.lft.to/lastmile_qr_scan", "android": "https://dc.lft.to/lastmile_qr_scan"}, "is_reserved": 0, "lon": -77.0003395, "fusion_lat": 0.0, "name": "a30f097f628a7836fff55812d01ce432"}, {"type": "electric_bike", "fusion_lon": 0.0, "bike_id": "be3bfc1e48b9412bc3a64462d2e31f0f", "is_disabled": 0, "lat": 38.87578633333333, "rental_uris": {"ios": "https://dc.lft.to/lastmile_qr_scan", "android": "https://dc.lft.to/lastmile_qr_scan"}, "is_reserved": 0, "lon": -77.23410383333334, "fusion_lat": 0.0, "name": "be3bfc1e48b9412bc3a64462d2e31f0f"}, {"type": "electric_scooter", "fusion_lon": 0.0, "bike_id": "a1c0cf226c0bbc59b42a48ddf5d94282", "is_disabled": 0, "lat": 38.899441833333334, "rental_uris": {"ios": "https://dc.lft.to/lastmile_qr_scan", "android": "https://dc.lft.to/lastmile_qr_scan"}, "is_reserved": 0, "lon": -77.04123133333333, "fusion_lat": 0.0, "name": "a1c0cf226c0bbc59b42a48ddf5d94282"},