{"data": {"bikes": [{"bike_id": "60a6c72e11fa956a1c9c5734b4dfbc0e", "fusion_lon": 0.0, "lon": -76.98832116666667, "name": "60a6c72e11fa956a1c9c5734b4dfbc0e", "is_disabled": 0, "rental_uris": {"android": "https://dc.lft.to/lastmile_qr_scan", "ios": "https://dc.lft.to/lastmile_qr_scan"}, "type": "electric_scooter", "lat": 38.89251183333333, "is_reserved": 0, "fusion_lat": 0.0}, {"bike_id": "9446eb74236b0e9c40cd0baa3feb0f44", "fusion_lon": 0.0, "lon": -76.98712366666666, "name": "9446eb74236b0e9c40cd0baa3feb0f44", "is_disabled": 0, "rental_uris": {"android": "https://dc.lft.to/lastmile_qr_scan", "ios": "https://dc.lft.to/lastmile_qr_scan"}, "type": "electric_scooter", "lat": 38.86698616666666, "is_reserved": 0, "fusion_lat": 0.0}, {"bike_id": "6e26b56e1eda53efab5dc28d98f38cdd", "fusion_lon": 0.0, "lon": -77.02348483333333, "name": "6e26b56e1eda53efab5dc28d98f38cdd", "is_disabled": 0, "rental_uris": {"android": "https://dc.lft.to/lastmile_qr_scan", "ios": "https://dc.lft.to/lastmile_qr_scan"}, "type": "electric_scooter", "lat": 38.94613783333333, "is_reserved": 0, "fusion_lat": 0.0}, {"bike_id": "491799b97e9d227d4a9a0947b36cea22", "fusion_lon": 0.0, "lon": -77.02523566666666, "name": "491799b97e9d227d4a9a0947b36cea22", "is_disabled": 0, "rental_uris": {"android": "https://dc.lft.to/lastmile_qr_scan", "ios": "https://dc.lft.to/lastmile_qr_scan"}, "type": "electric_scooter", "lat": 38.90410633333333, "is_reserved": 0, "fusion_lat": 0.0}, {"bike_id": "e94387432e3d0a3337778825570a725d", "fusion_lon": 0.0, "lon": -77.02977966666667, "name": "e94387432e3d0a3337778825570a725d", "is_disabled": 0, "rental_uris": {"android": "https://dc.lft.to/lastmile_qr_scan", "ios": "https://dc.lft.to/lastmile_qr_scan"}, "type": "electric_scooter", "lat": 38.934483, "is_reserved": 0, "fusion_lat": 0.0}, {"bike_id": "345d990d2f5da0f4c21fd11f3210fc8b", "fusion_lon": 0.0, "lon": -77.0242675, "name": "345d990d2f5da0f4c21fd11f3210fc8b", "is_disabled": 0, "rental_uris": {"android": "https://dc.lft.to/lastmile_qr_scan", "ios": "https://dc.lft.to/lastmile_qr_scan"}, "type": "electric_scooter", "lat": 38.92112766666666, "is_reserved": 0, "fusion_lat": 0.0}, {"bike_id": "e118728a6f83e9e6c3f0e1db284ead41", "fusion_lon": 0.0, "lon": -77.0205185, "name": "e118728a6f83e9e6c3f0e1db284ead41", "is_disabled": 0, "rental_uris": {"android": "https://dc.lft.to/lastmile_qr_scan", "ios": "https://dc.lft.to/lastmile_qr_scan"}, "type": "electric_scooter", "lat": 38.9141745, "is_reserved": 0, "fusion_lat": 0.0}, {"bike_id": "5b1f14dbf6d6405f687abf8d295a05e2", "fusion_lon": 0.0, "lon": -77.04195916666667, "name": "5b1f14dbf6d6405f687abf8d295a05e2", "is_disabled": 0, "rental_uris": {"android": "https://dc.lft.to/lastmile_qr_scan", "ios": "https://dc.lft.to/lastmile_qr_scan"}, "type": "electric_scooter", "lat": 38.918801333333334, "is_reserved": 0, "fusion_lat": 0.0}, {"bike_id": "a8d55951971dc63d3988e69843247383", "fusion_lon": 0.0, "lon": -77.01460583333333, "name": "a8d55951971dc63d3988e69843247383", "is_disabled": 0, "rental_uris": {"android": "https://dc.lft.to/lastmile_qr_scan", "ios": "https://dc.lft.to/lastmile_qr_scan"}, "type": "electric_scooter", "lat": 38.918195, "is_reserved": 0, "fusion_lat": 0.0}, {"bike_id": "0ddb868391c8d111f7957b3404c35839", "fusion_lon": 0.0, "lon": -77.02727316666666, "name": "0ddb868391c8d111f7957b3404c35839", "is_disabled": 0, "rental_uris": {"android": "https://dc.lft.to/lastmile_qr_scan", "ios": "https://dc.lft.to/lastmile_qr_scan"}, "type": "electric_scooter", "lat": 38.9067405, "is_reserved": 0, "fusion_lat": 0.0}, {"bike_id": "9047fe635af926801c9234a5bfac07db", "fusion_lon": 0.0, "lon": -77.03267533333333, "name": "9047fe635af926801c9234a5bfac07db", "is_disabled": 0, "rental_uris": {"android": "https://dc.lft.to/lastmile_qr_scan", "ios": "https://dc.lft.to/lastmile_qr_scan"}, "type": "electric_scooter", "lat": 38.914044, "is_reserved": 0, "fusion_lat": 0.0}, {"bike_id": "4ec48cbc40a91cf8b821210a0192b218", "fusion_lon": 0.0, "lon": -77.07719783333333, "name": "4ec48cbc40a91cf8b821210a0192b218", "is_disabled": 0, "rental_uris": {"android": "https://dc.lft.to/lastmile_qr_scan", "ios": "https://dc.lft.to/lastmile_qr_scan"}, "type": "electric_scooter", "lat": 38.95769083333333, "is_reserved": 0, "fusion_lat": 0.0}, {"bike_id": "d043dc452193441466e2063de2974b29", "fusion_lon": 0.0, "lon": -77.03901583333334, "name": "d043dc452193441466e2063de2974b29", "is_disabled": 0, "rental_uris": {"android": "https://dc.lft.to/lastmile_qr_scan", "ios": "https://dc.lft.to/lastmile_qr_scan"}, "type": "electric_scooter", "lat": 38.922022, "is_reserved": 0, "fusion_lat": 0.0}, {"bike_id": "845a77f7a17877172bd8f600088a571c", "fusion_lon": 0.0, "lon": -77.00206583333333, "name": "845a77f7a17877172bd8f600088a571c", "is_disabled": 0, "rental_uris": {"android": "https://dc.lft.to/lastmile_qr_scan", "ios": "https://dc.lft.to/lastmile_qr_scan"}, "type": "electric_scooter", "lat": 38.9007385, "is_reserved": 0, "fusion_lat": 0.0}, {"bike_id": "74f393bca9c6e70e5c9ae615c249752d", "fusion_lon": 0.0, "lon": -77.03870066666667, "name": "74f393bca9c6e70e5c9ae615c249752d", "is_disabled": 0, "rental_uris": {"android": "https://dc.lft.to/lastmile_qr_scan", "ios": "https://dc.lft.to/lastmile_qr_scan"}, "type": "electric_scooter", "lat": 38.932426666666665, "is_reserved": 0, "fusion_lat": 0.0}, {"bike_id": "dc88e0128a47f23fca236aebcd72e6ca", "fusion_lon": 0.0, "lon": -77.008397, "name": "dc88e0128a47f23fca236aebcd72e6ca", "is_disabled": 0, "rental_uris": {"android": "https://dc.lft.to/lastmile_qr_scan", "ios": "https://dc.lft.to/lastmile_qr_scan"}, "type": "electric_bike", "lat": 38.8290585, "is_reserved": 0, "fusion_lat": 0.0}, {"bike_id": "7574574fc3275ef6d8778d8a91293d9c", "fusion_lon": 0.0, "lon": -77.041871, "name": "7574574fc3275ef6d8778d8a91293d9c", "is_disabled": 0, "rental_uris": {"android": "https://dc.lft.to/lastmile_qr_scan", "ios": "https://dc.lft.to/lastmile_qr_scan"}, "type": "electric_scooter", "lat": 38.92022566666667, "is_reserved": 0, "fusion_lat": 0.0}, {"bike_id": "11d4cf70d4260e2a0c74225359da351f", "fusion_lon": 0.0, "lon": -77.01758816666667, "name": "11d4cf70d4260e2a0c74225359da351f", "is_disabled": 0, "rental_uris": {"android": "https://dc.lft.to/lastmile_qr_scan", "ios": "https://dc.lft.to/lastmile_qr_scan"}, "type": "electric_scooter", "lat": 38.90244766666667, "is_reserved": 0, "fusion_lat": 0.0}, {"bike_id": "1548e16354e237178ede31d65245622c", "fusion_lon": 0.0, "lon": -77.04044766666667, "name": "1548e16354e237178ede31d65245622c", "is_disabled": 0, "rental_uris": {"android": "https://dc.lft.to/lastmile_qr_scan", "ios": "https://dc.lft.to/lastmile_qr_scan"}, "type": "electric_scooter", "lat": 38.89081983333333, "is_reserved": 0, "fusion_lat": 0.0}, {"bike_id": "9fc6dc2ac27a1f1075f2f510adba0139", "fusion_lon": 0.0, "lon": -76.99488466666666, "name": "9fc6dc2ac27a1f1075f2f510adba0139", "is_disabled": 0, "rental_uris": {"android": "https://dc.lft.to/lastmile_qr_scan", "ios": "https://dc.lft.to/lastmile_qr_scan"}, "type": "electric_scooter", "lat": 38.90983966666667, "is_reserved": 0, "fusion_lat": 0.0}, {"bike_id": "d55519156aa83d18729646735dd9c076", "fusion_lon": 0.0, "lon": -76.97746433333333, "name": "d55519156aa83d18729646735dd9c076", "is_disabled": 0, "rental_uris": {"android": "https://dc.lft.to/lastmile_qr_scan", "ios": "https://dc.lft.to/lastmile_qr_scan"}, "type": "electric_bike", "lat": 38.864902, "is_reserved": 0, "fusion_lat": 0.0}, {"bike_id": "b9407097b1f69115609cd3c93ca737f9", "fusion_lon": 0.0, "lon": -77.02796483333333, "name": "b9407097b1f69115609cd3c93ca737f9", "is_disabled": 0, "rental_uris": {"android": "https://dc.lft.to/lastmile_qr_scan", "ios": "https://dc.lft.to/lastmile_qr_scan"}, "type": "electric_scooter", "lat": 38.9297045, "is_reserved": 0, "fusion_lat": 0.0}, {"bike_id": "7317309c826880b28f9519995a5bfb68", "fusion_lon": 0.0, "lon": -76.977209, "name": "7317309c826880b28f9519995a5bfb68", "is_disabled": 0, "rental_uris": {"android": "https://dc.lft.to/lastmile_qr_scan", "ios": "https://dc.lft.to/lastmile_qr_scan"}, "type": "electric_scooter", "lat": 38.8724685, "is_reserved": 0, "fusion_lat": 0.0}, {"bike_id": "171970325a6cb26fcc3ee3e4a00b93c7", "fusion_lon": 0.0, "lon": -77.032654, "name": "171970325a6cb26fcc3ee3e4a00b93c7", "is_disabled": 0, "rental_uris": {"android": "https://dc.lft.to/lastmile_qr_scan", "ios": "https://dc.lft.to/lastmile_qr_scan"}, "type": "electric_scooter", "lat": 38.93306883333333, "is_reserved": 0, "fusion_lat": 0.0}, {"bike_id": "f3d6fbc1bb4eecd2c9a5ce89a0e29231", "fusion_lon": 0.0, "lon": -76.979707, "name": "f3d6fbc1bb4eecd2c9a5ce89a0e29231", "is_disabled": 0, "rental_uris": {"android": "https://dc.lft.to/lastmile_qr_scan", "ios": "https://dc.lft.to/lastmile_qr_scan"}, "type": "electric_bike", "lat": 38.9537045, "is_reserved": 0, "fusion_lat": 0.0}, {"bike_id": "c9b19a0f0af48639cd17e020dca99968", "fusion_lon": 0.0, "lon": -77.043587, "name": "c9b19a0f0af48639cd17e020dca99968", "is_disabled": 0, "rental_uris": {"android": "https://dc.lft.to/lastmile_qr_scan", "ios": "https://dc.lft.to/lastmile_qr_scan"}, "type": "electric_scooter", "lat": 38.902635833333335, "is_reserved": 0, "fusion_lat": 0.0}, {"bike_id": "d51f62cac8c5bb9c8b42dd138f02d072", "fusion_lon": 0.0, "lon": -77.04169533333334, "name": "d51f62cac8c5bb9c8b42dd138f02d072", "is_disabled": 0, "rental_uris": {"android": "https://dc.lft.to/lastmile_qr_scan", "ios": "https://dc.lft.to/lastmile_qr_scan"}, "type": "electric_scooter", "lat": 38.912300333333334, "is_reserved": 0, "fusion_lat": 0.0}, {"bike_id": "2d02d256d6a2642d6af9831dd8fedfec", "fusion_lon": 0.0, "lon": -77.02718766666666, "name": "2d02d256d6a2642d6af9831dd8fedfec", "is_disabled": 0, "rental_uris": {"android": "https://dc.lft.to/lastmile_qr_scan", "ios": "https://dc.lft.to/lastmile_qr_scan"}, "type": "electric_scooter", "lat": 38.94955983333333, "is_reserved": 0, "fusion_lat": 0.0}, {"bike_id": "90dfaf93a4e45d4f5c72190f935fc47d", "fusion_lon": 0.0, "lon": -77.0086145, "name": "90dfaf93a4e45d4f5c72190f935fc47d", "is_disabled": 0, "rental_uris": {"android": "https://dc.lft.to/lastmile_qr_scan", "ios": "https://dc.lft.to/lastmile_qr_scan"}, "type": "electric_scooter", "lat": 38.87940733333333, "is_reserved": 0, "fusion_lat": 0.0}, {"bike_id": "653b8d5e47cc6a7a03a9d1a6a51f3e6b", "fusion_lon": 0.0, "lon": -77.0265895, "name": "653b8d5e47cc6a7a03a9d1a6a51f3e6b", "is_disabled": 0, "rental_uris": {"android": "https://dc.lft.to/lastmile_qr_scan", "ios": "https://dc.lft.to/lastmile_qr_scan"}, "type": "electric_scooter", "lat": 38.93098883333333, "is_reserved": 0, "fusion_lat": 0.0}, {"bike_id": "ae807cce69fa9bb4a99912a002b75d77", "fusion_lon": 0.0, "lon": -77.02961916666666, "name": "ae807cce69fa9bb4a99912a002b75d77", "is_disabled": 0, "rental_uris": {"android": "https://dc.lft.to/lastmile_qr_scan", "ios": "https://dc.lft.to/lastmile_qr_scan"}, "type": "electric_scooter", "lat": 38.9232895, "is_reserved": 0, "fusion_lat": 0.0}, {"bike_id": "fbd5246453fd369ed4c9eb059d27639c", "fusion_lon": 0.0, "lon": -77.0307785, "name": "fbd5246453fd369ed4c9eb059d27639c", "is_disabled": 0, "rental_uris": {"android": "https://dc.lft.to/lastmile_qr_scan", "ios": "https://dc.lft.to/lastmile_qr_scan"}, "type": "electric_scooter", "lat": 38.917573833333336, "is_reserved": 0, "fusion_lat": 0.0}, {"bike_id": "dbc3e16ff89dd09bb6dd66a8f45cb156", "fusion_lon": 0.0, "lon": -77.038487, "name": "dbc3e16ff89dd09bb6dd66a8f45cb156", "is_disabled": 0, "rental_uris": {"android": "https://dc.lft.to/lastmile_qr_scan", "ios": "https://dc.lft.to/lastmile_qr_scan"}, "type": "electric_scooter", "lat": 38.910886166666664, "is_reserved": 0, "fusion_lat": 0.0}, {"bike_id": "48c87317940eba62d3fc3e654b8a2660", "fusion_lon": 0.0, "lon": -76.99705983333334, "name": "48c87317940eba62d3fc3e654b8a2660", "is_disabled": 0, "rental_uris": {"android": "https://dc.lft.to/lastmile_qr_scan", "ios": "https://dc.lft.to/lastmile_qr_scan"}, "type": "electric_bike", "lat": 38.91131383333333, "is_reserved": 0, "fusion_lat": 0.0}, {"bike_id": "d7b8fe09d8ea5738425d248e5058b6f4", "fusion_lon": 0.0, "lon": -77.04162766666667, "name": "d7b8fe09d8ea5738425d248e5058b6f4", "is_disabled": 0, "rental_uris": {"android": "https://dc.lft.to/lastmile_qr_scan", "ios": "https://dc.lft.to/lastmile_qr_scan"}, "type": "electric_scooter", "lat": 38.9165085, "is_reserved": 0, "fusion_lat": 0.0}, {"bike_id": "b07217f6e1ab10d384c0d8f42c5b7f75", "fusion_lon": 0.0, "lon": -76.98612866666667, "name": "b07217f6e1ab10d384c0d8f42c5b7f75", "is_disabled": 0, "rental_uris": {"android": "https://dc.lft.to/lastmile_qr_scan", "ios": "https://dc.lft.to/lastmile_qr_scan"}, "type": "electric_scooter", "lat": 38.938289166666664, "is_reserved": 0, "fusion_lat": 0.0}, {"bike_id": "5a98b154b689dc254857989a5c93ee9b", "fusion_lon": 0.0, "lon": -77.01624366666667, "name": "5a98b154b689dc254857989a5c93ee9b", "is_disabled": 0, "rental_uris": {"android": "https://dc.lft.to/lastmile_qr_scan", "ios": "https://dc.lft.to/lastmile_qr_scan"}, "type": "electric_scooter", "lat": 38.89958983333333, "is_reserved": 0, "fusion_lat": 0.0}, {"bike_id": "c1f0bec3900910d1d4c84c3900fdf757", "fusion_lon": 0.0, "lon": -77.0296775, "name": "c1f0bec3900910d1d4c84c3900fdf757", "is_disabled": 0, "rental_uris": {"android": "https://dc.lft.to/lastmile_qr_scan", "ios": "https://dc.lft.to/lastmile_qr_scan"}, "type": "electric_scooter", "lat": 38.924062166666666, "is_reserved": 0, "fusion_lat": 0.0}, {"bike_id": "9e4c39d79a72a1939cd7c706e2934f0d", "fusion_lon": 0.0, "lon": -77.01617316666666, "name": "9e4c39d79a72a1939cd7c706e2934f0d", "is_disabled": 0, "rental_uris": {"android": "https://dc.lft.to/lastmile_qr_scan", "ios": "https://dc.lft.to/lastmile_qr_scan"}, "type": "electric_scooter", "lat": 38.89505833333333, "is_reserved": 0, "fusion_lat": 0.0}, {"bike_id": "cf358cd68e1921473c86d8f95aa3de52", "fusion_lon": 0.0, "lon": -77.02204666666667, "name": "cf358cd68e1921473c86d8f95aa3de52", "is_disabled": 0, "rental_uris": {"android": "https://dc.lft.to/lastmile_qr_scan", "ios": "https://dc.lft.to/lastmile_qr_scan"}, "type": "electric_scooter", "lat": 38.89757083333333, "is_reserved": 0, "fusion_lat": 0.0}, {"bike_id": "c34b4fb755490fe28f24b29e42ac536b", "fusion_lon": 0.0, "lon": -77.0640855, "name": "c34b4fb755490fe28f24b29e42ac536b", "is_disabled": 0, "rental_uris": {"android": "https://dc.lft.to/lastmile_qr_scan", "ios": "https://dc.lft.to/lastmile_qr_scan"}, "type": "electric_scooter", "lat": 38.91367366666667, "is_reserved": 0, "fusion_lat": 0.0}, {"bike_id": "4dce1ac8e70b8eed2ae18ea51c4d09f1", "fusion_lon": 0.0, "lon": -76.99947183333333, "name": "4dce1ac8e70b8eed2ae18ea51c4d09f1", "is_disabled": 0, "rental_uris": {"android": "https://dc.lft.to/lastmile_qr_scan", "ios": "https://dc.lft.to/lastmile_qr_scan"}, "type": "electric_scooter", "lat": 38.842923, "is_reserved": 0, "fusion_lat": 0.0}, {"bike_id": "e985d59d21b96c8b5bd25a5660cd3b6f", "fusion_lon": 0.0, "lon": -77.02190983333334, "name": "e985d59d21b96c8b5bd25a5660cd3b6f", "is_disabled": 0, "rental_uris": {"android": "https://dc.lft.to/lastmile_qr_scan", "ios": "https://dc.lft.to/lastmile_qr_scan"}, "type": "electric_scooter", "lat": 38.924881166666665, "is_reserved": 0, "fusion_lat": 0.0}, {"bike_id": "4c567eb9873ef3d8c649d46dca891431", "fusion_lon": 0.0, "lon": -77.03209333333334, "name": "4c567eb9873ef3d8c649d46dca891431", "is_disabled": 0, "rental_uris": {"android": "https://dc.lft.to/lastmile_qr_scan", "ios": "https://dc.lft.to/lastmile_qr_scan"}, "type": "electric_scooter", "lat": 38.907244666666664, "is_reserved": 0, "fusion_lat": 0.0}, {"bike_id": "127534fd285031ac9dd3cf671e2cf4e8", "fusion_lon": 0.0, "lon": -77.05747216666667, "name": "127534fd285031ac9dd3cf671e2cf4e8", "is_disabled": 0, "rental_uris": {"android": "https://dc.lft.to/lastmile_qr_scan", "ios": "https://dc.lft.to/lastmile_qr_scan"}, "type": "electric_scooter", "lat": 38.924313, "is_reserved": 0, "fusion_lat": 0.0}, {"bike_id": "9c55c56a0d5903abf2ae2c8993950cd4", "fusion_lon": 0.0, "lon": -76.9315925, "name": "9c55c56a0d5903abf2ae2c8993950cd4", "is_disabled": 0, "rental_uris": {"android": "https://dc.lft.to/lastmile_qr_scan", "ios": "https://dc.lft.to/lastmile_qr_scan"}, "type": "electric_scooter", "lat": 38.89876783333333, "is_reserved": 0, "fusion_lat": 0.0}, {"bike_id": "0e2adab486c7c12f09fed1069fcd0396", "fusion_lon": 0.0, "lon": -77.0385005, "name": "0e2adab486c7c12f09fed1069fcd0396", "is_disabled": 0, "rental_uris": {"android": "https://dc.lft.to/lastmile_qr_scan", "ios": "https://dc.lft.to/lastmile_qr_scan"}, "type": "electric_scooter", "lat": 38.916393166666666, "is_reserved": 0, "fusion_lat": 0.0}, {"bike_id": "e7f90172b67449bae66a2afbf6da7643", "fusion_lon": 0.0, "lon": -77.02425366666667, "name": "e7f90172b67449bae66a2afbf6da7643", "is_disabled": 0, "rental_uris": {"android": "https://dc.lft.to/lastmile_qr_scan", "ios": "https://dc.lft.to/lastmile_qr_scan"}, "type": "electric_scooter", "lat": 38.919211833333335, "is_reserved": 0, "fusion_lat": 0.0}, {"bike_id": "8eac0f5e15988024ad58d426dd1ab812", "fusion_lon": 0.0, "lon": -77.02158166666666, "name": "8eac0f5e15988024ad58d426dd1ab812", "is_disabled": 0, "rental_uris": {"android": "https://dc.lft.to/lastmile_qr_scan", "ios": "https://dc.lft.to/lastmile_qr_scan"}, "type": "electric_scooter", "lat": 38.93075316666667, "is_reserved": 0, "fusion_lat": 0.0}, {"bike_id": "fbcd87d464c1444d0a8f0b4cb7cc4a7e", "fusion_lon": 0.0, "lon": -77.03671316666667, "name": "fbcd87d464c1444d0a8f0b4cb7cc4a7e", "is_disabled": 0, "rental_uris": {"android": "https://dc.lft.to/lastmile_qr_scan", "ios": "https://dc.lft.to/lastmile_qr_scan"}, "type": "electric_scooter", "lat": 38.917107333333334, "is_reserved": 0, "fusion_lat": 0.0}, {"bike_id": "8cf6690267aba03a924218940d13c8e1", "fusion_lon": 0.0, "lon": -77.0272085, "name": "8cf6690267aba03a924218940d13c8e1", "is_disabled": 0, "rental_uris": {"android": "https://dc.lft.to/lastmile_qr_scan", "ios": "https://dc.lft.to/lastmile_qr_scan"}, "type": "electric_scooter", "lat": 38.94958483333333, "is_reserved": 0, "fusion_lat": 0.0}, {"bike_id": "10faa70ca9e495e769d2c3553796e536", "fusion_lon": 0.0, "lon": -77.01301533333333, "name": "10faa70ca9e495e769d2c3553796e536", "is_disabled": 0, "rental_uris": {"android": "https://dc.lft.to/lastmile_qr_scan", "ios": "https://dc.lft.to/lastmile_qr_scan"}, "type": "electric_scooter", "lat": 38.90046316666667, "is_reserved": 0, "fusion_lat": 0.0}, {"bike_id": "403deff31718b57c94761e3ce0c25429", "fusion_lon": 0.0, "lon": -77.02308283333333, "name": "403deff31718b57c94761e3ce0c25429", "is_disabled": 0, "rental_uris": {"android": "https://dc.lft.to/lastmile_qr_scan", "ios": "https://dc.lft.to/lastmile_qr_scan"}, "type": "electric_scooter", "lat": 38.92755666666667, "is_reserved": 0, "fusion_lat": 0.0}, {"bike_id": "408692aea0c24dd3e3c08658952f724c", "fusion_lon": 0.0, "lon": -77.050121, "name": "408692aea0c24dd3e3c08658952f724c", "is_disabled": 0, "rental_uris": {"android": "https://dc.lft.to/lastmile_qr_scan", "ios": "https://dc.lft.to/lastmile_qr_scan"}, "type": "electric_scooter", "lat": 38.906268833333336, "is_reserved": 0, "fusion_lat": 0.0}, {"bike_id": "3c3b3ae6aa2672892643a89d90a9de38", "fusion_lon": 0.0, "lon": -77.02629516666667, "name": "3c3b3ae6aa2672892643a89d90a9de38", "is_disabled": 0, "rental_uris": {"android": "https://dc.lft.to/lastmile_qr_scan", "ios": "https://dc.lft.to/lastmile_qr_scan"}, "type": "electric_scooter", "lat": 38.928087833333336, "is_reserved": 0, "fusion_lat": 0.0}, {"bike_id": "457fb1c9be425bbf1003122e0e843335", "fusion_lon": 0.0, "lon": -77.02328066666666, "name": "457fb1c9be425bbf1003122e0e843335", "is_disabled": 0, "rental_uris": {"android": "https://dc.lft.to/lastmile_qr_scan", "ios": "https://dc.lft.to/lastmile_qr_scan"}, "type": "electric_scooter", "lat": 38.929392, "is_reserved": 0, "fusion_lat": 0.0}, {"bike_id": "e2e7c40e9ec475089d4de3b59231314d", "fusion_lon": 0.0, "lon": -77.05144216666666, "name": "e2e7c40e9ec475089d4de3b59231314d", "is_disabled": 0, "rental_uris": {"android": "https://dc.lft.to/lastmile_qr_scan", "ios": "https://dc.lft.to/lastmile_qr_scan"}, "type": "electric_scooter", "lat": 38.905162, "is_reserved": 0, "fusion_lat": 0.0}, {"bike_id": "e08b19cc00d4dea9b4d4de6ecd3d7a11", "fusion_lon": 0.0, "lon": -77.0310625, "name": "e08b19cc00d4dea9b4d4de6ecd3d7a11", "is_disabled": 0, "rental_uris": {"android": "https://dc.lft.to/lastmile_qr_scan", "ios": "https://dc.lft.to/lastmile_qr_scan"}, "type": "electric_scooter", "lat": 38.94646433333333, "is_reserved": 0, "fusion_lat": 0.0}, {"bike_id": "2b8f528c37af16a33e1ad442cb72004c", "fusion_lon": 0.0, "lon": -76.99517466666667, "name": "2b8f528c37af16a33e1ad442cb72004c", "is_disabled": 0, "rental_uris": {"android": "https://dc.lft.to/lastmile_qr_scan", "ios": "https://dc.lft.to/lastmile_qr_scan"}, "type": "electric_scooter", "lat": 38.90988383333333, "is_reserved": 0, "fusion_lat": 0.0}, {"bike_id": "f86eb521d7bbd1169f33275b47ced822", "fusion_lon": 0.0, "lon": -77.00656666666667, "name": "f86eb521d7bbd1169f33275b47ced822", "is_disabled": 0, "rental_uris": {"android": "https://dc.lft.to/lastmile_qr_scan", "ios": "https://dc.lft.to/lastmile_qr_scan"}, "type": "electric_scooter", "lat": 38.944631, "is_reserved": 0, "fusion_lat": 0.0}, {"bike_id": "fe892e2afed3b903ed85c2f70395f46c", "fusion_lon": 0.0, "lon": -77.03165533333333, "name": "fe892e2afed3b903ed85c2f70395f46c", "is_disabled": 0, "rental_uris": {"android": "https://dc.lft.to/lastmile_qr_scan", "ios": "https://dc.lft.to/lastmile_qr_scan"}, "type": "electric_scooter", "lat": 38.892202166666664, "is_reserved": 0, "fusion_lat": 0.0}, {"bike_id": "8318a27d43c1bcc511929aa374d9fb75", "fusion_lon": 0.0, "lon": -77.0386215, "name": "8318a27d43c1bcc511929aa374d9fb75", "is_disabled": 0, "rental_uris": {"android": "https://dc.lft.to/lastmile_qr_scan", "ios": "https://dc.lft.to/lastmile_qr_scan"}, "type": "electric_scooter", "lat": 38.90784516666667, "is_reserved": 0, "fusion_lat": 0.0}, {"bike_id": "6d75bdea4b60c168ce3c9bf04fb499e5", "fusion_lon": 0.0, "lon": -77.11708716666666, "name": "6d75bdea4b60c168ce3c9bf04fb499e5", "is_disabled": 0, "rental_uris": {"android": "https://dc.lft.to/lastmile_qr_scan", "ios": "https://dc.lft.to/lastmile_qr_scan"}, "type": "electric_bike", "lat": 38.867448333333336, "is_reserved": 0, "fusion_lat": 0.0}, {"bike_id": "ad6bc177b4764020a03acfc54912301a", "fusion_lon": 0.0, "lon": -76.9884395, "name": "ad6bc177b4764020a03acfc54912301a", "is_disabled": 0, "rental_uris": {"android": "https://dc.lft.to/lastmile_qr_scan", "ios": "https://dc.lft.to/lastmile_qr_scan"}, "type": "electric_bike", "lat": 38.84274933333333, "is_reserved": 0, "fusion_lat": 0.0}, {"bike_id": "958c73e0e71cf561a39bf309e07f3591", "fusion_lon": 0.0, "lon": -77.00367783333333, "name": "958c73e0e71cf561a39bf309e07f3591", "is_disabled": 0, "rental_uris": {"android": "https://dc.lft.to/lastmile_qr_scan", "ios": "https://dc.lft.to/lastmile_qr_scan"}, "type": "electric_scooter", "lat": 38.88262066666667, "is_reserved": 0, "fusion_lat": 0.0}, {"bike_id": "f9a918094c72e022307cd9b8134b91a4", "fusion_lon": 0.0, "lon": -76.9839805, "name": "f9a918094c72e022307cd9b8134b91a4", "is_disabled": 0, "rental_uris": {"android": "https://dc.lft.to/lastmile_qr_scan", "ios": "https://dc.lft.to/lastmile_qr_scan"}, "type": "electric_scooter", "lat": 38.867016666666665, "is_reserved": 0, "fusion_lat": 0.0}, {"bike_id": "54341c1aca32643a9db1fbe9acd82aa0", "fusion_lon": 0.0, "lon": -77.027201, "name": "54341c1aca32643a9db1fbe9acd82aa0", "is_disabled": 0, "rental_uris": {"android": "https://dc.lft.to/lastmile_qr_scan", "ios": "https://dc.lft.to/lastmile_qr_scan"}, "type": "electric_scooter", "lat": 38.900739333333334, "is_reserved": 0, "fusion_lat": 0.0}, {"bike_id": "3419879f8a18297bcc7c9a318365107a", "fusion_lon": 0.0, "lon": -76.99398883333333, "name": "3419879f8a18297bcc7c9a318365107a", "is_disabled": 0, "rental_uris": {"android": "https://dc.lft.to/lastmile_qr_scan", "ios": "https://dc.lft.to/lastmile_qr_scan"}, "type": "electric_scooter", "lat": 38.92164066666667, "is_reserved": 0, "fusion_lat": 0.0}, {"bike_id": "808191ba45bec6b0015d0b9d9c672239", "fusion_lon": 0.0, "lon": -77.05899816666667, "name": "808191ba45bec6b0015d0b9d9c672239", "is_disabled": 0, "rental_uris": {"android": "https://dc.lft.to/lastmile_qr_scan", "ios": "https://dc.lft.to/lastmile_qr_scan"}, "type": "electric_scooter", "lat": 38.93345516666667, "is_reserved": 0, "fusion_lat": 0.0}, {"bike_id": "821da367e35456e005c2fced83f466b4", "fusion_lon": 0.0, "lon": -77.03478, "name": "821da367e35456e005c2fced83f466b4", "is_disabled": 0, "rental_uris": {"android": "https://dc.lft.to/lastmile_qr_scan", "ios": "https://dc.lft.to/lastmile_qr_scan"}, "type": "electric_scooter", "lat": 38.90762633333333, "is_reserved": 0, "fusion_lat": 0.0}, {"bike_id": "d619fe9e1de20ab3d5d6cbb65d730983", "fusion_lon": 0.0, "lon": -77.03409433333333, "name": "d619fe9e1de20ab3d5d6cbb65d730983", "is_disabled": 0, "rental_uris": {"android": "https://dc.lft.to/lastmile_qr_scan", "ios": "https://dc.lft.to/lastmile_qr_scan"}, "type": "electric_scooter", "lat": 38.92045133333333, "is_reserved": 0, "fusion_lat": 0.0}, {"bike_id": "47d51a859cb8893aa00c1abe4601af88", "fusion_lon": 0.0, "lon": -76.9334495, "name": "47d51a859cb8893aa00c1abe4601af88", "is_disabled": 0, "rental_uris": {"android": "https://dc.lft.to/lastmile_qr_scan", "ios": "https://dc.lft.to/lastmile_qr_scan"}, "type": "electric_scooter", "lat": 38.88814083333333, "is_reserved": 0, "fusion_lat": 0.0}, {"bike_id": "7c29fce70bc3abc52a44a3d0d167304c", "fusion_lon": 0.0, "lon": -77.02690766666667, "name": "7c29fce70bc3abc52a44a3d0d167304c", "is_disabled": 0, "rental_uris": {"android": "https://dc.lft.to/lastmile_qr_scan", "ios": "https://dc.lft.to/lastmile_qr_scan"}, "type": "electric_scooter", "lat": 38.8983595, "is_reserved": 0, "fusion_lat": 0.0}, {"bike_id": "79d17f800eca69fe39f5628a1d36dfca", "fusion_lon": 0.0, "lon": -77.0321195, "name": "79d17f800eca69fe39f5628a1d36dfca", "is_disabled": 0, "rental_uris": {"android": "https://dc.lft.to/lastmile_qr_scan", "ios": "https://dc.lft.to/lastmile_qr_scan"}, "type": "electric_scooter", "lat": 38.9171235, "is_reserved": 0, "fusion_lat": 0.0}, {"bike_id": "08e616b598b05ccc70a3861c15268cdd", "fusion_lon": 0.0, "lon": -77.02197983333333, "name": "08e616b598b05ccc70a3861c15268cdd", "is_disabled": 0, "rental_uris": {"android": "https://dc.lft.to/lastmile_qr_scan", "ios": "https://dc.lft.to/lastmile_qr_scan"}, "type": "electric_scooter", "lat": 38.897951666666664, "is_reserved": 0, "fusion_lat": 0.0}, {"bike_id": "ee9e59a7eac136b0cc73cb8777457ba4", "fusion_lon": 0.0, "lon": -77.029613, "name": "ee9e59a7eac136b0cc73cb8777457ba4", "is_disabled": 0, "rental_uris": {"android": "https://dc.lft.to/lastmile_qr_scan", "ios": "https://dc.lft.to/lastmile_qr_scan"}, "type": "electric_scooter", "lat": 38.922874166666666, "is_reserved": 0, "fusion_lat": 0.0}, {"bike_id": "05ef10798e0de5ff6e120a780eddc1d6", "fusion_lon": 0.0, "lon": -76.98776233333334, "name": "05ef10798e0de5ff6e120a780eddc1d6", "is_disabled": 0, "rental_uris": {"android": "https://dc.lft.to/lastmile_qr_scan", "ios": "https://dc.lft.to/lastmile_qr_scan"}, "type": "electric_bike", "lat": 38.8659735, "is_reserved": 0, "fusion_lat": 0.0}, {"bike_id": "db386a72b5c9eeebc88e7e4b892a973c", "fusion_lon": 0.0, "lon": -77.02472, "name": "db386a72b5c9eeebc88e7e4b892a973c", "is_disabled": 0, "rental_uris": {"android": "https://dc.lft.to/lastmile_qr_scan", "ios": "https://dc.lft.to/lastmile_qr_scan"}, "type": "electric_scooter", "lat": 38.93101333333333, "is_reserved": 0, "fusion_lat": 0.0}, {"bike_id": "dc331005b74174e95597014c1ee325d9", "fusion_lon": 0.0, "lon": -77.05886633333333, "name": "dc331005b74174e95597014c1ee325d9", "is_disabled": 0, "rental_uris": {"android": "https://dc.lft.to/lastmile_qr_scan", "ios": "https://dc.lft.to/lastmile_qr_scan"}, "type": "electric_scooter", "lat": 38.9182455, "is_reserved": 0, "fusion_lat": 0.0}, {"bike_id": "0084cedc79720ad7ba2e8080d41eb1e4", "fusion_lon": 0.0, "lon": -77.02287283333334, "name": "0084cedc79720ad7ba2e8080d41eb1e4", "is_disabled": 0, "rental_uris": {"android": "https://dc.lft.to/lastmile_qr_scan", "ios": "https://dc.lft.to/lastmile_qr_scan"}, "type": "electric_scooter", "lat": 38.890617, "is_reserved": 0, "fusion_lat": 0.0}, {"bike_id": "11bd68bb2ca8a811e3a4b375013a512c", "fusion_lon": 0.0, "lon": -77.01226533333333, "name": "11bd68bb2ca8a811e3a4b375013a512c", "is_disabled": 0, "rental_uris": {"android": "https://dc.lft.to/lastmile_qr_scan", "ios": "https://dc.lft.to/lastmile_qr_scan"}, "type": "electric_scooter", "lat": 38.914021, "is_reserved": 0, "fusion_lat": 0.0}, {"bike_id": "56556068a65c61c73dbb8a9af8b438ef", "fusion_lon": 0.0, "lon": -76.93022016666667, "name": "56556068a65c61c73dbb8a9af8b438ef", "is_disabled": 0, "rental_uris": {"android": "https://dc.lft.to/lastmile_qr_scan", "ios": "https://dc.lft.to/lastmile_qr_scan"}, "type": "electric_scooter", "lat": 38.8982155, "is_reserved": 0, "fusion_lat": 0.0}, {"bike_id": "028cec00b03f0748cc6181c7ec068ce3", "fusion_lon": 0.0, "lon": -77.00073383333333, "name": "028cec00b03f0748cc6181c7ec068ce3", "is_disabled": 0, "rental_uris": {"android": "https://dc.lft.to/lastmile_qr_scan", "ios": "https://dc.lft.to/lastmile_qr_scan"}, "type": "electric_scooter", "lat": 38.9002705, "is_reserved": 0, "fusion_lat": 0.0}, {"bike_id": "452290abcf0e607cb68f450074919f75", "fusion_lon": 0.0, "lon": -77.0158565, "name": "452290abcf0e607cb68f450074919f75", "is_disabled": 0, "rental_uris": {"android": "https://dc.lft.to/lastmile_qr_scan", "ios": "https://dc.lft.to/lastmile_qr_scan"}, "type": "electric_scooter", "lat": 38.95014783333333, "is_reserved": 0, "fusion_lat": 0.0}, {"bike_id": "ab9dd2b36440f08beca191ca403c5e62", "fusion_lon": 0.0, "lon": -77.0468315, "name": "ab9dd2b36440f08beca191ca403c5e62", "is_disabled": 0, "rental_uris": {"android": "https://dc.lft.to/lastmile_qr_scan", "ios": "https://dc.lft.to/lastmile_qr_scan"}, "type": "electric_scooter", "lat": 38.89729033333333, "is_reserved": 0, "fusion_lat": 0.0}, {"bike_id": "800adfc081a899c39acba7c1a6789e8f", "fusion_lon": 0.0, "lon": -77.02851566666666, "name": "800adfc081a899c39acba7c1a6789e8f", "is_disabled": 0, "rental_uris": {"android": "https://dc.lft.to/lastmile_qr_scan", "ios": "https://dc.lft.to/lastmile_qr_scan"}, "type": "electric_scooter", "lat": 38.925661833333336, "is_reserved": 0, "fusion_lat": 0.0}, {"bike_id": "d090395657b3feceefd593c93e1f0076", "fusion_lon": 0.0, "lon": -76.99142133333334, "name": "d090395657b3feceefd593c93e1f0076", "is_disabled": 0, "rental_uris": {"android": "https://dc.lft.to/lastmile_qr_scan", "ios": "https://dc.lft.to/lastmile_qr_scan"}, "type": "electric_scooter", "lat": 38.87902916666667, "is_reserved": 0, "fusion_lat": 0.0}, {"bike_id": "2016db17886f7db0f2c8de26744d49b1", "fusion_lon": 0.0, "lon": -77.04131816666667, "name": "2016db17886f7db0f2c8de26744d49b1", "is_disabled": 0, "rental_uris": {"android": "https://dc.lft.to/lastmile_qr_scan", "ios": "https://dc.lft.to/lastmile_qr_scan"}, "type": "electric_bike", "lat": 38.805022666666666, "is_reserved": 0, "fusion_lat": 0.0}, {"bike_id": "23c23ab81afccbeb721f5a7fd0bf86c4", "fusion_lon": 0.0, "lon": -77.03259683333333, "name": "23c23ab81afccbeb721f5a7fd0bf86c4", "is_disabled": 0, "rental_uris": {"android": "https://dc.lft.to/lastmile_qr_scan", "ios": "https://dc.lft.to/lastmile_qr_scan"}, "type": "electric_scooter", "lat": 38.934062833333336, "is_reserved": 0, "fusion_lat": 0.0}, {"bike_id": "e0e66268ddede23571e4b5413d74ac20", "fusion_lon": 0.0, "lon": -77.04020183333333, "name": "e0e66268ddede23571e4b5413d74ac20", "is_disabled": 0, "rental_uris": {"android": "https://dc.lft.to/lastmile_qr_scan", "ios": "https://dc.lft.to/lastmile_qr_scan"}, "type": "electric_scooter", "lat": 38.92270533333333, "is_reserved": 0, "fusion_lat": 0.0}, {"bike_id": "4c52c448e28d37c94ed69609515a328f", "fusion_lon": 0.0, "lon": -76.94876266666667, "name": "4c52c448e28d37c94ed69609515a328f", "is_disabled": 0, "rental_uris": {"android": "https://dc.lft.to/lastmile_qr_scan", "ios": "https://dc.lft.to/lastmile_qr_scan"}, "type": "electric_scooter", "lat": 38.894993666666664, "is_reserved": 0, "fusion_lat": 0.0}, {"bike_id": "2d2ae8464958f4615430fcf3d1f57ea7", "fusion_lon": 0.0, "lon": -77.0006455, "name": "2d2ae8464958f4615430fcf3d1f57ea7", "is_disabled": 0, "rental_uris": {"android": "https://dc.lft.to/lastmile_qr_scan", "ios": "https://dc.lft.to/lastmile_qr_scan"}, "type": "electric_scooter", "lat": 38.908681333333334, "is_reserved": 0, "fusion_lat": 0.0}, {"bike_id": "e82c7953a7f07b77b23b8321d950d9b0", "fusion_lon": 0.0, "lon": -77.03419316666667, "name": "e82c7953a7f07b77b23b8321d950d9b0", "is_disabled": 0, "rental_uris": {"android": "https://dc.lft.to/lastmile_qr_scan", "ios": "https://dc.lft.to/lastmile_qr_scan"}, "type": "electric_scooter", "lat": 38.91923883333333, "is_reserved": 0, "fusion_lat": 0.0}, {"bike_id": "d66f487c6d757d342b5d5951ec8039fa", "fusion_lon": 0.0, "lon": -77.02797983333333, "name": "d66f487c6d757d342b5d5951ec8039fa", "is_disabled": 0, "rental_uris": {"android": "https://dc.lft.to/lastmile_qr_scan", "ios": "https://dc.lft.to/lastmile_qr_scan"}, "type": "electric_scooter", "lat": 38.91125066666667, "is_reserved": 0, "fusion_lat": 0.0}, {"bike_id": "56e248347ab81f522318977a08fc0d73", "fusion_lon": 0.0, "lon": -77.0229655, "name": "56e248347ab81f522318977a08fc0d73", "is_disabled": 0, "rental_uris": {"android": "https://dc.lft.to/lastmile_qr_scan", "ios": "https://dc.lft.to/lastmile_qr_scan"}, "type": "electric_scooter", "lat": 38.916038666666665, "is_reserved": 0, "fusion_lat": 0.0}, {"bike_id": "0f48395fcd7349c6739619ef358170ee", "fusion_lon": 0.0, "lon": -77.02970216666667, "name": "0f48395fcd7349c6739619ef358170ee", "is_disabled": 0, "rental_uris": {"android": "https://dc.lft.to/lastmile_qr_scan", "ios": "https://dc.lft.to/lastmile_qr_scan"}, "type": "electric_scooter", "lat": 38.9228625, "is_reserved": 0, "fusion_lat": 0.0}, {"bike_id": "cda81c9bfd08f772244eba67b899e56a", "fusion_lon": 0.0, "lon": -77.00202183333333, "name": "cda81c9bfd08f772244eba67b899e56a", "is_disabled": 0, "rental_uris": {"android": "https://dc.lft.to/lastmile_qr_scan", "ios": "https://dc.lft.to/lastmile_qr_scan"}, "type": "electric_bike", "lat": 38.8194095, "is_reserved": 0, "fusion_lat": 0.0}, {"bike_id": "a7242ed5e4fde8497f2a46878d580484", "fusion_lon": 0.0, "lon": -77.04837783333333, "name": "a7242ed5e4fde8497f2a46878d580484", "is_disabled": 0, "rental_uris": {"android": "https://dc.lft.to/lastmile_qr_scan", "ios": "https://dc.lft.to/lastmile_qr_scan"}, "type": "electric_scooter", "lat": 38.911814166666666, "is_reserved": 0, "fusion_lat": 0.0}, {"bike_id": "f7fba7365ccd1678327f0f13f42c184c", "fusion_lon": 0.0, "lon": -77.04011316666667, "name": "f7fba7365ccd1678327f0f13f42c184c", "is_disabled": 0, "rental_uris": {"android": "https://dc.lft.to/lastmile_qr_scan", "ios": "https://dc.lft.to/lastmile_qr_scan"}, "type": "electric_scooter", "lat": 38.904869, "is_reserved": 0, "fusion_lat": 0.0}, {"bike_id": "e092a4d902c627b3ee636dff043358c7", "fusion_lon": 0.0, "lon": -77.023015, "name": "e092a4d902c627b3ee636dff043358c7", "is_disabled": 0, "rental_uris": {"android": "https://dc.lft.to/lastmile_qr_scan", "ios": "https://dc.lft.to/lastmile_qr_scan"}, "type": "electric_scooter", "lat": 38.9154835, "is_reserved": 0, "fusion_lat": 0.0}, {"bike_id": "cc6793e5ceccbb23781d7f4d47ed4199", "fusion_lon": 0.0, "lon": -77.04126416666666, "name": "cc6793e5ceccbb23781d7f4d47ed4199", "is_disabled": 0, "rental_uris": {"android": "https://dc.lft.to/lastmile_qr_scan", "ios": "https://dc.lft.to/lastmile_qr_scan"}, "type": "electric_scooter", "lat": 38.92141383333333, "is_reserved": 0, "fusion_lat": 0.0}, {"bike_id": "1aec4ce5b52e652dba93d4d34e863f8c", "fusion_lon": 0.0, "lon": -77.0217485, "name": "1aec4ce5b52e652dba93d4d34e863f8c", "is_disabled": 0, "rental_uris": {"android": "https://dc.lft.to/lastmile_qr_scan", "ios": "https://dc.lft.to/lastmile_qr_scan"}, "type": "electric_scooter", "lat": 38.92507966666667, "is_reserved": 0, "fusion_lat": 0.0}, {"bike_id": "33019b79c2173f585758459899a4451a", "fusion_lon": 0.0, "lon": -77.02697133333334, "name": "33019b79c2173f585758459899a4451a", "is_disabled": 0, "rental_uris": {"android": "https://dc.lft.to/lastmile_qr_scan", "ios": "https://dc.lft.to/lastmile_qr_scan"}, "type": "electric_scooter", "lat": 38.927783, "is_reserved": 0, "fusion_lat": 0.0}, {"bike_id": "b16608bb486ffbbc71a9bb50b5c43e02", "fusion_lon": 0.0, "lon": -77.0417735, "name": "b16608bb486ffbbc71a9bb50b5c43e02", "is_disabled": 0, "rental_uris": {"android": "https://dc.lft.to/lastmile_qr_scan", "ios": "https://dc.lft.to/lastmile_qr_scan"}, "type": "electric_scooter", "lat": 38.919863166666666, "is_reserved": 0, "fusion_lat": 0.0}, {"bike_id": "861fc4dd455972a2ede2a8777a0a8e04", "fusion_lon": 0.0, "lon": -77.03815083333333, "name": "861fc4dd455972a2ede2a8777a0a8e04", "is_disabled": 0, "rental_uris": {"android": "https://dc.lft.to/lastmile_qr_scan", "ios": "https://dc.lft.to/lastmile_qr_scan"}, "type": "electric_scooter", "lat": 38.91414533333333, "is_reserved": 0, "fusion_lat": 0.0}, {"bike_id": "3a2f6ef0db8731d32d90111e996dd684", "fusion_lon": 0.0, "lon": -77.01810666666667, "name": "3a2f6ef0db8731d32d90111e996dd684", "is_disabled": 0, "rental_uris": {"android": "https://dc.lft.to/lastmile_qr_scan", "ios": "https://dc.lft.to/lastmile_qr_scan"}, "type": "electric_scooter", "lat": 38.92128183333333, "is_reserved": 0, "fusion_lat": 0.0}, {"bike_id": "75883ad733fc0bb41431d13667a01b3c", "fusion_lon": 0.0, "lon": -76.93863566666667, "name": "75883ad733fc0bb41431d13667a01b3c", "is_disabled": 0, "rental_uris": {"android": "https://dc.lft.to/lastmile_qr_scan", "ios": "https://dc.lft.to/lastmile_qr_scan"}, "type": "electric_scooter", "lat": 38.89900216666667, "is_reserved": 0, "fusion_lat": 0.0}, {"bike_id": "b19a84ac582fe671c4f2e3ff22d144df", "fusion_lon": 0.0, "lon": -77.0384325, "name": "b19a84ac582fe671c4f2e3ff22d144df", "is_disabled": 0, "rental_uris": {"android": "https://dc.lft.to/lastmile_qr_scan", "ios": "https://dc.lft.to/lastmile_qr_scan"}, "type": "electric_scooter", "lat": 38.91022566666667, "is_reserved": 0, "fusion_lat": 0.0}, {"bike_id": "24a6cc501436f82205f57c0cbc77784c", "fusion_lon": 0.0, "lon": -76.99857683333333, "name": "24a6cc501436f82205f57c0cbc77784c", "is_disabled": 0, "rental_uris": {"android": "https://dc.lft.to/lastmile_qr_scan", "ios": "https://dc.lft.to/lastmile_qr_scan"}, "type": "electric_scooter", "lat": 38.903650166666665, "is_reserved": 0, "fusion_lat": 0.0}, {"bike_id": "18c289baf1da807a0c369c10f696b81b", "fusion_lon": 0.0, "lon": -77.01356616666666, "name": "18c289baf1da807a0c369c10f696b81b", "is_disabled": 0, "rental_uris": {"android": "https://dc.lft.to/lastmile_qr_scan", "ios": "https://dc.lft.to/lastmile_qr_scan"}, "type": "electric_scooter", "lat": 38.893346, "is_reserved": 0, "fusion_lat": 0.0}, {"bike_id": "a757548108ccc55956434265cba3a49f", "fusion_lon": 0.0, "lon": -77.22336466666667, "name": "a757548108ccc55956434265cba3a49f", "is_disabled": 0, "rental_uris": {"android": "https://dc.lft.to/lastmile_qr_scan", "ios": "https://dc.lft.to/lastmile_qr_scan"}, "type": "electric_bike", "lat": 38.9181425, "is_reserved": 0, "fusion_lat": 0.0}, {"bike_id": "e766e276a53fb48af51bb8bf7d33aadf", "fusion_lon": 0.0, "lon": -77.03864883333334, "name": "e766e276a53fb48af51bb8bf7d33aadf", "is_disabled": 0, "rental_uris": {"android": "https://dc.lft.to/lastmile_qr_scan", "ios": "https://dc.lft.to/lastmile_qr_scan"}, "type": "electric_scooter", "lat": 38.90781883333333, "is_reserved": 0, "fusion_lat": 0.0}, {"bike_id": "9c0aac049a7587972d569fdfc7b22605", "fusion_lon": 0.0, "lon": -77.09525666666667, "name": "9c0aac049a7587972d569fdfc7b22605", "is_disabled": 0, "rental_uris": {"android": "https://dc.lft.to/lastmile_qr_scan", "ios": "https://dc.lft.to/lastmile_qr_scan"}, "type": "electric_bike", "lat": 38.8381145, "is_reserved": 0, "fusion_lat": 0.0}, {"bike_id": "a080a541c9bd0b9310f88c9abad7d556", "fusion_lon": 0.0, "lon": -77.01403883333333, "name": "a080a541c9bd0b9310f88c9abad7d556", "is_disabled": 0, "rental_uris": {"android": "https://dc.lft.to/lastmile_qr_scan", "ios": "https://dc.lft.to/lastmile_qr_scan"}, "type": "electric_scooter", "lat": 38.91819, "is_reserved": 0, "fusion_lat": 0.0}, {"bike_id": "9b60b3e4349f3b6954935beda3e20a83", "fusion_lon": 0.0, "lon": -77.0785205, "name": "9b60b3e4349f3b6954935beda3e20a83", "is_disabled": 0, "rental_uris": {"android": "https://dc.lft.to/lastmile_qr_scan", "ios": "https://dc.lft.to/lastmile_qr_scan"}, "type": "electric_bike", "lat": 38.9314015, "is_reserved": 0, "fusion_lat": 0.0}, {"bike_id": "65bc50373756e5f85e567e4c491f321a", "fusion_lon": 0.0, "lon": -77.03751483333333, "name": "65bc50373756e5f85e567e4c491f321a", "is_disabled": 0, "rental_uris": {"android": "https://dc.lft.to/lastmile_qr_scan", "ios": "https://dc.lft.to/lastmile_qr_scan"}, "type": "electric_scooter", "lat": 38.912633166666666, "is_reserved": 0, "fusion_lat": 0.0}, {"bike_id": "7e14449d6f6247c71a87c83a11744984", "fusion_lon": 0.0, "lon": -77.02973633333333, "name": "7e14449d6f6247c71a87c83a11744984", "is_disabled": 0, "rental_uris": {"android": "https://dc.lft.to/lastmile_qr_scan", "ios": "https://dc.lft.to/lastmile_qr_scan"}, "type": "electric_scooter", "lat": 38.92321333333334, "is_reserved": 0, "fusion_lat": 0.0}, {"bike_id": "0427c4382a33c423e9dcc319dca39f42", "fusion_lon": 0.0, "lon": -77.01404583333333, "name": "0427c4382a33c423e9dcc319dca39f42", "is_disabled": 0, "rental_uris": {"android": "https://dc.lft.to/lastmile_qr_scan", "ios": "https://dc.lft.to/lastmile_qr_scan"}, "type": "electric_scooter", "lat": 38.881146666666666, "is_reserved": 0, "fusion_lat": 0.0}, {"bike_id": "96078661326d0bc95f6f7b1627d07844", "fusion_lon": 0.0, "lon": -77.02787566666667, "name": "96078661326d0bc95f6f7b1627d07844", "is_disabled": 0, "rental_uris": {"android": "https://dc.lft.to/lastmile_qr_scan", "ios": "https://dc.lft.to/lastmile_qr_scan"}, "type": "electric_bike", "lat": 38.927726166666666, "is_reserved": 0, "fusion_lat": 0.0}, {"bike_id": "6b51b12941a62b0c6cf610158fe9c73a", "fusion_lon": 0.0, "lon": -77.02963316666667, "name": "6b51b12941a62b0c6cf610158fe9c73a", "is_disabled": 0, "rental_uris": {"android": "https://dc.lft.to/lastmile_qr_scan", "ios": "https://dc.lft.to/lastmile_qr_scan"}, "type": "electric_scooter", "lat": 38.923618, "is_reserved": 0, "fusion_lat": 0.0}, {"bike_id": "11fd00d0b11dcaf8c7d0474d1761edca", "fusion_lon": 0.0, "lon": -77.03098083333333, "name": "11fd00d0b11dcaf8c7d0474d1761edca", "is_disabled": 0, "rental_uris": {"android": "https://dc.lft.to/lastmile_qr_scan", "ios": "https://dc.lft.to/lastmile_qr_scan"}, "type": "electric_scooter", "lat": 38.919083, "is_reserved": 0, "fusion_lat": 0.0}, {"bike_id": "5ed7edc1a2c494ae599cd4d5fdfc34d9", "fusion_lon": 0.0, "lon": -77.03450216666667, "name": "5ed7edc1a2c494ae599cd4d5fdfc34d9", "is_disabled": 0, "rental_uris": {"android": "https://dc.lft.to/lastmile_qr_scan", "ios": "https://dc.lft.to/lastmile_qr_scan"}, "type": "electric_scooter", "lat": 38.907288, "is_reserved": 0, "fusion_lat": 0.0}, {"bike_id": "75b5a71be80b8adc4a579959b32ac487", "fusion_lon": 0.0, "lon": -77.03217166666667, "name": "75b5a71be80b8adc4a579959b32ac487", "is_disabled": 0, "rental_uris": {"android": "https://dc.lft.to/lastmile_qr_scan", "ios": "https://dc.lft.to/lastmile_qr_scan"}, "type": "electric_scooter", "lat": 38.91401783333333, "is_reserved": 0, "fusion_lat": 0.0}, {"bike_id": "5be0316b7fe6eec5708947a3be45b942", "fusion_lon": 0.0, "lon": -77.03389583333333, "name": "5be0316b7fe6eec5708947a3be45b942", "is_disabled": 0, "rental_uris": {"android": "https://dc.lft.to/lastmile_qr_scan", "ios": "https://dc.lft.to/lastmile_qr_scan"}, "type": "electric_scooter", "lat": 38.90970566666667, "is_reserved": 0, "fusion_lat": 0.0}, {"bike_id": "66a42851baa86518bff67eda3a6682d6", "fusion_lon": 0.0, "lon": -77.0312565, "name": "66a42851baa86518bff67eda3a6682d6", "is_disabled": 0, "rental_uris": {"android": "https://dc.lft.to/lastmile_qr_scan", "ios": "https://dc.lft.to/lastmile_qr_scan"}, "type": "electric_scooter", "lat": 38.915548333333334, "is_reserved": 0, "fusion_lat": 0.0}, {"bike_id": "cb9b83bf201a778af8df2889c131cef4", "fusion_lon": 0.0, "lon": -77.02384416666666, "name": "cb9b83bf201a778af8df2889c131cef4", "is_disabled": 0, "rental_uris": {"android": "https://dc.lft.to/lastmile_qr_scan", "ios": "https://dc.lft.to/lastmile_qr_scan"}, "type": "electric_scooter", "lat": 38.915655666666666, "is_reserved": 0, "fusion_lat": 0.0}, {"bike_id": "93917705cb4bff96f0aa94c3658bf96b", "fusion_lon": 0.0, "lon": -77.03118483333333, "name": "93917705cb4bff96f0aa94c3658bf96b", "is_disabled": 0, "rental_uris": {"android": "https://dc.lft.to/lastmile_qr_scan", "ios": "https://dc.lft.to/lastmile_qr_scan"}, "type": "electric_scooter", "lat": 38.92012833333333, "is_reserved": 0, "fusion_lat": 0.0}, {"bike_id": "1e4a9bf970ffeb42cd2b8932a438a7cc", "fusion_lon": 0.0, "lon": -77.0383695, "name": "1e4a9bf970ffeb42cd2b8932a438a7cc", "is_disabled": 0, "rental_uris": {"android": "https://dc.lft.to/lastmile_qr_scan", "ios": "https://dc.lft.to/lastmile_qr_scan"}, "type": "electric_scooter", "lat": 38.90379866666667, "is_reserved": 0, "fusion_lat": 0.0}, {"bike_id": "5f7c9f490adf198222dd268ab217a348", "fusion_lon": 0.0, "lon": -77.04362983333333, "name": "5f7c9f490adf198222dd268ab217a348", "is_disabled": 0, "rental_uris": {"android": "https://dc.lft.to/lastmile_qr_scan", "ios": "https://dc.lft.to/lastmile_qr_scan"}, "type": "electric_scooter", "lat": 38.892236, "is_reserved": 0, "fusion_lat": 0.0}, {"bike_id": "e408c83078cecfa5ccb93962f0f597db", "fusion_lon": 0.0, "lon": -77.04415266666666, "name": "e408c83078cecfa5ccb93962f0f597db", "is_disabled": 0, "rental_uris": {"android": "https://dc.lft.to/lastmile_qr_scan", "ios": "https://dc.lft.to/lastmile_qr_scan"}, "type": "electric_bike", "lat": 39.015671833333336, "is_reserved": 0, "fusion_lat": 0.0}, {"bike_id": "d7aeebe1bb634cc277ed385447e4925c", "fusion_lon": 0.0, "lon": -77.00119883333333, "name": "d7aeebe1bb634cc277ed385447e4925c", "is_disabled": 0, "rental_uris": {"android": "https://dc.lft.to/lastmile_qr_scan", "ios": "https://dc.lft.to/lastmile_qr_scan"}, "type": "electric_scooter", "lat": 38.876543833333336, "is_reserved": 0, "fusion_lat": 0.0}, {"bike_id": "1986515d5874d2a95833d278ed4b8218", "fusion_lon": 0.0, "lon": -76.9837585, "name": "1986515d5874d2a95833d278ed4b8218", "is_disabled": 0, "rental_uris": {"android": "https://dc.lft.to/lastmile_qr_scan", "ios": "https://dc.lft.to/lastmile_qr_scan"}, "type": "electric_bike", "lat": 38.87836433333333, "is_reserved": 0, "fusion_lat": 0.0}, {"bike_id": "233fb8a2057ac76847c051355b892313", "fusion_lon": 0.0, "lon": -77.02044016666666, "name": "233fb8a2057ac76847c051355b892313", "is_disabled": 0, "rental_uris": {"android": "https://dc.lft.to/lastmile_qr_scan", "ios": "https://dc.lft.to/lastmile_qr_scan"}, "type": "electric_scooter", "lat": 38.91555866666667, "is_reserved": 0, "fusion_lat": 0.0}, {"bike_id": "8fea10947d049156ed85b80365ba5deb", "fusion_lon": 0.0, "lon": -77.057678, "name": "8fea10947d049156ed85b80365ba5deb", "is_disabled": 0, "rental_uris": {"android": "https://dc.lft.to/lastmile_qr_scan", "ios": "https://dc.lft.to/lastmile_qr_scan"}, "type": "electric_bike", "lat": 38.925288, "is_reserved": 0, "fusion_lat": 0.0}, {"bike_id": "a6aafe2b8b4a93086a02da150cd2c66f", "fusion_lon": 0.0, "lon": -77.18740083333333, "name": "a6aafe2b8b4a93086a02da150cd2c66f", "is_disabled": 0, "rental_uris": {"android": "https://dc.lft.to/lastmile_qr_scan", "ios": "https://dc.lft.to/lastmile_qr_scan"}, "type": "electric_bike", "lat": 38.89351383333333, "is_reserved": 0, "fusion_lat": 0.0}, {"bike_id": "3c6bf75dd3085a468dd2f9aaaede894a", "fusion_lon": 0.0, "lon": -77.01297783333334, "name": "3c6bf75dd3085a468dd2f9aaaede894a", "is_disabled": 0, "rental_uris": {"android": "https://dc.lft.to/lastmile_qr_scan", "ios": "https://dc.lft.to/lastmile_qr_scan"}, "type": "electric_scooter", "lat": 38.88137066666667, "is_reserved": 0, "fusion_lat": 0.0}, {"bike_id": "137550c2c03a0c5584d291652fbe074d", "fusion_lon": 0.0, "lon": -77.058533, "name": "137550c2c03a0c5584d291652fbe074d", "is_disabled": 0, "rental_uris": {"android": "https://dc.lft.to/lastmile_qr_scan", "ios": "https://dc.lft.to/lastmile_qr_scan"}, "type": "electric_scooter", "lat": 38.936041, "is_reserved": 0, "fusion_lat": 0.0}, {"bike_id": "ecaca7a94fa4bdbb26519e501b617235", "fusion_lon": 0.0, "lon": -77.01838066666667, "name": "ecaca7a94fa4bdbb26519e501b617235", "is_disabled": 0, "rental_uris": {"android": "https://dc.lft.to/lastmile_qr_scan", "ios": "https://dc.lft.to/lastmile_qr_scan"}, "type": "electric_scooter", "lat": 38.87704166666666, "is_reserved": 0, "fusion_lat": 0.0}, {"bike_id": "580eb73bc4ef6dbfc0eff32ccc85259a", "fusion_lon": 0.0, "lon": -76.9959895, "name": "580eb73bc4ef6dbfc0eff32ccc85259a", "is_disabled": 0, "rental_uris": {"android": "https://dc.lft.to/lastmile_qr_scan", "ios": "https://dc.lft.to/lastmile_qr_scan"}, "type": "electric_bike", "lat": 38.950701, "is_reserved": 0, "fusion_lat": 0.0}, {"bike_id": "15ed6f884a9a73b47d14319db6759c28", "fusion_lon": 0.0, "lon": -77.08600616666666, "name": "15ed6f884a9a73b47d14319db6759c28", "is_disabled": 0, "rental_uris": {"android": "https://dc.lft.to/lastmile_qr_scan", "ios": "https://dc.lft.to/lastmile_qr_scan"}, "type": "electric_scooter", "lat": 38.90873233333333, "is_reserved": 0, "fusion_lat": 0.0}, {"bike_id": "7bba3407027c0c3c7cd99748b81ed195", "fusion_lon": 0.0, "lon": -77.02213366666666, "name": "7bba3407027c0c3c7cd99748b81ed195", "is_disabled": 0, "rental_uris": {"android": "https://dc.lft.to/lastmile_qr_scan", "ios": "https://dc.lft.to/lastmile_qr_scan"}, "type": "electric_scooter", "lat": 38.915656, "is_reserved": 0, "fusion_lat": 0.0}, {"bike_id": "1196be1c36b9a5c97ee3f6dd472baa0d", "fusion_lon": 0.0, "lon": -77.04337983333333, "name": "1196be1c36b9a5c97ee3f6dd472baa0d", "is_disabled": 0, "rental_uris": {"android": "https://dc.lft.to/lastmile_qr_scan", "ios": "https://dc.lft.to/lastmile_qr_scan"}, "type": "electric_scooter", "lat": 38.895266166666666, "is_reserved": 0, "fusion_lat": 0.0}, {"bike_id": "3aa7a2bff87037e1cab9af0b85b232d9", "fusion_lon": 0.0, "lon": -77.04461533333334, "name": "3aa7a2bff87037e1cab9af0b85b232d9", "is_disabled": 0, "rental_uris": {"android": "https://dc.lft.to/lastmile_qr_scan", "ios": "https://dc.lft.to/lastmile_qr_scan"}, "type": "electric_scooter", "lat": 38.9118665, "is_reserved": 0, "fusion_lat": 0.0}, {"bike_id": "b7d305e43f00767f52b4d0711f8b6c09", "fusion_lon": 0.0, "lon": -76.964671, "name": "b7d305e43f00767f52b4d0711f8b6c09", "is_disabled": 0, "rental_uris": {"android": "https://dc.lft.to/lastmile_qr_scan", "ios": "https://dc.lft.to/lastmile_qr_scan"}, "type": "electric_scooter", "lat": 38.934486666666665, "is_reserved": 0, "fusion_lat": 0.0}, {"bike_id": "7260b76a5914c42deed5f11a1ad0285c", "fusion_lon": 0.0, "lon": -77.031477, "name": "7260b76a5914c42deed5f11a1ad0285c", "is_disabled": 0, "rental_uris": {"android": "https://dc.lft.to/lastmile_qr_scan", "ios": "https://dc.lft.to/lastmile_qr_scan"}, "type": "electric_scooter", "lat": 38.920161, "is_reserved": 0, "fusion_lat": 0.0}, {"bike_id": "32b3761bdb1be859d2d60f02fec3e27a", "fusion_lon": 0.0, "lon": -77.03185633333334, "name": "32b3761bdb1be859d2d60f02fec3e27a", "is_disabled": 0, "rental_uris": {"android": "https://dc.lft.to/lastmile_qr_scan", "ios": "https://dc.lft.to/lastmile_qr_scan"}, "type": "electric_scooter", "lat": 38.9249285, "is_reserved": 0, "fusion_lat": 0.0}, {"bike_id": "a728f80a6b13e188ed94e80c9098de9f", "fusion_lon": 0.0, "lon": -77.073015, "name": "a728f80a6b13e188ed94e80c9098de9f", "is_disabled": 0, "rental_uris": {"android": "https://dc.lft.to/lastmile_qr_scan", "ios": "https://dc.lft.to/lastmile_qr_scan"}, "type": "electric_scooter", "lat": 38.92879516666667, "is_reserved": 0, "fusion_lat": 0.0}, {"bike_id": "a537ed9d6e35eee76050f981fcc3e2f9", "fusion_lon": 0.0, "lon": -76.99944966666666, "name": "a537ed9d6e35eee76050f981fcc3e2f9", "is_disabled": 0, "rental_uris": {"android": "https://dc.lft.to/lastmile_qr_scan", "ios": "https://dc.lft.to/lastmile_qr_scan"}, "type": "electric_scooter", "lat": 38.842909666666664, "is_reserved": 0, "fusion_lat": 0.0}, {"bike_id": "e44e93f2aa5f10709e02e930074c571b", "fusion_lon": 0.0, "lon": -77.00757316666666, "name": "e44e93f2aa5f10709e02e930074c571b", "is_disabled": 0, "rental_uris": {"android": "https://dc.lft.to/lastmile_qr_scan", "ios": "https://dc.lft.to/lastmile_qr_scan"}, "type": "electric_scooter", "lat": 38.877409, "is_reserved": 0, "fusion_lat": 0.0}, {"bike_id": "72c83eff72426a0ae7e1334795ce2e4b", "fusion_lon": 0.0, "lon": -77.0280585, "name": "72c83eff72426a0ae7e1334795ce2e4b", "is_disabled": 0, "rental_uris": {"android": "https://dc.lft.to/lastmile_qr_scan", "ios": "https://dc.lft.to/lastmile_qr_scan"}, "type": "electric_scooter", "lat": 38.91686283333333, "is_reserved": 0, "fusion_lat": 0.0}, {"bike_id": "46ca9272a81263598ee9de602baba29b", "fusion_lon": 0.0, "lon": -77.04379583333333, "name": "46ca9272a81263598ee9de602baba29b", "is_disabled": 0, "rental_uris": {"android": "https://dc.lft.to/lastmile_qr_scan", "ios": "https://dc.lft.to/lastmile_qr_scan"}, "type": "electric_scooter", "lat": 38.9108325, "is_reserved": 0, "fusion_lat": 0.0}, {"bike_id": "bdab0993b5ae4c7db316b7018f9fe2b3", "fusion_lon": 0.0, "lon": -77.03573616666667, "name": "bdab0993b5ae4c7db316b7018f9fe2b3", "is_disabled": 0, "rental_uris": {"android": "https://dc.lft.to/lastmile_qr_scan", "ios": "https://dc.lft.to/lastmile_qr_scan"}, "type": "electric_scooter", "lat": 38.923345833333336, "is_reserved": 0, "fusion_lat": 0.0}, {"bike_id": "5c477769c11e3cc429dffbe495d9d935", "fusion_lon": 0.0, "lon": -77.027143, "name": "5c477769c11e3cc429dffbe495d9d935", "is_disabled": 0, "rental_uris": {"android": "https://dc.lft.to/lastmile_qr_scan", "ios": "https://dc.lft.to/lastmile_qr_scan"}, "type": "electric_scooter", "lat": 38.906848333333336, "is_reserved": 0, "fusion_lat": 0.0}, {"bike_id": "6c9357c4144f791a0d521c9d0572661b", "fusion_lon": 0.0, "lon": -76.99353533333333, "name": "6c9357c4144f791a0d521c9d0572661b", "is_disabled": 0, "rental_uris": {"android": "https://dc.lft.to/lastmile_qr_scan", "ios": "https://dc.lft.to/lastmile_qr_scan"}, "type": "electric_bike", "lat": 38.84505133333333, "is_reserved": 0, "fusion_lat": 0.0}, {"bike_id": "9fd2a41bb7b225ca26a10abc19ea5554", "fusion_lon": 0.0, "lon": -77.0271685, "name": "9fd2a41bb7b225ca26a10abc19ea5554", "is_disabled": 0, "rental_uris": {"android": "https://dc.lft.to/lastmile_qr_scan", "ios": "https://dc.lft.to/lastmile_qr_scan"}, "type": "electric_scooter", "lat": 38.90669183333333, "is_reserved": 0, "fusion_lat": 0.0}, {"bike_id": "1a28572a5d75370a0f8e0a8ce1be0a09", "fusion_lon": 0.0, "lon": -77.02184216666667, "name": "1a28572a5d75370a0f8e0a8ce1be0a09", "is_disabled": 0, "rental_uris": {"android": "https://dc.lft.to/lastmile_qr_scan", "ios": "https://dc.lft.to/lastmile_qr_scan"}, "type": "electric_scooter", "lat": 38.89801816666667, "is_reserved": 0, "fusion_lat": 0.0}, {"bike_id": "68a76a779f60c0994b8166d8498a3ce1", "fusion_lon": 0.0, "lon": -77.05277283333334, "name": "68a76a779f60c0994b8166d8498a3ce1", "is_disabled": 0, "rental_uris": {"android": "https://dc.lft.to/lastmile_qr_scan", "ios": "https://dc.lft.to/lastmile_qr_scan"}, "type": "electric_scooter", "lat": 38.92538, "is_reserved": 0, "fusion_lat": 0.0}, {"bike_id": "8b08b5451aeb3dac15e8460854316994", "fusion_lon": 0.0, "lon": -76.9982305, "name": "8b08b5451aeb3dac15e8460854316994", "is_disabled": 0, "rental_uris": {"android": "https://dc.lft.to/lastmile_qr_scan", "ios": "https://dc.lft.to/lastmile_qr_scan"}, "type": "electric_scooter", "lat": 38.90823183333333, "is_reserved": 0, "fusion_lat": 0.0}, {"bike_id": "242e52dead8d772b0f50517982cf5362", "fusion_lon": 0.0, "lon": -77.0314725, "name": "242e52dead8d772b0f50517982cf5362", "is_disabled": 0, "rental_uris": {"android": "https://dc.lft.to/lastmile_qr_scan", "ios": "https://dc.lft.to/lastmile_qr_scan"}, "type": "electric_scooter", "lat": 38.917932, "is_reserved": 0, "fusion_lat": 0.0}, {"bike_id": "bfcca28699bce8be7e4af83c4d24d1b7", "fusion_lon": 0.0, "lon": -77.02797033333333, "name": "bfcca28699bce8be7e4af83c4d24d1b7", "is_disabled": 0, "rental_uris": {"android": "https://dc.lft.to/lastmile_qr_scan", "ios": "https://dc.lft.to/lastmile_qr_scan"}, "type": "electric_scooter", "lat": 38.953923833333334, "is_reserved": 0, "fusion_lat": 0.0}, {"bike_id": "d8d466833ac5a0372933fb837406cd13", "fusion_lon": 0.0, "lon": -77.0222025, "name": "d8d466833ac5a0372933fb837406cd13", "is_disabled": 0, "rental_uris": {"android": "https://dc.lft.to/lastmile_qr_scan", "ios": "https://dc.lft.to/lastmile_qr_scan"}, "type": "electric_scooter", "lat": 38.915510166666664, "is_reserved": 0, "fusion_lat": 0.0}, {"bike_id": "bc9017c289ef49e6eea45710268f6d5e", "fusion_lon": 0.0, "lon": -77.0454185, "name": "bc9017c289ef49e6eea45710268f6d5e", "is_disabled": 0, "rental_uris": {"android": "https://dc.lft.to/lastmile_qr_scan", "ios": "https://dc.lft.to/lastmile_qr_scan"}, "type": "electric_scooter", "lat": 38.9329575, "is_reserved": 0, "fusion_lat": 0.0}, {"bike_id": "6dea7dd494117be91c771b99225ebe83", "fusion_lon": 0.0, "lon": -77.0269, "name": "6dea7dd494117be91c771b99225ebe83", "is_disabled": 0, "rental_uris": {"android": "https://dc.lft.to/lastmile_qr_scan", "ios": "https://dc.lft.to/lastmile_qr_scan"}, "type": "electric_scooter", "lat": 38.908534, "is_reserved": 0, "fusion_lat": 0.0}, {"bike_id": "78af3789b5973a7bd6798e14c73e702c", "fusion_lon": 0.0, "lon": -77.03445466666666, "name": "78af3789b5973a7bd6798e14c73e702c", "is_disabled": 0, "rental_uris": {"android": "https://dc.lft.to/lastmile_qr_scan", "ios": "https://dc.lft.to/lastmile_qr_scan"}, "type": "electric_scooter", "lat": 38.934335833333336, "is_reserved": 0, "fusion_lat": 0.0}, {"bike_id": "51ca2e240de38e5e0c66019316f46d22", "fusion_lon": 0.0, "lon": -77.05124, "name": "51ca2e240de38e5e0c66019316f46d22", "is_disabled": 0, "rental_uris": {"android": "https://dc.lft.to/lastmile_qr_scan", "ios": "https://dc.lft.to/lastmile_qr_scan"}, "type": "electric_scooter", "lat": 38.9234335, "is_reserved": 0, "fusion_lat": 0.0}, {"bike_id": "160d5a3a488b03138a75dd71d4ac0061", "fusion_lon": 0.0, "lon": -76.93134916666666, "name": "160d5a3a488b03138a75dd71d4ac0061", "is_disabled": 0, "rental_uris": {"android": "https://dc.lft.to/lastmile_qr_scan", "ios": "https://dc.lft.to/lastmile_qr_scan"}, "type": "electric_scooter", "lat": 38.89337583333333, "is_reserved": 0, "fusion_lat": 0.0}, {"bike_id": "5ec3274cd3f43f781e0bd22afd270843", "fusion_lon": 0.0, "lon": -77.02764333333333, "name": "5ec3274cd3f43f781e0bd22afd270843", "is_disabled": 0, "rental_uris": {"android": "https://dc.lft.to/lastmile_qr_scan", "ios": "https://dc.lft.to/lastmile_qr_scan"}, "type": "electric_scooter", "lat": 38.95424883333333, "is_reserved": 0, "fusion_lat": 0.0}, {"bike_id": "206a79225da86bee91bee78a7a483d7e", "fusion_lon": 0.0, "lon": -77.04319916666667, "name": "206a79225da86bee91bee78a7a483d7e", "is_disabled": 0, "rental_uris": {"android": "https://dc.lft.to/lastmile_qr_scan", "ios": "https://dc.lft.to/lastmile_qr_scan"}, "type": "electric_scooter", "lat": 38.923131, "is_reserved": 0, "fusion_lat": 0.0}, {"bike_id": "229631ab16b76d14e4c9c5c20135cbd7", "fusion_lon": 0.0, "lon": -76.9652985, "name": "229631ab16b76d14e4c9c5c20135cbd7", "is_disabled": 0, "rental_uris": {"android": "https://dc.lft.to/lastmile_qr_scan", "ios": "https://dc.lft.to/lastmile_qr_scan"}, "type": "electric_scooter", "lat": 38.87625416666667, "is_reserved": 0, "fusion_lat": 0.0}, {"bike_id": "a639fb66cee24f6e9ea32f162665575b", "fusion_lon": 0.0, "lon": -77.021675, "name": "a639fb66cee24f6e9ea32f162665575b", "is_disabled": 0, "rental_uris": {"android": "https://dc.lft.to/lastmile_qr_scan", "ios": "https://dc.lft.to/lastmile_qr_scan"}, "type": "electric_scooter", "lat": 38.94293433333333, "is_reserved": 0, "fusion_lat": 0.0}, {"bike_id": "600ead02e005153e8d6f447fdf190230", "fusion_lon": 0.0, "lon": -77.0153285, "name": "600ead02e005153e8d6f447fdf190230", "is_disabled": 0, "rental_uris": {"android": "https://dc.lft.to/lastmile_qr_scan", "ios": "https://dc.lft.to/lastmile_qr_scan"}, "type": "electric_scooter", "lat": 38.88743016666667, "is_reserved": 0, "fusion_lat": 0.0}, {"bike_id": "d0d3df4f7addc1d062fe0f24e2660342", "fusion_lon": 0.0, "lon": -77.047817, "name": "d0d3df4f7addc1d062fe0f24e2660342", "is_disabled": 0, "rental_uris": {"android": "https://dc.lft.to/lastmile_qr_scan", "ios": "https://dc.lft.to/lastmile_qr_scan"}, "type": "electric_scooter", "lat": 38.893640166666664, "is_reserved": 0, "fusion_lat": 0.0}, {"bike_id": "57010834e4bf4a52fb95fdc2ccb80062", "fusion_lon": 0.0, "lon": -77.02816583333333, "name": "57010834e4bf4a52fb95fdc2ccb80062", "is_disabled": 0, "rental_uris": {"android": "https://dc.lft.to/lastmile_qr_scan", "ios": "https://dc.lft.to/lastmile_qr_scan"}, "type": "electric_scooter", "lat": 38.93173383333333, "is_reserved": 0, "fusion_lat": 0.0}, {"bike_id": "40b111d9c9a5a15fd13a65b0ba75bd99", "fusion_lon": 0.0, "lon": -76.98093883333334, "name": "40b111d9c9a5a15fd13a65b0ba75bd99", "is_disabled": 0, "rental_uris": {"android": "https://dc.lft.to/lastmile_qr_scan", "ios": "https://dc.lft.to/lastmile_qr_scan"}, "type": "electric_bike", "lat": 38.95357216666667, "is_reserved": 0, "fusion_lat": 0.0}, {"bike_id": "c8af841395d707554accb42ab8db4a03", "fusion_lon": 0.0, "lon": -77.00577066666666, "name": "c8af841395d707554accb42ab8db4a03", "is_disabled": 0, "rental_uris": {"android": "https://dc.lft.to/lastmile_qr_scan", "ios": "https://dc.lft.to/lastmile_qr_scan"}, "type": "electric_scooter", "lat": 38.908860833333335, "is_reserved": 0, "fusion_lat": 0.0}, {"bike_id": "927b5132cb344b79643534e9ad822a55", "fusion_lon": 0.0, "lon": -77.04283116666667, "name": "927b5132cb344b79643534e9ad822a55", "is_disabled": 0, "rental_uris": {"android": "https://dc.lft.to/lastmile_qr_scan", "ios": "https://dc.lft.to/lastmile_qr_scan"}, "type": "electric_scooter", "lat": 38.920614, "is_reserved": 0, "fusion_lat": 0.0}, {"bike_id": "4dcb6cb5ca70bed4672ccc429427aa3a", "fusion_lon": 0.0, "lon": -77.0201165, "name": "4dcb6cb5ca70bed4672ccc429427aa3a", "is_disabled": 0, "rental_uris": {"android": "https://dc.lft.to/lastmile_qr_scan", "ios": "https://dc.lft.to/lastmile_qr_scan"}, "type": "electric_scooter", "lat": 38.924193833333334, "is_reserved": 0, "fusion_lat": 0.0}, {"bike_id": "603a07fd7a18a2631d4eefd111ae9b0c", "fusion_lon": 0.0, "lon": -77.02628666666666, "name": "603a07fd7a18a2631d4eefd111ae9b0c", "is_disabled": 0, "rental_uris": {"android": "https://dc.lft.to/lastmile_qr_scan", "ios": "https://dc.lft.to/lastmile_qr_scan"}, "type": "electric_bike", "lat": 38.962220333333335, "is_reserved": 0, "fusion_lat": 0.0}, {"bike_id": "3e83b6296792addae154938188c0d2fd", "fusion_lon": 0.0, "lon": -77.02883183333333, "name": "3e83b6296792addae154938188c0d2fd", "is_disabled": 0, "rental_uris": {"android": "https://dc.lft.to/lastmile_qr_scan", "ios": "https://dc.lft.to/lastmile_qr_scan"}, "type": "electric_bike", "lat": 38.994064333333334, "is_reserved": 0, "fusion_lat": 0.0}, {"bike_id": "fb2cb1d6d7d9dee2f97ed3954a6d1944", "fusion_lon": 0.0, "lon": -77.03179066666667, "name": "fb2cb1d6d7d9dee2f97ed3954a6d1944", "is_disabled": 0, "rental_uris": {"android": "https://dc.lft.to/lastmile_qr_scan", "ios": "https://dc.lft.to/lastmile_qr_scan"}, "type": "electric_scooter", "lat": 38.916183333333336, "is_reserved": 0, "fusion_lat": 0.0}, {"bike_id": "dab83d399ddd8d47951d5cb0e958a275", "fusion_lon": 0.0, "lon": -77.04395083333333, "name": "dab83d399ddd8d47951d5cb0e958a275", "is_disabled": 0, "rental_uris": {"android": "https://dc.lft.to/lastmile_qr_scan", "ios": "https://dc.lft.to/lastmile_qr_scan"}, "type": "electric_scooter", "lat": 38.914084, "is_reserved": 0, "fusion_lat": 0.0}, {"bike_id": "be28b2feaee90bee30d1d683e1eb48ca", "fusion_lon": 0.0, "lon": -76.98578083333334, "name": "be28b2feaee90bee30d1d683e1eb48ca", "is_disabled": 0, "rental_uris": {"android": "https://dc.lft.to/lastmile_qr_scan", "ios": "https://dc.lft.to/lastmile_qr_scan"}, "type": "electric_scooter", "lat": 38.85448733333333, "is_reserved": 0, "fusion_lat": 0.0}, {"bike_id": "bf19d5ef8b3c6d8d9cceb6d8e3370ae6", "fusion_lon": 0.0, "lon": -77.0093065, "name": "bf19d5ef8b3c6d8d9cceb6d8e3370ae6", "is_disabled": 0, "rental_uris": {"android": "https://dc.lft.to/lastmile_qr_scan", "ios": "https://dc.lft.to/lastmile_qr_scan"}, "type": "electric_scooter", "lat": 38.918145833333334, "is_reserved": 0, "fusion_lat": 0.0}, {"bike_id": "47d3c09051e0e851e2259de7279642cf", "fusion_lon": 0.0, "lon": -77.00733, "name": "47d3c09051e0e851e2259de7279642cf", "is_disabled": 0, "rental_uris": {"android": "https://dc.lft.to/lastmile_qr_scan", "ios": "https://dc.lft.to/lastmile_qr_scan"}, "type": "electric_scooter", "lat": 38.898311166666666, "is_reserved": 0, "fusion_lat": 0.0}, {"bike_id": "a9cf5c1ae28389cf67d3897bb6e34941", "fusion_lon": 0.0, "lon": -77.03214666666666, "name": "a9cf5c1ae28389cf67d3897bb6e34941", "is_disabled": 0, "rental_uris": {"android": "https://dc.lft.to/lastmile_qr_scan", "ios": "https://dc.lft.to/lastmile_qr_scan"}, "type": "electric_scooter", "lat": 38.915542, "is_reserved": 0, "fusion_lat": 0.0}, {"bike_id": "f96beb24c51bf415fbcb4150e8526330", "fusion_lon": 0.0, "lon": -77.027128, "name": "f96beb24c51bf415fbcb4150e8526330", "is_disabled": 0, "rental_uris": {"android": "https://dc.lft.to/lastmile_qr_scan", "ios": "https://dc.lft.to/lastmile_qr_scan"}, "type": "electric_scooter", "lat": 38.900673166666664, "is_reserved": 0, "fusion_lat": 0.0}, {"bike_id": "8e5897b9a9b7c55352ad25242ff0e3f2", "fusion_lon": 0.0, "lon": -77.03228816666666, "name": "8e5897b9a9b7c55352ad25242ff0e3f2", "is_disabled": 0, "rental_uris": {"android": "https://dc.lft.to/lastmile_qr_scan", "ios": "https://dc.lft.to/lastmile_qr_scan"}, "type": "electric_scooter", "lat": 38.90148516666667, "is_reserved": 0, "fusion_lat": 0.0}, {"bike_id": "d637320231e6d8bd8fd2492c9eacc8ea", "fusion_lon": 0.0, "lon": -77.0230985, "name": "d637320231e6d8bd8fd2492c9eacc8ea", "is_disabled": 0, "rental_uris": {"android": "https://dc.lft.to/lastmile_qr_scan", "ios": "https://dc.lft.to/lastmile_qr_scan"}, "type": "electric_scooter", "lat": 38.90962666666667, "is_reserved": 0, "fusion_lat": 0.0}, {"bike_id": "ba5d4b7a40c88bdcc7fddb1b559ccb26", "fusion_lon": 0.0, "lon": -76.9318555, "name": "ba5d4b7a40c88bdcc7fddb1b559ccb26", "is_disabled": 0, "rental_uris": {"android": "https://dc.lft.to/lastmile_qr_scan", "ios": "https://dc.lft.to/lastmile_qr_scan"}, "type": "electric_scooter", "lat": 38.89876483333333, "is_reserved": 0, "fusion_lat": 0.0}, {"bike_id": "99ad0ae7f7a2f9380b98427c1457d7ab", "fusion_lon": 0.0, "lon": -77.02419733333333, "name": "99ad0ae7f7a2f9380b98427c1457d7ab", "is_disabled": 0, "rental_uris": {"android": "https://dc.lft.to/lastmile_qr_scan", "ios": "https://dc.lft.to/lastmile_qr_scan"}, "type": "electric_scooter", "lat": 38.921875666666665, "is_reserved": 0, "fusion_lat": 0.0}, {"bike_id": "7e40efe1fae1686a34615c5507020d29", "fusion_lon": 0.0, "lon": -77.1013255, "name": "7e40efe1fae1686a34615c5507020d29", "is_disabled": 0, "rental_uris": {"android": "https://dc.lft.to/lastmile_qr_scan", "ios": "https://dc.lft.to/lastmile_qr_scan"}, "type": "electric_bike", "lat": 38.852072, "is_reserved": 0, "fusion_lat": 0.0}, {"bike_id": "8638136d0ff495e53978027e2c3fe50d", "fusion_lon": 0.0, "lon": -77.03465566666667, "name": "8638136d0ff495e53978027e2c3fe50d", "is_disabled": 0, "rental_uris": {"android": "https://dc.lft.to/lastmile_qr_scan", "ios": "https://dc.lft.to/lastmile_qr_scan"}, "type": "electric_scooter", "lat": 38.908667, "is_reserved": 0, "fusion_lat": 0.0}, {"bike_id": "8e1f86a5a210e9b53d85d77a636f6a4f", "fusion_lon": 0.0, "lon": -76.96544266666666, "name": "8e1f86a5a210e9b53d85d77a636f6a4f", "is_disabled": 0, "rental_uris": {"android": "https://dc.lft.to/lastmile_qr_scan", "ios": "https://dc.lft.to/lastmile_qr_scan"}, "type": "electric_scooter", "lat": 38.918477833333334, "is_reserved": 0, "fusion_lat": 0.0}, {"bike_id": "5ff460cd7b5a9425b7ef5a50e3d53277", "fusion_lon": 0.0, "lon": -77.02367633333333, "name": "5ff460cd7b5a9425b7ef5a50e3d53277", "is_disabled": 0, "rental_uris": {"android": "https://dc.lft.to/lastmile_qr_scan", "ios": "https://dc.lft.to/lastmile_qr_scan"}, "type": "electric_scooter", "lat": 38.8922075, "is_reserved": 0, "fusion_lat": 0.0}, {"bike_id": "0b0db92578d19e32230e0b2f1f5172e6", "fusion_lon": 0.0, "lon": -77.0290635, "name": "0b0db92578d19e32230e0b2f1f5172e6", "is_disabled": 0, "rental_uris": {"android": "https://dc.lft.to/lastmile_qr_scan", "ios": "https://dc.lft.to/lastmile_qr_scan"}, "type": "electric_scooter", "lat": 38.92572, "is_reserved": 0, "fusion_lat": 0.0}, {"bike_id": "60c489375655ee0d3e25bf1c33be2d86", "fusion_lon": 0.0, "lon": -77.04068933333333, "name": "60c489375655ee0d3e25bf1c33be2d86", "is_disabled": 0, "rental_uris": {"android": "https://dc.lft.to/lastmile_qr_scan", "ios": "https://dc.lft.to/lastmile_qr_scan"}, "type": "electric_scooter", "lat": 38.9051135, "is_reserved": 0, "fusion_lat": 0.0}, {"bike_id": "25afd26fe332962687825c3a302d13f3", "fusion_lon": 0.0, "lon": -77.05526416666666, "name": "25afd26fe332962687825c3a302d13f3", "is_disabled": 0, "rental_uris": {"android": "https://dc.lft.to/lastmile_qr_scan", "ios": "https://dc.lft.to/lastmile_qr_scan"}, "type": "electric_scooter", "lat": 38.9301705, "is_reserved": 0, "fusion_lat": 0.0}, {"bike_id": "891ab5032828c4acf06a1edbf2243ce2", "fusion_lon": 0.0, "lon": -77.04142533333334, "name": "891ab5032828c4acf06a1edbf2243ce2", "is_disabled": 0, "rental_uris": {"android": "https://dc.lft.to/lastmile_qr_scan", "ios": "https://dc.lft.to/lastmile_qr_scan"}, "type": "electric_scooter", "lat": 38.9229905, "is_reserved": 0, "fusion_lat": 0.0}, {"bike_id": "f0c2ad74b1827e0926195f60d70421c4", "fusion_lon": 0.0, "lon": -77.02754333333333, "name": "f0c2ad74b1827e0926195f60d70421c4", "is_disabled": 0, "rental_uris": {"android": "https://dc.lft.to/lastmile_qr_scan", "ios": "https://dc.lft.to/lastmile_qr_scan"}, "type": "electric_scooter", "lat": 38.93362583333333, "is_reserved": 0, "fusion_lat": 0.0}, {"bike_id": "474582a7b55ef7b2b4075c98cb2e4743", "fusion_lon": 0.0, "lon": -77.02723233333333, "name": "474582a7b55ef7b2b4075c98cb2e4743", "is_disabled": 0, "rental_uris": {"android": "https://dc.lft.to/lastmile_qr_scan", "ios": "https://dc.lft.to/lastmile_qr_scan"}, "type": "electric_scooter", "lat": 38.94956483333333, "is_reserved": 0, "fusion_lat": 0.0}, {"bike_id": "9482b73a7e7adb47454cf5eac269afb4", "fusion_lon": 0.0, "lon": -76.99349916666667, "name": "9482b73a7e7adb47454cf5eac269afb4", "is_disabled": 0, "rental_uris": {"android": "https://dc.lft.to/lastmile_qr_scan", "ios": "https://dc.lft.to/lastmile_qr_scan"}, "type": "electric_scooter", "lat": 38.914818833333335, "is_reserved": 0, "fusion_lat": 0.0}, {"bike_id": "b9e8730be85c816cfca77cb2a473d9c7", "fusion_lon": 0.0, "lon": -77.03882433333334, "name": "b9e8730be85c816cfca77cb2a473d9c7", "is_disabled": 0, "rental_uris": {"android": "https://dc.lft.to/lastmile_qr_scan", "ios": "https://dc.lft.to/lastmile_qr_scan"}, "type": "electric_scooter", "lat": 38.92231233333333, "is_reserved": 0, "fusion_lat": 0.0}, {"bike_id": "2540f2398bd5c9bf9981461744f556e1", "fusion_lon": 0.0, "lon": -77.018665, "name": "2540f2398bd5c9bf9981461744f556e1", "is_disabled": 0, "rental_uris": {"android": "https://dc.lft.to/lastmile_qr_scan", "ios": "https://dc.lft.to/lastmile_qr_scan"}, "type": "electric_scooter", "lat": 38.97367916666666, "is_reserved": 0, "fusion_lat": 0.0}, {"bike_id": "7ea52e3c11003f6bad31ac198e8ee01f", "fusion_lon": 0.0, "lon": -77.02326983333333, "name": "7ea52e3c11003f6bad31ac198e8ee01f", "is_disabled": 0, "rental_uris": {"android": "https://dc.lft.to/lastmile_qr_scan", "ios": "https://dc.lft.to/lastmile_qr_scan"}, "type": "electric_scooter", "lat": 38.916934, "is_reserved": 0, "fusion_lat": 0.0}, {"bike_id": "d61c26b9b2e82635b5a9d3c4b55e189b", "fusion_lon": 0.0, "lon": -77.046026, "name": "d61c26b9b2e82635b5a9d3c4b55e189b", "is_disabled": 0, "rental_uris": {"android": "https://dc.lft.to/lastmile_qr_scan", "ios": "https://dc.lft.to/lastmile_qr_scan"}, "type": "electric_scooter", "lat": 38.91920016666667, "is_reserved": 0, "fusion_lat": 0.0}, {"bike_id": "863f48d70a6199033210d8d2a9251818", "fusion_lon": 0.0, "lon": -77.02424066666667, "name": "863f48d70a6199033210d8d2a9251818", "is_disabled": 0, "rental_uris": {"android": "https://dc.lft.to/lastmile_qr_scan", "ios": "https://dc.lft.to/lastmile_qr_scan"}, "type": "electric_scooter", "lat": 38.937077333333335, "is_reserved": 0, "fusion_lat": 0.0}, {"bike_id": "5b1b85cee9900a88bd9d13bdeb2de39b", "fusion_lon": 0.0, "lon": -77.05858883333333, "name": "5b1b85cee9900a88bd9d13bdeb2de39b", "is_disabled": 0, "rental_uris": {"android": "https://dc.lft.to/lastmile_qr_scan", "ios": "https://dc.lft.to/lastmile_qr_scan"}, "type": "electric_scooter", "lat": 38.93608866666667, "is_reserved": 0, "fusion_lat": 0.0}, {"bike_id": "0a2fc437e8bff2548dbe49741f55f592", "fusion_lon": 0.0, "lon": -77.02933683333333, "name": "0a2fc437e8bff2548dbe49741f55f592", "is_disabled": 0, "rental_uris": {"android": "https://dc.lft.to/lastmile_qr_scan", "ios": "https://dc.lft.to/lastmile_qr_scan"}, "type": "electric_scooter", "lat": 38.9052375, "is_reserved": 0, "fusion_lat": 0.0}, {"bike_id": "19d9ac16ad6572d87891a3ba4d33975e", "fusion_lon": 0.0, "lon": -77.02356216666666, "name": "19d9ac16ad6572d87891a3ba4d33975e", "is_disabled": 0, "rental_uris": {"android": "https://dc.lft.to/lastmile_qr_scan", "ios": "https://dc.lft.to/lastmile_qr_scan"}, "type": "electric_scooter", "lat": 38.931189833333335, "is_reserved": 0, "fusion_lat": 0.0}, {"bike_id": "590671fe8e0198157985e7f6f22d58ff", "fusion_lon": 0.0, "lon": -76.98106716666666, "name": "590671fe8e0198157985e7f6f22d58ff", "is_disabled": 0, "rental_uris": {"android": "https://dc.lft.to/lastmile_qr_scan", "ios": "https://dc.lft.to/lastmile_qr_scan"}, "type": "electric_bike", "lat": 38.87732483333333, "is_reserved": 0, "fusion_lat": 0.0}, {"bike_id": "7ca2b534b5d8f717d66a9006104b7837", "fusion_lon": 0.0, "lon": -77.029175, "name": "7ca2b534b5d8f717d66a9006104b7837", "is_disabled": 0, "rental_uris": {"android": "https://dc.lft.to/lastmile_qr_scan", "ios": "https://dc.lft.to/lastmile_qr_scan"}, "type": "electric_scooter", "lat": 38.933297833333334, "is_reserved": 0, "fusion_lat": 0.0}, {"bike_id": "8c7c2e8e3e04926c36c60f518fe515ab", "fusion_lon": 0.0, "lon": -77.01770016666667, "name": "8c7c2e8e3e04926c36c60f518fe515ab", "is_disabled": 0, "rental_uris": {"android": "https://dc.lft.to/lastmile_qr_scan", "ios": "https://dc.lft.to/lastmile_qr_scan"}, "type": "electric_scooter", "lat": 38.90074966666667, "is_reserved": 0, "fusion_lat": 0.0}, {"bike_id": "2c0a8aee7a552de219256ed12cee675e", "fusion_lon": 0.0, "lon": -77.027147, "name": "2c0a8aee7a552de219256ed12cee675e", "is_disabled": 0, "rental_uris": {"android": "https://dc.lft.to/lastmile_qr_scan", "ios": "https://dc.lft.to/lastmile_qr_scan"}, "type": "electric_scooter", "lat": 38.91563083333333, "is_reserved": 0, "fusion_lat": 0.0}, {"bike_id": "c8a8dba1f5e60e62db9d5c0dc9d5b9a9", "fusion_lon": 0.0, "lon": -77.03239083333334, "name": "c8a8dba1f5e60e62db9d5c0dc9d5b9a9", "is_disabled": 0, "rental_uris": {"android": "https://dc.lft.to/lastmile_qr_scan", "ios": "https://dc.lft.to/lastmile_qr_scan"}, "type": "electric_scooter", "lat": 38.920058166666664, "is_reserved": 0, "fusion_lat": 0.0}, {"bike_id": "e402d1cfa4fd138761110517aa3cec89", "fusion_lon": 0.0, "lon": -77.04502733333334, "name": "e402d1cfa4fd138761110517aa3cec89", "is_disabled": 0, "rental_uris": {"android": "https://dc.lft.to/lastmile_qr_scan", "ios": "https://dc.lft.to/lastmile_qr_scan"}, "type": "electric_bike", "lat": 38.842882833333334, "is_reserved": 0, "fusion_lat": 0.0}, {"bike_id": "401f5d1a5e1a4b0243e89e122638d830", "fusion_lon": 0.0, "lon": -77.07272166666667, "name": "401f5d1a5e1a4b0243e89e122638d830", "is_disabled": 0, "rental_uris": {"android": "https://dc.lft.to/lastmile_qr_scan", "ios": "https://dc.lft.to/lastmile_qr_scan"}, "type": "electric_scooter", "lat": 38.9348605, "is_reserved": 0, "fusion_lat": 0.0}, {"bike_id": "90b5e4b549f53e825afe3261b87e297c", "fusion_lon": 0.0, "lon": -77.04167216666667, "name": "90b5e4b549f53e825afe3261b87e297c", "is_disabled": 0, "rental_uris": {"android": "https://dc.lft.to/lastmile_qr_scan", "ios": "https://dc.lft.to/lastmile_qr_scan"}, "type": "electric_scooter", "lat": 38.91650883333333, "is_reserved": 0, "fusion_lat": 0.0}, {"bike_id": "a1e83ed8aee39e2657e81721e5a37d51", "fusion_lon": 0.0, "lon": -77.01768716666666, "name": "a1e83ed8aee39e2657e81721e5a37d51", "is_disabled": 0, "rental_uris": {"android": "https://dc.lft.to/lastmile_qr_scan", "ios": "https://dc.lft.to/lastmile_qr_scan"}, "type": "electric_scooter", "lat": 38.902476, "is_reserved": 0, "fusion_lat": 0.0}, {"bike_id": "0ee16554061959010c4d3046b03c5e35", "fusion_lon": 0.0, "lon": -77.02286583333333, "name": "0ee16554061959010c4d3046b03c5e35", "is_disabled": 0, "rental_uris": {"android": "https://dc.lft.to/lastmile_qr_scan", "ios": "https://dc.lft.to/lastmile_qr_scan"}, "type": "electric_scooter", "lat": 38.918301166666666, "is_reserved": 0, "fusion_lat": 0.0}, {"bike_id": "871c98ef064363698e57b43f65f5d1d2", "fusion_lon": 0.0, "lon": -77.04688033333333, "name": "871c98ef064363698e57b43f65f5d1d2", "is_disabled": 0, "rental_uris": {"android": "https://dc.lft.to/lastmile_qr_scan", "ios": "https://dc.lft.to/lastmile_qr_scan"}, "type": "electric_scooter", "lat": 38.8922065, "is_reserved": 0, "fusion_lat": 0.0}, {"bike_id": "f375541309a5fe8e3b5106098c9ade23", "fusion_lon": 0.0, "lon": -76.94932866666667, "name": "f375541309a5fe8e3b5106098c9ade23", "is_disabled": 0, "rental_uris": {"android": "https://dc.lft.to/lastmile_qr_scan", "ios": "https://dc.lft.to/lastmile_qr_scan"}, "type": "electric_scooter", "lat": 38.89344883333333, "is_reserved": 0, "fusion_lat": 0.0}, {"bike_id": "fd418e28f3b5a712b6e4c84f17098735", "fusion_lon": 0.0, "lon": -77.01767133333334, "name": "fd418e28f3b5a712b6e4c84f17098735", "is_disabled": 0, "rental_uris": {"android": "https://dc.lft.to/lastmile_qr_scan", "ios": "https://dc.lft.to/lastmile_qr_scan"}, "type": "electric_scooter", "lat": 38.9211155, "is_reserved": 0, "fusion_lat": 0.0}, {"bike_id": "fe55765d3f6cd6c2b1e090b74026f3ec", "fusion_lon": 0.0, "lon": -77.0437015, "name": "fe55765d3f6cd6c2b1e090b74026f3ec", "is_disabled": 0, "rental_uris": {"android": "https://dc.lft.to/lastmile_qr_scan", "ios": "https://dc.lft.to/lastmile_qr_scan"}, "type": "electric_scooter", "lat": 38.909176333333335, "is_reserved": 0, "fusion_lat": 0.0}, {"bike_id": "64612d3b910503242a79aaff51a2e00b", "fusion_lon": 0.0, "lon": -77.03948983333333, "name": "64612d3b910503242a79aaff51a2e00b", "is_disabled": 0, "rental_uris": {"android": "https://dc.lft.to/lastmile_qr_scan", "ios": "https://dc.lft.to/lastmile_qr_scan"}, "type": "electric_scooter", "lat": 38.92624583333333, "is_reserved": 0, "fusion_lat": 0.0}, {"bike_id": "93a05182056989b9d16ad03d10f4544a", "fusion_lon": 0.0, "lon": -77.03100833333333, "name": "93a05182056989b9d16ad03d10f4544a", "is_disabled": 0, "rental_uris": {"android": "https://dc.lft.to/lastmile_qr_scan", "ios": "https://dc.lft.to/lastmile_qr_scan"}, "type": "electric_scooter", "lat": 38.9507535, "is_reserved": 0, "fusion_lat": 0.0}, {"bike_id": "c521839a9a78f0dd55733355e31aa22f", "fusion_lon": 0.0, "lon": -76.96917583333334, "name": "c521839a9a78f0dd55733355e31aa22f", "is_disabled": 0, "rental_uris": {"android": "https://dc.lft.to/lastmile_qr_scan", "ios": "https://dc.lft.to/lastmile_qr_scan"}, "type": "electric_bike", "lat": 38.845997833333335, "is_reserved": 0, "fusion_lat": 0.0}, {"bike_id": "10d5b06f481a4be2f4dc20804afac046", "fusion_lon": 0.0, "lon": -77.02569766666667, "name": "10d5b06f481a4be2f4dc20804afac046", "is_disabled": 0, "rental_uris": {"android": "https://dc.lft.to/lastmile_qr_scan", "ios": "https://dc.lft.to/lastmile_qr_scan"}, "type": "electric_scooter", "lat": 38.9034335, "is_reserved": 0, "fusion_lat": 0.0}, {"bike_id": "fe1ec5c9642367b6301f1d362b7e2c24", "fusion_lon": 0.0, "lon": -77.01223366666666, "name": "fe1ec5c9642367b6301f1d362b7e2c24", "is_disabled": 0, "rental_uris": {"android": "https://dc.lft.to/lastmile_qr_scan", "ios": "https://dc.lft.to/lastmile_qr_scan"}, "type": "electric_scooter", "lat": 38.91545383333333, "is_reserved": 0, "fusion_lat": 0.0}, {"bike_id": "92ca3aade175edcff0ac4a68c1345f4b", "fusion_lon": 0.0, "lon": -77.05925816666667, "name": "92ca3aade175edcff0ac4a68c1345f4b", "is_disabled": 0, "rental_uris": {"android": "https://dc.lft.to/lastmile_qr_scan", "ios": "https://dc.lft.to/lastmile_qr_scan"}, "type": "electric_scooter", "lat": 38.911418, "is_reserved": 0, "fusion_lat": 0.0}, {"bike_id": "0e6fe13bb23b3b13895f2cd8dcaa0c6b", "fusion_lon": 0.0, "lon": -76.98927216666667, "name": "0e6fe13bb23b3b13895f2cd8dcaa0c6b", "is_disabled": 0, "rental_uris": {"android": "https://dc.lft.to/lastmile_qr_scan", "ios": "https://dc.lft.to/lastmile_qr_scan"}, "type": "electric_scooter", "lat": 38.84072116666667, "is_reserved": 0, "fusion_lat": 0.0}, {"bike_id": "d7b13afc612e652c40e39439e9cb17a6", "fusion_lon": 0.0, "lon": -77.0197415, "name": "d7b13afc612e652c40e39439e9cb17a6", "is_disabled": 0, "rental_uris": {"android": "https://dc.lft.to/lastmile_qr_scan", "ios": "https://dc.lft.to/lastmile_qr_scan"}, "type": "electric_scooter", "lat": 38.91250133333333, "is_reserved": 0, "fusion_lat": 0.0}, {"bike_id": "2335e61094662f48a186915c52ea87c0", "fusion_lon": 0.0, "lon": -76.98533833333333, "name": "2335e61094662f48a186915c52ea87c0", "is_disabled": 0, "rental_uris": {"android": "https://dc.lft.to/lastmile_qr_scan", "ios": "https://dc.lft.to/lastmile_qr_scan"}, "type": "electric_scooter", "lat": 38.86646833333333, "is_reserved": 0, "fusion_lat": 0.0}, {"bike_id": "dc6d80edebbcc81988de9a245da2f564", "fusion_lon": 0.0, "lon": -77.0257505, "name": "dc6d80edebbcc81988de9a245da2f564", "is_disabled": 0, "rental_uris": {"android": "https://dc.lft.to/lastmile_qr_scan", "ios": "https://dc.lft.to/lastmile_qr_scan"}, "type": "electric_scooter", "lat": 38.89225316666667, "is_reserved": 0, "fusion_lat": 0.0}, {"bike_id": "c2182fd2342baab4d24c20d0a525c913", "fusion_lon": 0.0, "lon": -77.02682733333333, "name": "c2182fd2342baab4d24c20d0a525c913", "is_disabled": 0, "rental_uris": {"android": "https://dc.lft.to/lastmile_qr_scan", "ios": "https://dc.lft.to/lastmile_qr_scan"}, "type": "electric_scooter", "lat": 38.8984415, "is_reserved": 0, "fusion_lat": 0.0}, {"bike_id": "c9fa49add12dee6fbd97245381109b1c", "fusion_lon": 0.0, "lon": -77.01495533333333, "name": "c9fa49add12dee6fbd97245381109b1c", "is_disabled": 0, "rental_uris": {"android": "https://dc.lft.to/lastmile_qr_scan", "ios": "https://dc.lft.to/lastmile_qr_scan"}, "type": "electric_scooter", "lat": 38.91753816666667, "is_reserved": 0, "fusion_lat": 0.0}, {"bike_id": "0cf2e870cb8e323a8514e6b2816cdf6d", "fusion_lon": 0.0, "lon": -77.02722033333333, "name": "0cf2e870cb8e323a8514e6b2816cdf6d", "is_disabled": 0, "rental_uris": {"android": "https://dc.lft.to/lastmile_qr_scan", "ios": "https://dc.lft.to/lastmile_qr_scan"}, "type": "electric_scooter", "lat": 38.94959333333333, "is_reserved": 0, "fusion_lat": 0.0}, {"bike_id": "9244d7500615862231182914bf8cb870", "fusion_lon": 0.0, "lon": -77.09294383333334, "name": "9244d7500615862231182914bf8cb870", "is_disabled": 0, "rental_uris": {"android": "https://dc.lft.to/lastmile_qr_scan", "ios": "https://dc.lft.to/lastmile_qr_scan"}, "type": "electric_bike", "lat": 38.97704866666667, "is_reserved": 0, "fusion_lat": 0.0}, {"bike_id": "9847062f527fa217380bfaefd70376cf", "fusion_lon": 0.0, "lon": -77.02584033333333, "name": "9847062f527fa217380bfaefd70376cf", "is_disabled": 0, "rental_uris": {"android": "https://dc.lft.to/lastmile_qr_scan", "ios": "https://dc.lft.to/lastmile_qr_scan"}, "type": "electric_scooter", "lat": 38.926959333333336, "is_reserved": 0, "fusion_lat": 0.0}, {"bike_id": "49c845310ff8c55856858d4659e011c7", "fusion_lon": 0.0, "lon": -77.03508383333333, "name": "49c845310ff8c55856858d4659e011c7", "is_disabled": 0, "rental_uris": {"android": "https://dc.lft.to/lastmile_qr_scan", "ios": "https://dc.lft.to/lastmile_qr_scan"}, "type": "electric_scooter", "lat": 38.935961666666664, "is_reserved": 0, "fusion_lat": 0.0}, {"bike_id": "cfa30d70d8005f50b017185abdc8ffa2", "fusion_lon": 0.0, "lon": -77.04328, "name": "cfa30d70d8005f50b017185abdc8ffa2", "is_disabled": 0, "rental_uris": {"android": "https://dc.lft.to/lastmile_qr_scan", "ios": "https://dc.lft.to/lastmile_qr_scan"}, "type": "electric_scooter", "lat": 38.89223783333333, "is_reserved": 0, "fusion_lat": 0.0}, {"bike_id": "991b54f5e5af3f2f6aca792560986764", "fusion_lon": 0.0, "lon": -77.04457383333333, "name": "991b54f5e5af3f2f6aca792560986764", "is_disabled": 0, "rental_uris": {"android": "https://dc.lft.to/lastmile_qr_scan", "ios": "https://dc.lft.to/lastmile_qr_scan"}, "type": "electric_scooter", "lat": 38.918489, "is_reserved": 0, "fusion_lat": 0.0}, {"bike_id": "2736cb4a97fcfdbba24772c47b4fc3fb", "fusion_lon": 0.0, "lon": -77.02324683333333, "name": "2736cb4a97fcfdbba24772c47b4fc3fb", "is_disabled": 0, "rental_uris": {"android": "https://dc.lft.to/lastmile_qr_scan", "ios": "https://dc.lft.to/lastmile_qr_scan"}, "type": "electric_scooter", "lat": 38.907246, "is_reserved": 0, "fusion_lat": 0.0}, {"bike_id": "0bf130bae3426722fe0eafc703449a0a", "fusion_lon": 0.0, "lon": -77.01751333333333, "name": "0bf130bae3426722fe0eafc703449a0a", "is_disabled": 0, "rental_uris": {"android": "https://dc.lft.to/lastmile_qr_scan", "ios": "https://dc.lft.to/lastmile_qr_scan"}, "type": "electric_scooter", "lat": 38.9111305, "is_reserved": 0, "fusion_lat": 0.0}, {"bike_id": "9c7a3586e4e1645e0b9f6466df8c3ec5", "fusion_lon": 0.0, "lon": -77.048741, "name": "9c7a3586e4e1645e0b9f6466df8c3ec5", "is_disabled": 0, "rental_uris": {"android": "https://dc.lft.to/lastmile_qr_scan", "ios": "https://dc.lft.to/lastmile_qr_scan"}, "type": "electric_scooter", "lat": 38.9097305, "is_reserved": 0, "fusion_lat": 0.0}, {"bike_id": "ccc9f6a2b963a384c334aeddf9ff86cf", "fusion_lon": 0.0, "lon": -77.02949266666667, "name": "ccc9f6a2b963a384c334aeddf9ff86cf", "is_disabled": 0, "rental_uris": {"android": "https://dc.lft.to/lastmile_qr_scan", "ios": "https://dc.lft.to/lastmile_qr_scan"}, "type": "electric_scooter", "lat": 38.932502166666666, "is_reserved": 0, "fusion_lat": 0.0}, {"bike_id": "3436c1fae9d1464f012cb13dfa38e8b1", "fusion_lon": 0.0, "lon": -77.02497916666667, "name": "3436c1fae9d1464f012cb13dfa38e8b1", "is_disabled": 0, "rental_uris": {"android": "https://dc.lft.to/lastmile_qr_scan", "ios": "https://dc.lft.to/lastmile_qr_scan"}, "type": "electric_scooter", "lat": 38.9190935, "is_reserved": 0, "fusion_lat": 0.0}, {"bike_id": "87737c4589eedab8a352c00168e1f2d0", "fusion_lon": 0.0, "lon": -77.021332, "name": "87737c4589eedab8a352c00168e1f2d0", "is_disabled": 0, "rental_uris": {"android": "https://dc.lft.to/lastmile_qr_scan", "ios": "https://dc.lft.to/lastmile_qr_scan"}, "type": "electric_scooter", "lat": 38.8995755, "is_reserved": 0, "fusion_lat": 0.0}, {"bike_id": "3abdd6092b388e20738c35e7b323da8d", "fusion_lon": 0.0, "lon": -77.00197183333333, "name": "3abdd6092b388e20738c35e7b323da8d", "is_disabled": 0, "rental_uris": {"android": "https://dc.lft.to/lastmile_qr_scan", "ios": "https://dc.lft.to/lastmile_qr_scan"}, "type": "electric_scooter", "lat": 38.902388333333334, "is_reserved": 0, "fusion_lat": 0.0}, {"bike_id": "f1b1f2eb9a0023042999075de066e779", "fusion_lon": 0.0, "lon": -77.00554816666667, "name": "f1b1f2eb9a0023042999075de066e779", "is_disabled": 0, "rental_uris": {"android": "https://dc.lft.to/lastmile_qr_scan", "ios": "https://dc.lft.to/lastmile_qr_scan"}, "type": "electric_scooter", "lat": 38.8753605, "is_reserved": 0, "fusion_lat": 0.0}, {"bike_id": "12738f86c4861348d88e9d0986703c99", "fusion_lon": 0.0, "lon": -77.03551616666667, "name": "12738f86c4861348d88e9d0986703c99", "is_disabled": 0, "rental_uris": {"android": "https://dc.lft.to/lastmile_qr_scan", "ios": "https://dc.lft.to/lastmile_qr_scan"}, "type": "electric_scooter", "lat": 38.928704333333336, "is_reserved": 0, "fusion_lat": 0.0}, {"bike_id": "1157368f454123112265c7b42ca32a9c", "fusion_lon": 0.0, "lon": -77.04145416666667, "name": "1157368f454123112265c7b42ca32a9c", "is_disabled": 0, "rental_uris": {"android": "https://dc.lft.to/lastmile_qr_scan", "ios": "https://dc.lft.to/lastmile_qr_scan"}, "type": "electric_scooter", "lat": 38.893634166666665, "is_reserved": 0, "fusion_lat": 0.0}, {"bike_id": "f6c717fd842b6688a46ff42c7800ed3d", "fusion_lon": 0.0, "lon": -77.04457583333334, "name": "f6c717fd842b6688a46ff42c7800ed3d", "is_disabled": 0, "rental_uris": {"android": "https://dc.lft.to/lastmile_qr_scan", "ios": "https://dc.lft.to/lastmile_qr_scan"}, "type": "electric_scooter", "lat": 38.91854816666667, "is_reserved": 0, "fusion_lat": 0.0}, {"bike_id": "656120520aa7062bcda7533cec1edb92", "fusion_lon": 0.0, "lon": -77.03161483333334, "name": "656120520aa7062bcda7533cec1edb92", "is_disabled": 0, "rental_uris": {"android": "https://dc.lft.to/lastmile_qr_scan", "ios": "https://dc.lft.to/lastmile_qr_scan"}, "type": "electric_bike", "lat": 38.99948833333333, "is_reserved": 0, "fusion_lat": 0.0}, {"bike_id": "5bfc4cf0ea9e14f1e16f519ce45c4c32", "fusion_lon": 0.0, "lon": -77.03296716666667, "name": "5bfc4cf0ea9e14f1e16f519ce45c4c32", "is_disabled": 0, "rental_uris": {"android": "https://dc.lft.to/lastmile_qr_scan", "ios": "https://dc.lft.to/lastmile_qr_scan"}, "type": "electric_scooter", "lat": 38.920638833333335, "is_reserved": 0, "fusion_lat": 0.0}, {"bike_id": "c438782bf127d9d74c192ced34fe1625", "fusion_lon": 0.0, "lon": -77.0381365, "name": "c438782bf127d9d74c192ced34fe1625", "is_disabled": 0, "rental_uris": {"android": "https://dc.lft.to/lastmile_qr_scan", "ios": "https://dc.lft.to/lastmile_qr_scan"}, "type": "electric_scooter", "lat": 38.92557633333333, "is_reserved": 0, "fusion_lat": 0.0}, {"bike_id": "ebeb781186d50375dd53593f9eaa5081", "fusion_lon": 0.0, "lon": -77.03925866666667, "name": "ebeb781186d50375dd53593f9eaa5081", "is_disabled": 0, "rental_uris": {"android": "https://dc.lft.to/lastmile_qr_scan", "ios": "https://dc.lft.to/lastmile_qr_scan"}, "type": "electric_scooter", "lat": 38.92489233333333, "is_reserved": 0, "fusion_lat": 0.0}, {"bike_id": "9a648393a63a07791393629983d2b8fa", "fusion_lon": 0.0, "lon": -77.003463, "name": "9a648393a63a07791393629983d2b8fa", "is_disabled": 0, "rental_uris": {"android": "https://dc.lft.to/lastmile_qr_scan", "ios": "https://dc.lft.to/lastmile_qr_scan"}, "type": "electric_scooter", "lat": 38.889976, "is_reserved": 0, "fusion_lat": 0.0}, {"bike_id": "436322a8aac9e6208786611bf9a05ca8", "fusion_lon": 0.0, "lon": -77.07826933333334, "name": "436322a8aac9e6208786611bf9a05ca8", "is_disabled": 0, "rental_uris": {"android": "https://dc.lft.to/lastmile_qr_scan", "ios": "https://dc.lft.to/lastmile_qr_scan"}, "type": "electric_scooter", "lat": 38.9126875, "is_reserved": 0, "fusion_lat": 0.0}, {"bike_id": "d3cb64e13616545408f2d03b8aef583d", "fusion_lon": 0.0, "lon": -77.03199683333334, "name": "d3cb64e13616545408f2d03b8aef583d", "is_disabled": 0, "rental_uris": {"android": "https://dc.lft.to/lastmile_qr_scan", "ios": "https://dc.lft.to/lastmile_qr_scan"}, "type": "electric_scooter", "lat": 38.91221483333333, "is_reserved": 0, "fusion_lat": 0.0}, {"bike_id": "612401ac45fac6f32da6b52ea5082993", "fusion_lon": 0.0, "lon": -77.03354066666667, "name": "612401ac45fac6f32da6b52ea5082993", "is_disabled": 0, "rental_uris": {"android": "https://dc.lft.to/lastmile_qr_scan", "ios": "https://dc.lft.to/lastmile_qr_scan"}, "type": "electric_scooter", "lat": 38.931433166666665, "is_reserved": 0, "fusion_lat": 0.0}, {"bike_id": "ab123c5927e03c218ac5d94b2ae5ecf0", "fusion_lon": 0.0, "lon": -77.0326045, "name": "ab123c5927e03c218ac5d94b2ae5ecf0", "is_disabled": 0, "rental_uris": {"android": "https://dc.lft.to/lastmile_qr_scan", "ios": "https://dc.lft.to/lastmile_qr_scan"}, "type": "electric_scooter", "lat": 38.914024833333336, "is_reserved": 0, "fusion_lat": 0.0}, {"bike_id": "f779faaee90ed60f4b6c8ead21fece5a", "fusion_lon": 0.0, "lon": -77.01357983333334, "name": "f779faaee90ed60f4b6c8ead21fece5a", "is_disabled": 0, "rental_uris": {"android": "https://dc.lft.to/lastmile_qr_scan", "ios": "https://dc.lft.to/lastmile_qr_scan"}, "type": "electric_scooter", "lat": 38.919655166666665, "is_reserved": 0, "fusion_lat": 0.0}, {"bike_id": "a4f9b4ecd191dd3a443a708a08a42af9", "fusion_lon": 0.0, "lon": -77.029617, "name": "a4f9b4ecd191dd3a443a708a08a42af9", "is_disabled": 0, "rental_uris": {"android": "https://dc.lft.to/lastmile_qr_scan", "ios": "https://dc.lft.to/lastmile_qr_scan"}, "type": "electric_bike", "lat": 38.95050766666667, "is_reserved": 0, "fusion_lat": 0.0}, {"bike_id": "82a2232c730a1e56c6cb07f9fabbc59f", "fusion_lon": 0.0, "lon": -77.03590083333333, "name": "82a2232c730a1e56c6cb07f9fabbc59f", "is_disabled": 0, "rental_uris": {"android": "https://dc.lft.to/lastmile_qr_scan", "ios": "https://dc.lft.to/lastmile_qr_scan"}, "type": "electric_scooter", "lat": 38.9367815, "is_reserved": 0, "fusion_lat": 0.0}, {"bike_id": "ab713916a80e427863f09fdd5961c6d9", "fusion_lon": 0.0, "lon": -76.97189366666667, "name": "ab713916a80e427863f09fdd5961c6d9", "is_disabled": 0, "rental_uris": {"android": "https://dc.lft.to/lastmile_qr_scan", "ios": "https://dc.lft.to/lastmile_qr_scan"}, "type": "electric_bike", "lat": 38.93318466666667, "is_reserved": 0, "fusion_lat": 0.0}, {"bike_id": "f0eca8dd3166ef8dff11c5d4a6755218", "fusion_lon": 0.0, "lon": -77.04588783333334, "name": "f0eca8dd3166ef8dff11c5d4a6755218", "is_disabled": 0, "rental_uris": {"android": "https://dc.lft.to/lastmile_qr_scan", "ios": "https://dc.lft.to/lastmile_qr_scan"}, "type": "electric_scooter", "lat": 38.908662166666666, "is_reserved": 0, "fusion_lat": 0.0}, {"bike_id": "8cb099c577dd8895b0438a99db49a8c8", "fusion_lon": 0.0, "lon": -77.01307616666666, "name": "8cb099c577dd8895b0438a99db49a8c8", "is_disabled": 0, "rental_uris": {"android": "https://dc.lft.to/lastmile_qr_scan", "ios": "https://dc.lft.to/lastmile_qr_scan"}, "type": "electric_scooter", "lat": 38.914105666666664, "is_reserved": 0, "fusion_lat": 0.0}, {"bike_id": "d06617f88d7e1bed808a4b979695c565", "fusion_lon": 0.0, "lon": -77.04347766666666, "name": "d06617f88d7e1bed808a4b979695c565", "is_disabled": 0, "rental_uris": {"android": "https://dc.lft.to/lastmile_qr_scan", "ios": "https://dc.lft.to/lastmile_qr_scan"}, "type": "electric_scooter", "lat": 38.912990666666666, "is_reserved": 0, "fusion_lat": 0.0}, {"bike_id": "27980ac8d9c534a029de071aa628f62d", "fusion_lon": 0.0, "lon": -77.0298005, "name": "27980ac8d9c534a029de071aa628f62d", "is_disabled": 0, "rental_uris": {"android": "https://dc.lft.to/lastmile_qr_scan", "ios": "https://dc.lft.to/lastmile_qr_scan"}, "type": "electric_scooter", "lat": 38.93193266666667, "is_reserved": 0, "fusion_lat": 0.0}, {"bike_id": "401cb1cbbdd99b7157e8dec16f88eb09", "fusion_lon": 0.0, "lon": -76.97594166666667, "name": "401cb1cbbdd99b7157e8dec16f88eb09", "is_disabled": 0, "rental_uris": {"android": "https://dc.lft.to/lastmile_qr_scan", "ios": "https://dc.lft.to/lastmile_qr_scan"}, "type": "electric_scooter", "lat": 38.90331183333333, "is_reserved": 0, "fusion_lat": 0.0}, {"bike_id": "ed416d61574c488f519d9da6d1e70d58", "fusion_lon": 0.0, "lon": -77.050614, "name": "ed416d61574c488f519d9da6d1e70d58", "is_disabled": 0, "rental_uris": {"android": "https://dc.lft.to/lastmile_qr_scan", "ios": "https://dc.lft.to/lastmile_qr_scan"}, "type": "electric_scooter", "lat": 38.923388833333334, "is_reserved": 0, "fusion_lat": 0.0}, {"bike_id": "714882a844f95b6babd827a1856ffbec", "fusion_lon": 0.0, "lon": -77.03335083333333, "name": "714882a844f95b6babd827a1856ffbec", "is_disabled": 0, "rental_uris": {"android": "https://dc.lft.to/lastmile_qr_scan", "ios": "https://dc.lft.to/lastmile_qr_scan"}, "type": "electric_scooter", "lat": 38.902594666666666, "is_reserved": 0, "fusion_lat": 0.0}, {"bike_id": "18e5514f2637c549f35a7969cb2cae0e", "fusion_lon": 0.0, "lon": -77.0153065, "name": "18e5514f2637c549f35a7969cb2cae0e", "is_disabled": 0, "rental_uris": {"android": "https://dc.lft.to/lastmile_qr_scan", "ios": "https://dc.lft.to/lastmile_qr_scan"}, "type": "electric_scooter", "lat": 38.884153, "is_reserved": 0, "fusion_lat": 0.0}, {"bike_id": "5c2437df2b2a2c7deef8b2c0f67b465b", "fusion_lon": 0.0, "lon": -77.04602716666666, "name": "5c2437df2b2a2c7deef8b2c0f67b465b", "is_disabled": 0, "rental_uris": {"android": "https://dc.lft.to/lastmile_qr_scan", "ios": "https://dc.lft.to/lastmile_qr_scan"}, "type": "electric_scooter", "lat": 38.9172365, "is_reserved": 0, "fusion_lat": 0.0}, {"bike_id": "87850c9f5bd339c288ff04fe21ef1bc4", "fusion_lon": 0.0, "lon": -77.0254625, "name": "87850c9f5bd339c288ff04fe21ef1bc4", "is_disabled": 0, "rental_uris": {"android": "https://dc.lft.to/lastmile_qr_scan", "ios": "https://dc.lft.to/lastmile_qr_scan"}, "type": "electric_scooter", "lat": 38.89832833333333, "is_reserved": 0, "fusion_lat": 0.0}, {"bike_id": "80793f526263b6bb20245343c8dfda9e", "fusion_lon": 0.0, "lon": -77.02179116666667, "name": "80793f526263b6bb20245343c8dfda9e", "is_disabled": 0, "rental_uris": {"android": "https://dc.lft.to/lastmile_qr_scan", "ios": "https://dc.lft.to/lastmile_qr_scan"}, "type": "electric_scooter", "lat": 38.89974733333333, "is_reserved": 0, "fusion_lat": 0.0}, {"bike_id": "d320130f4bcd380df1cda7fccf8023d4", "fusion_lon": 0.0, "lon": -77.02201266666667, "name": "d320130f4bcd380df1cda7fccf8023d4", "is_disabled": 0, "rental_uris": {"android": "https://dc.lft.to/lastmile_qr_scan", "ios": "https://dc.lft.to/lastmile_qr_scan"}, "type": "electric_scooter", "lat": 38.91100266666667, "is_reserved": 0, "fusion_lat": 0.0}, {"bike_id": "0f828247ba90896c933b68b3faa86fbf", "fusion_lon": 0.0, "lon": -77.0365005, "name": "0f828247ba90896c933b68b3faa86fbf", "is_disabled": 0, "rental_uris": {"android": "https://dc.lft.to/lastmile_qr_scan", "ios": "https://dc.lft.to/lastmile_qr_scan"}, "type": "electric_scooter", "lat": 38.92344766666667, "is_reserved": 0, "fusion_lat": 0.0}, {"bike_id": "f9e11c399a83097cbce3e45b9753ce82", "fusion_lon": 0.0, "lon": -77.0297055, "name": "f9e11c399a83097cbce3e45b9753ce82", "is_disabled": 0, "rental_uris": {"android": "https://dc.lft.to/lastmile_qr_scan", "ios": "https://dc.lft.to/lastmile_qr_scan"}, "type": "electric_scooter", "lat": 38.91597483333334, "is_reserved": 0, "fusion_lat": 0.0}, {"bike_id": "e1e0c5ff158f5ada40f3cdcf9e6d14ca", "fusion_lon": 0.0, "lon": -77.03988716666667, "name": "e1e0c5ff158f5ada40f3cdcf9e6d14ca", "is_disabled": 0, "rental_uris": {"android": "https://dc.lft.to/lastmile_qr_scan", "ios": "https://dc.lft.to/lastmile_qr_scan"}, "type": "electric_scooter", "lat": 38.925881, "is_reserved": 0, "fusion_lat": 0.0}, {"bike_id": "c585a51d2fd08d85e466e3513eb79a70", "fusion_lon": 0.0, "lon": -76.9990595, "name": "c585a51d2fd08d85e466e3513eb79a70", "is_disabled": 0, "rental_uris": {"android": "https://dc.lft.to/lastmile_qr_scan", "ios": "https://dc.lft.to/lastmile_qr_scan"}, "type": "electric_bike", "lat": 38.892080166666666, "is_reserved": 0, "fusion_lat": 0.0}, {"bike_id": "8e527c9d11eb8856c7a4e1363e991d39", "fusion_lon": 0.0, "lon": -76.99030266666666, "name": "8e527c9d11eb8856c7a4e1363e991d39", "is_disabled": 0, "rental_uris": {"android": "https://dc.lft.to/lastmile_qr_scan", "ios": "https://dc.lft.to/lastmile_qr_scan"}, "type": "electric_scooter", "lat": 38.90189433333333, "is_reserved": 0, "fusion_lat": 0.0},