{"data": {"bikes": [{"rental_uris": {"ios": "https://dc.lft.to/lastmile_qr_scan", "android": "https://dc.lft.to/lastmile_qr_scan"}, "type": "electric_scooter", "name": "0dd64f4a09c76a0313dc146c123be379", "is_reserved": 0, "lon": -77.04328916666667, "is_disabled": 0, "fusion_lat": 0.0, "lat": 38.9341575, "bike_id": "0dd64f4a09c76a0313dc146c123be379", "fusion_lon": 0.0}, {"rental_uris": {"ios": "https://dc.lft.to/lastmile_qr_scan", "android": "https://dc.lft.to/lastmile_qr_scan"}, "type": "electric_scooter", "name": "2b8a74e4b35e16bcf12bd593344028f0", "is_reserved": 0, "lon": -77.0405475, "is_disabled": 0, "fusion_lat": 0.0, "lat": 38.917650333333334, "bike_id": "2b8a74e4b35e16bcf12bd593344028f0", "fusion_lon": 0.0}, {"rental_uris": {"ios": "https://dc.lft.to/lastmile_qr_scan", "android": "https://dc.lft.to/lastmile_qr_scan"}, "type": "electric_scooter", "name": "a24dd70e7363e3a37affcb2aaf35dd44", "is_reserved": 0, "lon": -77.01624316666667, "is_disabled": 0, "fusion_lat": 0.0, "lat": 38.898024166666666, "bike_id": "a24dd70e7363e3a37affcb2aaf35dd44", "fusion_lon": 0.0}, {"rental_uris": {"ios": "https://dc.lft.to/lastmile_qr_scan", "android": "https://dc.lft.to/lastmile_qr_scan"}, "type": "electric_scooter", "name": "309e4b762abb5242a22acf793cca46bc", "is_reserved": 0, "lon": -77.04866783333334, "is_disabled": 0, "fusion_lat": 0.0, "lat": 38.912645499999996, "bike_id": "309e4b762abb5242a22acf793cca46bc", "fusion_lon": 0.0}, {"rental_uris": {"ios": "https://dc.lft.to/lastmile_qr_scan", "android": "https://dc.lft.to/lastmile_qr_scan"}, "type": "electric_scooter", "name": "71dab4dea6b47cda803aa2e6df1d263a", "is_reserved": 0, "lon": -77.04348716666667, "is_disabled": 0, "fusion_lat": 0.0, "lat": 38.91038133333333, "bike_id": "71dab4dea6b47cda803aa2e6df1d263a", "fusion_lon": 0.0}, {"rental_uris": {"ios": "https://dc.lft.to/lastmile_qr_scan", "android": "https://dc.lft.to/lastmile_qr_scan"}, "type": "electric_scooter", "name": "38f026f3ebd8cd2dee5609a031c86545", "is_reserved": 0, "lon": -76.98366283333333, "is_disabled": 0, "fusion_lat": 0.0, "lat": 38.89137983333333, "bike_id": "38f026f3ebd8cd2dee5609a031c86545", "fusion_lon": 0.0}, {"rental_uris": {"ios": "https://dc.lft.to/lastmile_qr_scan", "android": "https://dc.lft.to/lastmile_qr_scan"}, "type": "electric_scooter", "name": "9a4a51f3f98820c884451107270afdc5", "is_reserved": 0, "lon": -77.028312, "is_disabled": 0, "fusion_lat": 0.0, "lat": 38.95722833333333, "bike_id": "9a4a51f3f98820c884451107270afdc5", "fusion_lon": 0.0}, {"rental_uris": {"ios": "https://dc.lft.to/lastmile_qr_scan", "android": "https://dc.lft.to/lastmile_qr_scan"}, "type": "electric_scooter", "name": "9a952ca61f4ae080891d72a6917cd9be", "is_reserved": 0, "lon": -77.05446266666667, "is_disabled": 0, "fusion_lat": 0.0, "lat": 38.928296333333336, "bike_id": "9a952ca61f4ae080891d72a6917cd9be", "fusion_lon": 0.0}, {"rental_uris": {"ios": "https://dc.lft.to/lastmile_qr_scan", "android": "https://dc.lft.to/lastmile_qr_scan"}, "type": "electric_scooter", "name": "690e2f5e9be0f11d6fa44df073f2166f", "is_reserved": 0, "lon": -77.04057483333334, "is_disabled": 0, "fusion_lat": 0.0, "lat": 38.9254655, "bike_id": "690e2f5e9be0f11d6fa44df073f2166f", "fusion_lon": 0.0}, {"rental_uris": {"ios": "https://dc.lft.to/lastmile_qr_scan", "android": "https://dc.lft.to/lastmile_qr_scan"}, "type": "electric_scooter", "name": "df4f75f2c4fab3f5bc708acca472338b", "is_reserved": 0, "lon": -77.04878183333334, "is_disabled": 0, "fusion_lat": 0.0, "lat": 38.910557, "bike_id": "df4f75f2c4fab3f5bc708acca472338b", "fusion_lon": 0.0}, {"rental_uris": {"ios": "https://dc.lft.to/lastmile_qr_scan", "android": "https://dc.lft.to/lastmile_qr_scan"}, "type": "electric_scooter", "name": "2be7ed71f9e8414814f202d49a6fe985", "is_reserved": 0, "lon": -77.06833466666667, "is_disabled": 0, "fusion_lat": 0.0, "lat": 38.917295833333334, "bike_id": "2be7ed71f9e8414814f202d49a6fe985", "fusion_lon": 0.0}, {"rental_uris": {"ios": "https://dc.lft.to/lastmile_qr_scan", "android": "https://dc.lft.to/lastmile_qr_scan"}, "type": "electric_scooter", "name": "b7011000b3de69959d65a6983cb6e395", "is_reserved": 0, "lon": -76.98445283333334, "is_disabled": 0, "fusion_lat": 0.0, "lat": 38.914648666666665, "bike_id": "b7011000b3de69959d65a6983cb6e395", "fusion_lon": 0.0}, {"rental_uris": {"ios": "https://dc.lft.to/lastmile_qr_scan", "android": "https://dc.lft.to/lastmile_qr_scan"}, "type": "electric_scooter", "name": "05d0a1ca68a1f79c5b85812cd8bc483f", "is_reserved": 0, "lon": -77.0329025, "is_disabled": 0, "fusion_lat": 0.0, "lat": 38.904154166666665, "bike_id": "05d0a1ca68a1f79c5b85812cd8bc483f", "fusion_lon": 0.0}, {"rental_uris": {"ios": "https://dc.lft.to/lastmile_qr_scan", "android": "https://dc.lft.to/lastmile_qr_scan"}, "type": "electric_bike", "name": "3659dad86b70b1c736097457d024a85c", "is_reserved": 0, "lon": -77.114089, "is_disabled": 0, "fusion_lat": 0.0, "lat": 38.8731895, "bike_id": "3659dad86b70b1c736097457d024a85c", "fusion_lon": 0.0}, {"rental_uris": {"ios": "https://dc.lft.to/lastmile_qr_scan", "android": "https://dc.lft.to/lastmile_qr_scan"}, "type": "electric_scooter", "name": "bf138f4133a929cf8a2016705180af7d", "is_reserved": 0, "lon": -77.0333925, "is_disabled": 0, "fusion_lat": 0.0, "lat": 38.8973175, "bike_id": "bf138f4133a929cf8a2016705180af7d", "fusion_lon": 0.0}, {"rental_uris": {"ios": "https://dc.lft.to/lastmile_qr_scan", "android": "https://dc.lft.to/lastmile_qr_scan"}, "type": "electric_scooter", "name": "127abae3ae4ab6de92df97612abdc888", "is_reserved": 0, "lon": -77.06691383333333, "is_disabled": 0, "fusion_lat": 0.0, "lat": 38.909781333333335, "bike_id": "127abae3ae4ab6de92df97612abdc888", "fusion_lon": 0.0}, {"rental_uris": {"ios": "https://dc.lft.to/lastmile_qr_scan", "android": "https://dc.lft.to/lastmile_qr_scan"}, "type": "electric_scooter", "name": "89d7177d6899727538ba57d9beae024c", "is_reserved": 0, "lon": -77.03240816666667, "is_disabled": 0, "fusion_lat": 0.0, "lat": 38.929209, "bike_id": "89d7177d6899727538ba57d9beae024c", "fusion_lon": 0.0}, {"rental_uris": {"ios": "https://dc.lft.to/lastmile_qr_scan", "android": "https://dc.lft.to/lastmile_qr_scan"}, "type": "electric_scooter", "name": "4bb4d18bf71df91ca7202476744b7b09", "is_reserved": 0, "lon": -76.98691983333333, "is_disabled": 0, "fusion_lat": 0.0, "lat": 38.912945, "bike_id": "4bb4d18bf71df91ca7202476744b7b09", "fusion_lon": 0.0}, {"rental_uris": {"ios": "https://dc.lft.to/lastmile_qr_scan", "android": "https://dc.lft.to/lastmile_qr_scan"}, "type": "electric_scooter", "name": "5e42dc16193efe65d739d47690168449", "is_reserved": 0, "lon": -77.03627566666667, "is_disabled": 0, "fusion_lat": 0.0, "lat": 38.906304666666664, "bike_id": "5e42dc16193efe65d739d47690168449", "fusion_lon": 0.0}, {"rental_uris": {"ios": "https://dc.lft.to/lastmile_qr_scan", "android": "https://dc.lft.to/lastmile_qr_scan"}, "type": "electric_scooter", "name": "79f3aeb08ffc988eec5c019201f5ba1c", "is_reserved": 0, "lon": -77.01644316666666, "is_disabled": 0, "fusion_lat": 0.0, "lat": 38.929400666666666, "bike_id": "79f3aeb08ffc988eec5c019201f5ba1c", "fusion_lon": 0.0}, {"rental_uris": {"ios": "https://dc.lft.to/lastmile_qr_scan", "android": "https://dc.lft.to/lastmile_qr_scan"}, "type": "electric_scooter", "name": "12a56f21c38b3875f8d48df958e0242e", "is_reserved": 0, "lon": -77.04350633333334, "is_disabled": 0, "fusion_lat": 0.0, "lat": 38.921443333333336, "bike_id": "12a56f21c38b3875f8d48df958e0242e", "fusion_lon": 0.0}, {"rental_uris": {"ios": "https://dc.lft.to/lastmile_qr_scan", "android": "https://dc.lft.to/lastmile_qr_scan"}, "type": "electric_scooter", "name": "01c6e64e42fe61ad263ebf14cc5964b7", "is_reserved": 0, "lon": -77.0301905, "is_disabled": 0, "fusion_lat": 0.0, "lat": 38.93124233333333, "bike_id": "01c6e64e42fe61ad263ebf14cc5964b7", "fusion_lon": 0.0}, {"rental_uris": {"ios": "https://dc.lft.to/lastmile_qr_scan", "android": "https://dc.lft.to/lastmile_qr_scan"}, "type": "electric_scooter", "name": "ca4cb2f670c1a2673e93bc69ba0c41cc", "is_reserved": 0, "lon": -77.01206783333333, "is_disabled": 0, "fusion_lat": 0.0, "lat": 38.91194433333333, "bike_id": "ca4cb2f670c1a2673e93bc69ba0c41cc", "fusion_lon": 0.0}, {"rental_uris": {"ios": "https://dc.lft.to/lastmile_qr_scan", "android": "https://dc.lft.to/lastmile_qr_scan"}, "type": "electric_scooter", "name": "a7133c9305e348456d406f5d0dcc00ac", "is_reserved": 0, "lon": -77.02141933333333, "is_disabled": 0, "fusion_lat": 0.0, "lat": 38.895964, "bike_id": "a7133c9305e348456d406f5d0dcc00ac", "fusion_lon": 0.0}, {"rental_uris": {"ios": "https://dc.lft.to/lastmile_qr_scan", "android": "https://dc.lft.to/lastmile_qr_scan"}, "type": "electric_scooter", "name": "d9a37c8174fec9b913f65df243c7f1a1", "is_reserved": 0, "lon": -77.02617716666667, "is_disabled": 0, "fusion_lat": 0.0, "lat": 38.903619666666664, "bike_id": "d9a37c8174fec9b913f65df243c7f1a1", "fusion_lon": 0.0}, {"rental_uris": {"ios": "https://dc.lft.to/lastmile_qr_scan", "android": "https://dc.lft.to/lastmile_qr_scan"}, "type": "electric_scooter", "name": "b71e6b684b23a6e53b3a38a33926429b", "is_reserved": 0, "lon": -76.99360916666667, "is_disabled": 0, "fusion_lat": 0.0, "lat": 38.90040833333333, "bike_id": "b71e6b684b23a6e53b3a38a33926429b", "fusion_lon": 0.0}, {"rental_uris": {"ios": "https://dc.lft.to/lastmile_qr_scan", "android": "https://dc.lft.to/lastmile_qr_scan"}, "type": "electric_scooter", "name": "1816b239e8ff53e102f2e1c528ba96e0", "is_reserved": 0, "lon": -77.056944, "is_disabled": 0, "fusion_lat": 0.0, "lat": 38.937175833333335, "bike_id": "1816b239e8ff53e102f2e1c528ba96e0", "fusion_lon": 0.0}, {"rental_uris": {"ios": "https://dc.lft.to/lastmile_qr_scan", "android": "https://dc.lft.to/lastmile_qr_scan"}, "type": "electric_scooter", "name": "79001d11db1dd9b3880fb9059ed21d88", "is_reserved": 0, "lon": -77.01955566666666, "is_disabled": 0, "fusion_lat": 0.0, "lat": 38.9314035, "bike_id": "79001d11db1dd9b3880fb9059ed21d88", "fusion_lon": 0.0}, {"rental_uris": {"ios": "https://dc.lft.to/lastmile_qr_scan", "android": "https://dc.lft.to/lastmile_qr_scan"}, "type": "electric_scooter", "name": "a559d587e82fca888fef5bcdb1f36ad2", "is_reserved": 0, "lon": -77.0304455, "is_disabled": 0, "fusion_lat": 0.0, "lat": 38.990284833333334, "bike_id": "a559d587e82fca888fef5bcdb1f36ad2", "fusion_lon": 0.0}, {"rental_uris": {"ios": "https://dc.lft.to/lastmile_qr_scan", "android": "https://dc.lft.to/lastmile_qr_scan"}, "type": "electric_scooter", "name": "80da2576f2c0b00f860d5782e7c6b8bb", "is_reserved": 0, "lon": -77.023883, "is_disabled": 0, "fusion_lat": 0.0, "lat": 38.920722166666664, "bike_id": "80da2576f2c0b00f860d5782e7c6b8bb", "fusion_lon": 0.0}, {"rental_uris": {"ios": "https://dc.lft.to/lastmile_qr_scan", "android": "https://dc.lft.to/lastmile_qr_scan"}, "type": "electric_scooter", "name": "1af916b4fbc361a8858ee23a6e263ec0", "is_reserved": 0, "lon": -77.0357815, "is_disabled": 0, "fusion_lat": 0.0, "lat": 38.93738783333333, "bike_id": "1af916b4fbc361a8858ee23a6e263ec0", "fusion_lon": 0.0}, {"rental_uris": {"ios": "https://dc.lft.to/lastmile_qr_scan", "android": "https://dc.lft.to/lastmile_qr_scan"}, "type": "electric_scooter", "name": "206c0af30065afd695823a0bc40cd7ab", "is_reserved": 0, "lon": -77.042795, "is_disabled": 0, "fusion_lat": 0.0, "lat": 38.92240733333333, "bike_id": "206c0af30065afd695823a0bc40cd7ab", "fusion_lon": 0.0}, {"rental_uris": {"ios": "https://dc.lft.to/lastmile_qr_scan", "android": "https://dc.lft.to/lastmile_qr_scan"}, "type": "electric_bike", "name": "518f857a49654c419a34f981717312e7", "is_reserved": 0, "lon": -77.08565433333334, "is_disabled": 0, "fusion_lat": 0.0, "lat": 38.87420016666667, "bike_id": "518f857a49654c419a34f981717312e7", "fusion_lon": 0.0}, {"rental_uris": {"ios": "https://dc.lft.to/lastmile_qr_scan", "android": "https://dc.lft.to/lastmile_qr_scan"}, "type": "electric_scooter", "name": "758c0cdd608ee39e7b9161631d1a9e83", "is_reserved": 0, "lon": -77.0211105, "is_disabled": 0, "fusion_lat": 0.0, "lat": 38.909387, "bike_id": "758c0cdd608ee39e7b9161631d1a9e83", "fusion_lon": 0.0}, {"rental_uris": {"ios": "https://dc.lft.to/lastmile_qr_scan", "android": "https://dc.lft.to/lastmile_qr_scan"}, "type": "electric_scooter", "name": "d78ed5d7eff690500fc52c3c81207d96", "is_reserved": 0, "lon": -77.01466966666666, "is_disabled": 0, "fusion_lat": 0.0, "lat": 38.8793685, "bike_id": "d78ed5d7eff690500fc52c3c81207d96", "fusion_lon": 0.0}, {"rental_uris": {"ios": "https://dc.lft.to/lastmile_qr_scan", "android": "https://dc.lft.to/lastmile_qr_scan"}, "type": "electric_bike", "name": "847d94fb3c67dce124bdb65a8c794a92", "is_reserved": 0, "lon": -77.09452766666666, "is_disabled": 0, "fusion_lat": 0.0, "lat": 38.807581, "bike_id": "847d94fb3c67dce124bdb65a8c794a92", "fusion_lon": 0.0}, {"rental_uris": {"ios": "https://dc.lft.to/lastmile_qr_scan", "android": "https://dc.lft.to/lastmile_qr_scan"}, "type": "electric_scooter", "name": "22819e02574ce3642c35460655cc28b1", "is_reserved": 0, "lon": -77.0385115, "is_disabled": 0, "fusion_lat": 0.0, "lat": 38.9323995, "bike_id": "22819e02574ce3642c35460655cc28b1", "fusion_lon": 0.0}, {"rental_uris": {"ios": "https://dc.lft.to/lastmile_qr_scan", "android": "https://dc.lft.to/lastmile_qr_scan"}, "type": "electric_scooter", "name": "b012ea5fef9651ceb6f69939010b20f9", "is_reserved": 0, "lon": -76.92921516666667, "is_disabled": 0, "fusion_lat": 0.0, "lat": 38.892691, "bike_id": "b012ea5fef9651ceb6f69939010b20f9", "fusion_lon": 0.0}, {"rental_uris": {"ios": "https://dc.lft.to/lastmile_qr_scan", "android": "https://dc.lft.to/lastmile_qr_scan"}, "type": "electric_scooter", "name": "2ef5541fcf6aafd83745c3a5ad87075e", "is_reserved": 0, "lon": -76.97212716666667, "is_disabled": 0, "fusion_lat": 0.0, "lat": 38.917190166666664, "bike_id": "2ef5541fcf6aafd83745c3a5ad87075e", "fusion_lon": 0.0}, {"rental_uris": {"ios": "https://dc.lft.to/lastmile_qr_scan", "android": "https://dc.lft.to/lastmile_qr_scan"}, "type": "electric_scooter", "name": "22d70e571474af3778e48328c73e9f99", "is_reserved": 0, "lon": -77.01974983333334, "is_disabled": 0, "fusion_lat": 0.0, "lat": 38.90502, "bike_id": "22d70e571474af3778e48328c73e9f99", "fusion_lon": 0.0}, {"rental_uris": {"ios": "https://dc.lft.to/lastmile_qr_scan", "android": "https://dc.lft.to/lastmile_qr_scan"}, "type": "electric_scooter", "name": "cc4cd9dc4312084c4ab0b67917fb5f18", "is_reserved": 0, "lon": -77.01378033333333, "is_disabled": 0, "fusion_lat": 0.0, "lat": 38.898286666666664, "bike_id": "cc4cd9dc4312084c4ab0b67917fb5f18", "fusion_lon": 0.0}, {"rental_uris": {"ios": "https://dc.lft.to/lastmile_qr_scan", "android": "https://dc.lft.to/lastmile_qr_scan"}, "type": "electric_scooter", "name": "5419baf519cd35636281127acf94844c", "is_reserved": 0, "lon": -77.03044133333333, "is_disabled": 0, "fusion_lat": 0.0, "lat": 38.909473, "bike_id": "5419baf519cd35636281127acf94844c", "fusion_lon": 0.0}, {"rental_uris": {"ios": "https://dc.lft.to/lastmile_qr_scan", "android": "https://dc.lft.to/lastmile_qr_scan"}, "type": "electric_bike", "name": "c4cf59383ee2cd5d23da8e2f46768af0", "is_reserved": 0, "lon": -77.0728035, "is_disabled": 0, "fusion_lat": 0.0, "lat": 38.91761783333333, "bike_id": "c4cf59383ee2cd5d23da8e2f46768af0", "fusion_lon": 0.0}, {"rental_uris": {"ios": "https://dc.lft.to/lastmile_qr_scan", "android": "https://dc.lft.to/lastmile_qr_scan"}, "type": "electric_scooter", "name": "b0a755283b0415888426c97fc43e81c4", "is_reserved": 0, "lon": -77.04408366666667, "is_disabled": 0, "fusion_lat": 0.0, "lat": 38.8960115, "bike_id": "b0a755283b0415888426c97fc43e81c4", "fusion_lon": 0.0}, {"rental_uris": {"ios": "https://dc.lft.to/lastmile_qr_scan", "android": "https://dc.lft.to/lastmile_qr_scan"}, "type": "electric_scooter", "name": "3c8152a392b25fe92520d6876543027f", "is_reserved": 0, "lon": -77.02202333333334, "is_disabled": 0, "fusion_lat": 0.0, "lat": 38.9514945, "bike_id": "3c8152a392b25fe92520d6876543027f", "fusion_lon": 0.0}, {"rental_uris": {"ios": "https://dc.lft.to/lastmile_qr_scan", "android": "https://dc.lft.to/lastmile_qr_scan"}, "type": "electric_scooter", "name": "739951df9d465a13058fd8926e0a8c2d", "is_reserved": 0, "lon": -77.043928, "is_disabled": 0, "fusion_lat": 0.0, "lat": 38.92036983333333, "bike_id": "739951df9d465a13058fd8926e0a8c2d", "fusion_lon": 0.0}, {"rental_uris": {"ios": "https://dc.lft.to/lastmile_qr_scan", "android": "https://dc.lft.to/lastmile_qr_scan"}, "type": "electric_scooter", "name": "0835957fdd066303301f76f73bc5c979", "is_reserved": 0, "lon": -77.038049, "is_disabled": 0, "fusion_lat": 0.0, "lat": 38.914112, "bike_id": "0835957fdd066303301f76f73bc5c979", "fusion_lon": 0.0}, {"rental_uris": {"ios": "https://dc.lft.to/lastmile_qr_scan", "android": "https://dc.lft.to/lastmile_qr_scan"}, "type": "electric_scooter", "name": "6a0666b21b1816f11dbb90b534d851cf", "is_reserved": 0, "lon": -77.02300133333334, "is_disabled": 0, "fusion_lat": 0.0, "lat": 38.94933783333333, "bike_id": "6a0666b21b1816f11dbb90b534d851cf", "fusion_lon": 0.0}, {"rental_uris": {"ios": "https://dc.lft.to/lastmile_qr_scan", "android": "https://dc.lft.to/lastmile_qr_scan"}, "type": "electric_scooter", "name": "f0a81372856127096af7ec930ab47ef5", "is_reserved": 0, "lon": -77.0229035, "is_disabled": 0, "fusion_lat": 0.0, "lat": 38.897083333333335, "bike_id": "f0a81372856127096af7ec930ab47ef5", "fusion_lon": 0.0}, {"rental_uris": {"ios": "https://dc.lft.to/lastmile_qr_scan", "android": "https://dc.lft.to/lastmile_qr_scan"}, "type": "electric_scooter", "name": "6ae3d4d6f59aaa259a1a7932370adb0c", "is_reserved": 0, "lon": -77.07252816666667, "is_disabled": 0, "fusion_lat": 0.0, "lat": 38.93435016666667, "bike_id": "6ae3d4d6f59aaa259a1a7932370adb0c", "fusion_lon": 0.0}, {"rental_uris": {"ios": "https://dc.lft.to/lastmile_qr_scan", "android": "https://dc.lft.to/lastmile_qr_scan"}, "type": "electric_scooter", "name": "4813ff3eab13c9c69bdaebb98468e4e2", "is_reserved": 0, "lon": -77.0230965, "is_disabled": 0, "fusion_lat": 0.0, "lat": 38.93806883333333, "bike_id": "4813ff3eab13c9c69bdaebb98468e4e2", "fusion_lon": 0.0}, {"rental_uris": {"ios": "https://dc.lft.to/lastmile_qr_scan", "android": "https://dc.lft.to/lastmile_qr_scan"}, "type": "electric_bike", "name": "7003f3bdb7d6c89d18c495888e141b07", "is_reserved": 0, "lon": -76.99942583333333, "is_disabled": 0, "fusion_lat": 0.0, "lat": 38.89924383333334, "bike_id": "7003f3bdb7d6c89d18c495888e141b07", "fusion_lon": 0.0}, {"rental_uris": {"ios": "https://dc.lft.to/lastmile_qr_scan", "android": "https://dc.lft.to/lastmile_qr_scan"}, "type": "electric_scooter", "name": "0537b4a68c790cb0f5a11a051f9b777e", "is_reserved": 0, "lon": -77.0415535, "is_disabled": 0, "fusion_lat": 0.0, "lat": 38.9144285, "bike_id": "0537b4a68c790cb0f5a11a051f9b777e", "fusion_lon": 0.0}, {"rental_uris": {"ios": "https://dc.lft.to/lastmile_qr_scan", "android": "https://dc.lft.to/lastmile_qr_scan"}, "type": "electric_scooter", "name": "b84830e9fdf7e386b470fffbeafbc90b", "is_reserved": 0, "lon": -77.004701, "is_disabled": 0, "fusion_lat": 0.0, "lat": 38.88509833333333, "bike_id": "b84830e9fdf7e386b470fffbeafbc90b", "fusion_lon": 0.0}, {"rental_uris": {"ios": "https://dc.lft.to/lastmile_qr_scan", "android": "https://dc.lft.to/lastmile_qr_scan"}, "type": "electric_scooter", "name": "4f80573f9bcbcfc73916b2cc371b91a3", "is_reserved": 0, "lon": -76.99504283333333, "is_disabled": 0, "fusion_lat": 0.0, "lat": 38.90979466666667, "bike_id": "4f80573f9bcbcfc73916b2cc371b91a3", "fusion_lon": 0.0}, {"rental_uris": {"ios": "https://dc.lft.to/lastmile_qr_scan", "android": "https://dc.lft.to/lastmile_qr_scan"}, "type": "electric_scooter", "name": "2ede5fe2e9c42f8e6b2409760313afd0", "is_reserved": 0, "lon": -76.93388033333333, "is_disabled": 0, "fusion_lat": 0.0, "lat": 38.89907983333333, "bike_id": "2ede5fe2e9c42f8e6b2409760313afd0", "fusion_lon": 0.0}, {"rental_uris": {"ios": "https://dc.lft.to/lastmile_qr_scan", "android": "https://dc.lft.to/lastmile_qr_scan"}, "type": "electric_scooter", "name": "506e665adec590c3eac1af5c4ec10fdd", "is_reserved": 0, "lon": -76.9405545, "is_disabled": 0, "fusion_lat": 0.0, "lat": 38.885836166666664, "bike_id": "506e665adec590c3eac1af5c4ec10fdd", "fusion_lon": 0.0}, {"rental_uris": {"ios": "https://dc.lft.to/lastmile_qr_scan", "android": "https://dc.lft.to/lastmile_qr_scan"}, "type": "electric_scooter", "name": "f152020b40658d26ec0a440be06108b0", "is_reserved": 0, "lon": -77.07243016666666, "is_disabled": 0, "fusion_lat": 0.0, "lat": 38.9343475, "bike_id": "f152020b40658d26ec0a440be06108b0", "fusion_lon": 0.0}, {"rental_uris": {"ios": "https://dc.lft.to/lastmile_qr_scan", "android": "https://dc.lft.to/lastmile_qr_scan"}, "type": "electric_scooter", "name": "4ae7a7ad7eb62c46a16e1613b480d692", "is_reserved": 0, "lon": -77.013422, "is_disabled": 0, "fusion_lat": 0.0, "lat": 38.919170333333334, "bike_id": "4ae7a7ad7eb62c46a16e1613b480d692", "fusion_lon": 0.0}, {"rental_uris": {"ios": "https://dc.lft.to/lastmile_qr_scan", "android": "https://dc.lft.to/lastmile_qr_scan"}, "type": "electric_scooter", "name": "6e849112024ae52e59e14a49882eb430", "is_reserved": 0, "lon": -77.0432995, "is_disabled": 0, "fusion_lat": 0.0, "lat": 38.9111915, "bike_id": "6e849112024ae52e59e14a49882eb430", "fusion_lon": 0.0}, {"rental_uris": {"ios": "https://dc.lft.to/lastmile_qr_scan", "android": "https://dc.lft.to/lastmile_qr_scan"}, "type": "electric_bike", "name": "c4b6555dabca01aaf0310aca737e0f48", "is_reserved": 0, "lon": -76.97542366666667, "is_disabled": 0, "fusion_lat": 0.0, "lat": 38.90427483333333, "bike_id": "c4b6555dabca01aaf0310aca737e0f48", "fusion_lon": 0.0}, {"rental_uris": {"ios": "https://dc.lft.to/lastmile_qr_scan", "android": "https://dc.lft.to/lastmile_qr_scan"}, "type": "electric_bike", "name": "2d18abc68336085e88f30e00ae233874", "is_reserved": 0, "lon": -76.95157916666666, "is_disabled": 0, "fusion_lat": 0.0, "lat": 39.084394, "bike_id": "2d18abc68336085e88f30e00ae233874", "fusion_lon": 0.0}, {"rental_uris": {"ios": "https://dc.lft.to/lastmile_qr_scan", "android": "https://dc.lft.to/lastmile_qr_scan"}, "type": "electric_scooter", "name": "dd2d53f7a3bd0421da1264d4d3772ebc", "is_reserved": 0, "lon": -77.03468483333333, "is_disabled": 0, "fusion_lat": 0.0, "lat": 38.905628666666665, "bike_id": "dd2d53f7a3bd0421da1264d4d3772ebc", "fusion_lon": 0.0}, {"rental_uris": {"ios": "https://dc.lft.to/lastmile_qr_scan", "android": "https://dc.lft.to/lastmile_qr_scan"}, "type": "electric_scooter", "name": "d64078014403e2f7b14ee141c56f944b", "is_reserved": 0, "lon": -77.02047, "is_disabled": 0, "fusion_lat": 0.0, "lat": 38.894378, "bike_id": "d64078014403e2f7b14ee141c56f944b", "fusion_lon": 0.0}, {"rental_uris": {"ios": "https://dc.lft.to/lastmile_qr_scan", "android": "https://dc.lft.to/lastmile_qr_scan"}, "type": "electric_scooter", "name": "b9b9a1c279c79ca543014a6c108a0dde", "is_reserved": 0, "lon": -77.01947116666666, "is_disabled": 0, "fusion_lat": 0.0, "lat": 38.95044816666667, "bike_id": "b9b9a1c279c79ca543014a6c108a0dde", "fusion_lon": 0.0}, {"rental_uris": {"ios": "https://dc.lft.to/lastmile_qr_scan", "android": "https://dc.lft.to/lastmile_qr_scan"}, "type": "electric_scooter", "name": "da989db1251bf48cda89865e17d543ff", "is_reserved": 0, "lon": -77.02163516666667, "is_disabled": 0, "fusion_lat": 0.0, "lat": 38.8933695, "bike_id": "da989db1251bf48cda89865e17d543ff", "fusion_lon": 0.0}, {"rental_uris": {"ios": "https://dc.lft.to/lastmile_qr_scan", "android": "https://dc.lft.to/lastmile_qr_scan"}, "type": "electric_scooter", "name": "edc4d3545988e99d31db38a7d6321b12", "is_reserved": 0, "lon": -77.02641933333334, "is_disabled": 0, "fusion_lat": 0.0, "lat": 38.896046166666665, "bike_id": "edc4d3545988e99d31db38a7d6321b12", "fusion_lon": 0.0}, {"rental_uris": {"ios": "https://dc.lft.to/lastmile_qr_scan", "android": "https://dc.lft.to/lastmile_qr_scan"}, "type": "electric_scooter", "name": "a5e4347ff5a8f03b1d3c7f7b52c0b52f", "is_reserved": 0, "lon": -77.01184416666666, "is_disabled": 0, "fusion_lat": 0.0, "lat": 38.95156166666666, "bike_id": "a5e4347ff5a8f03b1d3c7f7b52c0b52f", "fusion_lon": 0.0}, {"rental_uris": {"ios": "https://dc.lft.to/lastmile_qr_scan", "android": "https://dc.lft.to/lastmile_qr_scan"}, "type": "electric_scooter", "name": "35056cdf9dec05fef2121d22d0cf4a8a", "is_reserved": 0, "lon": -77.00156966666667, "is_disabled": 0, "fusion_lat": 0.0, "lat": 38.82132683333333, "bike_id": "35056cdf9dec05fef2121d22d0cf4a8a", "fusion_lon": 0.0}, {"rental_uris": {"ios": "https://dc.lft.to/lastmile_qr_scan", "android": "https://dc.lft.to/lastmile_qr_scan"}, "type": "electric_scooter", "name": "27a6cee59e7a3f74105a745a57a31e71", "is_reserved": 0, "lon": -76.99943083333334, "is_disabled": 0, "fusion_lat": 0.0, "lat": 38.890892666666666, "bike_id": "27a6cee59e7a3f74105a745a57a31e71", "fusion_lon": 0.0}, {"rental_uris": {"ios": "https://dc.lft.to/lastmile_qr_scan", "android": "https://dc.lft.to/lastmile_qr_scan"}, "type": "electric_scooter", "name": "72aaa550c9779a3fb5665151f6e9d189", "is_reserved": 0, "lon": -77.0756595, "is_disabled": 0, "fusion_lat": 0.0, "lat": 38.90648816666667, "bike_id": "72aaa550c9779a3fb5665151f6e9d189", "fusion_lon": 0.0}, {"rental_uris": {"ios": "https://dc.lft.to/lastmile_qr_scan", "android": "https://dc.lft.to/lastmile_qr_scan"}, "type": "electric_scooter", "name": "c11f4154ee6122238256502eb0a812b7", "is_reserved": 0, "lon": -77.00901233333333, "is_disabled": 0, "fusion_lat": 0.0, "lat": 38.89600766666667, "bike_id": "c11f4154ee6122238256502eb0a812b7", "fusion_lon": 0.0}, {"rental_uris": {"ios": "https://dc.lft.to/lastmile_qr_scan", "android": "https://dc.lft.to/lastmile_qr_scan"}, "type": "electric_scooter", "name": "4db24ce64cac7236b78105e3bec512c6", "is_reserved": 0, "lon": -77.032178, "is_disabled": 0, "fusion_lat": 0.0, "lat": 38.924850166666666, "bike_id": "4db24ce64cac7236b78105e3bec512c6", "fusion_lon": 0.0}, {"rental_uris": {"ios": "https://dc.lft.to/lastmile_qr_scan", "android": "https://dc.lft.to/lastmile_qr_scan"}, "type": "electric_scooter", "name": "aa3574eaf462f7d9e7d5b65ba7e5e002", "is_reserved": 0, "lon": -77.0005415, "is_disabled": 0, "fusion_lat": 0.0, "lat": 38.8768585, "bike_id": "aa3574eaf462f7d9e7d5b65ba7e5e002", "fusion_lon": 0.0}, {"rental_uris": {"ios": "https://dc.lft.to/lastmile_qr_scan", "android": "https://dc.lft.to/lastmile_qr_scan"}, "type": "electric_scooter", "name": "abf032d8f4356d6790ae87e1437650a6", "is_reserved": 0, "lon": -77.05198466666667, "is_disabled": 0, "fusion_lat": 0.0, "lat": 38.92462033333334, "bike_id": "abf032d8f4356d6790ae87e1437650a6", "fusion_lon": 0.0}, {"rental_uris": {"ios": "https://dc.lft.to/lastmile_qr_scan", "android": "https://dc.lft.to/lastmile_qr_scan"}, "type": "electric_scooter", "name": "945620f67c4d8e21f90b59f8751934d4", "is_reserved": 0, "lon": -77.03781133333334, "is_disabled": 0, "fusion_lat": 0.0, "lat": 38.925726833333336, "bike_id": "945620f67c4d8e21f90b59f8751934d4", "fusion_lon": 0.0}, {"rental_uris": {"ios": "https://dc.lft.to/lastmile_qr_scan", "android": "https://dc.lft.to/lastmile_qr_scan"}, "type": "electric_scooter", "name": "c10eca4194c2e0bfc347d19290929086", "is_reserved": 0, "lon": -76.99009516666666, "is_disabled": 0, "fusion_lat": 0.0, "lat": 38.903974166666664, "bike_id": "c10eca4194c2e0bfc347d19290929086", "fusion_lon": 0.0}, {"rental_uris": {"ios": "https://dc.lft.to/lastmile_qr_scan", "android": "https://dc.lft.to/lastmile_qr_scan"}, "type": "electric_scooter", "name": "50f6a8e896760663f4c1cd679046d120", "is_reserved": 0, "lon": -77.042513, "is_disabled": 0, "fusion_lat": 0.0, "lat": 38.91064266666667, "bike_id": "50f6a8e896760663f4c1cd679046d120", "fusion_lon": 0.0}, {"rental_uris": {"ios": "https://dc.lft.to/lastmile_qr_scan", "android": "https://dc.lft.to/lastmile_qr_scan"}, "type": "electric_scooter", "name": "17ad1e0b09a7cf7b2e4cd421d21c7b94", "is_reserved": 0, "lon": -77.02602416666667, "is_disabled": 0, "fusion_lat": 0.0, "lat": 38.901717, "bike_id": "17ad1e0b09a7cf7b2e4cd421d21c7b94", "fusion_lon": 0.0}, {"rental_uris": {"ios": "https://dc.lft.to/lastmile_qr_scan", "android": "https://dc.lft.to/lastmile_qr_scan"}, "type": "electric_bike", "name": "fd87e30269498aad6c8f0f45e4b4544a", "is_reserved": 0, "lon": -77.07241466666666, "is_disabled": 0, "fusion_lat": 0.0, "lat": 38.813615666666664, "bike_id": "fd87e30269498aad6c8f0f45e4b4544a", "fusion_lon": 0.0}, {"rental_uris": {"ios": "https://dc.lft.to/lastmile_qr_scan", "android": "https://dc.lft.to/lastmile_qr_scan"}, "type": "electric_scooter", "name": "5d43654f6502826f4c0f56d021c3bb58", "is_reserved": 0, "lon": -77.0423525, "is_disabled": 0, "fusion_lat": 0.0, "lat": 38.92283583333333, "bike_id": "5d43654f6502826f4c0f56d021c3bb58", "fusion_lon": 0.0}, {"rental_uris": {"ios": "https://dc.lft.to/lastmile_qr_scan", "android": "https://dc.lft.to/lastmile_qr_scan"}, "type": "electric_scooter", "name": "3bd91ea2b65965e906a83d1b32997e9c", "is_reserved": 0, "lon": -77.0379915, "is_disabled": 0, "fusion_lat": 0.0, "lat": 38.91033683333333, "bike_id": "3bd91ea2b65965e906a83d1b32997e9c", "fusion_lon": 0.0}, {"rental_uris": {"ios": "https://dc.lft.to/lastmile_qr_scan", "android": "https://dc.lft.to/lastmile_qr_scan"}, "type": "electric_scooter", "name": "e54d8ae3a5118ea8a56c3b54376e24a0", "is_reserved": 0, "lon": -77.01506466666666, "is_disabled": 0, "fusion_lat": 0.0, "lat": 38.901502666666666, "bike_id": "e54d8ae3a5118ea8a56c3b54376e24a0", "fusion_lon": 0.0}, {"rental_uris": {"ios": "https://dc.lft.to/lastmile_qr_scan", "android": "https://dc.lft.to/lastmile_qr_scan"}, "type": "electric_bike", "name": "119227721ec9ea7a10f393474bb83473", "is_reserved": 0, "lon": -76.9944115, "is_disabled": 0, "fusion_lat": 0.0, "lat": 38.8310335, "bike_id": "119227721ec9ea7a10f393474bb83473", "fusion_lon": 0.0}, {"rental_uris": {"ios": "https://dc.lft.to/lastmile_qr_scan", "android": "https://dc.lft.to/lastmile_qr_scan"}, "type": "electric_scooter", "name": "6285275fd4d18edf274fdab949cb7a29", "is_reserved": 0, "lon": -77.04853716666666, "is_disabled": 0, "fusion_lat": 0.0, "lat": 38.9126655, "bike_id": "6285275fd4d18edf274fdab949cb7a29", "fusion_lon": 0.0}, {"rental_uris": {"ios": "https://dc.lft.to/lastmile_qr_scan", "android": "https://dc.lft.to/lastmile_qr_scan"}, "type": "electric_scooter", "name": "d3a805a9775f2f95dab4c9684294c570", "is_reserved": 0, "lon": -77.03663133333333, "is_disabled": 0, "fusion_lat": 0.0, "lat": 38.92117316666667, "bike_id": "d3a805a9775f2f95dab4c9684294c570", "fusion_lon": 0.0}, {"rental_uris": {"ios": "https://dc.lft.to/lastmile_qr_scan", "android": "https://dc.lft.to/lastmile_qr_scan"}, "type": "electric_scooter", "name": "13e3f83e999c5a9c5aba67f0dc8e7be8", "is_reserved": 0, "lon": -77.0204765, "is_disabled": 0, "fusion_lat": 0.0, "lat": 38.92928033333333, "bike_id": "13e3f83e999c5a9c5aba67f0dc8e7be8", "fusion_lon": 0.0}, {"rental_uris": {"ios": "https://dc.lft.to/lastmile_qr_scan", "android": "https://dc.lft.to/lastmile_qr_scan"}, "type": "electric_scooter", "name": "70c0240e06686143ba805f39c17cd3c8", "is_reserved": 0, "lon": -77.025363, "is_disabled": 0, "fusion_lat": 0.0, "lat": 38.94535366666667, "bike_id": "70c0240e06686143ba805f39c17cd3c8", "fusion_lon": 0.0}, {"rental_uris": {"ios": "https://dc.lft.to/lastmile_qr_scan", "android": "https://dc.lft.to/lastmile_qr_scan"}, "type": "electric_scooter", "name": "6ff4673888c71ccce616bc44513858e2", "is_reserved": 0, "lon": -76.93371283333333, "is_disabled": 0, "fusion_lat": 0.0, "lat": 38.898659, "bike_id": "6ff4673888c71ccce616bc44513858e2", "fusion_lon": 0.0}, {"rental_uris": {"ios": "https://dc.lft.to/lastmile_qr_scan", "android": "https://dc.lft.to/lastmile_qr_scan"}, "type": "electric_scooter", "name": "3e450a31daf0489e2f28a91b19ab47d6", "is_reserved": 0, "lon": -77.04280983333334, "is_disabled": 0, "fusion_lat": 0.0, "lat": 38.9079375, "bike_id": "3e450a31daf0489e2f28a91b19ab47d6", "fusion_lon": 0.0}, {"rental_uris": {"ios": "https://dc.lft.to/lastmile_qr_scan", "android": "https://dc.lft.to/lastmile_qr_scan"}, "type": "electric_scooter", "name": "398a2fc49d0c234e6cf26b5acd24f450", "is_reserved": 0, "lon": -77.03458716666667, "is_disabled": 0, "fusion_lat": 0.0, "lat": 38.911843166666664, "bike_id": "398a2fc49d0c234e6cf26b5acd24f450", "fusion_lon": 0.0}, {"rental_uris": {"ios": "https://dc.lft.to/lastmile_qr_scan", "android": "https://dc.lft.to/lastmile_qr_scan"}, "type": "electric_scooter", "name": "aee14bbcd809e91149df8df64166be0b", "is_reserved": 0, "lon": -76.9889365, "is_disabled": 0, "fusion_lat": 0.0, "lat": 38.906468, "bike_id": "aee14bbcd809e91149df8df64166be0b", "fusion_lon": 0.0}, {"rental_uris": {"ios": "https://dc.lft.to/lastmile_qr_scan", "android": "https://dc.lft.to/lastmile_qr_scan"}, "type": "electric_scooter", "name": "9fcf812a4f8e9d67fb7872ca8eecf0d4", "is_reserved": 0, "lon": -77.00250816666667, "is_disabled": 0, "fusion_lat": 0.0, "lat": 38.90026316666667, "bike_id": "9fcf812a4f8e9d67fb7872ca8eecf0d4", "fusion_lon": 0.0}, {"rental_uris": {"ios": "https://dc.lft.to/lastmile_qr_scan", "android": "https://dc.lft.to/lastmile_qr_scan"}, "type": "electric_scooter", "name": "77c76eff438494f9dc8f4e8ce0b7b2d6", "is_reserved": 0, "lon": -77.02965216666666, "is_disabled": 0, "fusion_lat": 0.0, "lat": 38.92287983333333, "bike_id": "77c76eff438494f9dc8f4e8ce0b7b2d6", "fusion_lon": 0.0}, {"rental_uris": {"ios": "https://dc.lft.to/lastmile_qr_scan", "android": "https://dc.lft.to/lastmile_qr_scan"}, "type": "electric_scooter", "name": "7147dff1e52a5a1d4dcc434602779918", "is_reserved": 0, "lon": -77.041697, "is_disabled": 0, "fusion_lat": 0.0, "lat": 38.9193855, "bike_id": "7147dff1e52a5a1d4dcc434602779918", "fusion_lon": 0.0}, {"rental_uris": {"ios": "https://dc.lft.to/lastmile_qr_scan", "android": "https://dc.lft.to/lastmile_qr_scan"}, "type": "electric_scooter", "name": "b72545492894e12f0d3641308f43a0fa", "is_reserved": 0, "lon": -77.02145866666666, "is_disabled": 0, "fusion_lat": 0.0, "lat": 38.887404833333335, "bike_id": "b72545492894e12f0d3641308f43a0fa", "fusion_lon": 0.0}, {"rental_uris": {"ios": "https://dc.lft.to/lastmile_qr_scan", "android": "https://dc.lft.to/lastmile_qr_scan"}, "type": "electric_scooter", "name": "fb757a320e7d5cee85c20b0b6ecf2218", "is_reserved": 0, "lon": -77.04688816666666, "is_disabled": 0, "fusion_lat": 0.0, "lat": 38.8973915, "bike_id": "fb757a320e7d5cee85c20b0b6ecf2218", "fusion_lon": 0.0}, {"rental_uris": {"ios": "https://dc.lft.to/lastmile_qr_scan", "android": "https://dc.lft.to/lastmile_qr_scan"}, "type": "electric_scooter", "name": "d8de74277a65f30fb19d47fbdb361af1", "is_reserved": 0, "lon": -77.0326115, "is_disabled": 0, "fusion_lat": 0.0, "lat": 38.910439333333336, "bike_id": "d8de74277a65f30fb19d47fbdb361af1", "fusion_lon": 0.0}, {"rental_uris": {"ios": "https://dc.lft.to/lastmile_qr_scan", "android": "https://dc.lft.to/lastmile_qr_scan"}, "type": "electric_scooter", "name": "f02005f48b7f50b12b2a2cc60dec3e9c", "is_reserved": 0, "lon": -77.03276083333333, "is_disabled": 0, "fusion_lat": 0.0, "lat": 38.91992166666667, "bike_id": "f02005f48b7f50b12b2a2cc60dec3e9c", "fusion_lon": 0.0}, {"rental_uris": {"ios": "https://dc.lft.to/lastmile_qr_scan", "android": "https://dc.lft.to/lastmile_qr_scan"}, "type": "electric_scooter", "name": "3f9f9595b02a08004a95ae2863dd3e8c", "is_reserved": 0, "lon": -77.07236866666666, "is_disabled": 0, "fusion_lat": 0.0, "lat": 38.93460283333334, "bike_id": "3f9f9595b02a08004a95ae2863dd3e8c", "fusion_lon": 0.0}, {"rental_uris": {"ios": "https://dc.lft.to/lastmile_qr_scan", "android": "https://dc.lft.to/lastmile_qr_scan"}, "type": "electric_scooter", "name": "20337f9a79337344b80c069984fcee2e", "is_reserved": 0, "lon": -77.0363325, "is_disabled": 0, "fusion_lat": 0.0, "lat": 38.92594533333333, "bike_id": "20337f9a79337344b80c069984fcee2e", "fusion_lon": 0.0}, {"rental_uris": {"ios": "https://dc.lft.to/lastmile_qr_scan", "android": "https://dc.lft.to/lastmile_qr_scan"}, "type": "electric_scooter", "name": "c56865ef3f59a149eae968afea04b53d", "is_reserved": 0, "lon": -77.04428266666666, "is_disabled": 0, "fusion_lat": 0.0, "lat": 38.91264733333333, "bike_id": "c56865ef3f59a149eae968afea04b53d", "fusion_lon": 0.0}, {"rental_uris": {"ios": "https://dc.lft.to/lastmile_qr_scan", "android": "https://dc.lft.to/lastmile_qr_scan"}, "type": "electric_scooter", "name": "1e895c4fceb1bbd1c367386406ccb4c4", "is_reserved": 0, "lon": -77.03980183333333, "is_disabled": 0, "fusion_lat": 0.0, "lat": 38.892209666666666, "bike_id": "1e895c4fceb1bbd1c367386406ccb4c4", "fusion_lon": 0.0}, {"rental_uris": {"ios": "https://dc.lft.to/lastmile_qr_scan", "android": "https://dc.lft.to/lastmile_qr_scan"}, "type": "electric_scooter", "name": "d5587b2c9a8de8f3ee92c16f03a34edf", "is_reserved": 0, "lon": -77.0564205, "is_disabled": 0, "fusion_lat": 0.0, "lat": 38.93597616666667, "bike_id": "d5587b2c9a8de8f3ee92c16f03a34edf", "fusion_lon": 0.0}, {"rental_uris": {"ios": "https://dc.lft.to/lastmile_qr_scan", "android": "https://dc.lft.to/lastmile_qr_scan"}, "type": "electric_scooter", "name": "14e766d2456910d4e125e293b501ad6b", "is_reserved": 0, "lon": -77.0000465, "is_disabled": 0, "fusion_lat": 0.0, "lat": 38.900284, "bike_id": "14e766d2456910d4e125e293b501ad6b", "fusion_lon": 0.0}, {"rental_uris": {"ios": "https://dc.lft.to/lastmile_qr_scan", "android": "https://dc.lft.to/lastmile_qr_scan"}, "type": "electric_scooter", "name": "6adcfe2d310afbe717fed44b5e7663e7", "is_reserved": 0, "lon": -77.03748666666667, "is_disabled": 0, "fusion_lat": 0.0, "lat": 38.903689166666666, "bike_id": "6adcfe2d310afbe717fed44b5e7663e7", "fusion_lon": 0.0}, {"rental_uris": {"ios": "https://dc.lft.to/lastmile_qr_scan", "android": "https://dc.lft.to/lastmile_qr_scan"}, "type": "electric_scooter", "name": "0373e720e157a9f273e802e169d6f11b", "is_reserved": 0, "lon": -77.03328933333333, "is_disabled": 0, "fusion_lat": 0.0, "lat": 38.900135166666665, "bike_id": "0373e720e157a9f273e802e169d6f11b", "fusion_lon": 0.0}, {"rental_uris": {"ios": "https://dc.lft.to/lastmile_qr_scan", "android": "https://dc.lft.to/lastmile_qr_scan"}, "type": "electric_bike", "name": "140e3405740b8238c39c662d3860116f", "is_reserved": 0, "lon": -77.1264755, "is_disabled": 0, "fusion_lat": 0.0, "lat": 38.81905716666667, "bike_id": "140e3405740b8238c39c662d3860116f", "fusion_lon": 0.0}, {"rental_uris": {"ios": "https://dc.lft.to/lastmile_qr_scan", "android": "https://dc.lft.to/lastmile_qr_scan"}, "type": "electric_scooter", "name": "ab9d557234ec2a022f6204aca79725fd", "is_reserved": 0, "lon": -76.93184266666667, "is_disabled": 0, "fusion_lat": 0.0, "lat": 38.89875933333333, "bike_id": "ab9d557234ec2a022f6204aca79725fd", "fusion_lon": 0.0}, {"rental_uris": {"ios": "https://dc.lft.to/lastmile_qr_scan", "android": "https://dc.lft.to/lastmile_qr_scan"}, "type": "electric_scooter", "name": "800630716d6115a4d5ab7ac7630b1c58", "is_reserved": 0, "lon": -76.9764855, "is_disabled": 0, "fusion_lat": 0.0, "lat": 38.887488, "bike_id": "800630716d6115a4d5ab7ac7630b1c58", "fusion_lon": 0.0}, {"rental_uris": {"ios": "https://dc.lft.to/lastmile_qr_scan", "android": "https://dc.lft.to/lastmile_qr_scan"}, "type": "electric_bike", "name": "eeab33e351d79aa5cd5b0bc6b1b3963e", "is_reserved": 0, "lon": -76.95247716666667, "is_disabled": 0, "fusion_lat": 0.0, "lat": 38.90693533333334, "bike_id": "eeab33e351d79aa5cd5b0bc6b1b3963e", "fusion_lon": 0.0}, {"rental_uris": {"ios": "https://dc.lft.to/lastmile_qr_scan", "android": "https://dc.lft.to/lastmile_qr_scan"}, "type": "electric_scooter", "name": "848d2ae02b348d1698501d9aadd32f8c", "is_reserved": 0, "lon": -77.03482033333333, "is_disabled": 0, "fusion_lat": 0.0, "lat": 38.90663033333333, "bike_id": "848d2ae02b348d1698501d9aadd32f8c", "fusion_lon": 0.0}, {"rental_uris": {"ios": "https://dc.lft.to/lastmile_qr_scan", "android": "https://dc.lft.to/lastmile_qr_scan"}, "type": "electric_scooter", "name": "e12ac8b748b971f19f569f966aa8b838", "is_reserved": 0, "lon": -77.00623733333333, "is_disabled": 0, "fusion_lat": 0.0, "lat": 38.871734833333335, "bike_id": "e12ac8b748b971f19f569f966aa8b838", "fusion_lon": 0.0}, {"rental_uris": {"ios": "https://dc.lft.to/lastmile_qr_scan", "android": "https://dc.lft.to/lastmile_qr_scan"}, "type": "electric_scooter", "name": "91d528a2466ab14713063f75fd196944", "is_reserved": 0, "lon": -77.07214066666667, "is_disabled": 0, "fusion_lat": 0.0, "lat": 38.91969533333334, "bike_id": "91d528a2466ab14713063f75fd196944", "fusion_lon": 0.0}, {"rental_uris": {"ios": "https://dc.lft.to/lastmile_qr_scan", "android": "https://dc.lft.to/lastmile_qr_scan"}, "type": "electric_scooter", "name": "c9c57d6a4d591b4aa905fddedfa313ea", "is_reserved": 0, "lon": -77.0637305, "is_disabled": 0, "fusion_lat": 0.0, "lat": 38.9356065, "bike_id": "c9c57d6a4d591b4aa905fddedfa313ea", "fusion_lon": 0.0}, {"rental_uris": {"ios": "https://dc.lft.to/lastmile_qr_scan", "android": "https://dc.lft.to/lastmile_qr_scan"}, "type": "electric_scooter", "name": "697484fa21d3aa297c281ed6159a1e16", "is_reserved": 0, "lon": -77.0359345, "is_disabled": 0, "fusion_lat": 0.0, "lat": 38.9277865, "bike_id": "697484fa21d3aa297c281ed6159a1e16", "fusion_lon": 0.0}, {"rental_uris": {"ios": "https://dc.lft.to/lastmile_qr_scan", "android": "https://dc.lft.to/lastmile_qr_scan"}, "type": "electric_bike", "name": "62384220550b501c285b3a37c1435b91", "is_reserved": 0, "lon": -77.02452783333334, "is_disabled": 0, "fusion_lat": 0.0, "lat": 38.95738633333333, "bike_id": "62384220550b501c285b3a37c1435b91", "fusion_lon": 0.0}, {"rental_uris": {"ios": "https://dc.lft.to/lastmile_qr_scan", "android": "https://dc.lft.to/lastmile_qr_scan"}, "type": "electric_scooter", "name": "badc5ec0511f78ef5eeb459d31350451", "is_reserved": 0, "lon": -77.0380815, "is_disabled": 0, "fusion_lat": 0.0, "lat": 38.931154166666666, "bike_id": "badc5ec0511f78ef5eeb459d31350451", "fusion_lon": 0.0}, {"rental_uris": {"ios": "https://dc.lft.to/lastmile_qr_scan", "android": "https://dc.lft.to/lastmile_qr_scan"}, "type": "electric_scooter", "name": "9f38d36d4f0b94d29bfb78a01de7d559", "is_reserved": 0, "lon": -77.03463416666666, "is_disabled": 0, "fusion_lat": 0.0, "lat": 38.90567716666666, "bike_id": "9f38d36d4f0b94d29bfb78a01de7d559", "fusion_lon": 0.0}, {"rental_uris": {"ios": "https://dc.lft.to/lastmile_qr_scan", "android": "https://dc.lft.to/lastmile_qr_scan"}, "type": "electric_bike", "name": "56a0cd85764cd9aa4109c284c20d5ad4", "is_reserved": 0, "lon": -77.046425, "is_disabled": 0, "fusion_lat": 0.0, "lat": 38.81545166666667, "bike_id": "56a0cd85764cd9aa4109c284c20d5ad4", "fusion_lon": 0.0}, {"rental_uris": {"ios": "https://dc.lft.to/lastmile_qr_scan", "android": "https://dc.lft.to/lastmile_qr_scan"}, "type": "electric_scooter", "name": "e0af4e0fa2ef66d95b764509154ef6d8", "is_reserved": 0, "lon": -77.013903, "is_disabled": 0, "fusion_lat": 0.0, "lat": 38.9110875, "bike_id": "e0af4e0fa2ef66d95b764509154ef6d8", "fusion_lon": 0.0}, {"rental_uris": {"ios": "https://dc.lft.to/lastmile_qr_scan", "android": "https://dc.lft.to/lastmile_qr_scan"}, "type": "electric_bike", "name": "f23149d44bd383599b5ea343f21c5ccf", "is_reserved": 0, "lon": -76.97139833333334, "is_disabled": 0, "fusion_lat": 0.0, "lat": 38.923559166666664, "bike_id": "f23149d44bd383599b5ea343f21c5ccf", "fusion_lon": 0.0}, {"rental_uris": {"ios": "https://dc.lft.to/lastmile_qr_scan", "android": "https://dc.lft.to/lastmile_qr_scan"}, "type": "electric_scooter", "name": "2300d49f46e63de19e466c983113bacd", "is_reserved": 0, "lon": -76.991597, "is_disabled": 0, "fusion_lat": 0.0, "lat": 38.900369166666664, "bike_id": "2300d49f46e63de19e466c983113bacd", "fusion_lon": 0.0}, {"rental_uris": {"ios": "https://dc.lft.to/lastmile_qr_scan", "android": "https://dc.lft.to/lastmile_qr_scan"}, "type": "electric_scooter", "name": "dc92200fbef2ad7db90131b9d7be6a35", "is_reserved": 0, "lon": -76.98538333333333, "is_disabled": 0, "fusion_lat": 0.0, "lat": 38.85845783333333, "bike_id": "dc92200fbef2ad7db90131b9d7be6a35", "fusion_lon": 0.0}, {"rental_uris": {"ios": "https://dc.lft.to/lastmile_qr_scan", "android": "https://dc.lft.to/lastmile_qr_scan"}, "type": "electric_scooter", "name": "d4b2f1a36e8164455d4338dff2c40924", "is_reserved": 0, "lon": -77.037286, "is_disabled": 0, "fusion_lat": 0.0, "lat": 38.92024516666667, "bike_id": "d4b2f1a36e8164455d4338dff2c40924", "fusion_lon": 0.0}, {"rental_uris": {"ios": "https://dc.lft.to/lastmile_qr_scan", "android": "https://dc.lft.to/lastmile_qr_scan"}, "type": "electric_scooter", "name": "221caacce407f36828b30dca0a41e7da", "is_reserved": 0, "lon": -77.08591933333334, "is_disabled": 0, "fusion_lat": 0.0, "lat": 38.90871083333333, "bike_id": "221caacce407f36828b30dca0a41e7da", "fusion_lon": 0.0}, {"rental_uris": {"ios": "https://dc.lft.to/lastmile_qr_scan", "android": "https://dc.lft.to/lastmile_qr_scan"}, "type": "electric_scooter", "name": "258afcc2754fdbb6d313f050443408be", "is_reserved": 0, "lon": -77.04839433333333, "is_disabled": 0, "fusion_lat": 0.0, "lat": 38.90073666666667, "bike_id": "258afcc2754fdbb6d313f050443408be", "fusion_lon": 0.0}, {"rental_uris": {"ios": "https://dc.lft.to/lastmile_qr_scan", "android": "https://dc.lft.to/lastmile_qr_scan"}, "type": "electric_bike", "name": "817b67d500ae6923916d1ab8f827b613", "is_reserved": 0, "lon": -77.02821466666667, "is_disabled": 0, "fusion_lat": 0.0, "lat": 38.96556616666667, "bike_id": "817b67d500ae6923916d1ab8f827b613", "fusion_lon": 0.0}, {"rental_uris": {"ios": "https://dc.lft.to/lastmile_qr_scan", "android": "https://dc.lft.to/lastmile_qr_scan"}, "type": "electric_scooter", "name": "045e4dd9dbb71aade577ac7410390463", "is_reserved": 0, "lon": -77.03183566666667, "is_disabled": 0, "fusion_lat": 0.0, "lat": 38.91597483333334, "bike_id": "045e4dd9dbb71aade577ac7410390463", "fusion_lon": 0.0}, {"rental_uris": {"ios": "https://dc.lft.to/lastmile_qr_scan", "android": "https://dc.lft.to/lastmile_qr_scan"}, "type": "electric_scooter", "name": "90775d7545bb43cc4406fb47c1d7cbe4", "is_reserved": 0, "lon": -76.92658533333334, "is_disabled": 0, "fusion_lat": 0.0, "lat": 38.882372, "bike_id": "90775d7545bb43cc4406fb47c1d7cbe4", "fusion_lon": 0.0}, {"rental_uris": {"ios": "https://dc.lft.to/lastmile_qr_scan", "android": "https://dc.lft.to/lastmile_qr_scan"}, "type": "electric_scooter", "name": "8a284440298f4ae5841d40bcbe23c146", "is_reserved": 0, "lon": -77.0231215, "is_disabled": 0, "fusion_lat": 0.0, "lat": 38.92075083333334, "bike_id": "8a284440298f4ae5841d40bcbe23c146", "fusion_lon": 0.0}, {"rental_uris": {"ios": "https://dc.lft.to/lastmile_qr_scan", "android": "https://dc.lft.to/lastmile_qr_scan"}, "type": "electric_scooter", "name": "bc1dd71081b2803912bbab731aec8cfa", "is_reserved": 0, "lon": -77.043835, "is_disabled": 0, "fusion_lat": 0.0, "lat": 38.8973185, "bike_id": "bc1dd71081b2803912bbab731aec8cfa", "fusion_lon": 0.0}, {"rental_uris": {"ios": "https://dc.lft.to/lastmile_qr_scan", "android": "https://dc.lft.to/lastmile_qr_scan"}, "type": "electric_scooter", "name": "15f14ca398f6b3017be73fb0ae9b4167", "is_reserved": 0, "lon": -77.0201655, "is_disabled": 0, "fusion_lat": 0.0, "lat": 38.899080833333336, "bike_id": "15f14ca398f6b3017be73fb0ae9b4167", "fusion_lon": 0.0}, {"rental_uris": {"ios": "https://dc.lft.to/lastmile_qr_scan", "android": "https://dc.lft.to/lastmile_qr_scan"}, "type": "electric_scooter", "name": "7578dbc13f0fc26605db9c3f399d962b", "is_reserved": 0, "lon": -77.00873266666666, "is_disabled": 0, "fusion_lat": 0.0, "lat": 38.9117765, "bike_id": "7578dbc13f0fc26605db9c3f399d962b", "fusion_lon": 0.0}, {"rental_uris": {"ios": "https://dc.lft.to/lastmile_qr_scan", "android": "https://dc.lft.to/lastmile_qr_scan"}, "type": "electric_scooter", "name": "d404db8c638ed97788165dcdb335cfa1", "is_reserved": 0, "lon": -77.030195, "is_disabled": 0, "fusion_lat": 0.0, "lat": 38.878475333333334, "bike_id": "d404db8c638ed97788165dcdb335cfa1", "fusion_lon": 0.0}, {"rental_uris": {"ios": "https://dc.lft.to/lastmile_qr_scan", "android": "https://dc.lft.to/lastmile_qr_scan"}, "type": "electric_bike", "name": "cb6dd5077f48506bdc2b8c433f3d4239", "is_reserved": 0, "lon": -77.00553916666667, "is_disabled": 0, "fusion_lat": 0.0, "lat": 38.879126666666664, "bike_id": "cb6dd5077f48506bdc2b8c433f3d4239", "fusion_lon": 0.0}, {"rental_uris": {"ios": "https://dc.lft.to/lastmile_qr_scan", "android": "https://dc.lft.to/lastmile_qr_scan"}, "type": "electric_scooter", "name": "728169fb9d664716d002f5971192e80c", "is_reserved": 0, "lon": -77.03192283333334, "is_disabled": 0, "fusion_lat": 0.0, "lat": 38.918175166666664, "bike_id": "728169fb9d664716d002f5971192e80c", "fusion_lon": 0.0}, {"rental_uris": {"ios": "https://dc.lft.to/lastmile_qr_scan", "android": "https://dc.lft.to/lastmile_qr_scan"}, "type": "electric_scooter", "name": "769ccbfb12578767e9a5aa8e8c87397d", "is_reserved": 0, "lon": -77.026145, "is_disabled": 0, "fusion_lat": 0.0, "lat": 38.88094916666667, "bike_id": "769ccbfb12578767e9a5aa8e8c87397d", "fusion_lon": 0.0}, {"rental_uris": {"ios": "https://dc.lft.to/lastmile_qr_scan", "android": "https://dc.lft.to/lastmile_qr_scan"}, "type": "electric_scooter", "name": "fde118e5f92e98dd05c73c7dbe2b1229", "is_reserved": 0, "lon": -77.02616016666667, "is_disabled": 0, "fusion_lat": 0.0, "lat": 38.903641666666665, "bike_id": "fde118e5f92e98dd05c73c7dbe2b1229", "fusion_lon": 0.0}, {"rental_uris": {"ios": "https://dc.lft.to/lastmile_qr_scan", "android": "https://dc.lft.to/lastmile_qr_scan"}, "type": "electric_scooter", "name": "570eb00029c21c245b5df9f4939287b5", "is_reserved": 0, "lon": -77.03437766666667, "is_disabled": 0, "fusion_lat": 0.0, "lat": 38.90096116666667, "bike_id": "570eb00029c21c245b5df9f4939287b5", "fusion_lon": 0.0}, {"rental_uris": {"ios": "https://dc.lft.to/lastmile_qr_scan", "android": "https://dc.lft.to/lastmile_qr_scan"}, "type": "electric_scooter", "name": "60fc327d5769ff31ca184c199f32e9ae", "is_reserved": 0, "lon": -77.038294, "is_disabled": 0, "fusion_lat": 0.0, "lat": 38.9314135, "bike_id": "60fc327d5769ff31ca184c199f32e9ae", "fusion_lon": 0.0}, {"rental_uris": {"ios": "https://dc.lft.to/lastmile_qr_scan", "android": "https://dc.lft.to/lastmile_qr_scan"}, "type": "electric_scooter", "name": "c0f95399e458c36c078b30fa493353b5", "is_reserved": 0, "lon": -76.99233616666666, "is_disabled": 0, "fusion_lat": 0.0, "lat": 38.887547, "bike_id": "c0f95399e458c36c078b30fa493353b5", "fusion_lon": 0.0}, {"rental_uris": {"ios": "https://dc.lft.to/lastmile_qr_scan", "android": "https://dc.lft.to/lastmile_qr_scan"}, "type": "electric_scooter", "name": "5de90531cff5b63efe15d3fbd3c0b134", "is_reserved": 0, "lon": -77.012204, "is_disabled": 0, "fusion_lat": 0.0, "lat": 38.86720666666667, "bike_id": "5de90531cff5b63efe15d3fbd3c0b134", "fusion_lon": 0.0}, {"rental_uris": {"ios": "https://dc.lft.to/lastmile_qr_scan", "android": "https://dc.lft.to/lastmile_qr_scan"}, "type": "electric_scooter", "name": "017999c52a5e8347a3215e1cbfde9bd0", "is_reserved": 0, "lon": -77.048681, "is_disabled": 0, "fusion_lat": 0.0, "lat": 38.900709166666665, "bike_id": "017999c52a5e8347a3215e1cbfde9bd0", "fusion_lon": 0.0}, {"rental_uris": {"ios": "https://dc.lft.to/lastmile_qr_scan", "android": "https://dc.lft.to/lastmile_qr_scan"}, "type": "electric_scooter", "name": "4a70e7ceedd43fc2ec7863e9368cd875", "is_reserved": 0, "lon": -77.03831316666667, "is_disabled": 0, "fusion_lat": 0.0, "lat": 38.90728133333333, "bike_id": "4a70e7ceedd43fc2ec7863e9368cd875", "fusion_lon": 0.0}, {"rental_uris": {"ios": "https://dc.lft.to/lastmile_qr_scan", "android": "https://dc.lft.to/lastmile_qr_scan"}, "type": "electric_scooter", "name": "19498d438de513201801327d9fbff4fa", "is_reserved": 0, "lon": -77.04890183333333, "is_disabled": 0, "fusion_lat": 0.0, "lat": 38.916297666666665, "bike_id": "19498d438de513201801327d9fbff4fa", "fusion_lon": 0.0}, {"rental_uris": {"ios": "https://dc.lft.to/lastmile_qr_scan", "android": "https://dc.lft.to/lastmile_qr_scan"}, "type": "electric_scooter", "name": "3c0aac5404d15366d53c11be1f60f96a", "is_reserved": 0, "lon": -76.9991155, "is_disabled": 0, "fusion_lat": 0.0, "lat": 38.92455966666667, "bike_id": "3c0aac5404d15366d53c11be1f60f96a", "fusion_lon": 0.0}, {"rental_uris": {"ios": "https://dc.lft.to/lastmile_qr_scan", "android": "https://dc.lft.to/lastmile_qr_scan"}, "type": "electric_bike", "name": "6edfd5bb29dae07ea91726425d8875a8", "is_reserved": 0, "lon": -76.90731, "is_disabled": 0, "fusion_lat": 0.0, "lat": 38.896143333333335, "bike_id": "6edfd5bb29dae07ea91726425d8875a8", "fusion_lon": 0.0}, {"rental_uris": {"ios": "https://dc.lft.to/lastmile_qr_scan", "android": "https://dc.lft.to/lastmile_qr_scan"}, "type": "electric_scooter", "name": "b08186d7af4360fdba3d7eaa3bd031de", "is_reserved": 0, "lon": -77.03198533333334, "is_disabled": 0, "fusion_lat": 0.0, "lat": 38.88474, "bike_id": "b08186d7af4360fdba3d7eaa3bd031de", "fusion_lon": 0.0}, {"rental_uris": {"ios": "https://dc.lft.to/lastmile_qr_scan", "android": "https://dc.lft.to/lastmile_qr_scan"}, "type": "electric_scooter", "name": "84f656c6f592ac53eee7b9233305b4f7", "is_reserved": 0, "lon": -77.02969, "is_disabled": 0, "fusion_lat": 0.0, "lat": 38.916776166666665, "bike_id": "84f656c6f592ac53eee7b9233305b4f7", "fusion_lon": 0.0}, {"rental_uris": {"ios": "https://dc.lft.to/lastmile_qr_scan", "android": "https://dc.lft.to/lastmile_qr_scan"}, "type": "electric_scooter", "name": "ef4a5cc025f144dc99b48be7c5f035c5", "is_reserved": 0, "lon": -77.008234, "is_disabled": 0, "fusion_lat": 0.0, "lat": 38.913689833333336, "bike_id": "ef4a5cc025f144dc99b48be7c5f035c5", "fusion_lon": 0.0}, {"rental_uris": {"ios": "https://dc.lft.to/lastmile_qr_scan", "android": "https://dc.lft.to/lastmile_qr_scan"}, "type": "electric_scooter", "name": "e9154b3969052778f851bdcca9febfbb", "is_reserved": 0, "lon": -77.032638, "is_disabled": 0, "fusion_lat": 0.0, "lat": 38.9337695, "bike_id": "e9154b3969052778f851bdcca9febfbb", "fusion_lon": 0.0}, {"rental_uris": {"ios": "https://dc.lft.to/lastmile_qr_scan", "android": "https://dc.lft.to/lastmile_qr_scan"}, "type": "electric_scooter", "name": "58826aab324d89eb6bc9e861f6f5e99a", "is_reserved": 0, "lon": -77.02451366666666, "is_disabled": 0, "fusion_lat": 0.0, "lat": 38.93714083333333, "bike_id": "58826aab324d89eb6bc9e861f6f5e99a", "fusion_lon": 0.0}, {"rental_uris": {"ios": "https://dc.lft.to/lastmile_qr_scan", "android": "https://dc.lft.to/lastmile_qr_scan"}, "type": "electric_scooter", "name": "4ea74c10c646fc3e112907ac32d18ec3", "is_reserved": 0, "lon": -77.03276133333334, "is_disabled": 0, "fusion_lat": 0.0, "lat": 38.90717, "bike_id": "4ea74c10c646fc3e112907ac32d18ec3", "fusion_lon": 0.0}, {"rental_uris": {"ios": "https://dc.lft.to/lastmile_qr_scan", "android": "https://dc.lft.to/lastmile_qr_scan"}, "type": "electric_scooter", "name": "17e4b2f5240479bb766127b0e303ad6b", "is_reserved": 0, "lon": -77.02834366666667, "is_disabled": 0, "fusion_lat": 0.0, "lat": 38.910205833333336, "bike_id": "17e4b2f5240479bb766127b0e303ad6b", "fusion_lon": 0.0}, {"rental_uris": {"ios": "https://dc.lft.to/lastmile_qr_scan", "android": "https://dc.lft.to/lastmile_qr_scan"}, "type": "electric_scooter", "name": "2c0269484ac94f1aebeb861c807b5f72", "is_reserved": 0, "lon": -77.01739083333334, "is_disabled": 0, "fusion_lat": 0.0, "lat": 38.887331, "bike_id": "2c0269484ac94f1aebeb861c807b5f72", "fusion_lon": 0.0}, {"rental_uris": {"ios": "https://dc.lft.to/lastmile_qr_scan", "android": "https://dc.lft.to/lastmile_qr_scan"}, "type": "electric_scooter", "name": "fa84ac9295edfe3030baec7bbaa0f9d6", "is_reserved": 0, "lon": -77.012022, "is_disabled": 0, "fusion_lat": 0.0, "lat": 38.900025666666664, "bike_id": "fa84ac9295edfe3030baec7bbaa0f9d6", "fusion_lon": 0.0}, {"rental_uris": {"ios": "https://dc.lft.to/lastmile_qr_scan", "android": "https://dc.lft.to/lastmile_qr_scan"}, "type": "electric_scooter", "name": "b9ad401ef4c69cede5c39ced42f66447", "is_reserved": 0, "lon": -77.02128166666667, "is_disabled": 0, "fusion_lat": 0.0, "lat": 38.927945666666666, "bike_id": "b9ad401ef4c69cede5c39ced42f66447", "fusion_lon": 0.0}, {"rental_uris": {"ios": "https://dc.lft.to/lastmile_qr_scan", "android": "https://dc.lft.to/lastmile_qr_scan"}, "type": "electric_scooter", "name": "42e18f6b940af0bd4c307359c0ac93f8", "is_reserved": 0, "lon": -77.068523, "is_disabled": 0, "fusion_lat": 0.0, "lat": 38.904012, "bike_id": "42e18f6b940af0bd4c307359c0ac93f8", "fusion_lon": 0.0}, {"rental_uris": {"ios": "https://dc.lft.to/lastmile_qr_scan", "android": "https://dc.lft.to/lastmile_qr_scan"}, "type": "electric_bike", "name": "8c23be11d440aa888114ea6e4efb9ce5", "is_reserved": 0, "lon": -77.01225, "is_disabled": 0, "fusion_lat": 0.0, "lat": 38.95079, "bike_id": "8c23be11d440aa888114ea6e4efb9ce5", "fusion_lon": 0.0}, {"rental_uris": {"ios": "https://dc.lft.to/lastmile_qr_scan", "android": "https://dc.lft.to/lastmile_qr_scan"}, "type": "electric_scooter", "name": "2f07a442f2f23c0aeaf5122661b33b61", "is_reserved": 0, "lon": -77.03461733333333, "is_disabled": 0, "fusion_lat": 0.0, "lat": 38.921593333333334, "bike_id": "2f07a442f2f23c0aeaf5122661b33b61", "fusion_lon": 0.0}, {"rental_uris": {"ios": "https://dc.lft.to/lastmile_qr_scan", "android": "https://dc.lft.to/lastmile_qr_scan"}, "type": "electric_scooter", "name": "514af7346eeea7d2e9e5da3e338900b6", "is_reserved": 0, "lon": -77.01757833333333, "is_disabled": 0, "fusion_lat": 0.0, "lat": 38.876881166666664, "bike_id": "514af7346eeea7d2e9e5da3e338900b6", "fusion_lon": 0.0}, {"rental_uris": {"ios": "https://dc.lft.to/lastmile_qr_scan", "android": "https://dc.lft.to/lastmile_qr_scan"}, "type": "electric_scooter", "name": "5cd2ee691e7c3b52df01d40ccfcc9e31", "is_reserved": 0, "lon": -77.03372433333334, "is_disabled": 0, "fusion_lat": 0.0, "lat": 38.8991805, "bike_id": "5cd2ee691e7c3b52df01d40ccfcc9e31", "fusion_lon": 0.0}, {"rental_uris": {"ios": "https://dc.lft.to/lastmile_qr_scan", "android": "https://dc.lft.to/lastmile_qr_scan"}, "type": "electric_scooter", "name": "5a6c6703cd1c08f1dac655eb2aa5f0d6", "is_reserved": 0, "lon": -77.0426925, "is_disabled": 0, "fusion_lat": 0.0, "lat": 38.92297816666667, "bike_id": "5a6c6703cd1c08f1dac655eb2aa5f0d6", "fusion_lon": 0.0}, {"rental_uris": {"ios": "https://dc.lft.to/lastmile_qr_scan", "android": "https://dc.lft.to/lastmile_qr_scan"}, "type": "electric_scooter", "name": "4605d5a44428aaf678b12ff08b457770", "is_reserved": 0, "lon": -77.0408415, "is_disabled": 0, "fusion_lat": 0.0, "lat": 38.91043416666667, "bike_id": "4605d5a44428aaf678b12ff08b457770", "fusion_lon": 0.0}, {"rental_uris": {"ios": "https://dc.lft.to/lastmile_qr_scan", "android": "https://dc.lft.to/lastmile_qr_scan"}, "type": "electric_scooter", "name": "0cef1a7b66267cfcc0ae1c9e7041bd79", "is_reserved": 0, "lon": -77.0188005, "is_disabled": 0, "fusion_lat": 0.0, "lat": 38.8974735, "bike_id": "0cef1a7b66267cfcc0ae1c9e7041bd79", "fusion_lon": 0.0}, {"rental_uris": {"ios": "https://dc.lft.to/lastmile_qr_scan", "android": "https://dc.lft.to/lastmile_qr_scan"}, "type": "electric_scooter", "name": "480ed11b5eeaef300883e59d7013db20", "is_reserved": 0, "lon": -77.03764183333334, "is_disabled": 0, "fusion_lat": 0.0, "lat": 38.916863, "bike_id": "480ed11b5eeaef300883e59d7013db20", "fusion_lon": 0.0}, {"rental_uris": {"ios": "https://dc.lft.to/lastmile_qr_scan", "android": "https://dc.lft.to/lastmile_qr_scan"}, "type": "electric_scooter", "name": "26ab17d238351efc565a1167e8840c30", "is_reserved": 0, "lon": -77.0345145, "is_disabled": 0, "fusion_lat": 0.0, "lat": 38.9080805, "bike_id": "26ab17d238351efc565a1167e8840c30", "fusion_lon": 0.0}, {"rental_uris": {"ios": "https://dc.lft.to/lastmile_qr_scan", "android": "https://dc.lft.to/lastmile_qr_scan"}, "type": "electric_scooter", "name": "e90c217df32381fe9217fb744cf8af74", "is_reserved": 0, "lon": -77.09352316666667, "is_disabled": 0, "fusion_lat": 0.0, "lat": 38.883971833333334, "bike_id": "e90c217df32381fe9217fb744cf8af74", "fusion_lon": 0.0}, {"rental_uris": {"ios": "https://dc.lft.to/lastmile_qr_scan", "android": "https://dc.lft.to/lastmile_qr_scan"}, "type": "electric_scooter", "name": "62b91f3b9bc9a63d19982c04341655ed", "is_reserved": 0, "lon": -77.018703, "is_disabled": 0, "fusion_lat": 0.0, "lat": 38.930530166666664, "bike_id": "62b91f3b9bc9a63d19982c04341655ed", "fusion_lon": 0.0}, {"rental_uris": {"ios": "https://dc.lft.to/lastmile_qr_scan", "android": "https://dc.lft.to/lastmile_qr_scan"}, "type": "electric_scooter", "name": "5f5b5833e0cbfdd20eee9ce0b650e929", "is_reserved": 0, "lon": -77.02844983333334, "is_disabled": 0, "fusion_lat": 0.0, "lat": 38.902719833333336, "bike_id": "5f5b5833e0cbfdd20eee9ce0b650e929", "fusion_lon": 0.0}, {"rental_uris": {"ios": "https://dc.lft.to/lastmile_qr_scan", "android": "https://dc.lft.to/lastmile_qr_scan"}, "type": "electric_scooter", "name": "14ee604b18e642a2269f921a48e861a0", "is_reserved": 0, "lon": -77.03024966666666, "is_disabled": 0, "fusion_lat": 0.0, "lat": 38.92258116666667, "bike_id": "14ee604b18e642a2269f921a48e861a0", "fusion_lon": 0.0}, {"rental_uris": {"ios": "https://dc.lft.to/lastmile_qr_scan", "android": "https://dc.lft.to/lastmile_qr_scan"}, "type": "electric_bike", "name": "06ec8288b12569a331cc74f29b80b1ea", "is_reserved": 0, "lon": -77.04043183333333, "is_disabled": 0, "fusion_lat": 0.0, "lat": 38.902811166666666, "bike_id": "06ec8288b12569a331cc74f29b80b1ea", "fusion_lon": 0.0}, {"rental_uris": {"ios": "https://dc.lft.to/lastmile_qr_scan", "android": "https://dc.lft.to/lastmile_qr_scan"}, "type": "electric_scooter", "name": "ead8cdd05074431f753e4aeb712bf557", "is_reserved": 0, "lon": -77.01790633333333, "is_disabled": 0, "fusion_lat": 0.0, "lat": 38.9026455, "bike_id": "ead8cdd05074431f753e4aeb712bf557", "fusion_lon": 0.0}, {"rental_uris": {"ios": "https://dc.lft.to/lastmile_qr_scan", "android": "https://dc.lft.to/lastmile_qr_scan"}, "type": "electric_scooter", "name": "6dc8dcb47a35cace68fec297df2e3f02", "is_reserved": 0, "lon": -77.02354416666667, "is_disabled": 0, "fusion_lat": 0.0, "lat": 38.94524116666667, "bike_id": "6dc8dcb47a35cace68fec297df2e3f02", "fusion_lon": 0.0}, {"rental_uris": {"ios": "https://dc.lft.to/lastmile_qr_scan", "android": "https://dc.lft.to/lastmile_qr_scan"}, "type": "electric_scooter", "name": "5053c730307a4523914ea3615f497eee", "is_reserved": 0, "lon": -77.045031, "is_disabled": 0, "fusion_lat": 0.0, "lat": 38.8922415, "bike_id": "5053c730307a4523914ea3615f497eee", "fusion_lon": 0.0}, {"rental_uris": {"ios": "https://dc.lft.to/lastmile_qr_scan", "android": "https://dc.lft.to/lastmile_qr_scan"}, "type": "electric_scooter", "name": "6f5919c511d7ddef49ad1b44d5383b5f", "is_reserved": 0, "lon": -77.041192, "is_disabled": 0, "fusion_lat": 0.0, "lat": 38.93097233333334, "bike_id": "6f5919c511d7ddef49ad1b44d5383b5f", "fusion_lon": 0.0}, {"rental_uris": {"ios": "https://dc.lft.to/lastmile_qr_scan", "android": "https://dc.lft.to/lastmile_qr_scan"}, "type": "electric_scooter", "name": "51abff3e12066112f511da12f5995688", "is_reserved": 0, "lon": -77.0201685, "is_disabled": 0, "fusion_lat": 0.0, "lat": 38.898998666666664, "bike_id": "51abff3e12066112f511da12f5995688", "fusion_lon": 0.0}, {"rental_uris": {"ios": "https://dc.lft.to/lastmile_qr_scan", "android": "https://dc.lft.to/lastmile_qr_scan"}, "type": "electric_scooter", "name": "45206608ab2e89186f8e1b46d6050fa9", "is_reserved": 0, "lon": -77.027028, "is_disabled": 0, "fusion_lat": 0.0, "lat": 38.90596133333333, "bike_id": "45206608ab2e89186f8e1b46d6050fa9", "fusion_lon": 0.0}, {"rental_uris": {"ios": "https://dc.lft.to/lastmile_qr_scan", "android": "https://dc.lft.to/lastmile_qr_scan"}, "type": "electric_scooter", "name": "c32eaca23571782887273a2400dd7a66", "is_reserved": 0, "lon": -77.0387135, "is_disabled": 0, "fusion_lat": 0.0, "lat": 38.9215215, "bike_id": "c32eaca23571782887273a2400dd7a66", "fusion_lon": 0.0}, {"rental_uris": {"ios": "https://dc.lft.to/lastmile_qr_scan", "android": "https://dc.lft.to/lastmile_qr_scan"}, "type": "electric_bike", "name": "5fd5d8312362d468a545598e6ae6ee52", "is_reserved": 0, "lon": -77.01229633333334, "is_disabled": 0, "fusion_lat": 0.0, "lat": 38.950846166666665, "bike_id": "5fd5d8312362d468a545598e6ae6ee52", "fusion_lon": 0.0}, {"rental_uris": {"ios": "https://dc.lft.to/lastmile_qr_scan", "android": "https://dc.lft.to/lastmile_qr_scan"}, "type": "electric_scooter", "name": "3020e41d5b0da204d543b2a373c6072f", "is_reserved": 0, "lon": -76.98576433333334, "is_disabled": 0, "fusion_lat": 0.0, "lat": 38.85448133333333, "bike_id": "3020e41d5b0da204d543b2a373c6072f", "fusion_lon": 0.0}, {"rental_uris": {"ios": "https://dc.lft.to/lastmile_qr_scan", "android": "https://dc.lft.to/lastmile_qr_scan"}, "type": "electric_scooter", "name": "60d1fcd9892f2fcd7eb5ac4b576034b3", "is_reserved": 0, "lon": -76.99870366666667, "is_disabled": 0, "fusion_lat": 0.0, "lat": 38.9002555, "bike_id": "60d1fcd9892f2fcd7eb5ac4b576034b3", "fusion_lon": 0.0}, {"rental_uris": {"ios": "https://dc.lft.to/lastmile_qr_scan", "android": "https://dc.lft.to/lastmile_qr_scan"}, "type": "electric_scooter", "name": "4349638e4b3abce716ec94388304b3be", "is_reserved": 0, "lon": -77.02280183333333, "is_disabled": 0, "fusion_lat": 0.0, "lat": 38.892208833333335, "bike_id": "4349638e4b3abce716ec94388304b3be", "fusion_lon": 0.0}, {"rental_uris": {"ios": "https://dc.lft.to/lastmile_qr_scan", "android": "https://dc.lft.to/lastmile_qr_scan"}, "type": "electric_scooter", "name": "bd545e21c6f0103c9ce78325ade71246", "is_reserved": 0, "lon": -77.03164166666667, "is_disabled": 0, "fusion_lat": 0.0, "lat": 38.8996975, "bike_id": "bd545e21c6f0103c9ce78325ade71246", "fusion_lon": 0.0}, {"rental_uris": {"ios": "https://dc.lft.to/lastmile_qr_scan", "android": "https://dc.lft.to/lastmile_qr_scan"}, "type": "electric_scooter", "name": "cc419b886c19d1b1e5aee8ca6b8fe530", "is_reserved": 0, "lon": -77.005906, "is_disabled": 0, "fusion_lat": 0.0, "lat": 38.900375833333335, "bike_id": "cc419b886c19d1b1e5aee8ca6b8fe530", "fusion_lon": 0.0}, {"rental_uris": {"ios": "https://dc.lft.to/lastmile_qr_scan", "android": "https://dc.lft.to/lastmile_qr_scan"}, "type": "electric_scooter", "name": "b1878dd3fc4ecd9be43f60140d7a6fc0", "is_reserved": 0, "lon": -77.06803, "is_disabled": 0, "fusion_lat": 0.0, "lat": 38.90512566666666, "bike_id": "b1878dd3fc4ecd9be43f60140d7a6fc0", "fusion_lon": 0.0}, {"rental_uris": {"ios": "https://dc.lft.to/lastmile_qr_scan", "android": "https://dc.lft.to/lastmile_qr_scan"}, "type": "electric_scooter", "name": "5758b9b7125ec696b1f12e922c4a0534", "is_reserved": 0, "lon": -77.07201333333333, "is_disabled": 0, "fusion_lat": 0.0, "lat": 38.912717666666666, "bike_id": "5758b9b7125ec696b1f12e922c4a0534", "fusion_lon": 0.0}, {"rental_uris": {"ios": "https://dc.lft.to/lastmile_qr_scan", "android": "https://dc.lft.to/lastmile_qr_scan"}, "type": "electric_scooter", "name": "808fcc5f3f104e4dcc0667f66ae06f00", "is_reserved": 0, "lon": -77.00484266666666, "is_disabled": 0, "fusion_lat": 0.0, "lat": 38.87457033333333, "bike_id": "808fcc5f3f104e4dcc0667f66ae06f00", "fusion_lon": 0.0}, {"rental_uris": {"ios": "https://dc.lft.to/lastmile_qr_scan", "android": "https://dc.lft.to/lastmile_qr_scan"}, "type": "electric_scooter", "name": "64a20e3ba585804acd9d7e3aa7208223", "is_reserved": 0, "lon": -77.023427, "is_disabled": 0, "fusion_lat": 0.0, "lat": 38.8813135, "bike_id": "64a20e3ba585804acd9d7e3aa7208223", "fusion_lon": 0.0}, {"rental_uris": {"ios": "https://dc.lft.to/lastmile_qr_scan", "android": "https://dc.lft.to/lastmile_qr_scan"}, "type": "electric_scooter", "name": "2927c2174229813685e872b779d23193", "is_reserved": 0, "lon": -77.0163675, "is_disabled": 0, "fusion_lat": 0.0, "lat": 38.9158895, "bike_id": "2927c2174229813685e872b779d23193", "fusion_lon": 0.0}, {"rental_uris": {"ios": "https://dc.lft.to/lastmile_qr_scan", "android": "https://dc.lft.to/lastmile_qr_scan"}, "type": "electric_scooter", "name": "70c7fd8b7e3a424921e561ac9e5a5bf9", "is_reserved": 0, "lon": -77.0040295, "is_disabled": 0, "fusion_lat": 0.0, "lat": 38.874619833333334, "bike_id": "70c7fd8b7e3a424921e561ac9e5a5bf9", "fusion_lon": 0.0}, {"rental_uris": {"ios": "https://dc.lft.to/lastmile_qr_scan", "android": "https://dc.lft.to/lastmile_qr_scan"}, "type": "electric_scooter", "name": "5e1ba5e7665ff5300abe0c0730035eaf", "is_reserved": 0, "lon": -77.0462135, "is_disabled": 0, "fusion_lat": 0.0, "lat": 38.90113066666667, "bike_id": "5e1ba5e7665ff5300abe0c0730035eaf", "fusion_lon": 0.0}, {"rental_uris": {"ios": "https://dc.lft.to/lastmile_qr_scan", "android": "https://dc.lft.to/lastmile_qr_scan"}, "type": "electric_scooter", "name": "445bf7b77cfb10bb4cf24661f0d2c374", "is_reserved": 0, "lon": -77.03872783333334, "is_disabled": 0, "fusion_lat": 0.0, "lat": 38.912703, "bike_id": "445bf7b77cfb10bb4cf24661f0d2c374", "fusion_lon": 0.0}, {"rental_uris": {"ios": "https://dc.lft.to/lastmile_qr_scan", "android": "https://dc.lft.to/lastmile_qr_scan"}, "type": "electric_bike", "name": "6f84ef2af5038489b0430ef0652d1a5f", "is_reserved": 0, "lon": -77.04574816666667, "is_disabled": 0, "fusion_lat": 0.0, "lat": 38.933561, "bike_id": "6f84ef2af5038489b0430ef0652d1a5f", "fusion_lon": 0.0}, {"rental_uris": {"ios": "https://dc.lft.to/lastmile_qr_scan", "android": "https://dc.lft.to/lastmile_qr_scan"}, "type": "electric_scooter", "name": "d78cdc4e22fef07d843737acb608fe13", "is_reserved": 0, "lon": -76.990293, "is_disabled": 0, "fusion_lat": 0.0, "lat": 38.88872283333333, "bike_id": "d78cdc4e22fef07d843737acb608fe13", "fusion_lon": 0.0}, {"rental_uris": {"ios": "https://dc.lft.to/lastmile_qr_scan", "android": "https://dc.lft.to/lastmile_qr_scan"}, "type": "electric_scooter", "name": "8f6da030ddcd7fec9f33049d28f0fb16", "is_reserved": 0, "lon": -77.04126633333334, "is_disabled": 0, "fusion_lat": 0.0, "lat": 38.921140333333334, "bike_id": "8f6da030ddcd7fec9f33049d28f0fb16", "fusion_lon": 0.0}, {"rental_uris": {"ios": "https://dc.lft.to/lastmile_qr_scan", "android": "https://dc.lft.to/lastmile_qr_scan"}, "type": "electric_scooter", "name": "ee410b079e90120509a7df894a2ea0fb", "is_reserved": 0, "lon": -77.03988033333333, "is_disabled": 0, "fusion_lat": 0.0, "lat": 38.895586333333334, "bike_id": "ee410b079e90120509a7df894a2ea0fb", "fusion_lon": 0.0}, {"rental_uris": {"ios": "https://dc.lft.to/lastmile_qr_scan", "android": "https://dc.lft.to/lastmile_qr_scan"}, "type": "electric_scooter", "name": "5721c1b22bc7409b275aebe0c3a4d68e", "is_reserved": 0, "lon": -77.02649166666667, "is_disabled": 0, "fusion_lat": 0.0, "lat": 38.91917933333333, "bike_id": "5721c1b22bc7409b275aebe0c3a4d68e", "fusion_lon": 0.0}, {"rental_uris": {"ios": "https://dc.lft.to/lastmile_qr_scan", "android": "https://dc.lft.to/lastmile_qr_scan"}, "type": "electric_scooter", "name": "65566ded20a7615e5f9625354885fa62", "is_reserved": 0, "lon": -77.0469, "is_disabled": 0, "fusion_lat": 0.0, "lat": 38.897418, "bike_id": "65566ded20a7615e5f9625354885fa62", "fusion_lon": 0.0}, {"rental_uris": {"ios": "https://dc.lft.to/lastmile_qr_scan", "android": "https://dc.lft.to/lastmile_qr_scan"}, "type": "electric_scooter", "name": "a3ac54f3cd6123b1b1c35e5f7e4b45a2", "is_reserved": 0, "lon": -76.99028066666666, "is_disabled": 0, "fusion_lat": 0.0, "lat": 38.8888145, "bike_id": "a3ac54f3cd6123b1b1c35e5f7e4b45a2", "fusion_lon": 0.0}, {"rental_uris": {"ios": "https://dc.lft.to/lastmile_qr_scan", "android": "https://dc.lft.to/lastmile_qr_scan"}, "type": "electric_scooter", "name": "8a29c306939db7561cf2ec0a621a670a", "is_reserved": 0, "lon": -77.017031, "is_disabled": 0, "fusion_lat": 0.0, "lat": 38.913841833333336, "bike_id": "8a29c306939db7561cf2ec0a621a670a", "fusion_lon": 0.0}, {"rental_uris": {"ios": "https://dc.lft.to/lastmile_qr_scan", "android": "https://dc.lft.to/lastmile_qr_scan"}, "type": "electric_bike", "name": "6787f6f78bab0600c33520677b52158f", "is_reserved": 0, "lon": -76.9171985, "is_disabled": 0, "fusion_lat": 0.0, "lat": 38.880243, "bike_id": "6787f6f78bab0600c33520677b52158f", "fusion_lon": 0.0}, {"rental_uris": {"ios": "https://dc.lft.to/lastmile_qr_scan", "android": "https://dc.lft.to/lastmile_qr_scan"}, "type": "electric_scooter", "name": "1a928ce1b02374ab98cc9b6b242af714", "is_reserved": 0, "lon": -77.0354685, "is_disabled": 0, "fusion_lat": 0.0, "lat": 38.92637116666667, "bike_id": "1a928ce1b02374ab98cc9b6b242af714", "fusion_lon": 0.0}, {"rental_uris": {"ios": "https://dc.lft.to/lastmile_qr_scan", "android": "https://dc.lft.to/lastmile_qr_scan"}, "type": "electric_scooter", "name": "ba9d7e1240c1e7fa7941300a53542c9e", "is_reserved": 0, "lon": -77.03065366666667, "is_disabled": 0, "fusion_lat": 0.0, "lat": 38.92261283333333, "bike_id": "ba9d7e1240c1e7fa7941300a53542c9e", "fusion_lon": 0.0}, {"rental_uris": {"ios": "https://dc.lft.to/lastmile_qr_scan", "android": "https://dc.lft.to/lastmile_qr_scan"}, "type": "electric_scooter", "name": "2a63766b8296f26bdf77742478fe7d24", "is_reserved": 0, "lon": -77.03458633333334, "is_disabled": 0, "fusion_lat": 0.0, "lat": 38.908069, "bike_id": "2a63766b8296f26bdf77742478fe7d24", "fusion_lon": 0.0}, {"rental_uris": {"ios": "https://dc.lft.to/lastmile_qr_scan", "android": "https://dc.lft.to/lastmile_qr_scan"}, "type": "electric_scooter", "name": "b0195c258606afbd45209c94d5d45430", "is_reserved": 0, "lon": -77.04904466666666, "is_disabled": 0, "fusion_lat": 0.0, "lat": 38.888423, "bike_id": "b0195c258606afbd45209c94d5d45430", "fusion_lon": 0.0}, {"rental_uris": {"ios": "https://dc.lft.to/lastmile_qr_scan", "android": "https://dc.lft.to/lastmile_qr_scan"}, "type": "electric_scooter", "name": "d21f01f99bee70813b2a0184c7980b0a", "is_reserved": 0, "lon": -77.0447225, "is_disabled": 0, "fusion_lat": 0.0, "lat": 38.9037915, "bike_id": "d21f01f99bee70813b2a0184c7980b0a", "fusion_lon": 0.0}, {"rental_uris": {"ios": "https://dc.lft.to/lastmile_qr_scan", "android": "https://dc.lft.to/lastmile_qr_scan"}, "type": "electric_bike", "name": "e025a285851c265a47f3617db7a633c1", "is_reserved": 0, "lon": -76.96262233333333, "is_disabled": 0, "fusion_lat": 0.0, "lat": 38.96781283333333, "bike_id": "e025a285851c265a47f3617db7a633c1", "fusion_lon": 0.0}, {"rental_uris": {"ios": "https://dc.lft.to/lastmile_qr_scan", "android": "https://dc.lft.to/lastmile_qr_scan"}, "type": "electric_scooter", "name": "e6e0c7668061953ea916e2896630d04e", "is_reserved": 0, "lon": -77.04317733333333, "is_disabled": 0, "fusion_lat": 0.0, "lat": 38.907337166666665, "bike_id": "e6e0c7668061953ea916e2896630d04e", "fusion_lon": 0.0}, {"rental_uris": {"ios": "https://dc.lft.to/lastmile_qr_scan", "android": "https://dc.lft.to/lastmile_qr_scan"}, "type": "electric_bike", "name": "6bb2b84f1faf0a171da30241d09cea93", "is_reserved": 0, "lon": -77.06256283333333, "is_disabled": 0, "fusion_lat": 0.0, "lat": 38.937402, "bike_id": "6bb2b84f1faf0a171da30241d09cea93", "fusion_lon": 0.0}, {"rental_uris": {"ios": "https://dc.lft.to/lastmile_qr_scan", "android": "https://dc.lft.to/lastmile_qr_scan"}, "type": "electric_scooter", "name": "014505822f4d141515d023ab47a70148", "is_reserved": 0, "lon": -77.025991, "is_disabled": 0, "fusion_lat": 0.0, "lat": 38.95809066666666, "bike_id": "014505822f4d141515d023ab47a70148", "fusion_lon": 0.0}, {"rental_uris": {"ios": "https://dc.lft.to/lastmile_qr_scan", "android": "https://dc.lft.to/lastmile_qr_scan"}, "type": "electric_bike", "name": "6c99d14f109fce4c48a686206d348c00", "is_reserved": 0, "lon": -77.102041, "is_disabled": 0, "fusion_lat": 0.0, "lat": 38.91992966666667, "bike_id": "6c99d14f109fce4c48a686206d348c00", "fusion_lon": 0.0}, {"rental_uris": {"ios": "https://dc.lft.to/lastmile_qr_scan", "android": "https://dc.lft.to/lastmile_qr_scan"}, "type": "electric_scooter", "name": "5ec1aa83c370b8dc9fc46440aae9a5f2", "is_reserved": 0, "lon": -77.03358883333334, "is_disabled": 0, "fusion_lat": 0.0, "lat": 38.9225645, "bike_id": "5ec1aa83c370b8dc9fc46440aae9a5f2", "fusion_lon": 0.0}, {"rental_uris": {"ios": "https://dc.lft.to/lastmile_qr_scan", "android": "https://dc.lft.to/lastmile_qr_scan"}, "type": "electric_bike", "name": "ff6194ab78a51f0624c33996d64b0e9c", "is_reserved": 0, "lon": -76.96682383333334, "is_disabled": 0, "fusion_lat": 0.0, "lat": 38.8590825, "bike_id": "ff6194ab78a51f0624c33996d64b0e9c", "fusion_lon": 0.0}, {"rental_uris": {"ios": "https://dc.lft.to/lastmile_qr_scan", "android": "https://dc.lft.to/lastmile_qr_scan"}, "type": "electric_scooter", "name": "b00badcef9b2e84c0b180babf25e18b5", "is_reserved": 0, "lon": -76.99879083333333, "is_disabled": 0, "fusion_lat": 0.0, "lat": 38.8865695, "bike_id": "b00badcef9b2e84c0b180babf25e18b5", "fusion_lon": 0.0}, {"rental_uris": {"ios": "https://dc.lft.to/lastmile_qr_scan", "android": "https://dc.lft.to/lastmile_qr_scan"}, "type": "electric_bike", "name": "e52147fdaf0f3bb2e48413d00f29aa16", "is_reserved": 0, "lon": -76.98682816666667, "is_disabled": 0, "fusion_lat": 0.0, "lat": 38.944717, "bike_id": "e52147fdaf0f3bb2e48413d00f29aa16", "fusion_lon": 0.0}, {"rental_uris": {"ios": "https://dc.lft.to/lastmile_qr_scan", "android": "https://dc.lft.to/lastmile_qr_scan"}, "type": "electric_scooter", "name": "8f4d9a2fcfa7ffe180acb9d9be2de4f5", "is_reserved": 0, "lon": -77.01756033333334, "is_disabled": 0, "fusion_lat": 0.0, "lat": 38.876874, "bike_id": "8f4d9a2fcfa7ffe180acb9d9be2de4f5", "fusion_lon": 0.0}, {"rental_uris": {"ios": "https://dc.lft.to/lastmile_qr_scan", "android": "https://dc.lft.to/lastmile_qr_scan"}, "type": "electric_bike", "name": "b200fab1c25e59f02737afb3e7c09bb6", "is_reserved": 0, "lon": -77.03627683333333, "is_disabled": 0, "fusion_lat": 0.0, "lat": 38.97296, "bike_id": "b200fab1c25e59f02737afb3e7c09bb6", "fusion_lon": 0.0}, {"rental_uris": {"ios": "https://dc.lft.to/lastmile_qr_scan", "android": "https://dc.lft.to/lastmile_qr_scan"}, "type": "electric_scooter", "name": "f397d61c320efc58e665a7ce3b9d8403", "is_reserved": 0, "lon": -76.9884815, "is_disabled": 0, "fusion_lat": 0.0, "lat": 38.842978333333335, "bike_id": "f397d61c320efc58e665a7ce3b9d8403", "fusion_lon": 0.0}, {"rental_uris": {"ios": "https://dc.lft.to/lastmile_qr_scan", "android": "https://dc.lft.to/lastmile_qr_scan"}, "type": "electric_scooter", "name": "ecc7258353602e99363eb313cec8f67a", "is_reserved": 0, "lon": -77.0217445, "is_disabled": 0, "fusion_lat": 0.0, "lat": 38.90547433333333, "bike_id": "ecc7258353602e99363eb313cec8f67a", "fusion_lon": 0.0}, {"rental_uris": {"ios": "https://dc.lft.to/lastmile_qr_scan", "android": "https://dc.lft.to/lastmile_qr_scan"}, "type": "electric_scooter", "name": "e1eea19e2867daf1c9e297f5bfec6d8f", "is_reserved": 0, "lon": -77.0480375, "is_disabled": 0, "fusion_lat": 0.0, "lat": 38.89951416666667, "bike_id": "e1eea19e2867daf1c9e297f5bfec6d8f", "fusion_lon": 0.0}, {"rental_uris": {"ios": "https://dc.lft.to/lastmile_qr_scan", "android": "https://dc.lft.to/lastmile_qr_scan"}, "type": "electric_scooter", "name": "2f4aca6a8394d4542e885b2cdba8ae68", "is_reserved": 0, "lon": -77.03155483333333, "is_disabled": 0, "fusion_lat": 0.0, "lat": 38.9593335, "bike_id": "2f4aca6a8394d4542e885b2cdba8ae68", "fusion_lon": 0.0}, {"rental_uris": {"ios": "https://dc.lft.to/lastmile_qr_scan", "android": "https://dc.lft.to/lastmile_qr_scan"}, "type": "electric_scooter", "name": "eb18ff43abb2cec2b377fea9f3ab7bd1", "is_reserved": 0, "lon": -77.03203133333334, "is_disabled": 0, "fusion_lat": 0.0, "lat": 38.89912366666667, "bike_id": "eb18ff43abb2cec2b377fea9f3ab7bd1", "fusion_lon": 0.0}, {"rental_uris": {"ios": "https://dc.lft.to/lastmile_qr_scan", "android": "https://dc.lft.to/lastmile_qr_scan"}, "type": "electric_scooter", "name": "740d7171c88793a5812a446508257974", "is_reserved": 0, "lon": -77.04378416666667, "is_disabled": 0, "fusion_lat": 0.0, "lat": 38.93422416666667, "bike_id": "740d7171c88793a5812a446508257974", "fusion_lon": 0.0}, {"rental_uris": {"ios": "https://dc.lft.to/lastmile_qr_scan", "android": "https://dc.lft.to/lastmile_qr_scan"}, "type": "electric_scooter", "name": "388011826845dba99b100b47e15c69fd", "is_reserved": 0, "lon": -77.01884616666666, "is_disabled": 0, "fusion_lat": 0.0, "lat": 38.8974485, "bike_id": "388011826845dba99b100b47e15c69fd", "fusion_lon": 0.0}, {"rental_uris": {"ios": "https://dc.lft.to/lastmile_qr_scan", "android": "https://dc.lft.to/lastmile_qr_scan"}, "type": "electric_scooter", "name": "1f9256848ff6730c18546fbdac35c68f", "is_reserved": 0, "lon": -76.99073416666667, "is_disabled": 0, "fusion_lat": 0.0, "lat": 38.90414616666666, "bike_id": "1f9256848ff6730c18546fbdac35c68f", "fusion_lon": 0.0}, {"rental_uris": {"ios": "https://dc.lft.to/lastmile_qr_scan", "android": "https://dc.lft.to/lastmile_qr_scan"}, "type": "electric_scooter", "name": "c0d43cfb38a341de2e23d3e94a264952", "is_reserved": 0, "lon": -76.9833345, "is_disabled": 0, "fusion_lat": 0.0, "lat": 38.9008605, "bike_id": "c0d43cfb38a341de2e23d3e94a264952", "fusion_lon": 0.0}, {"rental_uris": {"ios": "https://dc.lft.to/lastmile_qr_scan", "android": "https://dc.lft.to/lastmile_qr_scan"}, "type": "electric_scooter", "name": "75d1f9f8061a7d1be9d454cd281314e9", "is_reserved": 0, "lon": -77.02174716666667, "is_disabled": 0, "fusion_lat": 0.0, "lat": 38.91481316666667, "bike_id": "75d1f9f8061a7d1be9d454cd281314e9", "fusion_lon": 0.0}, {"rental_uris": {"ios": "https://dc.lft.to/lastmile_qr_scan", "android": "https://dc.lft.to/lastmile_qr_scan"}, "type": "electric_scooter", "name": "eae3d3288993628ce634871c72acd2dc", "is_reserved": 0, "lon": -77.03196566666666, "is_disabled": 0, "fusion_lat": 0.0, "lat": 38.914736166666664, "bike_id": "eae3d3288993628ce634871c72acd2dc", "fusion_lon": 0.0}, {"rental_uris": {"ios": "https://dc.lft.to/lastmile_qr_scan", "android": "https://dc.lft.to/lastmile_qr_scan"}, "type": "electric_scooter", "name": "238b8517bf7edff7382c621637947c34", "is_reserved": 0, "lon": -77.02014283333334, "is_disabled": 0, "fusion_lat": 0.0, "lat": 38.8990685, "bike_id": "238b8517bf7edff7382c621637947c34", "fusion_lon": 0.0}, {"rental_uris": {"ios": "https://dc.lft.to/lastmile_qr_scan", "android": "https://dc.lft.to/lastmile_qr_scan"}, "type": "electric_scooter", "name": "bf97c7f5165092a38613e64db06a5793", "is_reserved": 0, "lon": -77.03386, "is_disabled": 0, "fusion_lat": 0.0, "lat": 38.8996185, "bike_id": "bf97c7f5165092a38613e64db06a5793", "fusion_lon": 0.0}, {"rental_uris": {"ios": "https://dc.lft.to/lastmile_qr_scan", "android": "https://dc.lft.to/lastmile_qr_scan"}, "type": "electric_bike", "name": "a43093c696cfb121e552ead4e58cc282", "is_reserved": 0, "lon": -76.98877233333333, "is_disabled": 0, "fusion_lat": 0.0, "lat": 38.92117316666667, "bike_id": "a43093c696cfb121e552ead4e58cc282", "fusion_lon": 0.0}, {"rental_uris": {"ios": "https://dc.lft.to/lastmile_qr_scan", "android": "https://dc.lft.to/lastmile_qr_scan"}, "type": "electric_scooter", "name": "adc631288d23b0177ee83f02444f1997", "is_reserved": 0, "lon": -77.03053916666667, "is_disabled": 0, "fusion_lat": 0.0, "lat": 38.90719583333333, "bike_id": "adc631288d23b0177ee83f02444f1997", "fusion_lon": 0.0}, {"rental_uris": {"ios": "https://dc.lft.to/lastmile_qr_scan", "android": "https://dc.lft.to/lastmile_qr_scan"}, "type": "electric_scooter", "name": "6d5563282187e92da463b8120b232abf", "is_reserved": 0, "lon": -77.040583, "is_disabled": 0, "fusion_lat": 0.0, "lat": 38.917662166666666, "bike_id": "6d5563282187e92da463b8120b232abf", "fusion_lon": 0.0}, {"rental_uris": {"ios": "https://dc.lft.to/lastmile_qr_scan", "android": "https://dc.lft.to/lastmile_qr_scan"}, "type": "electric_scooter", "name": "e3a2ba53dc1c04cbb33850f97a7689d1", "is_reserved": 0, "lon": -77.058128, "is_disabled": 0, "fusion_lat": 0.0, "lat": 38.935160333333336, "bike_id": "e3a2ba53dc1c04cbb33850f97a7689d1", "fusion_lon": 0.0}, {"rental_uris": {"ios": "https://dc.lft.to/lastmile_qr_scan", "android": "https://dc.lft.to/lastmile_qr_scan"}, "type": "electric_scooter", "name": "63095305352ce5e60830ea7c0c679019", "is_reserved": 0, "lon": -77.03304, "is_disabled": 0, "fusion_lat": 0.0, "lat": 38.9170905, "bike_id": "63095305352ce5e60830ea7c0c679019", "fusion_lon": 0.0}, {"rental_uris": {"ios": "https://dc.lft.to/lastmile_qr_scan", "android": "https://dc.lft.to/lastmile_qr_scan"}, "type": "electric_scooter", "name": "8fb5cf9c6fd0ed333a2e32c87409d608", "is_reserved": 0, "lon": -77.03460333333334, "is_disabled": 0, "fusion_lat": 0.0, "lat": 38.911826, "bike_id": "8fb5cf9c6fd0ed333a2e32c87409d608", "fusion_lon": 0.0}, {"rental_uris": {"ios": "https://dc.lft.to/lastmile_qr_scan", "android": "https://dc.lft.to/lastmile_qr_scan"}, "type": "electric_scooter", "name": "36378f0e84817384e77c145a323437e2", "is_reserved": 0, "lon": -77.03278916666666, "is_disabled": 0, "fusion_lat": 0.0, "lat": 38.9197885, "bike_id": "36378f0e84817384e77c145a323437e2", "fusion_lon": 0.0}, {"rental_uris": {"ios": "https://dc.lft.to/lastmile_qr_scan", "android": "https://dc.lft.to/lastmile_qr_scan"}, "type": "electric_scooter", "name": "c918075e57e120b9e59fc730208a81f5", "is_reserved": 0, "lon": -77.04813733333333, "is_disabled": 0, "fusion_lat": 0.0, "lat": 38.92035666666666, "bike_id": "c918075e57e120b9e59fc730208a81f5", "fusion_lon": 0.0}, {"rental_uris": {"ios": "https://dc.lft.to/lastmile_qr_scan", "android": "https://dc.lft.to/lastmile_qr_scan"}, "type": "electric_bike", "name": "2b7ea7ce4463dc692682fc7e68100020", "is_reserved": 0, "lon": -77.00151416666667, "is_disabled": 0, "fusion_lat": 0.0, "lat": 38.94162983333333, "bike_id": "2b7ea7ce4463dc692682fc7e68100020", "fusion_lon": 0.0}, {"rental_uris": {"ios": "https://dc.lft.to/lastmile_qr_scan", "android": "https://dc.lft.to/lastmile_qr_scan"}, "type": "electric_bike", "name": "9eb17d4f0962f4bf2a7f77ad33e6c1ee", "is_reserved": 0, "lon": -77.05271366666666, "is_disabled": 0, "fusion_lat": 0.0, "lat": 38.940905666666666, "bike_id": "9eb17d4f0962f4bf2a7f77ad33e6c1ee", "fusion_lon": 0.0}, {"rental_uris": {"ios": "https://dc.lft.to/lastmile_qr_scan", "android": "https://dc.lft.to/lastmile_qr_scan"}, "type": "electric_bike", "name": "412cf084353ad2f276faf21f988b501b", "is_reserved": 0, "lon": -77.02087783333333, "is_disabled": 0, "fusion_lat": 0.0, "lat": 38.958513333333336, "bike_id": "412cf084353ad2f276faf21f988b501b", "fusion_lon": 0.0}, {"rental_uris": {"ios": "https://dc.lft.to/lastmile_qr_scan", "android": "https://dc.lft.to/lastmile_qr_scan"}, "type": "electric_scooter", "name": "2013cec241129a237f80af9d7062db27", "is_reserved": 0, "lon": -77.03201366666667, "is_disabled": 0, "fusion_lat": 0.0, "lat": 38.89920816666667, "bike_id": "2013cec241129a237f80af9d7062db27", "fusion_lon": 0.0}, {"rental_uris": {"ios": "https://dc.lft.to/lastmile_qr_scan", "android": "https://dc.lft.to/lastmile_qr_scan"}, "type": "electric_scooter", "name": "d8a800f92d7ae2165a896a9b8cb19217", "is_reserved": 0, "lon": -76.99505316666666, "is_disabled": 0, "fusion_lat": 0.0, "lat": 38.8810215, "bike_id": "d8a800f92d7ae2165a896a9b8cb19217", "fusion_lon": 0.0}, {"rental_uris": {"ios": "https://dc.lft.to/lastmile_qr_scan", "android": "https://dc.lft.to/lastmile_qr_scan"}, "type": "electric_scooter", "name": "2cdb2888fe3abc7e69f9c73a1f129126", "is_reserved": 0, "lon": -77.0391175, "is_disabled": 0, "fusion_lat": 0.0, "lat": 38.9246845, "bike_id": "2cdb2888fe3abc7e69f9c73a1f129126", "fusion_lon": 0.0}, {"rental_uris": {"ios": "https://dc.lft.to/lastmile_qr_scan", "android": "https://dc.lft.to/lastmile_qr_scan"}, "type": "electric_scooter", "name": "3ad1384c7b6f5322cc4ffd7c5fb42c3c", "is_reserved": 0, "lon": -77.04318683333334, "is_disabled": 0, "fusion_lat": 0.0, "lat": 38.907313, "bike_id": "3ad1384c7b6f5322cc4ffd7c5fb42c3c", "fusion_lon": 0.0}, {"rental_uris": {"ios": "https://dc.lft.to/lastmile_qr_scan", "android": "https://dc.lft.to/lastmile_qr_scan"}, "type": "electric_scooter", "name": "2aa242a95df7533098b39100b06db765", "is_reserved": 0, "lon": -77.04481633333333, "is_disabled": 0, "fusion_lat": 0.0, "lat": 38.91437083333334, "bike_id": "2aa242a95df7533098b39100b06db765", "fusion_lon": 0.0}, {"rental_uris": {"ios": "https://dc.lft.to/lastmile_qr_scan", "android": "https://dc.lft.to/lastmile_qr_scan"}, "type": "electric_scooter", "name": "a472c79f46c0ba31bf9d08088d067615", "is_reserved": 0, "lon": -77.04661383333334, "is_disabled": 0, "fusion_lat": 0.0, "lat": 38.9002195, "bike_id": "a472c79f46c0ba31bf9d08088d067615", "fusion_lon": 0.0}, {"rental_uris": {"ios": "https://dc.lft.to/lastmile_qr_scan", "android": "https://dc.lft.to/lastmile_qr_scan"}, "type": "electric_scooter", "name": "c72715177f1cd4a65509e6a42ff98413", "is_reserved": 0, "lon": -77.03130216666666, "is_disabled": 0, "fusion_lat": 0.0, "lat": 38.92382083333333, "bike_id": "c72715177f1cd4a65509e6a42ff98413", "fusion_lon": 0.0}, {"rental_uris": {"ios": "https://dc.lft.to/lastmile_qr_scan", "android": "https://dc.lft.to/lastmile_qr_scan"}, "type": "electric_scooter", "name": "8cb6a45b1f6a8362c7cc11aff53593a9", "is_reserved": 0, "lon": -77.029521, "is_disabled": 0, "fusion_lat": 0.0, "lat": 38.91673266666667, "bike_id": "8cb6a45b1f6a8362c7cc11aff53593a9", "fusion_lon": 0.0}, {"rental_uris": {"ios": "https://dc.lft.to/lastmile_qr_scan", "android": "https://dc.lft.to/lastmile_qr_scan"}, "type": "electric_scooter", "name": "ad9e770b29ff36d4d03336b4a34cbe3d", "is_reserved": 0, "lon": -77.0283365, "is_disabled": 0, "fusion_lat": 0.0, "lat": 38.88734183333333, "bike_id": "ad9e770b29ff36d4d03336b4a34cbe3d", "fusion_lon": 0.0}, {"rental_uris": {"ios": "https://dc.lft.to/lastmile_qr_scan", "android": "https://dc.lft.to/lastmile_qr_scan"}, "type": "electric_scooter", "name": "f34fb1778bc11584c0b604d9e22c5286", "is_reserved": 0, "lon": -77.03141016666666, "is_disabled": 0, "fusion_lat": 0.0, "lat": 38.92382883333333, "bike_id": "f34fb1778bc11584c0b604d9e22c5286", "fusion_lon": 0.0}, {"rental_uris": {"ios": "https://dc.lft.to/lastmile_qr_scan", "android": "https://dc.lft.to/lastmile_qr_scan"}, "type": "electric_scooter", "name": "eed5c5db08777dd92b39195c7e773927", "is_reserved": 0, "lon": -77.02363816666667, "is_disabled": 0, "fusion_lat": 0.0, "lat": 38.917196833333335, "bike_id": "eed5c5db08777dd92b39195c7e773927", "fusion_lon": 0.0}, {"rental_uris": {"ios": "https://dc.lft.to/lastmile_qr_scan", "android": "https://dc.lft.to/lastmile_qr_scan"}, "type": "electric_bike", "name": "4b6f5e607643750b7c9dbb41cbdb309e", "is_reserved": 0, "lon": -77.03837733333333, "is_disabled": 0, "fusion_lat": 0.0, "lat": 38.93102416666667, "bike_id": "4b6f5e607643750b7c9dbb41cbdb309e", "fusion_lon": 0.0}, {"rental_uris": {"ios": "https://dc.lft.to/lastmile_qr_scan", "android": "https://dc.lft.to/lastmile_qr_scan"}, "type": "electric_scooter", "name": "96437f1fbd70de0dd67113541ab4bf8b", "is_reserved": 0, "lon": -77.019011, "is_disabled": 0, "fusion_lat": 0.0, "lat": 38.87450283333333, "bike_id": "96437f1fbd70de0dd67113541ab4bf8b", "fusion_lon": 0.0}, {"rental_uris": {"ios": "https://dc.lft.to/lastmile_qr_scan", "android": "https://dc.lft.to/lastmile_qr_scan"}, "type": "electric_scooter", "name": "c1585ada5bf0b0cf3e86e1ed23bdf398", "is_reserved": 0, "lon": -77.03678116666667, "is_disabled": 0, "fusion_lat": 0.0, "lat": 38.939328833333335, "bike_id": "c1585ada5bf0b0cf3e86e1ed23bdf398", "fusion_lon": 0.0}, {"rental_uris": {"ios": "https://dc.lft.to/lastmile_qr_scan", "android": "https://dc.lft.to/lastmile_qr_scan"}, "type": "electric_scooter", "name": "83ffbf10ba3e504804a769c981c786be", "is_reserved": 0, "lon": -77.03981583333334, "is_disabled": 0, "fusion_lat": 0.0, "lat": 38.93399866666667, "bike_id": "83ffbf10ba3e504804a769c981c786be", "fusion_lon": 0.0}, {"rental_uris": {"ios": "https://dc.lft.to/lastmile_qr_scan", "android": "https://dc.lft.to/lastmile_qr_scan"}, "type": "electric_scooter", "name": "c0b89b9c5c11e3924d1813072b69448a", "is_reserved": 0, "lon": -77.02406483333333, "is_disabled": 0, "fusion_lat": 0.0, "lat": 38.94511, "bike_id": "c0b89b9c5c11e3924d1813072b69448a", "fusion_lon": 0.0}, {"rental_uris": {"ios": "https://dc.lft.to/lastmile_qr_scan", "android": "https://dc.lft.to/lastmile_qr_scan"}, "type": "electric_scooter", "name": "a39722cab6a768bc268db21be3753edb", "is_reserved": 0, "lon": -77.00647, "is_disabled": 0, "fusion_lat": 0.0, "lat": 38.91250316666667, "bike_id": "a39722cab6a768bc268db21be3753edb", "fusion_lon": 0.0}, {"rental_uris": {"ios": "https://dc.lft.to/lastmile_qr_scan", "android": "https://dc.lft.to/lastmile_qr_scan"}, "type": "electric_scooter", "name": "f47d75accc6323330f9ece4b8745d2ef", "is_reserved": 0, "lon": -77.03995, "is_disabled": 0, "fusion_lat": 0.0, "lat": 38.888687166666664, "bike_id": "f47d75accc6323330f9ece4b8745d2ef", "fusion_lon": 0.0}, {"rental_uris": {"ios": "https://dc.lft.to/lastmile_qr_scan", "android": "https://dc.lft.to/lastmile_qr_scan"}, "type": "electric_bike", "name": "695681869e638aa23027961026350b58", "is_reserved": 0, "lon": -77.00398183333333, "is_disabled": 0, "fusion_lat": 0.0, "lat": 38.921181, "bike_id": "695681869e638aa23027961026350b58", "fusion_lon": 0.0}, {"rental_uris": {"ios": "https://dc.lft.to/lastmile_qr_scan", "android": "https://dc.lft.to/lastmile_qr_scan"}, "type": "electric_bike", "name": "832d5b009a697a9a1774ae8426571746", "is_reserved": 0, "lon": -77.02406683333334, "is_disabled": 0, "fusion_lat": 0.0, "lat": 38.94903716666666, "bike_id": "832d5b009a697a9a1774ae8426571746", "fusion_lon": 0.0}, {"rental_uris": {"ios": "https://dc.lft.to/lastmile_qr_scan", "android": "https://dc.lft.to/lastmile_qr_scan"}, "type": "electric_bike", "name": "e11001e93b76522e793a5caa7bd51a51", "is_reserved": 0, "lon": -76.98057333333334, "is_disabled": 0, "fusion_lat": 0.0, "lat": 38.972503333333336, "bike_id": "e11001e93b76522e793a5caa7bd51a51", "fusion_lon": 0.0}, {"rental_uris": {"ios": "https://dc.lft.to/lastmile_qr_scan", "android": "https://dc.lft.to/lastmile_qr_scan"}, "type": "electric_scooter", "name": "2f412c1f8dbbe80be6da0a363532ca4b", "is_reserved": 0, "lon": -77.00481366666666, "is_disabled": 0, "fusion_lat": 0.0, "lat": 38.874586, "bike_id": "2f412c1f8dbbe80be6da0a363532ca4b", "fusion_lon": 0.0}, {"rental_uris": {"ios": "https://dc.lft.to/lastmile_qr_scan", "android": "https://dc.lft.to/lastmile_qr_scan"}, "type": "electric_scooter", "name": "02e122b1fe94b110af9d5462b4bc6002", "is_reserved": 0, "lon": -77.02366883333333, "is_disabled": 0, "fusion_lat": 0.0, "lat": 38.91725516666666, "bike_id": "02e122b1fe94b110af9d5462b4bc6002", "fusion_lon": 0.0}, {"rental_uris": {"ios": "https://dc.lft.to/lastmile_qr_scan", "android": "https://dc.lft.to/lastmile_qr_scan"}, "type": "electric_scooter", "name": "26974528c72752465e5708cfa3516d6d", "is_reserved": 0, "lon": -76.98375366666667, "is_disabled": 0, "fusion_lat": 0.0, "lat": 38.9149825, "bike_id": "26974528c72752465e5708cfa3516d6d", "fusion_lon": 0.0}, {"rental_uris": {"ios": "https://dc.lft.to/lastmile_qr_scan", "android": "https://dc.lft.to/lastmile_qr_scan"}, "type": "electric_scooter", "name": "91cef65d03999865c55322081e244813", "is_reserved": 0, "lon": -77.02392783333333, "is_disabled": 0, "fusion_lat": 0.0, "lat": 38.92086033333333, "bike_id": "91cef65d03999865c55322081e244813", "fusion_lon": 0.0}, {"rental_uris": {"ios": "https://dc.lft.to/lastmile_qr_scan", "android": "https://dc.lft.to/lastmile_qr_scan"}, "type": "electric_scooter", "name": "43bb961e8f188be7f868484defc6cdfc", "is_reserved": 0, "lon": -77.03101133333334, "is_disabled": 0, "fusion_lat": 0.0, "lat": 38.924821, "bike_id": "43bb961e8f188be7f868484defc6cdfc", "fusion_lon": 0.0}, {"rental_uris": {"ios": "https://dc.lft.to/lastmile_qr_scan", "android": "https://dc.lft.to/lastmile_qr_scan"}, "type": "electric_scooter", "name": "21e27c5501cb8bbb2b3d2c9a064417f6", "is_reserved": 0, "lon": -77.07330983333334, "is_disabled": 0, "fusion_lat": 0.0, "lat": 38.960961166666664, "bike_id": "21e27c5501cb8bbb2b3d2c9a064417f6", "fusion_lon": 0.0}, {"rental_uris": {"ios": "https://dc.lft.to/lastmile_qr_scan", "android": "https://dc.lft.to/lastmile_qr_scan"}, "type": "electric_scooter", "name": "39a0f30e0efe6273b1ba6d3e75f6ce69", "is_reserved": 0, "lon": -77.041965, "is_disabled": 0, "fusion_lat": 0.0, "lat": 38.923357333333335, "bike_id": "39a0f30e0efe6273b1ba6d3e75f6ce69", "fusion_lon": 0.0}, {"rental_uris": {"ios": "https://dc.lft.to/lastmile_qr_scan", "android": "https://dc.lft.to/lastmile_qr_scan"}, "type": "electric_scooter", "name": "133750245f04daa02efbdd0fd0bf8fa7", "is_reserved": 0, "lon": -77.073437, "is_disabled": 0, "fusion_lat": 0.0, "lat": 38.943213666666665, "bike_id": "133750245f04daa02efbdd0fd0bf8fa7", "fusion_lon": 0.0}, {"rental_uris": {"ios": "https://dc.lft.to/lastmile_qr_scan", "android": "https://dc.lft.to/lastmile_qr_scan"}, "type": "electric_scooter", "name": "59d2cda743dad01dc6dc33f48bc509de", "is_reserved": 0, "lon": -76.976259, "is_disabled": 0, "fusion_lat": 0.0, "lat": 38.905704166666666, "bike_id": "59d2cda743dad01dc6dc33f48bc509de", "fusion_lon": 0.0}, {"rental_uris": {"ios": "https://dc.lft.to/lastmile_qr_scan", "android": "https://dc.lft.to/lastmile_qr_scan"}, "type": "electric_scooter", "name": "c06625a724bc52d267f7cda7ef214d89", "is_reserved": 0, "lon": -77.049479, "is_disabled": 0, "fusion_lat": 0.0, "lat": 38.92019466666667, "bike_id": "c06625a724bc52d267f7cda7ef214d89", "fusion_lon": 0.0}, {"rental_uris": {"ios": "https://dc.lft.to/lastmile_qr_scan", "android": "https://dc.lft.to/lastmile_qr_scan"}, "type": "electric_bike", "name": "9865d79a33b355d807a24119964504b2", "is_reserved": 0, "lon": -77.23408216666667, "is_disabled": 0, "fusion_lat": 0.0, "lat": 38.875774666666665, "bike_id": "9865d79a33b355d807a24119964504b2", "fusion_lon": 0.0}, {"rental_uris": {"ios": "https://dc.lft.to/lastmile_qr_scan", "android": "https://dc.lft.to/lastmile_qr_scan"}, "type": "electric_scooter", "name": "13434c0bb9c690b94e00e7bcf5bd6212", "is_reserved": 0, "lon": -76.965258, "is_disabled": 0, "fusion_lat": 0.0, "lat": 38.8762975, "bike_id": "13434c0bb9c690b94e00e7bcf5bd6212", "fusion_lon": 0.0}, {"rental_uris": {"ios": "https://dc.lft.to/lastmile_qr_scan", "android": "https://dc.lft.to/lastmile_qr_scan"}, "type": "electric_scooter", "name": "007a082515e4596098d979780d24ac5c", "is_reserved": 0, "lon": -77.068476, "is_disabled": 0, "fusion_lat": 0.0, "lat": 38.917304333333334, "bike_id": "007a082515e4596098d979780d24ac5c", "fusion_lon": 0.0}, {"rental_uris": {"ios": "https://dc.lft.to/lastmile_qr_scan", "android": "https://dc.lft.to/lastmile_qr_scan"}, "type": "electric_scooter", "name": "bc489eb74e054b0323aa3d7941466733", "is_reserved": 0, "lon": -76.95745166666667, "is_disabled": 0, "fusion_lat": 0.0, "lat": 38.88387183333333, "bike_id": "bc489eb74e054b0323aa3d7941466733", "fusion_lon": 0.0}, {"rental_uris": {"ios": "https://dc.lft.to/lastmile_qr_scan", "android": "https://dc.lft.to/lastmile_qr_scan"}, "type": "electric_bike", "name": "680e508c7b9238b9356586eca62d6c25", "is_reserved": 0, "lon": -77.090115, "is_disabled": 0, "fusion_lat": 0.0, "lat": 38.926488666666664, "bike_id": "680e508c7b9238b9356586eca62d6c25", "fusion_lon": 0.0}, {"rental_uris": {"ios": "https://dc.lft.to/lastmile_qr_scan", "android": "https://dc.lft.to/lastmile_qr_scan"}, "type": "electric_scooter", "name": "1d900c2fa1b088a6f13227db07b99bea", "is_reserved": 0, "lon": -77.0075775, "is_disabled": 0, "fusion_lat": 0.0, "lat": 38.92531016666667, "bike_id": "1d900c2fa1b088a6f13227db07b99bea", "fusion_lon": 0.0}, {"rental_uris": {"ios": "https://dc.lft.to/lastmile_qr_scan", "android": "https://dc.lft.to/lastmile_qr_scan"}, "type": "electric_scooter", "name": "1172e7e8f883d0771efcd6453a4ab73d", "is_reserved": 0, "lon": -77.026653, "is_disabled": 0, "fusion_lat": 0.0, "lat": 38.8849025, "bike_id": "1172e7e8f883d0771efcd6453a4ab73d", "fusion_lon": 0.0}, {"rental_uris": {"ios": "https://dc.lft.to/lastmile_qr_scan", "android": "https://dc.lft.to/lastmile_qr_scan"}, "type": "electric_scooter", "name": "75ef9a9610308cf3d08d686545fca9fb", "is_reserved": 0, "lon": -76.98352416666667, "is_disabled": 0, "fusion_lat": 0.0, "lat": 38.88738716666667, "bike_id": "75ef9a9610308cf3d08d686545fca9fb", "fusion_lon": 0.0}, {"rental_uris": {"ios": "https://dc.lft.to/lastmile_qr_scan", "android": "https://dc.lft.to/lastmile_qr_scan"},