{"data": {"bikes": [{"fusion_lon": 0.0, "bike_id": "a75a8158bea9181a1f945b82b7cd770f", "name": "a75a8158bea9181a1f945b82b7cd770f", "type": "electric_scooter", "lon": -77.04871183333333, "rental_uris": {"android": "https://dc.lft.to/lastmile_qr_scan", "ios": "https://dc.lft.to/lastmile_qr_scan"}, "lat": 38.89226016666667, "is_reserved": 0, "is_disabled": 0, "fusion_lat": 0.0}, {"fusion_lon": 0.0, "bike_id": "9c671d3da1620b08419155e5eed6f8ba", "name": "9c671d3da1620b08419155e5eed6f8ba", "type": "electric_bike", "lon": -77.18295, "rental_uris": {"android": "https://dc.lft.to/lastmile_qr_scan", "ios": "https://dc.lft.to/lastmile_qr_scan"}, "lat": 38.88343866666666, "is_reserved": 0, "is_disabled": 0, "fusion_lat": 0.0}, {"fusion_lon": 0.0, "bike_id": "f277266c3396108b351d1a271361715f", "name": "f277266c3396108b351d1a271361715f", "type": "electric_scooter", "lon": -76.98087333333334, "rental_uris": {"android": "https://dc.lft.to/lastmile_qr_scan", "ios": "https://dc.lft.to/lastmile_qr_scan"}, "lat": 38.85719483333333, "is_reserved": 0, "is_disabled": 0, "fusion_lat": 0.0}, {"fusion_lon": 0.0, "bike_id": "55dda3c080acdf3ef8effb0503c2fdc5", "name": "55dda3c080acdf3ef8effb0503c2fdc5", "type": "electric_scooter", "lon": -77.0330965, "rental_uris": {"android": "https://dc.lft.to/lastmile_qr_scan", "ios": "https://dc.lft.to/lastmile_qr_scan"}, "lat": 38.92904466666667, "is_reserved": 0, "is_disabled": 0, "fusion_lat": 0.0}, {"fusion_lon": 0.0, "bike_id": "0058a5ebd5880f666831acd6e69a187d", "name": "0058a5ebd5880f666831acd6e69a187d", "type": "electric_scooter", "lon": -77.02775216666667, "rental_uris": {"android": "https://dc.lft.to/lastmile_qr_scan", "ios": "https://dc.lft.to/lastmile_qr_scan"}, "lat": 38.89223033333333, "is_reserved": 0, "is_disabled": 0, "fusion_lat": 0.0}, {"fusion_lon": 0.0, "bike_id": "dceaf33b43d8c4cfee692215cbf85fa9", "name": "dceaf33b43d8c4cfee692215cbf85fa9", "type": "electric_scooter", "lon": -77.0222215, "rental_uris": {"android": "https://dc.lft.to/lastmile_qr_scan", "ios": "https://dc.lft.to/lastmile_qr_scan"}, "lat": 38.89221383333334, "is_reserved": 0, "is_disabled": 0, "fusion_lat": 0.0}, {"fusion_lon": 0.0, "bike_id": "d2c46c4b616d610e890ec6f2758dfeaa", "name": "d2c46c4b616d610e890ec6f2758dfeaa", "type": "electric_scooter", "lon": -77.01703233333333, "rental_uris": {"android": "https://dc.lft.to/lastmile_qr_scan", "ios": "https://dc.lft.to/lastmile_qr_scan"}, "lat": 38.90730033333333, "is_reserved": 0, "is_disabled": 0, "fusion_lat": 0.0}, {"fusion_lon": 0.0, "bike_id": "4a8642c3eccd66ca40418c826de2f6ac", "name": "4a8642c3eccd66ca40418c826de2f6ac", "type": "electric_scooter", "lon": -77.04155666666666, "rental_uris": {"android": "https://dc.lft.to/lastmile_qr_scan", "ios": "https://dc.lft.to/lastmile_qr_scan"}, "lat": 38.90639083333333, "is_reserved": 0, "is_disabled": 0, "fusion_lat": 0.0}, {"fusion_lon": 0.0, "bike_id": "8a7372e2228a264b56e1cbbc94bc3c11", "name": "8a7372e2228a264b56e1cbbc94bc3c11", "type": "electric_scooter", "lon": -77.06099383333333, "rental_uris": {"android": "https://dc.lft.to/lastmile_qr_scan", "ios": "https://dc.lft.to/lastmile_qr_scan"}, "lat": 38.937038, "is_reserved": 0, "is_disabled": 0, "fusion_lat": 0.0}, {"fusion_lon": 0.0, "bike_id": "a8827447fd63936c7bef279a5e07cdb4", "name": "a8827447fd63936c7bef279a5e07cdb4", "type": "electric_scooter", "lon": -77.05931083333333, "rental_uris": {"android": "https://dc.lft.to/lastmile_qr_scan", "ios": "https://dc.lft.to/lastmile_qr_scan"}, "lat": 38.93665416666666, "is_reserved": 0, "is_disabled": 0, "fusion_lat": 0.0}, {"fusion_lon": 0.0, "bike_id": "9497c7578a33e519f0966e245890262b", "name": "9497c7578a33e519f0966e245890262b", "type": "electric_scooter", "lon": -77.03280933333333, "rental_uris": {"android": "https://dc.lft.to/lastmile_qr_scan", "ios": "https://dc.lft.to/lastmile_qr_scan"}, "lat": 38.93255516666667, "is_reserved": 0, "is_disabled": 0, "fusion_lat": 0.0}, {"fusion_lon": 0.0, "bike_id": "cf669bc4a60921113727b03bb5a950f2", "name": "cf669bc4a60921113727b03bb5a950f2", "type": "electric_scooter", "lon": -77.02471583333333, "rental_uris": {"android": "https://dc.lft.to/lastmile_qr_scan", "ios": "https://dc.lft.to/lastmile_qr_scan"}, "lat": 38.93910416666667, "is_reserved": 0, "is_disabled": 0, "fusion_lat": 0.0}, {"fusion_lon": 0.0, "bike_id": "422faa0e3e8cfef55cae67910bd6e02f", "name": "422faa0e3e8cfef55cae67910bd6e02f", "type": "electric_scooter", "lon": -76.9902305, "rental_uris": {"android": "https://dc.lft.to/lastmile_qr_scan", "ios": "https://dc.lft.to/lastmile_qr_scan"}, "lat": 38.8586915, "is_reserved": 0, "is_disabled": 0, "fusion_lat": 0.0}, {"fusion_lon": 0.0, "bike_id": "477496851133a903a6fef8f30bb55c5f", "name": "477496851133a903a6fef8f30bb55c5f", "type": "electric_scooter", "lon": -77.04819266666667, "rental_uris": {"android": "https://dc.lft.to/lastmile_qr_scan", "ios": "https://dc.lft.to/lastmile_qr_scan"}, "lat": 38.92042216666667, "is_reserved": 0, "is_disabled": 0, "fusion_lat": 0.0}, {"fusion_lon": 0.0, "bike_id": "68591400daf4a4f30b5af7248f5dff98", "name": "68591400daf4a4f30b5af7248f5dff98", "type": "electric_scooter", "lon": -77.063585, "rental_uris": {"android": "https://dc.lft.to/lastmile_qr_scan", "ios": "https://dc.lft.to/lastmile_qr_scan"}, "lat": 38.9444835, "is_reserved": 0, "is_disabled": 0, "fusion_lat": 0.0}, {"fusion_lon": 0.0, "bike_id": "39ac6f8cb32bd53e3710b11ab40dea40", "name": "39ac6f8cb32bd53e3710b11ab40dea40", "type": "electric_scooter", "lon": -77.032614, "rental_uris": {"android": "https://dc.lft.to/lastmile_qr_scan", "ios": "https://dc.lft.to/lastmile_qr_scan"}, "lat": 38.938848, "is_reserved": 0, "is_disabled": 0, "fusion_lat": 0.0}, {"fusion_lon": 0.0, "bike_id": "12d0638205306cd16cfb7e0deff0cb4f", "name": "12d0638205306cd16cfb7e0deff0cb4f", "type": "electric_scooter", "lon": -77.052304, "rental_uris": {"android": "https://dc.lft.to/lastmile_qr_scan", "ios": "https://dc.lft.to/lastmile_qr_scan"}, "lat": 38.89809416666667, "is_reserved": 0, "is_disabled": 0, "fusion_lat": 0.0}, {"fusion_lon": 0.0, "bike_id": "eef5d8046d20d52f49380954391e9df2", "name": "eef5d8046d20d52f49380954391e9df2", "type": "electric_bike", "lon": -76.96085583333333, "rental_uris": {"android": "https://dc.lft.to/lastmile_qr_scan", "ios": "https://dc.lft.to/lastmile_qr_scan"}, "lat": 38.91864666666667, "is_reserved": 0, "is_disabled": 0, "fusion_lat": 0.0}, {"fusion_lon": 0.0, "bike_id": "6ef87c7e39d4479d83fff3984adfd150", "name": "6ef87c7e39d4479d83fff3984adfd150", "type": "electric_scooter", "lon": -77.0102125, "rental_uris": {"android": "https://dc.lft.to/lastmile_qr_scan", "ios": "https://dc.lft.to/lastmile_qr_scan"}, "lat": 38.86667466666667, "is_reserved": 0, "is_disabled": 0, "fusion_lat": 0.0}, {"fusion_lon": 0.0, "bike_id": "5f5f78936e16d78e78e40ecb76c2e2c0", "name": "5f5f78936e16d78e78e40ecb76c2e2c0", "type": "electric_bike", "lon": -77.00236916666667, "rental_uris": {"android": "https://dc.lft.to/lastmile_qr_scan", "ios": "https://dc.lft.to/lastmile_qr_scan"}, "lat": 38.819550166666666, "is_reserved": 0, "is_disabled": 0, "fusion_lat": 0.0}, {"fusion_lon": 0.0, "bike_id": "f9d2b06b1f8ff8107231e1663269bc94", "name": "f9d2b06b1f8ff8107231e1663269bc94", "type": "electric_scooter", "lon": -77.02780683333333, "rental_uris": {"android": "https://dc.lft.to/lastmile_qr_scan", "ios": "https://dc.lft.to/lastmile_qr_scan"}, "lat": 38.892236, "is_reserved": 0, "is_disabled": 0, "fusion_lat": 0.0}, {"fusion_lon": 0.0, "bike_id": "eafcd13a2a9b25a0e9a662a17edf6748", "name": "eafcd13a2a9b25a0e9a662a17edf6748", "type": "electric_bike", "lon": -76.92535383333333, "rental_uris": {"android": "https://dc.lft.to/lastmile_qr_scan", "ios": "https://dc.lft.to/lastmile_qr_scan"}, "lat": 38.95929116666667, "is_reserved": 0, "is_disabled": 0, "fusion_lat": 0.0}, {"fusion_lon": 0.0, "bike_id": "a2512db3adde85460e01e63f1da5b202", "name": "a2512db3adde85460e01e63f1da5b202", "type": "electric_scooter", "lon": -77.05273833333334, "rental_uris": {"android": "https://dc.lft.to/lastmile_qr_scan", "ios": "https://dc.lft.to/lastmile_qr_scan"}, "lat": 38.903576, "is_reserved": 0, "is_disabled": 0, "fusion_lat": 0.0}, {"fusion_lon": 0.0, "bike_id": "d42c7fde49329bb07fc26e6619a0caf4", "name": "d42c7fde49329bb07fc26e6619a0caf4", "type": "electric_scooter", "lon": -76.9889195, "rental_uris": {"android": "https://dc.lft.to/lastmile_qr_scan", "ios": "https://dc.lft.to/lastmile_qr_scan"}, "lat": 38.86674583333333, "is_reserved": 0, "is_disabled": 0, "fusion_lat": 0.0}, {"fusion_lon": 0.0, "bike_id": "bb4072d1d17ae4b48b2d11b7f0c17b71", "name": "bb4072d1d17ae4b48b2d11b7f0c17b71", "type": "electric_scooter", "lon": -77.03462683333333, "rental_uris": {"android": "https://dc.lft.to/lastmile_qr_scan", "ios": "https://dc.lft.to/lastmile_qr_scan"}, "lat": 38.91721883333334, "is_reserved": 0, "is_disabled": 0, "fusion_lat": 0.0}, {"fusion_lon": 0.0, "bike_id": "09dd57e5b22c0a9800a83fe4987f35ac", "name": "09dd57e5b22c0a9800a83fe4987f35ac", "type": "electric_scooter", "lon": -77.01138383333333, "rental_uris": {"android": "https://dc.lft.to/lastmile_qr_scan", "ios": "https://dc.lft.to/lastmile_qr_scan"}, "lat": 38.895934833333335, "is_reserved": 0, "is_disabled": 0, "fusion_lat": 0.0}, {"fusion_lon": 0.0, "bike_id": "19a5f6b1871e874f478cd69f5c5cef58", "name": "19a5f6b1871e874f478cd69f5c5cef58", "type": "electric_bike", "lon": -77.06382616666667, "rental_uris": {"android": "https://dc.lft.to/lastmile_qr_scan", "ios": "https://dc.lft.to/lastmile_qr_scan"}, "lat": 39.017345666666664, "is_reserved": 0, "is_disabled": 0, "fusion_lat": 0.0}, {"fusion_lon": 0.0, "bike_id": "810b18263172f28dae00e3d0967cac20", "name": "810b18263172f28dae00e3d0967cac20", "type": "electric_scooter", "lon": -77.03261366666666, "rental_uris": {"android": "https://dc.lft.to/lastmile_qr_scan", "ios": "https://dc.lft.to/lastmile_qr_scan"}, "lat": 38.93327383333333, "is_reserved": 0, "is_disabled": 0, "fusion_lat": 0.0}, {"fusion_lon": 0.0, "bike_id": "9c5329875d5a8be047e3e072484e0223", "name": "9c5329875d5a8be047e3e072484e0223", "type": "electric_scooter", "lon": -77.047737, "rental_uris": {"android": "https://dc.lft.to/lastmile_qr_scan", "ios": "https://dc.lft.to/lastmile_qr_scan"}, "lat": 38.89778733333333, "is_reserved": 0, "is_disabled": 0, "fusion_lat": 0.0}, {"fusion_lon": 0.0, "bike_id": "d8e53b00a8d7b6e6722cb9d47b57685e", "name": "d8e53b00a8d7b6e6722cb9d47b57685e", "type": "electric_scooter", "lon": -77.03184933333333, "rental_uris": {"android": "https://dc.lft.to/lastmile_qr_scan", "ios": "https://dc.lft.to/lastmile_qr_scan"}, "lat": 38.90766883333333, "is_reserved": 0, "is_disabled": 0, "fusion_lat": 0.0}, {"fusion_lon": 0.0, "bike_id": "bf63487f4e517445c3c0078f957ee7c5", "name": "bf63487f4e517445c3c0078f957ee7c5", "type": "electric_bike", "lon": -76.9075605, "rental_uris": {"android": "https://dc.lft.to/lastmile_qr_scan", "ios": "https://dc.lft.to/lastmile_qr_scan"}, "lat": 38.92435016666667, "is_reserved": 0, "is_disabled": 0, "fusion_lat": 0.0}, {"fusion_lon": 0.0, "bike_id": "f48f47aa3b584e8020dfbd9092c91f04", "name": "f48f47aa3b584e8020dfbd9092c91f04", "type": "electric_scooter", "lon": -77.031806, "rental_uris": {"android": "https://dc.lft.to/lastmile_qr_scan", "ios": "https://dc.lft.to/lastmile_qr_scan"}, "lat": 38.8932905, "is_reserved": 0, "is_disabled": 0, "fusion_lat": 0.0}, {"fusion_lon": 0.0, "bike_id": "5787e656457a6af2fdc95689c5305612", "name": "5787e656457a6af2fdc95689c5305612", "type": "electric_scooter", "lon": -77.022021, "rental_uris": {"android": "https://dc.lft.to/lastmile_qr_scan", "ios": "https://dc.lft.to/lastmile_qr_scan"}, "lat": 38.915358, "is_reserved": 0, "is_disabled": 0, "fusion_lat": 0.0}, {"fusion_lon": 0.0, "bike_id": "f2d777dcc08ab45dbb1d15de8d582ee7", "name": "f2d777dcc08ab45dbb1d15de8d582ee7", "type": "electric_scooter", "lon": -77.00578216666666, "rental_uris": {"android": "https://dc.lft.to/lastmile_qr_scan", "ios": "https://dc.lft.to/lastmile_qr_scan"}, "lat": 38.87171683333333, "is_reserved": 0, "is_disabled": 0, "fusion_lat": 0.0}, {"fusion_lon": 0.0, "bike_id": "20b4098a9b5a56c89488eb06ba99d7a0", "name": "20b4098a9b5a56c89488eb06ba99d7a0", "type": "electric_scooter", "lon": -77.0176435, "rental_uris": {"android": "https://dc.lft.to/lastmile_qr_scan", "ios": "https://dc.lft.to/lastmile_qr_scan"}, "lat": 38.9003745, "is_reserved": 0, "is_disabled": 0, "fusion_lat": 0.0}, {"fusion_lon": 0.0, "bike_id": "8c10112efdbdf7498427ef7d849be64b", "name": "8c10112efdbdf7498427ef7d849be64b", "type": "electric_scooter", "lon": -77.022131, "rental_uris": {"android": "https://dc.lft.to/lastmile_qr_scan", "ios": "https://dc.lft.to/lastmile_qr_scan"}, "lat": 38.912674833333334, "is_reserved": 0, "is_disabled": 0, "fusion_lat": 0.0}, {"fusion_lon": 0.0, "bike_id": "9ce600718898a52a8f18793c27fd7d8c", "name": "9ce600718898a52a8f18793c27fd7d8c", "type": "electric_scooter", "lon": -77.078186, "rental_uris": {"android": "https://dc.lft.to/lastmile_qr_scan", "ios": "https://dc.lft.to/lastmile_qr_scan"}, "lat": 38.92463083333333, "is_reserved": 0, "is_disabled": 0, "fusion_lat": 0.0}, {"fusion_lon": 0.0, "bike_id": "f076b982ff254ea694ba8efd567f6f95", "name": "f076b982ff254ea694ba8efd567f6f95", "type": "electric_scooter", "lon": -77.03262316666667, "rental_uris": {"android": "https://dc.lft.to/lastmile_qr_scan", "ios": "https://dc.lft.to/lastmile_qr_scan"}, "lat": 38.93523, "is_reserved": 0, "is_disabled": 0, "fusion_lat": 0.0}, {"fusion_lon": 0.0, "bike_id": "d9c8dac5ea1f270d8569684d09a1ffcc", "name": "d9c8dac5ea1f270d8569684d09a1ffcc", "type": "electric_scooter", "lon": -77.03662433333334, "rental_uris": {"android": "https://dc.lft.to/lastmile_qr_scan", "ios": "https://dc.lft.to/lastmile_qr_scan"}, "lat": 38.9113695, "is_reserved": 0, "is_disabled": 0, "fusion_lat": 0.0}, {"fusion_lon": 0.0, "bike_id": "a6e9755b9cdfdc12351424f0fd46037a", "name": "a6e9755b9cdfdc12351424f0fd46037a", "type": "electric_scooter", "lon": -77.0395655, "rental_uris": {"android": "https://dc.lft.to/lastmile_qr_scan", "ios": "https://dc.lft.to/lastmile_qr_scan"}, "lat": 38.92612, "is_reserved": 0, "is_disabled": 0, "fusion_lat": 0.0}, {"fusion_lon": 0.0, "bike_id": "0a55c8a46cf64cf95a3ae6b4b4eb791a", "name": "0a55c8a46cf64cf95a3ae6b4b4eb791a", "type": "electric_scooter", "lon": -77.0044725, "rental_uris": {"android": "https://dc.lft.to/lastmile_qr_scan", "ios": "https://dc.lft.to/lastmile_qr_scan"}, "lat": 38.928931666666664, "is_reserved": 0, "is_disabled": 0, "fusion_lat": 0.0}, {"fusion_lon": 0.0, "bike_id": "ca7f5b80eb924f245786280108781869", "name": "ca7f5b80eb924f245786280108781869", "type": "electric_scooter", "lon": -77.0222555, "rental_uris": {"android": "https://dc.lft.to/lastmile_qr_scan", "ios": "https://dc.lft.to/lastmile_qr_scan"}, "lat": 38.935538666666666, "is_reserved": 0, "is_disabled": 0, "fusion_lat": 0.0}, {"fusion_lon": 0.0, "bike_id": "8c4aad3c02fba4e8ce9b010187840041", "name": "8c4aad3c02fba4e8ce9b010187840041", "type": "electric_scooter", "lon": -77.04687, "rental_uris": {"android": "https://dc.lft.to/lastmile_qr_scan", "ios": "https://dc.lft.to/lastmile_qr_scan"}, "lat": 38.9158565, "is_reserved": 0, "is_disabled": 0, "fusion_lat": 0.0}, {"fusion_lon": 0.0, "bike_id": "84abf66c30831ccb3634b743b1370f46", "name": "84abf66c30831ccb3634b743b1370f46", "type": "electric_scooter", "lon": -77.028023, "rental_uris": {"android": "https://dc.lft.to/lastmile_qr_scan", "ios": "https://dc.lft.to/lastmile_qr_scan"}, "lat": 38.912134, "is_reserved": 0, "is_disabled": 0, "fusion_lat": 0.0}, {"fusion_lon": 0.0, "bike_id": "0a2a1f2771ebe7f6f4a56d26c36511ff", "name": "0a2a1f2771ebe7f6f4a56d26c36511ff", "type": "electric_scooter", "lon": -77.036376, "rental_uris": {"android": "https://dc.lft.to/lastmile_qr_scan", "ios": "https://dc.lft.to/lastmile_qr_scan"}, "lat": 38.936674333333336, "is_reserved": 0, "is_disabled": 0, "fusion_lat": 0.0}, {"fusion_lon": 0.0, "bike_id": "80f3777eeebecc9fbf3de453cfbb4895", "name": "80f3777eeebecc9fbf3de453cfbb4895", "type": "electric_scooter", "lon": -77.032549, "rental_uris": {"android": "https://dc.lft.to/lastmile_qr_scan", "ios": "https://dc.lft.to/lastmile_qr_scan"}, "lat": 38.9148615, "is_reserved": 0, "is_disabled": 0, "fusion_lat": 0.0}, {"fusion_lon": 0.0, "bike_id": "51a908cd081f51e9ff29418609ea6a55", "name": "51a908cd081f51e9ff29418609ea6a55", "type": "electric_bike", "lon": -77.01226833333334, "rental_uris": {"android": "https://dc.lft.to/lastmile_qr_scan", "ios": "https://dc.lft.to/lastmile_qr_scan"}, "lat": 38.893173, "is_reserved": 0, "is_disabled": 0, "fusion_lat": 0.0}, {"fusion_lon": 0.0, "bike_id": "377f991e2792e4df54f4a3d6565a53d1", "name": "377f991e2792e4df54f4a3d6565a53d1", "type": "electric_scooter", "lon": -77.05583666666666, "rental_uris": {"android": "https://dc.lft.to/lastmile_qr_scan", "ios": "https://dc.lft.to/lastmile_qr_scan"}, "lat": 38.93607866666667, "is_reserved": 0, "is_disabled": 0, "fusion_lat": 0.0}, {"fusion_lon": 0.0, "bike_id": "ba75bd78987bcb652983903de9b0221d", "name": "ba75bd78987bcb652983903de9b0221d", "type": "electric_scooter", "lon": -77.00444316666666, "rental_uris": {"android": "https://dc.lft.to/lastmile_qr_scan", "ios": "https://dc.lft.to/lastmile_qr_scan"}, "lat": 38.90729983333333, "is_reserved": 0, "is_disabled": 0, "fusion_lat": 0.0}, {"fusion_lon": 0.0, "bike_id": "b7f20d1a74a36b86a0e0e62112d2d4a3", "name": "b7f20d1a74a36b86a0e0e62112d2d4a3", "type": "electric_scooter", "lon": -77.04155616666667, "rental_uris": {"android": "https://dc.lft.to/lastmile_qr_scan", "ios": "https://dc.lft.to/lastmile_qr_scan"}, "lat": 38.923300166666664, "is_reserved": 0, "is_disabled": 0, "fusion_lat": 0.0}, {"fusion_lon": 0.0, "bike_id": "7cf2e9ad857b18dea5458820d5d8c821", "name": "7cf2e9ad857b18dea5458820d5d8c821", "type": "electric_scooter", "lon": -77.02291633333333, "rental_uris": {"android": "https://dc.lft.to/lastmile_qr_scan", "ios": "https://dc.lft.to/lastmile_qr_scan"}, "lat": 38.93760283333334, "is_reserved": 0, "is_disabled": 0, "fusion_lat": 0.0}, {"fusion_lon": 0.0, "bike_id": "c12318b2ae2e9c2acc6029ece8fbb4cf", "name": "c12318b2ae2e9c2acc6029ece8fbb4cf", "type": "electric_scooter", "lon": -77.09439983333333, "rental_uris": {"android": "https://dc.lft.to/lastmile_qr_scan", "ios": "https://dc.lft.to/lastmile_qr_scan"}, "lat": 38.917871166666664, "is_reserved": 0, "is_disabled": 0, "fusion_lat": 0.0}, {"fusion_lon": 0.0, "bike_id": "51f736909cb8249afb724bb6e1c78d40", "name": "51f736909cb8249afb724bb6e1c78d40", "type": "electric_scooter", "lon": -77.0238615, "rental_uris": {"android": "https://dc.lft.to/lastmile_qr_scan", "ios": "https://dc.lft.to/lastmile_qr_scan"}, "lat": 38.90746166666667, "is_reserved": 0, "is_disabled": 0, "fusion_lat": 0.0}, {"fusion_lon": 0.0, "bike_id": "e393a682ede345f23a5482cc4592127d", "name": "e393a682ede345f23a5482cc4592127d", "type": "electric_bike", "lon": -76.9884225, "rental_uris": {"android": "https://dc.lft.to/lastmile_qr_scan", "ios": "https://dc.lft.to/lastmile_qr_scan"}, "lat": 38.84272416666667, "is_reserved": 0, "is_disabled": 0, "fusion_lat": 0.0}, {"fusion_lon": 0.0, "bike_id": "0aa59a50b83a67a09db5bd4ffe897b9f", "name": "0aa59a50b83a67a09db5bd4ffe897b9f", "type": "electric_scooter", "lon": -76.94773433333333, "rental_uris": {"android": "https://dc.lft.to/lastmile_qr_scan", "ios": "https://dc.lft.to/lastmile_qr_scan"}, "lat": 38.89629683333333, "is_reserved": 0, "is_disabled": 0, "fusion_lat": 0.0}, {"fusion_lon": 0.0, "bike_id": "904648a0e9f79dfc1d3da930f313631d", "name": "904648a0e9f79dfc1d3da930f313631d", "type": "electric_scooter", "lon": -76.9494045, "rental_uris": {"android": "https://dc.lft.to/lastmile_qr_scan", "ios": "https://dc.lft.to/lastmile_qr_scan"}, "lat": 38.88320733333333, "is_reserved": 0, "is_disabled": 0, "fusion_lat": 0.0}, {"fusion_lon": 0.0, "bike_id": "0a6344a84531df2126d62f91102dd8c2", "name": "0a6344a84531df2126d62f91102dd8c2", "type": "electric_scooter", "lon": -77.02301116666666, "rental_uris": {"android": "https://dc.lft.to/lastmile_qr_scan", "ios": "https://dc.lft.to/lastmile_qr_scan"}, "lat": 38.915705333333335, "is_reserved": 0, "is_disabled": 0, "fusion_lat": 0.0}, {"fusion_lon": 0.0, "bike_id": "b0a8e3ce6adf659b4b5bf1db2c37c453", "name": "b0a8e3ce6adf659b4b5bf1db2c37c453", "type": "electric_scooter", "lon": -77.0269455, "rental_uris": {"android": "https://dc.lft.to/lastmile_qr_scan", "ios": "https://dc.lft.to/lastmile_qr_scan"}, "lat": 38.90733866666667, "is_reserved": 0, "is_disabled": 0, "fusion_lat": 0.0}, {"fusion_lon": 0.0, "bike_id": "56911ed0d25dc57a7d0f3431a521a17b", "name": "56911ed0d25dc57a7d0f3431a521a17b", "type": "electric_scooter", "lon": -77.00839716666667, "rental_uris": {"android": "https://dc.lft.to/lastmile_qr_scan", "ios": "https://dc.lft.to/lastmile_qr_scan"}, "lat": 38.8764185, "is_reserved": 0, "is_disabled": 0, "fusion_lat": 0.0}, {"fusion_lon": 0.0, "bike_id": "260e37f0df6a4d0af493d8717ba263b3", "name": "260e37f0df6a4d0af493d8717ba263b3", "type": "electric_bike", "lon": -76.97563483333333, "rental_uris": {"android": "https://dc.lft.to/lastmile_qr_scan", "ios": "https://dc.lft.to/lastmile_qr_scan"}, "lat": 38.9245785, "is_reserved": 0, "is_disabled": 0, "fusion_lat": 0.0}, {"fusion_lon": 0.0, "bike_id": "5b4ee221aa5668e1ef2d71c4ef8a358c", "name": "5b4ee221aa5668e1ef2d71c4ef8a358c", "type": "electric_scooter", "lon": -77.048949, "rental_uris": {"android": "https://dc.lft.to/lastmile_qr_scan", "ios": "https://dc.lft.to/lastmile_qr_scan"}, "lat": 38.8925165, "is_reserved": 0, "is_disabled": 0, "fusion_lat": 0.0}, {"fusion_lon": 0.0, "bike_id": "d31963eb5bd092932fb19e92035a37e0", "name": "d31963eb5bd092932fb19e92035a37e0", "type": "electric_scooter", "lon": -77.05092316666666, "rental_uris": {"android": "https://dc.lft.to/lastmile_qr_scan", "ios": "https://dc.lft.to/lastmile_qr_scan"}, "lat": 38.90551416666667, "is_reserved": 0, "is_disabled": 0, "fusion_lat": 0.0}, {"fusion_lon": 0.0, "bike_id": "015e632575c6b29253e99bf78b9ab318", "name": "015e632575c6b29253e99bf78b9ab318", "type": "electric_scooter", "lon": -76.98713516666666, "rental_uris": {"android": "https://dc.lft.to/lastmile_qr_scan", "ios": "https://dc.lft.to/lastmile_qr_scan"}, "lat": 38.86699316666667, "is_reserved": 0, "is_disabled": 0, "fusion_lat": 0.0}, {"fusion_lon": 0.0, "bike_id": "10402fa8174d301e53c037a3f39799e4", "name": "10402fa8174d301e53c037a3f39799e4", "type": "electric_scooter", "lon": -77.04390983333333, "rental_uris": {"android": "https://dc.lft.to/lastmile_qr_scan", "ios": "https://dc.lft.to/lastmile_qr_scan"}, "lat": 38.92281783333333, "is_reserved": 0, "is_disabled": 0, "fusion_lat": 0.0}, {"fusion_lon": 0.0, "bike_id": "36d8076b5bad488a82593aa29445f723", "name": "36d8076b5bad488a82593aa29445f723", "type": "electric_scooter", "lon": -77.03859966666667, "rental_uris": {"android": "https://dc.lft.to/lastmile_qr_scan", "ios": "https://dc.lft.to/lastmile_qr_scan"}, "lat": 38.907796833333336, "is_reserved": 0, "is_disabled": 0, "fusion_lat": 0.0}, {"fusion_lon": 0.0, "bike_id": "a757a45631a0ad03ccfbda758e38b2e5", "name": "a757a45631a0ad03ccfbda758e38b2e5", "type": "electric_scooter", "lon": -76.9984885, "rental_uris": {"android": "https://dc.lft.to/lastmile_qr_scan", "ios": "https://dc.lft.to/lastmile_qr_scan"}, "lat": 38.90034283333333, "is_reserved": 0, "is_disabled": 0, "fusion_lat": 0.0}, {"fusion_lon": 0.0, "bike_id": "12ed43bbaba50e83b2b00028e39d3f94", "name": "12ed43bbaba50e83b2b00028e39d3f94", "type": "electric_scooter", "lon": -77.03222366666667, "rental_uris": {"android": "https://dc.lft.to/lastmile_qr_scan", "ios": "https://dc.lft.to/lastmile_qr_scan"}, "lat": 38.90978716666667, "is_reserved": 0, "is_disabled": 0, "fusion_lat": 0.0}, {"fusion_lon": 0.0, "bike_id": "8bb0d3bfdf0a4dab7c2956c4050bbc34", "name": "8bb0d3bfdf0a4dab7c2956c4050bbc34", "type": "electric_scooter", "lon": -76.98596433333333, "rental_uris": {"android": "https://dc.lft.to/lastmile_qr_scan", "ios": "https://dc.lft.to/lastmile_qr_scan"}, "lat": 38.9065355, "is_reserved": 0, "is_disabled": 0, "fusion_lat": 0.0}, {"fusion_lon": 0.0, "bike_id": "5e31edec017c74463039c54a3156a163", "name": "5e31edec017c74463039c54a3156a163", "type": "electric_scooter", "lon": -77.0464355, "rental_uris": {"android": "https://dc.lft.to/lastmile_qr_scan", "ios": "https://dc.lft.to/lastmile_qr_scan"}, "lat": 38.9041295, "is_reserved": 0, "is_disabled": 0, "fusion_lat": 0.0}, {"fusion_lon": 0.0, "bike_id": "bfb0223984a5217c5c50f6cb11b905af", "name": "bfb0223984a5217c5c50f6cb11b905af", "type": "electric_scooter", "lon": -77.05803916666666, "rental_uris": {"android": "https://dc.lft.to/lastmile_qr_scan", "ios": "https://dc.lft.to/lastmile_qr_scan"}, "lat": 38.934973, "is_reserved": 0, "is_disabled": 0, "fusion_lat": 0.0}, {"fusion_lon": 0.0, "bike_id": "b2c91c3113627f20f9cf7a970715f246", "name": "b2c91c3113627f20f9cf7a970715f246", "type": "electric_scooter", "lon": -77.02853183333333, "rental_uris": {"android": "https://dc.lft.to/lastmile_qr_scan", "ios": "https://dc.lft.to/lastmile_qr_scan"}, "lat": 38.93265816666667, "is_reserved": 0, "is_disabled": 0, "fusion_lat": 0.0}, {"fusion_lon": 0.0, "bike_id": "37191f6674ba9a6f0695a188abdf23ec", "name": "37191f6674ba9a6f0695a188abdf23ec", "type": "electric_bike", "lon": -76.90533816666667, "rental_uris": {"android": "https://dc.lft.to/lastmile_qr_scan", "ios": "https://dc.lft.to/lastmile_qr_scan"}, "lat": 38.89735266666667, "is_reserved": 0, "is_disabled": 0, "fusion_lat": 0.0}, {"fusion_lon": 0.0, "bike_id": "2dc2711af2ca7d48e2cd6c71d590d83b", "name": "2dc2711af2ca7d48e2cd6c71d590d83b", "type": "electric_scooter", "lon": -77.048766, "rental_uris": {"android": "https://dc.lft.to/lastmile_qr_scan", "ios": "https://dc.lft.to/lastmile_qr_scan"}, "lat": 38.909091833333335, "is_reserved": 0, "is_disabled": 0, "fusion_lat": 0.0}, {"fusion_lon": 0.0, "bike_id": "ae5cfa85910481bd5b31cdecf2896311", "name": "ae5cfa85910481bd5b31cdecf2896311", "type": "electric_scooter", "lon": -77.0575485, "rental_uris": {"android": "https://dc.lft.to/lastmile_qr_scan", "ios": "https://dc.lft.to/lastmile_qr_scan"}, "lat": 38.925028166666664, "is_reserved": 0, "is_disabled": 0, "fusion_lat": 0.0}, {"fusion_lon": 0.0, "bike_id": "005106f54c064a702d98967248c64f9f", "name": "005106f54c064a702d98967248c64f9f", "type": "electric_scooter", "lon": -77.00251683333333, "rental_uris": {"android": "https://dc.lft.to/lastmile_qr_scan", "ios": "https://dc.lft.to/lastmile_qr_scan"}, "lat": 38.911063, "is_reserved": 0, "is_disabled": 0, "fusion_lat": 0.0}, {"fusion_lon": 0.0, "bike_id": "13c3a6e5715f7874caba2341fcd8c3dd", "name": "13c3a6e5715f7874caba2341fcd8c3dd", "type": "electric_scooter", "lon": -77.013736, "rental_uris": {"android": "https://dc.lft.to/lastmile_qr_scan", "ios": "https://dc.lft.to/lastmile_qr_scan"}, "lat": 38.89220816666667, "is_reserved": 0, "is_disabled": 0, "fusion_lat": 0.0}, {"fusion_lon": 0.0, "bike_id": "e76c99d26170f9ad118606dc60798750", "name": "e76c99d26170f9ad118606dc60798750", "type": "electric_scooter", "lon": -77.06924266666667, "rental_uris": {"android": "https://dc.lft.to/lastmile_qr_scan", "ios": "https://dc.lft.to/lastmile_qr_scan"}, "lat": 38.91334766666667, "is_reserved": 0, "is_disabled": 0, "fusion_lat": 0.0}, {"fusion_lon": 0.0, "bike_id": "f3ecf82d4a56e356885110c8957a466f", "name": "f3ecf82d4a56e356885110c8957a466f", "type": "electric_scooter", "lon": -77.01873083333334, "rental_uris": {"android": "https://dc.lft.to/lastmile_qr_scan", "ios": "https://dc.lft.to/lastmile_qr_scan"}, "lat": 38.90040283333333, "is_reserved": 0, "is_disabled": 0, "fusion_lat": 0.0}, {"fusion_lon": 0.0, "bike_id": "b05fcd8cbc94c257821c3c910999d813", "name": "b05fcd8cbc94c257821c3c910999d813", "type": "electric_scooter", "lon": -77.0383915, "rental_uris": {"android": "https://dc.lft.to/lastmile_qr_scan", "ios": "https://dc.lft.to/lastmile_qr_scan"}, "lat": 38.91212816666667, "is_reserved": 0, "is_disabled": 0, "fusion_lat": 0.0}, {"fusion_lon": 0.0, "bike_id": "f6bc3d927fc5320b9d255494ebff84b5", "name": "f6bc3d927fc5320b9d255494ebff84b5", "type": "electric_scooter", "lon": -77.03831366666667, "rental_uris": {"android": "https://dc.lft.to/lastmile_qr_scan", "ios": "https://dc.lft.to/lastmile_qr_scan"}, "lat": 38.90977816666667, "is_reserved": 0, "is_disabled": 0, "fusion_lat": 0.0}, {"fusion_lon": 0.0, "bike_id": "53bd1df342d5a6d695181d7b5066e2a1", "name": "53bd1df342d5a6d695181d7b5066e2a1", "type": "electric_scooter", "lon": -77.034575, "rental_uris": {"android": "https://dc.lft.to/lastmile_qr_scan", "ios": "https://dc.lft.to/lastmile_qr_scan"}, "lat": 38.91809966666667, "is_reserved": 0, "is_disabled": 0, "fusion_lat": 0.0}, {"fusion_lon": 0.0, "bike_id": "641b95142e88d2394e6773a8c9353a05", "name": "641b95142e88d2394e6773a8c9353a05", "type": "electric_scooter", "lon": -77.01383916666667, "rental_uris": {"android": "https://dc.lft.to/lastmile_qr_scan", "ios": "https://dc.lft.to/lastmile_qr_scan"}, "lat": 38.88647916666667, "is_reserved": 0, "is_disabled": 0, "fusion_lat": 0.0}, {"fusion_lon": 0.0, "bike_id": "12154ec3f0a5bb080e736b569582bb60", "name": "12154ec3f0a5bb080e736b569582bb60", "type": "electric_scooter", "lon": -77.01497433333333, "rental_uris": {"android": "https://dc.lft.to/lastmile_qr_scan", "ios": "https://dc.lft.to/lastmile_qr_scan"}, "lat": 38.90140433333333, "is_reserved": 0, "is_disabled": 0, "fusion_lat": 0.0}, {"fusion_lon": 0.0, "bike_id": "6a71d768306f957d945b9b7006e9361f", "name": "6a71d768306f957d945b9b7006e9361f", "type": "electric_bike", "lon": -77.0156015, "rental_uris": {"android": "https://dc.lft.to/lastmile_qr_scan", "ios": "https://dc.lft.to/lastmile_qr_scan"}, "lat": 38.950137, "is_reserved": 0, "is_disabled": 0, "fusion_lat": 0.0}, {"fusion_lon": 0.0, "bike_id": "9ac3cc3dcf31e9d1333b04239620fe19", "name": "9ac3cc3dcf31e9d1333b04239620fe19", "type": "electric_scooter", "lon": -77.0318395, "rental_uris": {"android": "https://dc.lft.to/lastmile_qr_scan", "ios": "https://dc.lft.to/lastmile_qr_scan"}, "lat": 38.913514166666666, "is_reserved": 0, "is_disabled": 0, "fusion_lat": 0.0}, {"fusion_lon": 0.0, "bike_id": "6d6cc8f34171788ffec335eb3aa727c0", "name": "6d6cc8f34171788ffec335eb3aa727c0", "type": "electric_scooter", "lon": -77.01372616666667, "rental_uris": {"android": "https://dc.lft.to/lastmile_qr_scan", "ios": "https://dc.lft.to/lastmile_qr_scan"}, "lat": 38.928835666666664, "is_reserved": 0, "is_disabled": 0, "fusion_lat": 0.0}, {"fusion_lon": 0.0, "bike_id": "f367dfb8d9a1240d130b52c2c26a7083", "name": "f367dfb8d9a1240d130b52c2c26a7083", "type": "electric_scooter", "lon": -77.05005333333334, "rental_uris": {"android": "https://dc.lft.to/lastmile_qr_scan", "ios": "https://dc.lft.to/lastmile_qr_scan"}, "lat": 38.89231366666667, "is_reserved": 0, "is_disabled": 0, "fusion_lat": 0.0}, {"fusion_lon": 0.0, "bike_id": "e0a62e0449c4caa63463227ab8374f32", "name": "e0a62e0449c4caa63463227ab8374f32", "type": "electric_scooter", "lon": -76.9488505, "rental_uris": {"android": "https://dc.lft.to/lastmile_qr_scan", "ios": "https://dc.lft.to/lastmile_qr_scan"}, "lat": 38.895118833333335, "is_reserved": 0, "is_disabled": 0, "fusion_lat": 0.0}, {"fusion_lon": 0.0, "bike_id": "4f02d7f66952eb75a0ba5c48237d9033", "name": "4f02d7f66952eb75a0ba5c48237d9033", "type": "electric_scooter", "lon": -77.03867716666667, "rental_uris": {"android": "https://dc.lft.to/lastmile_qr_scan", "ios": "https://dc.lft.to/lastmile_qr_scan"}, "lat": 38.9155915, "is_reserved": 0, "is_disabled": 0, "fusion_lat": 0.0}, {"fusion_lon": 0.0, "bike_id": "172045fde12e1487b68563e9cd2e641b", "name": "172045fde12e1487b68563e9cd2e641b", "type": "electric_scooter", "lon": -77.02562083333333, "rental_uris": {"android": "https://dc.lft.to/lastmile_qr_scan", "ios": "https://dc.lft.to/lastmile_qr_scan"}, "lat": 38.89947333333333, "is_reserved": 0, "is_disabled": 0, "fusion_lat": 0.0}, {"fusion_lon": 0.0, "bike_id": "a2632020d5e84bdc2d9d320ac7c0481e", "name": "a2632020d5e84bdc2d9d320ac7c0481e", "type": "electric_scooter", "lon": -77.022111, "rental_uris": {"android": "https://dc.lft.to/lastmile_qr_scan", "ios": "https://dc.lft.to/lastmile_qr_scan"}, "lat": 38.905727666666664, "is_reserved": 0, "is_disabled": 0, "fusion_lat": 0.0}, {"fusion_lon": 0.0, "bike_id": "76616139afa2aa90cce1135e47cfdf98", "name": "76616139afa2aa90cce1135e47cfdf98", "type": "electric_bike", "lon": -77.14775816666666, "rental_uris": {"android": "https://dc.lft.to/lastmile_qr_scan", "ios": "https://dc.lft.to/lastmile_qr_scan"}, "lat": 39.095879, "is_reserved": 0, "is_disabled": 0, "fusion_lat": 0.0}, {"fusion_lon": 0.0, "bike_id": "3a64b029d12b13aeeb6f606d31ff0eaf", "name": "3a64b029d12b13aeeb6f606d31ff0eaf", "type": "electric_scooter", "lon": -77.0465865, "rental_uris": {"android": "https://dc.lft.to/lastmile_qr_scan", "ios": "https://dc.lft.to/lastmile_qr_scan"}, "lat": 38.904093, "is_reserved": 0, "is_disabled": 0, "fusion_lat": 0.0}, {"fusion_lon": 0.0, "bike_id": "37d7c90db78d1445c21be3a4b01a53ee", "name": "37d7c90db78d1445c21be3a4b01a53ee", "type": "electric_scooter", "lon": -76.992247, "rental_uris": {"android": "https://dc.lft.to/lastmile_qr_scan", "ios": "https://dc.lft.to/lastmile_qr_scan"}, "lat": 38.898873, "is_reserved": 0, "is_disabled": 0, "fusion_lat": 0.0}, {"fusion_lon": 0.0, "bike_id": "bdf1b98cc38bac287cc6254dd1b90d26", "name": "bdf1b98cc38bac287cc6254dd1b90d26", "type": "electric_scooter", "lon": -77.04099533333333, "rental_uris": {"android": "https://dc.lft.to/lastmile_qr_scan", "ios": "https://dc.lft.to/lastmile_qr_scan"}, "lat": 38.920268166666666, "is_reserved": 0, "is_disabled": 0, "fusion_lat": 0.0}, {"fusion_lon": 0.0, "bike_id": "51c65775f24911d3a43139063adbdd73", "name": "51c65775f24911d3a43139063adbdd73", "type": "electric_bike", "lon": -77.09581033333333, "rental_uris": {"android": "https://dc.lft.to/lastmile_qr_scan", "ios": "https://dc.lft.to/lastmile_qr_scan"}, "lat": 38.83788416666667, "is_reserved": 0, "is_disabled": 0, "fusion_lat": 0.0}, {"fusion_lon": 0.0, "bike_id": "aefcf09f693569d6fb3d21ea8023e8d7", "name": "aefcf09f693569d6fb3d21ea8023e8d7", "type": "electric_scooter", "lon": -76.99690483333333, "rental_uris": {"android": "https://dc.lft.to/lastmile_qr_scan", "ios": "https://dc.lft.to/lastmile_qr_scan"}, "lat": 38.86031533333333, "is_reserved": 0, "is_disabled": 0, "fusion_lat": 0.0}, {"fusion_lon": 0.0, "bike_id": "72cc4545cca745c678659cf151c0cd4b", "name": "72cc4545cca745c678659cf151c0cd4b", "type": "electric_scooter", "lon": -77.04164916666667, "rental_uris": {"android": "https://dc.lft.to/lastmile_qr_scan", "ios": "https://dc.lft.to/lastmile_qr_scan"}, "lat": 38.9109635, "is_reserved": 0, "is_disabled": 0, "fusion_lat": 0.0}, {"fusion_lon": 0.0, "bike_id": "2a21472e708dafed4222e8ad7dd94e15", "name": "2a21472e708dafed4222e8ad7dd94e15", "type": "electric_scooter", "lon": -77.03786316666667, "rental_uris": {"android": "https://dc.lft.to/lastmile_qr_scan", "ios": "https://dc.lft.to/lastmile_qr_scan"}, "lat": 38.933225666666665, "is_reserved": 0, "is_disabled": 0, "fusion_lat": 0.0}, {"fusion_lon": 0.0, "bike_id": "49412d752ebb68626b9f08723f9d2152", "name": "49412d752ebb68626b9f08723f9d2152", "type": "electric_bike", "lon": -76.94626466666666, "rental_uris": {"android": "https://dc.lft.to/lastmile_qr_scan", "ios": "https://dc.lft.to/lastmile_qr_scan"}, "lat": 38.83239783333333, "is_reserved": 0, "is_disabled": 0, "fusion_lat": 0.0}, {"fusion_lon": 0.0, "bike_id": "1d88fc15769596a5862d81c3b6d8efa2", "name": "1d88fc15769596a5862d81c3b6d8efa2", "type": "electric_scooter", "lon": -77.07094316666667, "rental_uris": {"android": "https://dc.lft.to/lastmile_qr_scan", "ios": "https://dc.lft.to/lastmile_qr_scan"}, "lat": 38.919699, "is_reserved": 0, "is_disabled": 0, "fusion_lat": 0.0}, {"fusion_lon": 0.0, "bike_id": "9b3a86bb33d6a2943859d0173b7252eb", "name": "9b3a86bb33d6a2943859d0173b7252eb", "type": "electric_scooter", "lon": -76.98766483333333, "rental_uris": {"android": "https://dc.lft.to/lastmile_qr_scan", "ios": "https://dc.lft.to/lastmile_qr_scan"}, "lat": 38.88317283333333, "is_reserved": 0, "is_disabled": 0, "fusion_lat": 0.0}, {"fusion_lon": 0.0, "bike_id": "ab01dafe3363578fda6628f9c218a08e", "name": "ab01dafe3363578fda6628f9c218a08e", "type": "electric_scooter", "lon": -77.03663733333333, "rental_uris": {"android": "https://dc.lft.to/lastmile_qr_scan", "ios": "https://dc.lft.to/lastmile_qr_scan"}, "lat": 38.927042, "is_reserved": 0, "is_disabled": 0, "fusion_lat": 0.0}, {"fusion_lon": 0.0, "bike_id": "1c8f2b15969f78b0aa6eaecd15e18a1c", "name": "1c8f2b15969f78b0aa6eaecd15e18a1c", "type": "electric_scooter", "lon": -76.99156916666666, "rental_uris": {"android": "https://dc.lft.to/lastmile_qr_scan", "ios": "https://dc.lft.to/lastmile_qr_scan"}, "lat": 38.897725, "is_reserved": 0, "is_disabled": 0, "fusion_lat": 0.0}, {"fusion_lon": 0.0, "bike_id": "c8a42c807b6157959220904d3576eaad", "name": "c8a42c807b6157959220904d3576eaad", "type": "electric_scooter", "lon": -77.04669683333333, "rental_uris": {"android": "https://dc.lft.to/lastmile_qr_scan", "ios": "https://dc.lft.to/lastmile_qr_scan"}, "lat": 38.90720833333334, "is_reserved": 0, "is_disabled": 0, "fusion_lat": 0.0}, {"fusion_lon": 0.0, "bike_id": "7d29e3d33c6117f941f7ae641abf6df9", "name": "7d29e3d33c6117f941f7ae641abf6df9", "type": "electric_scooter", "lon": -76.99463816666666, "rental_uris": {"android": "https://dc.lft.to/lastmile_qr_scan", "ios": "https://dc.lft.to/lastmile_qr_scan"}, "lat": 38.92285116666667, "is_reserved": 0, "is_disabled": 0, "fusion_lat": 0.0}, {"fusion_lon": 0.0, "bike_id": "b957eb41b792234149f32f2aaf3b682f", "name": "b957eb41b792234149f32f2aaf3b682f", "type": "electric_scooter", "lon": -77.02805, "rental_uris": {"android": "https://dc.lft.to/lastmile_qr_scan", "ios": "https://dc.lft.to/lastmile_qr_scan"}, "lat": 38.91679383333334, "is_reserved": 0, "is_disabled": 0, "fusion_lat": 0.0}, {"fusion_lon": 0.0, "bike_id": "e018f1d56a720a3a35d1bb0997301dbb", "name": "e018f1d56a720a3a35d1bb0997301dbb", "type": "electric_bike", "lon": -76.9480205, "rental_uris": {"android": "https://dc.lft.to/lastmile_qr_scan", "ios": "https://dc.lft.to/lastmile_qr_scan"}, "lat": 38.861919666666665, "is_reserved": 0, "is_disabled": 0, "fusion_lat": 0.0}, {"fusion_lon": 0.0, "bike_id": "fb7418f3ebb8376a1018447b0d8f83aa", "name": "fb7418f3ebb8376a1018447b0d8f83aa", "type": "electric_scooter", "lon": -77.019952, "rental_uris": {"android": "https://dc.lft.to/lastmile_qr_scan", "ios": "https://dc.lft.to/lastmile_qr_scan"}, "lat": 38.966263833333336, "is_reserved": 0, "is_disabled": 0, "fusion_lat": 0.0}, {"fusion_lon": 0.0, "bike_id": "d4ad324523041d4fdfdfa0932aee693b", "name": "d4ad324523041d4fdfdfa0932aee693b", "type": "electric_scooter", "lon": -77.021204, "rental_uris": {"android": "https://dc.lft.to/lastmile_qr_scan", "ios": "https://dc.lft.to/lastmile_qr_scan"}, "lat": 38.89470566666667, "is_reserved": 0, "is_disabled": 0, "fusion_lat": 0.0}, {"fusion_lon": 0.0, "bike_id": "58700dda67557541908e2b0223e2e33b", "name": "58700dda67557541908e2b0223e2e33b", "type": "electric_bike", "lon": -76.9800735, "rental_uris": {"android": "https://dc.lft.to/lastmile_qr_scan", "ios": "https://dc.lft.to/lastmile_qr_scan"}, "lat": 38.853252, "is_reserved": 0, "is_disabled": 0, "fusion_lat": 0.0}, {"fusion_lon": 0.0, "bike_id": "21c0289973c624b568ca9e5dac9779b3", "name": "21c0289973c624b568ca9e5dac9779b3", "type": "electric_scooter", "lon": -77.0280165, "rental_uris": {"android": "https://dc.lft.to/lastmile_qr_scan", "ios": "https://dc.lft.to/lastmile_qr_scan"}, "lat": 38.91099583333333, "is_reserved": 0, "is_disabled": 0, "fusion_lat": 0.0}, {"fusion_lon": 0.0, "bike_id": "b0061f41287267c9e7b7d2566795810d", "name": "b0061f41287267c9e7b7d2566795810d", "type": "electric_scooter", "lon": -77.03260016666667, "rental_uris": {"android": "https://dc.lft.to/lastmile_qr_scan", "ios": "https://dc.lft.to/lastmile_qr_scan"}, "lat": 38.932627333333336, "is_reserved": 0, "is_disabled": 0, "fusion_lat": 0.0}, {"fusion_lon": 0.0, "bike_id": "943ca199f14d3128b10828a236b85896", "name": "943ca199f14d3128b10828a236b85896", "type": "electric_scooter", "lon": -77.03180566666667, "rental_uris": {"android": "https://dc.lft.to/lastmile_qr_scan", "ios": "https://dc.lft.to/lastmile_qr_scan"}, "lat": 38.90790616666666, "is_reserved": 0, "is_disabled": 0, "fusion_lat": 0.0}, {"fusion_lon": 0.0, "bike_id": "96093745b1f34e278c0acf149edfd99b", "name": "96093745b1f34e278c0acf149edfd99b", "type": "electric_scooter", "lon": -77.0417075, "rental_uris": {"android": "https://dc.lft.to/lastmile_qr_scan", "ios": "https://dc.lft.to/lastmile_qr_scan"}, "lat": 38.92006766666667, "is_reserved": 0, "is_disabled": 0, "fusion_lat": 0.0}, {"fusion_lon": 0.0, "bike_id": "2213d7f717d817b32b0c767639a91b15", "name": "2213d7f717d817b32b0c767639a91b15", "type": "electric_scooter", "lon": -77.03440133333334, "rental_uris": {"android": "https://dc.lft.to/lastmile_qr_scan", "ios": "https://dc.lft.to/lastmile_qr_scan"}, "lat": 38.907272166666665, "is_reserved": 0, "is_disabled": 0, "fusion_lat": 0.0}, {"fusion_lon": 0.0, "bike_id": "660714a227cb0a826d6544f7cb1aca6e", "name": "660714a227cb0a826d6544f7cb1aca6e", "type": "electric_scooter", "lon": -77.0320295, "rental_uris": {"android": "https://dc.lft.to/lastmile_qr_scan", "ios": "https://dc.lft.to/lastmile_qr_scan"}, "lat": 38.909224, "is_reserved": 0, "is_disabled": 0, "fusion_lat": 0.0}, {"fusion_lon": 0.0, "bike_id": "6ab63769731585c545355e7e4a773cb2", "name": "6ab63769731585c545355e7e4a773cb2", "type": "electric_scooter", "lon": -77.01098783333333, "rental_uris": {"android": "https://dc.lft.to/lastmile_qr_scan", "ios": "https://dc.lft.to/lastmile_qr_scan"}, "lat": 38.90970466666667, "is_reserved": 0, "is_disabled": 0, "fusion_lat": 0.0}, {"fusion_lon": 0.0, "bike_id": "c31392356a29cf11fa046e63f7eab6fb", "name": "c31392356a29cf11fa046e63f7eab6fb", "type": "electric_scooter", "lon": -77.031127, "rental_uris": {"android": "https://dc.lft.to/lastmile_qr_scan", "ios": "https://dc.lft.to/lastmile_qr_scan"}, "lat": 38.92020433333333, "is_reserved": 0, "is_disabled": 0, "fusion_lat": 0.0}, {"fusion_lon": 0.0, "bike_id": "2b4b0b44a011a39ec2ce39f7f3e193f7", "name": "2b4b0b44a011a39ec2ce39f7f3e193f7", "type": "electric_scooter", "lon": -77.02355116666666, "rental_uris": {"android": "https://dc.lft.to/lastmile_qr_scan", "ios": "https://dc.lft.to/lastmile_qr_scan"}, "lat": 38.935383, "is_reserved": 0, "is_disabled": 0, "fusion_lat": 0.0}, {"fusion_lon": 0.0, "bike_id": "ef90fc2161c8aab4ec872b7310a44f5f", "name": "ef90fc2161c8aab4ec872b7310a44f5f", "type": "electric_scooter", "lon": -77.0457895, "rental_uris": {"android": "https://dc.lft.to/lastmile_qr_scan", "ios": "https://dc.lft.to/lastmile_qr_scan"}, "lat": 38.92417483333333, "is_reserved": 0, "is_disabled": 0, "fusion_lat": 0.0}, {"fusion_lon": 0.0, "bike_id": "24baafaa116bba280b49f77f51a24a63", "name": "24baafaa116bba280b49f77f51a24a63", "type": "electric_scooter", "lon": -77.014407, "rental_uris": {"android": "https://dc.lft.to/lastmile_qr_scan", "ios": "https://dc.lft.to/lastmile_qr_scan"}, "lat": 38.919609, "is_reserved": 0, "is_disabled": 0, "fusion_lat": 0.0}, {"fusion_lon": 0.0, "bike_id": "19b115a10f823aa65baee56a25458c34", "name": "19b115a10f823aa65baee56a25458c34", "type": "electric_bike", "lon": -76.98520116666667, "rental_uris": {"android": "https://dc.lft.to/lastmile_qr_scan", "ios": "https://dc.lft.to/lastmile_qr_scan"}, "lat": 38.91994916666667, "is_reserved": 0, "is_disabled": 0, "fusion_lat": 0.0}, {"fusion_lon": 0.0, "bike_id": "826a61ec75e5ae625e431c77ad5d502d", "name": "826a61ec75e5ae625e431c77ad5d502d", "type": "electric_scooter", "lon": -76.97822133333334, "rental_uris": {"android": "https://dc.lft.to/lastmile_qr_scan", "ios": "https://dc.lft.to/lastmile_qr_scan"}, "lat": 38.84608, "is_reserved": 0, "is_disabled": 0, "fusion_lat": 0.0}, {"fusion_lon": 0.0, "bike_id": "019ec8efbf61f1105e7f4cc27a1c5120", "name": "019ec8efbf61f1105e7f4cc27a1c5120", "type": "electric_scooter", "lon": -77.003341, "rental_uris": {"android": "https://dc.lft.to/lastmile_qr_scan", "ios": "https://dc.lft.to/lastmile_qr_scan"}, "lat": 38.902603666666664, "is_reserved": 0, "is_disabled": 0, "fusion_lat": 0.0}, {"fusion_lon": 0.0, "bike_id": "9054ac30130012fb2264ce82563ee39b", "name": "9054ac30130012fb2264ce82563ee39b", "type": "electric_bike", "lon": -76.98475566666667, "rental_uris": {"android": "https://dc.lft.to/lastmile_qr_scan", "ios": "https://dc.lft.to/lastmile_qr_scan"}, "lat": 38.89143466666667, "is_reserved": 0, "is_disabled": 0, "fusion_lat": 0.0}, {"fusion_lon": 0.0, "bike_id": "ffb436150720493b865c4d0f5fb44256", "name": "ffb436150720493b865c4d0f5fb44256", "type": "electric_scooter", "lon": -77.04119633333333, "rental_uris": {"android": "https://dc.lft.to/lastmile_qr_scan", "ios": "https://dc.lft.to/lastmile_qr_scan"}, "lat": 38.901385833333336, "is_reserved": 0, "is_disabled": 0, "fusion_lat": 0.0}, {"fusion_lon": 0.0, "bike_id": "24491fbaa7091c7d0279e5e76273790a", "name": "24491fbaa7091c7d0279e5e76273790a", "type": "electric_scooter", "lon": -76.99538333333334, "rental_uris": {"android": "https://dc.lft.to/lastmile_qr_scan", "ios": "https://dc.lft.to/lastmile_qr_scan"}, "lat": 38.90032733333334, "is_reserved": 0, "is_disabled": 0, "fusion_lat": 0.0}, {"fusion_lon": 0.0, "bike_id": "e62d2b56b8e2db963453eeab976578e3", "name": "e62d2b56b8e2db963453eeab976578e3", "type": "electric_bike", "lon": -77.10735916666667, "rental_uris": {"android": "https://dc.lft.to/lastmile_qr_scan", "ios": "https://dc.lft.to/lastmile_qr_scan"}, "lat": 38.8552315, "is_reserved": 0, "is_disabled": 0, "fusion_lat": 0.0}, {"fusion_lon": 0.0, "bike_id": "472b5b5408343fb4b8065ded20cc0a70", "name": "472b5b5408343fb4b8065ded20cc0a70", "type": "electric_scooter", "lon": -77.03463933333333, "rental_uris": {"android": "https://dc.lft.to/lastmile_qr_scan", "ios": "https://dc.lft.to/lastmile_qr_scan"}, "lat": 38.918122, "is_reserved": 0, "is_disabled": 0, "fusion_lat": 0.0}, {"fusion_lon": 0.0, "bike_id": "f02ad573b85f50a68adc8eb284ed4be2", "name": "f02ad573b85f50a68adc8eb284ed4be2", "type": "electric_bike", "lon": -76.94859716666667, "rental_uris": {"android": "https://dc.lft.to/lastmile_qr_scan", "ios": "https://dc.lft.to/lastmile_qr_scan"}, "lat": 38.88963066666667, "is_reserved": 0, "is_disabled": 0, "fusion_lat": 0.0}, {"fusion_lon": 0.0, "bike_id": "b5b07e93a489ffa4221eae395b323c83", "name": "b5b07e93a489ffa4221eae395b323c83", "type": "electric_bike", "lon": -76.87773183333333, "rental_uris": {"android": "https://dc.lft.to/lastmile_qr_scan", "ios": "https://dc.lft.to/lastmile_qr_scan"}, "lat": 38.9922165, "is_reserved": 0, "is_disabled": 0, "fusion_lat": 0.0}, {"fusion_lon": 0.0, "bike_id": "ca965d374cf5be6aa7fdf9fb3afe3fc7", "name": "ca965d374cf5be6aa7fdf9fb3afe3fc7", "type": "electric_scooter", "lon": -77.02222266666666, "rental_uris": {"android": "https://dc.lft.to/lastmile_qr_scan", "ios": "https://dc.lft.to/lastmile_qr_scan"}, "lat": 38.91270133333333, "is_reserved": 0, "is_disabled": 0, "fusion_lat": 0.0}, {"fusion_lon": 0.0, "bike_id": "6f15ea9248644ab043e395c71c8cddd4", "name": "6f15ea9248644ab043e395c71c8cddd4", "type": "electric_bike", "lon": -76.96384483333334, "rental_uris": {"android": "https://dc.lft.to/lastmile_qr_scan", "ios": "https://dc.lft.to/lastmile_qr_scan"}, "lat": 38.9758225, "is_reserved": 0, "is_disabled": 0, "fusion_lat": 0.0}, {"fusion_lon": 0.0, "bike_id": "e9bef9d9fd618f32f5f051e5bf4c4e37", "name": "e9bef9d9fd618f32f5f051e5bf4c4e37", "type": "electric_scooter", "lon": -77.02423833333333, "rental_uris": {"android": "https://dc.lft.to/lastmile_qr_scan", "ios": "https://dc.lft.to/lastmile_qr_scan"}, "lat": 38.91823383333333, "is_reserved": 0, "is_disabled": 0, "fusion_lat": 0.0}, {"fusion_lon": 0.0, "bike_id": "5b5430aaef943a4b1cb9bdd9ce468758", "name": "5b5430aaef943a4b1cb9bdd9ce468758", "type": "electric_scooter", "lon": -77.03637666666667, "rental_uris": {"android": "https://dc.lft.to/lastmile_qr_scan", "ios": "https://dc.lft.to/lastmile_qr_scan"}, "lat": 38.91223166666666, "is_reserved": 0, "is_disabled": 0, "fusion_lat": 0.0}, {"fusion_lon": 0.0, "bike_id": "180a50845602883d0899e71bf3b486fe", "name": "180a50845602883d0899e71bf3b486fe", "type": "electric_scooter", "lon": -77.0248315, "rental_uris": {"android": "https://dc.lft.to/lastmile_qr_scan", "ios": "https://dc.lft.to/lastmile_qr_scan"}, "lat": 38.9161025, "is_reserved": 0, "is_disabled": 0, "fusion_lat": 0.0}, {"fusion_lon": 0.0, "bike_id": "c5cafa1bbf17440566f1d272b942319a", "name": "c5cafa1bbf17440566f1d272b942319a", "type": "electric_scooter", "lon": -77.07987416666667, "rental_uris": {"android": "https://dc.lft.to/lastmile_qr_scan", "ios": "https://dc.lft.to/lastmile_qr_scan"}, "lat": 38.9236715, "is_reserved": 0, "is_disabled": 0, "fusion_lat": 0.0}, {"fusion_lon": 0.0, "bike_id": "c3129d527d0c90eeb860a67e77a802d4", "name": "c3129d527d0c90eeb860a67e77a802d4", "type": "electric_scooter", "lon": -77.05096966666666, "rental_uris": {"android": "https://dc.lft.to/lastmile_qr_scan", "ios": "https://dc.lft.to/lastmile_qr_scan"}, "lat": 38.923449166666664, "is_reserved": 0, "is_disabled": 0, "fusion_lat": 0.0}, {"fusion_lon": 0.0, "bike_id": "8c272f7ada2a030483f83c720e3585e4", "name": "8c272f7ada2a030483f83c720e3585e4", "type": "electric_scooter", "lon": -77.021675, "rental_uris": {"android": "https://dc.lft.to/lastmile_qr_scan", "ios": "https://dc.lft.to/lastmile_qr_scan"}, "lat": 38.900027333333334, "is_reserved": 0, "is_disabled": 0, "fusion_lat": 0.0}, {"fusion_lon": 0.0, "bike_id": "9788ef23d73e03b5b231440dc34cb19d", "name": "9788ef23d73e03b5b231440dc34cb19d", "type": "electric_scooter", "lon": -77.001981, "rental_uris": {"android": "https://dc.lft.to/lastmile_qr_scan", "ios": "https://dc.lft.to/lastmile_qr_scan"}, "lat": 38.9022925, "is_reserved": 0, "is_disabled": 0, "fusion_lat": 0.0}, {"fusion_lon": 0.0, "bike_id": "670e60549afcf36ddf63d943b78de053", "name": "670e60549afcf36ddf63d943b78de053", "type": "electric_scooter", "lon": -77.03849533333333, "rental_uris": {"android": "https://dc.lft.to/lastmile_qr_scan", "ios": "https://dc.lft.to/lastmile_qr_scan"}, "lat": 38.9101335, "is_reserved": 0, "is_disabled": 0, "fusion_lat": 0.0}, {"fusion_lon": 0.0, "bike_id": "7b0d678b81aa64f6d078886dcda800c8", "name": "7b0d678b81aa64f6d078886dcda800c8", "type": "electric_scooter", "lon": -77.04023733333334, "rental_uris": {"android": "https://dc.lft.to/lastmile_qr_scan", "ios": "https://dc.lft.to/lastmile_qr_scan"}, "lat": 38.922004666666666, "is_reserved": 0, "is_disabled": 0, "fusion_lat": 0.0}, {"fusion_lon": 0.0, "bike_id": "224c34e77647f5e95cba4dfd133adcfc", "name": "224c34e77647f5e95cba4dfd133adcfc", "type": "electric_scooter", "lon": -77.02632816666667, "rental_uris": {"android": "https://dc.lft.to/lastmile_qr_scan", "ios": "https://dc.lft.to/lastmile_qr_scan"}, "lat": 38.93275933333334, "is_reserved": 0, "is_disabled": 0, "fusion_lat": 0.0}, {"fusion_lon": 0.0, "bike_id": "855d3d424af185c3f15ca739362fc855", "name": "855d3d424af185c3f15ca739362fc855", "type": "electric_bike", "lon": -76.97330566666666, "rental_uris": {"android": "https://dc.lft.to/lastmile_qr_scan", "ios": "https://dc.lft.to/lastmile_qr_scan"}, "lat": 38.85065983333333, "is_reserved": 0, "is_disabled": 0, "fusion_lat": 0.0}, {"fusion_lon": 0.0, "bike_id": "3b22a1052d2977baa6f7aab75b402f54", "name": "3b22a1052d2977baa6f7aab75b402f54", "type": "electric_scooter", "lon": -77.046567, "rental_uris": {"android": "https://dc.lft.to/lastmile_qr_scan", "ios": "https://dc.lft.to/lastmile_qr_scan"}, "lat": 38.9037325, "is_reserved": 0, "is_disabled": 0, "fusion_lat": 0.0}, {"fusion_lon": 0.0, "bike_id": "f95c4e17892ed38e799cb250314ac2e9", "name": "f95c4e17892ed38e799cb250314ac2e9", "type": "electric_scooter", "lon": -77.008644, "rental_uris": {"android": "https://dc.lft.to/lastmile_qr_scan", "ios": "https://dc.lft.to/lastmile_qr_scan"}, "lat": 38.90619233333334, "is_reserved": 0, "is_disabled": 0, "fusion_lat": 0.0}, {"fusion_lon": 0.0, "bike_id": "974d036c7d310956a5c80b2ee658c91d", "name": "974d036c7d310956a5c80b2ee658c91d", "type": "electric_bike", "lon": -77.01298383333334, "rental_uris": {"android": "https://dc.lft.to/lastmile_qr_scan", "ios": "https://dc.lft.to/lastmile_qr_scan"}, "lat": 38.88141, "is_reserved": 0, "is_disabled": 0, "fusion_lat": 0.0}, {"fusion_lon": 0.0, "bike_id": "fe06033dfecf2cdac5a5aac0a1c6acd0", "name": "fe06033dfecf2cdac5a5aac0a1c6acd0", "type": "electric_scooter", "lon": -77.024441, "rental_uris": {"android": "https://dc.lft.to/lastmile_qr_scan", "ios": "https://dc.lft.to/lastmile_qr_scan"}, "lat": 38.9236755, "is_reserved": 0, "is_disabled": 0, "fusion_lat": 0.0}, {"fusion_lon": 0.0, "bike_id": "8cb56456e1e0d0ec1754f49579c79f0f", "name": "8cb56456e1e0d0ec1754f49579c79f0f", "type": "electric_scooter", "lon": -77.042097, "rental_uris": {"android": "https://dc.lft.to/lastmile_qr_scan", "ios": "https://dc.lft.to/lastmile_qr_scan"}, "lat": 38.917067333333335, "is_reserved": 0, "is_disabled": 0, "fusion_lat": 0.0}, {"fusion_lon": 0.0, "bike_id": "b24b1e57c75308d427911cddee3f1132", "name": "b24b1e57c75308d427911cddee3f1132", "type": "electric_scooter", "lon": -76.93187116666667, "rental_uris": {"android": "https://dc.lft.to/lastmile_qr_scan", "ios": "https://dc.lft.to/lastmile_qr_scan"}, "lat": 38.8987725, "is_reserved": 0, "is_disabled": 0, "fusion_lat": 0.0}, {"fusion_lon": 0.0, "bike_id": "5e4ed13d6f0d22a5ecba1adf7552ad42", "name": "5e4ed13d6f0d22a5ecba1adf7552ad42", "type": "electric_scooter", "lon": -77.073015, "rental_uris": {"android": "https://dc.lft.to/lastmile_qr_scan", "ios": "https://dc.lft.to/lastmile_qr_scan"}, "lat": 38.92160766666667, "is_reserved": 0, "is_disabled": 0, "fusion_lat": 0.0}, {"fusion_lon": 0.0, "bike_id": "99e791c3298e0ea85eab0566ae5f2d3c", "name": "99e791c3298e0ea85eab0566ae5f2d3c", "type": "electric_scooter", "lon": -77.01816466666666, "rental_uris": {"android": "https://dc.lft.to/lastmile_qr_scan", "ios": "https://dc.lft.to/lastmile_qr_scan"}, "lat": 38.9220405, "is_reserved": 0, "is_disabled": 0, "fusion_lat": 0.0}, {"fusion_lon": 0.0, "bike_id": "1686eaaec6d741f184a31df707daae09", "name": "1686eaaec6d741f184a31df707daae09", "type": "electric_bike", "lon": -77.0430895, "rental_uris": {"android": "https://dc.lft.to/lastmile_qr_scan", "ios": "https://dc.lft.to/lastmile_qr_scan"}, "lat": 39.054491166666665, "is_reserved": 0, "is_disabled": 0, "fusion_lat": 0.0}, {"fusion_lon": 0.0, "bike_id": "56a40504bbbe3570c1f9d4d9157f7f92", "name": "56a40504bbbe3570c1f9d4d9157f7f92", "type": "electric_bike", "lon": -77.1784575, "rental_uris": {"android": "https://dc.lft.to/lastmile_qr_scan", "ios": "https://dc.lft.to/lastmile_qr_scan"}, "lat": 39.08907033333333, "is_reserved": 0, "is_disabled": 0, "fusion_lat": 0.0}, {"fusion_lon": 0.0, "bike_id": "703f5ccbe72dd269395f47c073d9dff2", "name": "703f5ccbe72dd269395f47c073d9dff2", "type": "electric_scooter", "lon": -76.99857533333333, "rental_uris": {"android": "https://dc.lft.to/lastmile_qr_scan", "ios": "https://dc.lft.to/lastmile_qr_scan"}, "lat": 38.908979333333335, "is_reserved": 0, "is_disabled": 0, "fusion_lat": 0.0}, {"fusion_lon": 0.0, "bike_id": "bae32aac7e6b4ec1a875d595d4b4b2d5", "name": "bae32aac7e6b4ec1a875d595d4b4b2d5", "type": "electric_scooter", "lon": -76.986493, "rental_uris": {"android": "https://dc.lft.to/lastmile_qr_scan", "ios": "https://dc.lft.to/lastmile_qr_scan"}, "lat": 38.90143616666667, "is_reserved": 0, "is_disabled": 0, "fusion_lat": 0.0}, {"fusion_lon": 0.0, "bike_id": "e23355b98b2031400f5ac1daf5e901d5", "name": "e23355b98b2031400f5ac1daf5e901d5", "type": "electric_bike", "lon": -77.34411183333333, "rental_uris": {"android": "https://dc.lft.to/lastmile_qr_scan", "ios": "https://dc.lft.to/lastmile_qr_scan"}, "lat": 38.945905, "is_reserved": 0, "is_disabled": 0, "fusion_lat": 0.0}, {"fusion_lon": 0.0, "bike_id": "33b064849aa44a75486e39493dae2a2b", "name": "33b064849aa44a75486e39493dae2a2b", "type": "electric_bike", "lon": -77.14326333333334, "rental_uris": {"android": "https://dc.lft.to/lastmile_qr_scan", "ios": "https://dc.lft.to/lastmile_qr_scan"}, "lat": 39.054607, "is_reserved": 0, "is_disabled": 0, "fusion_lat": 0.0}, {"fusion_lon": 0.0, "bike_id": "cf0e2537c3e7e5d6c2d0be77dd5ca584", "name": "cf0e2537c3e7e5d6c2d0be77dd5ca584", "type": "electric_scooter", "lon": -76.99623733333334, "rental_uris": {"android": "https://dc.lft.to/lastmile_qr_scan", "ios": "https://dc.lft.to/lastmile_qr_scan"}, "lat": 38.846815166666666, "is_reserved": 0, "is_disabled": 0, "fusion_lat": 0.0}, {"fusion_lon": 0.0, "bike_id": "111d77548283d4d1e11b8fc3f4eb6e17", "name": "111d77548283d4d1e11b8fc3f4eb6e17", "type": "electric_scooter", "lon": -77.013744, "rental_uris": {"android": "https://dc.lft.to/lastmile_qr_scan", "ios": "https://dc.lft.to/lastmile_qr_scan"}, "lat": 38.88641416666667, "is_reserved": 0, "is_disabled": 0, "fusion_lat": 0.0}, {"fusion_lon": 0.0, "bike_id": "b6a37a90694234d8c95594b17163cbeb", "name": "b6a37a90694234d8c95594b17163cbeb", "type": "electric_scooter", "lon": -77.06190716666667, "rental_uris": {"android": "https://dc.lft.to/lastmile_qr_scan", "ios": "https://dc.lft.to/lastmile_qr_scan"}, "lat": 38.930155166666665, "is_reserved": 0, "is_disabled": 0, "fusion_lat": 0.0}, {"fusion_lon": 0.0, "bike_id": "1f5ccc8ba3401a67ec698d506e1b73f1", "name": "1f5ccc8ba3401a67ec698d506e1b73f1", "type": "electric_scooter", "lon": -77.03411283333334, "rental_uris": {"android": "https://dc.lft.to/lastmile_qr_scan", "ios": "https://dc.lft.to/lastmile_qr_scan"}, "lat": 38.919264166666665, "is_reserved": 0, "is_disabled": 0, "fusion_lat": 0.0}, {"fusion_lon": 0.0, "bike_id": "52d291b60f55ff6dd7cb7ff5b6e0e120", "name": "52d291b60f55ff6dd7cb7ff5b6e0e120", "type": "electric_scooter", "lon": -77.03520866666666, "rental_uris": {"android": "https://dc.lft.to/lastmile_qr_scan", "ios": "https://dc.lft.to/lastmile_qr_scan"}, "lat": 38.92730016666667, "is_reserved": 0, "is_disabled": 0, "fusion_lat": 0.0}, {"fusion_lon": 0.0, "bike_id": "5d013bcf1d3487cf9b2a0a2e2b6662fc", "name": "5d013bcf1d3487cf9b2a0a2e2b6662fc", "type": "electric_scooter", "lon": -77.02847216666666, "rental_uris": {"android": "https://dc.lft.to/lastmile_qr_scan", "ios": "https://dc.lft.to/lastmile_qr_scan"}, "lat": 38.923784166666664, "is_reserved": 0, "is_disabled": 0, "fusion_lat": 0.0}, {"fusion_lon": 0.0, "bike_id": "3b848a8478ea0e019c3f33043ce079e3", "name": "3b848a8478ea0e019c3f33043ce079e3", "type": "electric_scooter", "lon": -77.00602533333333, "rental_uris": {"android": "https://dc.lft.to/lastmile_qr_scan", "ios": "https://dc.lft.to/lastmile_qr_scan"}, "lat": 38.911221833333336, "is_reserved": 0, "is_disabled": 0, "fusion_lat": 0.0}, {"fusion_lon": 0.0, "bike_id": "749058edc18d205404c30437c41a7b78", "name": "749058edc18d205404c30437c41a7b78", "type": "electric_scooter", "lon": -77.03765, "rental_uris": {"android": "https://dc.lft.to/lastmile_qr_scan", "ios": "https://dc.lft.to/lastmile_qr_scan"}, "lat": 38.935766666666666, "is_reserved": 0, "is_disabled": 0, "fusion_lat": 0.0}, {"fusion_lon": 0.0, "bike_id": "3e1e3f95ec574f3f6dd4ea2c01fbc6eb", "name": "3e1e3f95ec574f3f6dd4ea2c01fbc6eb", "type": "electric_scooter", "lon": -76.98885683333333, "rental_uris": {"android": "https://dc.lft.to/lastmile_qr_scan", "ios": "https://dc.lft.to/lastmile_qr_scan"}, "lat": 38.866740666666665, "is_reserved": 0, "is_disabled": 0, "fusion_lat": 0.0}, {"fusion_lon": 0.0, "bike_id": "3f77d81fbdd6d995c497d7e283db1b1d", "name": "3f77d81fbdd6d995c497d7e283db1b1d", "type": "electric_scooter", "lon": -77.0019705, "rental_uris": {"android": "https://dc.lft.to/lastmile_qr_scan", "ios": "https://dc.lft.to/lastmile_qr_scan"}, "lat": 38.911672833333334, "is_reserved": 0, "is_disabled": 0, "fusion_lat": 0.0}, {"fusion_lon": 0.0, "bike_id": "e1125f431c22e3d520b597caea30d1d4", "name": "e1125f431c22e3d520b597caea30d1d4", "type": "electric_scooter", "lon": -76.94852933333334, "rental_uris": {"android": "https://dc.lft.to/lastmile_qr_scan", "ios": "https://dc.lft.to/lastmile_qr_scan"}, "lat": 38.883018, "is_reserved": 0, "is_disabled": 0, "fusion_lat": 0.0}, {"fusion_lon": 0.0, "bike_id": "a08aef38d1a3d3ef0ba4f9fbffd03d82", "name": "a08aef38d1a3d3ef0ba4f9fbffd03d82", "type": "electric_scooter", "lon": -76.99029333333333, "rental_uris": {"android": "https://dc.lft.to/lastmile_qr_scan", "ios": "https://dc.lft.to/lastmile_qr_scan"}, "lat": 38.860727, "is_reserved": 0, "is_disabled": 0, "fusion_lat": 0.0}, {"fusion_lon": 0.0, "bike_id": "32dcb5f31a708d81bb327eae6b7ff571", "name": "32dcb5f31a708d81bb327eae6b7ff571", "type": "electric_scooter", "lon": -77.01771583333333, "rental_uris": {"android": "https://dc.lft.to/lastmile_qr_scan", "ios": "https://dc.lft.to/lastmile_qr_scan"}, "lat": 38.902457, "is_reserved": 0, "is_disabled": 0, "fusion_lat": 0.0}, {"fusion_lon": 0.0, "bike_id": "a2592a64a818dbe0061cabb21f6b02f3", "name": "a2592a64a818dbe0061cabb21f6b02f3", "type": "electric_scooter", "lon": -77.04765683333333, "rental_uris": {"android": "https://dc.lft.to/lastmile_qr_scan", "ios": "https://dc.lft.to/lastmile_qr_scan"}, "lat": 38.908512, "is_reserved": 0, "is_disabled": 0, "fusion_lat": 0.0}, {"fusion_lon": 0.0, "bike_id": "60b88848205cae00d6b4e5233496df22", "name": "60b88848205cae00d6b4e5233496df22", "type": "electric_scooter", "lon": -76.98713233333334, "rental_uris": {"android": "https://dc.lft.to/lastmile_qr_scan", "ios": "https://dc.lft.to/lastmile_qr_scan"}, "lat": 38.86699216666667, "is_reserved": 0, "is_disabled": 0, "fusion_lat": 0.0}, {"fusion_lon": 0.0, "bike_id": "76b01b548dae3569debc1360293eb674", "name": "76b01b548dae3569debc1360293eb674", "type": "electric_bike", "lon": -77.12509383333334, "rental_uris": {"android": "https://dc.lft.to/lastmile_qr_scan", "ios": "https://dc.lft.to/lastmile_qr_scan"}, "lat": 39.024249166666664, "is_reserved": 0, "is_disabled": 0, "fusion_lat": 0.0}, {"fusion_lon": 0.0, "bike_id": "04c658a0d15241867e217889a597f840", "name": "04c658a0d15241867e217889a597f840", "type": "electric_bike", "lon": -76.99566316666667, "rental_uris": {"android": "https://dc.lft.to/lastmile_qr_scan", "ios": "https://dc.lft.to/lastmile_qr_scan"}, "lat": 39.007832, "is_reserved": 0, "is_disabled": 0, "fusion_lat": 0.0}, {"fusion_lon": 0.0, "bike_id": "6bac6b601b14170a9f4fc1e000066de2", "name": "6bac6b601b14170a9f4fc1e000066de2", "type": "electric_bike", "lon": -77.09565216666667, "rental_uris": {"android": "https://dc.lft.to/lastmile_qr_scan", "ios": "https://dc.lft.to/lastmile_qr_scan"}, "lat": 38.917046166666665, "is_reserved": 0, "is_disabled": 0, "fusion_lat": 0.0}, {"fusion_lon": 0.0, "bike_id": "0b6c6f4ba551b9688e9d4962c6b967bd", "name": "0b6c6f4ba551b9688e9d4962c6b967bd", "type": "electric_scooter", "lon": -77.02670483333333, "rental_uris": {"android": "https://dc.lft.to/lastmile_qr_scan", "ios": "https://dc.lft.to/lastmile_qr_scan"}, "lat": 38.896001166666665, "is_reserved": 0, "is_disabled": 0, "fusion_lat": 0.0}, {"fusion_lon": 0.0, "bike_id": "1c5c677239149e98184eb31993671d81", "name": "1c5c677239149e98184eb31993671d81", "type": "electric_scooter", "lon": -77.032136, "rental_uris": {"android": "https://dc.lft.to/lastmile_qr_scan", "ios": "https://dc.lft.to/lastmile_qr_scan"}, "lat": 38.92579283333333, "is_reserved": 0, "is_disabled": 0, "fusion_lat": 0.0}, {"fusion_lon": 0.0, "bike_id": "25bc2c06c45f3b53e7b10eef08cc9aad", "name": "25bc2c06c45f3b53e7b10eef08cc9aad", "type": "electric_scooter", "lon": -77.02155216666667, "rental_uris": {"android": "https://dc.lft.to/lastmile_qr_scan", "ios": "https://dc.lft.to/lastmile_qr_scan"}, "lat": 38.92604883333333, "is_reserved": 0, "is_disabled": 0, "fusion_lat": 0.0}, {"fusion_lon": 0.0, "bike_id": "be223d9ae5a2ddc48bfca342bd544209", "name": "be223d9ae5a2ddc48bfca342bd544209", "type": "electric_scooter", "lon": -77.03194483333333, "rental_uris": {"android": "https://dc.lft.to/lastmile_qr_scan", "ios": "https://dc.lft.to/lastmile_qr_scan"}, "lat": 38.897423333333336, "is_reserved": 0, "is_disabled": 0, "fusion_lat": 0.0}, {"fusion_lon": 0.0, "bike_id": "2b29acd05219d4a8087d3daf73f9f4ad", "name": "2b29acd05219d4a8087d3daf73f9f4ad", "type": "electric_scooter", "lon": -77.03531916666667, "rental_uris": {"android": "https://dc.lft.to/lastmile_qr_scan", "ios": "https://dc.lft.to/lastmile_qr_scan"}, "lat": 38.92470566666667, "is_reserved": 0, "is_disabled": 0, "fusion_lat": 0.0}, {"fusion_lon": 0.0, "bike_id": "e4ffff27fbac174d1d65d3ff7193ecae", "name": "e4ffff27fbac174d1d65d3ff7193ecae", "type": "electric_scooter", "lon": -77.00901116666667, "rental_uris": {"android": "https://dc.lft.to/lastmile_qr_scan", "ios": "https://dc.lft.to/lastmile_qr_scan"}, "lat": 38.873197, "is_reserved": 0, "is_disabled": 0, "fusion_lat": 0.0}, {"fusion_lon": 0.0, "bike_id": "077896196ccf361b5006a023ed8efbc7", "name": "077896196ccf361b5006a023ed8efbc7", "type": "electric_scooter", "lon": -77.01695583333333, "rental_uris": {"android": "https://dc.lft.to/lastmile_qr_scan", "ios": "https://dc.lft.to/lastmile_qr_scan"}, "lat": 38.90519583333333, "is_reserved": 0, "is_disabled": 0, "fusion_lat": 0.0}, {"fusion_lon": 0.0, "bike_id": "74bdddf605afbcc009144a540c854e85", "name": "74bdddf605afbcc009144a540c854e85", "type": "electric_scooter", "lon": -76.98813833333334, "rental_uris": {"android": "https://dc.lft.to/lastmile_qr_scan", "ios": "https://dc.lft.to/lastmile_qr_scan"}, "lat": 38.887084333333334, "is_reserved": 0, "is_disabled": 0, "fusion_lat": 0.0}, {"fusion_lon": 0.0, "bike_id": "f36b00d58532f82001c0155046ecb7db", "name": "f36b00d58532f82001c0155046ecb7db", "type": "electric_scooter", "lon": -77.00064383333333, "rental_uris": {"android": "https://dc.lft.to/lastmile_qr_scan", "ios": "https://dc.lft.to/lastmile_qr_scan"}, "lat": 38.8929425, "is_reserved": 0, "is_disabled": 0, "fusion_lat": 0.0}, {"fusion_lon": 0.0, "bike_id": "37e9d22ed253021888c523ff9a846104", "name": "37e9d22ed253021888c523ff9a846104", "type": "electric_scooter", "lon": -77.03843833333333, "rental_uris": {"android": "https://dc.lft.to/lastmile_qr_scan", "ios": "https://dc.lft.to/lastmile_qr_scan"}, "lat": 38.91447566666667, "is_reserved": 0, "is_disabled": 0, "fusion_lat": 0.0}, {"fusion_lon": 0.0, "bike_id": "a389a4c05e32cf305bee90d4a084d5d6", "name": "a389a4c05e32cf305bee90d4a084d5d6", "type": "electric_scooter", "lon": -77.04058133333334, "rental_uris": {"android": "https://dc.lft.to/lastmile_qr_scan", "ios": "https://dc.lft.to/lastmile_qr_scan"}, "lat": 38.905063, "is_reserved": 0, "is_disabled": 0, "fusion_lat": 0.0}, {"fusion_lon": 0.0, "bike_id": "297f3bf29b454359e6627682ce10291c", "name": "297f3bf29b454359e6627682ce10291c", "type": "electric_scooter", "lon": -77.05815533333333, "rental_uris": {"android": "https://dc.lft.to/lastmile_qr_scan", "ios": "https://dc.lft.to/lastmile_qr_scan"}, "lat": 38.90299, "is_reserved": 0, "is_disabled": 0, "fusion_lat": 0.0}, {"fusion_lon": 0.0, "bike_id": "0fa853754505433a60f490d305b9f688", "name": "0fa853754505433a60f490d305b9f688", "type": "electric_bike", "lon": -77.077959, "rental_uris": {"android": "https://dc.lft.to/lastmile_qr_scan", "ios": "https://dc.lft.to/lastmile_qr_scan"}, "lat": 38.8451695, "is_reserved": 0, "is_disabled": 0, "fusion_lat": 0.0}, {"fusion_lon": 0.0, "bike_id": "860e430cdd3912862fa7a927d4306c05", "name": "860e430cdd3912862fa7a927d4306c05", "type": "electric_scooter", "lon": -77.0728555, "rental_uris": {"android": "https://dc.lft.to/lastmile_qr_scan", "ios": "https://dc.lft.to/lastmile_qr_scan"}, "lat": 38.93184483333334, "is_reserved": 0, "is_disabled": 0, "fusion_lat": 0.0}, {"fusion_lon": 0.0, "bike_id": "9192724cc3467dff06716f56af1e1118", "name": "9192724cc3467dff06716f56af1e1118", "type": "electric_scooter", "lon": -77.04481966666667, "rental_uris": {"android": "https://dc.lft.to/lastmile_qr_scan", "ios": "https://dc.lft.to/lastmile_qr_scan"}, "lat": 38.89749416666667, "is_reserved": 0, "is_disabled": 0, "fusion_lat": 0.0}, {"fusion_lon": 0.0, "bike_id": "9075b6ae711b2df23bd80eedfa1195e8", "name": "9075b6ae711b2df23bd80eedfa1195e8", "type": "electric_scooter", "lon": -77.02958066666666, "rental_uris": {"android": "https://dc.lft.to/lastmile_qr_scan", "ios": "https://dc.lft.to/lastmile_qr_scan"}, "lat": 38.92144016666666, "is_reserved": 0, "is_disabled": 0, "fusion_lat": 0.0}, {"fusion_lon": 0.0, "bike_id": "964f82537f417790486127209664bfb6", "name": "964f82537f417790486127209664bfb6", "type": "electric_scooter", "lon": -76.99495133333333, "rental_uris": {"android": "https://dc.lft.to/lastmile_qr_scan", "ios": "https://dc.lft.to/lastmile_qr_scan"}, "lat": 38.92582783333334, "is_reserved": 0, "is_disabled": 0, "fusion_lat": 0.0}, {"fusion_lon": 0.0, "bike_id": "dd351023662d01f97ff8fa9ca4a2573a", "name": "dd351023662d01f97ff8fa9ca4a2573a", "type": "electric_scooter", "lon": -77.058537, "rental_uris": {"android": "https://dc.lft.to/lastmile_qr_scan", "ios": "https://dc.lft.to/lastmile_qr_scan"}, "lat": 38.937015833333334, "is_reserved": 0, "is_disabled": 0, "fusion_lat": 0.0}, {"fusion_lon": 0.0, "bike_id": "7c9640792f13d91b6c509682f6486fde", "name": "7c9640792f13d91b6c509682f6486fde", "type": "electric_scooter", "lon": -77.02494133333333, "rental_uris": {"android": "https://dc.lft.to/lastmile_qr_scan", "ios": "https://dc.lft.to/lastmile_qr_scan"}, "lat": 38.941854, "is_reserved": 0, "is_disabled": 0, "fusion_lat": 0.0}, {"fusion_lon": 0.0, "bike_id": "5288606ceaf75bea5cf6e13088b9dc96", "name": "5288606ceaf75bea5cf6e13088b9dc96", "type": "electric_scooter", "lon": -77.048387, "rental_uris": {"android": "https://dc.lft.to/lastmile_qr_scan", "ios": "https://dc.lft.to/lastmile_qr_scan"}, "lat": 38.916230166666665, "is_reserved": 0, "is_disabled": 0, "fusion_lat": 0.0}, {"fusion_lon": 0.0, "bike_id": "3d0741de6eb692fc06c895e56eca196e", "name": "3d0741de6eb692fc06c895e56eca196e", "type": "electric_scooter", "lon": -77.04162583333333, "rental_uris": {"android": "https://dc.lft.to/lastmile_qr_scan", "ios": "https://dc.lft.to/lastmile_qr_scan"}, "lat": 38.919782, "is_reserved": 0, "is_disabled": 0, "fusion_lat": 0.0}, {"fusion_lon": 0.0, "bike_id": "8ab928da4cf0334010fb60e14d04bf62", "name": "8ab928da4cf0334010fb60e14d04bf62", "type": "electric_scooter", "lon": -77.03396316666667, "rental_uris": {"android": "https://dc.lft.to/lastmile_qr_scan", "ios": "https://dc.lft.to/lastmile_qr_scan"}, "lat": 38.920483833333336, "is_reserved": 0, "is_disabled": 0, "fusion_lat": 0.0}, {"fusion_lon": 0.0, "bike_id": "2760e5dc78e3db8f84c0e9399280efea", "name": "2760e5dc78e3db8f84c0e9399280efea", "type": "electric_scooter", "lon": -77.02079833333333, "rental_uris": {"android": "https://dc.lft.to/lastmile_qr_scan", "ios": "https://dc.lft.to/lastmile_qr_scan"}, "lat": 38.952125333333335, "is_reserved": 0, "is_disabled": 0, "fusion_lat": 0.0}, {"fusion_lon": 0.0, "bike_id": "2d38218086ff95bc0ac1802619373b91", "name": "2d38218086ff95bc0ac1802619373b91", "type": "electric_scooter", "lon": -77.02175283333334, "rental_uris": {"android": "https://dc.lft.to/lastmile_qr_scan", "ios": "https://dc.lft.to/lastmile_qr_scan"}, "lat": 38.94310933333333, "is_reserved": 0, "is_disabled": 0, "fusion_lat": 0.0}, {"fusion_lon": 0.0, "bike_id": "6a68ff3e740f8946bce9e4b89f759301", "name": "6a68ff3e740f8946bce9e4b89f759301", "type": "electric_scooter", "lon": -77.02091383333334, "rental_uris": {"android": "https://dc.lft.to/lastmile_qr_scan", "ios": "https://dc.lft.to/lastmile_qr_scan"}, "lat": 38.947261166666664, "is_reserved": 0, "is_disabled": 0, "fusion_lat": 0.0}, {"fusion_lon": 0.0, "bike_id": "eaa7cf48087b2f98a175d11e7dab49ed", "name": "eaa7cf48087b2f98a175d11e7dab49ed", "type": "electric_scooter", "lon": -76.98021766666666, "rental_uris": {"android": "https://dc.lft.to/lastmile_qr_scan", "ios": "https://dc.lft.to/lastmile_qr_scan"}, "lat": 38.864049666666666, "is_reserved": 0, "is_disabled": 0, "fusion_lat": 0.0}, {"fusion_lon": 0.0, "bike_id": "ec19c33fd315d46808df143a11bab93c", "name": "ec19c33fd315d46808df143a11bab93c", "type": "electric_scooter", "lon": -77.022846, "rental_uris": {"android": "https://dc.lft.to/lastmile_qr_scan", "ios": "https://dc.lft.to/lastmile_qr_scan"}, "lat": 38.91685116666667, "is_reserved": 0, "is_disabled": 0, "fusion_lat": 0.0}, {"fusion_lon": 0.0, "bike_id": "dc6d2e116c4af011ce9b6ace55a5dee1", "name": "dc6d2e116c4af011ce9b6ace55a5dee1", "type": "electric_scooter", "lon": -77.02847066666666, "rental_uris": {"android": "https://dc.lft.to/lastmile_qr_scan", "ios": "https://dc.lft.to/lastmile_qr_scan"}, "lat": 38.9223655, "is_reserved": 0, "is_disabled": 0, "fusion_lat": 0.0}, {"fusion_lon": 0.0, "bike_id": "48482cbafb1faabbcf53530446ad61bd", "name": "48482cbafb1faabbcf53530446ad61bd", "type": "electric_scooter", "lon": -77.00586216666666, "rental_uris": {"android": "https://dc.lft.to/lastmile_qr_scan", "ios": "https://dc.lft.to/lastmile_qr_scan"}, "lat": 38.8771955, "is_reserved": 0, "is_disabled": 0, "fusion_lat": 0.0}, {"fusion_lon": 0.0, "bike_id": "2080684f6e65f09fd99ad8777bf4087f", "name": "2080684f6e65f09fd99ad8777bf4087f", "type": "electric_bike", "lon": -76.98332966666666, "rental_uris": {"android": "https://dc.lft.to/lastmile_qr_scan", "ios": "https://dc.lft.to/lastmile_qr_scan"}, "lat": 38.96602383333333, "is_reserved": 0, "is_disabled": 0, "fusion_lat": 0.0}, {"fusion_lon": 0.0, "bike_id": "b29f1cec86d7b08fc008f65abacb379b", "name": "b29f1cec86d7b08fc008f65abacb379b", "type": "electric_scooter", "lon": -77.0532305, "rental_uris": {"android": "https://dc.lft.to/lastmile_qr_scan", "ios": "https://dc.lft.to/lastmile_qr_scan"}, "lat": 38.92773416666667, "is_reserved": 0, "is_disabled": 0, "fusion_lat": 0.0}, {"fusion_lon": 0.0, "bike_id": "87b4c2503a643ce4b3a17e2ff669ca22", "name": "87b4c2503a643ce4b3a17e2ff669ca22", "type": "electric_scooter", "lon": -77.02508116666667, "rental_uris": {"android": "https://dc.lft.to/lastmile_qr_scan", "ios": "https://dc.lft.to/lastmile_qr_scan"}, "lat": 38.919429666666666, "is_reserved": 0, "is_disabled": 0, "fusion_lat": 0.0}, {"fusion_lon": 0.0, "bike_id": "0101444afc24f86bb2a22c65581e4695", "name": "0101444afc24f86bb2a22c65581e4695", "type": "electric_scooter", "lon": -77.02496416666666, "rental_uris": {"android": "https://dc.lft.to/lastmile_qr_scan", "ios": "https://dc.lft.to/lastmile_qr_scan"}, "lat": 38.918087166666666, "is_reserved": 0, "is_disabled": 0, "fusion_lat": 0.0}, {"fusion_lon": 0.0, "bike_id": "15ec15956eea2eafb51563b5d3bd01b1", "name": "15ec15956eea2eafb51563b5d3bd01b1", "type": "electric_scooter", "lon": -76.99856833333334, "rental_uris": {"android": "https://dc.lft.to/lastmile_qr_scan", "ios": "https://dc.lft.to/lastmile_qr_scan"}, "lat": 38.900453666666664, "is_reserved": 0, "is_disabled": 0, "fusion_lat": 0.0}, {"fusion_lon": 0.0, "bike_id": "47e32c75cbca4f17fde0babc9fcef8e2", "name": "47e32c75cbca4f17fde0babc9fcef8e2", "type": "electric_scooter", "lon": -76.99001316666667, "rental_uris": {"android": "https://dc.lft.to/lastmile_qr_scan", "ios": "https://dc.lft.to/lastmile_qr_scan"}, "lat": 38.865068666666666, "is_reserved": 0, "is_disabled": 0, "fusion_lat": 0.0}, {"fusion_lon": 0.0, "bike_id": "ea746783974dc6cb0bb5632942d65764", "name": "ea746783974dc6cb0bb5632942d65764", "type": "electric_scooter", "lon": -76.934291, "rental_uris": {"android": "https://dc.lft.to/lastmile_qr_scan", "ios": "https://dc.lft.to/lastmile_qr_scan"}, "lat": 38.89967383333333, "is_reserved": 0, "is_disabled": 0, "fusion_lat": 0.0}, {"fusion_lon": 0.0, "bike_id": "089923a71438315f8162a0516cbc2fa1", "name": "089923a71438315f8162a0516cbc2fa1", "type": "electric_scooter", "lon": -77.0022605, "rental_uris": {"android": "https://dc.lft.to/lastmile_qr_scan", "ios": "https://dc.lft.to/lastmile_qr_scan"}, "lat": 38.89092383333333, "is_reserved": 0, "is_disabled": 0, "fusion_lat": 0.0}, {"fusion_lon": 0.0, "bike_id": "fdda161eb5dae2ac39653084274d10dd", "name": "fdda161eb5dae2ac39653084274d10dd", "type": "electric_scooter", "lon": -77.0618315, "rental_uris": {"android": "https://dc.lft.to/lastmile_qr_scan", "ios": "https://dc.lft.to/lastmile_qr_scan"}, "lat": 38.94089233333333, "is_reserved": 0, "is_disabled": 0, "fusion_lat": 0.0}, {"fusion_lon": 0.0, "bike_id": "da215fb26d1a26416d7df8829a709f71", "name": "da215fb26d1a26416d7df8829a709f71", "type": "electric_scooter", "lon": -77.027234, "rental_uris": {"android": "https://dc.lft.to/lastmile_qr_scan", "ios": "https://dc.lft.to/lastmile_qr_scan"}, "lat": 38.89630666666667, "is_reserved": 0, "is_disabled": 0, "fusion_lat": 0.0}, {"fusion_lon": 0.0, "bike_id": "486b2506880fd5272ec15b972ab502f4", "name": "486b2506880fd5272ec15b972ab502f4", "type": "electric_scooter", "lon": -77.00967916666667, "rental_uris": {"android": "https://dc.lft.to/lastmile_qr_scan", "ios": "https://dc.lft.to/lastmile_qr_scan"}, "lat": 38.907818666666664, "is_reserved": 0, "is_disabled": 0, "fusion_lat": 0.0}, {"fusion_lon": 0.0, "bike_id": "6ab810ff920f82901a7968a8f27eb4c8", "name": "6ab810ff920f82901a7968a8f27eb4c8", "type": "electric_scooter", "lon": -77.01597883333334, "rental_uris": {"android": "https://dc.lft.to/lastmile_qr_scan", "ios": "https://dc.lft.to/lastmile_qr_scan"}, "lat": 38.899709666666666, "is_reserved": 0, "is_disabled": 0, "fusion_lat": 0.0}, {"fusion_lon": 0.0, "bike_id": "a45c7ac911bb8012df050768ffc6ea15", "name": "a45c7ac911bb8012df050768ffc6ea15", "type": "electric_scooter", "lon": -77.017762, "rental_uris": {"android": "https://dc.lft.to/lastmile_qr_scan", "ios": "https://dc.lft.to/lastmile_qr_scan"}, "lat": 38.90255033333333, "is_reserved": 0, "is_disabled": 0, "fusion_lat": 0.0}, {"fusion_lon": 0.0, "bike_id": "8ae55614f2b4dec3a397bc31758976cf", "name": "8ae55614f2b4dec3a397bc31758976cf", "type": "electric_scooter", "lon": -77.03458216666667, "rental_uris": {"android": "https://dc.lft.to/lastmile_qr_scan", "ios": "https://dc.lft.to/lastmile_qr_scan"}, "lat": 38.921563666666664, "is_reserved": 0, "is_disabled": 0, "fusion_lat": 0.0}, {"fusion_lon": 0.0, "bike_id": "dc0bea68209e46cdc25c0b65bf29b97f", "name": "dc0bea68209e46cdc25c0b65bf29b97f", "type": "electric_scooter", "lon": -77.04420233333333, "rental_uris": {"android": "https://dc.lft.to/lastmile_qr_scan", "ios": "https://dc.lft.to/lastmile_qr_scan"}, "lat": 38.909014166666665, "is_reserved": 0, "is_disabled": 0, "fusion_lat": 0.0}, {"fusion_lon": 0.0, "bike_id": "f4736c5b4176a18e4913c3a85a4fd853", "name": "f4736c5b4176a18e4913c3a85a4fd853", "type": "electric_scooter", "lon": -77.01927666666667, "rental_uris": {"android": "https://dc.lft.to/lastmile_qr_scan", "ios": "https://dc.lft.to/lastmile_qr_scan"}, "lat": 38.94478616666667, "is_reserved": 0, "is_disabled": 0, "fusion_lat": 0.0}, {"fusion_lon": 0.0, "bike_id": "e8fee526cd116dc9cf11300c2996feee", "name": "e8fee526cd116dc9cf11300c2996feee", "type": "electric_scooter", "lon": -76.94714233333333, "rental_uris": {"android": "https://dc.lft.to/lastmile_qr_scan", "ios": "https://dc.lft.to/lastmile_qr_scan"}, "lat": 38.897094333333335, "is_reserved": 0, "is_disabled": 0, "fusion_lat": 0.0}, {"fusion_lon": 0.0, "bike_id": "46d791ea2b302ba0f84b7f0f810c3b82", "name": "46d791ea2b302ba0f84b7f0f810c3b82", "type": "electric_scooter", "lon": -76.97973, "rental_uris": {"android": "https://dc.lft.to/lastmile_qr_scan", "ios": "https://dc.lft.to/lastmile_qr_scan"}, "lat": 38.8876785, "is_reserved": 0, "is_disabled": 0, "fusion_lat": 0.0}, {"fusion_lon": 0.0, "bike_id": "40fe55ba67b5af706730124e8ec53c07", "name": "40fe55ba67b5af706730124e8ec53c07", "type": "electric_scooter", "lon": -77.06841483333334, "rental_uris": {"android": "https://dc.lft.to/lastmile_qr_scan", "ios": "https://dc.lft.to/lastmile_qr_scan"}, "lat": 38.952088, "is_reserved": 0, "is_disabled": 0, "fusion_lat": 0.0}, {"fusion_lon": 0.0, "bike_id": "3ca19516d572694e2ed57b996267c9bf", "name": "3ca19516d572694e2ed57b996267c9bf", "type": "electric_scooter", "lon": -77.0437755, "rental_uris": {"android": "https://dc.lft.to/lastmile_qr_scan", "ios": "https://dc.lft.to/lastmile_qr_scan"}, "lat": 38.91052533333333, "is_reserved": 0, "is_disabled": 0, "fusion_lat": 0.0}, {"fusion_lon": 0.0, "bike_id": "468a0d2058bb36c084535437237f0c9c", "name": "468a0d2058bb36c084535437237f0c9c", "type": "electric_scooter", "lon": -77.01475566666667, "rental_uris": {"android": "https://dc.lft.to/lastmile_qr_scan", "ios": "https://dc.lft.to/lastmile_qr_scan"}, "lat": 38.87634, "is_reserved": 0, "is_disabled": 0, "fusion_lat": 0.0}, {"fusion_lon": 0.0, "bike_id": "945d14aad944c28e6565a2e6da08174d", "name": "945d14aad944c28e6565a2e6da08174d", "type": "electric_scooter", "lon": -77.0269465, "rental_uris": {"android": "https://dc.lft.to/lastmile_qr_scan", "ios": "https://dc.lft.to/lastmile_qr_scan"}, "lat": 38.921791166666665, "is_reserved": 0, "is_disabled": 0, "fusion_lat": 0.0}, {"fusion_lon": 0.0, "bike_id": "27ab8717d7f2e9e512799bf8704fad5a", "name": "27ab8717d7f2e9e512799bf8704fad5a", "type": "electric_bike", "lon": -77.0035485, "rental_uris": {"android": "https://dc.lft.to/lastmile_qr_scan", "ios": "https://dc.lft.to/lastmile_qr_scan"}, "lat": 38.879534166666666, "is_reserved": 0, "is_disabled": 0, "fusion_lat": 0.0}, {"fusion_lon": 0.0, "bike_id": "3ed74eb9fba16845f9b323dbd7e1fd1c", "name": "3ed74eb9fba16845f9b323dbd7e1fd1c", "type": "electric_bike", "lon": -76.97217283333333, "rental_uris": {"android": "https://dc.lft.to/lastmile_qr_scan", "ios": "https://dc.lft.to/lastmile_qr_scan"}, "lat": 38.844826166666664, "is_reserved": 0, "is_disabled": 0, "fusion_lat": 0.0}, {"fusion_lon": 0.0, "bike_id": "0fd80be00d8a0a3d672a212ab130e4d2", "name": "0fd80be00d8a0a3d672a212ab130e4d2", "type": "electric_scooter", "lon": -77.02154416666667, "rental_uris": {"android": "https://dc.lft.to/lastmile_qr_scan", "ios": "https://dc.lft.to/lastmile_qr_scan"}, "lat": 38.926035666666664, "is_reserved": 0, "is_disabled": 0, "fusion_lat": 0.0}, {"fusion_lon": 0.0, "bike_id": "29a8930bcd4b95267a940bcffcde14f2", "name": "29a8930bcd4b95267a940bcffcde14f2", "type": "electric_scooter", "lon": -77.02799816666666, "rental_uris": {"android": "https://dc.lft.to/lastmile_qr_scan", "ios": "https://dc.lft.to/lastmile_qr_scan"}, "lat": 38.916805833333335, "is_reserved": 0, "is_disabled": 0, "fusion_lat": 0.0}, {"fusion_lon": 0.0, "bike_id": "0abd9b945cb96552aa9ec886a5b5d33b", "name": "0abd9b945cb96552aa9ec886a5b5d33b", "type": "electric_scooter", "lon": -77.05823533333333, "rental_uris": {"android": "https://dc.lft.to/lastmile_qr_scan", "ios": "https://dc.lft.to/lastmile_qr_scan"}, "lat": 38.9353435, "is_reserved": 0, "is_disabled": 0, "fusion_lat": 0.0}, {"fusion_lon": 0.0, "bike_id": "b23d13e373d50d96efc7340b47a871a0", "name": "b23d13e373d50d96efc7340b47a871a0", "type": "electric_scooter", "lon": -77.0676365, "rental_uris": {"android": "https://dc.lft.to/lastmile_qr_scan", "ios": "https://dc.lft.to/lastmile_qr_scan"}, "lat": 38.949745166666666, "is_reserved": 0, "is_disabled": 0, "fusion_lat": 0.0}, {"fusion_lon": 0.0, "bike_id": "a5234ba3a3fe20878d792aa8d6c5bbae", "name": "a5234ba3a3fe20878d792aa8d6c5bbae", "type": "electric_scooter", "lon": -76.97344383333333, "rental_uris": {"android": "https://dc.lft.to/lastmile_qr_scan", "ios": "https://dc.lft.to/lastmile_qr_scan"}, "lat": 38.865167, "is_reserved": 0, "is_disabled": 0, "fusion_lat": 0.0}, {"fusion_lon": 0.0, "bike_id": "070d062c5e74d4e5a6ff5ee34dd8d8c2", "name": "070d062c5e74d4e5a6ff5ee34dd8d8c2", "type": "electric_scooter", "lon": -77.04173116666666, "rental_uris": {"android": "https://dc.lft.to/lastmile_qr_scan", "ios": "https://dc.lft.to/lastmile_qr_scan"}, "lat": 38.915486666666666, "is_reserved": 0, "is_disabled": 0, "fusion_lat": 0.0}, {"fusion_lon": 0.0, "bike_id": "4847e6d9be533f7367830a46d4b0411f", "name": "4847e6d9be533f7367830a46d4b0411f", "type": "electric_scooter", "lon": -77.03857383333333, "rental_uris": {"android": "https://dc.lft.to/lastmile_qr_scan", "ios": "https://dc.lft.to/lastmile_qr_scan"}, "lat": 38.910186833333334, "is_reserved": 0, "is_disabled": 0, "fusion_lat": 0.0}, {"fusion_lon": 0.0, "bike_id": "282858d3d993e1a6c176ca0145f1bd99", "name": "282858d3d993e1a6c176ca0145f1bd99", "type": "electric_scooter", "lon": -77.02695783333333, "rental_uris": {"android": "https://dc.lft.to/lastmile_qr_scan", "ios": "https://dc.lft.to/lastmile_qr_scan"}, "lat": 38.9087065, "is_reserved": 0, "is_disabled": 0, "fusion_lat": 0.0}, {"fusion_lon": 0.0, "bike_id": "c96b47f3632d2b87725dc7da01e5888b", "name": "c96b47f3632d2b87725dc7da01e5888b", "type": "electric_scooter", "lon": -77.03445466666666, "rental_uris": {"android": "https://dc.lft.to/lastmile_qr_scan", "ios": "https://dc.lft.to/lastmile_qr_scan"}, "lat": 38.90675516666667, "is_reserved": 0, "is_disabled": 0, "fusion_lat": 0.0}, {"fusion_lon": 0.0, "bike_id": "c085384e70606c8bfe0dc4275a538d17", "name": "c085384e70606c8bfe0dc4275a538d17", "type": "electric_scooter", "lon": -77.01696983333333, "rental_uris": {"android": "https://dc.lft.to/lastmile_qr_scan", "ios": "https://dc.lft.to/lastmile_qr_scan"}, "lat": 38.974994833333334, "is_reserved": 0, "is_disabled": 0, "fusion_lat": 0.0}, {"fusion_lon": 0.0, "bike_id": "59a967625a2beeed7c6ca8da0071d869", "name": "59a967625a2beeed7c6ca8da0071d869", "type": "electric_scooter", "lon": -77.01698116666667, "rental_uris": {"android": "https://dc.lft.to/lastmile_qr_scan", "ios": "https://dc.lft.to/lastmile_qr_scan"}, "lat": 38.974994833333334, "is_reserved": 0, "is_disabled": 0, "fusion_lat": 0.0}, {"fusion_lon": 0.0, "bike_id": "da1ab9cd55fa3bb2a0248de83b36fae5", "name": "da1ab9cd55fa3bb2a0248de83b36fae5", "type": "electric_scooter", "lon": -77.02157616666666, "rental_uris": {"android": "https://dc.lft.to/lastmile_qr_scan", "ios": "https://dc.lft.to/lastmile_qr_scan"}, "lat": 38.9260445, "is_reserved": 0, "is_disabled": 0, "fusion_lat": 0.0}, {"fusion_lon": 0.0, "bike_id": "b2c5eb8c9f3920e457018b73fe902ecb", "name": "b2c5eb8c9f3920e457018b73fe902ecb", "type": "electric_bike", "lon": -76.96556683333333, "rental_uris": {"android": "https://dc.lft.to/lastmile_qr_scan", "ios": "https://dc.lft.to/lastmile_qr_scan"}, "lat": 38.95090033333334, "is_reserved": 0, "is_disabled": 0, "fusion_lat": 0.0}, {"fusion_lon": 0.0, "bike_id": "b87d68e43704b9894c16b9bb3e95a1e3", "name": "b87d68e43704b9894c16b9bb3e95a1e3", "type": "electric_scooter", "lon": -77.04088116666667, "rental_uris": {"android": "https://dc.lft.to/lastmile_qr_scan", "ios": "https://dc.lft.to/lastmile_qr_scan"}, "lat": 38.90786716666667, "is_reserved": 0, "is_disabled": 0, "fusion_lat": 0.0}, {"fusion_lon": 0.0, "bike_id": "9365f7ba6a19dce0d68f2b6b119f473a", "name": "9365f7ba6a19dce0d68f2b6b119f473a", "type": "electric_scooter", "lon": -77.0460055, "rental_uris": {"android": "https://dc.lft.to/lastmile_qr_scan", "ios": "https://dc.lft.to/lastmile_qr_scan"}, "lat": 38.916933666666665, "is_reserved": 0, "is_disabled": 0, "fusion_lat": 0.0}, {"fusion_lon": 0.0, "bike_id": "9279aae24b11379e2d0565afd0f07341", "name": "9279aae24b11379e2d0565afd0f07341", "type": "electric_scooter", "lon": -77.03355966666666, "rental_uris": {"android": "https://dc.lft.to/lastmile_qr_scan", "ios": "https://dc.lft.to/lastmile_qr_scan"}, "lat": 38.900242666666664, "is_reserved": 0, "is_disabled": 0, "fusion_lat": 0.0}, {"fusion_lon": 0.0, "bike_id": "b5e6b254ab9587230c0763ffb2dcacce", "name": "b5e6b254ab9587230c0763ffb2dcacce", "type": "electric_scooter", "lon": -77.04009716666667, "rental_uris": {"android": "https://dc.lft.to/lastmile_qr_scan", "ios": "https://dc.lft.to/lastmile_qr_scan"}, "lat": 38.8892835, "is_reserved": 0, "is_disabled": 0, "fusion_lat": 0.0}, {"fusion_lon": 0.0, "bike_id": "9979f5fc2118c7943cc354b3daba0bce", "name": "9979f5fc2118c7943cc354b3daba0bce", "type": "electric_scooter", "lon": -77.07226233333333, "rental_uris": {"android": "https://dc.lft.to/lastmile_qr_scan", "ios": "https://dc.lft.to/lastmile_qr_scan"}, "lat": 38.9345875, "is_reserved": 0, "is_disabled": 0, "fusion_lat": 0.0}, {"fusion_lon": 0.0, "bike_id": "4f2e86a19a4715965c49581e9cffe061", "name": "4f2e86a19a4715965c49581e9cffe061", "type": "electric_scooter", "lon": -77.02282, "rental_uris": {"android": "https://dc.lft.to/lastmile_qr_scan", "ios": "https://dc.lft.to/lastmile_qr_scan"}, "lat": 38.9172085, "is_reserved": 0, "is_disabled": 0, "fusion_lat": 0.0}, {"fusion_lon": 0.0, "bike_id": "014477460fd6a4a8a4a04eb8e47d656f", "name": "014477460fd6a4a8a4a04eb8e47d656f", "type": "electric_scooter", "lon": -77.04395683333334, "rental_uris": {"android": "https://dc.lft.to/lastmile_qr_scan", "ios": "https://dc.lft.to/lastmile_qr_scan"}, "lat": 38.91083016666666, "is_reserved": 0, "is_disabled": 0, "fusion_lat": 0.0}, {"fusion_lon": 0.0, "bike_id": "f854e49014947491c3faaab8e4d484bb", "name": "f854e49014947491c3faaab8e4d484bb", "type": "electric_scooter", "lon": -77.042259, "rental_uris": {"android": "https://dc.lft.to/lastmile_qr_scan", "ios": "https://dc.lft.to/lastmile_qr_scan"}, "lat": 38.920669333333336, "is_reserved": 0, "is_disabled": 0, "fusion_lat": 0.0}, {"fusion_lon": 0.0, "bike_id": "f180352dd69adbc6ac1c4f25225c956c", "name": "f180352dd69adbc6ac1c4f25225c956c", "type": "electric_scooter", "lon": -77.02492833333334, "rental_uris": {"android": "https://dc.lft.to/lastmile_qr_scan", "ios": "https://dc.lft.to/lastmile_qr_scan"}, "lat": 38.9418595, "is_reserved": 0, "is_disabled": 0, "fusion_lat": 0.0}, {"fusion_lon": 0.0, "bike_id": "99cac3c256073fc22a9252fb6523d09f", "name": "99cac3c256073fc22a9252fb6523d09f", "type": "electric_scooter", "lon": -77.04514583333334, "rental_uris": {"android": "https://dc.lft.to/lastmile_qr_scan", "ios": "https://dc.lft.to/lastmile_qr_scan"}, "lat": 38.907817333333334, "is_reserved": 0, "is_disabled": 0, "fusion_lat": 0.0}, {"fusion_lon": 0.0, "bike_id": "3ce6eb33b64ec061d1530f98547f72dd", "name": "3ce6eb33b64ec061d1530f98547f72dd", "type": "electric_scooter", "lon": -76.99014416666667, "rental_uris": {"android": "https://dc.lft.to/lastmile_qr_scan", "ios": "https://dc.lft.to/lastmile_qr_scan"}, "lat": 38.861097666666666, "is_reserved": 0, "is_disabled": 0, "fusion_lat": 0.0}, {"fusion_lon": 0.0, "bike_id": "ddef3741030036be2ba339a7331d540c", "name": "ddef3741030036be2ba339a7331d540c", "type": "electric_scooter", "lon": -76.9938815, "rental_uris": {"android": "https://dc.lft.to/lastmile_qr_scan", "ios": "https://dc.lft.to/lastmile_qr_scan"}, "lat": 38.884507666666664, "is_reserved": 0, "is_disabled": 0, "fusion_lat": 0.0}, {"fusion_lon": 0.0, "bike_id": "ddcc5cb111d8117cd802744c4cf88d21", "name": "ddcc5cb111d8117cd802744c4cf88d21", "type": "electric_scooter", "lon": -77.07102033333334, "rental_uris": {"android": "https://dc.lft.to/lastmile_qr_scan", "ios": "https://dc.lft.to/lastmile_qr_scan"}, "lat": 38.919773666666664, "is_reserved": 0, "is_disabled": 0, "fusion_lat": 0.0}, {"fusion_lon": 0.0, "bike_id": "269e08a2dad4e1cd64a084b6fb984a8a", "name": "269e08a2dad4e1cd64a084b6fb984a8a", "type": "electric_scooter", "lon": -77.0385105, "rental_uris": {"android": "https://dc.lft.to/lastmile_qr_scan", "ios": "https://dc.lft.to/lastmile_qr_scan"}, "lat": 38.921697, "is_reserved": 0, "is_disabled": 0, "fusion_lat": 0.0}, {"fusion_lon": 0.0, "bike_id": "fe7b4b7c8c09765d7a777a47f7c077e2", "name": "fe7b4b7c8c09765d7a777a47f7c077e2", "type": "electric_bike", "lon": -77.02485383333334, "rental_uris": {"android": "https://dc.lft.to/lastmile_qr_scan", "ios": "https://dc.lft.to/lastmile_qr_scan"}, "lat": 38.973691, "is_reserved": 0, "is_disabled": 0, "fusion_lat": 0.0}, {"fusion_lon": 0.0, "bike_id": "fece6de9f4546a36f9bfd6e19663ab41", "name": "fece6de9f4546a36f9bfd6e19663ab41", "type": "electric_scooter", "lon": -76.965724, "rental_uris": {"android": "https://dc.lft.to/lastmile_qr_scan", "ios": "https://dc.lft.to/lastmile_qr_scan"}, "lat": 38.8713605, "is_reserved": 0, "is_disabled": 0, "fusion_lat": 0.0}, {"fusion_lon": 0.0, "bike_id": "51c7dc7fd14dcbd94e1a75da953513b6", "name": "51c7dc7fd14dcbd94e1a75da953513b6", "type": "electric_scooter", "lon": -77.02393583333334, "rental_uris": {"android": "https://dc.lft.to/lastmile_qr_scan", "ios": "https://dc.lft.to/lastmile_qr_scan"}, "lat": 38.91966383333333, "is_reserved": 0, "is_disabled": 0, "fusion_lat": 0.0}, {"fusion_lon": 0.0, "bike_id": "9d59149d84c54fa74103fa6e114f432d", "name": "9d59149d84c54fa74103fa6e114f432d", "type": "electric_scooter", "lon": -76.99630083333334, "rental_uris": {"android": "https://dc.lft.to/lastmile_qr_scan", "ios": "https://dc.lft.to/lastmile_qr_scan"}, "lat": 38.846193666666665, "is_reserved": 0, "is_disabled": 0, "fusion_lat": 0.0}, {"fusion_lon": 0.0, "bike_id": "25334cc6750a355b46b80738d582890d", "name": "25334cc6750a355b46b80738d582890d", "type": "electric_scooter", "lon": -77.01137166666666, "rental_uris": {"android": "https://dc.lft.to/lastmile_qr_scan", "ios": "https://dc.lft.to/lastmile_qr_scan"}, "lat": 38.895990833333336, "is_reserved": 0, "is_disabled": 0, "fusion_lat": 0.0}, {"fusion_lon": 0.0, "bike_id": "892a6c49d984c147ca49fb8461366e9b", "name": "892a6c49d984c147ca49fb8461366e9b", "type": "electric_scooter", "lon": -76.95753133333334, "rental_uris": {"android": "https://dc.lft.to/lastmile_qr_scan", "ios": "https://dc.lft.to/lastmile_qr_scan"}, "lat": 38.8843435, "is_reserved": 0, "is_disabled": 0, "fusion_lat": 0.0}, {"fusion_lon": 0.0, "bike_id": "43095b1ffd4843ba946200c9f3b974ae", "name": "43095b1ffd4843ba946200c9f3b974ae", "type": "electric_scooter", "lon": -76.982522, "rental_uris": {"android": "https://dc.lft.to/lastmile_qr_scan", "ios": "https://dc.lft.to/lastmile_qr_scan"}, "lat": 38.8635665, "is_reserved": 0, "is_disabled": 0, "fusion_lat": 0.0}, {"fusion_lon": 0.0, "bike_id": "5fe74aac268c99d9ecaaf3b3bec8f8e5", "name": "5fe74aac268c99d9ecaaf3b3bec8f8e5", "type": "electric_bike", "lon": -76.9976215, "rental_uris": {"android": "https://dc.lft.to/lastmile_qr_scan", "ios": "https://dc.lft.to/lastmile_qr_scan"}, "lat": 39.00592416666667, "is_reserved": 0, "is_disabled": 0, "fusion_lat": 0.0}, {"fusion_lon": 0.0, "bike_id": "1fc4430b1cbcc512c603223f7f42a4e5", "name": "1fc4430b1cbcc512c603223f7f42a4e5", "type": "electric_scooter", "lon": -77.021794, "rental_uris": {"android": "https://dc.lft.to/lastmile_qr_scan", "ios": "https://dc.lft.to/lastmile_qr_scan"}, "lat": 38.91974883333334, "is_reserved": 0, "is_disabled": 0, "fusion_lat": 0.0}, {"fusion_lon": 0.0, "bike_id": "f8478acc53e046c42c6d506c35d5ecf9", "name": "f8478acc53e046c42c6d506c35d5ecf9", "type": "electric_bike", "lon": -77.11428233333334, "rental_uris": {"android": "https://dc.lft.to/lastmile_qr_scan", "ios": "https://dc.lft.to/lastmile_qr_scan"}, "lat": 38.852451333333335, "is_reserved": 0, "is_disabled": 0, "fusion_lat": 0.0}, {"fusion_lon": 0.0, "bike_id": "b7321d0809fb1dd775ade21fb1cf47b6", "name": "b7321d0809fb1dd775ade21fb1cf47b6", "type": "electric_scooter", "lon": -77.03215183333333, "rental_uris": {"android": "https://dc.lft.to/lastmile_qr_scan", "ios": "https://dc.lft.to/lastmile_qr_scan"}, "lat": 38.925789333333334, "is_reserved": 0, "is_disabled": 0, "fusion_lat": 0.0}, {"fusion_lon": 0.0, "bike_id": "7ecf9c269c81e45be4c2bf9c0be1112c", "name": "7ecf9c269c81e45be4c2bf9c0be1112c", "type": "electric_scooter", "lon": -76.98273066666667, "rental_uris": {"android": "https://dc.lft.to/lastmile_qr_scan", "ios": "https://dc.lft.to/lastmile_qr_scan"}, "lat": 38.88530883333333, "is_reserved": 0, "is_disabled": 0, "fusion_lat": 0.0}, {"fusion_lon": 0.0, "bike_id": "1bc2f8c7b09ed04feb8c11c779924ab7", "name": "1bc2f8c7b09ed04feb8c11c779924ab7", "type": "electric_scooter", "lon": -77.04777566666667, "rental_uris": {"android": "https://dc.lft.to/lastmile_qr_scan", "ios": "https://dc.lft.to/lastmile_qr_scan"}, "lat": 38.902143833333334, "is_reserved": 0, "is_disabled": 0, "fusion_lat": 0.0}, {"fusion_lon": 0.0, "bike_id": "07b340b17204ae43fc56b6391eb149fe", "name": "07b340b17204ae43fc56b6391eb149fe", "type": "electric_scooter", "lon": -77.0017215, "rental_uris": {"android": "https://dc.lft.to/lastmile_qr_scan", "ios": "https://dc.lft.to/lastmile_qr_scan"}, "lat": 38.90750083333333, "is_reserved": 0, "is_disabled": 0, "fusion_lat": 0.0}, {"fusion_lon": 0.0, "bike_id": "54e33c2bab42f04c6c37b6e217ead701", "name": "54e33c2bab42f04c6c37b6e217ead701", "type": "electric_scooter", "lon": -77.04511783333334, "rental_uris": {"android": "https://dc.lft.to/lastmile_qr_scan", "ios": "https://dc.lft.to/lastmile_qr_scan"}, "lat": 38.9213595, "is_reserved": 0, "is_disabled": 0, "fusion_lat": 0.0}, {"fusion_lon": 0.0, "bike_id": "91541e219e6c3a775097b2add7c95a6a", "name": "91541e219e6c3a775097b2add7c95a6a", "type": "electric_scooter", "lon": -77.01888783333334, "rental_uris": {"android": "https://dc.lft.to/lastmile_qr_scan", "ios": "https://dc.lft.to/lastmile_qr_scan"}, "lat": 38.946384333333334, "is_reserved": 0, "is_disabled": 0, "fusion_lat": 0.0}, {"fusion_lon": 0.0, "bike_id": "1180c336c7beb6f5e06581fdfb09bb24", "name": "1180c336c7beb6f5e06581fdfb09bb24", "type": "electric_scooter", "lon": -76.98952683333333, "rental_uris": {"android": "https://dc.lft.to/lastmile_qr_scan", "ios": "https://dc.lft.to/lastmile_qr_scan"}, "lat": 38.844052833333336, "is_reserved": 0, "is_disabled": 0, "fusion_lat": 0.0}, {"fusion_lon": 0.0, "bike_id": "79305987519f411915b52b1bc426f3e9", "name": "79305987519f411915b52b1bc426f3e9", "type": "electric_scooter", "lon": -77.02702033333334, "rental_uris": {"android": "https://dc.lft.to/lastmile_qr_scan", "ios": "https://dc.lft.to/lastmile_qr_scan"}, "lat": 38.909841, "is_reserved": 0, "is_disabled": 0, "fusion_lat": 0.0}, {"fusion_lon": 0.0, "bike_id": "4143ed1381420558e1be78b7b6bfe1d8", "name": "4143ed1381420558e1be78b7b6bfe1d8", "type": "electric_scooter", "lon": -77.013474, "rental_uris": {"android": "https://dc.lft.to/lastmile_qr_scan", "ios": "https://dc.lft.to/lastmile_qr_scan"}, "lat": 38.9072125, "is_reserved": 0, "is_disabled": 0, "fusion_lat": 0.0}, {"fusion_lon": 0.0, "bike_id": "71abb05bec708c20b30aeb86398eef10", "name": "71abb05bec708c20b30aeb86398eef10", "type": "electric_scooter", "lon": -77.02390883333334, "rental_uris": {"android": "https://dc.lft.to/lastmile_qr_scan", "ios": "https://dc.lft.to/lastmile_qr_scan"}, "lat": 38.92075033333333, "is_reserved": 0, "is_disabled": 0, "fusion_lat": 0.0}, {"fusion_lon": 0.0, "bike_id": "0c6553430dc0179f972c16d1b5271092", "name": "0c6553430dc0179f972c16d1b5271092", "type": "electric_scooter", "lon": -77.055205, "rental_uris": {"android": "https://dc.lft.to/lastmile_qr_scan", "ios": "https://dc.lft.to/lastmile_qr_scan"}, "lat": 38.9106305, "is_reserved": 0, "is_disabled": 0, "fusion_lat": 0.0}, {"fusion_lon": 0.0, "bike_id": "82f4b50d0f9a31129f80c76301915956", "name": "82f4b50d0f9a31129f80c76301915956", "type": "electric_scooter", "lon": -77.063529, "rental_uris": {"android": "https://dc.lft.to/lastmile_qr_scan", "ios": "https://dc.lft.to/lastmile_qr_scan"}, "lat": 38.944377833333334, "is_reserved": 0, "is_disabled": 0, "fusion_lat": 0.0}, {"fusion_lon": 0.0, "bike_id": "587fb7957e8d823e9afdf7d2809a25da", "name": "587fb7957e8d823e9afdf7d2809a25da", "type": "electric_scooter", "lon": -77.0385285, "rental_uris": {"android": "https://dc.lft.to/lastmile_qr_scan", "ios": "https://dc.lft.to/lastmile_qr_scan"}, "lat": 38.918370333333336, "is_reserved": 0, "is_disabled": 0, "fusion_lat": 0.0}, {"fusion_lon": 0.0, "bike_id": "0db474a88359033a69d4e5ef467a0d73", "name": "0db474a88359033a69d4e5ef467a0d73", "type": "electric_scooter", "lon": -77.02591866666667, "rental_uris": {"android": "https://dc.lft.to/lastmile_qr_scan", "ios": "https://dc.lft.to/lastmile_qr_scan"}, "lat": 38.918478, "is_reserved": 0, "is_disabled": 0, "fusion_lat": 0.0}, {"fusion_lon": 0.0, "bike_id": "9add95760ed166b975eec1c5e5411d36", "name": "9add95760ed166b975eec1c5e5411d36", "type": "electric_scooter", "lon": -77.04307516666667, "rental_uris": {"android": "https://dc.lft.to/lastmile_qr_scan", "ios": "https://dc.lft.to/lastmile_qr_scan"}, "lat": 38.91970833333333, "is_reserved": 0, "is_disabled": 0, "fusion_lat": 0.0},