{"data": {"bikes": [{"name": "7f61eda6a988be15fd444f98b4d42970", "fusion_lat": 0.0, "type": "electric_scooter", "lat": 38.912344833333336, "is_reserved": 0, "is_disabled": 0, "fusion_lon": 0.0, "bike_id": "7f61eda6a988be15fd444f98b4d42970", "lon": -77.02942166666666, "rental_uris": {"ios": "https://dc.lft.to/lastmile_qr_scan", "android": "https://dc.lft.to/lastmile_qr_scan"}}, {"name": "207975571f65423ac821ca63144febbb", "fusion_lat": 0.0, "type": "electric_scooter", "lat": 38.9014365, "is_reserved": 0, "is_disabled": 0, "fusion_lon": 0.0, "bike_id": "207975571f65423ac821ca63144febbb", "lon": -77.00073466666667, "rental_uris": {"ios": "https://dc.lft.to/lastmile_qr_scan", "android": "https://dc.lft.to/lastmile_qr_scan"}}, {"name": "5069563b407afae3fda30861c825bb0a", "fusion_lat": 0.0, "type": "electric_scooter", "lat": 38.938286166666664, "is_reserved": 0, "is_disabled": 0, "fusion_lon": 0.0, "bike_id": "5069563b407afae3fda30861c825bb0a", "lon": -77.02643883333333, "rental_uris": {"ios": "https://dc.lft.to/lastmile_qr_scan", "android": "https://dc.lft.to/lastmile_qr_scan"}}, {"name": "481eabe7bf32ee69eea6ac183cb6170b", "fusion_lat": 0.0, "type": "electric_bike", "lat": 38.9234795, "is_reserved": 0, "is_disabled": 0, "fusion_lon": 0.0, "bike_id": "481eabe7bf32ee69eea6ac183cb6170b", "lon": -76.992475, "rental_uris": {"ios": "https://dc.lft.to/lastmile_qr_scan", "android": "https://dc.lft.to/lastmile_qr_scan"}}, {"name": "c750bcdfc5c25fa2558bc2d3dfe27be1", "fusion_lat": 0.0, "type": "electric_scooter", "lat": 38.89844983333333, "is_reserved": 0, "is_disabled": 0, "fusion_lon": 0.0, "bike_id": "c750bcdfc5c25fa2558bc2d3dfe27be1", "lon": -77.04075383333333, "rental_uris": {"ios": "https://dc.lft.to/lastmile_qr_scan", "android": "https://dc.lft.to/lastmile_qr_scan"}}, {"name": "7eb5a949de0264084afd60a3520dac1d", "fusion_lat": 0.0, "type": "electric_scooter", "lat": 38.941808333333334, "is_reserved": 0, "is_disabled": 0, "fusion_lon": 0.0, "bike_id": "7eb5a949de0264084afd60a3520dac1d", "lon": -77.02484366666667, "rental_uris": {"ios": "https://dc.lft.to/lastmile_qr_scan", "android": "https://dc.lft.to/lastmile_qr_scan"}}, {"name": "254106358a869d0a8e6a73b2ffd2b589", "fusion_lat": 0.0, "type": "electric_bike", "lat": 38.951839166666666, "is_reserved": 0, "is_disabled": 0, "fusion_lon": 0.0, "bike_id": "254106358a869d0a8e6a73b2ffd2b589", "lon": -76.9354435, "rental_uris": {"ios": "https://dc.lft.to/lastmile_qr_scan", "android": "https://dc.lft.to/lastmile_qr_scan"}}, {"name": "803dc45437164a6a831d6d1d6a27db3d", "fusion_lat": 0.0, "type": "electric_scooter", "lat": 38.8726925, "is_reserved": 0, "is_disabled": 0, "fusion_lon": 0.0, "bike_id": "803dc45437164a6a831d6d1d6a27db3d", "lon": -77.01530033333333, "rental_uris": {"ios": "https://dc.lft.to/lastmile_qr_scan", "android": "https://dc.lft.to/lastmile_qr_scan"}}, {"name": "ac2fc43cb8b0e7114f12ccd685585b97", "fusion_lat": 0.0, "type": "electric_scooter", "lat": 38.897776, "is_reserved": 0, "is_disabled": 0, "fusion_lon": 0.0, "bike_id": "ac2fc43cb8b0e7114f12ccd685585b97", "lon": -77.02658466666666, "rental_uris": {"ios": "https://dc.lft.to/lastmile_qr_scan", "android": "https://dc.lft.to/lastmile_qr_scan"}}, {"name": "95eb480b62c63c7f99f9bff30e38b41f", "fusion_lat": 0.0, "type": "electric_scooter", "lat": 38.908657, "is_reserved": 0, "is_disabled": 0, "fusion_lon": 0.0, "bike_id": "95eb480b62c63c7f99f9bff30e38b41f", "lon": -76.99944166666667, "rental_uris": {"ios": "https://dc.lft.to/lastmile_qr_scan", "android": "https://dc.lft.to/lastmile_qr_scan"}}, {"name": "3c10304bb6ecc50eb6ad5b445473a29a", "fusion_lat": 0.0, "type": "electric_scooter", "lat": 38.907826, "is_reserved": 0, "is_disabled": 0, "fusion_lon": 0.0, "bike_id": "3c10304bb6ecc50eb6ad5b445473a29a", "lon": -77.07253333333334, "rental_uris": {"ios": "https://dc.lft.to/lastmile_qr_scan", "android": "https://dc.lft.to/lastmile_qr_scan"}}, {"name": "6bfe815164e1077d13ff1fa86a9c7e31", "fusion_lat": 0.0, "type": "electric_scooter", "lat": 38.89610033333334, "is_reserved": 0, "is_disabled": 0, "fusion_lon": 0.0, "bike_id": "6bfe815164e1077d13ff1fa86a9c7e31", "lon": -77.0468775, "rental_uris": {"ios": "https://dc.lft.to/lastmile_qr_scan", "android": "https://dc.lft.to/lastmile_qr_scan"}}, {"name": "6b42fdd9e0fc89aaff6e49924a9d4de6", "fusion_lat": 0.0, "type": "electric_bike", "lat": 38.815153, "is_reserved": 0, "is_disabled": 0, "fusion_lon": 0.0, "bike_id": "6b42fdd9e0fc89aaff6e49924a9d4de6", "lon": -77.12652716666666, "rental_uris": {"ios": "https://dc.lft.to/lastmile_qr_scan", "android": "https://dc.lft.to/lastmile_qr_scan"}}, {"name": "2e88988d29fc00ac6b754a442a5329ea", "fusion_lat": 0.0, "type": "electric_scooter", "lat": 38.9336005, "is_reserved": 0, "is_disabled": 0, "fusion_lon": 0.0, "bike_id": "2e88988d29fc00ac6b754a442a5329ea", "lon": -77.03729683333333, "rental_uris": {"ios": "https://dc.lft.to/lastmile_qr_scan", "android": "https://dc.lft.to/lastmile_qr_scan"}}, {"name": "68c178f16f040909093e46c3047b4ed3", "fusion_lat": 0.0, "type": "electric_scooter", "lat": 38.91229883333333, "is_reserved": 0, "is_disabled": 0, "fusion_lon": 0.0, "bike_id": "68c178f16f040909093e46c3047b4ed3", "lon": -77.03844316666667, "rental_uris": {"ios": "https://dc.lft.to/lastmile_qr_scan", "android": "https://dc.lft.to/lastmile_qr_scan"}}, {"name": "a2c012a5c506dc27a9f0bcda6aa17ab9", "fusion_lat": 0.0, "type": "electric_scooter", "lat": 38.91706683333334, "is_reserved": 0, "is_disabled": 0, "fusion_lon": 0.0, "bike_id": "a2c012a5c506dc27a9f0bcda6aa17ab9", "lon": -77.02900383333333, "rental_uris": {"ios": "https://dc.lft.to/lastmile_qr_scan", "android": "https://dc.lft.to/lastmile_qr_scan"}}, {"name": "c381ec09b4d070b5cb6223e76114ea34", "fusion_lat": 0.0, "type": "electric_scooter", "lat": 38.90521616666667, "is_reserved": 0, "is_disabled": 0, "fusion_lon": 0.0, "bike_id": "c381ec09b4d070b5cb6223e76114ea34", "lon": -77.04738083333334, "rental_uris": {"ios": "https://dc.lft.to/lastmile_qr_scan", "android": "https://dc.lft.to/lastmile_qr_scan"}}, {"name": "1a42c2f3d707448d41380e45280afa4a", "fusion_lat": 0.0, "type": "electric_scooter", "lat": 38.9067565, "is_reserved": 0, "is_disabled": 0, "fusion_lon": 0.0, "bike_id": "1a42c2f3d707448d41380e45280afa4a", "lon": -76.9781205, "rental_uris": {"ios": "https://dc.lft.to/lastmile_qr_scan", "android": "https://dc.lft.to/lastmile_qr_scan"}}, {"name": "5f765276192afaf2be90b3dec9f513d8", "fusion_lat": 0.0, "type": "electric_scooter", "lat": 38.90525233333334, "is_reserved": 0, "is_disabled": 0, "fusion_lon": 0.0, "bike_id": "5f765276192afaf2be90b3dec9f513d8", "lon": -77.05044, "rental_uris": {"ios": "https://dc.lft.to/lastmile_qr_scan", "android": "https://dc.lft.to/lastmile_qr_scan"}}, {"name": "918f0778eb30816c0113c80370e62667", "fusion_lat": 0.0, "type": "electric_bike", "lat": 38.89187966666667, "is_reserved": 0, "is_disabled": 0, "fusion_lon": 0.0, "bike_id": "918f0778eb30816c0113c80370e62667", "lon": -77.122602, "rental_uris": {"ios": "https://dc.lft.to/lastmile_qr_scan", "android": "https://dc.lft.to/lastmile_qr_scan"}}, {"name": "6b8d919555461bf0ddb7afbdb3f91680", "fusion_lat": 0.0, "type": "electric_bike", "lat": 38.831895, "is_reserved": 0, "is_disabled": 0, "fusion_lon": 0.0, "bike_id": "6b8d919555461bf0ddb7afbdb3f91680", "lon": -77.0767805, "rental_uris": {"ios": "https://dc.lft.to/lastmile_qr_scan", "android": "https://dc.lft.to/lastmile_qr_scan"}}, {"name": "618969a633722e27f6b4a35f6070f281", "fusion_lat": 0.0, "type": "electric_bike", "lat": 38.95547416666667, "is_reserved": 0, "is_disabled": 0, "fusion_lon": 0.0, "bike_id": "618969a633722e27f6b4a35f6070f281", "lon": -76.93533283333333, "rental_uris": {"ios": "https://dc.lft.to/lastmile_qr_scan", "android": "https://dc.lft.to/lastmile_qr_scan"}}, {"name": "f1ffe9384a8a46718a1ed17101a621e3", "fusion_lat": 0.0, "type": "electric_scooter", "lat": 38.911148833333336, "is_reserved": 0, "is_disabled": 0, "fusion_lon": 0.0, "bike_id": "f1ffe9384a8a46718a1ed17101a621e3", "lon": -77.04926733333333, "rental_uris": {"ios": "https://dc.lft.to/lastmile_qr_scan", "android": "https://dc.lft.to/lastmile_qr_scan"}}, {"name": "7b999861d6fdf9421d09ffe597ce9917", "fusion_lat": 0.0, "type": "electric_scooter", "lat": 38.90461, "is_reserved": 0, "is_disabled": 0, "fusion_lon": 0.0, "bike_id": "7b999861d6fdf9421d09ffe597ce9917", "lon": -77.03841366666667, "rental_uris": {"ios": "https://dc.lft.to/lastmile_qr_scan", "android": "https://dc.lft.to/lastmile_qr_scan"}}, {"name": "48092b108f94b739a39aba978857f6ae", "fusion_lat": 0.0, "type": "electric_scooter", "lat": 38.91601633333333, "is_reserved": 0, "is_disabled": 0, "fusion_lon": 0.0, "bike_id": "48092b108f94b739a39aba978857f6ae", "lon": -77.04161683333334, "rental_uris": {"ios": "https://dc.lft.to/lastmile_qr_scan", "android": "https://dc.lft.to/lastmile_qr_scan"}}, {"name": "15db57916c6069490396c519db260f8d", "fusion_lat": 0.0, "type": "electric_scooter", "lat": 38.921831166666664, "is_reserved": 0, "is_disabled": 0, "fusion_lon": 0.0, "bike_id": "15db57916c6069490396c519db260f8d", "lon": -77.04250233333333, "rental_uris": {"ios": "https://dc.lft.to/lastmile_qr_scan", "android": "https://dc.lft.to/lastmile_qr_scan"}}, {"name": "a23f90833fdc1f5e04c7316d586c3ef9", "fusion_lat": 0.0, "type": "electric_scooter", "lat": 38.919175, "is_reserved": 0, "is_disabled": 0, "fusion_lon": 0.0, "bike_id": "a23f90833fdc1f5e04c7316d586c3ef9", "lon": -77.03432383333333, "rental_uris": {"ios": "https://dc.lft.to/lastmile_qr_scan", "android": "https://dc.lft.to/lastmile_qr_scan"}}, {"name": "8c1568a28778305db6175637eba78887", "fusion_lat": 0.0, "type": "electric_scooter", "lat": 38.910639333333336, "is_reserved": 0, "is_disabled": 0, "fusion_lon": 0.0, "bike_id": "8c1568a28778305db6175637eba78887", "lon": -77.04242083333334, "rental_uris": {"ios": "https://dc.lft.to/lastmile_qr_scan", "android": "https://dc.lft.to/lastmile_qr_scan"}}, {"name": "b347da43bd86cccd904d8e2c38909326", "fusion_lat": 0.0, "type": "electric_scooter", "lat": 38.89404866666667, "is_reserved": 0, "is_disabled": 0, "fusion_lon": 0.0, "bike_id": "b347da43bd86cccd904d8e2c38909326", "lon": -76.94803716666667, "rental_uris": {"ios": "https://dc.lft.to/lastmile_qr_scan", "android": "https://dc.lft.to/lastmile_qr_scan"}}, {"name": "15ce3b9b27bd863ea53da1c7d2240292", "fusion_lat": 0.0, "type": "electric_scooter", "lat": 38.90529316666667, "is_reserved": 0, "is_disabled": 0, "fusion_lon": 0.0, "bike_id": "15ce3b9b27bd863ea53da1c7d2240292", "lon": -77.05769016666666, "rental_uris": {"ios": "https://dc.lft.to/lastmile_qr_scan", "android": "https://dc.lft.to/lastmile_qr_scan"}}, {"name": "918993e469537cb72f3438899db00a86", "fusion_lat": 0.0, "type": "electric_scooter", "lat": 38.91932633333333, "is_reserved": 0, "is_disabled": 0, "fusion_lon": 0.0, "bike_id": "918993e469537cb72f3438899db00a86", "lon": -77.03421683333333, "rental_uris": {"ios": "https://dc.lft.to/lastmile_qr_scan", "android": "https://dc.lft.to/lastmile_qr_scan"}}, {"name": "ac105019e99203fde1971f3ec50091c7", "fusion_lat": 0.0, "type": "electric_scooter", "lat": 38.9288245, "is_reserved": 0, "is_disabled": 0, "fusion_lon": 0.0, "bike_id": "ac105019e99203fde1971f3ec50091c7", "lon": -77.03341933333333, "rental_uris": {"ios": "https://dc.lft.to/lastmile_qr_scan", "android": "https://dc.lft.to/lastmile_qr_scan"}}, {"name": "7bbb21a23f4a8c166f15a6710fe93017", "fusion_lat": 0.0, "type": "electric_scooter", "lat": 38.901535, "is_reserved": 0, "is_disabled": 0, "fusion_lon": 0.0, "bike_id": "7bbb21a23f4a8c166f15a6710fe93017", "lon": -76.93057633333333, "rental_uris": {"ios": "https://dc.lft.to/lastmile_qr_scan", "android": "https://dc.lft.to/lastmile_qr_scan"}}, {"name": "4ba4161725efc905fff07694a98c8f09", "fusion_lat": 0.0, "type": "electric_scooter", "lat": 38.9252325, "is_reserved": 0, "is_disabled": 0, "fusion_lon": 0.0, "bike_id": "4ba4161725efc905fff07694a98c8f09", "lon": -77.05539416666667, "rental_uris": {"ios": "https://dc.lft.to/lastmile_qr_scan", "android": "https://dc.lft.to/lastmile_qr_scan"}}, {"name": "52da939b8283d705e7e4d20e372e0ce0", "fusion_lat": 0.0, "type": "electric_scooter", "lat": 38.857125333333336, "is_reserved": 0, "is_disabled": 0, "fusion_lon": 0.0, "bike_id": "52da939b8283d705e7e4d20e372e0ce0", "lon": -76.98133683333333, "rental_uris": {"ios": "https://dc.lft.to/lastmile_qr_scan", "android": "https://dc.lft.to/lastmile_qr_scan"}}, {"name": "59758ce162208b5de59e53e3776808da", "fusion_lat": 0.0, "type": "electric_bike", "lat": 38.838102166666665, "is_reserved": 0, "is_disabled": 0, "fusion_lon": 0.0, "bike_id": "59758ce162208b5de59e53e3776808da", "lon": -77.09521983333333, "rental_uris": {"ios": "https://dc.lft.to/lastmile_qr_scan", "android": "https://dc.lft.to/lastmile_qr_scan"}}, {"name": "67e8ef4347a365dd31bef9cc7cf0039a", "fusion_lat": 0.0, "type": "electric_scooter", "lat": 38.923485166666666, "is_reserved": 0, "is_disabled": 0, "fusion_lon": 0.0, "bike_id": "67e8ef4347a365dd31bef9cc7cf0039a", "lon": -77.0352375, "rental_uris": {"ios": "https://dc.lft.to/lastmile_qr_scan", "android": "https://dc.lft.to/lastmile_qr_scan"}}, {"name": "fb2e2b6ac73f37555fc4f5ed2140aada", "fusion_lat": 0.0, "type": "electric_scooter", "lat": 38.88430283333334, "is_reserved": 0, "is_disabled": 0, "fusion_lon": 0.0, "bike_id": "fb2e2b6ac73f37555fc4f5ed2140aada", "lon": -76.957514, "rental_uris": {"ios": "https://dc.lft.to/lastmile_qr_scan", "android": "https://dc.lft.to/lastmile_qr_scan"}}, {"name": "b64bc425c8af71e69ec8ef9a45cbc11c", "fusion_lat": 0.0, "type": "electric_scooter", "lat": 38.92626666666666, "is_reserved": 0, "is_disabled": 0, "fusion_lon": 0.0, "bike_id": "b64bc425c8af71e69ec8ef9a45cbc11c", "lon": -77.041912, "rental_uris": {"ios": "https://dc.lft.to/lastmile_qr_scan", "android": "https://dc.lft.to/lastmile_qr_scan"}}, {"name": "2d93cf5c335e6ec5eb8c68040fe8d814", "fusion_lat": 0.0, "type": "electric_scooter", "lat": 38.9052545, "is_reserved": 0, "is_disabled": 0, "fusion_lon": 0.0, "bike_id": "2d93cf5c335e6ec5eb8c68040fe8d814", "lon": -77.02587966666667, "rental_uris": {"ios": "https://dc.lft.to/lastmile_qr_scan", "android": "https://dc.lft.to/lastmile_qr_scan"}}, {"name": "54112afba6c84eade3de80aed50ffff8", "fusion_lat": 0.0, "type": "electric_scooter", "lat": 38.90707333333334, "is_reserved": 0, "is_disabled": 0, "fusion_lon": 0.0, "bike_id": "54112afba6c84eade3de80aed50ffff8", "lon": -77.04353116666667, "rental_uris": {"ios": "https://dc.lft.to/lastmile_qr_scan", "android": "https://dc.lft.to/lastmile_qr_scan"}}, {"name": "6fe6be90a230df1f75e52089aa201900", "fusion_lat": 0.0, "type": "electric_scooter", "lat": 38.911169666666666, "is_reserved": 0, "is_disabled": 0, "fusion_lon": 0.0, "bike_id": "6fe6be90a230df1f75e52089aa201900", "lon": -77.02930333333333, "rental_uris": {"ios": "https://dc.lft.to/lastmile_qr_scan", "android": "https://dc.lft.to/lastmile_qr_scan"}}, {"name": "b0cf8d302fbf5b4c1aadade2ee99ff28", "fusion_lat": 0.0, "type": "electric_scooter", "lat": 38.88742516666667, "is_reserved": 0, "is_disabled": 0, "fusion_lon": 0.0, "bike_id": "b0cf8d302fbf5b4c1aadade2ee99ff28", "lon": -77.02129783333334, "rental_uris": {"ios": "https://dc.lft.to/lastmile_qr_scan", "android": "https://dc.lft.to/lastmile_qr_scan"}}, {"name": "e00af20a657e1d525e5e2e810af33180", "fusion_lat": 0.0, "type": "electric_scooter", "lat": 38.91628983333333, "is_reserved": 0, "is_disabled": 0, "fusion_lon": 0.0, "bike_id": "e00af20a657e1d525e5e2e810af33180", "lon": -77.03184366666666, "rental_uris": {"ios": "https://dc.lft.to/lastmile_qr_scan", "android": "https://dc.lft.to/lastmile_qr_scan"}}, {"name": "8fd22fcfdecd66f0fc0d78ec481e5b6b", "fusion_lat": 0.0, "type": "electric_scooter", "lat": 38.935820166666666, "is_reserved": 0, "is_disabled": 0, "fusion_lon": 0.0, "bike_id": "8fd22fcfdecd66f0fc0d78ec481e5b6b", "lon": -76.99107133333334, "rental_uris": {"ios": "https://dc.lft.to/lastmile_qr_scan", "android": "https://dc.lft.to/lastmile_qr_scan"}}, {"name": "ccb727b5a2d6280541ab7c3aebdf6535", "fusion_lat": 0.0, "type": "electric_scooter", "lat": 38.911696666666664, "is_reserved": 0, "is_disabled": 0, "fusion_lon": 0.0, "bike_id": "ccb727b5a2d6280541ab7c3aebdf6535", "lon": -77.00137816666667, "rental_uris": {"ios": "https://dc.lft.to/lastmile_qr_scan", "android": "https://dc.lft.to/lastmile_qr_scan"}}, {"name": "05590a66a86fb627d0c8d09fbc5a3621", "fusion_lat": 0.0, "type": "electric_scooter", "lat": 38.9289565, "is_reserved": 0, "is_disabled": 0, "fusion_lon": 0.0, "bike_id": "05590a66a86fb627d0c8d09fbc5a3621", "lon": -77.05936083333333, "rental_uris": {"ios": "https://dc.lft.to/lastmile_qr_scan", "android": "https://dc.lft.to/lastmile_qr_scan"}}, {"name": "d6c2a7d4939b6c89b8f9d89e72edb5ce", "fusion_lat": 0.0, "type": "electric_scooter", "lat": 38.93300216666667, "is_reserved": 0, "is_disabled": 0, "fusion_lon": 0.0, "bike_id": "d6c2a7d4939b6c89b8f9d89e72edb5ce", "lon": -77.02465866666667, "rental_uris": {"ios": "https://dc.lft.to/lastmile_qr_scan", "android": "https://dc.lft.to/lastmile_qr_scan"}}, {"name": "a843376d7f65b58e67741af2fa715b76", "fusion_lat": 0.0, "type": "electric_scooter", "lat": 38.89668433333333, "is_reserved": 0, "is_disabled": 0, "fusion_lon": 0.0, "bike_id": "a843376d7f65b58e67741af2fa715b76", "lon": -77.04893966666667, "rental_uris": {"ios": "https://dc.lft.to/lastmile_qr_scan", "android": "https://dc.lft.to/lastmile_qr_scan"}}, {"name": "07ec04554c9aca4a7bf2a654cd99eaec", "fusion_lat": 0.0, "type": "electric_scooter", "lat": 38.924246, "is_reserved": 0, "is_disabled": 0, "fusion_lon": 0.0, "bike_id": "07ec04554c9aca4a7bf2a654cd99eaec", "lon": -77.0194975, "rental_uris": {"ios": "https://dc.lft.to/lastmile_qr_scan", "android": "https://dc.lft.to/lastmile_qr_scan"}}, {"name": "519f7c420347f538b87dbf1a50a86167", "fusion_lat": 0.0, "type": "electric_scooter", "lat": 38.91113133333333, "is_reserved": 0, "is_disabled": 0, "fusion_lon": 0.0, "bike_id": "519f7c420347f538b87dbf1a50a86167", "lon": -77.034774, "rental_uris": {"ios": "https://dc.lft.to/lastmile_qr_scan", "android": "https://dc.lft.to/lastmile_qr_scan"}}, {"name": "457d20dcd296d3bcc8fa873ca69e69a1", "fusion_lat": 0.0, "type": "electric_scooter", "lat": 38.904754, "is_reserved": 0, "is_disabled": 0, "fusion_lon": 0.0, "bike_id": "457d20dcd296d3bcc8fa873ca69e69a1", "lon": -77.04153166666667, "rental_uris": {"ios": "https://dc.lft.to/lastmile_qr_scan", "android": "https://dc.lft.to/lastmile_qr_scan"}}, {"name": "f0e33fbe0762ffa8d85367ebd6e417b6", "fusion_lat": 0.0, "type": "electric_scooter", "lat": 38.9008165, "is_reserved": 0, "is_disabled": 0, "fusion_lon": 0.0, "bike_id": "f0e33fbe0762ffa8d85367ebd6e417b6", "lon": -77.05022116666666, "rental_uris": {"ios": "https://dc.lft.to/lastmile_qr_scan", "android": "https://dc.lft.to/lastmile_qr_scan"}}, {"name": "f43eb891d56b8a0f6607309ab896a0bb", "fusion_lat": 0.0, "type": "electric_scooter", "lat": 38.904534166666664, "is_reserved": 0, "is_disabled": 0, "fusion_lon": 0.0, "bike_id": "f43eb891d56b8a0f6607309ab896a0bb", "lon": -77.03276283333334, "rental_uris": {"ios": "https://dc.lft.to/lastmile_qr_scan", "android": "https://dc.lft.to/lastmile_qr_scan"}}, {"name": "c83f0e51e37e5c5c8162d3afc54b219e", "fusion_lat": 0.0, "type": "electric_scooter", "lat": 38.928814833333334, "is_reserved": 0, "is_disabled": 0, "fusion_lon": 0.0, "bike_id": "c83f0e51e37e5c5c8162d3afc54b219e", "lon": -77.04121883333333, "rental_uris": {"ios": "https://dc.lft.to/lastmile_qr_scan", "android": "https://dc.lft.to/lastmile_qr_scan"}}, {"name": "6742e95ba29835892a9563f1c115c874", "fusion_lat": 0.0, "type": "electric_bike", "lat": 38.95482283333333, "is_reserved": 0, "is_disabled": 0, "fusion_lon": 0.0, "bike_id": "6742e95ba29835892a9563f1c115c874", "lon": -77.08239466666667, "rental_uris": {"ios": "https://dc.lft.to/lastmile_qr_scan", "android": "https://dc.lft.to/lastmile_qr_scan"}}, {"name": "716f25bceb690f73c4c2bf66ea190ef3", "fusion_lat": 0.0, "type": "electric_scooter", "lat": 38.93368666666667, "is_reserved": 0, "is_disabled": 0, "fusion_lon": 0.0, "bike_id": "716f25bceb690f73c4c2bf66ea190ef3", "lon": -77.05721866666667, "rental_uris": {"ios": "https://dc.lft.to/lastmile_qr_scan", "android": "https://dc.lft.to/lastmile_qr_scan"}}, {"name": "90570c588969abc92a889cc98e299dda", "fusion_lat": 0.0, "type": "electric_scooter", "lat": 38.904188, "is_reserved": 0, "is_disabled": 0, "fusion_lon": 0.0, "bike_id": "90570c588969abc92a889cc98e299dda", "lon": -76.97891283333334, "rental_uris": {"ios": "https://dc.lft.to/lastmile_qr_scan", "android": "https://dc.lft.to/lastmile_qr_scan"}}, {"name": "8e3bc49d673032c5926fcb3a8b23b0d0", "fusion_lat": 0.0, "type": "electric_scooter", "lat": 38.91488, "is_reserved": 0, "is_disabled": 0, "fusion_lon": 0.0, "bike_id": "8e3bc49d673032c5926fcb3a8b23b0d0", "lon": -77.040688, "rental_uris": {"ios": "https://dc.lft.to/lastmile_qr_scan", "android": "https://dc.lft.to/lastmile_qr_scan"}}, {"name": "22b6010da6fc550595627786ed62da78", "fusion_lat": 0.0, "type": "electric_scooter", "lat": 38.92144066666667, "is_reserved": 0, "is_disabled": 0, "fusion_lon": 0.0, "bike_id": "22b6010da6fc550595627786ed62da78", "lon": -77.040119, "rental_uris": {"ios": "https://dc.lft.to/lastmile_qr_scan", "android": "https://dc.lft.to/lastmile_qr_scan"}}, {"name": "b5524950e967433cbc68a512faceaa78", "fusion_lat": 0.0, "type": "electric_scooter", "lat": 38.9088095, "is_reserved": 0, "is_disabled": 0, "fusion_lon": 0.0, "bike_id": "b5524950e967433cbc68a512faceaa78", "lon": -77.01900266666667, "rental_uris": {"ios": "https://dc.lft.to/lastmile_qr_scan", "android": "https://dc.lft.to/lastmile_qr_scan"}}, {"name": "f9c313ab780ca9ca8c1249a188ab060a", "fusion_lat": 0.0, "type": "electric_scooter", "lat": 38.92131216666667, "is_reserved": 0, "is_disabled": 0, "fusion_lon": 0.0, "bike_id": "f9c313ab780ca9ca8c1249a188ab060a", "lon": -77.0420865, "rental_uris": {"ios": "https://dc.lft.to/lastmile_qr_scan", "android": "https://dc.lft.to/lastmile_qr_scan"}}, {"name": "ff5c159fca338c03d88ee297c8fd8d30", "fusion_lat": 0.0, "type": "electric_scooter", "lat": 38.904384666666665, "is_reserved": 0, "is_disabled": 0, "fusion_lon": 0.0, "bike_id": "ff5c159fca338c03d88ee297c8fd8d30", "lon": -77.0236805, "rental_uris": {"ios": "https://dc.lft.to/lastmile_qr_scan", "android": "https://dc.lft.to/lastmile_qr_scan"}}, {"name": "739ae933079bfeede5247941fefc03eb", "fusion_lat": 0.0, "type": "electric_bike", "lat": 38.929875833333334, "is_reserved": 0, "is_disabled": 0, "fusion_lon": 0.0, "bike_id": "739ae933079bfeede5247941fefc03eb", "lon": -77.01967316666666, "rental_uris": {"ios": "https://dc.lft.to/lastmile_qr_scan", "android": "https://dc.lft.to/lastmile_qr_scan"}}, {"name": "83bc9044f29bee8387ae8b4fe20ac013", "fusion_lat": 0.0, "type": "electric_scooter", "lat": 38.907144833333334, "is_reserved": 0, "is_disabled": 0, "fusion_lon": 0.0, "bike_id": "83bc9044f29bee8387ae8b4fe20ac013", "lon": -77.0053875, "rental_uris": {"ios": "https://dc.lft.to/lastmile_qr_scan", "android": "https://dc.lft.to/lastmile_qr_scan"}}, {"name": "b23efbed4035330d60beb5cb3e8bbd81", "fusion_lat": 0.0, "type": "electric_scooter", "lat": 38.90459966666667, "is_reserved": 0, "is_disabled": 0, "fusion_lon": 0.0, "bike_id": "b23efbed4035330d60beb5cb3e8bbd81", "lon": -77.01424383333334, "rental_uris": {"ios": "https://dc.lft.to/lastmile_qr_scan", "android": "https://dc.lft.to/lastmile_qr_scan"}}, {"name": "8f778a717b623a769b27cbf06c81212d", "fusion_lat": 0.0, "type": "electric_scooter", "lat": 38.935369, "is_reserved": 0, "is_disabled": 0, "fusion_lon": 0.0, "bike_id": "8f778a717b623a769b27cbf06c81212d", "lon": -77.03423166666667, "rental_uris": {"ios": "https://dc.lft.to/lastmile_qr_scan", "android": "https://dc.lft.to/lastmile_qr_scan"}}, {"name": "61181913ecabbae86f5f6795c280ed6e", "fusion_lat": 0.0, "type": "electric_scooter", "lat": 38.918886666666666, "is_reserved": 0, "is_disabled": 0, "fusion_lon": 0.0, "bike_id": "61181913ecabbae86f5f6795c280ed6e", "lon": -77.03760516666667, "rental_uris": {"ios": "https://dc.lft.to/lastmile_qr_scan", "android": "https://dc.lft.to/lastmile_qr_scan"}}, {"name": "659d2e7405599903a57260743379064f", "fusion_lat": 0.0, "type": "electric_bike", "lat": 38.929818833333336, "is_reserved": 0, "is_disabled": 0, "fusion_lon": 0.0, "bike_id": "659d2e7405599903a57260743379064f", "lon": -77.0197755, "rental_uris": {"ios": "https://dc.lft.to/lastmile_qr_scan", "android": "https://dc.lft.to/lastmile_qr_scan"}}, {"name": "daeaef95b0d40626f9b83abff4fa4aca", "fusion_lat": 0.0, "type": "electric_scooter", "lat": 38.9184405, "is_reserved": 0, "is_disabled": 0, "fusion_lon": 0.0, "bike_id": "daeaef95b0d40626f9b83abff4fa4aca", "lon": -77.02601983333334, "rental_uris": {"ios": "https://dc.lft.to/lastmile_qr_scan", "android": "https://dc.lft.to/lastmile_qr_scan"}}, {"name": "aeb2d60db17c9601a8c1c9f4708434e4", "fusion_lat": 0.0, "type": "electric_bike", "lat": 38.8579255, "is_reserved": 0, "is_disabled": 0, "fusion_lon": 0.0, "bike_id": "aeb2d60db17c9601a8c1c9f4708434e4", "lon": -76.987415, "rental_uris": {"ios": "https://dc.lft.to/lastmile_qr_scan", "android": "https://dc.lft.to/lastmile_qr_scan"}}, {"name": "f5b1af30dff99a94cdfe4ea8363a14c2", "fusion_lat": 0.0, "type": "electric_scooter", "lat": 38.916976, "is_reserved": 0, "is_disabled": 0, "fusion_lon": 0.0, "bike_id": "f5b1af30dff99a94cdfe4ea8363a14c2", "lon": -77.03170933333334, "rental_uris": {"ios": "https://dc.lft.to/lastmile_qr_scan", "android": "https://dc.lft.to/lastmile_qr_scan"}}, {"name": "523586d38b39dcc2264b22d8eab618a9", "fusion_lat": 0.0, "type": "electric_scooter", "lat": 38.90614583333333, "is_reserved": 0, "is_disabled": 0, "fusion_lon": 0.0, "bike_id": "523586d38b39dcc2264b22d8eab618a9", "lon": -77.04122683333334, "rental_uris": {"ios": "https://dc.lft.to/lastmile_qr_scan", "android": "https://dc.lft.to/lastmile_qr_scan"}}, {"name": "bb380f06cab9b498d8f5a30b0afe60d3", "fusion_lat": 0.0, "type": "electric_bike", "lat": 38.95956983333333, "is_reserved": 0, "is_disabled": 0, "fusion_lon": 0.0, "bike_id": "bb380f06cab9b498d8f5a30b0afe60d3", "lon": -77.10089266666667, "rental_uris": {"ios": "https://dc.lft.to/lastmile_qr_scan", "android": "https://dc.lft.to/lastmile_qr_scan"}}, {"name": "4b6ab7993a40308a65c9bfbb3ba04424", "fusion_lat": 0.0, "type": "electric_scooter", "lat": 38.9003295, "is_reserved": 0, "is_disabled": 0, "fusion_lon": 0.0, "bike_id": "4b6ab7993a40308a65c9bfbb3ba04424", "lon": -76.998288, "rental_uris": {"ios": "https://dc.lft.to/lastmile_qr_scan", "android": "https://dc.lft.to/lastmile_qr_scan"}}, {"name": "6f5ddca483aad720c7b7c3a53b9d04a6", "fusion_lat": 0.0, "type": "electric_scooter", "lat": 38.9044845, "is_reserved": 0, "is_disabled": 0, "fusion_lon": 0.0, "bike_id": "6f5ddca483aad720c7b7c3a53b9d04a6", "lon": -77.0285635, "rental_uris": {"ios": "https://dc.lft.to/lastmile_qr_scan", "android": "https://dc.lft.to/lastmile_qr_scan"}}, {"name": "090d27c4d4e63b54cc489d64525a05d3", "fusion_lat": 0.0, "type": "electric_scooter", "lat": 38.92828216666667, "is_reserved": 0, "is_disabled": 0, "fusion_lon": 0.0, "bike_id": "090d27c4d4e63b54cc489d64525a05d3", "lon": -77.0225685, "rental_uris": {"ios": "https://dc.lft.to/lastmile_qr_scan", "android": "https://dc.lft.to/lastmile_qr_scan"}}, {"name": "39b7d0538d4023c16a49d6db39a89f27", "fusion_lat": 0.0, "type": "electric_scooter", "lat": 38.869594166666666, "is_reserved": 0, "is_disabled": 0, "fusion_lon": 0.0, "bike_id": "39b7d0538d4023c16a49d6db39a89f27", "lon": -77.01379816666666, "rental_uris": {"ios": "https://dc.lft.to/lastmile_qr_scan", "android": "https://dc.lft.to/lastmile_qr_scan"}}, {"name": "6f2ab82f03c560ef20ec623abec90d31", "fusion_lat": 0.0, "type": "electric_scooter", "lat": 38.90003266666667, "is_reserved": 0, "is_disabled": 0, "fusion_lon": 0.0, "bike_id": "6f2ab82f03c560ef20ec623abec90d31", "lon": -77.05335883333333, "rental_uris": {"ios": "https://dc.lft.to/lastmile_qr_scan", "android": "https://dc.lft.to/lastmile_qr_scan"}}, {"name": "0ac460a631d2d0e59f96d4c3f4f7f619", "fusion_lat": 0.0, "type": "electric_scooter", "lat": 38.975064833333334, "is_reserved": 0, "is_disabled": 0, "fusion_lon": 0.0, "bike_id": "0ac460a631d2d0e59f96d4c3f4f7f619", "lon": -77.01691116666667, "rental_uris": {"ios": "https://dc.lft.to/lastmile_qr_scan", "android": "https://dc.lft.to/lastmile_qr_scan"}}, {"name": "d27c52caf3c46fbf1c30c426adf75306", "fusion_lat": 0.0, "type": "electric_scooter", "lat": 38.9266655, "is_reserved": 0, "is_disabled": 0, "fusion_lon": 0.0, "bike_id": "d27c52caf3c46fbf1c30c426adf75306", "lon": -77.03723333333333, "rental_uris": {"ios": "https://dc.lft.to/lastmile_qr_scan", "android": "https://dc.lft.to/lastmile_qr_scan"}}, {"name": "ef007a06824788a42f9cb6249fd1172e", "fusion_lat": 0.0, "type": "electric_scooter", "lat": 38.896429166666664, "is_reserved": 0, "is_disabled": 0, "fusion_lon": 0.0, "bike_id": "ef007a06824788a42f9cb6249fd1172e", "lon": -77.00922133333333, "rental_uris": {"ios": "https://dc.lft.to/lastmile_qr_scan", "android": "https://dc.lft.to/lastmile_qr_scan"}}, {"name": "6c1e27a46b790baa2bc368a53b1703e1", "fusion_lat": 0.0, "type": "electric_scooter", "lat": 38.91824166666667, "is_reserved": 0, "is_disabled": 0, "fusion_lon": 0.0, "bike_id": "6c1e27a46b790baa2bc368a53b1703e1", "lon": -77.03439283333333, "rental_uris": {"ios": "https://dc.lft.to/lastmile_qr_scan", "android": "https://dc.lft.to/lastmile_qr_scan"}}, {"name": "fddc6c30ec947b1fb826753a6e1e2175", "fusion_lat": 0.0, "type": "electric_scooter", "lat": 38.910586, "is_reserved": 0, "is_disabled": 0, "fusion_lon": 0.0, "bike_id": "fddc6c30ec947b1fb826753a6e1e2175", "lon": -77.02185, "rental_uris": {"ios": "https://dc.lft.to/lastmile_qr_scan", "android": "https://dc.lft.to/lastmile_qr_scan"}}, {"name": "225513e945d8fcbeedc6347cc94e594a", "fusion_lat": 0.0, "type": "electric_scooter", "lat": 38.912368666666666, "is_reserved": 0, "is_disabled": 0, "fusion_lon": 0.0, "bike_id": "225513e945d8fcbeedc6347cc94e594a", "lon": -77.04875333333334, "rental_uris": {"ios": "https://dc.lft.to/lastmile_qr_scan", "android": "https://dc.lft.to/lastmile_qr_scan"}}, {"name": "656b3115c50df1dac60b240cff933624", "fusion_lat": 0.0, "type": "electric_scooter", "lat": 38.89549, "is_reserved": 0, "is_disabled": 0, "fusion_lon": 0.0, "bike_id": "656b3115c50df1dac60b240cff933624", "lon": -76.94876766666667, "rental_uris": {"ios": "https://dc.lft.to/lastmile_qr_scan", "android": "https://dc.lft.to/lastmile_qr_scan"}}, {"name": "3ba0d297c414d402f13c7146ed88c076", "fusion_lat": 0.0, "type": "electric_bike", "lat": 38.95333483333334, "is_reserved": 0, "is_disabled": 0, "fusion_lon": 0.0, "bike_id": "3ba0d297c414d402f13c7146ed88c076", "lon": -76.97828283333334, "rental_uris": {"ios": "https://dc.lft.to/lastmile_qr_scan", "android": "https://dc.lft.to/lastmile_qr_scan"}}, {"name": "57f69df632535722f1f9877fa4abb53f", "fusion_lat": 0.0, "type": "electric_scooter", "lat": 38.909662, "is_reserved": 0, "is_disabled": 0, "fusion_lon": 0.0, "bike_id": "57f69df632535722f1f9877fa4abb53f", "lon": -77.0110975, "rental_uris": {"ios": "https://dc.lft.to/lastmile_qr_scan", "android": "https://dc.lft.to/lastmile_qr_scan"}}, {"name": "abd5157bc6c701d0356cda032ef91580", "fusion_lat": 0.0, "type": "electric_bike", "lat": 38.87753766666667, "is_reserved": 0, "is_disabled": 0, "fusion_lon": 0.0, "bike_id": "abd5157bc6c701d0356cda032ef91580", "lon": -76.9798475, "rental_uris": {"ios": "https://dc.lft.to/lastmile_qr_scan", "android": "https://dc.lft.to/lastmile_qr_scan"}}, {"name": "9d03d3b8bfb96bd3c4ec7def8a76b9b9", "fusion_lat": 0.0, "type": "electric_scooter", "lat": 38.900185666666665, "is_reserved": 0, "is_disabled": 0, "fusion_lon": 0.0, "bike_id": "9d03d3b8bfb96bd3c4ec7def8a76b9b9", "lon": -77.0334865, "rental_uris": {"ios": "https://dc.lft.to/lastmile_qr_scan", "android": "https://dc.lft.to/lastmile_qr_scan"}}, {"name": "a119c7599f1cdea3610dc1b3fa9b6969", "fusion_lat": 0.0, "type": "electric_scooter", "lat": 38.908184, "is_reserved": 0, "is_disabled": 0, "fusion_lon": 0.0, "bike_id": "a119c7599f1cdea3610dc1b3fa9b6969", "lon": -77.0394825, "rental_uris": {"ios": "https://dc.lft.to/lastmile_qr_scan", "android": "https://dc.lft.to/lastmile_qr_scan"}}, {"name": "97f8ebfe177c937a4833866ea95ccb85", "fusion_lat": 0.0, "type": "electric_bike", "lat": 38.9395725, "is_reserved": 0, "is_disabled": 0, "fusion_lon": 0.0, "bike_id": "97f8ebfe177c937a4833866ea95ccb85", "lon": -77.36095783333333, "rental_uris": {"ios": "https://dc.lft.to/lastmile_qr_scan", "android": "https://dc.lft.to/lastmile_qr_scan"}}, {"name": "9a466a103a183a56b92380e9bf9b3c05", "fusion_lat": 0.0, "type": "electric_scooter", "lat": 38.91704883333333, "is_reserved": 0, "is_disabled": 0, "fusion_lon": 0.0, "bike_id": "9a466a103a183a56b92380e9bf9b3c05", "lon": -77.041724, "rental_uris": {"ios": "https://dc.lft.to/lastmile_qr_scan", "android": "https://dc.lft.to/lastmile_qr_scan"}}, {"name": "05c5cfb6f4b70b03cc1454745a59a926", "fusion_lat": 0.0, "type": "electric_scooter", "lat": 38.91120683333333, "is_reserved": 0, "is_disabled": 0, "fusion_lon": 0.0, "bike_id": "05c5cfb6f4b70b03cc1454745a59a926", "lon": -77.043719, "rental_uris": {"ios": "https://dc.lft.to/lastmile_qr_scan", "android": "https://dc.lft.to/lastmile_qr_scan"}}, {"name": "9332b060d3547dbb1ff4d841283e8c86", "fusion_lat": 0.0, "type": "electric_scooter", "lat": 38.906448833333336, "is_reserved": 0, "is_disabled": 0, "fusion_lon": 0.0, "bike_id": "9332b060d3547dbb1ff4d841283e8c86", "lon": -76.98574733333334, "rental_uris": {"ios": "https://dc.lft.to/lastmile_qr_scan", "android": "https://dc.lft.to/lastmile_qr_scan"}}, {"name": "cdaa92248ec9bf68b2190a4d3a3efdf9", "fusion_lat": 0.0, "type": "electric_scooter", "lat": 38.892208, "is_reserved": 0, "is_disabled": 0, "fusion_lon": 0.0, "bike_id": "cdaa92248ec9bf68b2190a4d3a3efdf9", "lon": -77.01372466666666, "rental_uris": {"ios": "https://dc.lft.to/lastmile_qr_scan", "android": "https://dc.lft.to/lastmile_qr_scan"}}, {"name": "60033c9ac629938eda1035aeb2dedfdf", "fusion_lat": 0.0, "type": "electric_scooter", "lat": 38.9004, "is_reserved": 0, "is_disabled": 0, "fusion_lon": 0.0, "bike_id": "60033c9ac629938eda1035aeb2dedfdf", "lon": -77.01685283333333, "rental_uris": {"ios": "https://dc.lft.to/lastmile_qr_scan", "android": "https://dc.lft.to/lastmile_qr_scan"}}, {"name": "5d3fe3b491d3360c51540b73f6b95d0f", "fusion_lat": 0.0, "type": "electric_scooter", "lat": 38.90037266666667, "is_reserved": 0, "is_disabled": 0, "fusion_lon": 0.0, "bike_id": "5d3fe3b491d3360c51540b73f6b95d0f", "lon": -77.002159, "rental_uris": {"ios": "https://dc.lft.to/lastmile_qr_scan", "android": "https://dc.lft.to/lastmile_qr_scan"}}, {"name": "183cd08f62250d04b9c4dd33c2bbefdb", "fusion_lat": 0.0, "type": "electric_scooter", "lat": 38.84426966666667, "is_reserved": 0, "is_disabled": 0, "fusion_lon": 0.0, "bike_id": "183cd08f62250d04b9c4dd33c2bbefdb", "lon": -76.99777633333333, "rental_uris": {"ios": "https://dc.lft.to/lastmile_qr_scan", "android": "https://dc.lft.to/lastmile_qr_scan"}}, {"name": "eabbc5ffece357cb0b73e0ba7a780ef0", "fusion_lat": 0.0, "type": "electric_scooter", "lat": 38.9176385, "is_reserved": 0, "is_disabled": 0, "fusion_lon": 0.0, "bike_id": "eabbc5ffece357cb0b73e0ba7a780ef0", "lon": -77.02725283333334, "rental_uris": {"ios": "https://dc.lft.to/lastmile_qr_scan", "android": "https://dc.lft.to/lastmile_qr_scan"}}, {"name": "b7d1404188691f2c11b2c5892b828d8a", "fusion_lat": 0.0, "type": "electric_scooter", "lat": 38.8937425, "is_reserved": 0, "is_disabled": 0, "fusion_lon": 0.0, "bike_id": "b7d1404188691f2c11b2c5892b828d8a", "lon": -76.94995166666666, "rental_uris": {"ios": "https://dc.lft.to/lastmile_qr_scan", "android": "https://dc.lft.to/lastmile_qr_scan"}}, {"name": "b517fec979be89640d23f5caaa47504e", "fusion_lat": 0.0, "type": "electric_scooter", "lat": 38.926680833333336, "is_reserved": 0, "is_disabled": 0, "fusion_lon": 0.0, "bike_id": "b517fec979be89640d23f5caaa47504e", "lon": -77.014844, "rental_uris": {"ios": "https://dc.lft.to/lastmile_qr_scan", "android": "https://dc.lft.to/lastmile_qr_scan"}}, {"name": "2ec9e78e80c2903c1d663534618176df", "fusion_lat": 0.0, "type": "electric_scooter", "lat": 38.89607516666667, "is_reserved": 0, "is_disabled": 0, "fusion_lon": 0.0, "bike_id": "2ec9e78e80c2903c1d663534618176df", "lon": -77.02864583333333, "rental_uris": {"ios": "https://dc.lft.to/lastmile_qr_scan", "android": "https://dc.lft.to/lastmile_qr_scan"}}, {"name": "485f44a98c1b411a84cae65a4f338519", "fusion_lat": 0.0, "type": "electric_scooter", "lat": 38.911199333333336, "is_reserved": 0, "is_disabled": 0, "fusion_lon": 0.0, "bike_id": "485f44a98c1b411a84cae65a4f338519", "lon": -77.03920716666667, "rental_uris": {"ios": "https://dc.lft.to/lastmile_qr_scan", "android": "https://dc.lft.to/lastmile_qr_scan"}}, {"name": "af8ef72f9fa90dfd6f9f028b24789ebe", "fusion_lat": 0.0, "type": "electric_bike", "lat": 38.86909166666667, "is_reserved": 0, "is_disabled": 0, "fusion_lon": 0.0, "bike_id": "af8ef72f9fa90dfd6f9f028b24789ebe", "lon": -77.1317725, "rental_uris": {"ios": "https://dc.lft.to/lastmile_qr_scan", "android": "https://dc.lft.to/lastmile_qr_scan"}}, {"name": "39eddd92072eae8ef001d7fefeb56994", "fusion_lat": 0.0, "type": "electric_scooter", "lat": 38.899274, "is_reserved": 0, "is_disabled": 0, "fusion_lon": 0.0, "bike_id": "39eddd92072eae8ef001d7fefeb56994", "lon": -77.00347616666667, "rental_uris": {"ios": "https://dc.lft.to/lastmile_qr_scan", "android": "https://dc.lft.to/lastmile_qr_scan"}}, {"name": "76e956d04a01598dce8e75f324f319f5", "fusion_lat": 0.0, "type": "electric_scooter", "lat": 38.90258566666667, "is_reserved": 0, "is_disabled": 0, "fusion_lon": 0.0, "bike_id": "76e956d04a01598dce8e75f324f319f5", "lon": -77.017533, "rental_uris": {"ios": "https://dc.lft.to/lastmile_qr_scan", "android": "https://dc.lft.to/lastmile_qr_scan"}}, {"name": "a3dcccaf560deb3573b2b1a068e86b38", "fusion_lat": 0.0, "type": "electric_bike", "lat": 38.83439383333334, "is_reserved": 0, "is_disabled": 0, "fusion_lon": 0.0, "bike_id": "a3dcccaf560deb3573b2b1a068e86b38", "lon": -77.00827116666666, "rental_uris": {"ios": "https://dc.lft.to/lastmile_qr_scan", "android": "https://dc.lft.to/lastmile_qr_scan"}}, {"name": "0e31a230ada415aae3038dbed717bd9c", "fusion_lat": 0.0, "type": "electric_scooter", "lat": 38.900307833333336, "is_reserved": 0, "is_disabled": 0, "fusion_lon": 0.0, "bike_id": "0e31a230ada415aae3038dbed717bd9c", "lon": -76.988481, "rental_uris": {"ios": "https://dc.lft.to/lastmile_qr_scan", "android": "https://dc.lft.to/lastmile_qr_scan"}}, {"name": "6361240fab1bcee5a5571b6d16e97a54", "fusion_lat": 0.0, "type": "electric_scooter", "lat": 38.924506, "is_reserved": 0, "is_disabled": 0, "fusion_lon": 0.0, "bike_id": "6361240fab1bcee5a5571b6d16e97a54", "lon": -77.0327925, "rental_uris": {"ios": "https://dc.lft.to/lastmile_qr_scan", "android": "https://dc.lft.to/lastmile_qr_scan"}}, {"name": "46c2ffbf2bbd25757f05ace6b6c58584", "fusion_lat": 0.0, "type": "electric_scooter", "lat": 38.93557233333333, "is_reserved": 0, "is_disabled": 0, "fusion_lon": 0.0, "bike_id": "46c2ffbf2bbd25757f05ace6b6c58584", "lon": -77.023658, "rental_uris": {"ios": "https://dc.lft.to/lastmile_qr_scan", "android": "https://dc.lft.to/lastmile_qr_scan"}}, {"name": "a14452f3ec96818f5edf679e4a5cf03c", "fusion_lat": 0.0, "type": "electric_scooter", "lat": 38.91347316666667, "is_reserved": 0, "is_disabled": 0, "fusion_lon": 0.0, "bike_id": "a14452f3ec96818f5edf679e4a5cf03c", "lon": -77.00343266666667, "rental_uris": {"ios": "https://dc.lft.to/lastmile_qr_scan", "android": "https://dc.lft.to/lastmile_qr_scan"}}, {"name": "c289e88127d2d2a39f78725acfc56c7e", "fusion_lat": 0.0, "type": "electric_bike", "lat": 38.94586483333333, "is_reserved": 0, "is_disabled": 0, "fusion_lon": 0.0, "bike_id": "c289e88127d2d2a39f78725acfc56c7e", "lon": -77.00268966666667, "rental_uris": {"ios": "https://dc.lft.to/lastmile_qr_scan", "android": "https://dc.lft.to/lastmile_qr_scan"}}, {"name": "a0fdfdb1bd507c03b1e93ffd105619de", "fusion_lat": 0.0, "type": "electric_scooter", "lat": 38.90867633333333, "is_reserved": 0, "is_disabled": 0, "fusion_lon": 0.0, "bike_id": "a0fdfdb1bd507c03b1e93ffd105619de", "lon": -77.08594016666666, "rental_uris": {"ios": "https://dc.lft.to/lastmile_qr_scan", "android": "https://dc.lft.to/lastmile_qr_scan"}}, {"name": "c08dbef7a97a79f637041bb8c9528eee", "fusion_lat": 0.0, "type": "electric_scooter", "lat": 38.93889716666666, "is_reserved": 0, "is_disabled": 0, "fusion_lon": 0.0, "bike_id": "c08dbef7a97a79f637041bb8c9528eee", "lon": -77.024694, "rental_uris": {"ios": "https://dc.lft.to/lastmile_qr_scan", "android": "https://dc.lft.to/lastmile_qr_scan"}}, {"name": "0844e317d887c5e8ba4b131dc39043c2", "fusion_lat": 0.0, "type": "electric_scooter", "lat": 38.935987833333336, "is_reserved": 0, "is_disabled": 0, "fusion_lon": 0.0, "bike_id": "0844e317d887c5e8ba4b131dc39043c2", "lon": -77.05595733333334, "rental_uris": {"ios": "https://dc.lft.to/lastmile_qr_scan", "android": "https://dc.lft.to/lastmile_qr_scan"}}, {"name": "b1a00393481e4bede333065e69ed43f7", "fusion_lat": 0.0, "type": "electric_bike", "lat": 38.935789, "is_reserved": 0, "is_disabled": 0, "fusion_lon": 0.0, "bike_id": "b1a00393481e4bede333065e69ed43f7", "lon": -77.0212245, "rental_uris": {"ios": "https://dc.lft.to/lastmile_qr_scan", "android": "https://dc.lft.to/lastmile_qr_scan"}}, {"name": "fe53a146565305ed69d8662f7290f0fc", "fusion_lat": 0.0, "type": "electric_scooter", "lat": 38.900245166666664, "is_reserved": 0, "is_disabled": 0, "fusion_lon": 0.0, "bike_id": "fe53a146565305ed69d8662f7290f0fc", "lon": -77.00096816666667, "rental_uris": {"ios": "https://dc.lft.to/lastmile_qr_scan", "android": "https://dc.lft.to/lastmile_qr_scan"}}, {"name": "f85a6a69a3c7f2d0a32308449f5277c7", "fusion_lat": 0.0, "type": "electric_scooter", "lat": 38.90638633333333, "is_reserved": 0, "is_disabled": 0, "fusion_lon": 0.0, "bike_id": "f85a6a69a3c7f2d0a32308449f5277c7", "lon": -77.0059825, "rental_uris": {"ios": "https://dc.lft.to/lastmile_qr_scan", "android": "https://dc.lft.to/lastmile_qr_scan"}}, {"name": "c61c03cfb99cb5378602f9e6fcc3cf2c", "fusion_lat": 0.0, "type": "electric_scooter", "lat": 38.9206725, "is_reserved": 0, "is_disabled": 0, "fusion_lon": 0.0, "bike_id": "c61c03cfb99cb5378602f9e6fcc3cf2c", "lon": -77.02360766666666, "rental_uris": {"ios": "https://dc.lft.to/lastmile_qr_scan", "android": "https://dc.lft.to/lastmile_qr_scan"}}, {"name": "b98df39ca18957ca7d147aeb97363924", "fusion_lat": 0.0, "type": "electric_scooter", "lat": 38.914030333333336, "is_reserved": 0, "is_disabled": 0, "fusion_lon": 0.0, "bike_id": "b98df39ca18957ca7d147aeb97363924", "lon": -77.02229383333334, "rental_uris": {"ios": "https://dc.lft.to/lastmile_qr_scan", "android": "https://dc.lft.to/lastmile_qr_scan"}}, {"name": "bdd623e73c61402211eda169c9e0ff28", "fusion_lat": 0.0, "type": "electric_scooter", "lat": 38.94958883333334, "is_reserved": 0, "is_disabled": 0, "fusion_lon": 0.0, "bike_id": "bdd623e73c61402211eda169c9e0ff28", "lon": -77.02722033333333, "rental_uris": {"ios": "https://dc.lft.to/lastmile_qr_scan", "android": "https://dc.lft.to/lastmile_qr_scan"}}, {"name": "938497a1cf38882579cd97e4ab32bdc4", "fusion_lat": 0.0, "type": "electric_scooter", "lat": 38.916991333333335, "is_reserved": 0, "is_disabled": 0, "fusion_lon": 0.0, "bike_id": "938497a1cf38882579cd97e4ab32bdc4", "lon": -77.03173183333334, "rental_uris": {"ios": "https://dc.lft.to/lastmile_qr_scan", "android": "https://dc.lft.to/lastmile_qr_scan"}}, {"name": "c804f6bc74d91b6d2d49688208b0cdf6", "fusion_lat": 0.0, "type": "electric_scooter", "lat": 38.92288, "is_reserved": 0, "is_disabled": 0, "fusion_lon": 0.0, "bike_id": "c804f6bc74d91b6d2d49688208b0cdf6", "lon": -77.0296815, "rental_uris": {"ios": "https://dc.lft.to/lastmile_qr_scan", "android": "https://dc.lft.to/lastmile_qr_scan"}}, {"name": "15ef9fead51263f6390e172b37ec0000", "fusion_lat": 0.0, "type": "electric_scooter", "lat": 38.874999, "is_reserved": 0, "is_disabled": 0, "fusion_lon": 0.0, "bike_id": "15ef9fead51263f6390e172b37ec0000", "lon": -76.99791383333333, "rental_uris": {"ios": "https://dc.lft.to/lastmile_qr_scan", "android": "https://dc.lft.to/lastmile_qr_scan"}}, {"name": "6d7d94186db5a98ab4a90fe274b69fa9", "fusion_lat": 0.0, "type": "electric_scooter", "lat": 38.93301433333333, "is_reserved": 0, "is_disabled": 0, "fusion_lon": 0.0, "bike_id": "6d7d94186db5a98ab4a90fe274b69fa9", "lon": -77.02801433333333, "rental_uris": {"ios": "https://dc.lft.to/lastmile_qr_scan", "android": "https://dc.lft.to/lastmile_qr_scan"}}, {"name": "1b7d1c1ef9227d6b86dc2fed5a9f4ff5", "fusion_lat": 0.0, "type": "electric_bike", "lat": 38.894341, "is_reserved": 0, "is_disabled": 0, "fusion_lon": 0.0, "bike_id": "1b7d1c1ef9227d6b86dc2fed5a9f4ff5", "lon": -76.98358516666667, "rental_uris": {"ios": "https://dc.lft.to/lastmile_qr_scan", "android": "https://dc.lft.to/lastmile_qr_scan"}}, {"name": "1dc1de200caa0c3e59f4564de1d23476", "fusion_lat": 0.0, "type": "electric_scooter", "lat": 38.912507166666664, "is_reserved": 0, "is_disabled": 0, "fusion_lon": 0.0, "bike_id": "1dc1de200caa0c3e59f4564de1d23476", "lon": -77.00957116666666, "rental_uris": {"ios": "https://dc.lft.to/lastmile_qr_scan", "android": "https://dc.lft.to/lastmile_qr_scan"}}, {"name": "88aaafe8182ffcce9dff41ac3e0a915a", "fusion_lat": 0.0, "type": "electric_scooter", "lat": 38.892313333333334, "is_reserved": 0, "is_disabled": 0, "fusion_lon": 0.0, "bike_id": "88aaafe8182ffcce9dff41ac3e0a915a", "lon": -77.05002716666667, "rental_uris": {"ios": "https://dc.lft.to/lastmile_qr_scan", "android": "https://dc.lft.to/lastmile_qr_scan"}}, {"name": "dc3ea3379361210518588b29baee5a0f", "fusion_lat": 0.0, "type": "electric_bike", "lat": 38.966242, "is_reserved": 0, "is_disabled": 0, "fusion_lon": 0.0, "bike_id": "dc3ea3379361210518588b29baee5a0f", "lon": -76.97668766666666, "rental_uris": {"ios": "https://dc.lft.to/lastmile_qr_scan", "android": "https://dc.lft.to/lastmile_qr_scan"}}, {"name": "b8ec5a0684511ef02da007633963b4bc", "fusion_lat": 0.0, "type": "electric_scooter", "lat": 38.93686183333333, "is_reserved": 0, "is_disabled": 0, "fusion_lon": 0.0, "bike_id": "b8ec5a0684511ef02da007633963b4bc", "lon": -77.03164716666667, "rental_uris": {"ios": "https://dc.lft.to/lastmile_qr_scan", "android": "https://dc.lft.to/lastmile_qr_scan"}}, {"name": "2d400d8202e49b846d0df76fa28a6375", "fusion_lat": 0.0, "type": "electric_scooter", "lat": 38.935303, "is_reserved": 0, "is_disabled": 0, "fusion_lon": 0.0, "bike_id": "2d400d8202e49b846d0df76fa28a6375", "lon": -77.0285395, "rental_uris": {"ios": "https://dc.lft.to/lastmile_qr_scan", "android": "https://dc.lft.to/lastmile_qr_scan"}}, {"name": "ea0c792e22767f4594dc3da93371d8fe", "fusion_lat": 0.0, "type": "electric_scooter", "lat": 38.88365066666667, "is_reserved": 0, "is_disabled": 0, "fusion_lon": 0.0, "bike_id": "ea0c792e22767f4594dc3da93371d8fe", "lon": -77.03173883333334, "rental_uris": {"ios": "https://dc.lft.to/lastmile_qr_scan", "android": "https://dc.lft.to/lastmile_qr_scan"}}, {"name": "cda9c2a4b31ec2ff519e31056c7e9ed3", "fusion_lat": 0.0, "type": "electric_bike", "lat": 38.886358333333334, "is_reserved": 0, "is_disabled": 0, "fusion_lon": 0.0, "bike_id": "cda9c2a4b31ec2ff519e31056c7e9ed3", "lon": -76.9545895, "rental_uris": {"ios": "https://dc.lft.to/lastmile_qr_scan", "android": "https://dc.lft.to/lastmile_qr_scan"}}, {"name": "d2d0e4950ccb24fa61028a38d416df84", "fusion_lat": 0.0, "type": "electric_scooter", "lat": 38.90355, "is_reserved": 0, "is_disabled": 0, "fusion_lon": 0.0, "bike_id": "d2d0e4950ccb24fa61028a38d416df84", "lon": -77.04519816666667, "rental_uris": {"ios": "https://dc.lft.to/lastmile_qr_scan", "android": "https://dc.lft.to/lastmile_qr_scan"}}, {"name": "9018e742cb1e27c001cd555be147270c", "fusion_lat": 0.0, "type": "electric_scooter", "lat": 38.910089166666666, "is_reserved": 0, "is_disabled": 0, "fusion_lon": 0.0, "bike_id": "9018e742cb1e27c001cd555be147270c", "lon": -77.0400845, "rental_uris": {"ios": "https://dc.lft.to/lastmile_qr_scan", "android": "https://dc.lft.to/lastmile_qr_scan"}}, {"name": "79377317d2d5a54e9f8ce45b59663b68", "fusion_lat": 0.0, "type": "electric_scooter", "lat": 38.9125835, "is_reserved": 0, "is_disabled": 0, "fusion_lon": 0.0, "bike_id": "79377317d2d5a54e9f8ce45b59663b68", "lon": -77.00774333333334, "rental_uris": {"ios": "https://dc.lft.to/lastmile_qr_scan", "android": "https://dc.lft.to/lastmile_qr_scan"}}, {"name": "5cd7454e320a912e0ec1d0ad4c20a525", "fusion_lat": 0.0, "type": "electric_scooter", "lat": 38.91420733333333, "is_reserved": 0, "is_disabled": 0, "fusion_lon": 0.0, "bike_id": "5cd7454e320a912e0ec1d0ad4c20a525", "lon": -77.041556, "rental_uris": {"ios": "https://dc.lft.to/lastmile_qr_scan", "android": "https://dc.lft.to/lastmile_qr_scan"}}, {"name": "16bfd031978b114df8c8c21d8232b4ce", "fusion_lat": 0.0, "type": "electric_scooter", "lat": 38.93370316666667, "is_reserved": 0, "is_disabled": 0, "fusion_lon": 0.0, "bike_id": "16bfd031978b114df8c8c21d8232b4ce", "lon": -77.057148, "rental_uris": {"ios": "https://dc.lft.to/lastmile_qr_scan", "android": "https://dc.lft.to/lastmile_qr_scan"}}, {"name": "296d9afe36b5d34c758aa693671e2c8d", "fusion_lat": 0.0, "type": "electric_scooter", "lat": 38.921274, "is_reserved": 0, "is_disabled": 0, "fusion_lon": 0.0, "bike_id": "296d9afe36b5d34c758aa693671e2c8d", "lon": -77.0457485, "rental_uris": {"ios": "https://dc.lft.to/lastmile_qr_scan", "android": "https://dc.lft.to/lastmile_qr_scan"}}, {"name": "44ae33e89535f0f480c96a8320f063ed", "fusion_lat": 0.0, "type": "electric_scooter", "lat": 38.909603, "is_reserved": 0, "is_disabled": 0, "fusion_lon": 0.0, "bike_id": "44ae33e89535f0f480c96a8320f063ed", "lon": -77.038661, "rental_uris": {"ios": "https://dc.lft.to/lastmile_qr_scan", "android": "https://dc.lft.to/lastmile_qr_scan"}}, {"name": "72cdca9fd6280544541134ddf7840775", "fusion_lat": 0.0, "type": "electric_bike", "lat": 38.898360833333335, "is_reserved": 0, "is_disabled": 0, "fusion_lon": 0.0, "bike_id": "72cdca9fd6280544541134ddf7840775", "lon": -77.11797416666667, "rental_uris": {"ios": "https://dc.lft.to/lastmile_qr_scan", "android": "https://dc.lft.to/lastmile_qr_scan"}}, {"name": "40dbff35ed16c4c4164856a6fc3a5193", "fusion_lat": 0.0, "type": "electric_scooter", "lat": 38.931821666666664, "is_reserved": 0, "is_disabled": 0, "fusion_lon": 0.0, "bike_id": "40dbff35ed16c4c4164856a6fc3a5193", "lon": -77.02790616666667, "rental_uris": {"ios": "https://dc.lft.to/lastmile_qr_scan", "android": "https://dc.lft.to/lastmile_qr_scan"}}, {"name": "c9c4331a84a3a5bb78f2fadf42818f6a", "fusion_lat": 0.0, "type": "electric_scooter", "lat": 38.93309933333333, "is_reserved": 0, "is_disabled": 0, "fusion_lon": 0.0, "bike_id": "c9c4331a84a3a5bb78f2fadf42818f6a", "lon": -77.03094, "rental_uris": {"ios": "https://dc.lft.to/lastmile_qr_scan", "android": "https://dc.lft.to/lastmile_qr_scan"}}, {"name": "ab378b3113a4f44f9d5546ab9553c546", "fusion_lat": 0.0, "type": "electric_bike", "lat": 38.896867666666665, "is_reserved": 0, "is_disabled": 0, "fusion_lon": 0.0, "bike_id": "ab378b3113a4f44f9d5546ab9553c546", "lon": -76.9406445, "rental_uris": {"ios": "https://dc.lft.to/lastmile_qr_scan", "android": "https://dc.lft.to/lastmile_qr_scan"}}, {"name": "ca7f720fc6338b9d8a1136eb3d3677da", "fusion_lat": 0.0, "type": "electric_scooter", "lat": 38.92383483333333, "is_reserved": 0, "is_disabled": 0, "fusion_lon": 0.0, "bike_id": "ca7f720fc6338b9d8a1136eb3d3677da", "lon": -77.0295545, "rental_uris": {"ios": "https://dc.lft.to/lastmile_qr_scan", "android": "https://dc.lft.to/lastmile_qr_scan"}}, {"name": "4b49764b0f87f15a67fa6c31565aa391", "fusion_lat": 0.0, "type": "electric_scooter", "lat": 38.89996583333333, "is_reserved": 0, "is_disabled": 0, "fusion_lon": 0.0, "bike_id": "4b49764b0f87f15a67fa6c31565aa391", "lon": -77.02708666666666, "rental_uris": {"ios": "https://dc.lft.to/lastmile_qr_scan", "android": "https://dc.lft.to/lastmile_qr_scan"}}, {"name": "c07f62e67b4a9dbd2a2c0e533724df8b", "fusion_lat": 0.0, "type": "electric_scooter", "lat": 38.85804, "is_reserved": 0, "is_disabled": 0, "fusion_lon": 0.0, "bike_id": "c07f62e67b4a9dbd2a2c0e533724df8b", "lon": -76.98652833333334, "rental_uris": {"ios": "https://dc.lft.to/lastmile_qr_scan", "android": "https://dc.lft.to/lastmile_qr_scan"}}, {"name": "d071b0db977ff266fccdbaa4dd6570ab", "fusion_lat": 0.0, "type": "electric_scooter", "lat": 38.93950266666667, "is_reserved": 0, "is_disabled": 0, "fusion_lon": 0.0, "bike_id": "d071b0db977ff266fccdbaa4dd6570ab", "lon": -77.03262583333333, "rental_uris": {"ios": "https://dc.lft.to/lastmile_qr_scan", "android": "https://dc.lft.to/lastmile_qr_scan"}}, {"name": "f0fbf84c511a0f9cdf165a9dbf76053f", "fusion_lat": 0.0, "type": "electric_scooter", "lat": 38.92943483333333, "is_reserved": 0, "is_disabled": 0, "fusion_lon": 0.0, "bike_id": "f0fbf84c511a0f9cdf165a9dbf76053f", "lon": -77.0347435, "rental_uris": {"ios": "https://dc.lft.to/lastmile_qr_scan", "android": "https://dc.lft.to/lastmile_qr_scan"}}, {"name": "ca27c2efb45c57b134b0041a2d4f503d", "fusion_lat": 0.0, "type": "electric_scooter", "lat": 38.902445, "is_reserved": 0, "is_disabled": 0, "fusion_lon": 0.0, "bike_id": "ca27c2efb45c57b134b0041a2d4f503d", "lon": -77.04367083333334, "rental_uris": {"ios": "https://dc.lft.to/lastmile_qr_scan", "android": "https://dc.lft.to/lastmile_qr_scan"}}, {"name": "be8358ed6d17f08f1a2c1b7279af3ef4", "fusion_lat": 0.0, "type": "electric_scooter", "lat": 38.9111465, "is_reserved": 0, "is_disabled": 0, "fusion_lon": 0.0, "bike_id": "be8358ed6d17f08f1a2c1b7279af3ef4", "lon": -77.0371605, "rental_uris": {"ios": "https://dc.lft.to/lastmile_qr_scan", "android": "https://dc.lft.to/lastmile_qr_scan"}}, {"name": "0384a05732d6a7f4c90c35ec8b841a5b", "fusion_lat": 0.0, "type": "electric_scooter", "lat": 38.9058945, "is_reserved": 0, "is_disabled": 0, "fusion_lon": 0.0, "bike_id": "0384a05732d6a7f4c90c35ec8b841a5b", "lon": -77.07005416666667, "rental_uris": {"ios": "https://dc.lft.to/lastmile_qr_scan", "android": "https://dc.lft.to/lastmile_qr_scan"}}, {"name": "739c0037aa775ecec9fd40546ef2fe73", "fusion_lat": 0.0, "type": "electric_scooter", "lat": 38.922122333333334, "is_reserved": 0, "is_disabled": 0, "fusion_lon": 0.0, "bike_id": "739c0037aa775ecec9fd40546ef2fe73", "lon": -77.04235133333333, "rental_uris": {"ios": "https://dc.lft.to/lastmile_qr_scan", "android": "https://dc.lft.to/lastmile_qr_scan"}}, {"name": "6996b14d89a4be50eb0029c2f62e64a4", "fusion_lat": 0.0, "type": "electric_scooter", "lat": 38.93786383333333, "is_reserved": 0, "is_disabled": 0, "fusion_lon": 0.0, "bike_id": "6996b14d89a4be50eb0029c2f62e64a4", "lon": -77.05995866666666, "rental_uris": {"ios": "https://dc.lft.to/lastmile_qr_scan", "android": "https://dc.lft.to/lastmile_qr_scan"}}, {"name": "012699b9f6535f2d6feaa31a9dc42126", "fusion_lat": 0.0, "type": "electric_scooter", "lat": 38.9231975, "is_reserved": 0, "is_disabled": 0, "fusion_lon": 0.0, "bike_id": "012699b9f6535f2d6feaa31a9dc42126", "lon": -77.04026, "rental_uris": {"ios": "https://dc.lft.to/lastmile_qr_scan", "android": "https://dc.lft.to/lastmile_qr_scan"}}, {"name": "ff27530004f5472b07c0ed680dca3719", "fusion_lat": 0.0, "type": "electric_scooter", "lat": 38.876475, "is_reserved": 0, "is_disabled": 0, "fusion_lon": 0.0, "bike_id": "ff27530004f5472b07c0ed680dca3719", "lon": -76.96504983333334, "rental_uris": {"ios": "https://dc.lft.to/lastmile_qr_scan", "android": "https://dc.lft.to/lastmile_qr_scan"}}, {"name": "91168a5cdec3264a694ae963c7c93e5c", "fusion_lat": 0.0, "type": "electric_scooter", "lat": 38.938401, "is_reserved": 0, "is_disabled": 0, "fusion_lon": 0.0, "bike_id": "91168a5cdec3264a694ae963c7c93e5c", "lon": -77.02475183333334, "rental_uris": {"ios": "https://dc.lft.to/lastmile_qr_scan", "android": "https://dc.lft.to/lastmile_qr_scan"}}, {"name": "bf21191b981d424dd0c1703eb9fd06a0", "fusion_lat": 0.0, "type": "electric_bike", "lat": 38.990637, "is_reserved": 0, "is_disabled": 0, "fusion_lon": 0.0, "bike_id": "bf21191b981d424dd0c1703eb9fd06a0", "lon": -77.10028966666667, "rental_uris": {"ios": "https://dc.lft.to/lastmile_qr_scan", "android": "https://dc.lft.to/lastmile_qr_scan"}}, {"name": "b0d10d1711947bf65c9259fdd9958dc4", "fusion_lat": 0.0, "type": "electric_scooter", "lat": 38.90365233333333, "is_reserved": 0, "is_disabled": 0, "fusion_lon": 0.0, "bike_id": "b0d10d1711947bf65c9259fdd9958dc4", "lon": -77.04008333333333, "rental_uris": {"ios": "https://dc.lft.to/lastmile_qr_scan", "android": "https://dc.lft.to/lastmile_qr_scan"}}, {"name": "5817d5ee3cb6a4c5be75ab840159c9cf", "fusion_lat": 0.0, "type": "electric_bike", "lat": 38.8515695, "is_reserved": 0, "is_disabled": 0, "fusion_lon": 0.0, "bike_id": "5817d5ee3cb6a4c5be75ab840159c9cf", "lon": -77.12876566666667, "rental_uris": {"ios": "https://dc.lft.to/lastmile_qr_scan", "android": "https://dc.lft.to/lastmile_qr_scan"}}, {"name": "5e79819443fb93e5d49c5f682acddfbd", "fusion_lat": 0.0, "type": "electric_scooter", "lat": 38.865136166666666, "is_reserved": 0, "is_disabled": 0, "fusion_lon": 0.0, "bike_id": "5e79819443fb93e5d49c5f682acddfbd", "lon": -76.97339566666666, "rental_uris": {"ios": "https://dc.lft.to/lastmile_qr_scan", "android": "https://dc.lft.to/lastmile_qr_scan"}}, {"name": "7978bd7784fc72607fdd43754b5da685", "fusion_lat": 0.0, "type": "electric_scooter", "lat": 38.883434, "is_reserved": 0, "is_disabled": 0, "fusion_lon": 0.0, "bike_id": "7978bd7784fc72607fdd43754b5da685", "lon": -77.03166733333333, "rental_uris": {"ios": "https://dc.lft.to/lastmile_qr_scan", "android": "https://dc.lft.to/lastmile_qr_scan"}}, {"name": "7669c58e7b8f9c7889f1a0c30545c2e1", "fusion_lat": 0.0, "type": "electric_scooter", "lat": 38.930751666666666, "is_reserved": 0, "is_disabled": 0, "fusion_lon": 0.0, "bike_id": "7669c58e7b8f9c7889f1a0c30545c2e1", "lon": -77.034042, "rental_uris": {"ios": "https://dc.lft.to/lastmile_qr_scan", "android": "https://dc.lft.to/lastmile_qr_scan"}}, {"name": "665a0c5b7e6e573612c7def0b8a0b6c0", "fusion_lat": 0.0, "type": "electric_scooter", "lat": 38.910363333333336, "is_reserved": 0, "is_disabled": 0, "fusion_lon": 0.0, "bike_id": "665a0c5b7e6e573612c7def0b8a0b6c0", "lon": -77.0487745, "rental_uris": {"ios": "https://dc.lft.to/lastmile_qr_scan", "android": "https://dc.lft.to/lastmile_qr_scan"}}, {"name": "08b2f156c19468d1dd0f64b82fa0980a", "fusion_lat": 0.0, "type": "electric_bike", "lat": 38.93974133333333, "is_reserved": 0, "is_disabled": 0, "fusion_lon": 0.0, "bike_id": "08b2f156c19468d1dd0f64b82fa0980a", "lon": -76.9865705, "rental_uris": {"ios": "https://dc.lft.to/lastmile_qr_scan", "android": "https://dc.lft.to/lastmile_qr_scan"}}, {"name": "357327da2b91116a9bc68bf5cdd0a1ab", "fusion_lat": 0.0, "type": "electric_scooter", "lat": 38.9014225, "is_reserved": 0, "is_disabled": 0, "fusion_lon": 0.0, "bike_id": "357327da2b91116a9bc68bf5cdd0a1ab", "lon": -77.04490416666667, "rental_uris": {"ios": "https://dc.lft.to/lastmile_qr_scan", "android": "https://dc.lft.to/lastmile_qr_scan"}}, {"name": "dad9a5b73bfd9efcea3861d58a1d48ee", "fusion_lat": 0.0, "type": "electric_scooter", "lat": 38.89476233333333, "is_reserved": 0, "is_disabled": 0, "fusion_lon": 0.0, "bike_id": "dad9a5b73bfd9efcea3861d58a1d48ee", "lon": -76.98403316666666, "rental_uris": {"ios": "https://dc.lft.to/lastmile_qr_scan", "android": "https://dc.lft.to/lastmile_qr_scan"}}, {"name": "278fd89aaae2eb703158bd91113f62a4", "fusion_lat": 0.0, "type": "electric_scooter", "lat": 38.92577033333333, "is_reserved": 0, "is_disabled": 0, "fusion_lon": 0.0, "bike_id": "278fd89aaae2eb703158bd91113f62a4", "lon": -77.0284015, "rental_uris": {"ios": "https://dc.lft.to/lastmile_qr_scan", "android": "https://dc.lft.to/lastmile_qr_scan"}}, {"name": "646af3ed7fb0f64813df86dd4e1b25af", "fusion_lat": 0.0, "type": "electric_scooter", "lat": 38.9611665, "is_reserved": 0, "is_disabled": 0, "fusion_lon": 0.0, "bike_id": "646af3ed7fb0f64813df86dd4e1b25af", "lon": -77.0281205, "rental_uris": {"ios": "https://dc.lft.to/lastmile_qr_scan", "android": "https://dc.lft.to/lastmile_qr_scan"}}, {"name": "397f501ee848e9d34f55ca8da7d21413", "fusion_lat": 0.0, "type": "electric_bike", "lat": 38.87236016666667, "is_reserved": 0, "is_disabled": 0, "fusion_lon": 0.0, "bike_id": "397f501ee848e9d34f55ca8da7d21413", "lon": -77.01159066666666, "rental_uris": {"ios": "https://dc.lft.to/lastmile_qr_scan", "android": "https://dc.lft.to/lastmile_qr_scan"}}, {"name": "9a65ef351be21087898d0417c0819fdf", "fusion_lat": 0.0, "type": "electric_scooter", "lat": 38.898525166666666, "is_reserved": 0, "is_disabled": 0, "fusion_lon": 0.0, "bike_id": "9a65ef351be21087898d0417c0819fdf", "lon": -77.0073955, "rental_uris": {"ios": "https://dc.lft.to/lastmile_qr_scan", "android": "https://dc.lft.to/lastmile_qr_scan"}}, {"name": "03fbfddae51e9003212266757a6e4751", "fusion_lat": 0.0, "type": "electric_scooter", "lat": 38.943116833333335, "is_reserved": 0, "is_disabled": 0, "fusion_lon": 0.0, "bike_id": "03fbfddae51e9003212266757a6e4751", "lon": -77.059246, "rental_uris": {"ios": "https://dc.lft.to/lastmile_qr_scan", "android": "https://dc.lft.to/lastmile_qr_scan"}}, {"name": "af8ad4ff6cea72737444e3ee8e06dd55", "fusion_lat": 0.0, "type": "electric_scooter", "lat": 38.90206333333333, "is_reserved": 0, "is_disabled": 0, "fusion_lon": 0.0, "bike_id": "af8ad4ff6cea72737444e3ee8e06dd55", "lon": -76.98189633333334, "rental_uris": {"ios": "https://dc.lft.to/lastmile_qr_scan", "android": "https://dc.lft.to/lastmile_qr_scan"}}, {"name": "47b21109bba21640cfc78157bf8d190b", "fusion_lat": 0.0, "type": "electric_scooter", "lat": 38.898543, "is_reserved": 0, "is_disabled": 0, "fusion_lon": 0.0, "bike_id": "47b21109bba21640cfc78157bf8d190b", "lon": -76.97546116666666, "rental_uris": {"ios": "https://dc.lft.to/lastmile_qr_scan", "android": "https://dc.lft.to/lastmile_qr_scan"}}, {"name": "0f11399a6aa170173990cc8563a53a56", "fusion_lat": 0.0, "type": "electric_scooter", "lat": 38.899198, "is_reserved": 0, "is_disabled": 0, "fusion_lon": 0.0, "bike_id": "0f11399a6aa170173990cc8563a53a56", "lon": -76.93383333333334, "rental_uris": {"ios": "https://dc.lft.to/lastmile_qr_scan", "android": "https://dc.lft.to/lastmile_qr_scan"}}, {"name": "092771076ac1e0f3106d363bf53202c7", "fusion_lat": 0.0, "type": "electric_scooter", "lat": 38.885972, "is_reserved": 0, "is_disabled": 0, "fusion_lon": 0.0, "bike_id": "092771076ac1e0f3106d363bf53202c7", "lon": -77.02203633333333, "rental_uris": {"ios": "https://dc.lft.to/lastmile_qr_scan", "android": "https://dc.lft.to/lastmile_qr_scan"}}, {"name": "1e6d46127a1b98d0f8ad0e5cb288bd0a", "fusion_lat": 0.0, "type": "electric_scooter", "lat": 38.90549, "is_reserved": 0, "is_disabled": 0, "fusion_lon": 0.0, "bike_id": "1e6d46127a1b98d0f8ad0e5cb288bd0a", "lon": -77.0626705, "rental_uris": {"ios": "https://dc.lft.to/lastmile_qr_scan", "android": "https://dc.lft.to/lastmile_qr_scan"}}, {"name": "d060dbdda0e119f5fe69290a70495733", "fusion_lat": 0.0, "type": "electric_scooter", "lat": 38.92733333333334, "is_reserved": 0, "is_disabled": 0, "fusion_lon": 0.0, "bike_id": "d060dbdda0e119f5fe69290a70495733", "lon": -77.07147, "rental_uris": {"ios": "https://dc.lft.to/lastmile_qr_scan", "android": "https://dc.lft.to/lastmile_qr_scan"}}, {"name": "f29ef4969ff030707d43a58e2e1862d1", "fusion_lat": 0.0, "type": "electric_bike", "lat": 38.883452, "is_reserved": 0, "is_disabled": 0, "fusion_lon": 0.0, "bike_id": "f29ef4969ff030707d43a58e2e1862d1", "lon": -77.18296483333333, "rental_uris": {"ios": "https://dc.lft.to/lastmile_qr_scan", "android": "https://dc.lft.to/lastmile_qr_scan"}}, {"name": "1fcf73646e61634772230cb28dea7fb5", "fusion_lat": 0.0, "type": "electric_scooter", "lat": 38.910494, "is_reserved": 0, "is_disabled": 0, "fusion_lon": 0.0, "bike_id": "1fcf73646e61634772230cb28dea7fb5", "lon": -77.04368083333334, "rental_uris": {"ios": "https://dc.lft.to/lastmile_qr_scan", "android": "https://dc.lft.to/lastmile_qr_scan"}}, {"name": "bbb8b1db5dbeee9f05415755b95fae61", "fusion_lat": 0.0, "type": "electric_scooter", "lat": 38.8985105, "is_reserved": 0, "is_disabled": 0, "fusion_lon": 0.0, "bike_id": "bbb8b1db5dbeee9f05415755b95fae61", "lon": -77.01614033333334, "rental_uris": {"ios": "https://dc.lft.to/lastmile_qr_scan", "android": "https://dc.lft.to/lastmile_qr_scan"}}, {"name": "e5b02d60add691ace08091d5940e1ca5", "fusion_lat": 0.0, "type": "electric_scooter", "lat": 38.90030316666667, "is_reserved": 0, "is_disabled": 0, "fusion_lon": 0.0, "bike_id": "e5b02d60add691ace08091d5940e1ca5", "lon": -76.99827883333333, "rental_uris": {"ios": "https://dc.lft.to/lastmile_qr_scan", "android": "https://dc.lft.to/lastmile_qr_scan"}}, {"name": "d092ae6d5bb361530f792efb7d64c908", "fusion_lat": 0.0, "type": "electric_scooter", "lat": 38.9428215, "is_reserved": 0, "is_disabled": 0, "fusion_lon": 0.0, "bike_id": "d092ae6d5bb361530f792efb7d64c908", "lon": -77.02506433333333, "rental_uris": {"ios": "https://dc.lft.to/lastmile_qr_scan", "android": "https://dc.lft.to/lastmile_qr_scan"}}, {"name": "3d15984058ee106e710f320ac6308194", "fusion_lat": 0.0, "type": "electric_scooter", "lat": 38.9341225, "is_reserved": 0, "is_disabled": 0, "fusion_lon": 0.0, "bike_id": "3d15984058ee106e710f320ac6308194", "lon": -77.04181433333333, "rental_uris": {"ios": "https://dc.lft.to/lastmile_qr_scan", "android": "https://dc.lft.to/lastmile_qr_scan"}}, {"name": "4529f63409f1c0f1861b899f08a89317", "fusion_lat": 0.0, "type": "electric_scooter", "lat": 38.902007166666664, "is_reserved": 0, "is_disabled": 0, "fusion_lon": 0.0, "bike_id": "4529f63409f1c0f1861b899f08a89317", "lon": -76.98200366666667, "rental_uris": {"ios": "https://dc.lft.to/lastmile_qr_scan", "android": "https://dc.lft.to/lastmile_qr_scan"}}, {"name": "beff4efb5a57a3cdc0ff667482919f12", "fusion_lat": 0.0, "type": "electric_bike", "lat": 38.83863366666667, "is_reserved": 0, "is_disabled": 0, "fusion_lon": 0.0, "bike_id": "beff4efb5a57a3cdc0ff667482919f12", "lon": -77.08864916666667, "rental_uris": {"ios": "https://dc.lft.to/lastmile_qr_scan", "android": "https://dc.lft.to/lastmile_qr_scan"}}, {"name": "d52a062877fa5461a5443a75ebf3b007", "fusion_lat": 0.0, "type": "electric_scooter", "lat": 38.903293833333336, "is_reserved": 0, "is_disabled": 0, "fusion_lon": 0.0, "bike_id": "d52a062877fa5461a5443a75ebf3b007", "lon": -77.038219, "rental_uris": {"ios": "https://dc.lft.to/lastmile_qr_scan", "android": "https://dc.lft.to/lastmile_qr_scan"}}, {"name": "6e31ff09656ac151c062050286e00227", "fusion_lat": 0.0, "type": "electric_bike", "lat": 38.97324966666667, "is_reserved": 0, "is_disabled": 0, "fusion_lon": 0.0, "bike_id": "6e31ff09656ac151c062050286e00227", "lon": -77.02147266666667, "rental_uris": {"ios": "https://dc.lft.to/lastmile_qr_scan", "android": "https://dc.lft.to/lastmile_qr_scan"}}, {"name": "7b724fc262748450ffe1b1adc013b0f7", "fusion_lat": 0.0, "type": "electric_scooter", "lat": 38.922132833333336, "is_reserved": 0, "is_disabled": 0, "fusion_lon": 0.0, "bike_id": "7b724fc262748450ffe1b1adc013b0f7", "lon": -77.04238166666667, "rental_uris": {"ios": "https://dc.lft.to/lastmile_qr_scan", "android": "https://dc.lft.to/lastmile_qr_scan"}}, {"name": "9ef48cce2df5be2fda9fbe6aa6e44f0a", "fusion_lat": 0.0, "type": "electric_scooter", "lat": 38.917993833333334, "is_reserved": 0, "is_disabled": 0, "fusion_lon": 0.0, "bike_id": "9ef48cce2df5be2fda9fbe6aa6e44f0a", "lon": -77.02817733333333, "rental_uris": {"ios": "https://dc.lft.to/lastmile_qr_scan", "android": "https://dc.lft.to/lastmile_qr_scan"}}, {"name": "67bbfdd9f95d26f7c8282e652c1ceba1", "fusion_lat": 0.0, "type": "electric_scooter", "lat": 38.901405833333335, "is_reserved": 0, "is_disabled": 0, "fusion_lon": 0.0, "bike_id": "67bbfdd9f95d26f7c8282e652c1ceba1", "lon": -76.99969516666667, "rental_uris": {"ios": "https://dc.lft.to/lastmile_qr_scan", "android": "https://dc.lft.to/lastmile_qr_scan"}}, {"name": "d47086a48f0b5bfb64581414ebfade01", "fusion_lat": 0.0, "type": "electric_scooter", "lat": 38.93095916666667, "is_reserved": 0, "is_disabled": 0, "fusion_lon": 0.0, "bike_id": "d47086a48f0b5bfb64581414ebfade01", "lon": -77.02400533333333, "rental_uris": {"ios": "https://dc.lft.to/lastmile_qr_scan", "android": "https://dc.lft.to/lastmile_qr_scan"}}, {"name": "366d1aa77f18622693d4f1fed14d8d24", "fusion_lat": 0.0, "type": "electric_scooter", "lat": 38.939588, "is_reserved": 0, "is_disabled": 0, "fusion_lon": 0.0, "bike_id": "366d1aa77f18622693d4f1fed14d8d24", "lon": -77.0327995, "rental_uris": {"ios": "https://dc.lft.to/lastmile_qr_scan", "android": "https://dc.lft.to/lastmile_qr_scan"}}, {"name": "c17266139b9c8b11de260a2ccf0bd300", "fusion_lat": 0.0, "type": "electric_scooter", "lat": 38.91425066666667, "is_reserved": 0, "is_disabled": 0, "fusion_lon": 0.0, "bike_id": "c17266139b9c8b11de260a2ccf0bd300", "lon": -77.02605833333334, "rental_uris": {"ios": "https://dc.lft.to/lastmile_qr_scan", "android": "https://dc.lft.to/lastmile_qr_scan"}}, {"name": "1b3000eb9d920766d4d1b0cb26f3cfb2", "fusion_lat": 0.0, "type": "electric_scooter", "lat": 38.90316683333333, "is_reserved": 0, "is_disabled": 0, "fusion_lon": 0.0, "bike_id": "1b3000eb9d920766d4d1b0cb26f3cfb2", "lon": -77.03184666666667, "rental_uris": {"ios": "https://dc.lft.to/lastmile_qr_scan", "android": "https://dc.lft.to/lastmile_qr_scan"}}, {"name": "b93f92628c80f45030e2408e65fcfff8", "fusion_lat": 0.0, "type": "electric_scooter", "lat": 38.88930333333333, "is_reserved": 0, "is_disabled": 0, "fusion_lon": 0.0, "bike_id": "b93f92628c80f45030e2408e65fcfff8", "lon": -76.94780833333333, "rental_uris": {"ios": "https://dc.lft.to/lastmile_qr_scan", "android": "https://dc.lft.to/lastmile_qr_scan"}}, {"name": "59de6ad6cd6ec286070c61e949218ddc", "fusion_lat": 0.0, "type": "electric_scooter", "lat": 38.894668, "is_reserved": 0, "is_disabled": 0, "fusion_lon": 0.0, "bike_id": "59de6ad6cd6ec286070c61e949218ddc", "lon": -77.03068066666667, "rental_uris": {"ios": "https://dc.lft.to/lastmile_qr_scan", "android": "https://dc.lft.to/lastmile_qr_scan"}}, {"name": "ddb708fd76fc0e8c74f761e5b79c55a5", "fusion_lat": 0.0, "type": "electric_bike", "lat": 38.91921683333333, "is_reserved": 0, "is_disabled": 0, "fusion_lon": 0.0, "bike_id": "ddb708fd76fc0e8c74f761e5b79c55a5", "lon": -77.02529233333334, "rental_uris": {"ios": "https://dc.lft.to/lastmile_qr_scan", "android": "https://dc.lft.to/lastmile_qr_scan"}}, {"name": "b8fa9f1c8c598c2b0820a3e16475efc5", "fusion_lat": 0.0, "type": "electric_scooter", "lat": 38.86509733333333, "is_reserved": 0, "is_disabled": 0, "fusion_lon": 0.0, "bike_id": "b8fa9f1c8c598c2b0820a3e16475efc5", "lon": -76.99009383333333, "rental_uris": {"ios": "https://dc.lft.to/lastmile_qr_scan", "android": "https://dc.lft.to/lastmile_qr_scan"}}, {"name": "a7e31f10178a574a4f9f34edcd98946c", "fusion_lat": 0.0, "type": "electric_scooter", "lat": 38.92487, "is_reserved": 0, "is_disabled": 0, "fusion_lon": 0.0, "bike_id": "a7e31f10178a574a4f9f34edcd98946c", "lon": -77.07322416666666, "rental_uris": {"ios": "https://dc.lft.to/lastmile_qr_scan", "android": "https://dc.lft.to/lastmile_qr_scan"}}, {"name": "a163ad7a9ec8ec53c4b0f0994e3058fe", "fusion_lat": 0.0, "type": "electric_scooter", "lat": 38.93821166666667, "is_reserved": 0, "is_disabled": 0, "fusion_lon": 0.0, "bike_id": "a163ad7a9ec8ec53c4b0f0994e3058fe", "lon": -77.032825, "rental_uris": {"ios": "https://dc.lft.to/lastmile_qr_scan", "android": "https://dc.lft.to/lastmile_qr_scan"}}, {"name": "c06d3ad11256baf6d6587ca77ce1dda8", "fusion_lat": 0.0, "type": "electric_scooter", "lat": 38.902673166666666, "is_reserved": 0, "is_disabled": 0, "fusion_lon": 0.0, "bike_id": "c06d3ad11256baf6d6587ca77ce1dda8", "lon": -77.00920683333334, "rental_uris": {"ios": "https://dc.lft.to/lastmile_qr_scan", "android": "https://dc.lft.to/lastmile_qr_scan"}}, {"name": "ecd19733f857c2f24f17166280e548de", "fusion_lat": 0.0, "type": "electric_scooter", "lat": 38.910160833333336, "is_reserved": 0, "is_disabled": 0, "fusion_lon": 0.0, "bike_id": "ecd19733f857c2f24f17166280e548de", "lon": -77.02208066666667, "rental_uris": {"ios": "https://dc.lft.to/lastmile_qr_scan", "android": "https://dc.lft.to/lastmile_qr_scan"}}, {"name": "5e764296a506b9c2b8526b8116a5fc7a", "fusion_lat": 0.0, "type": "electric_scooter", "lat": 38.9089565, "is_reserved": 0, "is_disabled": 0, "fusion_lon": 0.0, "bike_id": "5e764296a506b9c2b8526b8116a5fc7a", "lon": -77.03144216666666, "rental_uris": {"ios": "https://dc.lft.to/lastmile_qr_scan", "android": "https://dc.lft.to/lastmile_qr_scan"}}, {"name": "6d9b067b4819ea93178ff46c58f0ccb2", "fusion_lat": 0.0, "type": "electric_scooter", "lat": 38.923752666666665, "is_reserved": 0, "is_disabled": 0, "fusion_lon": 0.0, "bike_id": "6d9b067b4819ea93178ff46c58f0ccb2", "lon": -77.03134266666666, "rental_uris": {"ios": "https://dc.lft.to/lastmile_qr_scan", "android": "https://dc.lft.to/lastmile_qr_scan"}}, {"name": "8660762d96cd0e0bd8a5a9bcdc315c45", "fusion_lat": 0.0, "type": "electric_scooter", "lat": 38.91227816666667, "is_reserved": 0, "is_disabled": 0, "fusion_lon": 0.0, "bike_id": "8660762d96cd0e0bd8a5a9bcdc315c45", "lon": -77.03207916666666, "rental_uris": {"ios": "https://dc.lft.to/lastmile_qr_scan", "android": "https://dc.lft.to/lastmile_qr_scan"}}, {"name": "eff4717cd013ec58b3d7ca13181669dd", "fusion_lat": 0.0, "type": "electric_bike", "lat": 38.83980483333333, "is_reserved": 0, "is_disabled": 0, "fusion_lon": 0.0, "bike_id": "eff4717cd013ec58b3d7ca13181669dd", "lon": -77.00561016666667, "rental_uris": {"ios": "https://dc.lft.to/lastmile_qr_scan", "android": "https://dc.lft.to/lastmile_qr_scan"}}, {"name": "9ef4930fdc72dec52f5b5e5941cadb7a", "fusion_lat": 0.0, "type": "electric_scooter", "lat": 38.895881333333335, "is_reserved": 0, "is_disabled": 0, "fusion_lon": 0.0, "bike_id": "9ef4930fdc72dec52f5b5e5941cadb7a", "lon": -76.9936, "rental_uris": {"ios": "https://dc.lft.to/lastmile_qr_scan", "android": "https://dc.lft.to/lastmile_qr_scan"}}, {"name": "dfbdbb2658b037c40e237535530ecc89", "fusion_lat": 0.0, "type": "electric_scooter", "lat": 38.89221116666667, "is_reserved": 0, "is_disabled": 0, "fusion_lon": 0.0, "bike_id": "dfbdbb2658b037c40e237535530ecc89", "lon": -77.02229083333333, "rental_uris": {"ios": "https://dc.lft.to/lastmile_qr_scan", "android": "https://dc.lft.to/lastmile_qr_scan"}}, {"name": "4792172ef0c90f35b768b2e2edab1208", "fusion_lat": 0.0, "type": "electric_bike", "lat": 38.8627135, "is_reserved": 0, "is_disabled": 0, "fusion_lon": 0.0, "bike_id": "4792172ef0c90f35b768b2e2edab1208", "lon": -77.059684, "rental_uris": {"ios": "https://dc.lft.to/lastmile_qr_scan", "android": "https://dc.lft.to/lastmile_qr_scan"}}, {"name": "f4adc40062b4891a84389d1c38bb3719", "fusion_lat": 0.0, "type": "electric_scooter", "lat": 38.94312866666667, "is_reserved": 0, "is_disabled": 0, "fusion_lon": 0.0, "bike_id": "f4adc40062b4891a84389d1c38bb3719", "lon": -77.0248445, "rental_uris": {"ios": "https://dc.lft.to/lastmile_qr_scan", "android": "https://dc.lft.to/lastmile_qr_scan"}}, {"name": "277e84c6b283570994241eed561316c3", "fusion_lat": 0.0, "type": "electric_scooter", "lat": 38.862514166666664, "is_reserved": 0, "is_disabled": 0, "fusion_lon": 0.0, "bike_id": "277e84c6b283570994241eed561316c3", "lon": -76.99527866666666, "rental_uris": {"ios": "https://dc.lft.to/lastmile_qr_scan", "android": "https://dc.lft.to/lastmile_qr_scan"}}, {"name": "a8892d08624b92a2a90ea4b5b3a7dd5a", "fusion_lat": 0.0, "type": "electric_scooter", "lat": 38.912422166666666, "is_reserved": 0, "is_disabled": 0, "fusion_lon": 0.0, "bike_id": "a8892d08624b92a2a90ea4b5b3a7dd5a", "lon": -77.03832133333333, "rental_uris": {"ios": "https://dc.lft.to/lastmile_qr_scan", "android": "https://dc.lft.to/lastmile_qr_scan"}}, {"name": "a0c11f1bf6121e4228bdb2e854074711", "fusion_lat": 0.0, "type": "electric_scooter", "lat": 38.88839333333333, "is_reserved": 0, "is_disabled": 0, "fusion_lon": 0.0, "bike_id": "a0c11f1bf6121e4228bdb2e854074711", "lon": -77.04907716666666, "rental_uris": {"ios": "https://dc.lft.to/lastmile_qr_scan", "android": "https://dc.lft.to/lastmile_qr_scan"}}, {"name": "366923368ecf2a53c20f75e217f8a2d5", "fusion_lat": 0.0, "type": "electric_scooter", "lat": 38.901046, "is_reserved": 0, "is_disabled": 0, "fusion_lon": 0.0, "bike_id": "366923368ecf2a53c20f75e217f8a2d5", "lon": -77.05037383333334, "rental_uris": {"ios": "https://dc.lft.to/lastmile_qr_scan", "android": "https://dc.lft.to/lastmile_qr_scan"}}, {"name": "e54582a8c3b3cb3b0f015bff6ab8b88b", "fusion_lat": 0.0, "type": "electric_bike", "lat": 38.90157283333333, "is_reserved": 0, "is_disabled": 0, "fusion_lon": 0.0, "bike_id": "e54582a8c3b3cb3b0f015bff6ab8b88b", "lon": -77.02270033333333, "rental_uris": {"ios": "https://dc.lft.to/lastmile_qr_scan", "android": "https://dc.lft.to/lastmile_qr_scan"}}, {"name": "c0a399536593b11df6ddf44221397dc2", "fusion_lat": 0.0, "type": "electric_scooter", "lat": 38.912676833333336, "is_reserved": 0, "is_disabled": 0, "fusion_lon": 0.0, "bike_id": "c0a399536593b11df6ddf44221397dc2", "lon": -77.0382915, "rental_uris": {"ios": "https://dc.lft.to/lastmile_qr_scan", "android": "https://dc.lft.to/lastmile_qr_scan"}}, {"name": "aad9655c2c8260a3e5cb3de8f1991acf", "fusion_lat": 0.0, "type": "electric_scooter", "lat": 38.92981183333333, "is_reserved": 0, "is_disabled": 0, "fusion_lon": 0.0, "bike_id": "aad9655c2c8260a3e5cb3de8f1991acf", "lon": -77.01449083333333, "rental_uris": {"ios": "https://dc.lft.to/lastmile_qr_scan", "android": "https://dc.lft.to/lastmile_qr_scan"}}, {"name": "450ea8baf99d9ec58c346c8c9dcfb318", "fusion_lat": 0.0, "type": "electric_scooter", "lat": 38.901207666666664, "is_reserved": 0, "is_disabled": 0, "fusion_lon": 0.0, "bike_id": "450ea8baf99d9ec58c346c8c9dcfb318", "lon": -77.02720583333333, "rental_uris": {"ios": "https://dc.lft.to/lastmile_qr_scan", "android": "https://dc.lft.to/lastmile_qr_scan"}}, {"name": "a7f395e1f163b952d1838288e1862cf6", "fusion_lat": 0.0, "type": "electric_bike", "lat": 39.09459283333333, "is_reserved": 0, "is_disabled": 0, "fusion_lon": 0.0, "bike_id": "a7f395e1f163b952d1838288e1862cf6", "lon": -77.14996616666667, "rental_uris": {"ios": "https://dc.lft.to/lastmile_qr_scan", "android": "https://dc.lft.to/lastmile_qr_scan"}}, {"name": "c829f26424cf532d5c450db216ea9d43", "fusion_lat": 0.0, "type": "electric_bike", "lat": 38.875303833333334, "is_reserved": 0, "is_disabled": 0, "fusion_lon": 0.0, "bike_id": "c829f26424cf532d5c450db216ea9d43", "lon": -77.19908783333334, "rental_uris": {"ios": "https://dc.lft.to/lastmile_qr_scan", "android": "https://dc.lft.to/lastmile_qr_scan"}}, {"name": "0a10f2ee078397240794b99e8b353480", "fusion_lat": 0.0, "type": "electric_scooter", "lat": 38.89220483333333, "is_reserved": 0, "is_disabled": 0, "fusion_lon": 0.0, "bike_id": "0a10f2ee078397240794b99e8b353480", "lon": -77.022286, "rental_uris": {"ios": "https://dc.lft.to/lastmile_qr_scan", "android": "https://dc.lft.to/lastmile_qr_scan"}}, {"name": "bcb80ded03c6b918fd7b74a5beb13824", "fusion_lat": 0.0, "type": "electric_scooter", "lat": 38.927281, "is_reserved": 0, "is_disabled": 0, "fusion_lon": 0.0, "bike_id": "bcb80ded03c6b918fd7b74a5beb13824", "lon": -77.00565883333333, "rental_uris": {"ios": "https://dc.lft.to/lastmile_qr_scan", "android": "https://dc.lft.to/lastmile_qr_scan"}}, {"name": "3087645fd3d55ef90e6f23e347e3585e", "fusion_lat": 0.0, "type": "electric_scooter", "lat": 38.909646, "is_reserved": 0, "is_disabled": 0, "fusion_lon": 0.0, "bike_id": "3087645fd3d55ef90e6f23e347e3585e", "lon": -77.04614366666667, "rental_uris": {"ios": "https://dc.lft.to/lastmile_qr_scan", "android": "https://dc.lft.to/lastmile_qr_scan"}}, {"name": "7640755287f955eb0654fb9b741b76f1", "fusion_lat": 0.0, "type": "electric_scooter", "lat": 38.9237415, "is_reserved": 0, "is_disabled": 0, "fusion_lon": 0.0, "bike_id": "7640755287f955eb0654fb9b741b76f1", "lon": -77.02986233333333, "rental_uris": {"ios": "https://dc.lft.to/lastmile_qr_scan", "android": "https://dc.lft.to/lastmile_qr_scan"}}, {"name": "e3e1c997fb169e6dc13e35aee485094a", "fusion_lat": 0.0, "type": "electric_scooter", "lat": 38.8991265, "is_reserved": 0, "is_disabled": 0, "fusion_lon": 0.0, "bike_id": "e3e1c997fb169e6dc13e35aee485094a", "lon": -76.933566, "rental_uris": {"ios": "https://dc.lft.to/lastmile_qr_scan", "android": "https://dc.lft.to/lastmile_qr_scan"}}, {"name": "6a5ec53bee685a51cec1c0fa35a835c2", "fusion_lat": 0.0, "type": "electric_scooter", "lat": 38.9181895, "is_reserved": 0, "is_disabled": 0, "fusion_lon": 0.0, "bike_id": "6a5ec53bee685a51cec1c0fa35a835c2", "lon": -77.0279745, "rental_uris": {"ios": "https://dc.lft.to/lastmile_qr_scan", "android": "https://dc.lft.to/lastmile_qr_scan"}}, {"name": "c676714cf6a7d0dfb4255c7bd42c7f95", "fusion_lat": 0.0, "type": "electric_bike", "lat": 38.857890833333336, "is_reserved": 0, "is_disabled": 0, "fusion_lon": 0.0, "bike_id": "c676714cf6a7d0dfb4255c7bd42c7f95", "lon": -77.099619, "rental_uris": {"ios": "https://dc.lft.to/lastmile_qr_scan", "android": "https://dc.lft.to/lastmile_qr_scan"}}, {"name": "aad65e4994d67b6aeefb6b202fe60a57", "fusion_lat": 0.0, "type": "electric_scooter", "lat": 38.9084985, "is_reserved": 0, "is_disabled": 0, "fusion_lon": 0.0, "bike_id": "aad65e4994d67b6aeefb6b202fe60a57", "lon": -77.020415, "rental_uris": {"ios": "https://dc.lft.to/lastmile_qr_scan", "android": "https://dc.lft.to/lastmile_qr_scan"}}, {"name": "1ae36d691c88d612690bba35d7f768ca", "fusion_lat": 0.0, "type": "electric_scooter", "lat": 38.942901666666664, "is_reserved": 0, "is_disabled": 0, "fusion_lon": 0.0, "bike_id": "1ae36d691c88d612690bba35d7f768ca", "lon": -77.02172616666667, "rental_uris": {"ios": "https://dc.lft.to/lastmile_qr_scan", "android": "https://dc.lft.to/lastmile_qr_scan"}}, {"name": "9d68b1f772d4c8ab89497a535ba28406", "fusion_lat": 0.0, "type": "electric_scooter", "lat": 38.909712, "is_reserved": 0, "is_disabled": 0, "fusion_lon": 0.0, "bike_id": "9d68b1f772d4c8ab89497a535ba28406", "lon": -77.03817583333333, "rental_uris": {"ios": "https://dc.lft.to/lastmile_qr_scan", "android": "https://dc.lft.to/lastmile_qr_scan"}}, {"name": "4a342fc20a8f8c197b4981479967cbaf", "fusion_lat": 0.0, "type": "electric_scooter", "lat": 38.9299815, "is_reserved": 0, "is_disabled": 0, "fusion_lon": 0.0, "bike_id": "4a342fc20a8f8c197b4981479967cbaf", "lon": -77.02312683333334, "rental_uris": {"ios": "https://dc.lft.to/lastmile_qr_scan", "android": "https://dc.lft.to/lastmile_qr_scan"}}, {"name": "326f094d9be465aa66cc00b69df3b384", "fusion_lat": 0.0, "type": "electric_scooter", "lat": 38.91248733333333, "is_reserved": 0, "is_disabled": 0, "fusion_lon": 0.0, "bike_id": "326f094d9be465aa66cc00b69df3b384", "lon": -77.02225633333333, "rental_uris": {"ios": "https://dc.lft.to/lastmile_qr_scan", "android": "https://dc.lft.to/lastmile_qr_scan"}}, {"name": "386a8b09641e01dabe2455254c49823d", "fusion_lat": 0.0, "type": "electric_scooter", "lat": 38.89736583333333, "is_reserved": 0, "is_disabled": 0, "fusion_lon": 0.0, "bike_id": "386a8b09641e01dabe2455254c49823d", "lon": -76.94253066666667, "rental_uris": {"ios": "https://dc.lft.to/lastmile_qr_scan", "android": "https://dc.lft.to/lastmile_qr_scan"}}, {"name": "89f8b11b0d9ac6073cefaa7386ef0681", "fusion_lat": 0.0, "type": "electric_scooter", "lat": 38.900164333333336, "is_reserved": 0, "is_disabled": 0, "fusion_lon": 0.0, "bike_id": "89f8b11b0d9ac6073cefaa7386ef0681", "lon": -77.03335033333333, "rental_uris": {"ios": "https://dc.lft.to/lastmile_qr_scan", "android": "https://dc.lft.to/lastmile_qr_scan"}}, {"name": "b7f97302dfd2fe7384ea13b823025a39", "fusion_lat": 0.0, "type": "electric_scooter", "lat": 38.9079735, "is_reserved": 0, "is_disabled": 0, "fusion_lon": 0.0, "bike_id": "b7f97302dfd2fe7384ea13b823025a39", "lon": -77.0482315, "rental_uris": {"ios": "https://dc.lft.to/lastmile_qr_scan", "android": "https://dc.lft.to/lastmile_qr_scan"}}, {"name": "0ff81f346e431e61acc74f82787b0a00", "fusion_lat": 0.0, "type": "electric_scooter", "lat": 38.90862633333333, "is_reserved": 0, "is_disabled": 0, "fusion_lon": 0.0, "bike_id": "0ff81f346e431e61acc74f82787b0a00", "lon": -77.02716066666666, "rental_uris": {"ios": "https://dc.lft.to/lastmile_qr_scan", "android": "https://dc.lft.to/lastmile_qr_scan"}}, {"name": "6d6f62d4da2610dc085d918063c5ccdf", "fusion_lat": 0.0, "type": "electric_bike", "lat": 38.9360195, "is_reserved": 0, "is_disabled": 0, "fusion_lon": 0.0, "bike_id": "6d6f62d4da2610dc085d918063c5ccdf", "lon": -77.02110983333333, "rental_uris": {"ios": "https://dc.lft.to/lastmile_qr_scan", "android": "https://dc.lft.to/lastmile_qr_scan"}}, {"name": "33a0d5533271fe8211845dccc60074da", "fusion_lat": 0.0, "type": "electric_bike", "lat": 38.9650495, "is_reserved": 0, "is_disabled": 0, "fusion_lon": 0.0, "bike_id": "33a0d5533271fe8211845dccc60074da", "lon": -77.1033435, "rental_uris": {"ios": "https://dc.lft.to/lastmile_qr_scan", "android": "https://dc.lft.to/lastmile_qr_scan"}}, {"name": "f5dff04ae792f7f0a383afdd3040153c", "fusion_lat": 0.0, "type": "electric_scooter", "lat": 38.933869333333334, "is_reserved": 0, "is_disabled": 0, "fusion_lon": 0.0, "bike_id": "f5dff04ae792f7f0a383afdd3040153c", "lon": -77.05762266666666, "rental_uris": {"ios": "https://dc.lft.to/lastmile_qr_scan", "android": "https://dc.lft.to/lastmile_qr_scan"}}, {"name": "09caefdb18843c7945354904b9dd5912", "fusion_lat": 0.0, "type": "electric_scooter", "lat": 38.9034215, "is_reserved": 0, "is_disabled": 0, "fusion_lon": 0.0, "bike_id": "09caefdb18843c7945354904b9dd5912", "lon": -77.0529055, "rental_uris": {"ios": "https://dc.lft.to/lastmile_qr_scan", "android": "https://dc.lft.to/lastmile_qr_scan"}}, {"name": "f4efa4ec1f27c96ca2eac6737dde1c4f", "fusion_lat": 0.0, "type": "electric_scooter", "lat": 38.9418665, "is_reserved": 0, "is_disabled": 0, "fusion_lon": 0.0, "bike_id": "f4efa4ec1f27c96ca2eac6737dde1c4f", "lon": -77.03031516666667, "rental_uris": {"ios": "https://dc.lft.to/lastmile_qr_scan", "android": "https://dc.lft.to/lastmile_qr_scan"}}, {"name": "c8b7feadf694ce37f4008cb2bf9b3714", "fusion_lat": 0.0, "type": "electric_scooter", "lat": 38.919137166666665, "is_reserved": 0, "is_disabled": 0, "fusion_lon": 0.0, "bike_id": "c8b7feadf694ce37f4008cb2bf9b3714", "lon": -77.02618533333333, "rental_uris": {"ios": "https://dc.lft.to/lastmile_qr_scan", "android": "https://dc.lft.to/lastmile_qr_scan"}}, {"name": "f2ed35edd3a6054e8f122d896dda4ce3", "fusion_lat": 0.0, "type": "electric_scooter", "lat": 38.913329833333336, "is_reserved": 0, "is_disabled": 0, "fusion_lon": 0.0, "bike_id": "f2ed35edd3a6054e8f122d896dda4ce3", "lon": -77.04581083333333, "rental_uris": {"ios": "https://dc.lft.to/lastmile_qr_scan", "android": "https://dc.lft.to/lastmile_qr_scan"}}, {"name": "57e3cea8e27274f3d1d3b343747414ba", "fusion_lat": 0.0, "type": "electric_bike", "lat": 39.058133833333336, "is_reserved": 0, "is_disabled": 0, "fusion_lon": 0.0, "bike_id": "57e3cea8e27274f3d1d3b343747414ba", "lon": -77.12626583333333, "rental_uris": {"ios": "https://dc.lft.to/lastmile_qr_scan", "android": "https://dc.lft.to/lastmile_qr_scan"}}, {"name": "55abc0c895ec52cbd485c23e7efa7877", "fusion_lat": 0.0, "type": "electric_scooter", "lat": 38.897312, "is_reserved": 0, "is_disabled": 0, "fusion_lon": 0.0, "bike_id": "55abc0c895ec52cbd485c23e7efa7877", "lon": -77.00929883333333, "rental_uris": {"ios": "https://dc.lft.to/lastmile_qr_scan", "android": "https://dc.lft.to/lastmile_qr_scan"}}, {"name": "44d0091fe6976e71a5cd0cdcbfea14bc", "fusion_lat": 0.0, "type": "electric_bike", "lat": 38.84614066666666, "is_reserved": 0, "is_disabled": 0, "fusion_lon": 0.0, "bike_id": "44d0091fe6976e71a5cd0cdcbfea14bc", "lon": -76.9782955, "rental_uris": {"ios": "https://dc.lft.to/lastmile_qr_scan", "android": "https://dc.lft.to/lastmile_qr_scan"}}, {"name": "58e5731e297ba859720a7a231279406f", "fusion_lat": 0.0, "type": "electric_scooter", "lat": 38.91964983333333, "is_reserved": 0, "is_disabled": 0, "fusion_lon": 0.0, "bike_id": "58e5731e297ba859720a7a231279406f", "lon": -77.03862383333333, "rental_uris": {"ios": "https://dc.lft.to/lastmile_qr_scan", "android": "https://dc.lft.to/lastmile_qr_scan"}}, {"name": "1eee62fc50de49244078969a63713532", "fusion_lat": 0.0, "type": "electric_scooter", "lat": 38.9215215, "is_reserved": 0, "is_disabled": 0, "fusion_lon": 0.0, "bike_id": "1eee62fc50de49244078969a63713532", "lon": -77.03381433333334, "rental_uris": {"ios": "https://dc.lft.to/lastmile_qr_scan", "android": "https://dc.lft.to/lastmile_qr_scan"}}, {"name": "cb0974c9ae3123fe29b6d0c2994c53cf", "fusion_lat": 0.0, "type": "electric_scooter", "lat": 38.90835766666667, "is_reserved": 0, "is_disabled": 0, "fusion_lon": 0.0, "bike_id": "cb0974c9ae3123fe29b6d0c2994c53cf", "lon": -77.0012015, "rental_uris": {"ios": "https://dc.lft.to/lastmile_qr_scan", "android": "https://dc.lft.to/lastmile_qr_scan"}}, {"name": "43990d49617c8038375f6f177da44c8c", "fusion_lat": 0.0, "type": "electric_scooter", "lat": 38.90669233333333, "is_reserved": 0, "is_disabled": 0, "fusion_lon": 0.0, "bike_id": "43990d49617c8038375f6f177da44c8c", "lon": -77.02710033333334, "rental_uris": {"ios": "https://dc.lft.to/lastmile_qr_scan", "android": "https://dc.lft.to/lastmile_qr_scan"}}, {"name": "5cce9ec41fa137967aaff3e8fad281ee", "fusion_lat": 0.0, "type": "electric_scooter", "lat": 38.90903633333333, "is_reserved": 0, "is_disabled": 0, "fusion_lon": 0.0, "bike_id": "5cce9ec41fa137967aaff3e8fad281ee", "lon": -77.02815883333334, "rental_uris": {"ios": "https://dc.lft.to/lastmile_qr_scan", "android": "https://dc.lft.to/lastmile_qr_scan"}}, {"name": "06c41f913f65eec87df5627db759a006", "fusion_lat": 0.0, "type": "electric_scooter", "lat": 38.9180895, "is_reserved": 0, "is_disabled": 0, "fusion_lon": 0.0, "bike_id": "06c41f913f65eec87df5627db759a006", "lon": -77.010186, "rental_uris": {"ios": "https://dc.lft.to/lastmile_qr_scan", "android": "https://dc.lft.to/lastmile_qr_scan"}}, {"name": "70429013934ab03a572148ca4a399aa8", "fusion_lat": 0.0, "type": "electric_scooter", "lat": 38.91216983333333, "is_reserved": 0, "is_disabled": 0, "fusion_lon": 0.0, "bike_id": "70429013934ab03a572148ca4a399aa8", "lon": -77.07591216666667, "rental_uris": {"ios": "https://dc.lft.to/lastmile_qr_scan", "android": "https://dc.lft.to/lastmile_qr_scan"}}, {"name": "38a6e15d9bded7a6099b6a6e7e055729", "fusion_lat": 0.0, "type": "electric_scooter", "lat": 38.8429245, "is_reserved": 0, "is_disabled": 0, "fusion_lon": 0.0, "bike_id": "38a6e15d9bded7a6099b6a6e7e055729", "lon": -76.99947133333333, "rental_uris": {"ios": "https://dc.lft.to/lastmile_qr_scan", "android": "https://dc.lft.to/lastmile_qr_scan"}}, {"name": "3570f9ed408ab7547d981d5e891f839a", "fusion_lat": 0.0, "type": "electric_scooter", "lat": 38.88068633333334, "is_reserved": 0, "is_disabled": 0, "fusion_lon": 0.0, "bike_id": "3570f9ed408ab7547d981d5e891f839a", "lon": -76.9353455, "rental_uris": {"ios": "https://dc.lft.to/lastmile_qr_scan", "android": "https://dc.lft.to/lastmile_qr_scan"}}, {"name": "76561876fac34992aa534b4456d2fb57", "fusion_lat": 0.0, "type": "electric_scooter", "lat": 38.91822466666667, "is_reserved": 0, "is_disabled": 0, "fusion_lon": 0.0, "bike_id": "76561876fac34992aa534b4456d2fb57", "lon": -77.01207283333333, "rental_uris": {"ios": "https://dc.lft.to/lastmile_qr_scan", "android": "https://dc.lft.to/lastmile_qr_scan"}}, {"name": "56c38431270b764d93c19425c337c453", "fusion_lat": 0.0, "type": "electric_scooter", "lat": 38.8850545, "is_reserved": 0, "is_disabled": 0, "fusion_lon": 0.0, "bike_id": "56c38431270b764d93c19425c337c453", "lon": -77.02177033333334, "rental_uris": {"ios": "https://dc.lft.to/lastmile_qr_scan", "android": "https://dc.lft.to/lastmile_qr_scan"}}, {"name": "e97e2bb018c999cc3f4b9a5f06e2c1a8", "fusion_lat": 0.0, "type": "electric_scooter", "lat": 38.904469666666664, "is_reserved": 0, "is_disabled": 0, "fusion_lon": 0.0, "bike_id": "e97e2bb018c999cc3f4b9a5f06e2c1a8", "lon": -76.996243, "rental_uris": {"ios": "https://dc.lft.to/lastmile_qr_scan", "android": "https://dc.lft.to/lastmile_qr_scan"}}, {"name": "77aafb572c0d8e1eae2c9ea07f407cd2", "fusion_lat": 0.0, "type": "electric_scooter", "lat": 38.89585233333333, "is_reserved": 0, "is_disabled": 0, "fusion_lon": 0.0, "bike_id": "77aafb572c0d8e1eae2c9ea07f407cd2", "lon": -76.93716433333333, "rental_uris": {"ios": "https://dc.lft.to/lastmile_qr_scan", "android": "https://dc.lft.to/lastmile_qr_scan"}}, {"name": "0cc09ac6cdac8b3b8fd58c3eb13e97fa", "fusion_lat": 0.0, "type": "electric_scooter", "lat": 38.877565833333335, "is_reserved": 0, "is_disabled": 0, "fusion_lon": 0.0, "bike_id": "0cc09ac6cdac8b3b8fd58c3eb13e97fa", "lon": -76.99417483333333, "rental_uris": {"ios": "https://dc.lft.to/lastmile_qr_scan", "android": "https://dc.lft.to/lastmile_qr_scan"}}, {"name": "9122d1aad9941ad8f6c0faab73e03862", "fusion_lat": 0.0, "type": "electric_scooter", "lat": 38.9097395, "is_reserved": 0, "is_disabled": 0, "fusion_lon": 0.0, "bike_id": "9122d1aad9941ad8f6c0faab73e03862", "lon": -77.04551833333333, "rental_uris": {"ios": "https://dc.lft.to/lastmile_qr_scan", "android": "https://dc.lft.to/lastmile_qr_scan"}}, {"name": "91d0bd01b981c3a073eeb2243318e891", "fusion_lat": 0.0, "type": "electric_scooter", "lat": 38.90321766666667, "is_reserved": 0, "is_disabled": 0, "fusion_lon": 0.0, "bike_id": "91d0bd01b981c3a073eeb2243318e891", "lon": -77.03460883333334, "rental_uris": {"ios": "https://dc.lft.to/lastmile_qr_scan", "android": "https://dc.lft.to/lastmile_qr_scan"}}, {"name": "cb2ad746521f45a77fb8fd67f81ebc7a", "fusion_lat": 0.0, "type": "electric_scooter", "lat": 38.85619233333333, "is_reserved": 0, "is_disabled": 0, "fusion_lon": 0.0, "bike_id": "cb2ad746521f45a77fb8fd67f81ebc7a", "lon": -76.98018433333333, "rental_uris": {"ios": "https://dc.lft.to/lastmile_qr_scan", "android": "https://dc.lft.to/lastmile_qr_scan"}}, {"name": "e296242ac756c6cb52f2218bee1de2c9", "fusion_lat": 0.0, "type": "electric_bike", "lat": 38.920092333333336, "is_reserved": 0, "is_disabled": 0, "fusion_lon": 0.0, "bike_id": "e296242ac756c6cb52f2218bee1de2c9", "lon": -76.9749365, "rental_uris": {"ios": "https://dc.lft.to/lastmile_qr_scan", "android": "https://dc.lft.to/lastmile_qr_scan"}}, {"name": "77a3d25005ad6b93feb4b013ec948081", "fusion_lat": 0.0, "type": "electric_scooter", "lat": 38.91268266666667, "is_reserved": 0, "is_disabled": 0, "fusion_lon": 0.0, "bike_id": "77a3d25005ad6b93feb4b013ec948081", "lon": -77.060883, "rental_uris": {"ios": "https://dc.lft.to/lastmile_qr_scan", "android": "https://dc.lft.to/lastmile_qr_scan"}}, {"name": "9bc5418167e9ba125e4b9a2576e1a9c3", "fusion_lat": 0.0, "type": "electric_scooter", "lat": 38.905090333333334, "is_reserved": 0, "is_disabled": 0, "fusion_lon": 0.0, "bike_id": "9bc5418167e9ba125e4b9a2576e1a9c3", "lon": -76.994505, "rental_uris": {"ios": "https://dc.lft.to/lastmile_qr_scan", "android": "https://dc.lft.to/lastmile_qr_scan"}}, {"name": "78148bb2b8e02806326a0d55d002f7b1", "fusion_lat": 0.0, "type": "electric_bike", "lat": 38.905756833333335, "is_reserved": 0, "is_disabled": 0, "fusion_lon": 0.0, "bike_id": "78148bb2b8e02806326a0d55d002f7b1", "lon": -77.047351, "rental_uris": {"ios": "https://dc.lft.to/lastmile_qr_scan", "android": "https://dc.lft.to/lastmile_qr_scan"}}, {"name": "70d97879871385fc7555b184b6640d05", "fusion_lat": 0.0, "type": "electric_scooter", "lat": 38.9064275, "is_reserved": 0, "is_disabled": 0, "fusion_lon": 0.0, "bike_id": "70d97879871385fc7555b184b6640d05", "lon": -77.03864533333333, "rental_uris": {"ios": "https://dc.lft.to/lastmile_qr_scan", "android": "https://dc.lft.to/lastmile_qr_scan"}}, {"name": "db4bcee43b1da62299f364bc5f332055", "fusion_lat": 0.0, "type": "electric_scooter", "lat": 38.906779, "is_reserved": 0, "is_disabled": 0, "fusion_lon": 0.0, "bike_id": "db4bcee43b1da62299f364bc5f332055", "lon": -77.02702266666667, "rental_uris": {"ios": "https://dc.lft.to/lastmile_qr_scan", "android": "https://dc.lft.to/lastmile_qr_scan"}}, {"name": "65b6d6dfd00784bac976bb2f8162d9e9", "fusion_lat": 0.0, "type": "electric_scooter", "lat": 38.905676666666665, "is_reserved": 0, "is_disabled": 0, "fusion_lon": 0.0, "bike_id": "65b6d6dfd00784bac976bb2f8162d9e9", "lon": -77.02214883333333, "rental_uris": {"ios": "https://dc.lft.to/lastmile_qr_scan", "android": "https://dc.lft.to/lastmile_qr_scan"}}, {"name": "682fbf2fb716f1a2cfbc843cea474068", "fusion_lat": 0.0, "type": "electric_scooter", "lat": 38.866591666666665, "is_reserved": 0, "is_disabled": 0, "fusion_lon": 0.0, "bike_id": "682fbf2fb716f1a2cfbc843cea474068", "lon": -76.98884216666667, "rental_uris": {"ios": "https://dc.lft.to/lastmile_qr_scan", "android": "https://dc.lft.to/lastmile_qr_scan"}}, {"name": "ebd29329013f21c39d177ca83e38f8f6", "fusion_lat": 0.0, "type": "electric_scooter", "lat": 38.9262595, "is_reserved": 0, "is_disabled": 0, "fusion_lon": 0.0, "bike_id": "ebd29329013f21c39d177ca83e38f8f6", "lon": -77.037091, "rental_uris": {"ios": "https://dc.lft.to/lastmile_qr_scan", "android": "https://dc.lft.to/lastmile_qr_scan"}}, {"name": "a35a91cacb4ef8891d46b7baca9155be", "fusion_lat": 0.0, "type": "electric_scooter", "lat": 38.922843, "is_reserved": 0, "is_disabled": 0, "fusion_lon": 0.0, "bike_id": "a35a91cacb4ef8891d46b7baca9155be", "lon": -77.03661016666666, "rental_uris": {"ios": "https://dc.lft.to/lastmile_qr_scan", "android": "https://dc.lft.to/lastmile_qr_scan"}}, {"name": "8f695a1825d423b45999477b8e17a639", "fusion_lat": 0.0, "type": "electric_bike", "lat": 38.91759016666666, "is_reserved": 0, "is_disabled": 0, "fusion_lon": 0.0, "bike_id": "8f695a1825d423b45999477b8e17a639", "lon": -77.01606233333334, "rental_uris": {"ios": "https://dc.lft.to/lastmile_qr_scan", "android": "https://dc.lft.to/lastmile_qr_scan"}}, {"name": "69ad96c1840901084746cec4947ac286", "fusion_lat": 0.0, "type": "electric_scooter", "lat": 38.91650833333333, "is_reserved": 0, "is_disabled": 0, "fusion_lon": 0.0, "bike_id": "69ad96c1840901084746cec4947ac286", "lon": -77.02302166666666, "rental_uris": {"ios": "https://dc.lft.to/lastmile_qr_scan", "android": "https://dc.lft.to/lastmile_qr_scan"}}, {"name": "52aeb195b819a6a4a48dc2f2f7f10dca", "fusion_lat": 0.0, "type": "electric_scooter", "lat": 38.926885166666665, "is_reserved": 0, "is_disabled": 0, "fusion_lon": 0.0, "bike_id": "52aeb195b819a6a4a48dc2f2f7f10dca", "lon": -77.06644433333334, "rental_uris": {"ios": "https://dc.lft.to/lastmile_qr_scan", "android": "https://dc.lft.to/lastmile_qr_scan"}}, {"name": "1b2dba93c62f5c7e70964dfc10c867e7", "fusion_lat": 0.0, "type": "electric_scooter", "lat": 38.90960166666667, "is_reserved": 0, "is_disabled": 0, "fusion_lon": 0.0, "bike_id": "1b2dba93c62f5c7e70964dfc10c867e7", "lon": -77.01132466666667, "rental_uris": {"ios": "https://dc.lft.to/lastmile_qr_scan", "android": "https://dc.lft.to/lastmile_qr_scan"}}, {"name": "636c24aba57c67566cfe3f589aa4b4af", "fusion_lat": 0.0, "type": "electric_bike", "lat": 38.94603583333333, "is_reserved": 0, "is_disabled": 0, "fusion_lon": 0.0, "bike_id": "636c24aba57c67566cfe3f589aa4b4af", "lon": -77.02979066666667, "rental_uris": {"ios": "https://dc.lft.to/lastmile_qr_scan", "android": "https://dc.lft.to/lastmile_qr_scan"}}, {"name": "651fbe0a5c6f47d46c59693250bcfc6f", "fusion_lat": 0.0, "type": "electric_scooter", "lat": 38.91036716666667, "is_reserved": 0, "is_disabled": 0, "fusion_lon": 0.0, "bike_id": "651fbe0a5c6f47d46c59693250bcfc6f", "lon": -77.02390983333333, "rental_uris": {"ios": "https://dc.lft.to/lastmile_qr_scan", "android": "https://dc.lft.to/lastmile_qr_scan"}}, {"name": "8d91e92689f0d497fa1a074cb5f886d2", "fusion_lat": 0.0, "type": "electric_scooter", "lat": 38.92614433333333, "is_reserved": 0, "is_disabled": 0, "fusion_lon": 0.0, "bike_id": "8d91e92689f0d497fa1a074cb5f886d2", "lon": -77.02163466666667, "rental_uris": {"ios": "https://dc.lft.to/lastmile_qr_scan", "android": "https://dc.lft.to/lastmile_qr_scan"}},