{"data": {"bikes": [{"fusion_lat": 0.0, "name": "e8fd99252745c3135678a3d7a63f1a5f", "is_disabled": 0, "rental_uris": {"android": "https://dc.lft.to/lastmile_qr_scan", "ios": "https://dc.lft.to/lastmile_qr_scan"}, "fusion_lon": 0.0, "lat": 38.90772366666667, "bike_id": "e8fd99252745c3135678a3d7a63f1a5f", "type": "electric_scooter", "is_reserved": 0, "lon": -77.04259616666667}, {"fusion_lat": 0.0, "name": "74815ba57c3a2d69e1692e97686a576b", "is_disabled": 0, "rental_uris": {"android": "https://dc.lft.to/lastmile_qr_scan", "ios": "https://dc.lft.to/lastmile_qr_scan"}, "fusion_lon": 0.0, "lat": 38.92837083333333, "bike_id": "74815ba57c3a2d69e1692e97686a576b", "type": "electric_scooter", "is_reserved": 0, "lon": -77.01591983333333}, {"fusion_lat": 0.0, "name": "ae516f0d9d8ff65fb979dff099abdf84", "is_disabled": 0, "rental_uris": {"android": "https://dc.lft.to/lastmile_qr_scan", "ios": "https://dc.lft.to/lastmile_qr_scan"}, "fusion_lon": 0.0, "lat": 38.899016833333334, "bike_id": "ae516f0d9d8ff65fb979dff099abdf84", "type": "electric_scooter", "is_reserved": 0, "lon": -76.93360933333334}, {"fusion_lat": 0.0, "name": "953923731fd33929867c4afc0a3f7c2f", "is_disabled": 0, "rental_uris": {"android": "https://dc.lft.to/lastmile_qr_scan", "ios": "https://dc.lft.to/lastmile_qr_scan"}, "fusion_lon": 0.0, "lat": 38.9390485, "bike_id": "953923731fd33929867c4afc0a3f7c2f", "type": "electric_scooter", "is_reserved": 0, "lon": -77.07800933333333}, {"fusion_lat": 0.0, "name": "41929230589e4f60b8bd62cb8ed81650", "is_disabled": 0, "rental_uris": {"android": "https://dc.lft.to/lastmile_qr_scan", "ios": "https://dc.lft.to/lastmile_qr_scan"}, "fusion_lon": 0.0, "lat": 38.88523583333333, "bike_id": "41929230589e4f60b8bd62cb8ed81650", "type": "electric_scooter", "is_reserved": 0, "lon": -76.9291645}, {"fusion_lat": 0.0, "name": "a4f05a6cadedf2774e76936767f26aa1", "is_disabled": 0, "rental_uris": {"android": "https://dc.lft.to/lastmile_qr_scan", "ios": "https://dc.lft.to/lastmile_qr_scan"}, "fusion_lon": 0.0, "lat": 38.899082166666666, "bike_id": "a4f05a6cadedf2774e76936767f26aa1", "type": "electric_scooter", "is_reserved": 0, "lon": -76.945917}, {"fusion_lat": 0.0, "name": "96f19b36fc046ee6bbaf0cb196d785ac", "is_disabled": 0, "rental_uris": {"android": "https://dc.lft.to/lastmile_qr_scan", "ios": "https://dc.lft.to/lastmile_qr_scan"}, "fusion_lon": 0.0, "lat": 38.915537, "bike_id": "96f19b36fc046ee6bbaf0cb196d785ac", "type": "electric_scooter", "is_reserved": 0, "lon": -77.00592316666666}, {"fusion_lat": 0.0, "name": "e06dfd6d8d6b1a6a29c7458b10bb7d3c", "is_disabled": 0, "rental_uris": {"android": "https://dc.lft.to/lastmile_qr_scan", "ios": "https://dc.lft.to/lastmile_qr_scan"}, "fusion_lon": 0.0, "lat": 38.91487716666666, "bike_id": "e06dfd6d8d6b1a6a29c7458b10bb7d3c", "type": "electric_scooter", "is_reserved": 0, "lon": -77.04155933333334}, {"fusion_lat": 0.0, "name": "152cfe99392f5b30a30ed53ee95119a8", "is_disabled": 0, "rental_uris": {"android": "https://dc.lft.to/lastmile_qr_scan", "ios": "https://dc.lft.to/lastmile_qr_scan"}, "fusion_lon": 0.0, "lat": 38.87577683333333, "bike_id": "152cfe99392f5b30a30ed53ee95119a8", "type": "electric_bike", "is_reserved": 0, "lon": -77.23409466666666}, {"fusion_lat": 0.0, "name": "23179dbe83f5a5924ff4bead4a874724", "is_disabled": 0, "rental_uris": {"android": "https://dc.lft.to/lastmile_qr_scan", "ios": "https://dc.lft.to/lastmile_qr_scan"}, "fusion_lon": 0.0, "lat": 38.89670433333333, "bike_id": "23179dbe83f5a5924ff4bead4a874724", "type": "electric_scooter", "is_reserved": 0, "lon": -77.05107033333333}, {"fusion_lat": 0.0, "name": "47f7affc40c6cbbf4fa23c534c34c20b", "is_disabled": 0, "rental_uris": {"android": "https://dc.lft.to/lastmile_qr_scan", "ios": "https://dc.lft.to/lastmile_qr_scan"}, "fusion_lon": 0.0, "lat": 38.92446116666667, "bike_id": "47f7affc40c6cbbf4fa23c534c34c20b", "type": "electric_scooter", "is_reserved": 0, "lon": -77.00879783333333}, {"fusion_lat": 0.0, "name": "4fddf000bd7e9b4a2006972fa05fe844", "is_disabled": 0, "rental_uris": {"android": "https://dc.lft.to/lastmile_qr_scan", "ios": "https://dc.lft.to/lastmile_qr_scan"}, "fusion_lon": 0.0, "lat": 38.91652933333334, "bike_id": "4fddf000bd7e9b4a2006972fa05fe844", "type": "electric_scooter", "is_reserved": 0, "lon": -77.02184483333333}, {"fusion_lat": 0.0, "name": "67a86e1b0e99a673175f5a36c26c1aff", "is_disabled": 0, "rental_uris": {"android": "https://dc.lft.to/lastmile_qr_scan", "ios": "https://dc.lft.to/lastmile_qr_scan"}, "fusion_lon": 0.0, "lat": 38.903934666666665, "bike_id": "67a86e1b0e99a673175f5a36c26c1aff", "type": "electric_scooter", "is_reserved": 0, "lon": -77.01773233333333}, {"fusion_lat": 0.0, "name": "723ba8a09ae6fc291a7ac234fda18ed3", "is_disabled": 0, "rental_uris": {"android": "https://dc.lft.to/lastmile_qr_scan", "ios": "https://dc.lft.to/lastmile_qr_scan"}, "fusion_lon": 0.0, "lat": 38.88308216666667, "bike_id": "723ba8a09ae6fc291a7ac234fda18ed3", "type": "electric_scooter", "is_reserved": 0, "lon": -77.01382966666667}, {"fusion_lat": 0.0, "name": "7a2337e8add3a640dbbcaafa8345c1c6", "is_disabled": 0, "rental_uris": {"android": "https://dc.lft.to/lastmile_qr_scan", "ios": "https://dc.lft.to/lastmile_qr_scan"}, "fusion_lon": 0.0, "lat": 38.91830383333333, "bike_id": "7a2337e8add3a640dbbcaafa8345c1c6", "type": "electric_scooter", "is_reserved": 0, "lon": -77.03170716666666}, {"fusion_lat": 0.0, "name": "bcaccd49c07dd30bb83988de60074d8b", "is_disabled": 0, "rental_uris": {"android": "https://dc.lft.to/lastmile_qr_scan", "ios": "https://dc.lft.to/lastmile_qr_scan"}, "fusion_lon": 0.0, "lat": 38.92282133333333, "bike_id": "bcaccd49c07dd30bb83988de60074d8b", "type": "electric_scooter", "is_reserved": 0, "lon": -77.023306}, {"fusion_lat": 0.0, "name": "92360ad7c1b96f7d4e7c2db7ee671811", "is_disabled": 0, "rental_uris": {"android": "https://dc.lft.to/lastmile_qr_scan", "ios": "https://dc.lft.to/lastmile_qr_scan"}, "fusion_lon": 0.0, "lat": 38.935821833333335, "bike_id": "92360ad7c1b96f7d4e7c2db7ee671811", "type": "electric_scooter", "is_reserved": 0, "lon": -77.033565}, {"fusion_lat": 0.0, "name": "39ac35b7c30a542809bc020a985482d2", "is_disabled": 0, "rental_uris": {"android": "https://dc.lft.to/lastmile_qr_scan", "ios": "https://dc.lft.to/lastmile_qr_scan"}, "fusion_lon": 0.0, "lat": 38.997583166666665, "bike_id": "39ac35b7c30a542809bc020a985482d2", "type": "electric_bike", "is_reserved": 0, "lon": -77.02684083333334}, {"fusion_lat": 0.0, "name": "f759656b92525e51f1f13c5f117595cb", "is_disabled": 0, "rental_uris": {"android": "https://dc.lft.to/lastmile_qr_scan", "ios": "https://dc.lft.to/lastmile_qr_scan"}, "fusion_lon": 0.0, "lat": 38.917494833333336, "bike_id": "f759656b92525e51f1f13c5f117595cb", "type": "electric_scooter", "is_reserved": 0, "lon": -77.006701}, {"fusion_lat": 0.0, "name": "cb3c79d4ad5015c743a3b7e4464f2607", "is_disabled": 0, "rental_uris": {"android": "https://dc.lft.to/lastmile_qr_scan", "ios": "https://dc.lft.to/lastmile_qr_scan"}, "fusion_lon": 0.0, "lat": 38.91560883333333, "bike_id": "cb3c79d4ad5015c743a3b7e4464f2607", "type": "electric_scooter", "is_reserved": 0, "lon": -77.01041883333333}, {"fusion_lat": 0.0, "name": "62c8bd94943d975c78972ee05debfadd", "is_disabled": 0, "rental_uris": {"android": "https://dc.lft.to/lastmile_qr_scan", "ios": "https://dc.lft.to/lastmile_qr_scan"}, "fusion_lon": 0.0, "lat": 38.93655283333333, "bike_id": "62c8bd94943d975c78972ee05debfadd", "type": "electric_scooter", "is_reserved": 0, "lon": -77.03366383333334}, {"fusion_lat": 0.0, "name": "8464a5abdb958e8f01e06839f876fd9a", "is_disabled": 0, "rental_uris": {"android": "https://dc.lft.to/lastmile_qr_scan", "ios": "https://dc.lft.to/lastmile_qr_scan"}, "fusion_lon": 0.0, "lat": 38.901563833333334, "bike_id": "8464a5abdb958e8f01e06839f876fd9a", "type": "electric_scooter", "is_reserved": 0, "lon": -77.04477283333334}, {"fusion_lat": 0.0, "name": "91a65dec3eff52b23d1372fa9fb355a0", "is_disabled": 0, "rental_uris": {"android": "https://dc.lft.to/lastmile_qr_scan", "ios": "https://dc.lft.to/lastmile_qr_scan"}, "fusion_lon": 0.0, "lat": 38.9439005, "bike_id": "91a65dec3eff52b23d1372fa9fb355a0", "type": "electric_scooter", "is_reserved": 0, "lon": -77.09508016666666}, {"fusion_lat": 0.0, "name": "811cffbbcd4d13886afc8801786f6eba", "is_disabled": 0, "rental_uris": {"android": "https://dc.lft.to/lastmile_qr_scan", "ios": "https://dc.lft.to/lastmile_qr_scan"}, "fusion_lon": 0.0, "lat": 38.9145975, "bike_id": "811cffbbcd4d13886afc8801786f6eba", "type": "electric_scooter", "is_reserved": 0, "lon": -76.98433033333333}, {"fusion_lat": 0.0, "name": "3eaba13b9451323e797a7865b9c0a05b", "is_disabled": 0, "rental_uris": {"android": "https://dc.lft.to/lastmile_qr_scan", "ios": "https://dc.lft.to/lastmile_qr_scan"}, "fusion_lon": 0.0, "lat": 38.9387345, "bike_id": "3eaba13b9451323e797a7865b9c0a05b", "type": "electric_scooter", "is_reserved": 0, "lon": -77.03228116666666}, {"fusion_lat": 0.0, "name": "d85f2ee4b164566268c3ec4e1476b656", "is_disabled": 0, "rental_uris": {"android": "https://dc.lft.to/lastmile_qr_scan", "ios": "https://dc.lft.to/lastmile_qr_scan"}, "fusion_lon": 0.0, "lat": 38.916022, "bike_id": "d85f2ee4b164566268c3ec4e1476b656", "type": "electric_scooter", "is_reserved": 0, "lon": -77.02280116666667}, {"fusion_lat": 0.0, "name": "d09858211aa2ded4bdbed2205dd2abde", "is_disabled": 0, "rental_uris": {"android": "https://dc.lft.to/lastmile_qr_scan", "ios": "https://dc.lft.to/lastmile_qr_scan"}, "fusion_lon": 0.0, "lat": 38.917868666666664, "bike_id": "d09858211aa2ded4bdbed2205dd2abde", "type": "electric_scooter", "is_reserved": 0, "lon": -77.04034766666666}, {"fusion_lat": 0.0, "name": "b70be4b8cc39f97a033ff2625dbb22c8", "is_disabled": 0, "rental_uris": {"android": "https://dc.lft.to/lastmile_qr_scan", "ios": "https://dc.lft.to/lastmile_qr_scan"}, "fusion_lon": 0.0, "lat": 38.905716166666664, "bike_id": "b70be4b8cc39f97a033ff2625dbb22c8", "type": "electric_scooter", "is_reserved": 0, "lon": -77.02221433333334}, {"fusion_lat": 0.0, "name": "348cef7ac39cab3b87ee898ca9ab1cad", "is_disabled": 0, "rental_uris": {"android": "https://dc.lft.to/lastmile_qr_scan", "ios": "https://dc.lft.to/lastmile_qr_scan"}, "fusion_lon": 0.0, "lat": 38.9321425, "bike_id": "348cef7ac39cab3b87ee898ca9ab1cad", "type": "electric_scooter", "is_reserved": 0, "lon": -77.044183}, {"fusion_lat": 0.0, "name": "bd23525bfdae261729b0d64db14b902b", "is_disabled": 0, "rental_uris": {"android": "https://dc.lft.to/lastmile_qr_scan", "ios": "https://dc.lft.to/lastmile_qr_scan"}, "fusion_lon": 0.0, "lat": 38.84278066666667, "bike_id": "bd23525bfdae261729b0d64db14b902b", "type": "electric_bike", "is_reserved": 0, "lon": -76.98844666666666}, {"fusion_lat": 0.0, "name": "de6756953edf020024a671d86443a606", "is_disabled": 0, "rental_uris": {"android": "https://dc.lft.to/lastmile_qr_scan", "ios": "https://dc.lft.to/lastmile_qr_scan"}, "fusion_lon": 0.0, "lat": 38.90034566666667, "bike_id": "de6756953edf020024a671d86443a606", "type": "electric_scooter", "is_reserved": 0, "lon": -77.0118085}, {"fusion_lat": 0.0, "name": "af3b44b82d4aca0140836229a40ab6bf", "is_disabled": 0, "rental_uris": {"android": "https://dc.lft.to/lastmile_qr_scan", "ios": "https://dc.lft.to/lastmile_qr_scan"}, "fusion_lon": 0.0, "lat": 38.90231983333334, "bike_id": "af3b44b82d4aca0140836229a40ab6bf", "type": "electric_scooter", "is_reserved": 0, "lon": -77.03452683333333}, {"fusion_lat": 0.0, "name": "a6ec81e7fc652d954ba8b5c06e91e690", "is_disabled": 0, "rental_uris": {"android": "https://dc.lft.to/lastmile_qr_scan", "ios": "https://dc.lft.to/lastmile_qr_scan"}, "fusion_lon": 0.0, "lat": 38.914003666666666, "bike_id": "a6ec81e7fc652d954ba8b5c06e91e690", "type": "electric_scooter", "is_reserved": 0, "lon": -77.03184066666667}, {"fusion_lat": 0.0, "name": "91763cf55da1fdf9ba42cb07eef3485c", "is_disabled": 0, "rental_uris": {"android": "https://dc.lft.to/lastmile_qr_scan", "ios": "https://dc.lft.to/lastmile_qr_scan"}, "fusion_lon": 0.0, "lat": 38.926919166666664, "bike_id": "91763cf55da1fdf9ba42cb07eef3485c", "type": "electric_scooter", "is_reserved": 0, "lon": -77.02072833333334}, {"fusion_lat": 0.0, "name": "9a5afb6fb3eca3d1bd00b9ae41358829", "is_disabled": 0, "rental_uris": {"android": "https://dc.lft.to/lastmile_qr_scan", "ios": "https://dc.lft.to/lastmile_qr_scan"}, "fusion_lon": 0.0, "lat": 38.88707266666667, "bike_id": "9a5afb6fb3eca3d1bd00b9ae41358829", "type": "electric_scooter", "is_reserved": 0, "lon": -76.99680283333333}, {"fusion_lat": 0.0, "name": "b03c8f3c6e98464387c6c70650ed2cdc", "is_disabled": 0, "rental_uris": {"android": "https://dc.lft.to/lastmile_qr_scan", "ios": "https://dc.lft.to/lastmile_qr_scan"}, "fusion_lon": 0.0, "lat": 38.92323233333333, "bike_id": "b03c8f3c6e98464387c6c70650ed2cdc", "type": "electric_scooter", "is_reserved": 0, "lon": -77.05796133333334}, {"fusion_lat": 0.0, "name": "6f0e864a28f57363ddc79cce34975c3f", "is_disabled": 0, "rental_uris": {"android": "https://dc.lft.to/lastmile_qr_scan", "ios": "https://dc.lft.to/lastmile_qr_scan"}, "fusion_lon": 0.0, "lat": 38.9344485, "bike_id": "6f0e864a28f57363ddc79cce34975c3f", "type": "electric_scooter", "is_reserved": 0, "lon": -77.03872}, {"fusion_lat": 0.0, "name": "d130edb460d20d4e378a27cb3fe9f35a", "is_disabled": 0, "rental_uris": {"android": "https://dc.lft.to/lastmile_qr_scan", "ios": "https://dc.lft.to/lastmile_qr_scan"}, "fusion_lon": 0.0, "lat": 38.91809533333333, "bike_id": "d130edb460d20d4e378a27cb3fe9f35a", "type": "electric_scooter", "is_reserved": 0, "lon": -77.03198316666666}, {"fusion_lat": 0.0, "name": "a63da2d563ca51199194d1d2adf44a84", "is_disabled": 0, "rental_uris": {"android": "https://dc.lft.to/lastmile_qr_scan", "ios": "https://dc.lft.to/lastmile_qr_scan"}, "fusion_lon": 0.0, "lat": 38.93064183333333, "bike_id": "a63da2d563ca51199194d1d2adf44a84", "type": "electric_scooter", "is_reserved": 0, "lon": -77.03195233333334}, {"fusion_lat": 0.0, "name": "d169fcc43db86237d85f8ab1f151657e", "is_disabled": 0, "rental_uris": {"android": "https://dc.lft.to/lastmile_qr_scan", "ios": "https://dc.lft.to/lastmile_qr_scan"}, "fusion_lon": 0.0, "lat": 38.9110755, "bike_id": "d169fcc43db86237d85f8ab1f151657e", "type": "electric_scooter", "is_reserved": 0, "lon": -77.04395866666667}, {"fusion_lat": 0.0, "name": "02e78f38eb278b0fed2c139891cb2b9e", "is_disabled": 0, "rental_uris": {"android": "https://dc.lft.to/lastmile_qr_scan", "ios": "https://dc.lft.to/lastmile_qr_scan"}, "fusion_lon": 0.0, "lat": 38.88490566666667, "bike_id": "02e78f38eb278b0fed2c139891cb2b9e", "type": "electric_scooter", "is_reserved": 0, "lon": -77.02365716666667}, {"fusion_lat": 0.0, "name": "a8400acc0af7df430dd60b5115e27ab1", "is_disabled": 0, "rental_uris": {"android": "https://dc.lft.to/lastmile_qr_scan", "ios": "https://dc.lft.to/lastmile_qr_scan"}, "fusion_lon": 0.0, "lat": 38.902456, "bike_id": "a8400acc0af7df430dd60b5115e27ab1", "type": "electric_scooter", "is_reserved": 0, "lon": -77.016113}, {"fusion_lat": 0.0, "name": "bf98fc0e3d19d66557797a11609d6a53", "is_disabled": 0, "rental_uris": {"android": "https://dc.lft.to/lastmile_qr_scan", "ios": "https://dc.lft.to/lastmile_qr_scan"}, "fusion_lon": 0.0, "lat": 38.940561333333335, "bike_id": "bf98fc0e3d19d66557797a11609d6a53", "type": "electric_bike", "is_reserved": 0, "lon": -76.90420216666666}, {"fusion_lat": 0.0, "name": "344656e70b0938df98a43fb19dd54055", "is_disabled": 0, "rental_uris": {"android": "https://dc.lft.to/lastmile_qr_scan", "ios": "https://dc.lft.to/lastmile_qr_scan"}, "fusion_lon": 0.0, "lat": 38.921051, "bike_id": "344656e70b0938df98a43fb19dd54055", "type": "electric_scooter", "is_reserved": 0, "lon": -77.03189266666666}, {"fusion_lat": 0.0, "name": "0a89f6db6cf44236d6dc9c0fa2353ef0", "is_disabled": 0, "rental_uris": {"android": "https://dc.lft.to/lastmile_qr_scan", "ios": "https://dc.lft.to/lastmile_qr_scan"}, "fusion_lon": 0.0, "lat": 38.99441733333333, "bike_id": "0a89f6db6cf44236d6dc9c0fa2353ef0", "type": "electric_bike", "is_reserved": 0, "lon": -76.9958695}, {"fusion_lat": 0.0, "name": "de5867aa13b3a508d5dca631e5395bae", "is_disabled": 0, "rental_uris": {"android": "https://dc.lft.to/lastmile_qr_scan", "ios": "https://dc.lft.to/lastmile_qr_scan"}, "fusion_lon": 0.0, "lat": 38.903064666666666, "bike_id": "de5867aa13b3a508d5dca631e5395bae", "type": "electric_scooter", "is_reserved": 0, "lon": -76.97652166666667}, {"fusion_lat": 0.0, "name": "12110a0090171740859a782253be3f55", "is_disabled": 0, "rental_uris": {"android": "https://dc.lft.to/lastmile_qr_scan", "ios": "https://dc.lft.to/lastmile_qr_scan"}, "fusion_lon": 0.0, "lat": 38.88147516666667, "bike_id": "12110a0090171740859a782253be3f55", "type": "electric_scooter", "is_reserved": 0, "lon": -76.99514583333334}, {"fusion_lat": 0.0, "name": "f2beac38da29c74fafec64b35ef79e72", "is_disabled": 0, "rental_uris": {"android": "https://dc.lft.to/lastmile_qr_scan", "ios": "https://dc.lft.to/lastmile_qr_scan"}, "fusion_lon": 0.0, "lat": 38.9667025, "bike_id": "f2beac38da29c74fafec64b35ef79e72", "type": "electric_scooter", "is_reserved": 0, "lon": -77.02556016666666}, {"fusion_lat": 0.0, "name": "3a5dc3ebd48221e8e42823deb328db8f", "is_disabled": 0, "rental_uris": {"android": "https://dc.lft.to/lastmile_qr_scan", "ios": "https://dc.lft.to/lastmile_qr_scan"}, "fusion_lon": 0.0, "lat": 38.914119666666664, "bike_id": "3a5dc3ebd48221e8e42823deb328db8f", "type": "electric_scooter", "is_reserved": 0, "lon": -77.04099616666667}, {"fusion_lat": 0.0, "name": "656791226414c500bbbd1212046b3984", "is_disabled": 0, "rental_uris": {"android": "https://dc.lft.to/lastmile_qr_scan", "ios": "https://dc.lft.to/lastmile_qr_scan"}, "fusion_lon": 0.0, "lat": 38.903513333333336, "bike_id": "656791226414c500bbbd1212046b3984", "type": "electric_scooter", "is_reserved": 0, "lon": -77.0666305}, {"fusion_lat": 0.0, "name": "dc519867f41dc9fe85ea21e9f311c7ce", "is_disabled": 0, "rental_uris": {"android": "https://dc.lft.to/lastmile_qr_scan", "ios": "https://dc.lft.to/lastmile_qr_scan"}, "fusion_lon": 0.0, "lat": 38.90242416666667, "bike_id": "dc519867f41dc9fe85ea21e9f311c7ce", "type": "electric_scooter", "is_reserved": 0, "lon": -77.0035235}, {"fusion_lat": 0.0, "name": "df1fbb646c46f7f4f7f0e2392b336330", "is_disabled": 0, "rental_uris": {"android": "https://dc.lft.to/lastmile_qr_scan", "ios": "https://dc.lft.to/lastmile_qr_scan"}, "fusion_lon": 0.0, "lat": 38.896763666666665, "bike_id": "df1fbb646c46f7f4f7f0e2392b336330", "type": "electric_scooter", "is_reserved": 0, "lon": -77.0056105}, {"fusion_lat": 0.0, "name": "4718147e578117b64d13ac0f8559adce", "is_disabled": 0, "rental_uris": {"android": "https://dc.lft.to/lastmile_qr_scan", "ios": "https://dc.lft.to/lastmile_qr_scan"}, "fusion_lon": 0.0, "lat": 38.89153916666667, "bike_id": "4718147e578117b64d13ac0f8559adce", "type": "electric_scooter", "is_reserved": 0, "lon": -76.99152366666667}, {"fusion_lat": 0.0, "name": "f17f61d996bd711ed7936d059b619d6e", "is_disabled": 0, "rental_uris": {"android": "https://dc.lft.to/lastmile_qr_scan", "ios": "https://dc.lft.to/lastmile_qr_scan"}, "fusion_lon": 0.0, "lat": 38.901918, "bike_id": "f17f61d996bd711ed7936d059b619d6e", "type": "electric_scooter", "is_reserved": 0, "lon": -77.0463575}, {"fusion_lat": 0.0, "name": "11bc96f763ce744cb7c10d645e7a7b11", "is_disabled": 0, "rental_uris": {"android": "https://dc.lft.to/lastmile_qr_scan", "ios": "https://dc.lft.to/lastmile_qr_scan"}, "fusion_lon": 0.0, "lat": 38.92080133333333, "bike_id": "11bc96f763ce744cb7c10d645e7a7b11", "type": "electric_scooter", "is_reserved": 0, "lon": -77.02388733333333}, {"fusion_lat": 0.0, "name": "f6c3edf81c589196712435bd7c7ec7d3", "is_disabled": 0, "rental_uris": {"android": "https://dc.lft.to/lastmile_qr_scan", "ios": "https://dc.lft.to/lastmile_qr_scan"}, "fusion_lon": 0.0, "lat": 38.932586666666666, "bike_id": "f6c3edf81c589196712435bd7c7ec7d3", "type": "electric_scooter", "is_reserved": 0, "lon": -77.04009266666667}, {"fusion_lat": 0.0, "name": "0f4e72441144c5ab71bd87a45dd8f4a9", "is_disabled": 0, "rental_uris": {"android": "https://dc.lft.to/lastmile_qr_scan", "ios": "https://dc.lft.to/lastmile_qr_scan"}, "fusion_lon": 0.0, "lat": 38.9347185, "bike_id": "0f4e72441144c5ab71bd87a45dd8f4a9", "type": "electric_scooter", "is_reserved": 0, "lon": -77.02849383333333}, {"fusion_lat": 0.0, "name": "74759d8191ef051f9b44d599b23704ce", "is_disabled": 0, "rental_uris": {"android": "https://dc.lft.to/lastmile_qr_scan", "ios": "https://dc.lft.to/lastmile_qr_scan"}, "fusion_lon": 0.0, "lat": 38.92253916666667, "bike_id": "74759d8191ef051f9b44d599b23704ce", "type": "electric_scooter", "is_reserved": 0, "lon": -77.07492466666666}, {"fusion_lat": 0.0, "name": "077d87cfb9477f84cd56096febf3cf77", "is_disabled": 0, "rental_uris": {"android": "https://dc.lft.to/lastmile_qr_scan", "ios": "https://dc.lft.to/lastmile_qr_scan"}, "fusion_lon": 0.0, "lat": 38.920458333333336, "bike_id": "077d87cfb9477f84cd56096febf3cf77", "type": "electric_scooter", "is_reserved": 0, "lon": -77.04201016666667}, {"fusion_lat": 0.0, "name": "ee45a5c11cd0aa1b05aa50c55c1ed8e4", "is_disabled": 0, "rental_uris": {"android": "https://dc.lft.to/lastmile_qr_scan", "ios": "https://dc.lft.to/lastmile_qr_scan"}, "fusion_lon": 0.0, "lat": 38.83925966666666, "bike_id": "ee45a5c11cd0aa1b05aa50c55c1ed8e4", "type": "electric_bike", "is_reserved": 0, "lon": -77.078979}, {"fusion_lat": 0.0, "name": "19474ab06259ec59d8d82b732c6a5b12", "is_disabled": 0, "rental_uris": {"android": "https://dc.lft.to/lastmile_qr_scan", "ios": "https://dc.lft.to/lastmile_qr_scan"}, "fusion_lon": 0.0, "lat": 38.916798666666665, "bike_id": "19474ab06259ec59d8d82b732c6a5b12", "type": "electric_scooter", "is_reserved": 0, "lon": -77.029551}, {"fusion_lat": 0.0, "name": "9610e369e91a9daeb48d0f3cc7e55005", "is_disabled": 0, "rental_uris": {"android": "https://dc.lft.to/lastmile_qr_scan", "ios": "https://dc.lft.to/lastmile_qr_scan"}, "fusion_lon": 0.0, "lat": 38.933650166666666, "bike_id": "9610e369e91a9daeb48d0f3cc7e55005", "type": "electric_scooter", "is_reserved": 0, "lon": -77.03875533333333}, {"fusion_lat": 0.0, "name": "13e7369aebd8a0a4ed8d6f04561f0c49", "is_disabled": 0, "rental_uris": {"android": "https://dc.lft.to/lastmile_qr_scan", "ios": "https://dc.lft.to/lastmile_qr_scan"}, "fusion_lon": 0.0, "lat": 38.941369, "bike_id": "13e7369aebd8a0a4ed8d6f04561f0c49", "type": "electric_scooter", "is_reserved": 0, "lon": -77.00611416666666}, {"fusion_lat": 0.0, "name": "0f3434c83b049e3b1e48689828be1995", "is_disabled": 0, "rental_uris": {"android": "https://dc.lft.to/lastmile_qr_scan", "ios": "https://dc.lft.to/lastmile_qr_scan"}, "fusion_lon": 0.0, "lat": 38.90347216666667, "bike_id": "0f3434c83b049e3b1e48689828be1995", "type": "electric_scooter", "is_reserved": 0, "lon": -76.9725355}, {"fusion_lat": 0.0, "name": "ab5219414fab383212773a5877133d6c", "is_disabled": 0, "rental_uris": {"android": "https://dc.lft.to/lastmile_qr_scan", "ios": "https://dc.lft.to/lastmile_qr_scan"}, "fusion_lon": 0.0, "lat": 38.916092666666664, "bike_id": "ab5219414fab383212773a5877133d6c", "type": "electric_scooter", "is_reserved": 0, "lon": -77.0321605}, {"fusion_lat": 0.0, "name": "efcae1bb22b5070b3e3b6cb1a9be2dc3", "is_disabled": 0, "rental_uris": {"android": "https://dc.lft.to/lastmile_qr_scan", "ios": "https://dc.lft.to/lastmile_qr_scan"}, "fusion_lon": 0.0, "lat": 38.898653333333336, "bike_id": "efcae1bb22b5070b3e3b6cb1a9be2dc3", "type": "electric_scooter", "is_reserved": 0, "lon": -77.0279015}, {"fusion_lat": 0.0, "name": "1c529db547593455c51fa2edb54bc4f2", "is_disabled": 0, "rental_uris": {"android": "https://dc.lft.to/lastmile_qr_scan", "ios": "https://dc.lft.to/lastmile_qr_scan"}, "fusion_lon": 0.0, "lat": 38.91989683333333, "bike_id": "1c529db547593455c51fa2edb54bc4f2", "type": "electric_scooter", "is_reserved": 0, "lon": -77.02171683333333}, {"fusion_lat": 0.0, "name": "c68894b66a56cb05b3ca5577da26d089", "is_disabled": 0, "rental_uris": {"android": "https://dc.lft.to/lastmile_qr_scan", "ios": "https://dc.lft.to/lastmile_qr_scan"}, "fusion_lon": 0.0, "lat": 38.90973283333334, "bike_id": "c68894b66a56cb05b3ca5577da26d089", "type": "electric_scooter", "is_reserved": 0, "lon": -77.0089975}, {"fusion_lat": 0.0, "name": "f5b0fe035d7180c13b1d8ad56a104f77", "is_disabled": 0, "rental_uris": {"android": "https://dc.lft.to/lastmile_qr_scan", "ios": "https://dc.lft.to/lastmile_qr_scan"}, "fusion_lon": 0.0, "lat": 38.902833, "bike_id": "f5b0fe035d7180c13b1d8ad56a104f77", "type": "electric_scooter", "is_reserved": 0, "lon": -77.033842}, {"fusion_lat": 0.0, "name": "aa1bbf4445a1aec38e8893bfc386ae41", "is_disabled": 0, "rental_uris": {"android": "https://dc.lft.to/lastmile_qr_scan", "ios": "https://dc.lft.to/lastmile_qr_scan"}, "fusion_lon": 0.0, "lat": 38.904773666666664, "bike_id": "aa1bbf4445a1aec38e8893bfc386ae41", "type": "electric_scooter", "is_reserved": 0, "lon": -76.95207066666667}, {"fusion_lat": 0.0, "name": "dfd93a4f8e451c71f4bfb426c2d31ab9", "is_disabled": 0, "rental_uris": {"android": "https://dc.lft.to/lastmile_qr_scan", "ios": "https://dc.lft.to/lastmile_qr_scan"}, "fusion_lon": 0.0, "lat": 38.900810666666665, "bike_id": "dfd93a4f8e451c71f4bfb426c2d31ab9", "type": "electric_scooter", "is_reserved": 0, "lon": -77.0476145}, {"fusion_lat": 0.0, "name": "68a5f8732564170b526ee5ca57f88a9a", "is_disabled": 0, "rental_uris": {"android": "https://dc.lft.to/lastmile_qr_scan", "ios": "https://dc.lft.to/lastmile_qr_scan"}, "fusion_lon": 0.0, "lat": 38.89449783333333, "bike_id": "68a5f8732564170b526ee5ca57f88a9a", "type": "electric_scooter", "is_reserved": 0, "lon": -77.01098933333333}, {"fusion_lat": 0.0, "name": "d5e39984561d6665e12fa02c80f75601", "is_disabled": 0, "rental_uris": {"android": "https://dc.lft.to/lastmile_qr_scan", "ios": "https://dc.lft.to/lastmile_qr_scan"}, "fusion_lon": 0.0, "lat": 38.914061333333336, "bike_id": "d5e39984561d6665e12fa02c80f75601", "type": "electric_scooter", "is_reserved": 0, "lon": -77.03176516666667}, {"fusion_lat": 0.0, "name": "9a4c876e548c331d1e642c437c5f003e", "is_disabled": 0, "rental_uris": {"android": "https://dc.lft.to/lastmile_qr_scan", "ios": "https://dc.lft.to/lastmile_qr_scan"}, "fusion_lon": 0.0, "lat": 38.901354, "bike_id": "9a4c876e548c331d1e642c437c5f003e", "type": "electric_scooter", "is_reserved": 0, "lon": -77.0182495}, {"fusion_lat": 0.0, "name": "4467902c533f4638758e4bb08272132b", "is_disabled": 0, "rental_uris": {"android": "https://dc.lft.to/lastmile_qr_scan", "ios": "https://dc.lft.to/lastmile_qr_scan"}, "fusion_lon": 0.0, "lat": 38.90784283333333, "bike_id": "4467902c533f4638758e4bb08272132b", "type": "electric_scooter", "is_reserved": 0, "lon": -77.03865566666667}, {"fusion_lat": 0.0, "name": "1320f8135d1226ef824269c214aaca9e", "is_disabled": 0, "rental_uris": {"android": "https://dc.lft.to/lastmile_qr_scan", "ios": "https://dc.lft.to/lastmile_qr_scan"}, "fusion_lon": 0.0, "lat": 38.922898833333335, "bike_id": "1320f8135d1226ef824269c214aaca9e", "type": "electric_scooter", "is_reserved": 0, "lon": -77.07339933333333}, {"fusion_lat": 0.0, "name": "aef81dbffc8ba7c1d875bd9f67a6ff6f", "is_disabled": 0, "rental_uris": {"android": "https://dc.lft.to/lastmile_qr_scan", "ios": "https://dc.lft.to/lastmile_qr_scan"}, "fusion_lon": 0.0, "lat": 38.916283166666666, "bike_id": "aef81dbffc8ba7c1d875bd9f67a6ff6f", "type": "electric_scooter", "is_reserved": 0, "lon": -77.02168783333333}, {"fusion_lat": 0.0, "name": "3996af202838a3422ae11619d37045f9", "is_disabled": 0, "rental_uris": {"android": "https://dc.lft.to/lastmile_qr_scan", "ios": "https://dc.lft.to/lastmile_qr_scan"}, "fusion_lon": 0.0, "lat": 38.8934165, "bike_id": "3996af202838a3422ae11619d37045f9", "type": "electric_scooter", "is_reserved": 0, "lon": -76.9915925}, {"fusion_lat": 0.0, "name": "37da4df644f28ada3cc4e9a344736a27", "is_disabled": 0, "rental_uris": {"android": "https://dc.lft.to/lastmile_qr_scan", "ios": "https://dc.lft.to/lastmile_qr_scan"}, "fusion_lon": 0.0, "lat": 38.89958, "bike_id": "37da4df644f28ada3cc4e9a344736a27", "type": "electric_bike", "is_reserved": 0, "lon": -77.01470083333334}, {"fusion_lat": 0.0, "name": "687d556362311be00d1b891de17bbb46", "is_disabled": 0, "rental_uris": {"android": "https://dc.lft.to/lastmile_qr_scan", "ios": "https://dc.lft.to/lastmile_qr_scan"}, "fusion_lon": 0.0, "lat": 38.90288483333333, "bike_id": "687d556362311be00d1b891de17bbb46", "type": "electric_scooter", "is_reserved": 0, "lon": -76.990426}, {"fusion_lat": 0.0, "name": "225575d9c3b793689b05c97d7b3ee613", "is_disabled": 0, "rental_uris": {"android": "https://dc.lft.to/lastmile_qr_scan", "ios": "https://dc.lft.to/lastmile_qr_scan"}, "fusion_lon": 0.0, "lat": 38.917023666666665, "bike_id": "225575d9c3b793689b05c97d7b3ee613", "type": "electric_scooter", "is_reserved": 0, "lon": -77.041566}, {"fusion_lat": 0.0, "name": "65cfc1d9a1ac3bdbbbec6b821d09a20b", "is_disabled": 0, "rental_uris": {"android": "https://dc.lft.to/lastmile_qr_scan", "ios": "https://dc.lft.to/lastmile_qr_scan"}, "fusion_lon": 0.0, "lat": 38.8770775, "bike_id": "65cfc1d9a1ac3bdbbbec6b821d09a20b", "type": "electric_scooter", "is_reserved": 0, "lon": -77.00785483333334}, {"fusion_lat": 0.0, "name": "8dc52a9d83b93e731accbbc0f1139d10", "is_disabled": 0, "rental_uris": {"android": "https://dc.lft.to/lastmile_qr_scan", "ios": "https://dc.lft.to/lastmile_qr_scan"}, "fusion_lon": 0.0, "lat": 38.90034933333333, "bike_id": "8dc52a9d83b93e731accbbc0f1139d10", "type": "electric_scooter", "is_reserved": 0, "lon": -77.03586266666667}, {"fusion_lat": 0.0, "name": "481cd92da96ca38a4cf6f147e6e939f1", "is_disabled": 0, "rental_uris": {"android": "https://dc.lft.to/lastmile_qr_scan", "ios": "https://dc.lft.to/lastmile_qr_scan"}, "fusion_lon": 0.0, "lat": 38.93830166666667, "bike_id": "481cd92da96ca38a4cf6f147e6e939f1", "type": "electric_scooter", "is_reserved": 0, "lon": -76.99193333333334}, {"fusion_lat": 0.0, "name": "ba8d6baa7f8c04ba9404b50df6e90b88", "is_disabled": 0, "rental_uris": {"android": "https://dc.lft.to/lastmile_qr_scan", "ios": "https://dc.lft.to/lastmile_qr_scan"}, "fusion_lon": 0.0, "lat": 38.90197233333333, "bike_id": "ba8d6baa7f8c04ba9404b50df6e90b88", "type": "electric_scooter", "is_reserved": 0, "lon": -77.03671333333334}, {"fusion_lat": 0.0, "name": "04d330920a79998c530deac1136362e8", "is_disabled": 0, "rental_uris": {"android": "https://dc.lft.to/lastmile_qr_scan", "ios": "https://dc.lft.to/lastmile_qr_scan"}, "fusion_lon": 0.0, "lat": 38.8966645, "bike_id": "04d330920a79998c530deac1136362e8", "type": "electric_scooter", "is_reserved": 0, "lon": -76.98840566666667}, {"fusion_lat": 0.0, "name": "e6aa7e823925faa696e35c9d2c7824eb", "is_disabled": 0, "rental_uris": {"android": "https://dc.lft.to/lastmile_qr_scan", "ios": "https://dc.lft.to/lastmile_qr_scan"}, "fusion_lon": 0.0, "lat": 38.89875033333333, "bike_id": "e6aa7e823925faa696e35c9d2c7824eb", "type": "electric_scooter", "is_reserved": 0, "lon": -76.9319025}, {"fusion_lat": 0.0, "name": "f61d1603ca31acdeb02a853c0f3b071e", "is_disabled": 0, "rental_uris": {"android": "https://dc.lft.to/lastmile_qr_scan", "ios": "https://dc.lft.to/lastmile_qr_scan"}, "fusion_lon": 0.0, "lat": 38.90525233333334, "bike_id": "f61d1603ca31acdeb02a853c0f3b071e", "type": "electric_scooter", "is_reserved": 0, "lon": -77.02964566666667}, {"fusion_lat": 0.0, "name": "eaa6db418ced77fc728fc5374eca7c1a", "is_disabled": 0, "rental_uris": {"android": "https://dc.lft.to/lastmile_qr_scan", "ios": "https://dc.lft.to/lastmile_qr_scan"}, "fusion_lon": 0.0, "lat": 38.847555, "bike_id": "eaa6db418ced77fc728fc5374eca7c1a", "type": "electric_scooter", "is_reserved": 0, "lon": -76.99502}, {"fusion_lat": 0.0, "name": "b83c6cfd6ddda1fb47d00971892bb7fd", "is_disabled": 0, "rental_uris": {"android": "https://dc.lft.to/lastmile_qr_scan", "ios": "https://dc.lft.to/lastmile_qr_scan"}, "fusion_lon": 0.0, "lat": 38.91043, "bike_id": "b83c6cfd6ddda1fb47d00971892bb7fd", "type": "electric_scooter", "is_reserved": 0, "lon": -77.04292933333333}, {"fusion_lat": 0.0, "name": "0967ce45404da3c69dc26412deb61449", "is_disabled": 0, "rental_uris": {"android": "https://dc.lft.to/lastmile_qr_scan", "ios": "https://dc.lft.to/lastmile_qr_scan"}, "fusion_lon": 0.0, "lat": 38.90751183333333, "bike_id": "0967ce45404da3c69dc26412deb61449", "type": "electric_scooter", "is_reserved": 0, "lon": -77.04558483333334}, {"fusion_lat": 0.0, "name": "4fae3037b315358dccb973b32a5cdd2d", "is_disabled": 0, "rental_uris": {"android": "https://dc.lft.to/lastmile_qr_scan", "ios": "https://dc.lft.to/lastmile_qr_scan"}, "fusion_lon": 0.0, "lat": 38.906408166666665, "bike_id": "4fae3037b315358dccb973b32a5cdd2d", "type": "electric_scooter", "is_reserved": 0, "lon": -77.05323116666666}, {"fusion_lat": 0.0, "name": "76568e7ae706c31528ba58073f8acf0c", "is_disabled": 0, "rental_uris": {"android": "https://dc.lft.to/lastmile_qr_scan", "ios": "https://dc.lft.to/lastmile_qr_scan"}, "fusion_lon": 0.0, "lat": 38.93518683333333, "bike_id": "76568e7ae706c31528ba58073f8acf0c", "type": "electric_scooter", "is_reserved": 0, "lon": -77.07264766666667}, {"fusion_lat": 0.0, "name": "0813fb011a44042b6eebcec68d4d751d", "is_disabled": 0, "rental_uris": {"android": "https://dc.lft.to/lastmile_qr_scan", "ios": "https://dc.lft.to/lastmile_qr_scan"}, "fusion_lon": 0.0, "lat": 38.871923833333334, "bike_id": "0813fb011a44042b6eebcec68d4d751d", "type": "electric_scooter", "is_reserved": 0, "lon": -77.00626216666667}, {"fusion_lat": 0.0, "name": "2aefe268cf121248c2d470d82eec0737", "is_disabled": 0, "rental_uris": {"android": "https://dc.lft.to/lastmile_qr_scan", "ios": "https://dc.lft.to/lastmile_qr_scan"}, "fusion_lon": 0.0, "lat": 39.05256283333333, "bike_id": "2aefe268cf121248c2d470d82eec0737", "type": "electric_bike", "is_reserved": 0, "lon": -77.080703}, {"fusion_lat": 0.0, "name": "7ffe9903d8e7a9ab67b29764794f7801", "is_disabled": 0, "rental_uris": {"android": "https://dc.lft.to/lastmile_qr_scan", "ios": "https://dc.lft.to/lastmile_qr_scan"}, "fusion_lon": 0.0, "lat": 38.93557766666667, "bike_id": "7ffe9903d8e7a9ab67b29764794f7801", "type": "electric_bike", "is_reserved": 0, "lon": -77.0370285}, {"fusion_lat": 0.0, "name": "22c911ce798f0d135a671c7087238dd0", "is_disabled": 0, "rental_uris": {"android": "https://dc.lft.to/lastmile_qr_scan", "ios": "https://dc.lft.to/lastmile_qr_scan"}, "fusion_lon": 0.0, "lat": 38.8944185, "bike_id": "22c911ce798f0d135a671c7087238dd0", "type": "electric_scooter", "is_reserved": 0, "lon": -76.93685416666666}, {"fusion_lat": 0.0, "name": "d84d6a4830ccda4d12dcabadff454362", "is_disabled": 0, "rental_uris": {"android": "https://dc.lft.to/lastmile_qr_scan", "ios": "https://dc.lft.to/lastmile_qr_scan"}, "fusion_lon": 0.0, "lat": 38.89903066666667, "bike_id": "d84d6a4830ccda4d12dcabadff454362", "type": "electric_scooter", "is_reserved": 0, "lon": -76.94555616666666}, {"fusion_lat": 0.0, "name": "0a2c3cc4d5262364755231ff340713f4", "is_disabled": 0, "rental_uris": {"android": "https://dc.lft.to/lastmile_qr_scan", "ios": "https://dc.lft.to/lastmile_qr_scan"}, "fusion_lon": 0.0, "lat": 38.9219605, "bike_id": "0a2c3cc4d5262364755231ff340713f4", "type": "electric_scooter", "is_reserved": 0, "lon": -77.037853}, {"fusion_lat": 0.0, "name": "c0b64bf2e6f52d42f345d5e57129d4a4", "is_disabled": 0, "rental_uris": {"android": "https://dc.lft.to/lastmile_qr_scan", "ios": "https://dc.lft.to/lastmile_qr_scan"}, "fusion_lon": 0.0, "lat": 38.870407166666666, "bike_id": "c0b64bf2e6f52d42f345d5e57129d4a4", "type": "electric_scooter", "is_reserved": 0, "lon": -77.010102}, {"fusion_lat": 0.0, "name": "91a0564cbe9fe858aa965ceec291c209", "is_disabled": 0, "rental_uris": {"android": "https://dc.lft.to/lastmile_qr_scan", "ios": "https://dc.lft.to/lastmile_qr_scan"}, "fusion_lon": 0.0, "lat": 38.909563, "bike_id": "91a0564cbe9fe858aa965ceec291c209", "type": "electric_scooter", "is_reserved": 0, "lon": -76.9854095}, {"fusion_lat": 0.0, "name": "81aeb1ae3ff8fa22c4b6bcd703bafd65", "is_disabled": 0, "rental_uris": {"android": "https://dc.lft.to/lastmile_qr_scan", "ios": "https://dc.lft.to/lastmile_qr_scan"}, "fusion_lon": 0.0, "lat": 38.9108365, "bike_id": "81aeb1ae3ff8fa22c4b6bcd703bafd65", "type": "electric_scooter", "is_reserved": 0, "lon": -77.06512466666666}, {"fusion_lat": 0.0, "name": "baaf314fe94e039b331489d6185f40be", "is_disabled": 0, "rental_uris": {"android": "https://dc.lft.to/lastmile_qr_scan", "ios": "https://dc.lft.to/lastmile_qr_scan"}, "fusion_lon": 0.0, "lat": 38.944085, "bike_id": "baaf314fe94e039b331489d6185f40be", "type": "electric_scooter", "is_reserved": 0, "lon": -77.03864366666667}, {"fusion_lat": 0.0, "name": "125c828ce102641347d24199bd70b7f3", "is_disabled": 0, "rental_uris": {"android": "https://dc.lft.to/lastmile_qr_scan", "ios": "https://dc.lft.to/lastmile_qr_scan"}, "fusion_lon": 0.0, "lat": 38.89547616666667, "bike_id": "125c828ce102641347d24199bd70b7f3", "type": "electric_scooter", "is_reserved": 0, "lon": -77.03993333333334}, {"fusion_lat": 0.0, "name": "ef5b7ee55346c8d8e3de97caaccdd137", "is_disabled": 0, "rental_uris": {"android": "https://dc.lft.to/lastmile_qr_scan", "ios": "https://dc.lft.to/lastmile_qr_scan"}, "fusion_lon": 0.0, "lat": 38.8876665, "bike_id": "ef5b7ee55346c8d8e3de97caaccdd137", "type": "electric_scooter", "is_reserved": 0, "lon": -76.977529}, {"fusion_lat": 0.0, "name": "4bf4b2e92e23ed825c24f987ece2e896", "is_disabled": 0, "rental_uris": {"android": "https://dc.lft.to/lastmile_qr_scan", "ios": "https://dc.lft.to/lastmile_qr_scan"}, "fusion_lon": 0.0, "lat": 38.9140155, "bike_id": "4bf4b2e92e23ed825c24f987ece2e896", "type": "electric_scooter", "is_reserved": 0, "lon": -77.00839433333333}, {"fusion_lat": 0.0, "name": "3e173350c1f8ed55a61f7e0f8a2fa6bf", "is_disabled": 0, "rental_uris": {"android": "https://dc.lft.to/lastmile_qr_scan", "ios": "https://dc.lft.to/lastmile_qr_scan"}, "fusion_lon": 0.0, "lat": 38.91654466666667, "bike_id": "3e173350c1f8ed55a61f7e0f8a2fa6bf", "type": "electric_bike", "is_reserved": 0, "lon": -77.021277}, {"fusion_lat": 0.0, "name": "f2e1337c8595047f52728abb15fe4bd1", "is_disabled": 0, "rental_uris": {"android": "https://dc.lft.to/lastmile_qr_scan", "ios": "https://dc.lft.to/lastmile_qr_scan"}, "fusion_lon": 0.0, "lat": 38.824596666666665, "bike_id": "f2e1337c8595047f52728abb15fe4bd1", "type": "electric_bike", "is_reserved": 0, "lon": -77.0079785}, {"fusion_lat": 0.0, "name": "27365fa6efa6554f3d2203d9078d97a1", "is_disabled": 0, "rental_uris": {"android": "https://dc.lft.to/lastmile_qr_scan", "ios": "https://dc.lft.to/lastmile_qr_scan"}, "fusion_lon": 0.0, "lat": 38.8923025, "bike_id": "27365fa6efa6554f3d2203d9078d97a1", "type": "electric_scooter", "is_reserved": 0, "lon": -77.02415083333334}, {"fusion_lat": 0.0, "name": "45b0c8dbae43900aec502d6404176dc1", "is_disabled": 0, "rental_uris": {"android": "https://dc.lft.to/lastmile_qr_scan", "ios": "https://dc.lft.to/lastmile_qr_scan"}, "fusion_lon": 0.0, "lat": 38.8429695, "bike_id": "45b0c8dbae43900aec502d6404176dc1", "type": "electric_bike", "is_reserved": 0, "lon": -77.10875433333334}, {"fusion_lat": 0.0, "name": "d96b013b1610d7d433cdcb49da2ec6b9", "is_disabled": 0, "rental_uris": {"android": "https://dc.lft.to/lastmile_qr_scan", "ios": "https://dc.lft.to/lastmile_qr_scan"}, "fusion_lon": 0.0, "lat": 38.921056166666666, "bike_id": "d96b013b1610d7d433cdcb49da2ec6b9", "type": "electric_scooter", "is_reserved": 0, "lon": -77.01772033333333}, {"fusion_lat": 0.0, "name": "463938161fa90fa15dfc9c2508b97884", "is_disabled": 0, "rental_uris": {"android": "https://dc.lft.to/lastmile_qr_scan", "ios": "https://dc.lft.to/lastmile_qr_scan"}, "fusion_lon": 0.0, "lat": 38.912812833333334, "bike_id": "463938161fa90fa15dfc9c2508b97884", "type": "electric_scooter", "is_reserved": 0, "lon": -77.02379633333334}, {"fusion_lat": 0.0, "name": "f0f226e893d95c32bd8cdc0059787178", "is_disabled": 0, "rental_uris": {"android": "https://dc.lft.to/lastmile_qr_scan", "ios": "https://dc.lft.to/lastmile_qr_scan"}, "fusion_lon": 0.0, "lat": 38.935685666666664, "bike_id": "f0f226e893d95c32bd8cdc0059787178", "type": "electric_scooter", "is_reserved": 0, "lon": -77.05869833333334}, {"fusion_lat": 0.0, "name": "b051cb7ecbbf0db317b5a0167425452c", "is_disabled": 0, "rental_uris": {"android": "https://dc.lft.to/lastmile_qr_scan", "ios": "https://dc.lft.to/lastmile_qr_scan"}, "fusion_lon": 0.0, "lat": 38.906412333333336, "bike_id": "b051cb7ecbbf0db317b5a0167425452c", "type": "electric_scooter", "is_reserved": 0, "lon": -77.037171}, {"fusion_lat": 0.0, "name": "ab8d6a1397aa63e43977055886e41a5a", "is_disabled": 0, "rental_uris": {"android": "https://dc.lft.to/lastmile_qr_scan", "ios": "https://dc.lft.to/lastmile_qr_scan"}, "fusion_lon": 0.0, "lat": 38.90098366666667, "bike_id": "ab8d6a1397aa63e43977055886e41a5a", "type": "electric_scooter", "is_reserved": 0, "lon": -76.98333333333333}, {"fusion_lat": 0.0, "name": "7968e585f7aa281b204b77fb6f911948", "is_disabled": 0, "rental_uris": {"android": "https://dc.lft.to/lastmile_qr_scan", "ios": "https://dc.lft.to/lastmile_qr_scan"}, "fusion_lon": 0.0, "lat": 38.93872116666667, "bike_id": "7968e585f7aa281b204b77fb6f911948", "type": "electric_scooter", "is_reserved": 0, "lon": -77.0247165}, {"fusion_lat": 0.0, "name": "91f219b9ca10c5c6881a3dd2455bbd1a", "is_disabled": 0, "rental_uris": {"android": "https://dc.lft.to/lastmile_qr_scan", "ios": "https://dc.lft.to/lastmile_qr_scan"}, "fusion_lon": 0.0, "lat": 38.892272166666665, "bike_id": "91f219b9ca10c5c6881a3dd2455bbd1a", "type": "electric_scooter", "is_reserved": 0, "lon": -77.02510583333333}, {"fusion_lat": 0.0, "name": "ea563221d92d6b1f0ffc74fc9694e593", "is_disabled": 0, "rental_uris": {"android": "https://dc.lft.to/lastmile_qr_scan", "ios": "https://dc.lft.to/lastmile_qr_scan"}, "fusion_lon": 0.0, "lat": 38.92253133333333, "bike_id": "ea563221d92d6b1f0ffc74fc9694e593", "type": "electric_scooter", "is_reserved": 0, "lon": -77.03224233333333}, {"fusion_lat": 0.0, "name": "fe2b0db94eb8878d7845c30526f8d9eb", "is_disabled": 0, "rental_uris": {"android": "https://dc.lft.to/lastmile_qr_scan", "ios": "https://dc.lft.to/lastmile_qr_scan"}, "fusion_lon": 0.0, "lat": 38.871105166666666, "bike_id": "fe2b0db94eb8878d7845c30526f8d9eb", "type": "electric_scooter", "is_reserved": 0, "lon": -77.00767033333334}, {"fusion_lat": 0.0, "name": "25ae7f51013813621933d190851b36f0", "is_disabled": 0, "rental_uris": {"android": "https://dc.lft.to/lastmile_qr_scan", "ios": "https://dc.lft.to/lastmile_qr_scan"}, "fusion_lon": 0.0, "lat": 38.92084066666666, "bike_id": "25ae7f51013813621933d190851b36f0", "type": "electric_scooter", "is_reserved": 0, "lon": -77.0137655}, {"fusion_lat": 0.0, "name": "f22ad598c77563cd7897723f864cb53d", "is_disabled": 0, "rental_uris": {"android": "https://dc.lft.to/lastmile_qr_scan", "ios": "https://dc.lft.to/lastmile_qr_scan"}, "fusion_lon": 0.0, "lat": 38.86218616666667, "bike_id": "f22ad598c77563cd7897723f864cb53d", "type": "electric_scooter", "is_reserved": 0, "lon": -76.99465616666667}, {"fusion_lat": 0.0, "name": "8dbb218abd7dc9c9a245fdf6d80fb64d", "is_disabled": 0, "rental_uris": {"android": "https://dc.lft.to/lastmile_qr_scan", "ios": "https://dc.lft.to/lastmile_qr_scan"}, "fusion_lon": 0.0, "lat": 38.910395666666666, "bike_id": "8dbb218abd7dc9c9a245fdf6d80fb64d", "type": "electric_scooter", "is_reserved": 0, "lon": -77.008292}, {"fusion_lat": 0.0, "name": "4f196c9d2d2ef898c1eaa034548f6d50", "is_disabled": 0, "rental_uris": {"android": "https://dc.lft.to/lastmile_qr_scan", "ios": "https://dc.lft.to/lastmile_qr_scan"}, "fusion_lon": 0.0, "lat": 38.90779716666667, "bike_id": "4f196c9d2d2ef898c1eaa034548f6d50", "type": "electric_scooter", "is_reserved": 0, "lon": -77.0385635}, {"fusion_lat": 0.0, "name": "e312e8af264f029bef18ed5969e2a5e9", "is_disabled": 0, "rental_uris": {"android": "https://dc.lft.to/lastmile_qr_scan", "ios": "https://dc.lft.to/lastmile_qr_scan"}, "fusion_lon": 0.0, "lat": 38.903659, "bike_id": "e312e8af264f029bef18ed5969e2a5e9", "type": "electric_scooter", "is_reserved": 0, "lon": -77.06109266666667}, {"fusion_lat": 0.0, "name": "c795f060239dc755f3c9a45b6798d9de", "is_disabled": 0, "rental_uris": {"android": "https://dc.lft.to/lastmile_qr_scan", "ios": "https://dc.lft.to/lastmile_qr_scan"}, "fusion_lon": 0.0, "lat": 38.89833133333333, "bike_id": "c795f060239dc755f3c9a45b6798d9de", "type": "electric_scooter", "is_reserved": 0, "lon": -77.02624183333333}, {"fusion_lat": 0.0, "name": "1743d7a596aad5f5f485966ba1fd8d73", "is_disabled": 0, "rental_uris": {"android": "https://dc.lft.to/lastmile_qr_scan", "ios": "https://dc.lft.to/lastmile_qr_scan"}, "fusion_lon": 0.0, "lat": 38.897783833333335, "bike_id": "1743d7a596aad5f5f485966ba1fd8d73", "type": "electric_scooter", "is_reserved": 0, "lon": -77.0219465}, {"fusion_lat": 0.0, "name": "ce424a403e11f4b32a64853c72a35115", "is_disabled": 0, "rental_uris": {"android": "https://dc.lft.to/lastmile_qr_scan", "ios": "https://dc.lft.to/lastmile_qr_scan"}, "fusion_lon": 0.0, "lat": 38.897403833333335, "bike_id": "ce424a403e11f4b32a64853c72a35115", "type": "electric_scooter", "is_reserved": 0, "lon": -77.05523083333334}, {"fusion_lat": 0.0, "name": "7f89a5ef51c80f846f4f99cda89d413a", "is_disabled": 0, "rental_uris": {"android": "https://dc.lft.to/lastmile_qr_scan", "ios": "https://dc.lft.to/lastmile_qr_scan"}, "fusion_lon": 0.0, "lat": 38.940948166666665, "bike_id": "7f89a5ef51c80f846f4f99cda89d413a", "type": "electric_scooter", "is_reserved": 0, "lon": -77.061865}, {"fusion_lat": 0.0, "name": "293ec0281715517f417af1eaf20013bc", "is_disabled": 0, "rental_uris": {"android": "https://dc.lft.to/lastmile_qr_scan", "ios": "https://dc.lft.to/lastmile_qr_scan"}, "fusion_lon": 0.0, "lat": 38.883886, "bike_id": "293ec0281715517f417af1eaf20013bc", "type": "electric_scooter", "is_reserved": 0, "lon": -76.930554}, {"fusion_lat": 0.0, "name": "83b8c297f75b03482cfd07d331804d16", "is_disabled": 0, "rental_uris": {"android": "https://dc.lft.to/lastmile_qr_scan", "ios": "https://dc.lft.to/lastmile_qr_scan"}, "fusion_lon": 0.0, "lat": 38.8576745, "bike_id": "83b8c297f75b03482cfd07d331804d16", "type": "electric_bike", "is_reserved": 0, "lon": -76.98770366666666}, {"fusion_lat": 0.0, "name": "74ee9403e6f39423cb7be18ba5ac7fc6", "is_disabled": 0, "rental_uris": {"android": "https://dc.lft.to/lastmile_qr_scan", "ios": "https://dc.lft.to/lastmile_qr_scan"}, "fusion_lon": 0.0, "lat": 38.92857683333333, "bike_id": "74ee9403e6f39423cb7be18ba5ac7fc6", "type": "electric_scooter", "is_reserved": 0, "lon": -77.03051466666666}, {"fusion_lat": 0.0, "name": "ab8074b6ec1f1fa5d109cf65ee6db3ec", "is_disabled": 0, "rental_uris": {"android": "https://dc.lft.to/lastmile_qr_scan", "ios": "https://dc.lft.to/lastmile_qr_scan"}, "fusion_lon": 0.0, "lat": 38.89843666666667, "bike_id": "ab8074b6ec1f1fa5d109cf65ee6db3ec", "type": "electric_scooter", "is_reserved": 0, "lon": -77.02788283333334}, {"fusion_lat": 0.0, "name": "f8b8bbcbb454069a146595440707b107", "is_disabled": 0, "rental_uris": {"android": "https://dc.lft.to/lastmile_qr_scan", "ios": "https://dc.lft.to/lastmile_qr_scan"}, "fusion_lon": 0.0, "lat": 38.922818, "bike_id": "f8b8bbcbb454069a146595440707b107", "type": "electric_scooter", "is_reserved": 0, "lon": -77.04237566666667}, {"fusion_lat": 0.0, "name": "06583958eead662dfc3371b3a9e3e845", "is_disabled": 0, "rental_uris": {"android": "https://dc.lft.to/lastmile_qr_scan", "ios": "https://dc.lft.to/lastmile_qr_scan"}, "fusion_lon": 0.0, "lat": 38.910843, "bike_id": "06583958eead662dfc3371b3a9e3e845", "type": "electric_scooter", "is_reserved": 0, "lon": -77.02112083333333}, {"fusion_lat": 0.0, "name": "34c16849b4ce7a3da006ecb3cbde3c3f", "is_disabled": 0, "rental_uris": {"android": "https://dc.lft.to/lastmile_qr_scan", "ios": "https://dc.lft.to/lastmile_qr_scan"}, "fusion_lon": 0.0, "lat": 38.84757416666667, "bike_id": "34c16849b4ce7a3da006ecb3cbde3c3f", "type": "electric_scooter", "is_reserved": 0, "lon": -76.995073}, {"fusion_lat": 0.0, "name": "6d84bdd83784e57b300e61a1b412edd5", "is_disabled": 0, "rental_uris": {"android": "https://dc.lft.to/lastmile_qr_scan", "ios": "https://dc.lft.to/lastmile_qr_scan"}, "fusion_lon": 0.0, "lat": 38.9148745, "bike_id": "6d84bdd83784e57b300e61a1b412edd5", "type": "electric_scooter", "is_reserved": 0, "lon": -77.01326533333334}, {"fusion_lat": 0.0, "name": "b69ee50a8397880c7247a4953a3130fb", "is_disabled": 0, "rental_uris": {"android": "https://dc.lft.to/lastmile_qr_scan", "ios": "https://dc.lft.to/lastmile_qr_scan"}, "fusion_lon": 0.0, "lat": 38.85354066666667, "bike_id": "b69ee50a8397880c7247a4953a3130fb", "type": "electric_bike", "is_reserved": 0, "lon": -77.13465633333334}, {"fusion_lat": 0.0, "name": "b4bd847854d40f0f120c518ccf0306f0", "is_disabled": 0, "rental_uris": {"android": "https://dc.lft.to/lastmile_qr_scan", "ios": "https://dc.lft.to/lastmile_qr_scan"}, "fusion_lon": 0.0, "lat": 38.90040883333333, "bike_id": "b4bd847854d40f0f120c518ccf0306f0", "type": "electric_scooter", "is_reserved": 0, "lon": -77.03298583333333}, {"fusion_lat": 0.0, "name": "ac41f0152ec48f380d6957a8cec4f0be", "is_disabled": 0, "rental_uris": {"android": "https://dc.lft.to/lastmile_qr_scan", "ios": "https://dc.lft.to/lastmile_qr_scan"}, "fusion_lon": 0.0, "lat": 38.87519133333333, "bike_id": "ac41f0152ec48f380d6957a8cec4f0be", "type": "electric_scooter", "is_reserved": 0, "lon": -77.00048583333333}, {"fusion_lat": 0.0, "name": "495f16d015589f3abf8b719cce7ec17f", "is_disabled": 0, "rental_uris": {"android": "https://dc.lft.to/lastmile_qr_scan", "ios": "https://dc.lft.to/lastmile_qr_scan"}, "fusion_lon": 0.0, "lat": 38.9134425, "bike_id": "495f16d015589f3abf8b719cce7ec17f", "type": "electric_scooter", "is_reserved": 0, "lon": -77.02382316666667}, {"fusion_lat": 0.0, "name": "64b3aaa067ead44801632d2a41070845", "is_disabled": 0, "rental_uris": {"android": "https://dc.lft.to/lastmile_qr_scan", "ios": "https://dc.lft.to/lastmile_qr_scan"}, "fusion_lon": 0.0, "lat": 38.91019383333333, "bike_id": "64b3aaa067ead44801632d2a41070845", "type": "electric_scooter", "is_reserved": 0, "lon": -77.04300866666667}, {"fusion_lat": 0.0, "name": "945479d99bf2d517f288695ce292b0fa", "is_disabled": 0, "rental_uris": {"android": "https://dc.lft.to/lastmile_qr_scan", "ios": "https://dc.lft.to/lastmile_qr_scan"}, "fusion_lon": 0.0, "lat": 38.915814166666664, "bike_id": "945479d99bf2d517f288695ce292b0fa", "type": "electric_scooter", "is_reserved": 0, "lon": -77.01242633333334}, {"fusion_lat": 0.0, "name": "2b9d25e795b52a178c2b2195ee367613", "is_disabled": 0, "rental_uris": {"android": "https://dc.lft.to/lastmile_qr_scan", "ios": "https://dc.lft.to/lastmile_qr_scan"}, "fusion_lon": 0.0, "lat": 38.91690916666667, "bike_id": "2b9d25e795b52a178c2b2195ee367613", "type": "electric_scooter", "is_reserved": 0, "lon": -77.037218}, {"fusion_lat": 0.0, "name": "55041fb67df98ba47cae735d69b1b4cb", "is_disabled": 0, "rental_uris": {"android": "https://dc.lft.to/lastmile_qr_scan", "ios": "https://dc.lft.to/lastmile_qr_scan"}, "fusion_lon": 0.0, "lat": 38.92678216666667, "bike_id": "55041fb67df98ba47cae735d69b1b4cb", "type": "electric_scooter", "is_reserved": 0, "lon": -77.0308265}, {"fusion_lat": 0.0, "name": "97f0231eb173b542cca668a931a0d122", "is_disabled": 0, "rental_uris": {"android": "https://dc.lft.to/lastmile_qr_scan", "ios": "https://dc.lft.to/lastmile_qr_scan"}, "fusion_lon": 0.0, "lat": 38.88305233333333, "bike_id": "97f0231eb173b542cca668a931a0d122", "type": "electric_scooter", "is_reserved": 0, "lon": -76.94859016666666}, {"fusion_lat": 0.0, "name": "adb811cb3f9723c954235eacca63d20b", "is_disabled": 0, "rental_uris": {"android": "https://dc.lft.to/lastmile_qr_scan", "ios": "https://dc.lft.to/lastmile_qr_scan"}, "fusion_lon": 0.0, "lat": 38.9126685, "bike_id": "adb811cb3f9723c954235eacca63d20b", "type": "electric_scooter", "is_reserved": 0, "lon": -77.03040266666666}, {"fusion_lat": 0.0, "name": "40d3df81a767e87d75382659c74c9342", "is_disabled": 0, "rental_uris": {"android": "https://dc.lft.to/lastmile_qr_scan", "ios": "https://dc.lft.to/lastmile_qr_scan"}, "fusion_lon": 0.0, "lat": 38.92529316666667, "bike_id": "40d3df81a767e87d75382659c74c9342", "type": "electric_scooter", "is_reserved": 0, "lon": -77.0075515}, {"fusion_lat": 0.0, "name": "dc921933a57285e2adcfb3ae2983aa79", "is_disabled": 0, "rental_uris": {"android": "https://dc.lft.to/lastmile_qr_scan", "ios": "https://dc.lft.to/lastmile_qr_scan"}, "fusion_lon": 0.0, "lat": 38.90402533333334, "bike_id": "dc921933a57285e2adcfb3ae2983aa79", "type": "electric_scooter", "is_reserved": 0, "lon": -77.06820483333334}, {"fusion_lat": 0.0, "name": "93c8cedddd8907394c893415e3191809", "is_disabled": 0, "rental_uris": {"android": "https://dc.lft.to/lastmile_qr_scan", "ios": "https://dc.lft.to/lastmile_qr_scan"}, "fusion_lon": 0.0, "lat": 38.8070635, "bike_id": "93c8cedddd8907394c893415e3191809", "type": "electric_bike", "is_reserved": 0, "lon": -77.06180083333334}, {"fusion_lat": 0.0, "name": "57e7f37f23fc3de50f305544f96ef489", "is_disabled": 0, "rental_uris": {"android": "https://dc.lft.to/lastmile_qr_scan", "ios": "https://dc.lft.to/lastmile_qr_scan"}, "fusion_lon": 0.0, "lat": 38.91643066666666, "bike_id": "57e7f37f23fc3de50f305544f96ef489", "type": "electric_scooter", "is_reserved": 0, "lon": -77.050648}, {"fusion_lat": 0.0, "name": "57d0c8fa352b3dfd5a040802f08516c0", "is_disabled": 0, "rental_uris": {"android": "https://dc.lft.to/lastmile_qr_scan", "ios": "https://dc.lft.to/lastmile_qr_scan"}, "fusion_lon": 0.0, "lat": 38.812560833333336, "bike_id": "57d0c8fa352b3dfd5a040802f08516c0", "type": "electric_bike", "is_reserved": 0, "lon": -77.11775466666667}, {"fusion_lat": 0.0, "name": "00d07cfcde9b823c00b43368c0467569", "is_disabled": 0, "rental_uris": {"android": "https://dc.lft.to/lastmile_qr_scan", "ios": "https://dc.lft.to/lastmile_qr_scan"}, "fusion_lon": 0.0, "lat": 38.8910395, "bike_id": "00d07cfcde9b823c00b43368c0467569", "type": "electric_scooter", "is_reserved": 0, "lon": -76.99630266666667}, {"fusion_lat": 0.0, "name": "4050d2ad9fae35e9e23645a6fe032468", "is_disabled": 0, "rental_uris": {"android": "https://dc.lft.to/lastmile_qr_scan", "ios": "https://dc.lft.to/lastmile_qr_scan"}, "fusion_lon": 0.0, "lat": 38.9073365, "bike_id": "4050d2ad9fae35e9e23645a6fe032468", "type": "electric_scooter", "is_reserved": 0, "lon": -76.93551916666667}, {"fusion_lat": 0.0, "name": "ea658999de1ad41c45c67f4a4c3e3504", "is_disabled": 0, "rental_uris": {"android": "https://dc.lft.to/lastmile_qr_scan", "ios": "https://dc.lft.to/lastmile_qr_scan"}, "fusion_lon": 0.0, "lat": 38.819135, "bike_id": "ea658999de1ad41c45c67f4a4c3e3504", "type": "electric_bike", "is_reserved": 0, "lon": -77.048047}, {"fusion_lat": 0.0, "name": "7b794428a8fdca003254aad85de91321", "is_disabled": 0, "rental_uris": {"android": "https://dc.lft.to/lastmile_qr_scan", "ios": "https://dc.lft.to/lastmile_qr_scan"}, "fusion_lon": 0.0, "lat": 38.916856, "bike_id": "7b794428a8fdca003254aad85de91321", "type": "electric_scooter", "is_reserved": 0, "lon": -77.02297033333333}, {"fusion_lat": 0.0, "name": "a80f773375e6b6fda19e7c48b4da0aba", "is_disabled": 0, "rental_uris": {"android": "https://dc.lft.to/lastmile_qr_scan", "ios": "https://dc.lft.to/lastmile_qr_scan"}, "fusion_lon": 0.0, "lat": 38.904316666666666, "bike_id": "a80f773375e6b6fda19e7c48b4da0aba", "type": "electric_scooter", "is_reserved": 0, "lon": -77.0347195}, {"fusion_lat": 0.0, "name": "e2c6ce4982618b7b2e88b1261adf3dae", "is_disabled": 0, "rental_uris": {"android": "https://dc.lft.to/lastmile_qr_scan", "ios": "https://dc.lft.to/lastmile_qr_scan"}, "fusion_lon": 0.0, "lat": 38.9110425, "bike_id": "e2c6ce4982618b7b2e88b1261adf3dae", "type": "electric_scooter", "is_reserved": 0, "lon": -77.01668883333333}, {"fusion_lat": 0.0, "name": "b7ab2af2498bd41718984ddcdba4b5d3", "is_disabled": 0, "rental_uris": {"android": "https://dc.lft.to/lastmile_qr_scan", "ios": "https://dc.lft.to/lastmile_qr_scan"}, "fusion_lon": 0.0, "lat": 38.91815733333333, "bike_id": "b7ab2af2498bd41718984ddcdba4b5d3", "type": "electric_scooter", "is_reserved": 0, "lon": -77.025099}, {"fusion_lat": 0.0, "name": "efe72f49723886eb331842f5a06b3a67", "is_disabled": 0, "rental_uris": {"android": "https://dc.lft.to/lastmile_qr_scan", "ios": "https://dc.lft.to/lastmile_qr_scan"}, "fusion_lon": 0.0, "lat": 38.91989783333333, "bike_id": "efe72f49723886eb331842f5a06b3a67", "type": "electric_scooter", "is_reserved": 0, "lon": -76.97302683333334}, {"fusion_lat": 0.0, "name": "2b8cd7d500a3e08eee3f4ac13df0137d", "is_disabled": 0, "rental_uris": {"android": "https://dc.lft.to/lastmile_qr_scan", "ios": "https://dc.lft.to/lastmile_qr_scan"}, "fusion_lon": 0.0, "lat": 38.906951, "bike_id": "2b8cd7d500a3e08eee3f4ac13df0137d", "type": "electric_scooter", "is_reserved": 0, "lon": -77.065205}, {"fusion_lat": 0.0, "name": "fa69cc30a3182a2c05fb3ac791729f44", "is_disabled": 0, "rental_uris": {"android": "https://dc.lft.to/lastmile_qr_scan", "ios": "https://dc.lft.to/lastmile_qr_scan"}, "fusion_lon": 0.0, "lat": 38.89850116666667, "bike_id": "fa69cc30a3182a2c05fb3ac791729f44", "type": "electric_scooter", "is_reserved": 0, "lon": -77.024246}, {"fusion_lat": 0.0, "name": "2a38446096faafe2a620551efeb72aa1", "is_disabled": 0, "rental_uris": {"android": "https://dc.lft.to/lastmile_qr_scan", "ios": "https://dc.lft.to/lastmile_qr_scan"}, "fusion_lon": 0.0, "lat": 38.91970216666667, "bike_id": "2a38446096faafe2a620551efeb72aa1", "type": "electric_scooter", "is_reserved": 0, "lon": -77.0239805}, {"fusion_lat": 0.0, "name": "69b78e63b6889ecb31ba634c1b85bc6a", "is_disabled": 0, "rental_uris": {"android": "https://dc.lft.to/lastmile_qr_scan", "ios": "https://dc.lft.to/lastmile_qr_scan"}, "fusion_lon": 0.0, "lat": 38.87650216666667, "bike_id": "69b78e63b6889ecb31ba634c1b85bc6a", "type": "electric_scooter", "is_reserved": 0, "lon": -77.00833883333334}, {"fusion_lat": 0.0, "name": "b02b36f9cef6361071db66035b1d9dc1", "is_disabled": 0, "rental_uris": {"android": "https://dc.lft.to/lastmile_qr_scan", "ios": "https://dc.lft.to/lastmile_qr_scan"}, "fusion_lon": 0.0, "lat": 38.9497985, "bike_id": "b02b36f9cef6361071db66035b1d9dc1", "type": "electric_scooter", "is_reserved": 0, "lon": -77.02702816666667}, {"fusion_lat": 0.0, "name": "387f82f03a242d47923e266754927c76", "is_disabled": 0, "rental_uris": {"android": "https://dc.lft.to/lastmile_qr_scan", "ios": "https://dc.lft.to/lastmile_qr_scan"}, "fusion_lon": 0.0, "lat": 38.9117405, "bike_id": "387f82f03a242d47923e266754927c76", "type": "electric_scooter", "is_reserved": 0, "lon": -77.06867516666667}, {"fusion_lat": 0.0, "name": "35ecbff2532687472065a54192116f2e", "is_disabled": 0, "rental_uris": {"android": "https://dc.lft.to/lastmile_qr_scan", "ios": "https://dc.lft.to/lastmile_qr_scan"}, "fusion_lon": 0.0, "lat": 38.918530833333335, "bike_id": "35ecbff2532687472065a54192116f2e", "type": "electric_scooter", "is_reserved": 0, "lon": -77.04594533333334}, {"fusion_lat": 0.0, "name": "4941d67abdf3409a86e4cbf9bc144b58", "is_disabled": 0, "rental_uris": {"android": "https://dc.lft.to/lastmile_qr_scan", "ios": "https://dc.lft.to/lastmile_qr_scan"}, "fusion_lon": 0.0, "lat": 38.936276166666666, "bike_id": "4941d67abdf3409a86e4cbf9bc144b58", "type": "electric_scooter", "is_reserved": 0, "lon": -77.03660233333333}, {"fusion_lat": 0.0, "name": "09eb4f49611265f48d9ca6da2980cc1d", "is_disabled": 0, "rental_uris": {"android": "https://dc.lft.to/lastmile_qr_scan", "ios": "https://dc.lft.to/lastmile_qr_scan"}, "fusion_lon": 0.0, "lat": 38.936115, "bike_id": "09eb4f49611265f48d9ca6da2980cc1d", "type": "electric_scooter", "is_reserved": 0, "lon": -77.02414983333334}, {"fusion_lat": 0.0, "name": "762b3dd56a67389897c63c8ff998096f", "is_disabled": 0, "rental_uris": {"android": "https://dc.lft.to/lastmile_qr_scan", "ios": "https://dc.lft.to/lastmile_qr_scan"}, "fusion_lon": 0.0, "lat": 38.86140433333333, "bike_id": "762b3dd56a67389897c63c8ff998096f", "type": "electric_bike", "is_reserved": 0, "lon": -76.971697}, {"fusion_lat": 0.0, "name": "c7c8d95271b82f8765563fea343df2e3", "is_disabled": 0, "rental_uris": {"android": "https://dc.lft.to/lastmile_qr_scan", "ios": "https://dc.lft.to/lastmile_qr_scan"}, "fusion_lon": 0.0, "lat": 38.914772666666664, "bike_id": "c7c8d95271b82f8765563fea343df2e3", "type": "electric_scooter", "is_reserved": 0, "lon": -77.02189966666667}, {"fusion_lat": 0.0, "name": "69aacf41aecb0a484680fdfbe3763944", "is_disabled": 0, "rental_uris": {"android": "https://dc.lft.to/lastmile_qr_scan", "ios": "https://dc.lft.to/lastmile_qr_scan"}, "fusion_lon": 0.0, "lat": 38.89305566666667, "bike_id": "69aacf41aecb0a484680fdfbe3763944", "type": "electric_scooter", "is_reserved": 0, "lon": -77.05599183333334}, {"fusion_lat": 0.0, "name": "549b676fef2b5a2429700aa36f3ad2b6", "is_disabled": 0, "rental_uris": {"android": "https://dc.lft.to/lastmile_qr_scan", "ios": "https://dc.lft.to/lastmile_qr_scan"}, "fusion_lon": 0.0, "lat": 38.919501333333336, "bike_id": "549b676fef2b5a2429700aa36f3ad2b6", "type": "electric_scooter", "is_reserved": 0, "lon": -77.04167566666666}, {"fusion_lat": 0.0, "name": "60deb7d05406120fcef2ad2780b6e792", "is_disabled": 0, "rental_uris": {"android": "https://dc.lft.to/lastmile_qr_scan", "ios": "https://dc.lft.to/lastmile_qr_scan"}, "fusion_lon": 0.0, "lat": 38.911522, "bike_id": "60deb7d05406120fcef2ad2780b6e792", "type": "electric_scooter", "is_reserved": 0, "lon": -76.98732583333333}, {"fusion_lat": 0.0, "name": "a321f99a6b4b9e20ae724a3e259e4853", "is_disabled": 0, "rental_uris": {"android": "https://dc.lft.to/lastmile_qr_scan", "ios": "https://dc.lft.to/lastmile_qr_scan"}, "fusion_lon": 0.0, "lat": 38.87996966666667, "bike_id": "a321f99a6b4b9e20ae724a3e259e4853", "type": "electric_scooter", "is_reserved": 0, "lon": -76.98541166666666}, {"fusion_lat": 0.0, "name": "f21e759b1496ab50c871963b156697cc", "is_disabled": 0, "rental_uris": {"android": "https://dc.lft.to/lastmile_qr_scan", "ios": "https://dc.lft.to/lastmile_qr_scan"}, "fusion_lon": 0.0, "lat": 38.8986135, "bike_id": "f21e759b1496ab50c871963b156697cc", "type": "electric_scooter", "is_reserved": 0, "lon": -77.022227}, {"fusion_lat": 0.0, "name": "3e3fe6a2b7b594f0ec44b5963d6dfef0", "is_disabled": 0, "rental_uris": {"android": "https://dc.lft.to/lastmile_qr_scan", "ios": "https://dc.lft.to/lastmile_qr_scan"}, "fusion_lon": 0.0, "lat": 38.90946116666667, "bike_id": "3e3fe6a2b7b594f0ec44b5963d6dfef0", "type": "electric_scooter", "is_reserved": 0, "lon": -77.038555}, {"fusion_lat": 0.0, "name": "6c612446df7eb26b77bd2a5c9b6a432f", "is_disabled": 0, "rental_uris": {"android": "https://dc.lft.to/lastmile_qr_scan", "ios": "https://dc.lft.to/lastmile_qr_scan"}, "fusion_lon": 0.0, "lat": 38.904014833333335, "bike_id": "6c612446df7eb26b77bd2a5c9b6a432f", "type": "electric_scooter", "is_reserved": 0, "lon": -77.03656716666667}, {"fusion_lat": 0.0, "name": "656ddbdc3ac3cee0e1c98e5d9a7f152f", "is_disabled": 0, "rental_uris": {"android": "https://dc.lft.to/lastmile_qr_scan", "ios": "https://dc.lft.to/lastmile_qr_scan"}, "fusion_lon": 0.0, "lat": 38.914905166666664, "bike_id": "656ddbdc3ac3cee0e1c98e5d9a7f152f", "type": "electric_scooter", "is_reserved": 0, "lon": -77.014221}, {"fusion_lat": 0.0, "name": "ad7feb8ab1d1754ed43be2eb9e73f848", "is_disabled": 0, "rental_uris": {"android": "https://dc.lft.to/lastmile_qr_scan", "ios": "https://dc.lft.to/lastmile_qr_scan"}, "fusion_lon": 0.0, "lat": 38.90630216666667, "bike_id": "ad7feb8ab1d1754ed43be2eb9e73f848", "type": "electric_scooter", "is_reserved": 0, "lon": -77.04864866666667}, {"fusion_lat": 0.0, "name": "ac4aba0637842735f3b55777cfbc935c", "is_disabled": 0, "rental_uris": {"android": "https://dc.lft.to/lastmile_qr_scan", "ios": "https://dc.lft.to/lastmile_qr_scan"}, "fusion_lon": 0.0, "lat": 38.95739416666667, "bike_id": "ac4aba0637842735f3b55777cfbc935c", "type": "electric_bike", "is_reserved": 0, "lon": -76.98086533333333}, {"fusion_lat": 0.0, "name": "40df07db28b800f0203b725bed49e93a", "is_disabled": 0, "rental_uris": {"android": "https://dc.lft.to/lastmile_qr_scan", "ios": "https://dc.lft.to/lastmile_qr_scan"}, "fusion_lon": 0.0, "lat": 38.950876666666666, "bike_id": "40df07db28b800f0203b725bed49e93a", "type": "electric_bike", "is_reserved": 0, "lon": -77.01197583333334}, {"fusion_lat": 0.0, "name": "0a782a651e24b553340734dd02537914", "is_disabled": 0, "rental_uris": {"android": "https://dc.lft.to/lastmile_qr_scan", "ios": "https://dc.lft.to/lastmile_qr_scan"}, "fusion_lon": 0.0, "lat": 38.90491166666666, "bike_id": "0a782a651e24b553340734dd02537914", "type": "electric_scooter", "is_reserved": 0, "lon": -77.046521}, {"fusion_lat": 0.0, "name": "6a72abb01963b943b7dfab1dc76953b0", "is_disabled": 0, "rental_uris": {"android": "https://dc.lft.to/lastmile_qr_scan", "ios": "https://dc.lft.to/lastmile_qr_scan"}, "fusion_lon": 0.0, "lat": 38.92212283333333, "bike_id": "6a72abb01963b943b7dfab1dc76953b0", "type": "electric_scooter", "is_reserved": 0, "lon": -77.0809165}, {"fusion_lat": 0.0, "name": "af3cddfd760e869afe4994b7c94b8873", "is_disabled": 0, "rental_uris": {"android": "https://dc.lft.to/lastmile_qr_scan", "ios": "https://dc.lft.to/lastmile_qr_scan"}, "fusion_lon": 0.0, "lat": 38.93083716666667, "bike_id": "af3cddfd760e869afe4994b7c94b8873", "type": "electric_scooter", "is_reserved": 0, "lon": -77.02556483333333}, {"fusion_lat": 0.0, "name": "557facbccb8422d06fa1f341a3e27d37", "is_disabled": 0, "rental_uris": {"android": "https://dc.lft.to/lastmile_qr_scan", "ios": "https://dc.lft.to/lastmile_qr_scan"}, "fusion_lon": 0.0, "lat": 38.92549283333334, "bike_id": "557facbccb8422d06fa1f341a3e27d37", "type": "electric_scooter", "is_reserved": 0, "lon": -77.04052083333333}, {"fusion_lat": 0.0, "name": "478d3061b6c12875432ddb5be3fdb6a6", "is_disabled": 0, "rental_uris": {"android": "https://dc.lft.to/lastmile_qr_scan", "ios": "https://dc.lft.to/lastmile_qr_scan"}, "fusion_lon": 0.0, "lat": 38.9144245, "bike_id": "478d3061b6c12875432ddb5be3fdb6a6", "type": "electric_scooter", "is_reserved": 0, "lon": -77.0449045}, {"fusion_lat": 0.0, "name": "8eef5beae4019f0578b48c8ff4c161f0", "is_disabled": 0, "rental_uris": {"android": "https://dc.lft.to/lastmile_qr_scan", "ios": "https://dc.lft.to/lastmile_qr_scan"}, "fusion_lon": 0.0, "lat": 38.923445, "bike_id": "8eef5beae4019f0578b48c8ff4c161f0", "type": "electric_scooter", "is_reserved": 0, "lon": -77.04180433333333}, {"fusion_lat": 0.0, "name": "310c3c8162a036198136d71e2c7f297a", "is_disabled": 0, "rental_uris": {"android": "https://dc.lft.to/lastmile_qr_scan", "ios": "https://dc.lft.to/lastmile_qr_scan"}, "fusion_lon": 0.0, "lat": 38.919249666666666, "bike_id": "310c3c8162a036198136d71e2c7f297a", "type": "electric_scooter", "is_reserved": 0, "lon": -77.03178083333333}, {"fusion_lat": 0.0, "name": "95dd637ac801f9af010eeb04942aa463", "is_disabled": 0, "rental_uris": {"android": "https://dc.lft.to/lastmile_qr_scan", "ios": "https://dc.lft.to/lastmile_qr_scan"}, "fusion_lon": 0.0, "lat": 38.889845, "bike_id": "95dd637ac801f9af010eeb04942aa463", "type": "electric_scooter", "is_reserved": 0, "lon": -76.91429666666667}, {"fusion_lat": 0.0, "name": "4d2a29cc37d2871001ea6a9fb864f888", "is_disabled": 0, "rental_uris": {"android": "https://dc.lft.to/lastmile_qr_scan", "ios": "https://dc.lft.to/lastmile_qr_scan"}, "fusion_lon": 0.0, "lat": 38.911121333333334, "bike_id": "4d2a29cc37d2871001ea6a9fb864f888", "type": "electric_scooter", "is_reserved": 0, "lon": -77.0813635}, {"fusion_lat": 0.0, "name": "8f60a8638d15dd31aae913f1b70963be", "is_disabled": 0, "rental_uris": {"android": "https://dc.lft.to/lastmile_qr_scan", "ios": "https://dc.lft.to/lastmile_qr_scan"}, "fusion_lon": 0.0, "lat": 38.91584183333333, "bike_id": "8f60a8638d15dd31aae913f1b70963be", "type": "electric_scooter", "is_reserved": 0, "lon": -77.012457}, {"fusion_lat": 0.0, "name": "edd32e8262eae4ceceb48fe228ecc26c", "is_disabled": 0, "rental_uris": {"android": "https://dc.lft.to/lastmile_qr_scan", "ios": "https://dc.lft.to/lastmile_qr_scan"}, "fusion_lon": 0.0, "lat": 38.844268, "bike_id": "edd32e8262eae4ceceb48fe228ecc26c", "type": "electric_scooter", "is_reserved": 0, "lon": -76.9978235}, {"fusion_lat": 0.0, "name": "c4ea40d268546e0f9a1c65d898b4db4b", "is_disabled": 0, "rental_uris": {"android": "https://dc.lft.to/lastmile_qr_scan", "ios": "https://dc.lft.to/lastmile_qr_scan"}, "fusion_lon": 0.0, "lat": 38.881502833333336, "bike_id": "c4ea40d268546e0f9a1c65d898b4db4b", "type": "electric_scooter", "is_reserved": 0, "lon": -76.99519633333334}, {"fusion_lat": 0.0, "name": "76c5024e8d598c7551d72d5d088a72a3", "is_disabled": 0, "rental_uris": {"android": "https://dc.lft.to/lastmile_qr_scan", "ios": "https://dc.lft.to/lastmile_qr_scan"}, "fusion_lon": 0.0, "lat": 38.922282, "bike_id": "76c5024e8d598c7551d72d5d088a72a3", "type": "electric_scooter", "is_reserved": 0, "lon": -77.02371483333333}, {"fusion_lat": 0.0, "name": "4e47f232e6dee191ed1ba69212ef3441", "is_disabled": 0, "rental_uris": {"android": "https://dc.lft.to/lastmile_qr_scan", "ios": "https://dc.lft.to/lastmile_qr_scan"}, "fusion_lon": 0.0, "lat": 38.9558925, "bike_id": "4e47f232e6dee191ed1ba69212ef3441", "type": "electric_scooter", "is_reserved": 0, "lon": -77.02813383333333}, {"fusion_lat": 0.0, "name": "7b3897528b6a6fd1b51a835ca0d0eb21", "is_disabled": 0, "rental_uris": {"android": "https://dc.lft.to/lastmile_qr_scan", "ios": "https://dc.lft.to/lastmile_qr_scan"}, "fusion_lon": 0.0, "lat": 38.939603166666664, "bike_id": "7b3897528b6a6fd1b51a835ca0d0eb21", "type": "electric_scooter", "is_reserved": 0, "lon": -77.0329365}, {"fusion_lat": 0.0, "name": "20797be5aa20cdce72cb5e78b410158f", "is_disabled": 0, "rental_uris": {"android": "https://dc.lft.to/lastmile_qr_scan", "ios": "https://dc.lft.to/lastmile_qr_scan"}, "fusion_lon": 0.0, "lat": 38.898426, "bike_id": "20797be5aa20cdce72cb5e78b410158f", "type": "electric_scooter", "is_reserved": 0, "lon": -77.02963816666667}, {"fusion_lat": 0.0, "name": "bd59bb0be454fd2097124910c33680e7", "is_disabled": 0, "rental_uris": {"android": "https://dc.lft.to/lastmile_qr_scan", "ios": "https://dc.lft.to/lastmile_qr_scan"}, "fusion_lon": 0.0, "lat": 38.90759716666667, "bike_id": "bd59bb0be454fd2097124910c33680e7", "type": "electric_scooter", "is_reserved": 0, "lon": -77.0565435}, {"fusion_lat": 0.0, "name": "1e3e78b50b6fd17dfda0156151d6f3cf", "is_disabled": 0, "rental_uris": {"android": "https://dc.lft.to/lastmile_qr_scan", "ios": "https://dc.lft.to/lastmile_qr_scan"}, "fusion_lon": 0.0, "lat": 38.8766015, "bike_id": "1e3e78b50b6fd17dfda0156151d6f3cf", "type": "electric_scooter", "is_reserved": 0, "lon": -77.00332933333334}, {"fusion_lat": 0.0, "name": "e22b8e5d4b4da159a1d511d51b352a4e", "is_disabled": 0, "rental_uris": {"android": "https://dc.lft.to/lastmile_qr_scan", "ios": "https://dc.lft.to/lastmile_qr_scan"}, "fusion_lon": 0.0, "lat": 38.920831, "bike_id": "e22b8e5d4b4da159a1d511d51b352a4e", "type": "electric_scooter", "is_reserved": 0, "lon": -77.023042}, {"fusion_lat": 0.0, "name": "94586fa2e16852d68276a1faf69386a7", "is_disabled": 0, "rental_uris": {"android": "https://dc.lft.to/lastmile_qr_scan", "ios": "https://dc.lft.to/lastmile_qr_scan"}, "fusion_lon": 0.0, "lat": 38.8931685, "bike_id": "94586fa2e16852d68276a1faf69386a7", "type": "electric_bike", "is_reserved": 0, "lon": -76.95148}, {"fusion_lat": 0.0, "name": "b3fde2dfae5a473deefa95f8bc8fc67c", "is_disabled": 0, "rental_uris": {"android": "https://dc.lft.to/lastmile_qr_scan", "ios": "https://dc.lft.to/lastmile_qr_scan"}, "fusion_lon": 0.0, "lat": 38.7976145, "bike_id": "b3fde2dfae5a473deefa95f8bc8fc67c", "type": "electric_bike", "is_reserved": 0, "lon": -77.04754166666666}, {"fusion_lat": 0.0, "name": "0606134770a8fdc03c59bbcaeba7fa9d", "is_disabled": 0, "rental_uris": {"android": "https://dc.lft.to/lastmile_qr_scan", "ios": "https://dc.lft.to/lastmile_qr_scan"}, "fusion_lon": 0.0, "lat": 38.8279385, "bike_id": "0606134770a8fdc03c59bbcaeba7fa9d", "type": "electric_bike", "is_reserved": 0, "lon": -77.12488166666667}, {"fusion_lat": 0.0, "name": "211a9534d192c1de97334f4e667d7e41", "is_disabled": 0, "rental_uris": {"android": "https://dc.lft.to/lastmile_qr_scan", "ios": "https://dc.lft.to/lastmile_qr_scan"}, "fusion_lon": 0.0, "lat": 38.884936833333335, "bike_id": "211a9534d192c1de97334f4e667d7e41", "type": "electric_scooter", "is_reserved": 0, "lon": -77.01720033333334}, {"fusion_lat": 0.0, "name": "126584db1166a31a16cd5cb1fedd87f2", "is_disabled": 0, "rental_uris": {"android": "https://dc.lft.to/lastmile_qr_scan", "ios": "https://dc.lft.to/lastmile_qr_scan"}, "fusion_lon": 0.0, "lat": 38.91402016666667, "bike_id": "126584db1166a31a16cd5cb1fedd87f2", "type": "electric_scooter", "is_reserved": 0, "lon": -77.03217816666667}, {"fusion_lat": 0.0, "name": "225e98c073e232271be7349b1e94e146", "is_disabled": 0, "rental_uris": {"android": "https://dc.lft.to/lastmile_qr_scan", "ios": "https://dc.lft.to/lastmile_qr_scan"}, "fusion_lon": 0.0, "lat": 38.914176499999996, "bike_id": "225e98c073e232271be7349b1e94e146", "type": "electric_scooter", "is_reserved": 0, "lon": -77.045055}, {"fusion_lat": 0.0, "name": "496d91d7e3084d3916f589ec9e49d945", "is_disabled": 0, "rental_uris": {"android": "https://dc.lft.to/lastmile_qr_scan", "ios": "https://dc.lft.to/lastmile_qr_scan"}, "fusion_lon": 0.0, "lat": 38.92248716666667, "bike_id": "496d91d7e3084d3916f589ec9e49d945", "type": "electric_scooter", "is_reserved": 0, "lon": -77.01884016666666}, {"fusion_lat": 0.0, "name": "fe6d309987bfd871eba85441419c239e", "is_disabled": 0, "rental_uris": {"android": "https://dc.lft.to/lastmile_qr_scan", "ios": "https://dc.lft.to/lastmile_qr_scan"}, "fusion_lon": 0.0, "lat": 38.92409083333333, "bike_id": "fe6d309987bfd871eba85441419c239e", "type": "electric_scooter", "is_reserved": 0, "lon": -77.03645083333333}, {"fusion_lat": 0.0, "name": "f716028e98695ae89fd7ebf2c1c13c44", "is_disabled": 0, "rental_uris": {"android": "https://dc.lft.to/lastmile_qr_scan", "ios": "https://dc.lft.to/lastmile_qr_scan"}, "fusion_lon": 0.0, "lat": 38.913394333333336, "bike_id": "f716028e98695ae89fd7ebf2c1c13c44", "type": "electric_scooter", "is_reserved": 0, "lon": -77.048713}, {"fusion_lat": 0.0, "name": "1993edb8d7b07d1b2fe81f442ad15bde", "is_disabled": 0, "rental_uris": {"android": "https://dc.lft.to/lastmile_qr_scan", "ios": "https://dc.lft.to/lastmile_qr_scan"}, "fusion_lon": 0.0, "lat": 38.912718166666664, "bike_id": "1993edb8d7b07d1b2fe81f442ad15bde", "type": "electric_scooter", "is_reserved": 0, "lon": -77.049212}, {"fusion_lat": 0.0, "name": "0c4843b06cefc33cdf8156ca68f6b218", "is_disabled": 0, "rental_uris": {"android": "https://dc.lft.to/lastmile_qr_scan", "ios": "https://dc.lft.to/lastmile_qr_scan"}, "fusion_lon": 0.0, "lat": 38.9263885, "bike_id": "0c4843b06cefc33cdf8156ca68f6b218", "type": "electric_scooter", "is_reserved": 0, "lon": -77.0413}, {"fusion_lat": 0.0, "name": "60cbdbb3c579c81f4afde23bfd1c0036", "is_disabled": 0, "rental_uris": {"android": "https://dc.lft.to/lastmile_qr_scan", "ios": "https://dc.lft.to/lastmile_qr_scan"}, "fusion_lon": 0.0, "lat": 38.87394166666667, "bike_id": "60cbdbb3c579c81f4afde23bfd1c0036", "type": "electric_scooter", "is_reserved": 0, "lon": -77.00067583333333}, {"fusion_lat": 0.0, "name": "b7e00173e6614d8ba3669c8649f71302", "is_disabled": 0, "rental_uris": {"android": "https://dc.lft.to/lastmile_qr_scan", "ios": "https://dc.lft.to/lastmile_qr_scan"}, "fusion_lon": 0.0, "lat": 38.91802333333333, "bike_id": "b7e00173e6614d8ba3669c8649f71302", "type": "electric_scooter", "is_reserved": 0, "lon": -77.03442816666667}, {"fusion_lat": 0.0, "name": "ffabaf30161fb030be82b522949a9db7", "is_disabled": 0, "rental_uris": {"android": "https://dc.lft.to/lastmile_qr_scan", "ios": "https://dc.lft.to/lastmile_qr_scan"}, "fusion_lon": 0.0, "lat": 38.894710333333336, "bike_id": "ffabaf30161fb030be82b522949a9db7", "type": "electric_scooter", "is_reserved": 0, "lon": -77.01775316666667}, {"fusion_lat": 0.0, "name": "be8496b71b35f226483b2211e90714c0", "is_disabled": 0, "rental_uris": {"android": "https://dc.lft.to/lastmile_qr_scan", "ios": "https://dc.lft.to/lastmile_qr_scan"}, "fusion_lon": 0.0, "lat": 38.9310555, "bike_id": "be8496b71b35f226483b2211e90714c0", "type": "electric_scooter", "is_reserved": 0, "lon": -77.02142966666666}, {"fusion_lat": 0.0, "name": "dc2cf7ab2d3611fc9f7043f361590565", "is_disabled": 0, "rental_uris": {"android": "https://dc.lft.to/lastmile_qr_scan", "ios": "https://dc.lft.to/lastmile_qr_scan"}, "fusion_lon": 0.0, "lat": 38.915814, "bike_id": "dc2cf7ab2d3611fc9f7043f361590565", "type": "electric_scooter", "is_reserved": 0, "lon": -77.03190933333333}, {"fusion_lat": 0.0, "name": "9d4cd1ecf52311da04f771677e2f8763", "is_disabled": 0, "rental_uris": {"android": "https://dc.lft.to/lastmile_qr_scan", "ios": "https://dc.lft.to/lastmile_qr_scan"}, "fusion_lon": 0.0, "lat": 38.92060983333333, "bike_id": "9d4cd1ecf52311da04f771677e2f8763", "type": "electric_scooter", "is_reserved": 0, "lon": -77.04565716666667}, {"fusion_lat": 0.0, "name": "2cc0dc71a26cd4b7fe307b568c824c04", "is_disabled": 0, "rental_uris": {"android": "https://dc.lft.to/lastmile_qr_scan", "ios": "https://dc.lft.to/lastmile_qr_scan"}, "fusion_lon": 0.0, "lat": 38.84509966666667, "bike_id": "2cc0dc71a26cd4b7fe307b568c824c04", "type": "electric_bike", "is_reserved": 0, "lon": -76.99355916666667}, {"fusion_lat": 0.0, "name": "21411167d3351b80f9620a79947f8a98", "is_disabled": 0, "rental_uris": {"android": "https://dc.lft.to/lastmile_qr_scan", "ios": "https://dc.lft.to/lastmile_qr_scan"}, "fusion_lon": 0.0, "lat": 38.91837916666667, "bike_id": "21411167d3351b80f9620a79947f8a98", "type": "electric_scooter", "is_reserved": 0, "lon": -77.04508866666667}, {"fusion_lat": 0.0, "name": "e7cc6b448389abdba7df2857bd670400", "is_disabled": 0, "rental_uris": {"android": "https://dc.lft.to/lastmile_qr_scan", "ios": "https://dc.lft.to/lastmile_qr_scan"}, "fusion_lon": 0.0, "lat": 38.9029585, "bike_id": "e7cc6b448389abdba7df2857bd670400", "type": "electric_scooter", "is_reserved": 0, "lon": -77.020184}, {"fusion_lat": 0.0, "name": "459f38cdf784aad1c7d38806c7dd4920", "is_disabled": 0, "rental_uris": {"android": "https://dc.lft.to/lastmile_qr_scan", "ios": "https://dc.lft.to/lastmile_qr_scan"}, "fusion_lon": 0.0, "lat": 38.942014, "bike_id": "459f38cdf784aad1c7d38806c7dd4920", "type": "electric_scooter", "is_reserved": 0, "lon": -77.02593033333333}, {"fusion_lat": 0.0, "name": "103ca474ee92ef19bfbf8ccad5dabc87", "is_disabled": 0, "rental_uris": {"android": "https://dc.lft.to/lastmile_qr_scan", "ios": "https://dc.lft.to/lastmile_qr_scan"}, "fusion_lon": 0.0, "lat": 38.863242166666666, "bike_id": "103ca474ee92ef19bfbf8ccad5dabc87", "type": "electric_bike", "is_reserved": 0, "lon": -76.98724616666667}, {"fusion_lat": 0.0, "name": "64c402587086757697cb2d23856c9480", "is_disabled": 0, "rental_uris": {"android": "https://dc.lft.to/lastmile_qr_scan", "ios": "https://dc.lft.to/lastmile_qr_scan"}, "fusion_lon": 0.0, "lat": 38.910552833333334, "bike_id": "64c402587086757697cb2d23856c9480", "type": "electric_scooter", "is_reserved": 0, "lon": -77.0457935}, {"fusion_lat": 0.0, "name": "037a2e866a4660c73922b523198788e1", "is_disabled": 0, "rental_uris": {"android": "https://dc.lft.to/lastmile_qr_scan", "ios": "https://dc.lft.to/lastmile_qr_scan"}, "fusion_lon": 0.0, "lat": 38.95634066666667, "bike_id": "037a2e866a4660c73922b523198788e1", "type": "electric_scooter", "is_reserved": 0, "lon": -77.03308516666667}, {"fusion_lat": 0.0, "name": "4a4b463a4badee036141ac8f90360d64", "is_disabled": 0, "rental_uris": {"android": "https://dc.lft.to/lastmile_qr_scan", "ios": "https://dc.lft.to/lastmile_qr_scan"}, "fusion_lon": 0.0, "lat": 38.898132833333335, "bike_id": "4a4b463a4badee036141ac8f90360d64", "type": "electric_scooter", "is_reserved": 0, "lon": -77.04677966666667}, {"fusion_lat": 0.0, "name": "6286b4b5e1d023ebc9ab3c603d31a837", "is_disabled": 0, "rental_uris": {"android": "https://dc.lft.to/lastmile_qr_scan", "ios": "https://dc.lft.to/lastmile_qr_scan"}, "fusion_lon": 0.0, "lat": 38.93530616666666, "bike_id": "6286b4b5e1d023ebc9ab3c603d31a837", "type": "electric_scooter", "is_reserved": 0, "lon": -77.04520683333334}, {"fusion_lat": 0.0, "name": "8562f2dfef9ca7180f3fb94cc199674b", "is_disabled": 0, "rental_uris": {"android": "https://dc.lft.to/lastmile_qr_scan", "ios": "https://dc.lft.to/lastmile_qr_scan"}, "fusion_lon": 0.0, "lat": 38.88406833333333, "bike_id": "8562f2dfef9ca7180f3fb94cc199674b", "type": "electric_scooter", "is_reserved": 0, "lon": -77.0083805}, {"fusion_lat": 0.0, "name": "70b343e7208bfacc7e528a09309b600c", "is_disabled": 0, "rental_uris": {"android": "https://dc.lft.to/lastmile_qr_scan", "ios": "https://dc.lft.to/lastmile_qr_scan"}, "fusion_lon": 0.0, "lat": 38.92075916666667, "bike_id": "70b343e7208bfacc7e528a09309b600c", "type": "electric_scooter", "is_reserved": 0, "lon": -77.02323766666666}, {"fusion_lat": 0.0, "name": "4f5e626a42628eceb577d1b1e93d927e", "is_disabled": 0, "rental_uris": {"android": "https://dc.lft.to/lastmile_qr_scan", "ios": "https://dc.lft.to/lastmile_qr_scan"}, "fusion_lon": 0.0, "lat": 38.900877, "bike_id": "4f5e626a42628eceb577d1b1e93d927e", "type": "electric_scooter", "is_reserved": 0, "lon": -77.05065466666667}, {"fusion_lat": 0.0, "name": "3b1d162459c360868239d8c7a711a11d", "is_disabled": 0, "rental_uris": {"android": "https://dc.lft.to/lastmile_qr_scan", "ios": "https://dc.lft.to/lastmile_qr_scan"}, "fusion_lon": 0.0, "lat": 38.97362866666667, "bike_id": "3b1d162459c360868239d8c7a711a11d", "type": "electric_scooter", "is_reserved": 0, "lon": -77.01304633333334}, {"fusion_lat": 0.0, "name": "6ed85b370ccbd9c550f46c5ee9d3142e", "is_disabled": 0, "rental_uris": {"android": "https://dc.lft.to/lastmile_qr_scan", "ios": "https://dc.lft.to/lastmile_qr_scan"}, "fusion_lon": 0.0, "lat": 38.90349416666667, "bike_id": "6ed85b370ccbd9c550f46c5ee9d3142e", "type": "electric_scooter", "is_reserved": 0, "lon": -76.97479516666667}, {"fusion_lat": 0.0, "name": "6952e1358d8dd84cbb5fe8c83fde60e1", "is_disabled": 0, "rental_uris": {"android": "https://dc.lft.to/lastmile_qr_scan", "ios": "https://dc.lft.to/lastmile_qr_scan"}, "fusion_lon": 0.0, "lat": 38.89727883333333, "bike_id": "6952e1358d8dd84cbb5fe8c83fde60e1", "type": "electric_scooter", "is_reserved": 0, "lon": -77.00761466666667}, {"fusion_lat": 0.0, "name": "4c5f5b471690644e1f351b8ff3f89e93", "is_disabled": 0, "rental_uris": {"android": "https://dc.lft.to/lastmile_qr_scan", "ios": "https://dc.lft.to/lastmile_qr_scan"}, "fusion_lon": 0.0, "lat": 38.9382615, "bike_id": "4c5f5b471690644e1f351b8ff3f89e93", "type": "electric_scooter", "is_reserved": 0, "lon": -77.02649983333333}, {"fusion_lat": 0.0, "name": "a0d68541c0ce1f2fbbea254f62c1509d", "is_disabled": 0, "rental_uris": {"android": "https://dc.lft.to/lastmile_qr_scan", "ios": "https://dc.lft.to/lastmile_qr_scan"}, "fusion_lon": 0.0, "lat": 38.90931466666667, "bike_id": "a0d68541c0ce1f2fbbea254f62c1509d", "type": "electric_scooter", "is_reserved": 0, "lon": -77.06257716666667}, {"fusion_lat": 0.0, "name": "2b7828c905a5c319bcd50b4d9603936e", "is_disabled": 0, "rental_uris": {"android": "https://dc.lft.to/lastmile_qr_scan", "ios": "https://dc.lft.to/lastmile_qr_scan"}, "fusion_lon": 0.0, "lat": 38.918439, "bike_id": "2b7828c905a5c319bcd50b4d9603936e", "type": "electric_scooter", "is_reserved": 0, "lon": -77.0636895}, {"fusion_lat": 0.0, "name": "e394a3826d91f742433a71231f34d192", "is_disabled": 0, "rental_uris": {"android": "https://dc.lft.to/lastmile_qr_scan", "ios": "https://dc.lft.to/lastmile_qr_scan"}, "fusion_lon": 0.0, "lat": 38.925510333333335, "bike_id": "e394a3826d91f742433a71231f34d192", "type": "electric_scooter", "is_reserved": 0, "lon": -77.0354465}, {"fusion_lat": 0.0, "name": "d76921b6d0823e56f10f688d13443b85", "is_disabled": 0, "rental_uris": {"android": "https://dc.lft.to/lastmile_qr_scan", "ios": "https://dc.lft.to/lastmile_qr_scan"}, "fusion_lon": 0.0, "lat": 38.95568516666667, "bike_id": "d76921b6d0823e56f10f688d13443b85", "type": "electric_bike", "is_reserved": 0, "lon": -77.010067}, {"fusion_lat": 0.0, "name": "1663381bbe65bbc7af8350facd370cca", "is_disabled": 0, "rental_uris": {"android": "https://dc.lft.to/lastmile_qr_scan", "ios": "https://dc.lft.to/lastmile_qr_scan"}, "fusion_lon": 0.0, "lat": 38.95881133333334, "bike_id": "1663381bbe65bbc7af8350facd370cca", "type": "electric_bike", "is_reserved": 0, "lon": -76.9706115}, {"fusion_lat": 0.0, "name": "7000af38e514ad978c87b2eb166307cb", "is_disabled": 0, "rental_uris": {"android": "https://dc.lft.to/lastmile_qr_scan", "ios": "https://dc.lft.to/lastmile_qr_scan"}, "fusion_lon": 0.0, "lat": 38.929993, "bike_id": "7000af38e514ad978c87b2eb166307cb", "type": "electric_scooter", "is_reserved": 0, "lon": -77.03226583333333}, {"fusion_lat": 0.0, "name": "10eebf259cf9eec8c62d4bf530818582", "is_disabled": 0, "rental_uris": {"android": "https://dc.lft.to/lastmile_qr_scan", "ios": "https://dc.lft.to/lastmile_qr_scan"}, "fusion_lon": 0.0, "lat": 38.9304895, "bike_id": "10eebf259cf9eec8c62d4bf530818582", "type": "electric_scooter", "is_reserved": 0, "lon": -77.03259816666667}, {"fusion_lat": 0.0, "name": "338418ed35973b70bdc883d8963e7e5f", "is_disabled": 0, "rental_uris": {"android": "https://dc.lft.to/lastmile_qr_scan", "ios": "https://dc.lft.to/lastmile_qr_scan"}, "fusion_lon": 0.0, "lat": 38.946230166666666, "bike_id": "338418ed35973b70bdc883d8963e7e5f", "type": "electric_scooter", "is_reserved": 0, "lon": -77.03289483333333}, {"fusion_lat": 0.0, "name": "7a78476d51cc8c44b86583ae48b40f5e", "is_disabled": 0, "rental_uris": {"android": "https://dc.lft.to/lastmile_qr_scan", "ios": "https://dc.lft.to/lastmile_qr_scan"}, "fusion_lon": 0.0, "lat": 38.928375833333334, "bike_id": "7a78476d51cc8c44b86583ae48b40f5e", "type": "electric_scooter", "is_reserved": 0, "lon": -76.9935505}, {"fusion_lat": 0.0, "name": "8b024dfcd2b15e1d2d8f7e042ee9831d", "is_disabled": 0, "rental_uris": {"android": "https://dc.lft.to/lastmile_qr_scan", "ios": "https://dc.lft.to/lastmile_qr_scan"}, "fusion_lon": 0.0, "lat": 38.89012816666666, "bike_id": "8b024dfcd2b15e1d2d8f7e042ee9831d", "type": "electric_scooter", "is_reserved": 0, "lon": -76.93746016666667}, {"fusion_lat": 0.0, "name": "866afe73577bd2aede45d91efb39f0b5", "is_disabled": 0, "rental_uris": {"android": "https://dc.lft.to/lastmile_qr_scan", "ios": "https://dc.lft.to/lastmile_qr_scan"}, "fusion_lon": 0.0, "lat": 38.905537833333334, "bike_id": "866afe73577bd2aede45d91efb39f0b5", "type": "electric_scooter", "is_reserved": 0, "lon": -77.06526716666667}, {"fusion_lat": 0.0, "name": "40259dd1a2a7716a448f012e8b7252ca", "is_disabled": 0, "rental_uris": {"android": "https://dc.lft.to/lastmile_qr_scan", "ios": "https://dc.lft.to/lastmile_qr_scan"}, "fusion_lon": 0.0, "lat": 38.94516466666666, "bike_id": "40259dd1a2a7716a448f012e8b7252ca", "type": "electric_scooter", "is_reserved": 0, "lon": -77.0388415}, {"fusion_lat": 0.0, "name": "43f6072a208b742840df20df46802a40", "is_disabled": 0, "rental_uris": {"android": "https://dc.lft.to/lastmile_qr_scan", "ios": "https://dc.lft.to/lastmile_qr_scan"}, "fusion_lon": 0.0, "lat": 38.9016615, "bike_id": "43f6072a208b742840df20df46802a40", "type": "electric_scooter", "is_reserved": 0, "lon": -76.99257433333334}, {"fusion_lat": 0.0, "name": "5fc1758660efe4c0d72608b12453912a", "is_disabled": 0, "rental_uris": {"android": "https://dc.lft.to/lastmile_qr_scan", "ios": "https://dc.lft.to/lastmile_qr_scan"}, "fusion_lon": 0.0, "lat": 38.936284, "bike_id": "5fc1758660efe4c0d72608b12453912a", "type": "electric_scooter", "is_reserved": 0, "lon": -77.07313283333333}, {"fusion_lat": 0.0, "name": "19c269d6e1a75dfe01388a44b1799eb5", "is_disabled": 0, "rental_uris": {"android": "https://dc.lft.to/lastmile_qr_scan", "ios": "https://dc.lft.to/lastmile_qr_scan"}, "fusion_lon": 0.0, "lat": 38.84754016666667, "bike_id": "19c269d6e1a75dfe01388a44b1799eb5", "type": "electric_scooter", "is_reserved": 0, "lon": -76.99499866666666}, {"fusion_lat": 0.0, "name": "5b8675713996474bfd247802ed31da32", "is_disabled": 0, "rental_uris": {"android": "https://dc.lft.to/lastmile_qr_scan", "ios": "https://dc.lft.to/lastmile_qr_scan"}, "fusion_lon": 0.0, "lat": 38.923456333333334, "bike_id": "5b8675713996474bfd247802ed31da32", "type": "electric_scooter", "is_reserved": 0, "lon": -76.99262316666666}, {"fusion_lat": 0.0, "name": "ef78e864328be0fd1bd166a4ad8819b6", "is_disabled": 0, "rental_uris": {"android": "https://dc.lft.to/lastmile_qr_scan", "ios": "https://dc.lft.to/lastmile_qr_scan"}, "fusion_lon": 0.0, "lat": 38.887570833333335, "bike_id": "ef78e864328be0fd1bd166a4ad8819b6", "type": "electric_scooter", "is_reserved": 0, "lon": -76.99788033333333}, {"fusion_lat": 0.0, "name": "20124bd564c45ee232566025e4bcf2b8", "is_disabled": 0, "rental_uris": {"android": "https://dc.lft.to/lastmile_qr_scan", "ios": "https://dc.lft.to/lastmile_qr_scan"}, "fusion_lon": 0.0, "lat": 38.909691333333335, "bike_id": "20124bd564c45ee232566025e4bcf2b8", "type": "electric_scooter", "is_reserved": 0, "lon": -77.03305216666666}, {"fusion_lat": 0.0, "name": "dd2b4231ef905ec56e50e8111fe2c0eb", "is_disabled": 0, "rental_uris": {"android": "https://dc.lft.to/lastmile_qr_scan", "ios": "https://dc.lft.to/lastmile_qr_scan"}, "fusion_lon": 0.0, "lat": 38.911129333333335, "bike_id": "dd2b4231ef905ec56e50e8111fe2c0eb", "type": "electric_scooter", "is_reserved": 0, "lon": -77.02404333333334}, {"fusion_lat": 0.0, "name": "919679a0e86e56c4c892d566f1eb6169", "is_disabled": 0, "rental_uris": {"android": "https://dc.lft.to/lastmile_qr_scan", "ios": "https://dc.lft.to/lastmile_qr_scan"}, "fusion_lon": 0.0, "lat": 38.93593583333333, "bike_id": "919679a0e86e56c4c892d566f1eb6169", "type": "electric_scooter", "is_reserved": 0, "lon": -77.0238105}, {"fusion_lat": 0.0, "name": "c57934c125a23ffe5cbbd99b95b0d10f", "is_disabled": 0, "rental_uris": {"android": "https://dc.lft.to/lastmile_qr_scan", "ios": "https://dc.lft.to/lastmile_qr_scan"}, "fusion_lon": 0.0, "lat": 38.90054266666667, "bike_id": "c57934c125a23ffe5cbbd99b95b0d10f", "type": "electric_scooter", "is_reserved": 0, "lon": -77.0448305}, {"fusion_lat": 0.0, "name": "0acf9ae74848cb977f3841b57bb385ec", "is_disabled": 0, "rental_uris": {"android": "https://dc.lft.to/lastmile_qr_scan", "ios": "https://dc.lft.to/lastmile_qr_scan"}, "fusion_lon": 0.0, "lat": 38.93708383333333, "bike_id": "0acf9ae74848cb977f3841b57bb385ec", "type": "electric_scooter", "is_reserved": 0, "lon": -77.0610595}, {"fusion_lat": 0.0, "name": "e07695b2eec8bb1a6f86fd783e60afba", "is_disabled": 0, "rental_uris": {"android": "https://dc.lft.to/lastmile_qr_scan", "ios": "https://dc.lft.to/lastmile_qr_scan"}, "fusion_lon": 0.0, "lat": 38.904127833333334, "bike_id": "e07695b2eec8bb1a6f86fd783e60afba", "type": "electric_scooter", "is_reserved": 0, "lon": -77.05124133333334}, {"fusion_lat": 0.0, "name": "6f63c92a0ddfe3006a2a577126b1b9ca", "is_disabled": 0, "rental_uris": {"android": "https://dc.lft.to/lastmile_qr_scan", "ios": "https://dc.lft.to/lastmile_qr_scan"}, "fusion_lon": 0.0, "lat": 38.848421333333334, "bike_id": "6f63c92a0ddfe3006a2a577126b1b9ca", "type": "electric_bike", "is_reserved": 0, "lon": -77.07912616666667}, {"fusion_lat": 0.0, "name": "bac09a0bcd1832ffeaa0636723ef29c7", "is_disabled": 0, "rental_uris": {"android": "https://dc.lft.to/lastmile_qr_scan", "ios": "https://dc.lft.to/lastmile_qr_scan"}, "fusion_lon": 0.0, "lat": 38.964415833333334, "bike_id": "bac09a0bcd1832ffeaa0636723ef29c7", "type": "electric_bike", "is_reserved": 0, "lon": -77.020736}, {"fusion_lat": 0.0, "name": "2406503eb0582f45aa77abd342ce990b", "is_disabled": 0, "rental_uris": {"android": "https://dc.lft.to/lastmile_qr_scan", "ios": "https://dc.lft.to/lastmile_qr_scan"}, "fusion_lon": 0.0, "lat": 38.892202, "bike_id": "2406503eb0582f45aa77abd342ce990b", "type": "electric_scooter", "is_reserved": 0, "lon": -77.02222016666667}, {"fusion_lat": 0.0, "name": "3d24dbeba5bcb46f28ee2bcae44bacc6", "is_disabled": 0, "rental_uris": {"android": "https://dc.lft.to/lastmile_qr_scan", "ios": "https://dc.lft.to/lastmile_qr_scan"}, "fusion_lon": 0.0, "lat": 38.920200333333334, "bike_id": "3d24dbeba5bcb46f28ee2bcae44bacc6", "type": "electric_scooter", "is_reserved": 0, "lon": -77.081926}, {"fusion_lat": 0.0, "name": "20ef81b8c0ed72eb5b446e598271b92f", "is_disabled": 0, "rental_uris": {"android": "https://dc.lft.to/lastmile_qr_scan", "ios": "https://dc.lft.to/lastmile_qr_scan"}, "fusion_lon": 0.0, "lat": 38.905771333333334, "bike_id": "20ef81b8c0ed72eb5b446e598271b92f", "type": "electric_scooter", "is_reserved": 0, "lon": -77.04248433333333}, {"fusion_lat": 0.0, "name": "aff881ab4fdcaf53f823c7b65d4a32b7", "is_disabled": 0, "rental_uris": {"android": "https://dc.lft.to/lastmile_qr_scan", "ios": "https://dc.lft.to/lastmile_qr_scan"}, "fusion_lon": 0.0, "lat": 38.90585183333334, "bike_id": "aff881ab4fdcaf53f823c7b65d4a32b7", "type": "electric_scooter", "is_reserved": 0, "lon": -77.006359}, {"fusion_lat": 0.0, "name": "23e52ae143a06d2a29c8fc779e143076", "is_disabled": 0, "rental_uris": {"android": "https://dc.lft.to/lastmile_qr_scan", "ios": "https://dc.lft.to/lastmile_qr_scan"}, "fusion_lon": 0.0, "lat": 38.905218833333336, "bike_id": "23e52ae143a06d2a29c8fc779e143076", "type": "electric_scooter", "is_reserved": 0, "lon": -77.06147316666667}, {"fusion_lat": 0.0, "name": "a724740052ca113fa69bdceab943df5a", "is_disabled": 0, "rental_uris": {"android": "https://dc.lft.to/lastmile_qr_scan", "ios": "https://dc.lft.to/lastmile_qr_scan"}, "fusion_lon": 0.0, "lat": 38.92376216666667, "bike_id": "a724740052ca113fa69bdceab943df5a", "type": "electric_scooter", "is_reserved": 0, "lon": -77.029212}, {"fusion_lat": 0.0, "name": "32fbbd7df8313db090280132e57aceff", "is_disabled": 0, "rental_uris": {"android": "https://dc.lft.to/lastmile_qr_scan", "ios": "https://dc.lft.to/lastmile_qr_scan"}, "fusion_lon": 0.0, "lat": 38.90413566666667, "bike_id": "32fbbd7df8313db090280132e57aceff", "type": "electric_scooter", "is_reserved": 0, "lon": -76.97336116666666}, {"fusion_lat": 0.0, "name": "852350c9abcbeb185a4ba39a0c3e3a61", "is_disabled": 0, "rental_uris": {"android": "https://dc.lft.to/lastmile_qr_scan", "ios": "https://dc.lft.to/lastmile_qr_scan"}, "fusion_lon": 0.0, "lat": 38.8076325, "bike_id": "852350c9abcbeb185a4ba39a0c3e3a61", "type": "electric_bike", "is_reserved": 0, "lon": -77.09478083333333}, {"fusion_lat": 0.0, "name": "1297dd649c384bcc6bff74ad9d29638e", "is_disabled": 0, "rental_uris": {"android": "https://dc.lft.to/lastmile_qr_scan", "ios": "https://dc.lft.to/lastmile_qr_scan"}, "fusion_lon": 0.0, "lat": 38.90534233333333, "bike_id": "1297dd649c384bcc6bff74ad9d29638e", "type": "electric_scooter", "is_reserved": 0, "lon": -77.06270716666667}, {"fusion_lat": 0.0, "name": "6482c133016c11b547a586178657bdb1", "is_disabled": 0, "rental_uris": {"android": "https://dc.lft.to/lastmile_qr_scan", "ios": "https://dc.lft.to/lastmile_qr_scan"}, "fusion_lon": 0.0, "lat": 38.920631666666665, "bike_id": "6482c133016c11b547a586178657bdb1", "type": "electric_scooter", "is_reserved": 0, "lon": -77.04095866666667}, {"fusion_lat": 0.0, "name": "84826022577a1c8f6e1e8ec8603103e8", "is_disabled": 0, "rental_uris": {"android": "https://dc.lft.to/lastmile_qr_scan", "ios": "https://dc.lft.to/lastmile_qr_scan"}, "fusion_lon": 0.0, "lat": 38.914041833333336, "bike_id": "84826022577a1c8f6e1e8ec8603103e8", "type": "electric_scooter", "is_reserved": 0, "lon": -77.0317835}, {"fusion_lat": 0.0, "name": "3942a66092b1f3f499f946c2085fd41b", "is_disabled": 0, "rental_uris": {"android": "https://dc.lft.to/lastmile_qr_scan", "ios": "https://dc.lft.to/lastmile_qr_scan"}, "fusion_lon": 0.0, "lat": 38.94120683333333, "bike_id": "3942a66092b1f3f499f946c2085fd41b", "type": "electric_scooter", "is_reserved": 0, "lon": -77.02643683333334}, {"fusion_lat": 0.0, "name": "8f59da09271a2c72ad0da3d6ef0e5017", "is_disabled": 0, "rental_uris": {"android": "https://dc.lft.to/lastmile_qr_scan", "ios": "https://dc.lft.to/lastmile_qr_scan"}, "fusion_lon": 0.0, "lat": 38.9034935, "bike_id": "8f59da09271a2c72ad0da3d6ef0e5017", "type": "electric_scooter", "is_reserved": 0, "lon": -77.05295866666667}, {"fusion_lat": 0.0, "name": "7401a4255e867dccdea7c386993f9565", "is_disabled": 0, "rental_uris": {"android": "https://dc.lft.to/lastmile_qr_scan", "ios": "https://dc.lft.to/lastmile_qr_scan"}, "fusion_lon": 0.0, "lat": 38.99777566666667, "bike_id": "7401a4255e867dccdea7c386993f9565", "type": "electric_bike", "is_reserved": 0, "lon": -77.04726266666667}, {"fusion_lat": 0.0, "name": "dc3cd6195f5e4beed8d0b036b742e36f", "is_disabled": 0, "rental_uris": {"android": "https://dc.lft.to/lastmile_qr_scan", "ios": "https://dc.lft.to/lastmile_qr_scan"}, "fusion_lon": 0.0, "lat": 38.9186285, "bike_id": "dc3cd6195f5e4beed8d0b036b742e36f", "type": "electric_bike", "is_reserved": 0, "lon": -76.9608935}, {"fusion_lat": 0.0, "name": "d9226b6839e52e037838191ae1236226", "is_disabled": 0, "rental_uris": {"android": "https://dc.lft.to/lastmile_qr_scan", "ios": "https://dc.lft.to/lastmile_qr_scan"}, "fusion_lon": 0.0, "lat": 38.894807166666666, "bike_id": "d9226b6839e52e037838191ae1236226", "type": "electric_scooter", "is_reserved": 0, "lon": -77.019557}, {"fusion_lat": 0.0, "name": "15d8484a38f351997afdfc97ccf8b03f", "is_disabled": 0, "rental_uris": {"android": "https://dc.lft.to/lastmile_qr_scan", "ios": "https://dc.lft.to/lastmile_qr_scan"}, "fusion_lon": 0.0, "lat": 38.910996, "bike_id": "15d8484a38f351997afdfc97ccf8b03f", "type": "electric_scooter", "is_reserved": 0, "lon": -77.0241925}, {"fusion_lat": 0.0, "name": "ab90a8efce9d05b1f0952a44ee4f8d51", "is_disabled": 0, "rental_uris": {"android": "https://dc.lft.to/lastmile_qr_scan", "ios": "https://dc.lft.to/lastmile_qr_scan"}, "fusion_lon": 0.0, "lat": 38.9132755, "bike_id": "ab90a8efce9d05b1f0952a44ee4f8d51", "type": "electric_scooter", "is_reserved": 0, "lon": -77.03168083333334}, {"fusion_lat": 0.0, "name": "2e78b37002d117d3d0f52c53ef0449ad", "is_disabled": 0, "rental_uris": {"android": "https://dc.lft.to/lastmile_qr_scan", "ios": "https://dc.lft.to/lastmile_qr_scan"}, "fusion_lon": 0.0, "lat": 38.90095933333333, "bike_id": "2e78b37002d117d3d0f52c53ef0449ad", "type": "electric_bike", "is_reserved": 0, "lon": -77.059261}, {"fusion_lat": 0.0, "name": "14fd681b7276bc69733a3dfa384eddd0", "is_disabled": 0, "rental_uris": {"android": "https://dc.lft.to/lastmile_qr_scan", "ios": "https://dc.lft.to/lastmile_qr_scan"}, "fusion_lon": 0.0, "lat": 38.813206, "bike_id": "14fd681b7276bc69733a3dfa384eddd0", "type": "electric_bike", "is_reserved": 0, "lon": -77.05085716666666}, {"fusion_lat": 0.0, "name": "3e6b727bc4df71a8210eda527be64ddd", "is_disabled": 0, "rental_uris": {"android": "https://dc.lft.to/lastmile_qr_scan", "ios": "https://dc.lft.to/lastmile_qr_scan"}, "fusion_lon": 0.0, "lat": 38.91543983333333, "bike_id": "3e6b727bc4df71a8210eda527be64ddd", "type": "electric_scooter", "is_reserved": 0, "lon": -77.03251733333333}, {"fusion_lat": 0.0, "name": "07e1b4736d7a0405d6432472b41893a9", "is_disabled": 0, "rental_uris": {"android": "https://dc.lft.to/lastmile_qr_scan", "ios": "https://dc.lft.to/lastmile_qr_scan"}, "fusion_lon": 0.0, "lat": 38.919425833333335, "bike_id": "07e1b4736d7a0405d6432472b41893a9", "type": "electric_scooter", "is_reserved": 0, "lon": -77.0245555}, {"fusion_lat": 0.0, "name": "b619c958c88c25621a7935c33e2345a9", "is_disabled": 0, "rental_uris": {"android": "https://dc.lft.to/lastmile_qr_scan", "ios": "https://dc.lft.to/lastmile_qr_scan"}, "fusion_lon": 0.0, "lat": 38.912232333333336, "bike_id": "b619c958c88c25621a7935c33e2345a9", "type": "electric_scooter", "is_reserved": 0, "lon": -77.0450585}, {"fusion_lat": 0.0, "name": "40e2826b03ed72bbf7562f50180d028c", "is_disabled": 0, "rental_uris": {"android": "https://dc.lft.to/lastmile_qr_scan", "ios": "https://dc.lft.to/lastmile_qr_scan"}, "fusion_lon": 0.0, "lat": 38.90005033333333, "bike_id": "40e2826b03ed72bbf7562f50180d028c", "type": "electric_scooter", "is_reserved": 0, "lon": -77.02932933333334},