{"data": {"bikes": [{"bike_id": "d0219c03d4f65c2d86e87159c2a14787", "is_reserved": 0, "fusion_lon": 0.0, "lat": 38.936995333333336, "is_disabled": 0, "name": "d0219c03d4f65c2d86e87159c2a14787", "fusion_lat": 0.0, "rental_uris": {"ios": "https://dc.lft.to/lastmile_qr_scan", "android": "https://dc.lft.to/lastmile_qr_scan"}, "lon": -77.029786, "type": "electric_bike"}, {"bike_id": "0f924dcfedfbe11fe3f58f383646a883", "is_reserved": 0, "fusion_lon": 0.0, "lat": 38.91334, "is_disabled": 0, "name": "0f924dcfedfbe11fe3f58f383646a883", "fusion_lat": 0.0, "rental_uris": {"ios": "https://dc.lft.to/lastmile_qr_scan", "android": "https://dc.lft.to/lastmile_qr_scan"}, "lon": -77.04817566666667, "type": "electric_scooter"}, {"bike_id": "5c42267d8cc94593dcfb63aeef94f732", "is_reserved": 0, "fusion_lon": 0.0, "lat": 38.90015916666667, "is_disabled": 0, "name": "5c42267d8cc94593dcfb63aeef94f732", "fusion_lat": 0.0, "rental_uris": {"ios": "https://dc.lft.to/lastmile_qr_scan", "android": "https://dc.lft.to/lastmile_qr_scan"}, "lon": -77.033139, "type": "electric_scooter"}, {"bike_id": "1970b1dfb5b51ce83563150784d6af15", "is_reserved": 0, "fusion_lon": 0.0, "lat": 38.89842983333333, "is_disabled": 0, "name": "1970b1dfb5b51ce83563150784d6af15", "fusion_lat": 0.0, "rental_uris": {"ios": "https://dc.lft.to/lastmile_qr_scan", "android": "https://dc.lft.to/lastmile_qr_scan"}, "lon": -77.03212316666666, "type": "electric_scooter"}, {"bike_id": "74ca9d6584a56ef812f963d08aba37fe", "is_reserved": 0, "fusion_lon": 0.0, "lat": 38.882986333333335, "is_disabled": 0, "name": "74ca9d6584a56ef812f963d08aba37fe", "fusion_lat": 0.0, "rental_uris": {"ios": "https://dc.lft.to/lastmile_qr_scan", "android": "https://dc.lft.to/lastmile_qr_scan"}, "lon": -76.98611583333333, "type": "electric_scooter"}, {"bike_id": "8e59d91ea0e98977ba02ebd792d258c7", "is_reserved": 0, "fusion_lon": 0.0, "lat": 38.919824166666665, "is_disabled": 0, "name": "8e59d91ea0e98977ba02ebd792d258c7", "fusion_lat": 0.0, "rental_uris": {"ios": "https://dc.lft.to/lastmile_qr_scan", "android": "https://dc.lft.to/lastmile_qr_scan"}, "lon": -77.04440933333333, "type": "electric_scooter"}, {"bike_id": "2266551448e2ffaa2a8a4b415fe8f74e", "is_reserved": 0, "fusion_lon": 0.0, "lat": 38.903960833333336, "is_disabled": 0, "name": "2266551448e2ffaa2a8a4b415fe8f74e", "fusion_lat": 0.0, "rental_uris": {"ios": "https://dc.lft.to/lastmile_qr_scan", "android": "https://dc.lft.to/lastmile_qr_scan"}, "lon": -77.04433983333334, "type": "electric_scooter"}, {"bike_id": "51009bd8c5d9dc8ee403b3fb12e64090", "is_reserved": 0, "fusion_lon": 0.0, "lat": 38.90281683333333, "is_disabled": 0, "name": "51009bd8c5d9dc8ee403b3fb12e64090", "fusion_lat": 0.0, "rental_uris": {"ios": "https://dc.lft.to/lastmile_qr_scan", "android": "https://dc.lft.to/lastmile_qr_scan"}, "lon": -77.03964316666666, "type": "electric_scooter"}, {"bike_id": "8b2b33705456f240cff16e86259105bf", "is_reserved": 0, "fusion_lon": 0.0, "lat": 38.941827, "is_disabled": 0, "name": "8b2b33705456f240cff16e86259105bf", "fusion_lat": 0.0, "rental_uris": {"ios": "https://dc.lft.to/lastmile_qr_scan", "android": "https://dc.lft.to/lastmile_qr_scan"}, "lon": -77.036512, "type": "electric_scooter"}, {"bike_id": "9b1647ebdcba1466a2e9c15dcdd3d268", "is_reserved": 0, "fusion_lon": 0.0, "lat": 38.902433, "is_disabled": 0, "name": "9b1647ebdcba1466a2e9c15dcdd3d268", "fusion_lat": 0.0, "rental_uris": {"ios": "https://dc.lft.to/lastmile_qr_scan", "android": "https://dc.lft.to/lastmile_qr_scan"}, "lon": -77.00199333333333, "type": "electric_scooter"}, {"bike_id": "2fc7d065ba36f7bf01174f8e71e37b83", "is_reserved": 0, "fusion_lon": 0.0, "lat": 38.901174166666664, "is_disabled": 0, "name": "2fc7d065ba36f7bf01174f8e71e37b83", "fusion_lat": 0.0, "rental_uris": {"ios": "https://dc.lft.to/lastmile_qr_scan", "android": "https://dc.lft.to/lastmile_qr_scan"}, "lon": -77.04859666666667, "type": "electric_bike"}, {"bike_id": "41c1c47949ff4f9f16639fbb18bd9647", "is_reserved": 0, "fusion_lon": 0.0, "lat": 38.888872666666664, "is_disabled": 0, "name": "41c1c47949ff4f9f16639fbb18bd9647", "fusion_lat": 0.0, "rental_uris": {"ios": "https://dc.lft.to/lastmile_qr_scan", "android": "https://dc.lft.to/lastmile_qr_scan"}, "lon": -77.03324033333334, "type": "electric_bike"}, {"bike_id": "f50dc5ed9a1e4cb7a5055c4a43af03ae", "is_reserved": 0, "fusion_lon": 0.0, "lat": 38.95959966666667, "is_disabled": 0, "name": "f50dc5ed9a1e4cb7a5055c4a43af03ae", "fusion_lat": 0.0, "rental_uris": {"ios": "https://dc.lft.to/lastmile_qr_scan", "android": "https://dc.lft.to/lastmile_qr_scan"}, "lon": -77.10090216666667, "type": "electric_bike"}, {"bike_id": "b748154736da31625f098af9db5ee0d8", "is_reserved": 0, "fusion_lon": 0.0, "lat": 38.903809333333335, "is_disabled": 0, "name": "b748154736da31625f098af9db5ee0d8", "fusion_lat": 0.0, "rental_uris": {"ios": "https://dc.lft.to/lastmile_qr_scan", "android": "https://dc.lft.to/lastmile_qr_scan"}, "lon": -77.0437085, "type": "electric_scooter"}, {"bike_id": "a8c42f45c3c5dafb3557de79ee9051d0", "is_reserved": 0, "fusion_lon": 0.0, "lat": 38.91366033333333, "is_disabled": 0, "name": "a8c42f45c3c5dafb3557de79ee9051d0", "fusion_lat": 0.0, "rental_uris": {"ios": "https://dc.lft.to/lastmile_qr_scan", "android": "https://dc.lft.to/lastmile_qr_scan"}, "lon": -77.0465385, "type": "electric_scooter"}, {"bike_id": "3424e1355e2b73306beade122666a26c", "is_reserved": 0, "fusion_lon": 0.0, "lat": 38.9621125, "is_disabled": 0, "name": "3424e1355e2b73306beade122666a26c", "fusion_lat": 0.0, "rental_uris": {"ios": "https://dc.lft.to/lastmile_qr_scan", "android": "https://dc.lft.to/lastmile_qr_scan"}, "lon": -77.0223875, "type": "electric_bike"}, {"bike_id": "c5c05cc113686ec8f59c6c514240d7b7", "is_reserved": 0, "fusion_lon": 0.0, "lat": 38.912002666666666, "is_disabled": 0, "name": "c5c05cc113686ec8f59c6c514240d7b7", "fusion_lat": 0.0, "rental_uris": {"ios": "https://dc.lft.to/lastmile_qr_scan", "android": "https://dc.lft.to/lastmile_qr_scan"}, "lon": -77.06095466666666, "type": "electric_scooter"}, {"bike_id": "b35c941427903f11f1da63380280f7dd", "is_reserved": 0, "fusion_lon": 0.0, "lat": 38.918513833333336, "is_disabled": 0, "name": "b35c941427903f11f1da63380280f7dd", "fusion_lat": 0.0, "rental_uris": {"ios": "https://dc.lft.to/lastmile_qr_scan", "android": "https://dc.lft.to/lastmile_qr_scan"}, "lon": -77.022742, "type": "electric_scooter"}, {"bike_id": "643602c9b05fd33c654ea2f77e1f275d", "is_reserved": 0, "fusion_lon": 0.0, "lat": 38.928268333333335, "is_disabled": 0, "name": "643602c9b05fd33c654ea2f77e1f275d", "fusion_lat": 0.0, "rental_uris": {"ios": "https://dc.lft.to/lastmile_qr_scan", "android": "https://dc.lft.to/lastmile_qr_scan"}, "lon": -77.022549, "type": "electric_scooter"}, {"bike_id": "44d8ba382e3c056b661e42357cd33460", "is_reserved": 0, "fusion_lon": 0.0, "lat": 38.90393483333333, "is_disabled": 0, "name": "44d8ba382e3c056b661e42357cd33460", "fusion_lat": 0.0, "rental_uris": {"ios": "https://dc.lft.to/lastmile_qr_scan", "android": "https://dc.lft.to/lastmile_qr_scan"}, "lon": -77.0419255, "type": "electric_scooter"}, {"bike_id": "ea68d6fca852875760c383360c3d63cf", "is_reserved": 0, "fusion_lon": 0.0, "lat": 38.90272933333333, "is_disabled": 0, "name": "ea68d6fca852875760c383360c3d63cf", "fusion_lat": 0.0, "rental_uris": {"ios": "https://dc.lft.to/lastmile_qr_scan", "android": "https://dc.lft.to/lastmile_qr_scan"}, "lon": -77.02986216666666, "type": "electric_scooter"}, {"bike_id": "6fb12766cf4d1bc38e48870356f5f23e", "is_reserved": 0, "fusion_lon": 0.0, "lat": 38.90177533333333, "is_disabled": 0, "name": "6fb12766cf4d1bc38e48870356f5f23e", "fusion_lat": 0.0, "rental_uris": {"ios": "https://dc.lft.to/lastmile_qr_scan", "android": "https://dc.lft.to/lastmile_qr_scan"}, "lon": -76.98055866666667, "type": "electric_scooter"}, {"bike_id": "bcb2d46f12eb0662b9cc4e51fdde4f93", "is_reserved": 0, "fusion_lon": 0.0, "lat": 38.9057655, "is_disabled": 0, "name": "bcb2d46f12eb0662b9cc4e51fdde4f93", "fusion_lat": 0.0, "rental_uris": {"ios": "https://dc.lft.to/lastmile_qr_scan", "android": "https://dc.lft.to/lastmile_qr_scan"}, "lon": -77.03621933333334, "type": "electric_scooter"}, {"bike_id": "49092eb106dc37413ab72fa6657a1f05", "is_reserved": 0, "fusion_lon": 0.0, "lat": 38.884942333333335, "is_disabled": 0, "name": "49092eb106dc37413ab72fa6657a1f05", "fusion_lat": 0.0, "rental_uris": {"ios": "https://dc.lft.to/lastmile_qr_scan", "android": "https://dc.lft.to/lastmile_qr_scan"}, "lon": -77.0072685, "type": "electric_scooter"}, {"bike_id": "ca3582dac868962614637070336a15c5", "is_reserved": 0, "fusion_lon": 0.0, "lat": 38.897312166666666, "is_disabled": 0, "name": "ca3582dac868962614637070336a15c5", "fusion_lat": 0.0, "rental_uris": {"ios": "https://dc.lft.to/lastmile_qr_scan", "android": "https://dc.lft.to/lastmile_qr_scan"}, "lon": -77.02726633333333, "type": "electric_scooter"}, {"bike_id": "44f8dbf3928c27838c5096f60153211f", "is_reserved": 0, "fusion_lon": 0.0, "lat": 38.912106333333334, "is_disabled": 0, "name": "44f8dbf3928c27838c5096f60153211f", "fusion_lat": 0.0, "rental_uris": {"ios": "https://dc.lft.to/lastmile_qr_scan", "android": "https://dc.lft.to/lastmile_qr_scan"}, "lon": -77.07312083333333, "type": "electric_scooter"}, {"bike_id": "6bcfb772457a96802fbd6000fde92fde", "is_reserved": 0, "fusion_lon": 0.0, "lat": 38.94606516666666, "is_disabled": 0, "name": "6bcfb772457a96802fbd6000fde92fde", "fusion_lat": 0.0, "rental_uris": {"ios": "https://dc.lft.to/lastmile_qr_scan", "android": "https://dc.lft.to/lastmile_qr_scan"}, "lon": -77.02975866666667, "type": "electric_scooter"}, {"bike_id": "eb871b5b91708d99b8250e556d8f6b60", "is_reserved": 0, "fusion_lon": 0.0, "lat": 38.8922945, "is_disabled": 0, "name": "eb871b5b91708d99b8250e556d8f6b60", "fusion_lat": 0.0, "rental_uris": {"ios": "https://dc.lft.to/lastmile_qr_scan", "android": "https://dc.lft.to/lastmile_qr_scan"}, "lon": -77.039842, "type": "electric_scooter"}, {"bike_id": "9711c3fc29f56377b4b20d62712cea39", "is_reserved": 0, "fusion_lon": 0.0, "lat": 38.89222216666667, "is_disabled": 0, "name": "9711c3fc29f56377b4b20d62712cea39", "fusion_lat": 0.0, "rental_uris": {"ios": "https://dc.lft.to/lastmile_qr_scan", "android": "https://dc.lft.to/lastmile_qr_scan"}, "lon": -77.04860833333333, "type": "electric_scooter"}, {"bike_id": "df43c4df82943ff136ca30bbd7bc71ed", "is_reserved": 0, "fusion_lon": 0.0, "lat": 38.8105185, "is_disabled": 0, "name": "df43c4df82943ff136ca30bbd7bc71ed", "fusion_lat": 0.0, "rental_uris": {"ios": "https://dc.lft.to/lastmile_qr_scan", "android": "https://dc.lft.to/lastmile_qr_scan"}, "lon": -77.08514866666667, "type": "electric_bike"}, {"bike_id": "d3a0e157ff0349909ad93790af2187c8", "is_reserved": 0, "fusion_lon": 0.0, "lat": 38.885992333333334, "is_disabled": 0, "name": "d3a0e157ff0349909ad93790af2187c8", "fusion_lat": 0.0, "rental_uris": {"ios": "https://dc.lft.to/lastmile_qr_scan", "android": "https://dc.lft.to/lastmile_qr_scan"}, "lon": -77.00567116666667, "type": "electric_scooter"}, {"bike_id": "9b5b920f00a4919f28f2c8950687e221", "is_reserved": 0, "fusion_lon": 0.0, "lat": 38.854342333333335, "is_disabled": 0, "name": "9b5b920f00a4919f28f2c8950687e221", "fusion_lat": 0.0, "rental_uris": {"ios": "https://dc.lft.to/lastmile_qr_scan", "android": "https://dc.lft.to/lastmile_qr_scan"}, "lon": -76.90968233333334, "type": "electric_bike"}, {"bike_id": "4724922d9238317efb7232170e4af0ca", "is_reserved": 0, "fusion_lon": 0.0, "lat": 38.89801933333333, "is_disabled": 0, "name": "4724922d9238317efb7232170e4af0ca", "fusion_lat": 0.0, "rental_uris": {"ios": "https://dc.lft.to/lastmile_qr_scan", "android": "https://dc.lft.to/lastmile_qr_scan"}, "lon": -76.99164233333333, "type": "electric_scooter"}, {"bike_id": "476cdfa77fc0155280e5897c976eff8d", "is_reserved": 0, "fusion_lon": 0.0, "lat": 38.844273, "is_disabled": 0, "name": "476cdfa77fc0155280e5897c976eff8d", "fusion_lat": 0.0, "rental_uris": {"ios": "https://dc.lft.to/lastmile_qr_scan", "android": "https://dc.lft.to/lastmile_qr_scan"}, "lon": -76.99776016666667, "type": "electric_scooter"}, {"bike_id": "041fcfd4a5749aa142a6299fdf40768a", "is_reserved": 0, "fusion_lon": 0.0, "lat": 38.91447333333333, "is_disabled": 0, "name": "041fcfd4a5749aa142a6299fdf40768a", "fusion_lat": 0.0, "rental_uris": {"ios": "https://dc.lft.to/lastmile_qr_scan", "android": "https://dc.lft.to/lastmile_qr_scan"}, "lon": -77.03464133333334, "type": "electric_scooter"}, {"bike_id": "557b33d481825a5f7891d8842f7e6f59", "is_reserved": 0, "fusion_lon": 0.0, "lat": 38.911948, "is_disabled": 0, "name": "557b33d481825a5f7891d8842f7e6f59", "fusion_lat": 0.0, "rental_uris": {"ios": "https://dc.lft.to/lastmile_qr_scan", "android": "https://dc.lft.to/lastmile_qr_scan"}, "lon": -77.06094833333333, "type": "electric_scooter"}, {"bike_id": "2bc5ed3ef47e5ea012cf22c31d2ef94a", "is_reserved": 0, "fusion_lon": 0.0, "lat": 38.93494033333333, "is_disabled": 0, "name": "2bc5ed3ef47e5ea012cf22c31d2ef94a", "fusion_lat": 0.0, "rental_uris": {"ios": "https://dc.lft.to/lastmile_qr_scan", "android": "https://dc.lft.to/lastmile_qr_scan"}, "lon": -77.02839033333333, "type": "electric_scooter"}, {"bike_id": "675498a91935b3464c4fec779a75fe19", "is_reserved": 0, "fusion_lon": 0.0, "lat": 38.900222166666666, "is_disabled": 0, "name": "675498a91935b3464c4fec779a75fe19", "fusion_lat": 0.0, "rental_uris": {"ios": "https://dc.lft.to/lastmile_qr_scan", "android": "https://dc.lft.to/lastmile_qr_scan"}, "lon": -76.99533233333334, "type": "electric_scooter"}, {"bike_id": "ec4f33ca307dd751126bfb00b1de2e32", "is_reserved": 0, "fusion_lon": 0.0, "lat": 38.911816, "is_disabled": 0, "name": "ec4f33ca307dd751126bfb00b1de2e32", "fusion_lat": 0.0, "rental_uris": {"ios": "https://dc.lft.to/lastmile_qr_scan", "android": "https://dc.lft.to/lastmile_qr_scan"}, "lon": -77.04538033333333, "type": "electric_scooter"}, {"bike_id": "5bb8e95727b147182f24ee65c22e2dd3", "is_reserved": 0, "fusion_lon": 0.0, "lat": 38.9032555, "is_disabled": 0, "name": "5bb8e95727b147182f24ee65c22e2dd3", "fusion_lat": 0.0, "rental_uris": {"ios": "https://dc.lft.to/lastmile_qr_scan", "android": "https://dc.lft.to/lastmile_qr_scan"}, "lon": -77.03325016666666, "type": "electric_scooter"}, {"bike_id": "8da8d8463ff6ffcab6784bc7d8798c33", "is_reserved": 0, "fusion_lon": 0.0, "lat": 38.903809833333334, "is_disabled": 0, "name": "8da8d8463ff6ffcab6784bc7d8798c33", "fusion_lat": 0.0, "rental_uris": {"ios": "https://dc.lft.to/lastmile_qr_scan", "android": "https://dc.lft.to/lastmile_qr_scan"}, "lon": -77.04347633333333, "type": "electric_scooter"}, {"bike_id": "5f7817cae81b6e1d4c0b5c3291be5bfe", "is_reserved": 0, "fusion_lon": 0.0, "lat": 38.9272975, "is_disabled": 0, "name": "5f7817cae81b6e1d4c0b5c3291be5bfe", "fusion_lat": 0.0, "rental_uris": {"ios": "https://dc.lft.to/lastmile_qr_scan", "android": "https://dc.lft.to/lastmile_qr_scan"}, "lon": -77.02280083333333, "type": "electric_scooter"}, {"bike_id": "4d5d04f1ac04ebdcbd2c72a5cf2b90b7", "is_reserved": 0, "fusion_lon": 0.0, "lat": 38.86631533333333, "is_disabled": 0, "name": "4d5d04f1ac04ebdcbd2c72a5cf2b90b7", "fusion_lat": 0.0, "rental_uris": {"ios": "https://dc.lft.to/lastmile_qr_scan", "android": "https://dc.lft.to/lastmile_qr_scan"}, "lon": -76.987124, "type": "electric_scooter"}, {"bike_id": "b1e043b3e4204d560603d1903bdcdd49", "is_reserved": 0, "fusion_lon": 0.0, "lat": 38.90221966666667, "is_disabled": 0, "name": "b1e043b3e4204d560603d1903bdcdd49", "fusion_lat": 0.0, "rental_uris": {"ios": "https://dc.lft.to/lastmile_qr_scan", "android": "https://dc.lft.to/lastmile_qr_scan"}, "lon": -77.06059433333333, "type": "electric_scooter"}, {"bike_id": "ed99c440c3218d5f2bfec14ed38a0a46", "is_reserved": 0, "fusion_lon": 0.0, "lat": 38.880038166666665, "is_disabled": 0, "name": "ed99c440c3218d5f2bfec14ed38a0a46", "fusion_lat": 0.0, "rental_uris": {"ios": "https://dc.lft.to/lastmile_qr_scan", "android": "https://dc.lft.to/lastmile_qr_scan"}, "lon": -76.9950275, "type": "electric_scooter"}, {"bike_id": "6739bc5cddaa5ad4482b54b8cec2a7bd", "is_reserved": 0, "fusion_lon": 0.0, "lat": 38.9080605, "is_disabled": 0, "name": "6739bc5cddaa5ad4482b54b8cec2a7bd", "fusion_lat": 0.0, "rental_uris": {"ios": "https://dc.lft.to/lastmile_qr_scan", "android": "https://dc.lft.to/lastmile_qr_scan"}, "lon": -77.03461183333333, "type": "electric_scooter"}, {"bike_id": "aed35d836039db0af487d55a747f238d", "is_reserved": 0, "fusion_lon": 0.0, "lat": 38.92886133333333, "is_disabled": 0, "name": "aed35d836039db0af487d55a747f238d", "fusion_lat": 0.0, "rental_uris": {"ios": "https://dc.lft.to/lastmile_qr_scan", "android": "https://dc.lft.to/lastmile_qr_scan"}, "lon": -77.054578, "type": "electric_scooter"}, {"bike_id": "59bee8feb633322853169db0c75aed39", "is_reserved": 0, "fusion_lon": 0.0, "lat": 38.900233, "is_disabled": 0, "name": "59bee8feb633322853169db0c75aed39", "fusion_lat": 0.0, "rental_uris": {"ios": "https://dc.lft.to/lastmile_qr_scan", "android": "https://dc.lft.to/lastmile_qr_scan"}, "lon": -76.9731075, "type": "electric_scooter"}, {"bike_id": "d7a70035a3670eb67fef024897fce311", "is_reserved": 0, "fusion_lon": 0.0, "lat": 38.905063, "is_disabled": 0, "name": "d7a70035a3670eb67fef024897fce311", "fusion_lat": 0.0, "rental_uris": {"ios": "https://dc.lft.to/lastmile_qr_scan", "android": "https://dc.lft.to/lastmile_qr_scan"}, "lon": -77.02947983333334, "type": "electric_scooter"}, {"bike_id": "0edae1fff7f611f9d371f96409b22471", "is_reserved": 0, "fusion_lon": 0.0, "lat": 38.899569, "is_disabled": 0, "name": "0edae1fff7f611f9d371f96409b22471", "fusion_lat": 0.0, "rental_uris": {"ios": "https://dc.lft.to/lastmile_qr_scan", "android": "https://dc.lft.to/lastmile_qr_scan"}, "lon": -77.003364, "type": "electric_scooter"}, {"bike_id": "0214c53925f7435599f1a30db7945f76", "is_reserved": 0, "fusion_lon": 0.0, "lat": 38.895047, "is_disabled": 0, "name": "0214c53925f7435599f1a30db7945f76", "fusion_lat": 0.0, "rental_uris": {"ios": "https://dc.lft.to/lastmile_qr_scan", "android": "https://dc.lft.to/lastmile_qr_scan"}, "lon": -77.02201383333333, "type": "electric_scooter"}, {"bike_id": "5e34a5f959c32bb71ec594a03ef97344", "is_reserved": 0, "fusion_lon": 0.0, "lat": 38.920895, "is_disabled": 0, "name": "5e34a5f959c32bb71ec594a03ef97344", "fusion_lat": 0.0, "rental_uris": {"ios": "https://dc.lft.to/lastmile_qr_scan", "android": "https://dc.lft.to/lastmile_qr_scan"}, "lon": -77.0253475, "type": "electric_scooter"}, {"bike_id": "61476133bec31c1cc4d9791c33f8df7a", "is_reserved": 0, "fusion_lon": 0.0, "lat": 38.90845733333333, "is_disabled": 0, "name": "61476133bec31c1cc4d9791c33f8df7a", "fusion_lat": 0.0, "rental_uris": {"ios": "https://dc.lft.to/lastmile_qr_scan", "android": "https://dc.lft.to/lastmile_qr_scan"}, "lon": -77.08532716666667, "type": "electric_scooter"}, {"bike_id": "66e7b2bd53e10b9d99b955005b785e54", "is_reserved": 0, "fusion_lon": 0.0, "lat": 38.912526166666666, "is_disabled": 0, "name": "66e7b2bd53e10b9d99b955005b785e54", "fusion_lat": 0.0, "rental_uris": {"ios": "https://dc.lft.to/lastmile_qr_scan", "android": "https://dc.lft.to/lastmile_qr_scan"}, "lon": -77.02691516666667, "type": "electric_scooter"}, {"bike_id": "07b8b3ee830c859fb9c4a05b5a3e4fbe", "is_reserved": 0, "fusion_lon": 0.0, "lat": 38.9109575, "is_disabled": 0, "name": "07b8b3ee830c859fb9c4a05b5a3e4fbe", "fusion_lat": 0.0, "rental_uris": {"ios": "https://dc.lft.to/lastmile_qr_scan", "android": "https://dc.lft.to/lastmile_qr_scan"}, "lon": -77.03441283333333, "type": "electric_scooter"}, {"bike_id": "bc4a9e9387edf64849d491fb7b386c54", "is_reserved": 0, "fusion_lon": 0.0, "lat": 38.99092383333333, "is_disabled": 0, "name": "bc4a9e9387edf64849d491fb7b386c54", "fusion_lat": 0.0, "rental_uris": {"ios": "https://dc.lft.to/lastmile_qr_scan", "android": "https://dc.lft.to/lastmile_qr_scan"}, "lon": -76.8749365, "type": "electric_bike"}, {"bike_id": "5bc14cae1b71a7d5285bdcd5939ee0f1", "is_reserved": 0, "fusion_lon": 0.0, "lat": 38.8841785, "is_disabled": 0, "name": "5bc14cae1b71a7d5285bdcd5939ee0f1", "fusion_lat": 0.0, "rental_uris": {"ios": "https://dc.lft.to/lastmile_qr_scan", "android": "https://dc.lft.to/lastmile_qr_scan"}, "lon": -77.015225, "type": "electric_scooter"}, {"bike_id": "382ba35c6e283191f927634e5821da13", "is_reserved": 0, "fusion_lon": 0.0, "lat": 38.828744, "is_disabled": 0, "name": "382ba35c6e283191f927634e5821da13", "fusion_lat": 0.0, "rental_uris": {"ios": "https://dc.lft.to/lastmile_qr_scan", "android": "https://dc.lft.to/lastmile_qr_scan"}, "lon": -77.1121985, "type": "electric_bike"}, {"bike_id": "742a73ddb05b8c9ede066c7480d9b810", "is_reserved": 0, "fusion_lon": 0.0, "lat": 38.90199783333333, "is_disabled": 0, "name": "742a73ddb05b8c9ede066c7480d9b810", "fusion_lat": 0.0, "rental_uris": {"ios": "https://dc.lft.to/lastmile_qr_scan", "android": "https://dc.lft.to/lastmile_qr_scan"}, "lon": -77.0217935, "type": "electric_scooter"}, {"bike_id": "c163c188e7949b3da9850a804fae058b", "is_reserved": 0, "fusion_lon": 0.0, "lat": 38.91676566666667, "is_disabled": 0, "name": "c163c188e7949b3da9850a804fae058b", "fusion_lat": 0.0, "rental_uris": {"ios": "https://dc.lft.to/lastmile_qr_scan", "android": "https://dc.lft.to/lastmile_qr_scan"}, "lon": -77.03640266666666, "type": "electric_scooter"}, {"bike_id": "4021a8c808caa10172b32fa06a762a62", "is_reserved": 0, "fusion_lon": 0.0, "lat": 38.9198335, "is_disabled": 0, "name": "4021a8c808caa10172b32fa06a762a62", "fusion_lat": 0.0, "rental_uris": {"ios": "https://dc.lft.to/lastmile_qr_scan", "android": "https://dc.lft.to/lastmile_qr_scan"}, "lon": -77.0238525, "type": "electric_scooter"}, {"bike_id": "105e6f0e27a3dd3fa4f2c359acd162bf", "is_reserved": 0, "fusion_lon": 0.0, "lat": 38.919953166666666, "is_disabled": 0, "name": "105e6f0e27a3dd3fa4f2c359acd162bf", "fusion_lat": 0.0, "rental_uris": {"ios": "https://dc.lft.to/lastmile_qr_scan", "android": "https://dc.lft.to/lastmile_qr_scan"}, "lon": -77.03226216666667, "type": "electric_scooter"}, {"bike_id": "a5c3b4d401ab16d741a07f6a49ba1f44", "is_reserved": 0, "fusion_lon": 0.0, "lat": 38.93609333333333, "is_disabled": 0, "name": "a5c3b4d401ab16d741a07f6a49ba1f44", "fusion_lat": 0.0, "rental_uris": {"ios": "https://dc.lft.to/lastmile_qr_scan", "android": "https://dc.lft.to/lastmile_qr_scan"}, "lon": -77.058629, "type": "electric_scooter"}, {"bike_id": "9ccf5280acb7865975c03eddd8c5afb4", "is_reserved": 0, "fusion_lon": 0.0, "lat": 38.900173833333334, "is_disabled": 0, "name": "9ccf5280acb7865975c03eddd8c5afb4", "fusion_lat": 0.0, "rental_uris": {"ios": "https://dc.lft.to/lastmile_qr_scan", "android": "https://dc.lft.to/lastmile_qr_scan"}, "lon": -77.01356233333334, "type": "electric_scooter"}, {"bike_id": "d35b3e6295d3354c4427c26778deee1a", "is_reserved": 0, "fusion_lon": 0.0, "lat": 38.90105483333333, "is_disabled": 0, "name": "d35b3e6295d3354c4427c26778deee1a", "fusion_lat": 0.0, "rental_uris": {"ios": "https://dc.lft.to/lastmile_qr_scan", "android": "https://dc.lft.to/lastmile_qr_scan"}, "lon": -77.04871483333334, "type": "electric_scooter"}, {"bike_id": "ffbc75e96db8f0db898d4f4411d741c4", "is_reserved": 0, "fusion_lon": 0.0, "lat": 38.9179775, "is_disabled": 0, "name": "ffbc75e96db8f0db898d4f4411d741c4", "fusion_lat": 0.0, "rental_uris": {"ios": "https://dc.lft.to/lastmile_qr_scan", "android": "https://dc.lft.to/lastmile_qr_scan"}, "lon": -77.0344495, "type": "electric_scooter"}, {"bike_id": "e7af84cc0b126c69a8ee5069a15c9f72", "is_reserved": 0, "fusion_lon": 0.0, "lat": 38.90179583333333, "is_disabled": 0, "name": "e7af84cc0b126c69a8ee5069a15c9f72", "fusion_lat": 0.0, "rental_uris": {"ios": "https://dc.lft.to/lastmile_qr_scan", "android": "https://dc.lft.to/lastmile_qr_scan"}, "lon": -76.98060116666667, "type": "electric_scooter"}, {"bike_id": "91c4cbd78b60fd80eb04e2b5b1767cbf", "is_reserved": 0, "fusion_lon": 0.0, "lat": 38.963828, "is_disabled": 0, "name": "91c4cbd78b60fd80eb04e2b5b1767cbf", "fusion_lat": 0.0, "rental_uris": {"ios": "https://dc.lft.to/lastmile_qr_scan", "android": "https://dc.lft.to/lastmile_qr_scan"}, "lon": -77.03500966666667, "type": "electric_scooter"}, {"bike_id": "39f7b9ed64c8f1250694ccaf58d31061", "is_reserved": 0, "fusion_lon": 0.0, "lat": 38.923275833333335, "is_disabled": 0, "name": "39f7b9ed64c8f1250694ccaf58d31061", "fusion_lat": 0.0, "rental_uris": {"ios": "https://dc.lft.to/lastmile_qr_scan", "android": "https://dc.lft.to/lastmile_qr_scan"}, "lon": -77.03786416666667, "type": "electric_scooter"}, {"bike_id": "5b0612e4aa4eec4a70395dddb12301af", "is_reserved": 0, "fusion_lon": 0.0, "lat": 38.918800833333336, "is_disabled": 0, "name": "5b0612e4aa4eec4a70395dddb12301af", "fusion_lat": 0.0, "rental_uris": {"ios": "https://dc.lft.to/lastmile_qr_scan", "android": "https://dc.lft.to/lastmile_qr_scan"}, "lon": -77.02954183333334, "type": "electric_scooter"}, {"bike_id": "9263f6f0c9949b956073a02b9cf7711d", "is_reserved": 0, "fusion_lon": 0.0, "lat": 38.91886733333333, "is_disabled": 0, "name": "9263f6f0c9949b956073a02b9cf7711d", "fusion_lat": 0.0, "rental_uris": {"ios": "https://dc.lft.to/lastmile_qr_scan", "android": "https://dc.lft.to/lastmile_qr_scan"}, "lon": -77.03918366666667, "type": "electric_scooter"}, {"bike_id": "5a2144c9f3a11c420551474c4b292847", "is_reserved": 0, "fusion_lon": 0.0, "lat": 38.903876833333335, "is_disabled": 0, "name": "5a2144c9f3a11c420551474c4b292847", "fusion_lat": 0.0, "rental_uris": {"ios": "https://dc.lft.to/lastmile_qr_scan", "android": "https://dc.lft.to/lastmile_qr_scan"}, "lon": -77.04454216666667, "type": "electric_scooter"}, {"bike_id": "45fc89c12544b8d5b2614ff94862d6b3", "is_reserved": 0, "fusion_lon": 0.0, "lat": 38.898933166666666, "is_disabled": 0, "name": "45fc89c12544b8d5b2614ff94862d6b3", "fusion_lat": 0.0, "rental_uris": {"ios": "https://dc.lft.to/lastmile_qr_scan", "android": "https://dc.lft.to/lastmile_qr_scan"}, "lon": -77.039747, "type": "electric_scooter"}, {"bike_id": "0efe4ffff1389d5486ac3f5cb94e4951", "is_reserved": 0, "fusion_lon": 0.0, "lat": 38.94974533333333, "is_disabled": 0, "name": "0efe4ffff1389d5486ac3f5cb94e4951", "fusion_lat": 0.0, "rental_uris": {"ios": "https://dc.lft.to/lastmile_qr_scan", "android": "https://dc.lft.to/lastmile_qr_scan"}, "lon": -77.07893966666667, "type": "electric_scooter"}, {"bike_id": "68ae104de121be59fb9e8fec4a42f27d", "is_reserved": 0, "fusion_lon": 0.0, "lat": 38.89612616666667, "is_disabled": 0, "name": "68ae104de121be59fb9e8fec4a42f27d", "fusion_lat": 0.0, "rental_uris": {"ios": "https://dc.lft.to/lastmile_qr_scan", "android": "https://dc.lft.to/lastmile_qr_scan"}, "lon": -76.9557975, "type": "electric_scooter"}, {"bike_id": "9d2f95b4d5b37cf0fcb25278f01f5636", "is_reserved": 0, "fusion_lon": 0.0, "lat": 38.91775483333333, "is_disabled": 0, "name": "9d2f95b4d5b37cf0fcb25278f01f5636", "fusion_lat": 0.0, "rental_uris": {"ios": "https://dc.lft.to/lastmile_qr_scan", "android": "https://dc.lft.to/lastmile_qr_scan"}, "lon": -77.040571, "type": "electric_scooter"}, {"bike_id": "998093bc10795613fa3c759cb075cfc0", "is_reserved": 0, "fusion_lon": 0.0, "lat": 38.9148425, "is_disabled": 0, "name": "998093bc10795613fa3c759cb075cfc0", "fusion_lat": 0.0, "rental_uris": {"ios": "https://dc.lft.to/lastmile_qr_scan", "android": "https://dc.lft.to/lastmile_qr_scan"}, "lon": -77.02189666666666, "type": "electric_scooter"}, {"bike_id": "86733e8a3a028c1ebdb3e681084ec760", "is_reserved": 0, "fusion_lon": 0.0, "lat": 38.92167283333333, "is_disabled": 0, "name": "86733e8a3a028c1ebdb3e681084ec760", "fusion_lat": 0.0, "rental_uris": {"ios": "https://dc.lft.to/lastmile_qr_scan", "android": "https://dc.lft.to/lastmile_qr_scan"}, "lon": -77.04231566666667, "type": "electric_scooter"}, {"bike_id": "04f7f43f453a42ce273a86284de2bbcb", "is_reserved": 0, "fusion_lon": 0.0, "lat": 38.945131, "is_disabled": 0, "name": "04f7f43f453a42ce273a86284de2bbcb", "fusion_lat": 0.0, "rental_uris": {"ios": "https://dc.lft.to/lastmile_qr_scan", "android": "https://dc.lft.to/lastmile_qr_scan"}, "lon": -77.00672983333334, "type": "electric_bike"}, {"bike_id": "ceff1ca60aa22b1ecaf571cd309f7449", "is_reserved": 0, "fusion_lon": 0.0, "lat": 38.89999683333333, "is_disabled": 0, "name": "ceff1ca60aa22b1ecaf571cd309f7449", "fusion_lat": 0.0, "rental_uris": {"ios": "https://dc.lft.to/lastmile_qr_scan", "android": "https://dc.lft.to/lastmile_qr_scan"}, "lon": -76.99495883333333, "type": "electric_scooter"}, {"bike_id": "d521b2f96884a745ddebe80fcef15a47", "is_reserved": 0, "fusion_lon": 0.0, "lat": 38.895334, "is_disabled": 0, "name": "d521b2f96884a745ddebe80fcef15a47", "fusion_lat": 0.0, "rental_uris": {"ios": "https://dc.lft.to/lastmile_qr_scan", "android": "https://dc.lft.to/lastmile_qr_scan"}, "lon": -77.03351333333333, "type": "electric_scooter"}, {"bike_id": "ed759bd458981dc455fae2ea426f2656", "is_reserved": 0, "fusion_lon": 0.0, "lat": 38.92446183333333, "is_disabled": 0, "name": "ed759bd458981dc455fae2ea426f2656", "fusion_lat": 0.0, "rental_uris": {"ios": "https://dc.lft.to/lastmile_qr_scan", "android": "https://dc.lft.to/lastmile_qr_scan"}, "lon": -77.02037983333334, "type": "electric_scooter"}, {"bike_id": "977e27bd5ce02d080a7a60fd05ae33e6", "is_reserved": 0, "fusion_lon": 0.0, "lat": 38.83236266666667, "is_disabled": 0, "name": "977e27bd5ce02d080a7a60fd05ae33e6", "fusion_lat": 0.0, "rental_uris": {"ios": "https://dc.lft.to/lastmile_qr_scan", "android": "https://dc.lft.to/lastmile_qr_scan"}, "lon": -76.946219, "type": "electric_bike"}, {"bike_id": "f6d204561419a044c60a6436ec08a024", "is_reserved": 0, "fusion_lon": 0.0, "lat": 38.9140625, "is_disabled": 0, "name": "f6d204561419a044c60a6436ec08a024", "fusion_lat": 0.0, "rental_uris": {"ios": "https://dc.lft.to/lastmile_qr_scan", "android": "https://dc.lft.to/lastmile_qr_scan"}, "lon": -77.04565366666667, "type": "electric_scooter"}, {"bike_id": "a170b368b3efd6122a3f042d0daee1de", "is_reserved": 0, "fusion_lon": 0.0, "lat": 38.92449216666667, "is_disabled": 0, "name": "a170b368b3efd6122a3f042d0daee1de", "fusion_lat": 0.0, "rental_uris": {"ios": "https://dc.lft.to/lastmile_qr_scan", "android": "https://dc.lft.to/lastmile_qr_scan"}, "lon": -77.0337175, "type": "electric_scooter"}, {"bike_id": "2512c8b6250292eeba07cc8b68cddc2c", "is_reserved": 0, "fusion_lon": 0.0, "lat": 38.940999, "is_disabled": 0, "name": "2512c8b6250292eeba07cc8b68cddc2c", "fusion_lat": 0.0, "rental_uris": {"ios": "https://dc.lft.to/lastmile_qr_scan", "android": "https://dc.lft.to/lastmile_qr_scan"}, "lon": -77.0327875, "type": "electric_scooter"}, {"bike_id": "4aa9ba4e01954cdee5435be2b299a39f", "is_reserved": 0, "fusion_lon": 0.0, "lat": 38.910498833333335, "is_disabled": 0, "name": "4aa9ba4e01954cdee5435be2b299a39f", "fusion_lat": 0.0, "rental_uris": {"ios": "https://dc.lft.to/lastmile_qr_scan", "android": "https://dc.lft.to/lastmile_qr_scan"}, "lon": -77.015167, "type": "electric_scooter"}, {"bike_id": "9f694926c5a5b16f3ada5643f2d2260a", "is_reserved": 0, "fusion_lon": 0.0, "lat": 38.972357333333335, "is_disabled": 0, "name": "9f694926c5a5b16f3ada5643f2d2260a", "fusion_lat": 0.0, "rental_uris": {"ios": "https://dc.lft.to/lastmile_qr_scan", "android": "https://dc.lft.to/lastmile_qr_scan"}, "lon": -77.02714916666666, "type": "electric_scooter"}, {"bike_id": "04211df47923a7223cda8477f0bed801", "is_reserved": 0, "fusion_lon": 0.0, "lat": 38.932038666666664, "is_disabled": 0, "name": "04211df47923a7223cda8477f0bed801", "fusion_lat": 0.0, "rental_uris": {"ios": "https://dc.lft.to/lastmile_qr_scan", "android": "https://dc.lft.to/lastmile_qr_scan"}, "lon": -77.03851183333333, "type": "electric_scooter"}, {"bike_id": "5e86996cb8632f126b2f77e4ed0da04a", "is_reserved": 0, "fusion_lon": 0.0, "lat": 38.908333166666665, "is_disabled": 0, "name": "5e86996cb8632f126b2f77e4ed0da04a", "fusion_lat": 0.0, "rental_uris": {"ios": "https://dc.lft.to/lastmile_qr_scan", "android": "https://dc.lft.to/lastmile_qr_scan"}, "lon": -77.04464216666666, "type": "electric_scooter"}, {"bike_id": "ddc2fb8ea9be350b1e5d5c62054878ab", "is_reserved": 0, "fusion_lon": 0.0, "lat": 38.86428683333333, "is_disabled": 0, "name": "ddc2fb8ea9be350b1e5d5c62054878ab", "fusion_lat": 0.0, "rental_uris": {"ios": "https://dc.lft.to/lastmile_qr_scan", "android": "https://dc.lft.to/lastmile_qr_scan"}, "lon": -76.97442666666667, "type": "electric_scooter"}, {"bike_id": "1b37187d534d9c752a60eabbd1c5a164", "is_reserved": 0, "fusion_lon": 0.0, "lat": 38.90799833333333, "is_disabled": 0, "name": "1b37187d534d9c752a60eabbd1c5a164", "fusion_lat": 0.0, "rental_uris": {"ios": "https://dc.lft.to/lastmile_qr_scan", "android": "https://dc.lft.to/lastmile_qr_scan"}, "lon": -77.04868266666666, "type": "electric_scooter"}, {"bike_id": "3602c924bcf570eb624963098ab8785a", "is_reserved": 0, "fusion_lon": 0.0, "lat": 38.864179166666666, "is_disabled": 0, "name": "3602c924bcf570eb624963098ab8785a", "fusion_lat": 0.0, "rental_uris": {"ios": "https://dc.lft.to/lastmile_qr_scan", "android": "https://dc.lft.to/lastmile_qr_scan"}, "lon": -76.98047283333334, "type": "electric_scooter"}, {"bike_id": "69235ad87d04a9da29ccf541a93662ba", "is_reserved": 0, "fusion_lon": 0.0, "lat": 38.88595266666667, "is_disabled": 0, "name": "69235ad87d04a9da29ccf541a93662ba", "fusion_lat": 0.0, "rental_uris": {"ios": "https://dc.lft.to/lastmile_qr_scan", "android": "https://dc.lft.to/lastmile_qr_scan"}, "lon": -76.952671, "type": "electric_scooter"}, {"bike_id": "e17105ed0b299d8d9e5ec09e48a7ad06", "is_reserved": 0, "fusion_lon": 0.0, "lat": 38.919602, "is_disabled": 0, "name": "e17105ed0b299d8d9e5ec09e48a7ad06", "fusion_lat": 0.0, "rental_uris": {"ios": "https://dc.lft.to/lastmile_qr_scan", "android": "https://dc.lft.to/lastmile_qr_scan"}, "lon": -77.03183583333333, "type": "electric_scooter"}, {"bike_id": "ee6215e7ab366ec7d0f0f2c627934019", "is_reserved": 0, "fusion_lon": 0.0, "lat": 38.917471166666665, "is_disabled": 0, "name": "ee6215e7ab366ec7d0f0f2c627934019", "fusion_lat": 0.0, "rental_uris": {"ios": "https://dc.lft.to/lastmile_qr_scan", "android": "https://dc.lft.to/lastmile_qr_scan"}, "lon": -77.0074705, "type": "electric_scooter"}, {"bike_id": "34f22f33a5e42d1706da7252a4ceaacc", "is_reserved": 0, "fusion_lon": 0.0, "lat": 38.9037005, "is_disabled": 0, "name": "34f22f33a5e42d1706da7252a4ceaacc", "fusion_lat": 0.0, "rental_uris": {"ios": "https://dc.lft.to/lastmile_qr_scan", "android": "https://dc.lft.to/lastmile_qr_scan"}, "lon": -77.01899716666667, "type": "electric_scooter"}, {"bike_id": "fd10b594aca54a8cfa37ce6e8572d38d", "is_reserved": 0, "fusion_lon": 0.0, "lat": 38.9076545, "is_disabled": 0, "name": "fd10b594aca54a8cfa37ce6e8572d38d", "fusion_lat": 0.0, "rental_uris": {"ios": "https://dc.lft.to/lastmile_qr_scan", "android": "https://dc.lft.to/lastmile_qr_scan"}, "lon": -77.00100616666667, "type": "electric_scooter"}, {"bike_id": "086eddd5c2c142f3e836947e1687a8c7", "is_reserved": 0, "fusion_lon": 0.0, "lat": 38.940508, "is_disabled": 0, "name": "086eddd5c2c142f3e836947e1687a8c7", "fusion_lat": 0.0, "rental_uris": {"ios": "https://dc.lft.to/lastmile_qr_scan", "android": "https://dc.lft.to/lastmile_qr_scan"}, "lon": -77.09269666666667, "type": "electric_scooter"}, {"bike_id": "25c7fdab4493e13fea3881594eb28405", "is_reserved": 0, "fusion_lon": 0.0, "lat": 38.86706233333334, "is_disabled": 0, "name": "25c7fdab4493e13fea3881594eb28405", "fusion_lat": 0.0, "rental_uris": {"ios": "https://dc.lft.to/lastmile_qr_scan", "android": "https://dc.lft.to/lastmile_qr_scan"}, "lon": -76.98723216666667, "type": "electric_scooter"}, {"bike_id": "e833a5dde42e90e6c0cce75de5cba8db", "is_reserved": 0, "fusion_lon": 0.0, "lat": 38.92742916666667, "is_disabled": 0, "name": "e833a5dde42e90e6c0cce75de5cba8db", "fusion_lat": 0.0, "rental_uris": {"ios": "https://dc.lft.to/lastmile_qr_scan", "android": "https://dc.lft.to/lastmile_qr_scan"}, "lon": -77.012038, "type": "electric_scooter"}, {"bike_id": "c01b5cc2fbe231e8be76b852a8b66348", "is_reserved": 0, "fusion_lon": 0.0, "lat": 38.90331116666667, "is_disabled": 0, "name": "c01b5cc2fbe231e8be76b852a8b66348", "fusion_lat": 0.0, "rental_uris": {"ios": "https://dc.lft.to/lastmile_qr_scan", "android": "https://dc.lft.to/lastmile_qr_scan"}, "lon": -77.03829583333334, "type": "electric_scooter"}, {"bike_id": "9fd591423354c5df9cd0809efb33279d", "is_reserved": 0, "fusion_lon": 0.0, "lat": 38.974267833333336, "is_disabled": 0, "name": "9fd591423354c5df9cd0809efb33279d", "fusion_lat": 0.0, "rental_uris": {"ios": "https://dc.lft.to/lastmile_qr_scan", "android": "https://dc.lft.to/lastmile_qr_scan"}, "lon": -77.01522633333333, "type": "electric_scooter"}, {"bike_id": "7d27fd1dac8a12ce6a28ea3d017eef5d", "is_reserved": 0, "fusion_lon": 0.0, "lat": 38.914155666666666, "is_disabled": 0, "name": "7d27fd1dac8a12ce6a28ea3d017eef5d", "fusion_lat": 0.0, "rental_uris": {"ios": "https://dc.lft.to/lastmile_qr_scan", "android": "https://dc.lft.to/lastmile_qr_scan"}, "lon": -77.04143966666666, "type": "electric_scooter"}, {"bike_id": "c82d48f104a81b449bfb5df98f381e09", "is_reserved": 0, "fusion_lon": 0.0, "lat": 38.90867266666667, "is_disabled": 0, "name": "c82d48f104a81b449bfb5df98f381e09", "fusion_lat": 0.0, "rental_uris": {"ios": "https://dc.lft.to/lastmile_qr_scan", "android": "https://dc.lft.to/lastmile_qr_scan"}, "lon": -76.99959183333333, "type": "electric_scooter"}, {"bike_id": "085c711a9dcc200fb6f294c295158af3", "is_reserved": 0, "fusion_lon": 0.0, "lat": 38.913352333333336, "is_disabled": 0, "name": "085c711a9dcc200fb6f294c295158af3", "fusion_lat": 0.0, "rental_uris": {"ios": "https://dc.lft.to/lastmile_qr_scan", "android": "https://dc.lft.to/lastmile_qr_scan"}, "lon": -77.03126533333334, "type": "electric_scooter"}, {"bike_id": "f1e1c3a119b1efc9356ff1db2ea754dd", "is_reserved": 0, "fusion_lon": 0.0, "lat": 38.90629466666667, "is_disabled": 0, "name": "f1e1c3a119b1efc9356ff1db2ea754dd", "fusion_lat": 0.0, "rental_uris": {"ios": "https://dc.lft.to/lastmile_qr_scan", "android": "https://dc.lft.to/lastmile_qr_scan"}, "lon": -77.051514, "type": "electric_scooter"}, {"bike_id": "dad99f82bae7d8b3fcbbb4debba85656", "is_reserved": 0, "fusion_lon": 0.0, "lat": 38.89684883333334, "is_disabled": 0, "name": "dad99f82bae7d8b3fcbbb4debba85656", "fusion_lat": 0.0, "rental_uris": {"ios": "https://dc.lft.to/lastmile_qr_scan", "android": "https://dc.lft.to/lastmile_qr_scan"}, "lon": -76.99620283333333, "type": "electric_scooter"}, {"bike_id": "8250393b0734d55c3e83092a6c520dba", "is_reserved": 0, "fusion_lon": 0.0, "lat": 38.90050683333333, "is_disabled": 0, "name": "8250393b0734d55c3e83092a6c520dba", "fusion_lat": 0.0, "rental_uris": {"ios": "https://dc.lft.to/lastmile_qr_scan", "android": "https://dc.lft.to/lastmile_qr_scan"}, "lon": -77.00201816666667, "type": "electric_scooter"}, {"bike_id": "acc803d4757df782a75df84c703bc4de", "is_reserved": 0, "fusion_lon": 0.0, "lat": 38.904664833333335, "is_disabled": 0, "name": "acc803d4757df782a75df84c703bc4de", "fusion_lat": 0.0, "rental_uris": {"ios": "https://dc.lft.to/lastmile_qr_scan", "android": "https://dc.lft.to/lastmile_qr_scan"}, "lon": -77.01716116666667, "type": "electric_scooter"}, {"bike_id": "741ceb1ee74521a2c60b7225be82ff13", "is_reserved": 0, "fusion_lon": 0.0, "lat": 38.84294366666666, "is_disabled": 0, "name": "741ceb1ee74521a2c60b7225be82ff13", "fusion_lat": 0.0, "rental_uris": {"ios": "https://dc.lft.to/lastmile_qr_scan", "android": "https://dc.lft.to/lastmile_qr_scan"}, "lon": -76.99949333333333, "type": "electric_scooter"}, {"bike_id": "b95d6a6167ffb984f44a32703638c52b", "is_reserved": 0, "fusion_lon": 0.0, "lat": 38.89835266666667, "is_disabled": 0, "name": "b95d6a6167ffb984f44a32703638c52b", "fusion_lat": 0.0, "rental_uris": {"ios": "https://dc.lft.to/lastmile_qr_scan", "android": "https://dc.lft.to/lastmile_qr_scan"}, "lon": -76.94636066666666, "type": "electric_scooter"}, {"bike_id": "79ba7767762a301f8b39bd31e4ae5952", "is_reserved": 0, "fusion_lon": 0.0, "lat": 38.905812166666664, "is_disabled": 0, "name": "79ba7767762a301f8b39bd31e4ae5952", "fusion_lat": 0.0, "rental_uris": {"ios": "https://dc.lft.to/lastmile_qr_scan", "android": "https://dc.lft.to/lastmile_qr_scan"}, "lon": -77.02211233333334, "type": "electric_scooter"}, {"bike_id": "74e1e70df4e896cd9f099b89f1e6be75", "is_reserved": 0, "fusion_lon": 0.0, "lat": 38.95929, "is_disabled": 0, "name": "74e1e70df4e896cd9f099b89f1e6be75", "fusion_lat": 0.0, "rental_uris": {"ios": "https://dc.lft.to/lastmile_qr_scan", "android": "https://dc.lft.to/lastmile_qr_scan"}, "lon": -76.92536316666667, "type": "electric_bike"}, {"bike_id": "eeba13cf2f23a44ff2bb5385c9fb03a9", "is_reserved": 0, "fusion_lon": 0.0, "lat": 38.869619666666665, "is_disabled": 0, "name": "eeba13cf2f23a44ff2bb5385c9fb03a9", "fusion_lat": 0.0, "rental_uris": {"ios": "https://dc.lft.to/lastmile_qr_scan", "android": "https://dc.lft.to/lastmile_qr_scan"}, "lon": -77.01375966666667, "type": "electric_scooter"}, {"bike_id": "360bffd675e0b13f984c00f307c458a6", "is_reserved": 0, "fusion_lon": 0.0, "lat": 38.9244065, "is_disabled": 0, "name": "360bffd675e0b13f984c00f307c458a6", "fusion_lat": 0.0, "rental_uris": {"ios": "https://dc.lft.to/lastmile_qr_scan", "android": "https://dc.lft.to/lastmile_qr_scan"}, "lon": -77.04234733333334, "type": "electric_scooter"}, {"bike_id": "5d71283e469154d3ffee82b7f3526c78", "is_reserved": 0, "fusion_lon": 0.0, "lat": 38.90297533333333, "is_disabled": 0, "name": "5d71283e469154d3ffee82b7f3526c78", "fusion_lat": 0.0, "rental_uris": {"ios": "https://dc.lft.to/lastmile_qr_scan", "android": "https://dc.lft.to/lastmile_qr_scan"}, "lon": -77.03841666666666, "type": "electric_scooter"}, {"bike_id": "e95dea2ad1570b95002b45268925a7d3", "is_reserved": 0, "fusion_lon": 0.0, "lat": 38.92017, "is_disabled": 0, "name": "e95dea2ad1570b95002b45268925a7d3", "fusion_lat": 0.0, "rental_uris": {"ios": "https://dc.lft.to/lastmile_qr_scan", "android": "https://dc.lft.to/lastmile_qr_scan"}, "lon": -77.0377605, "type": "electric_scooter"}, {"bike_id": "644fe0158401a3bfaed29f5ecccd3418", "is_reserved": 0, "fusion_lon": 0.0, "lat": 38.89878483333333, "is_disabled": 0, "name": "644fe0158401a3bfaed29f5ecccd3418", "fusion_lat": 0.0, "rental_uris": {"ios": "https://dc.lft.to/lastmile_qr_scan", "android": "https://dc.lft.to/lastmile_qr_scan"}, "lon": -76.93183966666666, "type": "electric_scooter"}, {"bike_id": "4d51699487bdd9d11f2fc7902d42e845", "is_reserved": 0, "fusion_lon": 0.0, "lat": 38.897285333333336, "is_disabled": 0, "name": "4d51699487bdd9d11f2fc7902d42e845", "fusion_lat": 0.0, "rental_uris": {"ios": "https://dc.lft.to/lastmile_qr_scan", "android": "https://dc.lft.to/lastmile_qr_scan"}, "lon": -77.0270435, "type": "electric_scooter"}, {"bike_id": "232282a893f725b39a98caef24ce3e67", "is_reserved": 0, "fusion_lon": 0.0, "lat": 38.958794, "is_disabled": 0, "name": "232282a893f725b39a98caef24ce3e67", "fusion_lat": 0.0, "rental_uris": {"ios": "https://dc.lft.to/lastmile_qr_scan", "android": "https://dc.lft.to/lastmile_qr_scan"}, "lon": -76.970542, "type": "electric_bike"}, {"bike_id": "813b110dff62f3b3b921f5f301234a99", "is_reserved": 0, "fusion_lon": 0.0, "lat": 38.907302333333334, "is_disabled": 0, "name": "813b110dff62f3b3b921f5f301234a99", "fusion_lat": 0.0, "rental_uris": {"ios": "https://dc.lft.to/lastmile_qr_scan", "android": "https://dc.lft.to/lastmile_qr_scan"}, "lon": -77.01133683333333, "type": "electric_scooter"}, {"bike_id": "d7ab7ce8a9d2b091eda413d359be6ebb", "is_reserved": 0, "fusion_lon": 0.0, "lat": 38.91735583333333, "is_disabled": 0, "name": "d7ab7ce8a9d2b091eda413d359be6ebb", "fusion_lat": 0.0, "rental_uris": {"ios": "https://dc.lft.to/lastmile_qr_scan", "android": "https://dc.lft.to/lastmile_qr_scan"}, "lon": -77.0230145, "type": "electric_scooter"}, {"bike_id": "903a374313bf7b8753bc409e3b964a28", "is_reserved": 0, "fusion_lon": 0.0, "lat": 38.91052066666666, "is_disabled": 0, "name": "903a374313bf7b8753bc409e3b964a28", "fusion_lat": 0.0, "rental_uris": {"ios": "https://dc.lft.to/lastmile_qr_scan", "android": "https://dc.lft.to/lastmile_qr_scan"}, "lon": -77.036402, "type": "electric_scooter"}, {"bike_id": "ebfa459cdf77abc89763f674bf08d4c0", "is_reserved": 0, "fusion_lon": 0.0, "lat": 38.90778866666667, "is_disabled": 0, "name": "ebfa459cdf77abc89763f674bf08d4c0", "fusion_lat": 0.0, "rental_uris": {"ios": "https://dc.lft.to/lastmile_qr_scan", "android": "https://dc.lft.to/lastmile_qr_scan"}, "lon": -77.03830216666667, "type": "electric_scooter"}, {"bike_id": "f2585d8c2423cbffc7b62c0b98a9f472", "is_reserved": 0, "fusion_lon": 0.0, "lat": 38.939717333333334, "is_disabled": 0, "name": "f2585d8c2423cbffc7b62c0b98a9f472", "fusion_lat": 0.0, "rental_uris": {"ios": "https://dc.lft.to/lastmile_qr_scan", "android": "https://dc.lft.to/lastmile_qr_scan"}, "lon": -77.36090933333334, "type": "electric_bike"}, {"bike_id": "f2531d602f406af8c0b04c1b15c4aeae", "is_reserved": 0, "fusion_lon": 0.0, "lat": 38.9155675, "is_disabled": 0, "name": "f2531d602f406af8c0b04c1b15c4aeae", "fusion_lat": 0.0, "rental_uris": {"ios": "https://dc.lft.to/lastmile_qr_scan", "android": "https://dc.lft.to/lastmile_qr_scan"}, "lon": -77.01409133333334, "type": "electric_scooter"}, {"bike_id": "c9e236a31cdc3809b691a27b98591d03", "is_reserved": 0, "fusion_lon": 0.0, "lat": 38.90421516666667, "is_disabled": 0, "name": "c9e236a31cdc3809b691a27b98591d03", "fusion_lat": 0.0, "rental_uris": {"ios": "https://dc.lft.to/lastmile_qr_scan", "android": "https://dc.lft.to/lastmile_qr_scan"}, "lon": -77.0366105, "type": "electric_scooter"}, {"bike_id": "1385e89581fbf8d780ec7c22b3a9e3db", "is_reserved": 0, "fusion_lon": 0.0, "lat": 38.8692445, "is_disabled": 0, "name": "1385e89581fbf8d780ec7c22b3a9e3db", "fusion_lat": 0.0, "rental_uris": {"ios": "https://dc.lft.to/lastmile_qr_scan", "android": "https://dc.lft.to/lastmile_qr_scan"}, "lon": -76.98308333333334, "type": "electric_scooter"}, {"bike_id": "94203490575770de9a2901e2d31b9e69", "is_reserved": 0, "fusion_lon": 0.0, "lat": 38.8887405, "is_disabled": 0, "name": "94203490575770de9a2901e2d31b9e69", "fusion_lat": 0.0, "rental_uris": {"ios": "https://dc.lft.to/lastmile_qr_scan", "android": "https://dc.lft.to/lastmile_qr_scan"}, "lon": -76.99033483333334, "type": "electric_scooter"}, {"bike_id": "b033be17777e7fcf912b176e7a34f8de", "is_reserved": 0, "fusion_lon": 0.0, "lat": 38.872169, "is_disabled": 0, "name": "b033be17777e7fcf912b176e7a34f8de", "fusion_lat": 0.0, "rental_uris": {"ios": "https://dc.lft.to/lastmile_qr_scan", "android": "https://dc.lft.to/lastmile_qr_scan"}, "lon": -77.00574733333333, "type": "electric_scooter"}, {"bike_id": "9ec965b168681b1819ce987b5616f17a", "is_reserved": 0, "fusion_lon": 0.0, "lat": 38.91772, "is_disabled": 0, "name": "9ec965b168681b1819ce987b5616f17a", "fusion_lat": 0.0, "rental_uris": {"ios": "https://dc.lft.to/lastmile_qr_scan", "android": "https://dc.lft.to/lastmile_qr_scan"}, "lon": -77.0405705, "type": "electric_scooter"}, {"bike_id": "7b9500dba51b1acfd4ae757079cc82e4", "is_reserved": 0, "fusion_lon": 0.0, "lat": 38.921176, "is_disabled": 0, "name": "7b9500dba51b1acfd4ae757079cc82e4", "fusion_lat": 0.0, "rental_uris": {"ios": "https://dc.lft.to/lastmile_qr_scan", "android": "https://dc.lft.to/lastmile_qr_scan"}, "lon": -77.04584633333333, "type": "electric_scooter"}, {"bike_id": "c72f6126879ceb4c4cec233cf62bb2ca", "is_reserved": 0, "fusion_lon": 0.0, "lat": 38.893033, "is_disabled": 0, "name": "c72f6126879ceb4c4cec233cf62bb2ca", "fusion_lat": 0.0, "rental_uris": {"ios": "https://dc.lft.to/lastmile_qr_scan", "android": "https://dc.lft.to/lastmile_qr_scan"}, "lon": -77.01237066666667, "type": "electric_scooter"}, {"bike_id": "ad48b2f7b4e3f073406bd84c770e7f50", "is_reserved": 0, "fusion_lon": 0.0, "lat": 38.917874166666664, "is_disabled": 0, "name": "ad48b2f7b4e3f073406bd84c770e7f50", "fusion_lat": 0.0, "rental_uris": {"ios": "https://dc.lft.to/lastmile_qr_scan", "android": "https://dc.lft.to/lastmile_qr_scan"}, "lon": -77.02699316666667, "type": "electric_scooter"}, {"bike_id": "2210d55ddbf67823ef9979d4b039d7d8", "is_reserved": 0, "fusion_lon": 0.0, "lat": 38.84429, "is_disabled": 0, "name": "2210d55ddbf67823ef9979d4b039d7d8", "fusion_lat": 0.0, "rental_uris": {"ios": "https://dc.lft.to/lastmile_qr_scan", "android": "https://dc.lft.to/lastmile_qr_scan"}, "lon": -76.99776466666667, "type": "electric_scooter"}, {"bike_id": "4d04d120964931de3f9aa350096c7f26", "is_reserved": 0, "fusion_lon": 0.0, "lat": 38.913867833333335, "is_disabled": 0, "name": "4d04d120964931de3f9aa350096c7f26", "fusion_lat": 0.0, "rental_uris": {"ios": "https://dc.lft.to/lastmile_qr_scan", "android": "https://dc.lft.to/lastmile_qr_scan"}, "lon": -77.01795316666667, "type": "electric_scooter"}, {"bike_id": "e189d949949913d8a80bf8743904c02c", "is_reserved": 0, "fusion_lon": 0.0, "lat": 38.903039, "is_disabled": 0, "name": "e189d949949913d8a80bf8743904c02c", "fusion_lat": 0.0, "rental_uris": {"ios": "https://dc.lft.to/lastmile_qr_scan", "android": "https://dc.lft.to/lastmile_qr_scan"}, "lon": -76.99839933333334, "type": "electric_bike"}, {"bike_id": "cd0a62179ccef66e3442af87cd4c87b4", "is_reserved": 0, "fusion_lon": 0.0, "lat": 38.914085666666665, "is_disabled": 0, "name": "cd0a62179ccef66e3442af87cd4c87b4", "fusion_lat": 0.0, "rental_uris": {"ios": "https://dc.lft.to/lastmile_qr_scan", "android": "https://dc.lft.to/lastmile_qr_scan"}, "lon": -77.04144716666667, "type": "electric_scooter"}, {"bike_id": "76d95492975dfd86202b699c2d479242", "is_reserved": 0, "fusion_lon": 0.0, "lat": 38.9086985, "is_disabled": 0, "name": "76d95492975dfd86202b699c2d479242", "fusion_lat": 0.0, "rental_uris": {"ios": "https://dc.lft.to/lastmile_qr_scan", "android": "https://dc.lft.to/lastmile_qr_scan"}, "lon": -77.00630666666666, "type": "electric_scooter"}, {"bike_id": "f90bde3972d2f8e574d7484b983e7f08", "is_reserved": 0, "fusion_lon": 0.0, "lat": 38.918066833333334, "is_disabled": 0, "name": "f90bde3972d2f8e574d7484b983e7f08", "fusion_lat": 0.0, "rental_uris": {"ios": "https://dc.lft.to/lastmile_qr_scan", "android": "https://dc.lft.to/lastmile_qr_scan"}, "lon": -77.03434916666667, "type": "electric_scooter"}, {"bike_id": "e56c5242eb504d8c7bfd655921d20c5d", "is_reserved": 0, "fusion_lon": 0.0, "lat": 38.917755666666665, "is_disabled": 0, "name": "e56c5242eb504d8c7bfd655921d20c5d", "fusion_lat": 0.0, "rental_uris": {"ios": "https://dc.lft.to/lastmile_qr_scan", "android": "https://dc.lft.to/lastmile_qr_scan"}, "lon": -77.0405675, "type": "electric_scooter"}, {"bike_id": "daef4477e70e7960e9727943737b476c", "is_reserved": 0, "fusion_lon": 0.0, "lat": 38.92403783333334, "is_disabled": 0, "name": "daef4477e70e7960e9727943737b476c", "fusion_lat": 0.0, "rental_uris": {"ios": "https://dc.lft.to/lastmile_qr_scan", "android": "https://dc.lft.to/lastmile_qr_scan"}, "lon": -76.99730683333334, "type": "electric_bike"}, {"bike_id": "df8093c85122d814e01248b870930e58", "is_reserved": 0, "fusion_lon": 0.0, "lat": 38.84292816666667, "is_disabled": 0, "name": "df8093c85122d814e01248b870930e58", "fusion_lat": 0.0, "rental_uris": {"ios": "https://dc.lft.to/lastmile_qr_scan", "android": "https://dc.lft.to/lastmile_qr_scan"}, "lon": -76.99949283333333, "type": "electric_scooter"}, {"bike_id": "a692f6030dae8d36a77bb383216acc14", "is_reserved": 0, "fusion_lon": 0.0, "lat": 38.936767833333334, "is_disabled": 0, "name": "a692f6030dae8d36a77bb383216acc14", "fusion_lat": 0.0, "rental_uris": {"ios": "https://dc.lft.to/lastmile_qr_scan", "android": "https://dc.lft.to/lastmile_qr_scan"}, "lon": -77.03593233333334, "type": "electric_scooter"}, {"bike_id": "2df9c87863a25270efe4ef5fd5fc8aee", "is_reserved": 0, "fusion_lon": 0.0, "lat": 38.903329166666666, "is_disabled": 0, "name": "2df9c87863a25270efe4ef5fd5fc8aee", "fusion_lat": 0.0, "rental_uris": {"ios": "https://dc.lft.to/lastmile_qr_scan", "android": "https://dc.lft.to/lastmile_qr_scan"}, "lon": -77.06595983333334, "type": "electric_scooter"}, {"bike_id": "01dcfdc0f4b11306f3c1763142b0d8f3", "is_reserved": 0, "fusion_lon": 0.0, "lat": 38.898324, "is_disabled": 0, "name": "01dcfdc0f4b11306f3c1763142b0d8f3", "fusion_lat": 0.0, "rental_uris": {"ios": "https://dc.lft.to/lastmile_qr_scan", "android": "https://dc.lft.to/lastmile_qr_scan"}, "lon": -77.007567, "type": "electric_scooter"}, {"bike_id": "6aed0ce2dd638d0efc19f13690a1eea1", "is_reserved": 0, "fusion_lon": 0.0, "lat": 38.92083483333333, "is_disabled": 0, "name": "6aed0ce2dd638d0efc19f13690a1eea1", "fusion_lat": 0.0, "rental_uris": {"ios": "https://dc.lft.to/lastmile_qr_scan", "android": "https://dc.lft.to/lastmile_qr_scan"}, "lon": -77.02429183333334, "type": "electric_scooter"}, {"bike_id": "60904f29c1bcbcb6a5cf13a8882135cb", "is_reserved": 0, "fusion_lon": 0.0, "lat": 38.92125633333333, "is_disabled": 0, "name": "60904f29c1bcbcb6a5cf13a8882135cb", "fusion_lat": 0.0, "rental_uris": {"ios": "https://dc.lft.to/lastmile_qr_scan", "android": "https://dc.lft.to/lastmile_qr_scan"}, "lon": -77.01103116666667, "type": "electric_bike"}, {"bike_id": "49cd07f0f6a47d4397f679d3ebb10c9b", "is_reserved": 0, "fusion_lon": 0.0, "lat": 38.90504416666667, "is_disabled": 0, "name": "49cd07f0f6a47d4397f679d3ebb10c9b", "fusion_lat": 0.0, "rental_uris": {"ios": "https://dc.lft.to/lastmile_qr_scan", "android": "https://dc.lft.to/lastmile_qr_scan"}, "lon": -76.99015166666666, "type": "electric_scooter"}, {"bike_id": "aa9ed273e9b7270423531ef3849f6eee", "is_reserved": 0, "fusion_lon": 0.0, "lat": 38.90475566666667, "is_disabled": 0, "name": "aa9ed273e9b7270423531ef3849f6eee", "fusion_lat": 0.0, "rental_uris": {"ios": "https://dc.lft.to/lastmile_qr_scan", "android": "https://dc.lft.to/lastmile_qr_scan"}, "lon": -77.046745, "type": "electric_scooter"}, {"bike_id": "e0a6354ff9b326757826e7b320a2e55d", "is_reserved": 0, "fusion_lon": 0.0, "lat": 38.8850475, "is_disabled": 0, "name": "e0a6354ff9b326757826e7b320a2e55d", "fusion_lat": 0.0, "rental_uris": {"ios": "https://dc.lft.to/lastmile_qr_scan", "android": "https://dc.lft.to/lastmile_qr_scan"}, "lon": -77.0056635, "type": "electric_scooter"}, {"bike_id": "d480e7543739f0f29bb2e5c34782a46d", "is_reserved": 0, "fusion_lon": 0.0, "lat": 38.917200333333334, "is_disabled": 0, "name": "d480e7543739f0f29bb2e5c34782a46d", "fusion_lat": 0.0, "rental_uris": {"ios": "https://dc.lft.to/lastmile_qr_scan", "android": "https://dc.lft.to/lastmile_qr_scan"}, "lon": -77.0120675, "type": "electric_scooter"}, {"bike_id": "e666e97c014373efc29197e1b10666e6", "is_reserved": 0, "fusion_lon": 0.0, "lat": 38.91361633333333, "is_disabled": 0, "name": "e666e97c014373efc29197e1b10666e6", "fusion_lat": 0.0, "rental_uris": {"ios": "https://dc.lft.to/lastmile_qr_scan", "android": "https://dc.lft.to/lastmile_qr_scan"}, "lon": -77.01757166666667, "type": "electric_scooter"}, {"bike_id": "9346bb49c1ff2ca49a2d10d305953b77", "is_reserved": 0, "fusion_lon": 0.0, "lat": 38.904248833333334, "is_disabled": 0, "name": "9346bb49c1ff2ca49a2d10d305953b77", "fusion_lat": 0.0, "rental_uris": {"ios": "https://dc.lft.to/lastmile_qr_scan", "android": "https://dc.lft.to/lastmile_qr_scan"}, "lon": -77.0325685, "type": "electric_scooter"}, {"bike_id": "11d5b6eac3e2ab1d4c7406fdfc13d592", "is_reserved": 0, "fusion_lon": 0.0, "lat": 38.91121616666667, "is_disabled": 0, "name": "11d5b6eac3e2ab1d4c7406fdfc13d592", "fusion_lat": 0.0, "rental_uris": {"ios": "https://dc.lft.to/lastmile_qr_scan", "android": "https://dc.lft.to/lastmile_qr_scan"}, "lon": -77.0329795, "type": "electric_scooter"}, {"bike_id": "e6090e82622d76e44a068fffc4c08d67", "is_reserved": 0, "fusion_lon": 0.0, "lat": 38.892235166666666, "is_disabled": 0, "name": "e6090e82622d76e44a068fffc4c08d67", "fusion_lat": 0.0, "rental_uris": {"ios": "https://dc.lft.to/lastmile_qr_scan", "android": "https://dc.lft.to/lastmile_qr_scan"}, "lon": -77.026262, "type": "electric_scooter"}, {"bike_id": "9a00f3acce60da13d052a67f915938de", "is_reserved": 0, "fusion_lon": 0.0, "lat": 38.95643233333333, "is_disabled": 0, "name": "9a00f3acce60da13d052a67f915938de", "fusion_lat": 0.0, "rental_uris": {"ios": "https://dc.lft.to/lastmile_qr_scan", "android": "https://dc.lft.to/lastmile_qr_scan"}, "lon": -76.997884, "type": "electric_scooter"}, {"bike_id": "5070b88fcb9d1e22c988eeeed0cb34b6", "is_reserved": 0, "fusion_lon": 0.0, "lat": 38.88750016666667, "is_disabled": 0, "name": "5070b88fcb9d1e22c988eeeed0cb34b6", "fusion_lat": 0.0, "rental_uris": {"ios": "https://dc.lft.to/lastmile_qr_scan", "android": "https://dc.lft.to/lastmile_qr_scan"}, "lon": -77.03121766666666, "type": "electric_scooter"}, {"bike_id": "1411ef32af6f6574c66e87288fed9a8f", "is_reserved": 0, "fusion_lon": 0.0, "lat": 38.912783, "is_disabled": 0, "name": "1411ef32af6f6574c66e87288fed9a8f", "fusion_lat": 0.0, "rental_uris": {"ios": "https://dc.lft.to/lastmile_qr_scan", "android": "https://dc.lft.to/lastmile_qr_scan"}, "lon": -77.01607133333333, "type": "electric_scooter"}, {"bike_id": "21a136c83ae8a4ffc171ffa6fec88865", "is_reserved": 0, "fusion_lon": 0.0, "lat": 38.8896945, "is_disabled": 0, "name": "21a136c83ae8a4ffc171ffa6fec88865", "fusion_lat": 0.0, "rental_uris": {"ios": "https://dc.lft.to/lastmile_qr_scan", "android": "https://dc.lft.to/lastmile_qr_scan"}, "lon": -76.98034433333333, "type": "electric_bike"}, {"bike_id": "951d2484af9e98b70c4a8219eea191a3", "is_reserved": 0, "fusion_lon": 0.0, "lat": 38.9300265, "is_disabled": 0, "name": "951d2484af9e98b70c4a8219eea191a3", "fusion_lat": 0.0, "rental_uris": {"ios": "https://dc.lft.to/lastmile_qr_scan", "android": "https://dc.lft.to/lastmile_qr_scan"}, "lon": -77.05541966666667, "type": "electric_scooter"}, {"bike_id": "465a1eb8cc188a1ffc28388676b4d876", "is_reserved": 0, "fusion_lon": 0.0, "lat": 38.89840133333333, "is_disabled": 0, "name": "465a1eb8cc188a1ffc28388676b4d876", "fusion_lat": 0.0, "rental_uris": {"ios": "https://dc.lft.to/lastmile_qr_scan", "android": "https://dc.lft.to/lastmile_qr_scan"}, "lon": -77.03340316666667, "type": "electric_scooter"}, {"bike_id": "a585cab3a592cad3ee98e02a9d4a4acb", "is_reserved": 0, "fusion_lon": 0.0, "lat": 38.882373666666666, "is_disabled": 0, "name": "a585cab3a592cad3ee98e02a9d4a4acb", "fusion_lat": 0.0, "rental_uris": {"ios": "https://dc.lft.to/lastmile_qr_scan", "android": "https://dc.lft.to/lastmile_qr_scan"}, "lon": -76.99084633333334, "type": "electric_scooter"}, {"bike_id": "206f86bfe7a8b0fa926c77d607e2ef5f", "is_reserved": 0, "fusion_lon": 0.0, "lat": 38.924053666666666, "is_disabled": 0, "name": "206f86bfe7a8b0fa926c77d607e2ef5f", "fusion_lat": 0.0, "rental_uris": {"ios": "https://dc.lft.to/lastmile_qr_scan", "android": "https://dc.lft.to/lastmile_qr_scan"}, "lon": -77.01955433333333, "type": "electric_scooter"}, {"bike_id": "1bf0dabfcd6e6fb292b26d13c48aba8e", "is_reserved": 0, "fusion_lon": 0.0, "lat": 38.8874635, "is_disabled": 0, "name": "1bf0dabfcd6e6fb292b26d13c48aba8e", "fusion_lat": 0.0, "rental_uris": {"ios": "https://dc.lft.to/lastmile_qr_scan", "android": "https://dc.lft.to/lastmile_qr_scan"}, "lon": -77.02011366666666, "type": "electric_scooter"}, {"bike_id": "b9fd7d0b0cee8ae37e8c6b1e632e3eaf", "is_reserved": 0, "fusion_lon": 0.0, "lat": 38.93778866666667, "is_disabled": 0, "name": "b9fd7d0b0cee8ae37e8c6b1e632e3eaf", "fusion_lat": 0.0, "rental_uris": {"ios": "https://dc.lft.to/lastmile_qr_scan", "android": "https://dc.lft.to/lastmile_qr_scan"}, "lon": -77.01911283333334, "type": "electric_bike"}, {"bike_id": "0d24d0146430140f135bb9d671f4e067", "is_reserved": 0, "fusion_lon": 0.0, "lat": 38.8850125, "is_disabled": 0, "name": "0d24d0146430140f135bb9d671f4e067", "fusion_lat": 0.0, "rental_uris": {"ios": "https://dc.lft.to/lastmile_qr_scan", "android": "https://dc.lft.to/lastmile_qr_scan"}, "lon": -77.00729033333333, "type": "electric_scooter"}, {"bike_id": "3c61d02eb04d139f70ec2471408d0afd", "is_reserved": 0, "fusion_lon": 0.0, "lat": 38.9099575, "is_disabled": 0, "name": "3c61d02eb04d139f70ec2471408d0afd", "fusion_lat": 0.0, "rental_uris": {"ios": "https://dc.lft.to/lastmile_qr_scan", "android": "https://dc.lft.to/lastmile_qr_scan"}, "lon": -77.040079, "type": "electric_scooter"}, {"bike_id": "484f33bd9b209c5cb500702d2923aed2", "is_reserved": 0, "fusion_lon": 0.0, "lat": 38.92490816666667, "is_disabled": 0, "name": "484f33bd9b209c5cb500702d2923aed2", "fusion_lat": 0.0, "rental_uris": {"ios": "https://dc.lft.to/lastmile_qr_scan", "android": "https://dc.lft.to/lastmile_qr_scan"}, "lon": -77.027154, "type": "electric_scooter"}, {"bike_id": "9db1cc833ca153ba17707423aab84dae", "is_reserved": 0, "fusion_lon": 0.0, "lat": 38.930871, "is_disabled": 0, "name": "9db1cc833ca153ba17707423aab84dae", "fusion_lat": 0.0, "rental_uris": {"ios": "https://dc.lft.to/lastmile_qr_scan", "android": "https://dc.lft.to/lastmile_qr_scan"}, "lon": -77.02794783333333, "type": "electric_scooter"}, {"bike_id": "e5c14b3f7fceb7171f08d99bc03b6468", "is_reserved": 0, "fusion_lon": 0.0, "lat": 38.925145666666666, "is_disabled": 0, "name": "e5c14b3f7fceb7171f08d99bc03b6468", "fusion_lat": 0.0, "rental_uris": {"ios": "https://dc.lft.to/lastmile_qr_scan", "android": "https://dc.lft.to/lastmile_qr_scan"}, "lon": -77.01935266666666, "type": "electric_scooter"}, {"bike_id": "7b2597d074b0b92c523b22dc2fabb052", "is_reserved": 0, "fusion_lon": 0.0, "lat": 38.86525966666667, "is_disabled": 0, "name": "7b2597d074b0b92c523b22dc2fabb052", "fusion_lat": 0.0, "rental_uris": {"ios": "https://dc.lft.to/lastmile_qr_scan", "android": "https://dc.lft.to/lastmile_qr_scan"}, "lon": -76.99029766666666, "type": "electric_scooter"}, {"bike_id": "dae22c921d386c1266bc1c249ece5adc", "is_reserved": 0, "fusion_lon": 0.0, "lat": 38.9057025, "is_disabled": 0, "name": "dae22c921d386c1266bc1c249ece5adc", "fusion_lat": 0.0, "rental_uris": {"ios": "https://dc.lft.to/lastmile_qr_scan", "android": "https://dc.lft.to/lastmile_qr_scan"}, "lon": -77.0307445, "type": "electric_scooter"}, {"bike_id": "8a807b620bae7778ff9fe78f2e4ef959", "is_reserved": 0, "fusion_lon": 0.0, "lat": 38.9255845, "is_disabled": 0, "name": "8a807b620bae7778ff9fe78f2e4ef959", "fusion_lat": 0.0, "rental_uris": {"ios": "https://dc.lft.to/lastmile_qr_scan", "android": "https://dc.lft.to/lastmile_qr_scan"}, "lon": -77.0733375, "type": "electric_bike"}, {"bike_id": "1480b88117e968e35f891258cf73de9b", "is_reserved": 0, "fusion_lon": 0.0, "lat": 38.920895, "is_disabled": 0, "name": "1480b88117e968e35f891258cf73de9b", "fusion_lat": 0.0, "rental_uris": {"ios": "https://dc.lft.to/lastmile_qr_scan", "android": "https://dc.lft.to/lastmile_qr_scan"}, "lon": -77.0241685, "type": "electric_scooter"}, {"bike_id": "35859923b62ed9dde356f86ff38b2e53", "is_reserved": 0, "fusion_lon": 0.0, "lat": 38.858789333333334, "is_disabled": 0, "name": "35859923b62ed9dde356f86ff38b2e53", "fusion_lat": 0.0, "rental_uris": {"ios": "https://dc.lft.to/lastmile_qr_scan", "android": "https://dc.lft.to/lastmile_qr_scan"}, "lon": -77.095613, "type": "electric_bike"}, {"bike_id": "7f7c0c135fc97f630e1e007d2cd8fc67", "is_reserved": 0, "fusion_lon": 0.0, "lat": 38.91121366666667, "is_disabled": 0, "name": "7f7c0c135fc97f630e1e007d2cd8fc67", "fusion_lat": 0.0, "rental_uris": {"ios": "https://dc.lft.to/lastmile_qr_scan", "android": "https://dc.lft.to/lastmile_qr_scan"}, "lon": -77.03840916666667, "type": "electric_scooter"}, {"bike_id": "14f9d2774d529d4cdf48303d11e2f62c", "is_reserved": 0, "fusion_lon": 0.0, "lat": 38.89856, "is_disabled": 0, "name": "14f9d2774d529d4cdf48303d11e2f62c", "fusion_lat": 0.0, "rental_uris": {"ios": "https://dc.lft.to/lastmile_qr_scan", "android": "https://dc.lft.to/lastmile_qr_scan"}, "lon": -76.99033166666666, "type": "electric_scooter"}, {"bike_id": "f70d49b4fe39117b307b117b6b3f0547", "is_reserved": 0, "fusion_lon": 0.0, "lat": 38.90107616666667, "is_disabled": 0, "name": "f70d49b4fe39117b307b117b6b3f0547", "fusion_lat": 0.0, "rental_uris": {"ios": "https://dc.lft.to/lastmile_qr_scan", "android": "https://dc.lft.to/lastmile_qr_scan"}, "lon": -77.0318495, "type": "electric_scooter"}, {"bike_id": "1de4a9bf787ce91b2632d78aee6d01ce", "is_reserved": 0, "fusion_lon": 0.0, "lat": 38.87141966666667, "is_disabled": 0, "name": "1de4a9bf787ce91b2632d78aee6d01ce", "fusion_lat": 0.0, "rental_uris": {"ios": "https://dc.lft.to/lastmile_qr_scan", "android": "https://dc.lft.to/lastmile_qr_scan"}, "lon": -76.9774105, "type": "electric_scooter"}, {"bike_id": "903bf74c54551892247c12c2eab92e84", "is_reserved": 0, "fusion_lon": 0.0, "lat": 38.901908, "is_disabled": 0, "name": "903bf74c54551892247c12c2eab92e84", "fusion_lat": 0.0, "rental_uris": {"ios": "https://dc.lft.to/lastmile_qr_scan", "android": "https://dc.lft.to/lastmile_qr_scan"}, "lon": -77.021879, "type": "electric_scooter"}, {"bike_id": "c04ce86dd3cf0a26d5b25b63b5b65428", "is_reserved": 0, "fusion_lon": 0.0, "lat": 38.85291633333333, "is_disabled": 0, "name": "c04ce86dd3cf0a26d5b25b63b5b65428", "fusion_lat": 0.0, "rental_uris": {"ios": "https://dc.lft.to/lastmile_qr_scan", "android": "https://dc.lft.to/lastmile_qr_scan"}, "lon": -77.0527585, "type": "electric_bike"}, {"bike_id": "a5a275ba14cf0d7f1a0bb7c753c35ce7", "is_reserved": 0, "fusion_lon": 0.0, "lat": 38.9112525, "is_disabled": 0, "name": "a5a275ba14cf0d7f1a0bb7c753c35ce7", "fusion_lat": 0.0, "rental_uris": {"ios": "https://dc.lft.to/lastmile_qr_scan", "android": "https://dc.lft.to/lastmile_qr_scan"}, "lon": -77.02185066666667, "type": "electric_scooter"}, {"bike_id": "1733414fc57b2916264aa74832222f76", "is_reserved": 0, "fusion_lon": 0.0, "lat": 38.863792833333335, "is_disabled": 0, "name": "1733414fc57b2916264aa74832222f76", "fusion_lat": 0.0, "rental_uris": {"ios": "https://dc.lft.to/lastmile_qr_scan", "android": "https://dc.lft.to/lastmile_qr_scan"}, "lon": -76.9905815, "type": "electric_scooter"}, {"bike_id": "e6dc87691b2aa1af047c1f5502e66ffc", "is_reserved": 0, "fusion_lon": 0.0, "lat": 38.887288833333336, "is_disabled": 0, "name": "e6dc87691b2aa1af047c1f5502e66ffc", "fusion_lat": 0.0, "rental_uris": {"ios": "https://dc.lft.to/lastmile_qr_scan", "android": "https://dc.lft.to/lastmile_qr_scan"}, "lon": -77.025822, "type": "electric_scooter"}, {"bike_id": "4cedabe2392b5a580157c58607619354", "is_reserved": 0, "fusion_lon": 0.0, "lat": 38.91997816666667, "is_disabled": 0, "name": "4cedabe2392b5a580157c58607619354", "fusion_lat": 0.0, "rental_uris": {"ios": "https://dc.lft.to/lastmile_qr_scan", "android": "https://dc.lft.to/lastmile_qr_scan"}, "lon": -77.03884466666666, "type": "electric_scooter"}, {"bike_id": "5c6d71b26177ae8a81a62d5a1eba6297", "is_reserved": 0, "fusion_lon": 0.0, "lat": 38.92482, "is_disabled": 0, "name": "5c6d71b26177ae8a81a62d5a1eba6297", "fusion_lat": 0.0, "rental_uris": {"ios": "https://dc.lft.to/lastmile_qr_scan", "android": "https://dc.lft.to/lastmile_qr_scan"}, "lon": -77.052103, "type": "electric_scooter"}, {"bike_id": "40da2ba53bd3bd2411b051b8267a3503", "is_reserved": 0, "fusion_lon": 0.0, "lat": 38.88438816666667, "is_disabled": 0, "name": "40da2ba53bd3bd2411b051b8267a3503", "fusion_lat": 0.0, "rental_uris": {"ios": "https://dc.lft.to/lastmile_qr_scan", "android": "https://dc.lft.to/lastmile_qr_scan"}, "lon": -77.030362, "type": "electric_scooter"}, {"bike_id": "eab40f31a01cd741edbdd8ae072dbaf3", "is_reserved": 0, "fusion_lon": 0.0, "lat": 38.901744, "is_disabled": 0, "name": "eab40f31a01cd741edbdd8ae072dbaf3", "fusion_lat": 0.0, "rental_uris": {"ios": "https://dc.lft.to/lastmile_qr_scan", "android": "https://dc.lft.to/lastmile_qr_scan"}, "lon": -77.0001005, "type": "electric_scooter"}, {"bike_id": "63495ade809458c428733b7d197eaa0d", "is_reserved": 0, "fusion_lon": 0.0, "lat": 38.914128166666664, "is_disabled": 0, "name": "63495ade809458c428733b7d197eaa0d", "fusion_lat": 0.0, "rental_uris": {"ios": "https://dc.lft.to/lastmile_qr_scan", "android": "https://dc.lft.to/lastmile_qr_scan"}, "lon": -77.0380875, "type": "electric_scooter"}, {"bike_id": "ca99a505d5a7cc17dea28f517d279f03", "is_reserved": 0, "fusion_lon": 0.0, "lat": 38.86356816666667, "is_disabled": 0, "name": "ca99a505d5a7cc17dea28f517d279f03", "fusion_lat": 0.0, "rental_uris": {"ios": "https://dc.lft.to/lastmile_qr_scan", "android": "https://dc.lft.to/lastmile_qr_scan"}, "lon": -76.99064816666667, "type": "electric_scooter"}, {"bike_id": "ffc2792f259428c42fdf08e25e71cfd6", "is_reserved": 0, "fusion_lon": 0.0, "lat": 38.958153833333334, "is_disabled": 0, "name": "ffc2792f259428c42fdf08e25e71cfd6", "fusion_lat": 0.0, "rental_uris": {"ios": "https://dc.lft.to/lastmile_qr_scan", "android": "https://dc.lft.to/lastmile_qr_scan"}, "lon": -77.01379633333333, "type": "electric_bike"}, {"bike_id": "3918fcfc8161086d3d17376366f6508c", "is_reserved": 0, "fusion_lon": 0.0, "lat": 38.9045705, "is_disabled": 0, "name": "3918fcfc8161086d3d17376366f6508c", "fusion_lat": 0.0, "rental_uris": {"ios": "https://dc.lft.to/lastmile_qr_scan", "android": "https://dc.lft.to/lastmile_qr_scan"}, "lon": -77.0591805, "type": "electric_scooter"}, {"bike_id": "ceadfe7c5966b79177953762e3afb74e", "is_reserved": 0, "fusion_lon": 0.0, "lat": 38.864201, "is_disabled": 0, "name": "ceadfe7c5966b79177953762e3afb74e", "fusion_lat": 0.0, "rental_uris": {"ios": "https://dc.lft.to/lastmile_qr_scan", "android": "https://dc.lft.to/lastmile_qr_scan"}, "lon": -77.0134535, "type": "electric_scooter"}, {"bike_id": "aca45e16a5a78dbd366fd87a3cba4cd3", "is_reserved": 0, "fusion_lon": 0.0, "lat": 38.95735916666667, "is_disabled": 0, "name": "aca45e16a5a78dbd366fd87a3cba4cd3", "fusion_lat": 0.0, "rental_uris": {"ios": "https://dc.lft.to/lastmile_qr_scan", "android": "https://dc.lft.to/lastmile_qr_scan"}, "lon": -77.02422783333333, "type": "electric_scooter"}, {"bike_id": "093ccc889c6be2fb268e5c7c61edc96d", "is_reserved": 0, "fusion_lon": 0.0, "lat": 38.99828883333333, "is_disabled": 0, "name": "093ccc889c6be2fb268e5c7c61edc96d", "fusion_lat": 0.0, "rental_uris": {"ios": "https://dc.lft.to/lastmile_qr_scan", "android": "https://dc.lft.to/lastmile_qr_scan"}, "lon": -76.883707, "type": "electric_bike"}, {"bike_id": "7159ff85e8e303b8929bb3f1205d9210", "is_reserved": 0, "fusion_lon": 0.0, "lat": 38.931137, "is_disabled": 0, "name": "7159ff85e8e303b8929bb3f1205d9210", "fusion_lat": 0.0, "rental_uris": {"ios": "https://dc.lft.to/lastmile_qr_scan", "android": "https://dc.lft.to/lastmile_qr_scan"}, "lon": -77.0383725, "type": "electric_scooter"}, {"bike_id": "7a951fcc76f76ce3cef74860dbfc5a29", "is_reserved": 0, "fusion_lon": 0.0, "lat": 38.924781, "is_disabled": 0, "name": "7a951fcc76f76ce3cef74860dbfc5a29", "fusion_lat": 0.0, "rental_uris": {"ios": "https://dc.lft.to/lastmile_qr_scan", "android": "https://dc.lft.to/lastmile_qr_scan"}, "lon": -77.05210233333334, "type": "electric_scooter"}, {"bike_id": "e3bc55bbbb4f4c30342aa48f7308915c", "is_reserved": 0, "fusion_lon": 0.0, "lat": 38.9166455, "is_disabled": 0, "name": "e3bc55bbbb4f4c30342aa48f7308915c", "fusion_lat": 0.0, "rental_uris": {"ios": "https://dc.lft.to/lastmile_qr_scan", "android": "https://dc.lft.to/lastmile_qr_scan"}, "lon": -77.027038, "type": "electric_scooter"}, {"bike_id": "321cbd224b15157dcbd494f50171e2c7", "is_reserved": 0, "fusion_lon": 0.0, "lat": 38.9002675, "is_disabled": 0, "name": "321cbd224b15157dcbd494f50171e2c7", "fusion_lat": 0.0, "rental_uris": {"ios": "https://dc.lft.to/lastmile_qr_scan", "android": "https://dc.lft.to/lastmile_qr_scan"}, "lon": -76.99537583333333, "type": "electric_scooter"}, {"bike_id": "b8f86bb89072f93744bca03cae51d859", "is_reserved": 0, "fusion_lon": 0.0, "lat": 38.90458566666667, "is_disabled": 0, "name": "b8f86bb89072f93744bca03cae51d859", "fusion_lat": 0.0, "rental_uris": {"ios": "https://dc.lft.to/lastmile_qr_scan", "android": "https://dc.lft.to/lastmile_qr_scan"}, "lon": -77.0200645, "type": "electric_scooter"}, {"bike_id": "adcb0416fabc8ff5661c67fd43962f66", "is_reserved": 0, "fusion_lon": 0.0, "lat": 38.901432166666666, "is_disabled": 0, "name": "adcb0416fabc8ff5661c67fd43962f66", "fusion_lat": 0.0, "rental_uris": {"ios": "https://dc.lft.to/lastmile_qr_scan", "android": "https://dc.lft.to/lastmile_qr_scan"}, "lon": -76.997952, "type": "electric_scooter"}, {"bike_id": "e892dad8d4491155d076574d7a26adfb", "is_reserved": 0, "fusion_lon": 0.0, "lat": 38.9048175, "is_disabled": 0, "name": "e892dad8d4491155d076574d7a26adfb", "fusion_lat": 0.0, "rental_uris": {"ios": "https://dc.lft.to/lastmile_qr_scan", "android": "https://dc.lft.to/lastmile_qr_scan"}, "lon": -77.06018083333333, "type": "electric_scooter"}, {"bike_id": "04f81b35a5fbe2429febc55d1e2fdcfe", "is_reserved": 0, "fusion_lon": 0.0, "lat": 38.92109416666667, "is_disabled": 0, "name": "04f81b35a5fbe2429febc55d1e2fdcfe", "fusion_lat": 0.0, "rental_uris": {"ios": "https://dc.lft.to/lastmile_qr_scan", "android": "https://dc.lft.to/lastmile_qr_scan"}, "lon": -77.04224233333333, "type": "electric_scooter"}, {"bike_id": "51af52a5509e4b52ba6f10340b1b8f56", "is_reserved": 0, "fusion_lon": 0.0, "lat": 39.03048616666667, "is_disabled": 0, "name": "51af52a5509e4b52ba6f10340b1b8f56", "fusion_lat": 0.0, "rental_uris": {"ios": "https://dc.lft.to/lastmile_qr_scan", "android": "https://dc.lft.to/lastmile_qr_scan"}, "lon": -77.0947685, "type": "electric_bike"}, {"bike_id": "4639be0c8b94409ea821734653db28e1", "is_reserved": 0, "fusion_lon": 0.0, "lat": 38.907725, "is_disabled": 0, "name": "4639be0c8b94409ea821734653db28e1", "fusion_lat": 0.0, "rental_uris": {"ios": "https://dc.lft.to/lastmile_qr_scan", "android": "https://dc.lft.to/lastmile_qr_scan"}, "lon": -77.06914616666667, "type": "electric_scooter"}, {"bike_id": "f79ccdf48fa9d8abb53c492845b94157", "is_reserved": 0, "fusion_lon": 0.0, "lat": 38.90218183333333, "is_disabled": 0, "name": "f79ccdf48fa9d8abb53c492845b94157", "fusion_lat": 0.0, "rental_uris": {"ios": "https://dc.lft.to/lastmile_qr_scan", "android": "https://dc.lft.to/lastmile_qr_scan"}, "lon": -77.02004933333333, "type": "electric_scooter"}, {"bike_id": "f3bd826ddc6aac63e45140cc84e7b61a", "is_reserved": 0, "fusion_lon": 0.0, "lat": 38.9100505, "is_disabled": 0, "name": "f3bd826ddc6aac63e45140cc84e7b61a", "fusion_lat": 0.0, "rental_uris": {"ios": "https://dc.lft.to/lastmile_qr_scan", "android": "https://dc.lft.to/lastmile_qr_scan"}, "lon": -77.02096, "type": "electric_scooter"}, {"bike_id": "ed7f4caaac3e944a56bc27bc1a40078f", "is_reserved": 0, "fusion_lon": 0.0, "lat": 38.899674, "is_disabled": 0, "name": "ed7f4caaac3e944a56bc27bc1a40078f", "fusion_lat": 0.0, "rental_uris": {"ios": "https://dc.lft.to/lastmile_qr_scan", "android": "https://dc.lft.to/lastmile_qr_scan"}, "lon": -77.0162575, "type": "electric_scooter"}, {"bike_id": "4144b9c80a5696a018dbde15d689c5b5", "is_reserved": 0, "fusion_lon": 0.0, "lat": 38.91543083333333, "is_disabled": 0, "name": "4144b9c80a5696a018dbde15d689c5b5", "fusion_lat": 0.0, "rental_uris": {"ios": "https://dc.lft.to/lastmile_qr_scan", "android": "https://dc.lft.to/lastmile_qr_scan"}, "lon": -77.02351533333334, "type": "electric_scooter"}, {"bike_id": "14121ba16e2705763a2ccd6fbe0e79a2", "is_reserved": 0, "fusion_lon": 0.0, "lat": 38.89377183333333, "is_disabled": 0, "name": "14121ba16e2705763a2ccd6fbe0e79a2", "fusion_lat": 0.0, "rental_uris": {"ios": "https://dc.lft.to/lastmile_qr_scan", "android": "https://dc.lft.to/lastmile_qr_scan"}, "lon": -76.94983983333333, "type": "electric_scooter"}, {"bike_id": "1ee141e62c7ee05d8077e9af5c12638c", "is_reserved": 0, "fusion_lon": 0.0, "lat": 38.9168785, "is_disabled": 0, "name": "1ee141e62c7ee05d8077e9af5c12638c", "fusion_lat": 0.0, "rental_uris": {"ios": "https://dc.lft.to/lastmile_qr_scan", "android": "https://dc.lft.to/lastmile_qr_scan"}, "lon": -77.02897733333333, "type": "electric_scooter"}, {"bike_id": "297f028dc0877d7a8c45c62315ab6abd", "is_reserved": 0, "fusion_lon": 0.0, "lat": 38.91006616666667, "is_disabled": 0, "name": "297f028dc0877d7a8c45c62315ab6abd", "fusion_lat": 0.0, "rental_uris": {"ios": "https://dc.lft.to/lastmile_qr_scan", "android": "https://dc.lft.to/lastmile_qr_scan"}, "lon": -77.0343995, "type": "electric_scooter"}, {"bike_id": "a6c46ad6802effd2c034fcc5d653634c", "is_reserved": 0, "fusion_lon": 0.0, "lat": 38.9244, "is_disabled": 0, "name": "a6c46ad6802effd2c034fcc5d653634c", "fusion_lat": 0.0, "rental_uris": {"ios": "https://dc.lft.to/lastmile_qr_scan", "android": "https://dc.lft.to/lastmile_qr_scan"}, "lon": -77.03372233333333, "type": "electric_scooter"}, {"bike_id": "bcdd53c98f5678bf1565f93ad089d3c2", "is_reserved": 0, "fusion_lon": 0.0, "lat": 38.8748575, "is_disabled": 0, "name": "bcdd53c98f5678bf1565f93ad089d3c2", "fusion_lat": 0.0, "rental_uris": {"ios": "https://dc.lft.to/lastmile_qr_scan", "android": "https://dc.lft.to/lastmile_qr_scan"}, "lon": -76.96522216666666, "type": "electric_bike"}, {"bike_id": "413f26a8458a8f67e9c29fd9863c82c0", "is_reserved": 0, "fusion_lon": 0.0, "lat": 38.9662125, "is_disabled": 0, "name": "413f26a8458a8f67e9c29fd9863c82c0", "fusion_lat": 0.0, "rental_uris": {"ios": "https://dc.lft.to/lastmile_qr_scan", "android": "https://dc.lft.to/lastmile_qr_scan"}, "lon": -77.034299, "type": "electric_bike"}, {"bike_id": "d53ca5a380a4014c8ab5b766cb279c30", "is_reserved": 0, "fusion_lon": 0.0, "lat": 38.9279795, "is_disabled": 0, "name": "d53ca5a380a4014c8ab5b766cb279c30", "fusion_lat": 0.0, "rental_uris": {"ios": "https://dc.lft.to/lastmile_qr_scan", "android": "https://dc.lft.to/lastmile_qr_scan"}, "lon": -77.02602166666667, "type": "electric_scooter"}, {"bike_id": "40dc07592a39a502246d12fdddd841fb", "is_reserved": 0, "fusion_lon": 0.0, "lat": 38.928479, "is_disabled": 0, "name": "40dc07592a39a502246d12fdddd841fb", "fusion_lat": 0.0, "rental_uris": {"ios": "https://dc.lft.to/lastmile_qr_scan", "android": "https://dc.lft.to/lastmile_qr_scan"}, "lon": -77.020578, "type": "electric_bike"}, {"bike_id": "991c8c4a8513400804a6fd087713482a", "is_reserved": 0, "fusion_lon": 0.0, "lat": 38.91619433333334, "is_disabled": 0, "name": "991c8c4a8513400804a6fd087713482a", "fusion_lat": 0.0, "rental_uris": {"ios": "https://dc.lft.to/lastmile_qr_scan", "android": "https://dc.lft.to/lastmile_qr_scan"}, "lon": -77.03644516666667, "type": "electric_scooter"}, {"bike_id": "f70e960d3de53364cc1b5ed8bd2ada1e", "is_reserved": 0, "fusion_lon": 0.0, "lat": 38.88644216666667, "is_disabled": 0, "name": "f70e960d3de53364cc1b5ed8bd2ada1e", "fusion_lat": 0.0, "rental_uris": {"ios": "https://dc.lft.to/lastmile_qr_scan", "android": "https://dc.lft.to/lastmile_qr_scan"}, "lon": -77.0213895, "type": "electric_scooter"}, {"bike_id": "3505a5b369589e04e00b1322e735116b", "is_reserved": 0, "fusion_lon": 0.0, "lat": 38.906841, "is_disabled": 0, "name": "3505a5b369589e04e00b1322e735116b", "fusion_lat": 0.0, "rental_uris": {"ios": "https://dc.lft.to/lastmile_qr_scan", "android": "https://dc.lft.to/lastmile_qr_scan"}, "lon": -77.00037, "type": "electric_scooter"}, {"bike_id": "dc70a70956f15ef878e388668dc74c49", "is_reserved": 0, "fusion_lon": 0.0, "lat": 38.924576333333334, "is_disabled": 0, "name": "dc70a70956f15ef878e388668dc74c49", "fusion_lat": 0.0, "rental_uris": {"ios": "https://dc.lft.to/lastmile_qr_scan", "android": "https://dc.lft.to/lastmile_qr_scan"}, "lon": -76.99912833333333, "type": "electric_scooter"}, {"bike_id": "a9d21f0cb13c65213a6ea1a30d04d107", "is_reserved": 0, "fusion_lon": 0.0, "lat": 38.903599, "is_disabled": 0, "name": "a9d21f0cb13c65213a6ea1a30d04d107", "fusion_lat": 0.0, "rental_uris": {"ios": "https://dc.lft.to/lastmile_qr_scan", "android": "https://dc.lft.to/lastmile_qr_scan"}, "lon": -77.038443, "type": "electric_scooter"}, {"bike_id": "2c5a9dc616c056fc94bf5981dd5f7b53", "is_reserved": 0, "fusion_lon": 0.0, "lat": 38.813356166666665, "is_disabled": 0, "name": "2c5a9dc616c056fc94bf5981dd5f7b53", "fusion_lat": 0.0, "rental_uris": {"ios": "https://dc.lft.to/lastmile_qr_scan", "android": "https://dc.lft.to/lastmile_qr_scan"}, "lon": -77.0511295, "type": "electric_bike"}, {"bike_id": "ea6b379e33419a5d21fb3a43258742e2", "is_reserved": 0, "fusion_lon": 0.0, "lat": 38.90731266666667, "is_disabled": 0, "name": "ea6b379e33419a5d21fb3a43258742e2", "fusion_lat": 0.0, "rental_uris": {"ios": "https://dc.lft.to/lastmile_qr_scan", "android": "https://dc.lft.to/lastmile_qr_scan"}, "lon": -77.04348083333333, "type": "electric_scooter"}, {"bike_id": "e0c54e5d7ceb65ce4a7ac4bd7f9bf43e", "is_reserved": 0, "fusion_lon": 0.0, "lat": 38.91787766666667, "is_disabled": 0, "name": "e0c54e5d7ceb65ce4a7ac4bd7f9bf43e", "fusion_lat": 0.0, "rental_uris": {"ios": "https://dc.lft.to/lastmile_qr_scan", "android": "https://dc.lft.to/lastmile_qr_scan"}, "lon": -77.02693483333333, "type": "electric_scooter"}, {"bike_id": "e6d95efd4405d7fd3d160547f2333ac1", "is_reserved": 0, "fusion_lon": 0.0, "lat": 38.861812666666665, "is_disabled": 0, "name": "e6d95efd4405d7fd3d160547f2333ac1", "fusion_lat": 0.0, "rental_uris": {"ios": "https://dc.lft.to/lastmile_qr_scan", "android": "https://dc.lft.to/lastmile_qr_scan"}, "lon": -76.969106, "type": "electric_scooter"}, {"bike_id": "0534505e2196d13a8bfdb4e14ba881d6", "is_reserved": 0, "fusion_lon": 0.0, "lat": 38.900370333333335, "is_disabled": 0, "name": "0534505e2196d13a8bfdb4e14ba881d6", "fusion_lat": 0.0, "rental_uris": {"ios": "https://dc.lft.to/lastmile_qr_scan", "android": "https://dc.lft.to/lastmile_qr_scan"}, "lon": -77.01193816666667, "type": "electric_scooter"}, {"bike_id": "90aafa34d6cbd47be29dc313d426062c", "is_reserved": 0, "fusion_lon": 0.0, "lat": 38.91707183333333, "is_disabled": 0, "name": "90aafa34d6cbd47be29dc313d426062c", "fusion_lat": 0.0, "rental_uris": {"ios": "https://dc.lft.to/lastmile_qr_scan", "android": "https://dc.lft.to/lastmile_qr_scan"}, "lon": -77.02254466666666, "type": "electric_scooter"}, {"bike_id": "bfea9a0b3aa7170203adceda3c060c14", "is_reserved": 0, "fusion_lon": 0.0, "lat": 38.86564083333333, "is_disabled": 0, "name": "bfea9a0b3aa7170203adceda3c060c14", "fusion_lat": 0.0, "rental_uris": {"ios": "https://dc.lft.to/lastmile_qr_scan", "android": "https://dc.lft.to/lastmile_qr_scan"}, "lon": -76.98951, "type": "electric_scooter"}, {"bike_id": "d6e58cd6ee374435a19f8f29a035eae5", "is_reserved": 0, "fusion_lon": 0.0, "lat": 38.898266666666665, "is_disabled": 0, "name": "d6e58cd6ee374435a19f8f29a035eae5", "fusion_lat": 0.0, "rental_uris": {"ios": "https://dc.lft.to/lastmile_qr_scan", "android": "https://dc.lft.to/lastmile_qr_scan"}, "lon": -77.03347516666666, "type": "electric_scooter"}, {"bike_id": "d190c75a9011f80fde44ae46928623e3", "is_reserved": 0, "fusion_lon": 0.0, "lat": 38.9733175, "is_disabled": 0, "name": "d190c75a9011f80fde44ae46928623e3", "fusion_lat": 0.0, "rental_uris": {"ios": "https://dc.lft.to/lastmile_qr_scan", "android": "https://dc.lft.to/lastmile_qr_scan"}, "lon": -77.02149966666667, "type": "electric_bike"}, {"bike_id": "a9fee08a8d6cb4dae75de724e13d6727", "is_reserved": 0, "fusion_lon": 0.0, "lat": 38.918038333333335, "is_disabled": 0, "name": "a9fee08a8d6cb4dae75de724e13d6727", "fusion_lat": 0.0, "rental_uris": {"ios": "https://dc.lft.to/lastmile_qr_scan", "android": "https://dc.lft.to/lastmile_qr_scan"}, "lon": -77.03442616666666, "type": "electric_scooter"}, {"bike_id": "00412dd7aac315e168855f228b30e2f0", "is_reserved": 0, "fusion_lon": 0.0, "lat": 38.90746933333333, "is_disabled": 0, "name": "00412dd7aac315e168855f228b30e2f0", "fusion_lat": 0.0, "rental_uris": {"ios": "https://dc.lft.to/lastmile_qr_scan", "android": "https://dc.lft.to/lastmile_qr_scan"}, "lon": -77.03467433333333, "type": "electric_scooter"}, {"bike_id": "0933d9bf092ad6daded6a080651aa8f6", "is_reserved": 0, "fusion_lon": 0.0, "lat": 38.91480766666667, "is_disabled": 0, "name": "0933d9bf092ad6daded6a080651aa8f6", "fusion_lat": 0.0, "rental_uris": {"ios": "https://dc.lft.to/lastmile_qr_scan", "android": "https://dc.lft.to/lastmile_qr_scan"}, "lon": -77.01276133333333, "type": "electric_scooter"}, {"bike_id": "75ab5a093a25fe1352de94e5f72d805b", "is_reserved": 0, "fusion_lon": 0.0, "lat": 38.89832466666667, "is_disabled": 0, "name": "75ab5a093a25fe1352de94e5f72d805b", "fusion_lat": 0.0, "rental_uris": {"ios": "https://dc.lft.to/lastmile_qr_scan", "android": "https://dc.lft.to/lastmile_qr_scan"}, "lon": -76.94633033333334, "type": "electric_scooter"}, {"bike_id": "b705bebd1048d98d940c7ace1d66a595", "is_reserved": 0, "fusion_lon": 0.0, "lat": 38.9060275, "is_disabled": 0, "name": "b705bebd1048d98d940c7ace1d66a595", "fusion_lat": 0.0, "rental_uris": {"ios": "https://dc.lft.to/lastmile_qr_scan", "android": "https://dc.lft.to/lastmile_qr_scan"}, "lon": -77.062981, "type": "electric_scooter"}, {"bike_id": "0dc7f33f2e51a962199006078025579d", "is_reserved": 0, "fusion_lon": 0.0, "lat": 38.93341433333333, "is_disabled": 0, "name": "0dc7f33f2e51a962199006078025579d", "fusion_lat": 0.0, "rental_uris": {"ios": "https://dc.lft.to/lastmile_qr_scan", "android": "https://dc.lft.to/lastmile_qr_scan"}, "lon": -77.03281366666667, "type": "electric_scooter"}, {"bike_id": "de324cf7139a91797d0fe3c31a303cdb", "is_reserved": 0, "fusion_lon": 0.0, "lat": 38.901281166666664, "is_disabled": 0, "name": "de324cf7139a91797d0fe3c31a303cdb", "fusion_lat": 0.0, "rental_uris": {"ios": "https://dc.lft.to/lastmile_qr_scan", "android": "https://dc.lft.to/lastmile_qr_scan"}, "lon": -77.01968133333334, "type": "electric_scooter"}, {"bike_id": "a2a8a35a0987d3e43cd250e937725958", "is_reserved": 0, "fusion_lon": 0.0, "lat": 38.912579, "is_disabled": 0, "name": "a2a8a35a0987d3e43cd250e937725958", "fusion_lat": 0.0, "rental_uris": {"ios": "https://dc.lft.to/lastmile_qr_scan", "android": "https://dc.lft.to/lastmile_qr_scan"}, "lon": -77.0144385, "type": "electric_scooter"}, {"bike_id": "a917be85ee96dfb583acb733ea5f9cbb", "is_reserved": 0, "fusion_lon": 0.0, "lat": 38.94555233333333, "is_disabled": 0, "name": "a917be85ee96dfb583acb733ea5f9cbb", "fusion_lat": 0.0, "rental_uris": {"ios": "https://dc.lft.to/lastmile_qr_scan", "android": "https://dc.lft.to/lastmile_qr_scan"}, "lon": -76.895391, "type": "electric_bike"}, {"bike_id": "59bc800cd0da38963f81602bda4e8d4f", "is_reserved": 0, "fusion_lon": 0.0, "lat": 38.9333595, "is_disabled": 0, "name": "59bc800cd0da38963f81602bda4e8d4f", "fusion_lat": 0.0, "rental_uris": {"ios": "https://dc.lft.to/lastmile_qr_scan", "android": "https://dc.lft.to/lastmile_qr_scan"}, "lon": -77.03263516666667, "type": "electric_scooter"}, {"bike_id": "ed3fadfbd585792763de1157c6c0f913", "is_reserved": 0, "fusion_lon": 0.0, "lat": 38.89489366666667, "is_disabled": 0, "name": "ed3fadfbd585792763de1157c6c0f913", "fusion_lat": 0.0, "rental_uris": {"ios": "https://dc.lft.to/lastmile_qr_scan", "android": "https://dc.lft.to/lastmile_qr_scan"}, "lon": -77.0120775, "type": "electric_scooter"}, {"bike_id": "089bc313f5c0522dee1482632a4d178b", "is_reserved": 0, "fusion_lon": 0.0, "lat": 38.900120666666666, "is_disabled": 0, "name": "089bc313f5c0522dee1482632a4d178b", "fusion_lat": 0.0, "rental_uris": {"ios": "https://dc.lft.to/lastmile_qr_scan", "android": "https://dc.lft.to/lastmile_qr_scan"}, "lon": -77.046745, "type": "electric_scooter"}, {"bike_id": "ff84fcc908479ef7328bdec3dfad7e00", "is_reserved": 0, "fusion_lon": 0.0, "lat": 38.88398566666667, "is_disabled": 0, "name": "ff84fcc908479ef7328bdec3dfad7e00", "fusion_lat": 0.0, "rental_uris": {"ios": "https://dc.lft.to/lastmile_qr_scan", "android": "https://dc.lft.to/lastmile_qr_scan"}, "lon": -76.93041566666666, "type": "electric_scooter"}, {"bike_id": "02e0e1096fad3b057bfa3fd36ceb7c42", "is_reserved": 0, "fusion_lon": 0.0, "lat": 38.84428716666667, "is_disabled": 0, "name": "02e0e1096fad3b057bfa3fd36ceb7c42", "fusion_lat": 0.0, "rental_uris": {"ios": "https://dc.lft.to/lastmile_qr_scan", "android": "https://dc.lft.to/lastmile_qr_scan"}, "lon": -76.99775883333334, "type": "electric_scooter"}, {"bike_id": "93428344663211f81e627754b24f10b8", "is_reserved": 0, "fusion_lon": 0.0, "lat": 38.90679633333333, "is_disabled": 0, "name": "93428344663211f81e627754b24f10b8", "fusion_lat": 0.0, "rental_uris": {"ios": "https://dc.lft.to/lastmile_qr_scan", "android": "https://dc.lft.to/lastmile_qr_scan"}, "lon": -77.03534566666667, "type": "electric_scooter"}, {"bike_id": "9e80e577acbfe5c3e864766ce23cbbb7", "is_reserved": 0, "fusion_lon": 0.0, "lat": 38.87361816666667, "is_disabled": 0, "name": "9e80e577acbfe5c3e864766ce23cbbb7", "fusion_lat": 0.0, "rental_uris": {"ios": "https://dc.lft.to/lastmile_qr_scan", "android": "https://dc.lft.to/lastmile_qr_scan"}, "lon": -76.97167566666667, "type": "electric_scooter"}, {"bike_id": "9cbfbf4711d71da3d4bf1d8acd632d0f", "is_reserved": 0, "fusion_lon": 0.0, "lat": 38.897784333333334, "is_disabled": 0, "name": "9cbfbf4711d71da3d4bf1d8acd632d0f", "fusion_lat": 0.0, "rental_uris": {"ios": "https://dc.lft.to/lastmile_qr_scan", "android": "https://dc.lft.to/lastmile_qr_scan"}, "lon": -77.03183783333333, "type": "electric_scooter"}, {"bike_id": "f27e8aa53a169fe088c1797917468706", "is_reserved": 0, "fusion_lon": 0.0, "lat": 38.9310345, "is_disabled": 0, "name": "f27e8aa53a169fe088c1797917468706", "fusion_lat": 0.0, "rental_uris": {"ios": "https://dc.lft.to/lastmile_qr_scan", "android": "https://dc.lft.to/lastmile_qr_scan"}, "lon": -77.0247595, "type": "electric_scooter"}, {"bike_id": "9c435dd682429349cc10bdc33d0027a9", "is_reserved": 0, "fusion_lon": 0.0, "lat": 38.90018416666667, "is_disabled": 0, "name": "9c435dd682429349cc10bdc33d0027a9", "fusion_lat": 0.0, "rental_uris": {"ios": "https://dc.lft.to/lastmile_qr_scan", "android": "https://dc.lft.to/lastmile_qr_scan"}, "lon": -77.030156, "type": "electric_scooter"}, {"bike_id": "ea75ca28b976b2e493eefd6756e7282d", "is_reserved": 0, "fusion_lon": 0.0, "lat": 38.9308345, "is_disabled": 0, "name": "ea75ca28b976b2e493eefd6756e7282d", "fusion_lat": 0.0, "rental_uris": {"ios": "https://dc.lft.to/lastmile_qr_scan", "android": "https://dc.lft.to/lastmile_qr_scan"}, "lon": -77.02794983333334, "type": "electric_scooter"}, {"bike_id": "8cdf3c3f6381e835ab31f1eeb5c0f30b", "is_reserved": 0, "fusion_lon": 0.0, "lat": 38.94181716666667, "is_disabled": 0, "name": "8cdf3c3f6381e835ab31f1eeb5c0f30b", "fusion_lat": 0.0, "rental_uris": {"ios": "https://dc.lft.to/lastmile_qr_scan", "android": "https://dc.lft.to/lastmile_qr_scan"}, "lon": -77.0252855, "type": "electric_scooter"}, {"bike_id": "67f446a154c67f25e3c6291007666c98", "is_reserved": 0, "fusion_lon": 0.0, "lat": 38.92361966666667, "is_disabled": 0, "name": "67f446a154c67f25e3c6291007666c98", "fusion_lat": 0.0, "rental_uris": {"ios": "https://dc.lft.to/lastmile_qr_scan", "android": "https://dc.lft.to/lastmile_qr_scan"}, "lon": -77.05242616666666, "type": "electric_scooter"}, {"bike_id": "deb0dd671f587112df892abcbf5bde9c", "is_reserved": 0, "fusion_lon": 0.0, "lat": 38.93459083333333, "is_disabled": 0, "name": "deb0dd671f587112df892abcbf5bde9c", "fusion_lat": 0.0, "rental_uris": {"ios": "https://dc.lft.to/lastmile_qr_scan", "android": "https://dc.lft.to/lastmile_qr_scan"}, "lon": -77.0233975, "type": "electric_scooter"}, {"bike_id": "ed8b322e5296e41ab8e537be4cd6557c", "is_reserved": 0, "fusion_lon": 0.0, "lat": 38.894804666666666, "is_disabled": 0, "name": "ed8b322e5296e41ab8e537be4cd6557c", "fusion_lat": 0.0, "rental_uris": {"ios": "https://dc.lft.to/lastmile_qr_scan", "android": "https://dc.lft.to/lastmile_qr_scan"}, "lon": -76.995359, "type": "electric_scooter"}, {"bike_id": "ffe8a4c3418cf2cdbeb38017d6fadfea", "is_reserved": 0, "fusion_lon": 0.0, "lat": 38.8841305, "is_disabled": 0, "name": "ffe8a4c3418cf2cdbeb38017d6fadfea", "fusion_lat": 0.0, "rental_uris": {"ios": "https://dc.lft.to/lastmile_qr_scan", "android": "https://dc.lft.to/lastmile_qr_scan"}, "lon": -77.0173365, "type": "electric_scooter"}, {"bike_id": "3ca0ed5f2fae9a13c5da082b99856e2b", "is_reserved": 0, "fusion_lon": 0.0, "lat": 38.924701666666664, "is_disabled": 0, "name": "3ca0ed5f2fae9a13c5da082b99856e2b", "fusion_lat": 0.0, "rental_uris": {"ios": "https://dc.lft.to/lastmile_qr_scan", "android": "https://dc.lft.to/lastmile_qr_scan"}, "lon": -77.0283295, "type": "electric_scooter"}, {"bike_id": "2ecc2afea05236bcdfd4dcbac5cd110b", "is_reserved": 0, "fusion_lon": 0.0, "lat": 38.90498633333333, "is_disabled": 0, "name": "2ecc2afea05236bcdfd4dcbac5cd110b", "fusion_lat": 0.0, "rental_uris": {"ios": "https://dc.lft.to/lastmile_qr_scan", "android": "https://dc.lft.to/lastmile_qr_scan"}, "lon": -77.0061365, "type": "electric_scooter"}, {"bike_id": "a72ed6a706a8344ba8b02b9c0bef5fec", "is_reserved": 0, "fusion_lon": 0.0, "lat": 38.90477816666667, "is_disabled": 0, "name": "a72ed6a706a8344ba8b02b9c0bef5fec", "fusion_lat": 0.0, "rental_uris": {"ios": "https://dc.lft.to/lastmile_qr_scan", "android": "https://dc.lft.to/lastmile_qr_scan"}, "lon": -77.04664633333333, "type": "electric_scooter"}, {"bike_id": "2ed53206fb5ca223299f9c86bdd833ba", "is_reserved": 0, "fusion_lon": 0.0, "lat": 38.9057115, "is_disabled": 0, "name": "2ed53206fb5ca223299f9c86bdd833ba", "fusion_lat": 0.0, "rental_uris": {"ios": "https://dc.lft.to/lastmile_qr_scan", "android": "https://dc.lft.to/lastmile_qr_scan"}, "lon": -77.02464866666666, "type": "electric_scooter"}, {"bike_id": "f42b599638c0ccee53f80afff7473f3e", "is_reserved": 0, "fusion_lon": 0.0, "lat": 38.8832615, "is_disabled": 0, "name": "f42b599638c0ccee53f80afff7473f3e", "fusion_lat": 0.0, "rental_uris": {"ios": "https://dc.lft.to/lastmile_qr_scan", "android": "https://dc.lft.to/lastmile_qr_scan"}, "lon": -77.01769566666667, "type": "electric_scooter"}, {"bike_id": "5294ea618ff2a049edf36213ab1d7d1f", "is_reserved": 0, "fusion_lon": 0.0, "lat": 38.931164, "is_disabled": 0, "name": "5294ea618ff2a049edf36213ab1d7d1f", "fusion_lat": 0.0, "rental_uris": {"ios": "https://dc.lft.to/lastmile_qr_scan", "android": "https://dc.lft.to/lastmile_qr_scan"}, "lon": -77.02098183333334, "type": "electric_scooter"}, {"bike_id": "5a080d03e74c7cddfe6a247740ed76e7", "is_reserved": 0, "fusion_lon": 0.0, "lat": 38.909028666666664, "is_disabled": 0, "name": "5a080d03e74c7cddfe6a247740ed76e7", "fusion_lat": 0.0, "rental_uris": {"ios": "https://dc.lft.to/lastmile_qr_scan", "android": "https://dc.lft.to/lastmile_qr_scan"}, "lon": -77.02689966666667, "type": "electric_scooter"}, {"bike_id": "08bd64ddb6fa029b442b0ed512875bc3", "is_reserved": 0, "fusion_lon": 0.0, "lat": 38.9128725, "is_disabled": 0, "name": "08bd64ddb6fa029b442b0ed512875bc3", "fusion_lat": 0.0, "rental_uris": {"ios": "https://dc.lft.to/lastmile_qr_scan", "android": "https://dc.lft.to/lastmile_qr_scan"}, "lon": -77.02300216666667, "type": "electric_scooter"}, {"bike_id": "5024469ace7277b5ab2c295455dc0d2e", "is_reserved": 0, "fusion_lon": 0.0, "lat": 38.91887883333333, "is_disabled": 0, "name": "5024469ace7277b5ab2c295455dc0d2e", "fusion_lat": 0.0, "rental_uris": {"ios": "https://dc.lft.to/lastmile_qr_scan", "android": "https://dc.lft.to/lastmile_qr_scan"}, "lon": -76.97158833333333, "type": "electric_scooter"}, {"bike_id": "105fed563b8c70d43390b23ef0b95b97", "is_reserved": 0, "fusion_lon": 0.0, "lat": 38.894947333333334, "is_disabled": 0, "name": "105fed563b8c70d43390b23ef0b95b97", "fusion_lat": 0.0, "rental_uris": {"ios": "https://dc.lft.to/lastmile_qr_scan", "android": "https://dc.lft.to/lastmile_qr_scan"}, "lon": -77.0220425, "type": "electric_scooter"}, {"bike_id": "7ab745f0714a3e264267e3d0de4c89e6", "is_reserved": 0, "fusion_lon": 0.0, "lat": 38.9149605, "is_disabled": 0, "name": "7ab745f0714a3e264267e3d0de4c89e6", "fusion_lat": 0.0, "rental_uris": {"ios": "https://dc.lft.to/lastmile_qr_scan", "android": "https://dc.lft.to/lastmile_qr_scan"}, "lon": -77.02697666666667, "type": "electric_scooter"}, {"bike_id": "3bd94c2e8749906053814cb388b0bc1b", "is_reserved": 0, "fusion_lon": 0.0, "lat": 38.946155833333336, "is_disabled": 0, "name": "3bd94c2e8749906053814cb388b0bc1b", "fusion_lat": 0.0, "rental_uris": {"ios": "https://dc.lft.to/lastmile_qr_scan", "android": "https://dc.lft.to/lastmile_qr_scan"}, "lon": -77.035083, "type": "electric_scooter"}, {"bike_id": "b924a9179280762ad79d6b2d7f28e00c", "is_reserved": 0, "fusion_lon": 0.0, "lat": 38.899422, "is_disabled": 0, "name": "b924a9179280762ad79d6b2d7f28e00c", "fusion_lat": 0.0, "rental_uris": {"ios": "https://dc.lft.to/lastmile_qr_scan", "android": "https://dc.lft.to/lastmile_qr_scan"}, "lon": -77.05423116666667, "type": "electric_scooter"}, {"bike_id": "451f1fa44259702f22047c0675f4dda3", "is_reserved": 0, "fusion_lon": 0.0, "lat": 38.94930566666667, "is_disabled": 0, "name": "451f1fa44259702f22047c0675f4dda3", "fusion_lat": 0.0, "rental_uris": {"ios": "https://dc.lft.to/lastmile_qr_scan", "android": "https://dc.lft.to/lastmile_qr_scan"}, "lon": -77.01939466666667, "type": "electric_scooter"}, {"bike_id": "a9c18998f223e073335d07cc3568eeba", "is_reserved": 0, "fusion_lon": 0.0, "lat": 38.943262833333335, "is_disabled": 0, "name": "a9c18998f223e073335d07cc3568eeba", "fusion_lat": 0.0, "rental_uris": {"ios": "https://dc.lft.to/lastmile_qr_scan", "android": "https://dc.lft.to/lastmile_qr_scan"}, "lon": -77.0739195, "type": "electric_scooter"}, {"bike_id": "39e1dce51623fa9ed16a6ea33e98f50c", "is_reserved": 0, "fusion_lon": 0.0, "lat": 38.90981933333333, "is_disabled": 0, "name": "39e1dce51623fa9ed16a6ea33e98f50c", "fusion_lat": 0.0, "rental_uris": {"ios": "https://dc.lft.to/lastmile_qr_scan", "android": "https://dc.lft.to/lastmile_qr_scan"}, "lon": -77.06711566666667, "type": "electric_scooter"}, {"bike_id": "e4a82e713beae91cdafd68fda2fabf2a", "is_reserved": 0, "fusion_lon": 0.0, "lat": 38.931646666666666, "is_disabled": 0, "name": "e4a82e713beae91cdafd68fda2fabf2a", "fusion_lat": 0.0, "rental_uris": {"ios": "https://dc.lft.to/lastmile_qr_scan", "android": "https://dc.lft.to/lastmile_qr_scan"}, "lon": -77.0564345, "type": "electric_scooter"}, {"bike_id": "873c601c6215256e0587bdc23f06eb1f", "is_reserved": 0, "fusion_lon": 0.0, "lat": 38.8998075, "is_disabled": 0, "name": "873c601c6215256e0587bdc23f06eb1f", "fusion_lat": 0.0, "rental_uris": {"ios": "https://dc.lft.to/lastmile_qr_scan", "android": "https://dc.lft.to/lastmile_qr_scan"}, "lon": -77.01553466666667, "type": "electric_scooter"}, {"bike_id": "c542c60fd22a1045f4c51ba8e88c7adf", "is_reserved": 0, "fusion_lon": 0.0, "lat": 38.88773833333333, "is_disabled": 0, "name": "c542c60fd22a1045f4c51ba8e88c7adf", "fusion_lat": 0.0, "rental_uris": {"ios": "https://dc.lft.to/lastmile_qr_scan", "android": "https://dc.lft.to/lastmile_qr_scan"}, "lon": -76.93264, "type": "electric_scooter"}, {"bike_id": "47e556f72145018d96c46fc32cdeebce", "is_reserved": 0, "fusion_lon": 0.0, "lat": 38.909456666666664, "is_disabled": 0, "name": "47e556f72145018d96c46fc32cdeebce", "fusion_lat": 0.0, "rental_uris": {"ios": "https://dc.lft.to/lastmile_qr_scan", "android": "https://dc.lft.to/lastmile_qr_scan"}, "lon": -77.03843666666667, "type": "electric_scooter"}, {"bike_id": "d7b044b1c6185bb2e12e1c2917a553b2", "is_reserved": 0, "fusion_lon": 0.0, "lat": 38.89910533333333, "is_disabled": 0, "name": "d7b044b1c6185bb2e12e1c2917a553b2", "fusion_lat": 0.0, "rental_uris": {"ios": "https://dc.lft.to/lastmile_qr_scan", "android": "https://dc.lft.to/lastmile_qr_scan"}, "lon": -77.03970283333334, "type": "electric_scooter"}, {"bike_id": "78d496c18bc09e34626ba7063a866453", "is_reserved": 0, "fusion_lon": 0.0, "lat": 38.896699166666664, "is_disabled": 0, "name": "78d496c18bc09e34626ba7063a866453", "fusion_lat": 0.0, "rental_uris": {"ios": "https://dc.lft.to/lastmile_qr_scan", "android": "https://dc.lft.to/lastmile_qr_scan"}, "lon": -77.02617266666667, "type": "electric_scooter"}, {"bike_id": "44d84d6209935a9197dc2aabc9db212a", "is_reserved": 0, "fusion_lon": 0.0, "lat": 38.903277833333334, "is_disabled": 0, "name": "44d84d6209935a9197dc2aabc9db212a", "fusion_lat": 0.0, "rental_uris": {"ios": "https://dc.lft.to/lastmile_qr_scan", "android": "https://dc.lft.to/lastmile_qr_scan"}, "lon": -77.06608366666667, "type": "electric_scooter"}, {"bike_id": "6bb77b54eef5cd3e4d4915453e33d8ed", "is_reserved": 0, "fusion_lon": 0.0, "lat": 38.902816, "is_disabled": 0, "name": "6bb77b54eef5cd3e4d4915453e33d8ed", "fusion_lat": 0.0, "rental_uris": {"ios": "https://dc.lft.to/lastmile_qr_scan", "android": "https://dc.lft.to/lastmile_qr_scan"}, "lon": -77.0385055, "type": "electric_scooter"},