{"data": {"bikes": [{"rental_uris": {"ios": "https://dc.lft.to/lastmile_qr_scan", "android": "https://dc.lft.to/lastmile_qr_scan"}, "lon": -77.0461105, "type": "electric_scooter", "fusion_lat": 0.0, "lat": 38.902183666666666, "name": "18b0b810b04223add24a3022444842a2", "fusion_lon": 0.0, "bike_id": "18b0b810b04223add24a3022444842a2", "is_disabled": 0, "is_reserved": 0}, {"rental_uris": {"ios": "https://dc.lft.to/lastmile_qr_scan", "android": "https://dc.lft.to/lastmile_qr_scan"}, "lon": -77.052669, "type": "electric_scooter", "fusion_lat": 0.0, "lat": 38.910059, "name": "c441bcea08505d5832c5d1dc107a7dd3", "fusion_lon": 0.0, "bike_id": "c441bcea08505d5832c5d1dc107a7dd3", "is_disabled": 0, "is_reserved": 0}, {"rental_uris": {"ios": "https://dc.lft.to/lastmile_qr_scan", "android": "https://dc.lft.to/lastmile_qr_scan"}, "lon": -77.03804183333334, "type": "electric_scooter", "fusion_lat": 0.0, "lat": 38.9219125, "name": "ab59ac5423fdfc1a218647c1f5db33e6", "fusion_lon": 0.0, "bike_id": "ab59ac5423fdfc1a218647c1f5db33e6", "is_disabled": 0, "is_reserved": 0}, {"rental_uris": {"ios": "https://dc.lft.to/lastmile_qr_scan", "android": "https://dc.lft.to/lastmile_qr_scan"}, "lon": -77.0257845, "type": "electric_scooter", "fusion_lat": 0.0, "lat": 38.91819066666667, "name": "77c29fbfb7c4f4ea45927be30697f8d0", "fusion_lon": 0.0, "bike_id": "77c29fbfb7c4f4ea45927be30697f8d0", "is_disabled": 0, "is_reserved": 0}, {"rental_uris": {"ios": "https://dc.lft.to/lastmile_qr_scan", "android": "https://dc.lft.to/lastmile_qr_scan"}, "lon": -77.03966666666666, "type": "electric_scooter", "fusion_lat": 0.0, "lat": 38.902407333333336, "name": "f53064c4a8de4888d0438e21b14a30de", "fusion_lon": 0.0, "bike_id": "f53064c4a8de4888d0438e21b14a30de", "is_disabled": 0, "is_reserved": 0}, {"rental_uris": {"ios": "https://dc.lft.to/lastmile_qr_scan", "android": "https://dc.lft.to/lastmile_qr_scan"}, "lon": -77.050287, "type": "electric_scooter", "fusion_lat": 0.0, "lat": 38.89663383333333, "name": "77eaf8fc9b8221503b8dba3c47da81b1", "fusion_lon": 0.0, "bike_id": "77eaf8fc9b8221503b8dba3c47da81b1", "is_disabled": 0, "is_reserved": 0}, {"rental_uris": {"ios": "https://dc.lft.to/lastmile_qr_scan", "android": "https://dc.lft.to/lastmile_qr_scan"}, "lon": -77.03673116666667, "type": "electric_scooter", "fusion_lat": 0.0, "lat": 38.92991883333333, "name": "8547ce1cce2f12f271fa5572f0f3bf31", "fusion_lon": 0.0, "bike_id": "8547ce1cce2f12f271fa5572f0f3bf31", "is_disabled": 0, "is_reserved": 0}, {"rental_uris": {"ios": "https://dc.lft.to/lastmile_qr_scan", "android": "https://dc.lft.to/lastmile_qr_scan"}, "lon": -77.02454466666667, "type": "electric_scooter", "fusion_lat": 0.0, "lat": 38.97935783333333, "name": "0ac455dd54ff3a8be434dcaa4e554009", "fusion_lon": 0.0, "bike_id": "0ac455dd54ff3a8be434dcaa4e554009", "is_disabled": 0, "is_reserved": 0}, {"rental_uris": {"ios": "https://dc.lft.to/lastmile_qr_scan", "android": "https://dc.lft.to/lastmile_qr_scan"}, "lon": -77.04124616666667, "type": "electric_scooter", "fusion_lat": 0.0, "lat": 38.923518333333334, "name": "5aa54c66a7cf3c48f61cd9433ed1eb00", "fusion_lon": 0.0, "bike_id": "5aa54c66a7cf3c48f61cd9433ed1eb00", "is_disabled": 0, "is_reserved": 0}, {"rental_uris": {"ios": "https://dc.lft.to/lastmile_qr_scan", "android": "https://dc.lft.to/lastmile_qr_scan"}, "lon": -76.97329383333333, "type": "electric_bike", "fusion_lat": 0.0, "lat": 38.850620166666666, "name": "f18b8716d6df6551d21c7a05feac694a", "fusion_lon": 0.0, "bike_id": "f18b8716d6df6551d21c7a05feac694a", "is_disabled": 0, "is_reserved": 0}, {"rental_uris": {"ios": "https://dc.lft.to/lastmile_qr_scan", "android": "https://dc.lft.to/lastmile_qr_scan"}, "lon": -77.03099583333334, "type": "electric_scooter", "fusion_lat": 0.0, "lat": 38.904477666666665, "name": "d5889de377409675532185b1612766ab", "fusion_lon": 0.0, "bike_id": "d5889de377409675532185b1612766ab", "is_disabled": 0, "is_reserved": 0}, {"rental_uris": {"ios": "https://dc.lft.to/lastmile_qr_scan", "android": "https://dc.lft.to/lastmile_qr_scan"}, "lon": -77.047977, "type": "electric_scooter", "fusion_lat": 0.0, "lat": 38.907251, "name": "38343c873bc3d2707a748d7c371e42a5", "fusion_lon": 0.0, "bike_id": "38343c873bc3d2707a748d7c371e42a5", "is_disabled": 0, "is_reserved": 0}, {"rental_uris": {"ios": "https://dc.lft.to/lastmile_qr_scan", "android": "https://dc.lft.to/lastmile_qr_scan"}, "lon": -77.09670866666667, "type": "electric_scooter", "fusion_lat": 0.0, "lat": 38.91767, "name": "ce39ee89d48115e601399c46c76261eb", "fusion_lon": 0.0, "bike_id": "ce39ee89d48115e601399c46c76261eb", "is_disabled": 0, "is_reserved": 0}, {"rental_uris": {"ios": "https://dc.lft.to/lastmile_qr_scan", "android": "https://dc.lft.to/lastmile_qr_scan"}, "lon": -77.04433083333333, "type": "electric_scooter", "fusion_lat": 0.0, "lat": 38.918979666666665, "name": "e99e19b3494c473db94acb0e9212e1b3", "fusion_lon": 0.0, "bike_id": "e99e19b3494c473db94acb0e9212e1b3", "is_disabled": 0, "is_reserved": 0}, {"rental_uris": {"ios": "https://dc.lft.to/lastmile_qr_scan", "android": "https://dc.lft.to/lastmile_qr_scan"}, "lon": -77.032248, "type": "electric_scooter", "fusion_lat": 0.0, "lat": 38.908639, "name": "9028d24db28b4c86720dd29fe949b9a1", "fusion_lon": 0.0, "bike_id": "9028d24db28b4c86720dd29fe949b9a1", "is_disabled": 0, "is_reserved": 0}, {"rental_uris": {"ios": "https://dc.lft.to/lastmile_qr_scan", "android": "https://dc.lft.to/lastmile_qr_scan"}, "lon": -76.9888585, "type": "electric_scooter", "fusion_lat": 0.0, "lat": 38.866568666666666, "name": "741caace05e23d73644db6cee97b71d4", "fusion_lon": 0.0, "bike_id": "741caace05e23d73644db6cee97b71d4", "is_disabled": 0, "is_reserved": 0}, {"rental_uris": {"ios": "https://dc.lft.to/lastmile_qr_scan", "android": "https://dc.lft.to/lastmile_qr_scan"}, "lon": -76.97704916666666, "type": "electric_scooter", "fusion_lat": 0.0, "lat": 38.90255666666667, "name": "c68185cb27a5e4cf5527e771d60eba49", "fusion_lon": 0.0, "bike_id": "c68185cb27a5e4cf5527e771d60eba49", "is_disabled": 0, "is_reserved": 0}, {"rental_uris": {"ios": "https://dc.lft.to/lastmile_qr_scan", "android": "https://dc.lft.to/lastmile_qr_scan"}, "lon": -76.93742233333333, "type": "electric_scooter", "fusion_lat": 0.0, "lat": 38.91292966666666, "name": "3a0c5b66f0c1a64b3d02e2ba746f53ea", "fusion_lon": 0.0, "bike_id": "3a0c5b66f0c1a64b3d02e2ba746f53ea", "is_disabled": 0, "is_reserved": 0}, {"rental_uris": {"ios": "https://dc.lft.to/lastmile_qr_scan", "android": "https://dc.lft.to/lastmile_qr_scan"}, "lon": -76.98589433333333, "type": "electric_bike", "fusion_lat": 0.0, "lat": 38.9062075, "name": "50bd4c71ccad8b7e68e635225ee99511", "fusion_lon": 0.0, "bike_id": "50bd4c71ccad8b7e68e635225ee99511", "is_disabled": 0, "is_reserved": 0}, {"rental_uris": {"ios": "https://dc.lft.to/lastmile_qr_scan", "android": "https://dc.lft.to/lastmile_qr_scan"}, "lon": -77.04258733333333, "type": "electric_scooter", "fusion_lat": 0.0, "lat": 38.92052133333333, "name": "acdbb79ad2b342f6dce25daef300eb26", "fusion_lon": 0.0, "bike_id": "acdbb79ad2b342f6dce25daef300eb26", "is_disabled": 0, "is_reserved": 0}, {"rental_uris": {"ios": "https://dc.lft.to/lastmile_qr_scan", "android": "https://dc.lft.to/lastmile_qr_scan"}, "lon": -77.01393966666667, "type": "electric_scooter", "fusion_lat": 0.0, "lat": 38.91947433333333, "name": "50159e995170a975d265cc1e0b17f06e", "fusion_lon": 0.0, "bike_id": "50159e995170a975d265cc1e0b17f06e", "is_disabled": 0, "is_reserved": 0}, {"rental_uris": {"ios": "https://dc.lft.to/lastmile_qr_scan", "android": "https://dc.lft.to/lastmile_qr_scan"}, "lon": -76.98563983333334, "type": "electric_scooter", "fusion_lat": 0.0, "lat": 38.899544, "name": "0aa75cbfed67eb50f86f23573f79c5d8", "fusion_lon": 0.0, "bike_id": "0aa75cbfed67eb50f86f23573f79c5d8", "is_disabled": 0, "is_reserved": 0}, {"rental_uris": {"ios": "https://dc.lft.to/lastmile_qr_scan", "android": "https://dc.lft.to/lastmile_qr_scan"}, "lon": -76.93174933333333, "type": "electric_scooter", "fusion_lat": 0.0, "lat": 38.8988625, "name": "82cc3d1676f48054e0a87156ae210041", "fusion_lon": 0.0, "bike_id": "82cc3d1676f48054e0a87156ae210041", "is_disabled": 0, "is_reserved": 0}, {"rental_uris": {"ios": "https://dc.lft.to/lastmile_qr_scan", "android": "https://dc.lft.to/lastmile_qr_scan"}, "lon": -76.988886, "type": "electric_scooter", "fusion_lat": 0.0, "lat": 38.86657683333333, "name": "4bbfcb42e690aa01eb84321619bb55ab", "fusion_lon": 0.0, "bike_id": "4bbfcb42e690aa01eb84321619bb55ab", "is_disabled": 0, "is_reserved": 0}, {"rental_uris": {"ios": "https://dc.lft.to/lastmile_qr_scan", "android": "https://dc.lft.to/lastmile_qr_scan"}, "lon": -77.0297555, "type": "electric_scooter", "fusion_lat": 0.0, "lat": 38.93881, "name": "28d5c4a39b5191209bf21b6391503e55", "fusion_lon": 0.0, "bike_id": "28d5c4a39b5191209bf21b6391503e55", "is_disabled": 0, "is_reserved": 0}, {"rental_uris": {"ios": "https://dc.lft.to/lastmile_qr_scan", "android": "https://dc.lft.to/lastmile_qr_scan"}, "lon": -76.92371033333333, "type": "electric_bike", "fusion_lat": 0.0, "lat": 38.88374866666667, "name": "dd3af6fe18643b38fd2b0c2d9fce9ff3", "fusion_lon": 0.0, "bike_id": "dd3af6fe18643b38fd2b0c2d9fce9ff3", "is_disabled": 0, "is_reserved": 0}, {"rental_uris": {"ios": "https://dc.lft.to/lastmile_qr_scan", "android": "https://dc.lft.to/lastmile_qr_scan"}, "lon": -77.02666266666667, "type": "electric_scooter", "fusion_lat": 0.0, "lat": 38.89577516666667, "name": "fca5dee7709df6184043aa5e302e128f", "fusion_lon": 0.0, "bike_id": "fca5dee7709df6184043aa5e302e128f", "is_disabled": 0, "is_reserved": 0}, {"rental_uris": {"ios": "https://dc.lft.to/lastmile_qr_scan", "android": "https://dc.lft.to/lastmile_qr_scan"}, "lon": -77.01183283333333, "type": "electric_scooter", "fusion_lat": 0.0, "lat": 38.911132333333335, "name": "e9a6b40a90aab72df232171a474927c1", "fusion_lon": 0.0, "bike_id": "e9a6b40a90aab72df232171a474927c1", "is_disabled": 0, "is_reserved": 0}, {"rental_uris": {"ios": "https://dc.lft.to/lastmile_qr_scan", "android": "https://dc.lft.to/lastmile_qr_scan"}, "lon": -77.11315216666667, "type": "electric_bike", "fusion_lat": 0.0, "lat": 38.8556555, "name": "607f529a0f322a44044c89b88f3fc5a2", "fusion_lon": 0.0, "bike_id": "607f529a0f322a44044c89b88f3fc5a2", "is_disabled": 0, "is_reserved": 0}, {"rental_uris": {"ios": "https://dc.lft.to/lastmile_qr_scan", "android": "https://dc.lft.to/lastmile_qr_scan"}, "lon": -77.04062133333333, "type": "electric_scooter", "fusion_lat": 0.0, "lat": 38.92395166666667, "name": "2e0c07a276c47a9eac96cbd1c1ee2e22", "fusion_lon": 0.0, "bike_id": "2e0c07a276c47a9eac96cbd1c1ee2e22", "is_disabled": 0, "is_reserved": 0}, {"rental_uris": {"ios": "https://dc.lft.to/lastmile_qr_scan", "android": "https://dc.lft.to/lastmile_qr_scan"}, "lon": -77.07085383333333, "type": "electric_bike", "fusion_lat": 0.0, "lat": 38.95558833333333, "name": "7081ee1e82b337cbd4dae830d6be8f9f", "fusion_lon": 0.0, "bike_id": "7081ee1e82b337cbd4dae830d6be8f9f", "is_disabled": 0, "is_reserved": 0}, {"rental_uris": {"ios": "https://dc.lft.to/lastmile_qr_scan", "android": "https://dc.lft.to/lastmile_qr_scan"}, "lon": -77.01219533333334, "type": "electric_scooter", "fusion_lat": 0.0, "lat": 38.912824666666666, "name": "1326339508cd2278ffc33999defc375f", "fusion_lon": 0.0, "bike_id": "1326339508cd2278ffc33999defc375f", "is_disabled": 0, "is_reserved": 0}, {"rental_uris": {"ios": "https://dc.lft.to/lastmile_qr_scan", "android": "https://dc.lft.to/lastmile_qr_scan"}, "lon": -77.04007566666667, "type": "electric_scooter", "fusion_lat": 0.0, "lat": 38.903689166666666, "name": "f44a90baf8ea000e93480a03ace3735b", "fusion_lon": 0.0, "bike_id": "f44a90baf8ea000e93480a03ace3735b", "is_disabled": 0, "is_reserved": 0}, {"rental_uris": {"ios": "https://dc.lft.to/lastmile_qr_scan", "android": "https://dc.lft.to/lastmile_qr_scan"}, "lon": -77.04711416666666, "type": "electric_scooter", "fusion_lat": 0.0, "lat": 38.90360583333333, "name": "6eca488e9c40dd2950f2dfabbe519a29", "fusion_lon": 0.0, "bike_id": "6eca488e9c40dd2950f2dfabbe519a29", "is_disabled": 0, "is_reserved": 0}, {"rental_uris": {"ios": "https://dc.lft.to/lastmile_qr_scan", "android": "https://dc.lft.to/lastmile_qr_scan"}, "lon": -77.03856083333334, "type": "electric_scooter", "fusion_lat": 0.0, "lat": 38.902857, "name": "51755e630dabf14c1db696862b9155c1", "fusion_lon": 0.0, "bike_id": "51755e630dabf14c1db696862b9155c1", "is_disabled": 0, "is_reserved": 0}, {"rental_uris": {"ios": "https://dc.lft.to/lastmile_qr_scan", "android": "https://dc.lft.to/lastmile_qr_scan"}, "lon": -77.027154, "type": "electric_scooter", "fusion_lat": 0.0, "lat": 38.906845, "name": "19c75b0062ff5b077d4e57b78b3a2512", "fusion_lon": 0.0, "bike_id": "19c75b0062ff5b077d4e57b78b3a2512", "is_disabled": 0, "is_reserved": 0}, {"rental_uris": {"ios": "https://dc.lft.to/lastmile_qr_scan", "android": "https://dc.lft.to/lastmile_qr_scan"}, "lon": -77.0300615, "type": "electric_scooter", "fusion_lat": 0.0, "lat": 38.91256166666667, "name": "0fa5c7040ceb17f1735e21d592f3717e", "fusion_lon": 0.0, "bike_id": "0fa5c7040ceb17f1735e21d592f3717e", "is_disabled": 0, "is_reserved": 0}, {"rental_uris": {"ios": "https://dc.lft.to/lastmile_qr_scan", "android": "https://dc.lft.to/lastmile_qr_scan"}, "lon": -77.06882233333333, "type": "electric_scooter", "fusion_lat": 0.0, "lat": 38.90768633333333, "name": "6673cd453c20b741c88b51270d5afdd9", "fusion_lon": 0.0, "bike_id": "6673cd453c20b741c88b51270d5afdd9", "is_disabled": 0, "is_reserved": 0}, {"rental_uris": {"ios": "https://dc.lft.to/lastmile_qr_scan", "android": "https://dc.lft.to/lastmile_qr_scan"}, "lon": -77.02415883333333, "type": "electric_scooter", "fusion_lat": 0.0, "lat": 38.9205105, "name": "2d3ca679f168218095da5ee2fa87d2b9", "fusion_lon": 0.0, "bike_id": "2d3ca679f168218095da5ee2fa87d2b9", "is_disabled": 0, "is_reserved": 0}, {"rental_uris": {"ios": "https://dc.lft.to/lastmile_qr_scan", "android": "https://dc.lft.to/lastmile_qr_scan"}, "lon": -77.0296305, "type": "electric_scooter", "fusion_lat": 0.0, "lat": 38.907266166666666, "name": "00aea42a6f9e7bfef59d2e94f95a41e5", "fusion_lon": 0.0, "bike_id": "00aea42a6f9e7bfef59d2e94f95a41e5", "is_disabled": 0, "is_reserved": 0}, {"rental_uris": {"ios": "https://dc.lft.to/lastmile_qr_scan", "android": "https://dc.lft.to/lastmile_qr_scan"}, "lon": -77.03723433333333, "type": "electric_scooter", "fusion_lat": 0.0, "lat": 38.933590833333334, "name": "5afc0f87c9482c80d6cf691823e0c153", "fusion_lon": 0.0, "bike_id": "5afc0f87c9482c80d6cf691823e0c153", "is_disabled": 0, "is_reserved": 0}, {"rental_uris": {"ios": "https://dc.lft.to/lastmile_qr_scan", "android": "https://dc.lft.to/lastmile_qr_scan"}, "lon": -76.9781425, "type": "electric_scooter", "fusion_lat": 0.0, "lat": 38.906761833333334, "name": "8d12457089ac5d1b0700cf671576aac1", "fusion_lon": 0.0, "bike_id": "8d12457089ac5d1b0700cf671576aac1", "is_disabled": 0, "is_reserved": 0}, {"rental_uris": {"ios": "https://dc.lft.to/lastmile_qr_scan", "android": "https://dc.lft.to/lastmile_qr_scan"}, "lon": -77.11210666666666, "type": "electric_bike", "fusion_lat": 0.0, "lat": 38.81306883333333, "name": "6a06e08b814d52b85efd3feebc1e35e2", "fusion_lon": 0.0, "bike_id": "6a06e08b814d52b85efd3feebc1e35e2", "is_disabled": 0, "is_reserved": 0}, {"rental_uris": {"ios": "https://dc.lft.to/lastmile_qr_scan", "android": "https://dc.lft.to/lastmile_qr_scan"}, "lon": -76.9354625, "type": "electric_bike", "fusion_lat": 0.0, "lat": 38.955585666666664, "name": "1bcf80eef78b7c56412fd7f8f87ad9c0", "fusion_lon": 0.0, "bike_id": "1bcf80eef78b7c56412fd7f8f87ad9c0", "is_disabled": 0, "is_reserved": 0}, {"rental_uris": {"ios": "https://dc.lft.to/lastmile_qr_scan", "android": "https://dc.lft.to/lastmile_qr_scan"}, "lon": -77.1225835, "type": "electric_bike", "fusion_lat": 0.0, "lat": 38.891872666666664, "name": "1a40e4d324d22dd5c49bd53e86054191", "fusion_lon": 0.0, "bike_id": "1a40e4d324d22dd5c49bd53e86054191", "is_disabled": 0, "is_reserved": 0}, {"rental_uris": {"ios": "https://dc.lft.to/lastmile_qr_scan", "android": "https://dc.lft.to/lastmile_qr_scan"}, "lon": -77.0432295, "type": "electric_scooter", "fusion_lat": 0.0, "lat": 38.91488833333333, "name": "416d952b1bc71856b95604ce4cfcd658", "fusion_lon": 0.0, "bike_id": "416d952b1bc71856b95604ce4cfcd658", "is_disabled": 0, "is_reserved": 0}, {"rental_uris": {"ios": "https://dc.lft.to/lastmile_qr_scan", "android": "https://dc.lft.to/lastmile_qr_scan"}, "lon": -77.0480415, "type": "electric_scooter", "fusion_lat": 0.0, "lat": 38.896147666666664, "name": "ac6d7c97ca50cb88552afbcb174a213a", "fusion_lon": 0.0, "bike_id": "ac6d7c97ca50cb88552afbcb174a213a", "is_disabled": 0, "is_reserved": 0}, {"rental_uris": {"ios": "https://dc.lft.to/lastmile_qr_scan", "android": "https://dc.lft.to/lastmile_qr_scan"}, "lon": -77.04380666666667, "type": "electric_scooter", "fusion_lat": 0.0, "lat": 38.92070433333333, "name": "62be7802cd594c947444e235449536ec", "fusion_lon": 0.0, "bike_id": "62be7802cd594c947444e235449536ec", "is_disabled": 0, "is_reserved": 0}, {"rental_uris": {"ios": "https://dc.lft.to/lastmile_qr_scan", "android": "https://dc.lft.to/lastmile_qr_scan"}, "lon": -77.0768065, "type": "electric_bike", "fusion_lat": 0.0, "lat": 38.83194066666667, "name": "75d288027515ca9f04144e4d59668ea4", "fusion_lon": 0.0, "bike_id": "75d288027515ca9f04144e4d59668ea4", "is_disabled": 0, "is_reserved": 0}, {"rental_uris": {"ios": "https://dc.lft.to/lastmile_qr_scan", "android": "https://dc.lft.to/lastmile_qr_scan"}, "lon": -77.03487233333334, "type": "electric_scooter", "fusion_lat": 0.0, "lat": 38.919099, "name": "2d08fc8b328376c39bc30d49c6aa2296", "fusion_lon": 0.0, "bike_id": "2d08fc8b328376c39bc30d49c6aa2296", "is_disabled": 0, "is_reserved": 0}, {"rental_uris": {"ios": "https://dc.lft.to/lastmile_qr_scan", "android": "https://dc.lft.to/lastmile_qr_scan"}, "lon": -77.04732866666667, "type": "electric_scooter", "fusion_lat": 0.0, "lat": 38.9021795, "name": "f011412db8d19932f5dcd972be642d06", "fusion_lon": 0.0, "bike_id": "f011412db8d19932f5dcd972be642d06", "is_disabled": 0, "is_reserved": 0}, {"rental_uris": {"ios": "https://dc.lft.to/lastmile_qr_scan", "android": "https://dc.lft.to/lastmile_qr_scan"}, "lon": -77.029544, "type": "electric_scooter", "fusion_lat": 0.0, "lat": 38.884474, "name": "da005fc1178cf188247fa8b30e30d9d9", "fusion_lon": 0.0, "bike_id": "da005fc1178cf188247fa8b30e30d9d9", "is_disabled": 0, "is_reserved": 0}, {"rental_uris": {"ios": "https://dc.lft.to/lastmile_qr_scan", "android": "https://dc.lft.to/lastmile_qr_scan"}, "lon": -77.02319466666667, "type": "electric_scooter", "fusion_lat": 0.0, "lat": 38.8834475, "name": "44cffd628a4d2f004ff822735bfa14bb", "fusion_lon": 0.0, "bike_id": "44cffd628a4d2f004ff822735bfa14bb", "is_disabled": 0, "is_reserved": 0}, {"rental_uris": {"ios": "https://dc.lft.to/lastmile_qr_scan", "android": "https://dc.lft.to/lastmile_qr_scan"}, "lon": -77.02509216666667, "type": "electric_bike", "fusion_lat": 0.0, "lat": 38.9341265, "name": "56f8e3b3b3cfa6988181b00a92717e4b", "fusion_lon": 0.0, "bike_id": "56f8e3b3b3cfa6988181b00a92717e4b", "is_disabled": 0, "is_reserved": 0}, {"rental_uris": {"ios": "https://dc.lft.to/lastmile_qr_scan", "android": "https://dc.lft.to/lastmile_qr_scan"}, "lon": -77.03450966666666, "type": "electric_scooter", "fusion_lat": 0.0, "lat": 38.91155583333333, "name": "f1b6fe010f8c2753d1aceede3c4b828b", "fusion_lon": 0.0, "bike_id": "f1b6fe010f8c2753d1aceede3c4b828b", "is_disabled": 0, "is_reserved": 0}, {"rental_uris": {"ios": "https://dc.lft.to/lastmile_qr_scan", "android": "https://dc.lft.to/lastmile_qr_scan"}, "lon": -77.04052933333334, "type": "electric_scooter", "fusion_lat": 0.0, "lat": 38.917443, "name": "8c6bd4653a1f3ec35f51fba651e4db02", "fusion_lon": 0.0, "bike_id": "8c6bd4653a1f3ec35f51fba651e4db02", "is_disabled": 0, "is_reserved": 0}, {"rental_uris": {"ios": "https://dc.lft.to/lastmile_qr_scan", "android": "https://dc.lft.to/lastmile_qr_scan"}, "lon": -76.98507166666667, "type": "electric_scooter", "fusion_lat": 0.0, "lat": 38.900889, "name": "82fee7145747217589c1041b6416bed2", "fusion_lon": 0.0, "bike_id": "82fee7145747217589c1041b6416bed2", "is_disabled": 0, "is_reserved": 0}, {"rental_uris": {"ios": "https://dc.lft.to/lastmile_qr_scan", "android": "https://dc.lft.to/lastmile_qr_scan"}, "lon": -77.05415366666666, "type": "electric_scooter", "fusion_lat": 0.0, "lat": 38.903984666666666, "name": "cfbb4ca110395a94bc6187a8a15025bc", "fusion_lon": 0.0, "bike_id": "cfbb4ca110395a94bc6187a8a15025bc", "is_disabled": 0, "is_reserved": 0}, {"rental_uris": {"ios": "https://dc.lft.to/lastmile_qr_scan", "android": "https://dc.lft.to/lastmile_qr_scan"}, "lon": -76.99068916666667, "type": "electric_scooter", "fusion_lat": 0.0, "lat": 38.90419416666667, "name": "cc860dc2722545b95fd68ef892c0a477", "fusion_lon": 0.0, "bike_id": "cc860dc2722545b95fd68ef892c0a477", "is_disabled": 0, "is_reserved": 0}, {"rental_uris": {"ios": "https://dc.lft.to/lastmile_qr_scan", "android": "https://dc.lft.to/lastmile_qr_scan"}, "lon": -77.09160483333334, "type": "electric_bike", "fusion_lat": 0.0, "lat": 38.9676565, "name": "f6868ce1675e58891ab2c52c85fbbf48", "fusion_lon": 0.0, "bike_id": "f6868ce1675e58891ab2c52c85fbbf48", "is_disabled": 0, "is_reserved": 0}, {"rental_uris": {"ios": "https://dc.lft.to/lastmile_qr_scan", "android": "https://dc.lft.to/lastmile_qr_scan"}, "lon": -77.01982766666667, "type": "electric_bike", "fusion_lat": 0.0, "lat": 38.95660183333333, "name": "16d33428fcac7cab0d0a0efba2463878", "fusion_lon": 0.0, "bike_id": "16d33428fcac7cab0d0a0efba2463878", "is_disabled": 0, "is_reserved": 0}, {"rental_uris": {"ios": "https://dc.lft.to/lastmile_qr_scan", "android": "https://dc.lft.to/lastmile_qr_scan"}, "lon": -77.02589316666666, "type": "electric_scooter", "fusion_lat": 0.0, "lat": 38.915559333333334, "name": "e0e560ad6a81f57b77d31ebdab03fc56", "fusion_lon": 0.0, "bike_id": "e0e560ad6a81f57b77d31ebdab03fc56", "is_disabled": 0, "is_reserved": 0}, {"rental_uris": {"ios": "https://dc.lft.to/lastmile_qr_scan", "android": "https://dc.lft.to/lastmile_qr_scan"}, "lon": -77.0436925, "type": "electric_scooter", "fusion_lat": 0.0, "lat": 38.92065233333334, "name": "f01e78ce7a27ced0d2866a70edacf37f", "fusion_lon": 0.0, "bike_id": "f01e78ce7a27ced0d2866a70edacf37f", "is_disabled": 0, "is_reserved": 0}, {"rental_uris": {"ios": "https://dc.lft.to/lastmile_qr_scan", "android": "https://dc.lft.to/lastmile_qr_scan"}, "lon": -77.13093416666666, "type": "electric_bike", "fusion_lat": 0.0, "lat": 38.8616285, "name": "103a9c4b7c69234b035addfd3b42e6b8", "fusion_lon": 0.0, "bike_id": "103a9c4b7c69234b035addfd3b42e6b8", "is_disabled": 0, "is_reserved": 0}, {"rental_uris": {"ios": "https://dc.lft.to/lastmile_qr_scan", "android": "https://dc.lft.to/lastmile_qr_scan"}, "lon": -77.0314315, "type": "electric_scooter", "fusion_lat": 0.0, "lat": 38.9376695, "name": "31b4c9e509b874155581ff981d33244e", "fusion_lon": 0.0, "bike_id": "31b4c9e509b874155581ff981d33244e", "is_disabled": 0, "is_reserved": 0}, {"rental_uris": {"ios": "https://dc.lft.to/lastmile_qr_scan", "android": "https://dc.lft.to/lastmile_qr_scan"}, "lon": -77.0161445, "type": "electric_scooter", "fusion_lat": 0.0, "lat": 38.906097833333334, "name": "190ff766caf23fb2df84a1dcac4ee859", "fusion_lon": 0.0, "bike_id": "190ff766caf23fb2df84a1dcac4ee859", "is_disabled": 0, "is_reserved": 0}, {"rental_uris": {"ios": "https://dc.lft.to/lastmile_qr_scan", "android": "https://dc.lft.to/lastmile_qr_scan"}, "lon": -77.04190483333333, "type": "electric_scooter", "fusion_lat": 0.0, "lat": 38.89929333333333, "name": "a214f21847412c1b97c0955ad5b27e36", "fusion_lon": 0.0, "bike_id": "a214f21847412c1b97c0955ad5b27e36", "is_disabled": 0, "is_reserved": 0}, {"rental_uris": {"ios": "https://dc.lft.to/lastmile_qr_scan", "android": "https://dc.lft.to/lastmile_qr_scan"}, "lon": -77.02317233333333, "type": "electric_scooter", "fusion_lat": 0.0, "lat": 38.881926, "name": "71cac8e7afd2f236d945e01a7412ad9b", "fusion_lon": 0.0, "bike_id": "71cac8e7afd2f236d945e01a7412ad9b", "is_disabled": 0, "is_reserved": 0}, {"rental_uris": {"ios": "https://dc.lft.to/lastmile_qr_scan", "android": "https://dc.lft.to/lastmile_qr_scan"}, "lon": -76.9809085, "type": "electric_bike", "fusion_lat": 0.0, "lat": 38.8813475, "name": "ce43887551ab72859540564a43ea8a7a", "fusion_lon": 0.0, "bike_id": "ce43887551ab72859540564a43ea8a7a", "is_disabled": 0, "is_reserved": 0}, {"rental_uris": {"ios": "https://dc.lft.to/lastmile_qr_scan", "android": "https://dc.lft.to/lastmile_qr_scan"}, "lon": -77.02460766666667, "type": "electric_scooter", "fusion_lat": 0.0, "lat": 38.908516, "name": "b852a856a7a72696131273002a9d4c3a", "fusion_lon": 0.0, "bike_id": "b852a856a7a72696131273002a9d4c3a", "is_disabled": 0, "is_reserved": 0}, {"rental_uris": {"ios": "https://dc.lft.to/lastmile_qr_scan", "android": "https://dc.lft.to/lastmile_qr_scan"}, "lon": -77.07721516666666, "type": "electric_scooter", "fusion_lat": 0.0, "lat": 38.9470695, "name": "7290ad83d9cfce0c58ecc9696f0f3885", "fusion_lon": 0.0, "bike_id": "7290ad83d9cfce0c58ecc9696f0f3885", "is_disabled": 0, "is_reserved": 0}, {"rental_uris": {"ios": "https://dc.lft.to/lastmile_qr_scan", "android": "https://dc.lft.to/lastmile_qr_scan"}, "lon": -76.99369966666667, "type": "electric_scooter", "fusion_lat": 0.0, "lat": 38.879742666666665, "name": "e9a59400f5dea68ea301d9e330d7d8ed", "fusion_lon": 0.0, "bike_id": "e9a59400f5dea68ea301d9e330d7d8ed", "is_disabled": 0, "is_reserved": 0}, {"rental_uris": {"ios": "https://dc.lft.to/lastmile_qr_scan", "android": "https://dc.lft.to/lastmile_qr_scan"}, "lon": -77.05531766666667, "type": "electric_scooter", "fusion_lat": 0.0, "lat": 38.89899833333333, "name": "516af1bd1196a1202cc3a72eb1b723e7", "fusion_lon": 0.0, "bike_id": "516af1bd1196a1202cc3a72eb1b723e7", "is_disabled": 0, "is_reserved": 0}, {"rental_uris": {"ios": "https://dc.lft.to/lastmile_qr_scan", "android": "https://dc.lft.to/lastmile_qr_scan"}, "lon": -77.03321766666667, "type": "electric_scooter", "fusion_lat": 0.0, "lat": 38.912577, "name": "6a21ccbde03ae746ecd3195478b1e919", "fusion_lon": 0.0, "bike_id": "6a21ccbde03ae746ecd3195478b1e919", "is_disabled": 0, "is_reserved": 0}, {"rental_uris": {"ios": "https://dc.lft.to/lastmile_qr_scan", "android": "https://dc.lft.to/lastmile_qr_scan"}, "lon": -77.0222255, "type": "electric_scooter", "fusion_lat": 0.0, "lat": 38.91267833333333, "name": "e85996f283583f1a6267d47251aa15e9", "fusion_lon": 0.0, "bike_id": "e85996f283583f1a6267d47251aa15e9", "is_disabled": 0, "is_reserved": 0}, {"rental_uris": {"ios": "https://dc.lft.to/lastmile_qr_scan", "android": "https://dc.lft.to/lastmile_qr_scan"}, "lon": -76.98882183333333, "type": "electric_scooter", "fusion_lat": 0.0, "lat": 38.866581333333336, "name": "a477000787fddc495b898c80057d8a05", "fusion_lon": 0.0, "bike_id": "a477000787fddc495b898c80057d8a05", "is_disabled": 0, "is_reserved": 0}, {"rental_uris": {"ios": "https://dc.lft.to/lastmile_qr_scan", "android": "https://dc.lft.to/lastmile_qr_scan"}, "lon": -77.041593, "type": "electric_scooter", "fusion_lat": 0.0, "lat": 38.9141825, "name": "c862d7da22fcdea18c54288469cf66c9", "fusion_lon": 0.0, "bike_id": "c862d7da22fcdea18c54288469cf66c9", "is_disabled": 0, "is_reserved": 0}, {"rental_uris": {"ios": "https://dc.lft.to/lastmile_qr_scan", "android": "https://dc.lft.to/lastmile_qr_scan"}, "lon": -77.011575, "type": "electric_scooter", "fusion_lat": 0.0, "lat": 38.90022116666667, "name": "ca4ee9b41376b27677bf020a376e9f6b", "fusion_lon": 0.0, "bike_id": "ca4ee9b41376b27677bf020a376e9f6b", "is_disabled": 0, "is_reserved": 0}, {"rental_uris": {"ios": "https://dc.lft.to/lastmile_qr_scan", "android": "https://dc.lft.to/lastmile_qr_scan"}, "lon": -77.022276, "type": "electric_scooter", "fusion_lat": 0.0, "lat": 38.89222733333333, "name": "3cbea798f3e968c8683fe590144170d1", "fusion_lon": 0.0, "bike_id": "3cbea798f3e968c8683fe590144170d1", "is_disabled": 0, "is_reserved": 0}, {"rental_uris": {"ios": "https://dc.lft.to/lastmile_qr_scan", "android": "https://dc.lft.to/lastmile_qr_scan"}, "lon": -77.038418, "type": "electric_scooter", "fusion_lat": 0.0, "lat": 38.90829683333333, "name": "c8cf6e82792cdeaceb1400642d152c34", "fusion_lon": 0.0, "bike_id": "c8cf6e82792cdeaceb1400642d152c34", "is_disabled": 0, "is_reserved": 0}, {"rental_uris": {"ios": "https://dc.lft.to/lastmile_qr_scan", "android": "https://dc.lft.to/lastmile_qr_scan"}, "lon": -77.08539966666666, "type": "electric_bike", "fusion_lat": 0.0, "lat": 38.8562, "name": "7062cc112e407e52717e3f5e1aec58b3", "fusion_lon": 0.0, "bike_id": "7062cc112e407e52717e3f5e1aec58b3", "is_disabled": 0, "is_reserved": 0}, {"rental_uris": {"ios": "https://dc.lft.to/lastmile_qr_scan", "android": "https://dc.lft.to/lastmile_qr_scan"}, "lon": -77.029772, "type": "electric_scooter", "fusion_lat": 0.0, "lat": 38.9622915, "name": "97a9abb5dc2f151f20e3f1063d0e78d1", "fusion_lon": 0.0, "bike_id": "97a9abb5dc2f151f20e3f1063d0e78d1", "is_disabled": 0, "is_reserved": 0}, {"rental_uris": {"ios": "https://dc.lft.to/lastmile_qr_scan", "android": "https://dc.lft.to/lastmile_qr_scan"}, "lon": -77.04036733333334, "type": "electric_scooter", "fusion_lat": 0.0, "lat": 38.90369066666667, "name": "c925a7ae6a8e38ceba4b0f533046b792", "fusion_lon": 0.0, "bike_id": "c925a7ae6a8e38ceba4b0f533046b792", "is_disabled": 0, "is_reserved": 0}, {"rental_uris": {"ios": "https://dc.lft.to/lastmile_qr_scan", "android": "https://dc.lft.to/lastmile_qr_scan"}, "lon": -77.03656233333334, "type": "electric_scooter", "fusion_lat": 0.0, "lat": 38.90274333333333, "name": "2fdeacf5481123d64baa4007e6b82f67", "fusion_lon": 0.0, "bike_id": "2fdeacf5481123d64baa4007e6b82f67", "is_disabled": 0, "is_reserved": 0}, {"rental_uris": {"ios": "https://dc.lft.to/lastmile_qr_scan", "android": "https://dc.lft.to/lastmile_qr_scan"}, "lon": -77.12961283333334, "type": "electric_bike", "fusion_lat": 0.0, "lat": 38.8079265, "name": "3cea3ec27a9b0997697d0283bfe394cc", "fusion_lon": 0.0, "bike_id": "3cea3ec27a9b0997697d0283bfe394cc", "is_disabled": 0, "is_reserved": 0}, {"rental_uris": {"ios": "https://dc.lft.to/lastmile_qr_scan", "android": "https://dc.lft.to/lastmile_qr_scan"}, "lon": -77.0321025, "type": "electric_scooter", "fusion_lat": 0.0, "lat": 38.89234616666667, "name": "de4068ddc85c85fe9e69a652bf16a969", "fusion_lon": 0.0, "bike_id": "de4068ddc85c85fe9e69a652bf16a969", "is_disabled": 0, "is_reserved": 0}, {"rental_uris": {"ios": "https://dc.lft.to/lastmile_qr_scan", "android": "https://dc.lft.to/lastmile_qr_scan"}, "lon": -77.01282666666667, "type": "electric_bike", "fusion_lat": 0.0, "lat": 39.003829333333336, "name": "9997f6bac30e87065ab343398c49473f", "fusion_lon": 0.0, "bike_id": "9997f6bac30e87065ab343398c49473f", "is_disabled": 0, "is_reserved": 0}, {"rental_uris": {"ios": "https://dc.lft.to/lastmile_qr_scan", "android": "https://dc.lft.to/lastmile_qr_scan"}, "lon": -77.04491833333333, "type": "electric_scooter", "fusion_lat": 0.0, "lat": 38.911017, "name": "e7bb4147db4fb525723020d722a6e4d1", "fusion_lon": 0.0, "bike_id": "e7bb4147db4fb525723020d722a6e4d1", "is_disabled": 0, "is_reserved": 0}, {"rental_uris": {"ios": "https://dc.lft.to/lastmile_qr_scan", "android": "https://dc.lft.to/lastmile_qr_scan"}, "lon": -77.030261, "type": "electric_scooter", "fusion_lat": 0.0, "lat": 38.896102, "name": "1681646858e5342df89b19f6a5ec8271", "fusion_lon": 0.0, "bike_id": "1681646858e5342df89b19f6a5ec8271", "is_disabled": 0, "is_reserved": 0}, {"rental_uris": {"ios": "https://dc.lft.to/lastmile_qr_scan", "android": "https://dc.lft.to/lastmile_qr_scan"}, "lon": -77.04885716666666, "type": "electric_scooter", "fusion_lat": 0.0, "lat": 38.901774833333334, "name": "1bf1b1a76dbce2839dbc961df269ceb1", "fusion_lon": 0.0, "bike_id": "1bf1b1a76dbce2839dbc961df269ceb1", "is_disabled": 0, "is_reserved": 0}, {"rental_uris": {"ios": "https://dc.lft.to/lastmile_qr_scan", "android": "https://dc.lft.to/lastmile_qr_scan"}, "lon": -77.03925266666667, "type": "electric_scooter", "fusion_lat": 0.0, "lat": 38.9210995, "name": "c58f34c8becc0e7dfce6d80e89a81c95", "fusion_lon": 0.0, "bike_id": "c58f34c8becc0e7dfce6d80e89a81c95", "is_disabled": 0, "is_reserved": 0}, {"rental_uris": {"ios": "https://dc.lft.to/lastmile_qr_scan", "android": "https://dc.lft.to/lastmile_qr_scan"}, "lon": -77.04083616666667, "type": "electric_scooter", "fusion_lat": 0.0, "lat": 38.919955, "name": "a500b145ec39d101b193fb64066d5e89", "fusion_lon": 0.0, "bike_id": "a500b145ec39d101b193fb64066d5e89", "is_disabled": 0, "is_reserved": 0}, {"rental_uris": {"ios": "https://dc.lft.to/lastmile_qr_scan", "android": "https://dc.lft.to/lastmile_qr_scan"}, "lon": -77.01595433333334, "type": "electric_scooter", "fusion_lat": 0.0, "lat": 38.9018975, "name": "81817df0a6efb8ac4d9eb6cd783debef", "fusion_lon": 0.0, "bike_id": "81817df0a6efb8ac4d9eb6cd783debef", "is_disabled": 0, "is_reserved": 0}, {"rental_uris": {"ios": "https://dc.lft.to/lastmile_qr_scan", "android": "https://dc.lft.to/lastmile_qr_scan"}, "lon": -77.05523533333333, "type": "electric_scooter", "fusion_lat": 0.0, "lat": 38.897241333333334, "name": "293a2c00c1569f989562d8aee19a36a0", "fusion_lon": 0.0, "bike_id": "293a2c00c1569f989562d8aee19a36a0", "is_disabled": 0, "is_reserved": 0}, {"rental_uris": {"ios": "https://dc.lft.to/lastmile_qr_scan", "android": "https://dc.lft.to/lastmile_qr_scan"}, "lon": -77.0466375, "type": "electric_scooter", "fusion_lat": 0.0, "lat": 38.932954333333335, "name": "15cd70cc8d90e1a3322f5c04987869cd", "fusion_lon": 0.0, "bike_id": "15cd70cc8d90e1a3322f5c04987869cd", "is_disabled": 0, "is_reserved": 0}, {"rental_uris": {"ios": "https://dc.lft.to/lastmile_qr_scan", "android": "https://dc.lft.to/lastmile_qr_scan"}, "lon": -76.93244366666667, "type": "electric_scooter", "fusion_lat": 0.0, "lat": 38.89406116666667, "name": "0e50f4ca7ee37296d2b643707ac583cb", "fusion_lon": 0.0, "bike_id": "0e50f4ca7ee37296d2b643707ac583cb", "is_disabled": 0, "is_reserved": 0}, {"rental_uris": {"ios": "https://dc.lft.to/lastmile_qr_scan", "android": "https://dc.lft.to/lastmile_qr_scan"}, "lon": -77.04644483333334, "type": "electric_bike", "fusion_lat": 0.0, "lat": 38.852109166666665, "name": "ac58d53dcc8115fd2a7ff6a03f209050", "fusion_lon": 0.0, "bike_id": "ac58d53dcc8115fd2a7ff6a03f209050", "is_disabled": 0, "is_reserved": 0}, {"rental_uris": {"ios": "https://dc.lft.to/lastmile_qr_scan", "android": "https://dc.lft.to/lastmile_qr_scan"}, "lon": -76.99067033333333, "type": "electric_scooter", "fusion_lat": 0.0, "lat": 38.86355966666667, "name": "d1da7aa29d074e96ebade71506c8f0d1", "fusion_lon": 0.0, "bike_id": "d1da7aa29d074e96ebade71506c8f0d1", "is_disabled": 0, "is_reserved": 0}, {"rental_uris": {"ios": "https://dc.lft.to/lastmile_qr_scan", "android": "https://dc.lft.to/lastmile_qr_scan"}, "lon": -77.0335055, "type": "electric_scooter", "fusion_lat": 0.0, "lat": 38.93413816666666, "name": "e19f6406b0a10403fa52d6055e5cf4da", "fusion_lon": 0.0, "bike_id": "e19f6406b0a10403fa52d6055e5cf4da", "is_disabled": 0, "is_reserved": 0}, {"rental_uris": {"ios": "https://dc.lft.to/lastmile_qr_scan", "android": "https://dc.lft.to/lastmile_qr_scan"}, "lon": -77.0129105, "type": "electric_scooter", "fusion_lat": 0.0, "lat": 38.90053433333333, "name": "028b6032148d82abde55eecf88f47ccb", "fusion_lon": 0.0, "bike_id": "028b6032148d82abde55eecf88f47ccb", "is_disabled": 0, "is_reserved": 0}, {"rental_uris": {"ios": "https://dc.lft.to/lastmile_qr_scan", "android": "https://dc.lft.to/lastmile_qr_scan"}, "lon": -77.02857583333333, "type": "electric_scooter", "fusion_lat": 0.0, "lat": 38.92819866666667, "name": "f506906ad9d0537b3e6422cec1a144fc", "fusion_lon": 0.0, "bike_id": "f506906ad9d0537b3e6422cec1a144fc", "is_disabled": 0, "is_reserved": 0}, {"rental_uris": {"ios": "https://dc.lft.to/lastmile_qr_scan", "android": "https://dc.lft.to/lastmile_qr_scan"}, "lon": -77.017052, "type": "electric_scooter", "fusion_lat": 0.0, "lat": 38.92050616666667, "name": "50df279f5c95c74451b070a875b91082", "fusion_lon": 0.0, "bike_id": "50df279f5c95c74451b070a875b91082", "is_disabled": 0, "is_reserved": 0}, {"rental_uris": {"ios": "https://dc.lft.to/lastmile_qr_scan", "android": "https://dc.lft.to/lastmile_qr_scan"}, "lon": -77.02356316666666, "type": "electric_scooter", "fusion_lat": 0.0, "lat": 38.92503966666666, "name": "8a750c9d643134145d8d511578e1afeb", "fusion_lon": 0.0, "bike_id": "8a750c9d643134145d8d511578e1afeb", "is_disabled": 0, "is_reserved": 0}, {"rental_uris": {"ios": "https://dc.lft.to/lastmile_qr_scan", "android": "https://dc.lft.to/lastmile_qr_scan"}, "lon": -77.02272266666667, "type": "electric_scooter", "fusion_lat": 0.0, "lat": 38.9246385, "name": "fdd8a9d62ffaa6d5072f5fc538cea4f5", "fusion_lon": 0.0, "bike_id": "fdd8a9d62ffaa6d5072f5fc538cea4f5", "is_disabled": 0, "is_reserved": 0}, {"rental_uris": {"ios": "https://dc.lft.to/lastmile_qr_scan", "android": "https://dc.lft.to/lastmile_qr_scan"}, "lon": -77.04236866666666, "type": "electric_scooter", "fusion_lat": 0.0, "lat": 38.905877333333336, "name": "eab6d68b1d40184ef5b7a4f3c0c5d74c", "fusion_lon": 0.0, "bike_id": "eab6d68b1d40184ef5b7a4f3c0c5d74c", "is_disabled": 0, "is_reserved": 0}, {"rental_uris": {"ios": "https://dc.lft.to/lastmile_qr_scan", "android": "https://dc.lft.to/lastmile_qr_scan"}, "lon": -77.02576333333333, "type": "electric_scooter", "fusion_lat": 0.0, "lat": 38.918155166666665, "name": "dcf364de0da7b91fe6ffb42d1b95b35e", "fusion_lon": 0.0, "bike_id": "dcf364de0da7b91fe6ffb42d1b95b35e", "is_disabled": 0, "is_reserved": 0}, {"rental_uris": {"ios": "https://dc.lft.to/lastmile_qr_scan", "android": "https://dc.lft.to/lastmile_qr_scan"}, "lon": -77.03410616666666, "type": "electric_scooter", "fusion_lat": 0.0, "lat": 38.935454666666665, "name": "86903e5cc323730ed69ac4de47400565", "fusion_lon": 0.0, "bike_id": "86903e5cc323730ed69ac4de47400565", "is_disabled": 0, "is_reserved": 0}, {"rental_uris": {"ios": "https://dc.lft.to/lastmile_qr_scan", "android": "https://dc.lft.to/lastmile_qr_scan"}, "lon": -77.04481416666667, "type": "electric_scooter", "fusion_lat": 0.0, "lat": 38.918643333333335, "name": "30d4378734f73a4d8d868e8dff7e8af6", "fusion_lon": 0.0, "bike_id": "30d4378734f73a4d8d868e8dff7e8af6", "is_disabled": 0, "is_reserved": 0}, {"rental_uris": {"ios": "https://dc.lft.to/lastmile_qr_scan", "android": "https://dc.lft.to/lastmile_qr_scan"}, "lon": -77.04787066666667, "type": "electric_scooter", "fusion_lat": 0.0, "lat": 38.897676, "name": "84d585527564eca6a7e13bc7eadf27e2", "fusion_lon": 0.0, "bike_id": "84d585527564eca6a7e13bc7eadf27e2", "is_disabled": 0, "is_reserved": 0}, {"rental_uris": {"ios": "https://dc.lft.to/lastmile_qr_scan", "android": "https://dc.lft.to/lastmile_qr_scan"}, "lon": -77.01865333333333, "type": "electric_scooter", "fusion_lat": 0.0, "lat": 38.94891033333333, "name": "7d1bd7d49f3af3e71f94d10e4caa04fa", "fusion_lon": 0.0, "bike_id": "7d1bd7d49f3af3e71f94d10e4caa04fa", "is_disabled": 0, "is_reserved": 0}, {"rental_uris": {"ios": "https://dc.lft.to/lastmile_qr_scan", "android": "https://dc.lft.to/lastmile_qr_scan"}, "lon": -76.9652735, "type": "electric_scooter", "fusion_lat": 0.0, "lat": 38.87624916666667, "name": "259cb6c4ac4f13481827fb1d81afc4d8", "fusion_lon": 0.0, "bike_id": "259cb6c4ac4f13481827fb1d81afc4d8", "is_disabled": 0, "is_reserved": 0}, {"rental_uris": {"ios": "https://dc.lft.to/lastmile_qr_scan", "android": "https://dc.lft.to/lastmile_qr_scan"}, "lon": -76.9973935, "type": "electric_scooter", "fusion_lat": 0.0, "lat": 38.909365, "name": "7bb809057c62a7b0ddf65e44c4fd81e5", "fusion_lon": 0.0, "bike_id": "7bb809057c62a7b0ddf65e44c4fd81e5", "is_disabled": 0, "is_reserved": 0}, {"rental_uris": {"ios": "https://dc.lft.to/lastmile_qr_scan", "android": "https://dc.lft.to/lastmile_qr_scan"}, "lon": -77.06611116666667, "type": "electric_scooter", "fusion_lat": 0.0, "lat": 38.90535633333333, "name": "4ba34fc4e888fd037a7ab2265519dfcf", "fusion_lon": 0.0, "bike_id": "4ba34fc4e888fd037a7ab2265519dfcf", "is_disabled": 0, "is_reserved": 0}, {"rental_uris": {"ios": "https://dc.lft.to/lastmile_qr_scan", "android": "https://dc.lft.to/lastmile_qr_scan"}, "lon": -77.05919783333333, "type": "electric_scooter", "fusion_lat": 0.0, "lat": 38.909163, "name": "91bf8d2158c3eef87451f05aaa8502db", "fusion_lon": 0.0, "bike_id": "91bf8d2158c3eef87451f05aaa8502db", "is_disabled": 0, "is_reserved": 0}, {"rental_uris": {"ios": "https://dc.lft.to/lastmile_qr_scan", "android": "https://dc.lft.to/lastmile_qr_scan"}, "lon": -77.0881935, "type": "electric_bike", "fusion_lat": 0.0, "lat": 38.91169266666667, "name": "f7289cbe79c11c792a0bf71e1b7fdced", "fusion_lon": 0.0, "bike_id": "f7289cbe79c11c792a0bf71e1b7fdced", "is_disabled": 0, "is_reserved": 0}, {"rental_uris": {"ios": "https://dc.lft.to/lastmile_qr_scan", "android": "https://dc.lft.to/lastmile_qr_scan"}, "lon": -77.00104433333334, "type": "electric_scooter", "fusion_lat": 0.0, "lat": 38.894284666666664, "name": "5eec3ee8778c4bab1cf3659c00f08fad", "fusion_lon": 0.0, "bike_id": "5eec3ee8778c4bab1cf3659c00f08fad", "is_disabled": 0, "is_reserved": 0}, {"rental_uris": {"ios": "https://dc.lft.to/lastmile_qr_scan", "android": "https://dc.lft.to/lastmile_qr_scan"}, "lon": -77.0141915, "type": "electric_scooter", "fusion_lat": 0.0, "lat": 38.917069166666664, "name": "b9e5f4a8d7648725981b2b22f0c7314b", "fusion_lon": 0.0, "bike_id": "b9e5f4a8d7648725981b2b22f0c7314b", "is_disabled": 0, "is_reserved": 0}, {"rental_uris": {"ios": "https://dc.lft.to/lastmile_qr_scan", "android": "https://dc.lft.to/lastmile_qr_scan"}, "lon": -77.02795366666666, "type": "electric_scooter", "fusion_lat": 0.0, "lat": 38.92969733333334, "name": "2374677eb9e0bdbc592406154886e178", "fusion_lon": 0.0, "bike_id": "2374677eb9e0bdbc592406154886e178", "is_disabled": 0, "is_reserved": 0}, {"rental_uris": {"ios": "https://dc.lft.to/lastmile_qr_scan", "android": "https://dc.lft.to/lastmile_qr_scan"}, "lon": -76.936246, "type": "electric_scooter", "fusion_lat": 0.0, "lat": 38.889961, "name": "b46854d7497be359274ae76fc150195c", "fusion_lon": 0.0, "bike_id": "b46854d7497be359274ae76fc150195c", "is_disabled": 0, "is_reserved": 0}, {"rental_uris": {"ios": "https://dc.lft.to/lastmile_qr_scan", "android": "https://dc.lft.to/lastmile_qr_scan"}, "lon": -76.9336405, "type": "electric_scooter", "fusion_lat": 0.0, "lat": 38.89918866666667, "name": "44ec110181691f67df09321989148539", "fusion_lon": 0.0, "bike_id": "44ec110181691f67df09321989148539", "is_disabled": 0, "is_reserved": 0}, {"rental_uris": {"ios": "https://dc.lft.to/lastmile_qr_scan", "android": "https://dc.lft.to/lastmile_qr_scan"}, "lon": -77.042599, "type": "electric_scooter", "fusion_lat": 0.0, "lat": 38.905497, "name": "f4d106c3205d8ec475bc578c9e7cc94d", "fusion_lon": 0.0, "bike_id": "f4d106c3205d8ec475bc578c9e7cc94d", "is_disabled": 0, "is_reserved": 0}, {"rental_uris": {"ios": "https://dc.lft.to/lastmile_qr_scan", "android": "https://dc.lft.to/lastmile_qr_scan"}, "lon": -76.9317285, "type": "electric_scooter", "fusion_lat": 0.0, "lat": 38.89885533333333, "name": "192a6b3b3f29261c2bd52f275c4a6056", "fusion_lon": 0.0, "bike_id": "192a6b3b3f29261c2bd52f275c4a6056", "is_disabled": 0, "is_reserved": 0}, {"rental_uris": {"ios": "https://dc.lft.to/lastmile_qr_scan", "android": "https://dc.lft.to/lastmile_qr_scan"}, "lon": -76.99618816666667, "type": "electric_scooter", "fusion_lat": 0.0, "lat": 38.88443933333333, "name": "36ca2e0d405cdee37b2edcd1a308c2d8", "fusion_lon": 0.0, "bike_id": "36ca2e0d405cdee37b2edcd1a308c2d8", "is_disabled": 0, "is_reserved": 0}, {"rental_uris": {"ios": "https://dc.lft.to/lastmile_qr_scan", "android": "https://dc.lft.to/lastmile_qr_scan"}, "lon": -76.95753333333333, "type": "electric_scooter", "fusion_lat": 0.0, "lat": 38.88430916666667, "name": "99c78f29e4a369c6bfa97ae8507dae7a", "fusion_lon": 0.0, "bike_id": "99c78f29e4a369c6bfa97ae8507dae7a", "is_disabled": 0, "is_reserved": 0}, {"rental_uris": {"ios": "https://dc.lft.to/lastmile_qr_scan", "android": "https://dc.lft.to/lastmile_qr_scan"}, "lon": -77.010833, "type": "electric_scooter", "fusion_lat": 0.0, "lat": 38.894937666666664, "name": "71c53c9d3394883c785383a31cb1d101", "fusion_lon": 0.0, "bike_id": "71c53c9d3394883c785383a31cb1d101", "is_disabled": 0, "is_reserved": 0}, {"rental_uris": {"ios": "https://dc.lft.to/lastmile_qr_scan", "android": "https://dc.lft.to/lastmile_qr_scan"}, "lon": -76.9650285, "type": "electric_scooter", "fusion_lat": 0.0, "lat": 38.8764715, "name": "eb9fe172e53eb7a29d29a9bc30b76076", "fusion_lon": 0.0, "bike_id": "eb9fe172e53eb7a29d29a9bc30b76076", "is_disabled": 0, "is_reserved": 0}, {"rental_uris": {"ios": "https://dc.lft.to/lastmile_qr_scan", "android": "https://dc.lft.to/lastmile_qr_scan"}, "lon": -77.03078316666667, "type": "electric_scooter", "fusion_lat": 0.0, "lat": 38.88033583333333, "name": "56d854974d78fc473bea53544333a53e", "fusion_lon": 0.0, "bike_id": "56d854974d78fc473bea53544333a53e", "is_disabled": 0, "is_reserved": 0}, {"rental_uris": {"ios": "https://dc.lft.to/lastmile_qr_scan", "android": "https://dc.lft.to/lastmile_qr_scan"}, "lon": -77.15264666666667, "type": "electric_bike", "fusion_lat": 0.0, "lat": 39.10566, "name": "6e3aa4f1e760cf71d9cf81b889c3bd41", "fusion_lon": 0.0, "bike_id": "6e3aa4f1e760cf71d9cf81b889c3bd41", "is_disabled": 0, "is_reserved": 0}, {"rental_uris": {"ios": "https://dc.lft.to/lastmile_qr_scan", "android": "https://dc.lft.to/lastmile_qr_scan"}, "lon": -76.9379075, "type": "electric_scooter", "fusion_lat": 0.0, "lat": 38.890891833333335, "name": "f26acb08a1662437d22b3f73add07747", "fusion_lon": 0.0, "bike_id": "f26acb08a1662437d22b3f73add07747", "is_disabled": 0, "is_reserved": 0}, {"rental_uris": {"ios": "https://dc.lft.to/lastmile_qr_scan", "android": "https://dc.lft.to/lastmile_qr_scan"}, "lon": -77.0171695, "type": "electric_scooter", "fusion_lat": 0.0, "lat": 38.9117405, "name": "e312cc13c4cdd68012151d993eedde45", "fusion_lon": 0.0, "bike_id": "e312cc13c4cdd68012151d993eedde45", "is_disabled": 0, "is_reserved": 0}, {"rental_uris": {"ios": "https://dc.lft.to/lastmile_qr_scan", "android": "https://dc.lft.to/lastmile_qr_scan"}, "lon": -77.05297366666667, "type": "electric_scooter", "fusion_lat": 0.0, "lat": 38.91892266666667, "name": "40cbf14470cacfba0029ed3c3a452bdf", "fusion_lon": 0.0, "bike_id": "40cbf14470cacfba0029ed3c3a452bdf", "is_disabled": 0, "is_reserved": 0}, {"rental_uris": {"ios": "https://dc.lft.to/lastmile_qr_scan", "android": "https://dc.lft.to/lastmile_qr_scan"}, "lon": -77.07065883333334, "type": "electric_scooter", "fusion_lat": 0.0, "lat": 38.95218766666667, "name": "2bba92b91346127f53a907cc55c40941", "fusion_lon": 0.0, "bike_id": "2bba92b91346127f53a907cc55c40941", "is_disabled": 0, "is_reserved": 0}, {"rental_uris": {"ios": "https://dc.lft.to/lastmile_qr_scan", "android": "https://dc.lft.to/lastmile_qr_scan"}, "lon": -76.98557483333333, "type": "electric_scooter", "fusion_lat": 0.0, "lat": 38.85586, "name": "aefa95b3ba733e40944b4db501daf945", "fusion_lon": 0.0, "bike_id": "aefa95b3ba733e40944b4db501daf945", "is_disabled": 0, "is_reserved": 0}, {"rental_uris": {"ios": "https://dc.lft.to/lastmile_qr_scan", "android": "https://dc.lft.to/lastmile_qr_scan"}, "lon": -77.05500216666667, "type": "electric_scooter", "fusion_lat": 0.0, "lat": 38.929781, "name": "9b8949c86876205b5b89cd3c9484de34", "fusion_lon": 0.0, "bike_id": "9b8949c86876205b5b89cd3c9484de34", "is_disabled": 0, "is_reserved": 0}, {"rental_uris": {"ios": "https://dc.lft.to/lastmile_qr_scan", "android": "https://dc.lft.to/lastmile_qr_scan"}, "lon": -76.948943, "type": "electric_scooter", "fusion_lat": 0.0, "lat": 38.89530116666667, "name": "49279b37b7e98bd406bfa9f3395a04e9", "fusion_lon": 0.0, "bike_id": "49279b37b7e98bd406bfa9f3395a04e9", "is_disabled": 0, "is_reserved": 0}, {"rental_uris": {"ios": "https://dc.lft.to/lastmile_qr_scan", "android": "https://dc.lft.to/lastmile_qr_scan"}, "lon": -77.04209083333333, "type": "electric_scooter", "fusion_lat": 0.0, "lat": 38.903349666666664, "name": "12052573eabdef0ef5ad21f1acdaac8c", "fusion_lon": 0.0, "bike_id": "12052573eabdef0ef5ad21f1acdaac8c", "is_disabled": 0, "is_reserved": 0}, {"rental_uris": {"ios": "https://dc.lft.to/lastmile_qr_scan", "android": "https://dc.lft.to/lastmile_qr_scan"}, "lon": -77.00865483333334, "type": "electric_bike", "fusion_lat": 0.0, "lat": 38.82728566666667, "name": "0cceebf82b2118a08b9164ed066592ee", "fusion_lon": 0.0, "bike_id": "0cceebf82b2118a08b9164ed066592ee", "is_disabled": 0, "is_reserved": 0}, {"rental_uris": {"ios": "https://dc.lft.to/lastmile_qr_scan", "android": "https://dc.lft.to/lastmile_qr_scan"}, "lon": -76.99806816666667, "type": "electric_scooter", "fusion_lat": 0.0, "lat": 38.90008366666667, "name": "9cce2077d710675d211f8cf00b23d4de", "fusion_lon": 0.0, "bike_id": "9cce2077d710675d211f8cf00b23d4de", "is_disabled": 0, "is_reserved": 0}, {"rental_uris": {"ios": "https://dc.lft.to/lastmile_qr_scan", "android": "https://dc.lft.to/lastmile_qr_scan"}, "lon": -76.99001083333333, "type": "electric_scooter", "fusion_lat": 0.0, "lat": 38.865037, "name": "581117982e5b6e9e71e8dc14636c7ba8", "fusion_lon": 0.0, "bike_id": "581117982e5b6e9e71e8dc14636c7ba8", "is_disabled": 0, "is_reserved": 0}, {"rental_uris": {"ios": "https://dc.lft.to/lastmile_qr_scan", "android": "https://dc.lft.to/lastmile_qr_scan"}, "lon": -77.019496, "type": "electric_scooter", "fusion_lat": 0.0, "lat": 38.924168333333334, "name": "deb92809b45a78915979d6b0c3ff669b", "fusion_lon": 0.0, "bike_id": "deb92809b45a78915979d6b0c3ff669b", "is_disabled": 0, "is_reserved": 0}, {"rental_uris": {"ios": "https://dc.lft.to/lastmile_qr_scan", "android": "https://dc.lft.to/lastmile_qr_scan"}, "lon": -77.03148183333333, "type": "electric_scooter", "fusion_lat": 0.0, "lat": 38.91418083333333, "name": "cb3d73112725a0831f3a5bcba4de5cf2", "fusion_lon": 0.0, "bike_id": "cb3d73112725a0831f3a5bcba4de5cf2", "is_disabled": 0, "is_reserved": 0}, {"rental_uris": {"ios": "https://dc.lft.to/lastmile_qr_scan", "android": "https://dc.lft.to/lastmile_qr_scan"}, "lon": -77.04709766666667, "type": "electric_scooter", "fusion_lat": 0.0, "lat": 38.9223655, "name": "78419e8d0ee08b01e29d42f1d57d4f5b", "fusion_lon": 0.0, "bike_id": "78419e8d0ee08b01e29d42f1d57d4f5b", "is_disabled": 0, "is_reserved": 0}, {"rental_uris": {"ios": "https://dc.lft.to/lastmile_qr_scan", "android": "https://dc.lft.to/lastmile_qr_scan"}, "lon": -77.032988, "type": "electric_scooter", "fusion_lat": 0.0, "lat": 38.892268, "name": "32fc0bc60415222f9673d7deabfb75fb", "fusion_lon": 0.0, "bike_id": "32fc0bc60415222f9673d7deabfb75fb", "is_disabled": 0, "is_reserved": 0}, {"rental_uris": {"ios": "https://dc.lft.to/lastmile_qr_scan", "android": "https://dc.lft.to/lastmile_qr_scan"}, "lon": -77.05401266666667, "type": "electric_scooter", "fusion_lat": 0.0, "lat": 38.90255033333333, "name": "2f9e10e4ebf870f1fbc7308dac841d7e", "fusion_lon": 0.0, "bike_id": "2f9e10e4ebf870f1fbc7308dac841d7e", "is_disabled": 0, "is_reserved": 0}, {"rental_uris": {"ios": "https://dc.lft.to/lastmile_qr_scan", "android": "https://dc.lft.to/lastmile_qr_scan"}, "lon": -77.01771733333334, "type": "electric_scooter", "fusion_lat": 0.0, "lat": 38.921028, "name": "22f19b02769dfedaa830250ddf26b497", "fusion_lon": 0.0, "bike_id": "22f19b02769dfedaa830250ddf26b497", "is_disabled": 0, "is_reserved": 0}, {"rental_uris": {"ios": "https://dc.lft.to/lastmile_qr_scan", "android": "https://dc.lft.to/lastmile_qr_scan"}, "lon": -77.03438583333333, "type": "electric_scooter", "fusion_lat": 0.0, "lat": 38.90979383333333, "name": "f0836cfd340e86171c40679678147db9", "fusion_lon": 0.0, "bike_id": "f0836cfd340e86171c40679678147db9", "is_disabled": 0, "is_reserved": 0}, {"rental_uris": {"ios": "https://dc.lft.to/lastmile_qr_scan", "android": "https://dc.lft.to/lastmile_qr_scan"}, "lon": -77.03501666666666, "type": "electric_scooter", "fusion_lat": 0.0, "lat": 38.921525833333334, "name": "d3c982f4c893e0d967daa194f18dcfda", "fusion_lon": 0.0, "bike_id": "d3c982f4c893e0d967daa194f18dcfda", "is_disabled": 0, "is_reserved": 0}, {"rental_uris": {"ios": "https://dc.lft.to/lastmile_qr_scan", "android": "https://dc.lft.to/lastmile_qr_scan"}, "lon": -77.02178783333333, "type": "electric_scooter", "fusion_lat": 0.0, "lat": 38.90543516666666, "name": "66d6667055026ec96b4f6101dfbb558f", "fusion_lon": 0.0, "bike_id": "66d6667055026ec96b4f6101dfbb558f", "is_disabled": 0, "is_reserved": 0}, {"rental_uris": {"ios": "https://dc.lft.to/lastmile_qr_scan", "android": "https://dc.lft.to/lastmile_qr_scan"}, "lon": -77.08201433333333, "type": "electric_scooter", "fusion_lat": 0.0, "lat": 38.933237166666665, "name": "a028a4c891473bb62d6bb054d5e1b34c", "fusion_lon": 0.0, "bike_id": "a028a4c891473bb62d6bb054d5e1b34c", "is_disabled": 0, "is_reserved": 0}, {"rental_uris": {"ios": "https://dc.lft.to/lastmile_qr_scan", "android": "https://dc.lft.to/lastmile_qr_scan"}, "lon": -77.040409, "type": "electric_scooter", "fusion_lat": 0.0, "lat": 38.92471033333333, "name": "bb6b457bf0a135b54f79d22e2c9f4ee2", "fusion_lon": 0.0, "bike_id": "bb6b457bf0a135b54f79d22e2c9f4ee2", "is_disabled": 0, "is_reserved": 0}, {"rental_uris": {"ios": "https://dc.lft.to/lastmile_qr_scan", "android": "https://dc.lft.to/lastmile_qr_scan"}, "lon": -77.02967433333333, "type": "electric_scooter", "fusion_lat": 0.0, "lat": 38.9072825, "name": "d411bd0f6dd5e4023b64f11a399dfb3d", "fusion_lon": 0.0, "bike_id": "d411bd0f6dd5e4023b64f11a399dfb3d", "is_disabled": 0, "is_reserved": 0}, {"rental_uris": {"ios": "https://dc.lft.to/lastmile_qr_scan", "android": "https://dc.lft.to/lastmile_qr_scan"}, "lon": -76.99250716666667, "type": "electric_bike", "fusion_lat": 0.0, "lat": 38.92547166666667, "name": "281e51ff88c1e8df4ec607547d9b78fb", "fusion_lon": 0.0, "bike_id": "281e51ff88c1e8df4ec607547d9b78fb", "is_disabled": 0, "is_reserved": 0}, {"rental_uris": {"ios": "https://dc.lft.to/lastmile_qr_scan", "android": "https://dc.lft.to/lastmile_qr_scan"}, "lon": -77.0098305, "type": "electric_scooter", "fusion_lat": 0.0, "lat": 38.91559183333333, "name": "c1b2f525c64123cff9483dc3de251c6e", "fusion_lon": 0.0, "bike_id": "c1b2f525c64123cff9483dc3de251c6e", "is_disabled": 0, "is_reserved": 0}, {"rental_uris": {"ios": "https://dc.lft.to/lastmile_qr_scan", "android": "https://dc.lft.to/lastmile_qr_scan"}, "lon": -76.98019216666667, "type": "electric_scooter", "fusion_lat": 0.0, "lat": 38.8877065, "name": "7a2d46c5863ca8065115f9f463ac0927", "fusion_lon": 0.0, "bike_id": "7a2d46c5863ca8065115f9f463ac0927", "is_disabled": 0, "is_reserved": 0}, {"rental_uris": {"ios": "https://dc.lft.to/lastmile_qr_scan", "android": "https://dc.lft.to/lastmile_qr_scan"}, "lon": -77.01744483333333, "type": "electric_scooter", "fusion_lat": 0.0, "lat": 38.877008833333335, "name": "95651f1d266eb2dc7a8584c075ec1380", "fusion_lon": 0.0, "bike_id": "95651f1d266eb2dc7a8584c075ec1380", "is_disabled": 0, "is_reserved": 0}, {"rental_uris": {"ios": "https://dc.lft.to/lastmile_qr_scan", "android": "https://dc.lft.to/lastmile_qr_scan"}, "lon": -76.97273633333333, "type": "electric_bike", "fusion_lat": 0.0, "lat": 38.919747666666666, "name": "520f7d7c1b2a8ba76654d6a79937f990", "fusion_lon": 0.0, "bike_id": "520f7d7c1b2a8ba76654d6a79937f990", "is_disabled": 0, "is_reserved": 0}, {"rental_uris": {"ios": "https://dc.lft.to/lastmile_qr_scan", "android": "https://dc.lft.to/lastmile_qr_scan"}, "lon": -77.00715116666667, "type": "electric_scooter", "fusion_lat": 0.0, "lat": 38.905684666666666, "name": "7eef75ea75bed54b72dac6a56a15b056", "fusion_lon": 0.0, "bike_id": "7eef75ea75bed54b72dac6a56a15b056", "is_disabled": 0, "is_reserved": 0}, {"rental_uris": {"ios": "https://dc.lft.to/lastmile_qr_scan", "android": "https://dc.lft.to/lastmile_qr_scan"}, "lon": -77.0237285, "type": "electric_scooter", "fusion_lat": 0.0, "lat": 38.9369685, "name": "6753410846d0ef249572164aab29eda1", "fusion_lon": 0.0, "bike_id": "6753410846d0ef249572164aab29eda1", "is_disabled": 0, "is_reserved": 0}, {"rental_uris": {"ios": "https://dc.lft.to/lastmile_qr_scan", "android": "https://dc.lft.to/lastmile_qr_scan"}, "lon": -77.02228933333333, "type": "electric_bike", "fusion_lat": 0.0, "lat": 38.956860666666664, "name": "6171f53c5ac9be3bf5408aa72cefacda", "fusion_lon": 0.0, "bike_id": "6171f53c5ac9be3bf5408aa72cefacda", "is_disabled": 0, "is_reserved": 0}, {"rental_uris": {"ios": "https://dc.lft.to/lastmile_qr_scan", "android": "https://dc.lft.to/lastmile_qr_scan"}, "lon": -77.063599, "type": "electric_scooter", "fusion_lat": 0.0, "lat": 38.944430833333335, "name": "90f73abf6a47a8d3aa7f7d8aaf07ce0e", "fusion_lon": 0.0, "bike_id": "90f73abf6a47a8d3aa7f7d8aaf07ce0e", "is_disabled": 0, "is_reserved": 0}, {"rental_uris": {"ios": "https://dc.lft.to/lastmile_qr_scan", "android": "https://dc.lft.to/lastmile_qr_scan"}, "lon": -77.110634, "type": "electric_bike", "fusion_lat": 0.0, "lat": 38.87076866666666, "name": "1970241b6b4d8cfac093faf039d6e676", "fusion_lon": 0.0, "bike_id": "1970241b6b4d8cfac093faf039d6e676", "is_disabled": 0, "is_reserved": 0}, {"rental_uris": {"ios": "https://dc.lft.to/lastmile_qr_scan", "android": "https://dc.lft.to/lastmile_qr_scan"}, "lon": -77.03183, "type": "electric_scooter", "fusion_lat": 0.0, "lat": 38.92965266666667, "name": "c1e48571274799dbbd1591a5a9ce68ce", "fusion_lon": 0.0, "bike_id": "c1e48571274799dbbd1591a5a9ce68ce", "is_disabled": 0, "is_reserved": 0}, {"rental_uris": {"ios": "https://dc.lft.to/lastmile_qr_scan", "android": "https://dc.lft.to/lastmile_qr_scan"}, "lon": -76.989976, "type": "electric_scooter", "fusion_lat": 0.0, "lat": 38.865067833333335, "name": "e6119a71fff5d1f7d5c02fbdc59925ce", "fusion_lon": 0.0, "bike_id": "e6119a71fff5d1f7d5c02fbdc59925ce", "is_disabled": 0, "is_reserved": 0}, {"rental_uris": {"ios": "https://dc.lft.to/lastmile_qr_scan", "android": "https://dc.lft.to/lastmile_qr_scan"}, "lon": -77.0824975, "type": "electric_scooter", "fusion_lat": 0.0, "lat": 38.93589, "name": "cadfa876044f1d175a0ea23e562a3c0d", "fusion_lon": 0.0, "bike_id": "cadfa876044f1d175a0ea23e562a3c0d", "is_disabled": 0, "is_reserved": 0}, {"rental_uris": {"ios": "https://dc.lft.to/lastmile_qr_scan", "android": "https://dc.lft.to/lastmile_qr_scan"}, "lon": -76.99004233333334, "type": "electric_scooter", "fusion_lat": 0.0, "lat": 38.903909166666665, "name": "b66e112d2cbb8b7f5d967f4968375807", "fusion_lon": 0.0, "bike_id": "b66e112d2cbb8b7f5d967f4968375807", "is_disabled": 0, "is_reserved": 0}, {"rental_uris": {"ios": "https://dc.lft.to/lastmile_qr_scan", "android": "https://dc.lft.to/lastmile_qr_scan"}, "lon": -77.01067666666667, "type": "electric_scooter", "fusion_lat": 0.0, "lat": 38.874787833333336, "name": "49306ac8a31707fc1a9d79781567b7c0", "fusion_lon": 0.0, "bike_id": "49306ac8a31707fc1a9d79781567b7c0", "is_disabled": 0, "is_reserved": 0}, {"rental_uris": {"ios": "https://dc.lft.to/lastmile_qr_scan", "android": "https://dc.lft.to/lastmile_qr_scan"}, "lon": -77.12727983333333, "type": "electric_bike", "fusion_lat": 0.0, "lat": 38.8956125, "name": "1b65412236a4b9beb9a3f52ba9645dd7", "fusion_lon": 0.0, "bike_id": "1b65412236a4b9beb9a3f52ba9645dd7", "is_disabled": 0, "is_reserved": 0}, {"rental_uris": {"ios": "https://dc.lft.to/lastmile_qr_scan", "android": "https://dc.lft.to/lastmile_qr_scan"}, "lon": -77.0097935, "type": "electric_scooter", "fusion_lat": 0.0, "lat": 38.9141625, "name": "7670a57af355033c6b7b9a53a0840519", "fusion_lon": 0.0, "bike_id": "7670a57af355033c6b7b9a53a0840519", "is_disabled": 0, "is_reserved": 0}, {"rental_uris": {"ios": "https://dc.lft.to/lastmile_qr_scan", "android": "https://dc.lft.to/lastmile_qr_scan"}, "lon": -76.94867483333333, "type": "electric_scooter", "fusion_lat": 0.0, "lat": 38.895947, "name": "e2eea0a851d46c77d48f35578dfd76cb", "fusion_lon": 0.0, "bike_id": "e2eea0a851d46c77d48f35578dfd76cb", "is_disabled": 0, "is_reserved": 0}, {"rental_uris": {"ios": "https://dc.lft.to/lastmile_qr_scan", "android": "https://dc.lft.to/lastmile_qr_scan"}, "lon": -77.02806016666666, "type": "electric_scooter", "fusion_lat": 0.0, "lat": 38.910630166666664, "name": "3135ada63344791ad33bde9b0060f945", "fusion_lon": 0.0, "bike_id": "3135ada63344791ad33bde9b0060f945", "is_disabled": 0, "is_reserved": 0}, {"rental_uris": {"ios": "https://dc.lft.to/lastmile_qr_scan", "android": "https://dc.lft.to/lastmile_qr_scan"}, "lon": -77.01071133333333, "type": "electric_bike", "fusion_lat": 0.0, "lat": 38.919078166666665, "name": "f0325a77aea953761becd54447e878d7", "fusion_lon": 0.0, "bike_id": "f0325a77aea953761becd54447e878d7", "is_disabled": 0, "is_reserved": 0}, {"rental_uris": {"ios": "https://dc.lft.to/lastmile_qr_scan", "android": "https://dc.lft.to/lastmile_qr_scan"}, "lon": -77.02713483333333, "type": "electric_scooter", "fusion_lat": 0.0, "lat": 38.90690416666666, "name": "9dad6df2315fcb0feafa5ec500681460", "fusion_lon": 0.0, "bike_id": "9dad6df2315fcb0feafa5ec500681460", "is_disabled": 0, "is_reserved": 0}, {"rental_uris": {"ios": "https://dc.lft.to/lastmile_qr_scan", "android": "https://dc.lft.to/lastmile_qr_scan"}, "lon": -76.91651583333334, "type": "electric_bike", "fusion_lat": 0.0, "lat": 38.868595, "name": "db386ac8d4eb219653ceb949a363ce30", "fusion_lon": 0.0, "bike_id": "db386ac8d4eb219653ceb949a363ce30", "is_disabled": 0, "is_reserved": 0}, {"rental_uris": {"ios": "https://dc.lft.to/lastmile_qr_scan", "android": "https://dc.lft.to/lastmile_qr_scan"}, "lon": -77.02707816666667, "type": "electric_scooter", "fusion_lat": 0.0, "lat": 38.90904483333333, "name": "219f36c9e31318d08b4178500430e340", "fusion_lon": 0.0, "bike_id": "219f36c9e31318d08b4178500430e340", "is_disabled": 0, "is_reserved": 0}, {"rental_uris": {"ios": "https://dc.lft.to/lastmile_qr_scan", "android": "https://dc.lft.to/lastmile_qr_scan"}, "lon": -76.9959555, "type": "electric_scooter", "fusion_lat": 0.0, "lat": 38.84541633333333, "name": "d066341a1850adae779947f3c45777c9", "fusion_lon": 0.0, "bike_id": "d066341a1850adae779947f3c45777c9", "is_disabled": 0, "is_reserved": 0}, {"rental_uris": {"ios": "https://dc.lft.to/lastmile_qr_scan", "android": "https://dc.lft.to/lastmile_qr_scan"}, "lon": -76.98494133333334, "type": "electric_scooter", "fusion_lat": 0.0, "lat": 38.8604745, "name": "a3ca3a018a5d86243909bae639705bb7", "fusion_lon": 0.0, "bike_id": "a3ca3a018a5d86243909bae639705bb7", "is_disabled": 0, "is_reserved": 0}, {"rental_uris": {"ios": "https://dc.lft.to/lastmile_qr_scan", "android": "https://dc.lft.to/lastmile_qr_scan"}, "lon": -77.04234866666667, "type": "electric_scooter", "fusion_lat": 0.0, "lat": 38.90606116666667, "name": "0a7cbd4f5794f68774b27ef267ac40e4", "fusion_lon": 0.0, "bike_id": "0a7cbd4f5794f68774b27ef267ac40e4", "is_disabled": 0, "is_reserved": 0}, {"rental_uris": {"ios": "https://dc.lft.to/lastmile_qr_scan", "android": "https://dc.lft.to/lastmile_qr_scan"}, "lon": -77.06360933333333, "type": "electric_scooter", "fusion_lat": 0.0, "lat": 38.944426666666665, "name": "7a33b3a43080106bf63c0d2824e88f57", "fusion_lon": 0.0, "bike_id": "7a33b3a43080106bf63c0d2824e88f57", "is_disabled": 0, "is_reserved": 0}, {"rental_uris": {"ios": "https://dc.lft.to/lastmile_qr_scan", "android": "https://dc.lft.to/lastmile_qr_scan"}, "lon": -77.04250283333333, "type": "electric_scooter", "fusion_lat": 0.0, "lat": 38.92213516666666, "name": "5549591dbf68f0a498c5914653b90bc9", "fusion_lon": 0.0, "bike_id": "5549591dbf68f0a498c5914653b90bc9", "is_disabled": 0, "is_reserved": 0}, {"rental_uris": {"ios": "https://dc.lft.to/lastmile_qr_scan", "android": "https://dc.lft.to/lastmile_qr_scan"}, "lon": -77.03474066666666, "type": "electric_scooter", "fusion_lat": 0.0, "lat": 38.907780333333335, "name": "e63ff2778bfcd56f97ced50d0e50fade", "fusion_lon": 0.0, "bike_id": "e63ff2778bfcd56f97ced50d0e50fade", "is_disabled": 0, "is_reserved": 0}, {"rental_uris": {"ios": "https://dc.lft.to/lastmile_qr_scan", "android": "https://dc.lft.to/lastmile_qr_scan"}, "lon": -76.99792483333333, "type": "electric_scooter", "fusion_lat": 0.0, "lat": 38.9218165, "name": "9a257fd09d4dfd629e83b6c9814752f6", "fusion_lon": 0.0, "bike_id": "9a257fd09d4dfd629e83b6c9814752f6", "is_disabled": 0, "is_reserved": 0}, {"rental_uris": {"ios": "https://dc.lft.to/lastmile_qr_scan", "android": "https://dc.lft.to/lastmile_qr_scan"}, "lon": -77.013909, "type": "electric_scooter", "fusion_lat": 0.0, "lat": 38.9701495, "name": "63ee0c1fa7ae77ed18604efb39c7f903", "fusion_lon": 0.0, "bike_id": "63ee0c1fa7ae77ed18604efb39c7f903", "is_disabled": 0, "is_reserved": 0}, {"rental_uris": {"ios": "https://dc.lft.to/lastmile_qr_scan", "android": "https://dc.lft.to/lastmile_qr_scan"}, "lon": -77.10089883333333, "type": "electric_bike", "fusion_lat": 0.0, "lat": 38.959553, "name": "2c3f33db760ee0df282c77cbc74d2539", "fusion_lon": 0.0, "bike_id": "2c3f33db760ee0df282c77cbc74d2539", "is_disabled": 0, "is_reserved": 0}, {"rental_uris": {"ios": "https://dc.lft.to/lastmile_qr_scan", "android": "https://dc.lft.to/lastmile_qr_scan"}, "lon": -76.98741683333333, "type": "electric_bike", "fusion_lat": 0.0, "lat": 38.857909666666664, "name": "53df5ed4b79649309ad7fb7edad61cf5", "fusion_lon": 0.0, "bike_id": "53df5ed4b79649309ad7fb7edad61cf5", "is_disabled": 0, "is_reserved": 0}, {"rental_uris": {"ios": "https://dc.lft.to/lastmile_qr_scan", "android": "https://dc.lft.to/lastmile_qr_scan"}, "lon": -76.97888333333333, "type": "electric_scooter", "fusion_lat": 0.0, "lat": 38.90420783333333, "name": "90577103d0ac31aae4e308d12380f996", "fusion_lon": 0.0, "bike_id": "90577103d0ac31aae4e308d12380f996", "is_disabled": 0, "is_reserved": 0}, {"rental_uris": {"ios": "https://dc.lft.to/lastmile_qr_scan", "android": "https://dc.lft.to/lastmile_qr_scan"}, "lon": -77.02463183333333, "type": "electric_scooter", "fusion_lat": 0.0, "lat": 38.900051166666664, "name": "33f2a0a763fb56f510578f472cff07ff", "fusion_lon": 0.0, "bike_id": "33f2a0a763fb56f510578f472cff07ff", "is_disabled": 0, "is_reserved": 0}, {"rental_uris": {"ios": "https://dc.lft.to/lastmile_qr_scan", "android": "https://dc.lft.to/lastmile_qr_scan"}, "lon": -77.03912466666667, "type": "electric_scooter", "fusion_lat": 0.0, "lat": 38.89199, "name": "a61039293d82fcd2ee9c5cc7586da2c9", "fusion_lon": 0.0, "bike_id": "a61039293d82fcd2ee9c5cc7586da2c9", "is_disabled": 0, "is_reserved": 0}, {"rental_uris": {"ios": "https://dc.lft.to/lastmile_qr_scan", "android": "https://dc.lft.to/lastmile_qr_scan"}, "lon": -76.98564033333334, "type": "electric_scooter", "fusion_lat": 0.0, "lat": 38.892054333333334, "name": "45aac064cfb2370249970576adc2f665", "fusion_lon": 0.0, "bike_id": "45aac064cfb2370249970576adc2f665", "is_disabled": 0, "is_reserved": 0}, {"rental_uris": {"ios": "https://dc.lft.to/lastmile_qr_scan", "android": "https://dc.lft.to/lastmile_qr_scan"}, "lon": -77.02948816666667, "type": "electric_scooter", "fusion_lat": 0.0, "lat": 38.916819833333335, "name": "f0cf9460292721ba9aa0035f0d15e5e2", "fusion_lon": 0.0, "bike_id": "f0cf9460292721ba9aa0035f0d15e5e2", "is_disabled": 0, "is_reserved": 0}, {"rental_uris": {"ios": "https://dc.lft.to/lastmile_qr_scan", "android": "https://dc.lft.to/lastmile_qr_scan"}, "lon": -77.02959183333333, "type": "electric_scooter", "fusion_lat": 0.0, "lat": 38.905068666666665, "name": "6b6202c79f74332fcc0f8e3c62ddc0f2", "fusion_lon": 0.0, "bike_id": "6b6202c79f74332fcc0f8e3c62ddc0f2", "is_disabled": 0, "is_reserved": 0}, {"rental_uris": {"ios": "https://dc.lft.to/lastmile_qr_scan", "android": "https://dc.lft.to/lastmile_qr_scan"}, "lon": -77.04926866666666, "type": "electric_scooter", "fusion_lat": 0.0, "lat": 38.896110166666666, "name": "ab470f550d621e95484a2e852a76ee52", "fusion_lon": 0.0, "bike_id": "ab470f550d621e95484a2e852a76ee52", "is_disabled": 0, "is_reserved": 0}, {"rental_uris": {"ios": "https://dc.lft.to/lastmile_qr_scan", "android": "https://dc.lft.to/lastmile_qr_scan"}, "lon": -77.032765, "type": "electric_scooter", "fusion_lat": 0.0, "lat": 38.937717666666664, "name": "de049e4a1623216f62ed8e2c9beaaf91", "fusion_lon": 0.0, "bike_id": "de049e4a1623216f62ed8e2c9beaaf91", "is_disabled": 0, "is_reserved": 0}, {"rental_uris": {"ios": "https://dc.lft.to/lastmile_qr_scan", "android": "https://dc.lft.to/lastmile_qr_scan"}, "lon": -77.027167, "type": "electric_scooter", "fusion_lat": 0.0, "lat": 38.9068615, "name": "313b1bffe9eb89aa258560e59ec2578b", "fusion_lon": 0.0, "bike_id": "313b1bffe9eb89aa258560e59ec2578b", "is_disabled": 0, "is_reserved": 0}, {"rental_uris": {"ios": "https://dc.lft.to/lastmile_qr_scan", "android": "https://dc.lft.to/lastmile_qr_scan"}, "lon": -77.01995366666667, "type": "electric_scooter", "fusion_lat": 0.0, "lat": 38.885701, "name": "994e42ae767b6a757c44280e89b01bd2", "fusion_lon": 0.0, "bike_id": "994e42ae767b6a757c44280e89b01bd2", "is_disabled": 0, "is_reserved": 0}, {"rental_uris": {"ios": "https://dc.lft.to/lastmile_qr_scan", "android": "https://dc.lft.to/lastmile_qr_scan"}, "lon": -77.07788716666667, "type": "electric_scooter", "fusion_lat": 0.0, "lat": 38.94086133333333, "name": "30b21742b277835b66bdf45786e508d8", "fusion_lon": 0.0, "bike_id": "30b21742b277835b66bdf45786e508d8", "is_disabled": 0, "is_reserved": 0}, {"rental_uris": {"ios": "https://dc.lft.to/lastmile_qr_scan", "android": "https://dc.lft.to/lastmile_qr_scan"}, "lon": -77.00718783333333, "type": "electric_scooter", "fusion_lat": 0.0, "lat": 38.913431833333334, "name": "bb63b0e2a41280e5787f2c2d2d6a6017", "fusion_lon": 0.0, "bike_id": "bb63b0e2a41280e5787f2c2d2d6a6017", "is_disabled": 0, "is_reserved": 0}, {"rental_uris": {"ios": "https://dc.lft.to/lastmile_qr_scan", "android": "https://dc.lft.to/lastmile_qr_scan"}, "lon": -76.92998333333334, "type": "electric_bike", "fusion_lat": 0.0, "lat": 38.88797116666667, "name": "2d66b0ed9cc5e310fa0e3047f45afd2e", "fusion_lon": 0.0, "bike_id": "2d66b0ed9cc5e310fa0e3047f45afd2e", "is_disabled": 0, "is_reserved": 0}, {"rental_uris": {"ios": "https://dc.lft.to/lastmile_qr_scan", "android": "https://dc.lft.to/lastmile_qr_scan"}, "lon": -77.01593416666667, "type": "electric_scooter", "fusion_lat": 0.0, "lat": 38.89620733333334, "name": "d7fbb96febbec1d15b20784168dea98f", "fusion_lon": 0.0, "bike_id": "d7fbb96febbec1d15b20784168dea98f", "is_disabled": 0, "is_reserved": 0}, {"rental_uris": {"ios": "https://dc.lft.to/lastmile_qr_scan", "android": "https://dc.lft.to/lastmile_qr_scan"}, "lon": -77.05265966666667, "type": "electric_scooter", "fusion_lat": 0.0, "lat": 38.91011183333333, "name": "30a1242516471b598e8d42a10c01db3e", "fusion_lon": 0.0, "bike_id": "30a1242516471b598e8d42a10c01db3e", "is_disabled": 0, "is_reserved": 0}, {"rental_uris": {"ios": "https://dc.lft.to/lastmile_qr_scan", "android": "https://dc.lft.to/lastmile_qr_scan"}, "lon": -76.9395945, "type": "electric_scooter", "fusion_lat": 0.0, "lat": 38.894215, "name": "69a290b3c3c2c2ee2612476daeb35418", "fusion_lon": 0.0, "bike_id": "69a290b3c3c2c2ee2612476daeb35418", "is_disabled": 0, "is_reserved": 0}, {"rental_uris": {"ios": "https://dc.lft.to/lastmile_qr_scan", "android": "https://dc.lft.to/lastmile_qr_scan"}, "lon": -77.02166083333333, "type": "electric_scooter", "fusion_lat": 0.0, "lat": 38.9198035, "name": "fe107ee3aa95bf25249bb645c2a4bfc9", "fusion_lon": 0.0, "bike_id": "fe107ee3aa95bf25249bb645c2a4bfc9", "is_disabled": 0, "is_reserved": 0}, {"rental_uris": {"ios": "https://dc.lft.to/lastmile_qr_scan", "android": "https://dc.lft.to/lastmile_qr_scan"}, "lon": -77.010769, "type": "electric_scooter", "fusion_lat": 0.0, "lat": 38.90353966666667, "name": "0f66737b373f05520680071d35df9559", "fusion_lon": 0.0, "bike_id": "0f66737b373f05520680071d35df9559", "is_disabled": 0, "is_reserved": 0}, {"rental_uris": {"ios": "https://dc.lft.to/lastmile_qr_scan", "android": "https://dc.lft.to/lastmile_qr_scan"}, "lon": -76.94756166666667, "type": "electric_scooter", "fusion_lat": 0.0, "lat": 38.900640333333335, "name": "4ad292504b335f1962af544b2088626b", "fusion_lon": 0.0, "bike_id": "4ad292504b335f1962af544b2088626b", "is_disabled": 0, "is_reserved": 0}, {"rental_uris": {"ios": "https://dc.lft.to/lastmile_qr_scan", "android": "https://dc.lft.to/lastmile_qr_scan"}, "lon": -77.044797, "type": "electric_bike", "fusion_lat": 0.0, "lat": 38.91294533333333, "name": "43c7a9bac018cd0f14a579a33ca1ec36", "fusion_lon": 0.0, "bike_id": "43c7a9bac018cd0f14a579a33ca1ec36", "is_disabled": 0, "is_reserved": 0}, {"rental_uris": {"ios": "https://dc.lft.to/lastmile_qr_scan", "android": "https://dc.lft.to/lastmile_qr_scan"}, "lon": -76.96524966666667, "type": "electric_scooter", "fusion_lat": 0.0, "lat": 38.876282, "name": "2cb30114800b17d7a9b88d925704366a", "fusion_lon": 0.0, "bike_id": "2cb30114800b17d7a9b88d925704366a", "is_disabled": 0, "is_reserved": 0}, {"rental_uris": {"ios": "https://dc.lft.to/lastmile_qr_scan", "android": "https://dc.lft.to/lastmile_qr_scan"}, "lon": -77.02785883333334, "type": "electric_scooter", "fusion_lat": 0.0, "lat": 38.918144166666664, "name": "c1a81708159b9313983b63093e91f129", "fusion_lon": 0.0, "bike_id": "c1a81708159b9313983b63093e91f129", "is_disabled": 0, "is_reserved": 0}, {"rental_uris": {"ios": "https://dc.lft.to/lastmile_qr_scan", "android": "https://dc.lft.to/lastmile_qr_scan"}, "lon": -77.01385233333333, "type": "electric_scooter", "fusion_lat": 0.0, "lat": 38.91951433333333, "name": "fd824e49c8d2124603f1b317af8cb7b6", "fusion_lon": 0.0, "bike_id": "fd824e49c8d2124603f1b317af8cb7b6", "is_disabled": 0, "is_reserved": 0}, {"rental_uris": {"ios": "https://dc.lft.to/lastmile_qr_scan", "android": "https://dc.lft.to/lastmile_qr_scan"}, "lon": -77.024293, "type": "electric_scooter", "fusion_lat": 0.0, "lat": 38.9072175, "name": "443b43b92949439a9cd6c4665a334f10", "fusion_lon": 0.0, "bike_id": "443b43b92949439a9cd6c4665a334f10", "is_disabled": 0, "is_reserved": 0}, {"rental_uris": {"ios": "https://dc.lft.to/lastmile_qr_scan", "android": "https://dc.lft.to/lastmile_qr_scan"}, "lon": -77.02808633333333, "type": "electric_scooter", "fusion_lat": 0.0, "lat": 38.917537833333334, "name": "25eeb75c7167fc81c3b08b3d2266dcdb", "fusion_lon": 0.0, "bike_id": "25eeb75c7167fc81c3b08b3d2266dcdb", "is_disabled": 0, "is_reserved": 0}, {"rental_uris": {"ios": "https://dc.lft.to/lastmile_qr_scan", "android": "https://dc.lft.to/lastmile_qr_scan"}, "lon": -76.9770315, "type": "electric_scooter", "fusion_lat": 0.0, "lat": 38.897108333333335, "name": "04403693e7ab24518d19633fc958e87d", "fusion_lon": 0.0, "bike_id": "04403693e7ab24518d19633fc958e87d", "is_disabled": 0, "is_reserved": 0}, {"rental_uris": {"ios": "https://dc.lft.to/lastmile_qr_scan", "android": "https://dc.lft.to/lastmile_qr_scan"}, "lon": -77.03970083333333, "type": "electric_scooter", "fusion_lat": 0.0, "lat": 38.90036666666666, "name": "151eaec7967fe443ee432ca38cdef0de", "fusion_lon": 0.0, "bike_id": "151eaec7967fe443ee432ca38cdef0de", "is_disabled": 0, "is_reserved": 0}, {"rental_uris": {"ios": "https://dc.lft.to/lastmile_qr_scan", "android": "https://dc.lft.to/lastmile_qr_scan"}, "lon": -77.02224816666667, "type": "electric_scooter", "fusion_lat": 0.0, "lat": 38.912707166666664, "name": "7bb6ca25a29a1a0b7566e1660f0974e7", "fusion_lon": 0.0, "bike_id": "7bb6ca25a29a1a0b7566e1660f0974e7", "is_disabled": 0, "is_reserved": 0}, {"rental_uris": {"ios": "https://dc.lft.to/lastmile_qr_scan", "android": "https://dc.lft.to/lastmile_qr_scan"}, "lon": -76.94755716666667, "type": "electric_scooter", "fusion_lat": 0.0, "lat": 38.900548666666666, "name": "9fb33e661b876a7f93f4ae815ca6664d", "fusion_lon": 0.0, "bike_id": "9fb33e661b876a7f93f4ae815ca6664d", "is_disabled": 0, "is_reserved": 0}, {"rental_uris": {"ios": "https://dc.lft.to/lastmile_qr_scan", "android": "https://dc.lft.to/lastmile_qr_scan"}, "lon": -77.048725, "type": "electric_scooter", "fusion_lat": 0.0, "lat": 38.896628666666665, "name": "12530c6a6fae079a46f28982e0e97eff", "fusion_lon": 0.0, "bike_id": "12530c6a6fae079a46f28982e0e97eff", "is_disabled": 0, "is_reserved": 0}, {"rental_uris": {"ios": "https://dc.lft.to/lastmile_qr_scan", "android": "https://dc.lft.to/lastmile_qr_scan"}, "lon": -77.03516366666666, "type": "electric_scooter", "fusion_lat": 0.0, "lat": 38.900367, "name": "1f2853b63872deed643a2936bed871d4", "fusion_lon": 0.0, "bike_id": "1f2853b63872deed643a2936bed871d4", "is_disabled": 0, "is_reserved": 0}, {"rental_uris": {"ios": "https://dc.lft.to/lastmile_qr_scan", "android": "https://dc.lft.to/lastmile_qr_scan"}, "lon": -77.03469233333334, "type": "electric_scooter", "fusion_lat": 0.0, "lat": 38.917077666666664, "name": "d73aaf0f5ea08a2fa7736814a91e80e3", "fusion_lon": 0.0, "bike_id": "d73aaf0f5ea08a2fa7736814a91e80e3", "is_disabled": 0, "is_reserved": 0}, {"rental_uris": {"ios": "https://dc.lft.to/lastmile_qr_scan", "android": "https://dc.lft.to/lastmile_qr_scan"}, "lon": -77.03229983333334, "type": "electric_scooter", "fusion_lat": 0.0, "lat": 38.929898666666666, "name": "f32b18ce872e3cbc3d65992dbfdc0bff", "fusion_lon": 0.0, "bike_id": "f32b18ce872e3cbc3d65992dbfdc0bff", "is_disabled": 0, "is_reserved": 0}, {"rental_uris": {"ios": "https://dc.lft.to/lastmile_qr_scan", "android": "https://dc.lft.to/lastmile_qr_scan"}, "lon": -77.05932416666667, "type": "electric_scooter", "fusion_lat": 0.0, "lat": 38.90495133333334, "name": "8a7921af0c57c9b4645b9fb39565cb57", "fusion_lon": 0.0, "bike_id": "8a7921af0c57c9b4645b9fb39565cb57", "is_disabled": 0, "is_reserved": 0}, {"rental_uris": {"ios": "https://dc.lft.to/lastmile_qr_scan", "android": "https://dc.lft.to/lastmile_qr_scan"}, "lon": -77.029539, "type": "electric_scooter", "fusion_lat": 0.0, "lat": 38.916891666666665, "name": "a5f29bb9b06757a2eb9eee4673e23ef6", "fusion_lon": 0.0, "bike_id": "a5f29bb9b06757a2eb9eee4673e23ef6", "is_disabled": 0, "is_reserved": 0}, {"rental_uris": {"ios": "https://dc.lft.to/lastmile_qr_scan", "android": "https://dc.lft.to/lastmile_qr_scan"}, "lon": -76.98830433333333, "type": "electric_scooter", "fusion_lat": 0.0, "lat": 38.880250833333335, "name": "09f04cac4ff3101f519b3c2e51eabb66", "fusion_lon": 0.0, "bike_id": "09f04cac4ff3101f519b3c2e51eabb66", "is_disabled": 0, "is_reserved": 0}, {"rental_uris": {"ios": "https://dc.lft.to/lastmile_qr_scan", "android": "https://dc.lft.to/lastmile_qr_scan"}, "lon": -76.99634283333333, "type": "electric_bike", "fusion_lat": 0.0, "lat": 38.84668416666667, "name": "8a9af47857617a652ee2a8417e9b00d6", "fusion_lon": 0.0, "bike_id": "8a9af47857617a652ee2a8417e9b00d6", "is_disabled": 0, "is_reserved": 0}, {"rental_uris": {"ios": "https://dc.lft.to/lastmile_qr_scan", "android": "https://dc.lft.to/lastmile_qr_scan"}, "lon": -77.03547883333333, "type": "electric_scooter", "fusion_lat": 0.0, "lat": 38.9274215, "name": "12e04468cdfbb37b489977fe9ec90ffc", "fusion_lon": 0.0, "bike_id": "12e04468cdfbb37b489977fe9ec90ffc", "is_disabled": 0, "is_reserved": 0}, {"rental_uris": {"ios": "https://dc.lft.to/lastmile_qr_scan", "android": "https://dc.lft.to/lastmile_qr_scan"}, "lon": -77.0177215, "type": "electric_scooter", "fusion_lat": 0.0, "lat": 38.90361633333333, "name": "012f4522e1b30f5765205942111a807a", "fusion_lon": 0.0, "bike_id": "012f4522e1b30f5765205942111a807a", "is_disabled": 0, "is_reserved": 0}, {"rental_uris": {"ios": "https://dc.lft.to/lastmile_qr_scan", "android": "https://dc.lft.to/lastmile_qr_scan"}, "lon": -77.035935, "type": "electric_scooter", "fusion_lat": 0.0, "lat": 38.931417833333334, "name": "c1fbc8fca38863ae641f26ee4b19f9e3", "fusion_lon": 0.0, "bike_id": "c1fbc8fca38863ae641f26ee4b19f9e3", "is_disabled": 0, "is_reserved": 0}, {"rental_uris": {"ios": "https://dc.lft.to/lastmile_qr_scan", "android": "https://dc.lft.to/lastmile_qr_scan"}, "lon": -77.12372133333334, "type": "electric_bike", "fusion_lat": 0.0, "lat": 38.847382, "name": "7472b134c192f51ace80961c407ab134", "fusion_lon": 0.0, "bike_id": "7472b134c192f51ace80961c407ab134", "is_disabled": 0, "is_reserved": 0}, {"rental_uris": {"ios": "https://dc.lft.to/lastmile_qr_scan", "android": "https://dc.lft.to/lastmile_qr_scan"}, "lon": -77.07062116666667, "type": "electric_scooter", "fusion_lat": 0.0, "lat": 38.90109533333333, "name": "6beff45421f944e201adfcb37962f10f", "fusion_lon": 0.0, "bike_id": "6beff45421f944e201adfcb37962f10f", "is_disabled": 0, "is_reserved": 0}, {"rental_uris": {"ios": "https://dc.lft.to/lastmile_qr_scan", "android": "https://dc.lft.to/lastmile_qr_scan"}, "lon": -77.04374066666666, "type": "electric_scooter", "fusion_lat": 0.0, "lat": 38.931567666666666, "name": "1e842a59488364868b97a6f93ff0e14a", "fusion_lon": 0.0, "bike_id": "1e842a59488364868b97a6f93ff0e14a", "is_disabled": 0, "is_reserved": 0}, {"rental_uris": {"ios": "https://dc.lft.to/lastmile_qr_scan", "android": "https://dc.lft.to/lastmile_qr_scan"}, "lon": -77.04360433333333, "type": "electric_scooter", "fusion_lat": 0.0, "lat": 38.90520033333333, "name": "e872697d98a175e893d43a8c12b8b552", "fusion_lon": 0.0, "bike_id": "e872697d98a175e893d43a8c12b8b552", "is_disabled": 0, "is_reserved": 0}, {"rental_uris": {"ios": "https://dc.lft.to/lastmile_qr_scan", "android": "https://dc.lft.to/lastmile_qr_scan"}, "lon": -77.01627, "type": "electric_scooter", "fusion_lat": 0.0, "lat": 38.903845, "name": "bca9f313d635359065e91114e590d553", "fusion_lon": 0.0, "bike_id": "bca9f313d635359065e91114e590d553", "is_disabled": 0, "is_reserved": 0}, {"rental_uris": {"ios": "https://dc.lft.to/lastmile_qr_scan", "android": "https://dc.lft.to/lastmile_qr_scan"}, "lon": -76.91600016666666, "type": "electric_bike", "fusion_lat": 0.0, "lat": 38.8798, "name": "ef1c9a4dde092b376b8ab0bd1a8ec879", "fusion_lon": 0.0, "bike_id": "ef1c9a4dde092b376b8ab0bd1a8ec879", "is_disabled": 0, "is_reserved": 0}, {"rental_uris": {"ios": "https://dc.lft.to/lastmile_qr_scan", "android": "https://dc.lft.to/lastmile_qr_scan"}, "lon": -77.04063233333333, "type": "electric_scooter", "fusion_lat": 0.0, "lat": 38.9265375, "name": "5b4eb53e0f5ba19fc68901de147c3095", "fusion_lon": 0.0, "bike_id": "5b4eb53e0f5ba19fc68901de147c3095", "is_disabled": 0, "is_reserved": 0}, {"rental_uris": {"ios": "https://dc.lft.to/lastmile_qr_scan", "android": "https://dc.lft.to/lastmile_qr_scan"}, "lon": -77.00932, "type": "electric_scooter", "fusion_lat": 0.0, "lat": 38.871968333333335, "name": "25a26cffcb3125d55b8e86dae0333ad6", "fusion_lon": 0.0, "bike_id": "25a26cffcb3125d55b8e86dae0333ad6", "is_disabled": 0, "is_reserved": 0}, {"rental_uris": {"ios": "https://dc.lft.to/lastmile_qr_scan", "android": "https://dc.lft.to/lastmile_qr_scan"}, "lon": -77.03963666666667, "type": "electric_scooter", "fusion_lat": 0.0, "lat": 38.9023625, "name": "b5e2702a693fe55296df307789c7f10c", "fusion_lon": 0.0, "bike_id": "b5e2702a693fe55296df307789c7f10c", "is_disabled": 0, "is_reserved": 0}, {"rental_uris": {"ios": "https://dc.lft.to/lastmile_qr_scan", "android": "https://dc.lft.to/lastmile_qr_scan"}, "lon": -77.0242665, "type": "electric_bike", "fusion_lat": 0.0, "lat": 38.994143333333334, "name": "df423ea9a8842ae2bdd1d06f20a91c87", "fusion_lon": 0.0, "bike_id": "df423ea9a8842ae2bdd1d06f20a91c87", "is_disabled": 0, "is_reserved": 0}, {"rental_uris": {"ios": "https://dc.lft.to/lastmile_qr_scan", "android": "https://dc.lft.to/lastmile_qr_scan"}, "lon": -77.00204633333334, "type": "electric_scooter", "fusion_lat": 0.0, "lat": 38.90855116666667, "name": "a5f2260b31b1712bb739c4d96beee8d3", "fusion_lon": 0.0, "bike_id": "a5f2260b31b1712bb739c4d96beee8d3", "is_disabled": 0, "is_reserved": 0}, {"rental_uris": {"ios": "https://dc.lft.to/lastmile_qr_scan", "android": "https://dc.lft.to/lastmile_qr_scan"}, "lon": -77.06365166666667, "type": "electric_scooter", "fusion_lat": 0.0, "lat": 38.90931233333333, "name": "1476b8a865b9f1110b7bf811ce2d3d97", "fusion_lon": 0.0, "bike_id": "1476b8a865b9f1110b7bf811ce2d3d97", "is_disabled": 0, "is_reserved": 0}, {"rental_uris": {"ios": "https://dc.lft.to/lastmile_qr_scan", "android": "https://dc.lft.to/lastmile_qr_scan"}, "lon": -77.04121766666667, "type": "electric_scooter", "fusion_lat": 0.0, "lat": 38.922061666666664, "name": "4e097c91692cd982b42918e40381a6c1", "fusion_lon": 0.0, "bike_id": "4e097c91692cd982b42918e40381a6c1", "is_disabled": 0, "is_reserved": 0}, {"rental_uris": {"ios": "https://dc.lft.to/lastmile_qr_scan", "android": "https://dc.lft.to/lastmile_qr_scan"}, "lon": -77.06888616666667, "type": "electric_scooter", "fusion_lat": 0.0, "lat": 38.9402955, "name": "6144a09914fd82646123575cc27cb43b", "fusion_lon": 0.0, "bike_id": "6144a09914fd82646123575cc27cb43b", "is_disabled": 0, "is_reserved": 0}, {"rental_uris": {"ios": "https://dc.lft.to/lastmile_qr_scan", "android": "https://dc.lft.to/lastmile_qr_scan"}, "lon": -77.07043933333334, "type": "electric_bike", "fusion_lat": 0.0, "lat": 38.824443, "name": "7edaffed20c7804ef9bd04b75d0d8b16", "fusion_lon": 0.0, "bike_id": "7edaffed20c7804ef9bd04b75d0d8b16", "is_disabled": 0, "is_reserved": 0}, {"rental_uris": {"ios": "https://dc.lft.to/lastmile_qr_scan", "android": "https://dc.lft.to/lastmile_qr_scan"}, "lon": -76.98822816666667, "type": "electric_scooter", "fusion_lat": 0.0, "lat": 38.83584583333333, "name": "8007cea682eb06297fe4a791b03f89a7", "fusion_lon": 0.0, "bike_id": "8007cea682eb06297fe4a791b03f89a7", "is_disabled": 0, "is_reserved": 0}, {"rental_uris": {"ios": "https://dc.lft.to/lastmile_qr_scan", "android": "https://dc.lft.to/lastmile_qr_scan"}, "lon": -77.01012566666667, "type": "electric_scooter", "fusion_lat": 0.0, "lat": 38.906864666666664, "name": "9bbabccf9ab85c0a5a9b535299be1ac1", "fusion_lon": 0.0, "bike_id": "9bbabccf9ab85c0a5a9b535299be1ac1", "is_disabled": 0, "is_reserved": 0}, {"rental_uris": {"ios": "https://dc.lft.to/lastmile_qr_scan", "android": "https://dc.lft.to/lastmile_qr_scan"}, "lon": -77.024545, "type": "electric_scooter", "fusion_lat": 0.0, "lat": 38.908560666666666, "name": "eb7249438e60ee2d5a3f2785d50a77f8", "fusion_lon": 0.0, "bike_id": "eb7249438e60ee2d5a3f2785d50a77f8", "is_disabled": 0, "is_reserved": 0}, {"rental_uris": {"ios": "https://dc.lft.to/lastmile_qr_scan", "android": "https://dc.lft.to/lastmile_qr_scan"}, "lon": -77.01294783333333, "type": "electric_bike", "fusion_lat": 0.0, "lat": 38.8812035, "name": "5722c84dfaba4afb698721e546f1e9a3", "fusion_lon": 0.0, "bike_id": "5722c84dfaba4afb698721e546f1e9a3", "is_disabled": 0, "is_reserved": 0}, {"rental_uris": {"ios": "https://dc.lft.to/lastmile_qr_scan", "android": "https://dc.lft.to/lastmile_qr_scan"}, "lon": -77.0173795, "type": "electric_scooter", "fusion_lat": 0.0, "lat": 38.903589833333335, "name": "11156e51a11cfc8e9326af777569da11", "fusion_lon": 0.0, "bike_id": "11156e51a11cfc8e9326af777569da11", "is_disabled": 0, "is_reserved": 0}, {"rental_uris": {"ios": "https://dc.lft.to/lastmile_qr_scan", "android": "https://dc.lft.to/lastmile_qr_scan"}, "lon": -77.02421566666666, "type": "electric_scooter", "fusion_lat": 0.0, "lat": 38.920593833333335, "name": "93a48a486a7fe61b4d0841340cc4b426", "fusion_lon": 0.0, "bike_id": "93a48a486a7fe61b4d0841340cc4b426", "is_disabled": 0, "is_reserved": 0}, {"rental_uris": {"ios": "https://dc.lft.to/lastmile_qr_scan", "android": "https://dc.lft.to/lastmile_qr_scan"}, "lon": -77.03341733333333, "type": "electric_scooter", "fusion_lat": 0.0, "lat": 38.91693, "name": "00a3fa5b2ee46d526aba006c6c844ac0", "fusion_lon": 0.0, "bike_id": "00a3fa5b2ee46d526aba006c6c844ac0", "is_disabled": 0, "is_reserved": 0}, {"rental_uris": {"ios": "https://dc.lft.to/lastmile_qr_scan", "android": "https://dc.lft.to/lastmile_qr_scan"}, "lon": -77.0238835, "type": "electric_scooter", "fusion_lat": 0.0, "lat": 38.914225333333334, "name": "101683572a0c7c1b1fb16864d81a73de", "fusion_lon": 0.0, "bike_id": "101683572a0c7c1b1fb16864d81a73de", "is_disabled": 0, "is_reserved": 0}, {"rental_uris": {"ios": "https://dc.lft.to/lastmile_qr_scan", "android": "https://dc.lft.to/lastmile_qr_scan"}, "lon": -77.034756, "type": "electric_scooter", "fusion_lat": 0.0, "lat": 38.902786166666665, "name": "7621c119493dce26be552c23fc4749d9", "fusion_lon": 0.0, "bike_id": "7621c119493dce26be552c23fc4749d9", "is_disabled": 0, "is_reserved": 0}, {"rental_uris": {"ios": "https://dc.lft.to/lastmile_qr_scan", "android": "https://dc.lft.to/lastmile_qr_scan"}, "lon": -77.00579183333333, "type": "electric_scooter", "fusion_lat": 0.0, "lat": 38.844956, "name": "52ab62b6f57a0b2d2de5611f688c4c30", "fusion_lon": 0.0, "bike_id": "52ab62b6f57a0b2d2de5611f688c4c30", "is_disabled": 0, "is_reserved": 0}, {"rental_uris": {"ios": "https://dc.lft.to/lastmile_qr_scan", "android": "https://dc.lft.to/lastmile_qr_scan"}, "lon": -76.97306083333334, "type": "electric_scooter", "fusion_lat": 0.0, "lat": 38.917764, "name": "a32fd43ad9709cfe11a0c4558b48d0ff", "fusion_lon": 0.0, "bike_id": "a32fd43ad9709cfe11a0c4558b48d0ff", "is_disabled": 0, "is_reserved": 0}, {"rental_uris": {"ios": "https://dc.lft.to/lastmile_qr_scan", "android": "https://dc.lft.to/lastmile_qr_scan"}, "lon": -77.031534, "type": "electric_scooter", "fusion_lat": 0.0, "lat": 38.94529383333333, "name": "2d79e7f77a79af0d571ad06fb34702a3", "fusion_lon": 0.0, "bike_id": "2d79e7f77a79af0d571ad06fb34702a3", "is_disabled": 0, "is_reserved": 0}, {"rental_uris": {"ios": "https://dc.lft.to/lastmile_qr_scan", "android": "https://dc.lft.to/lastmile_qr_scan"}, "lon": -77.04314216666667, "type": "electric_scooter", "fusion_lat": 0.0, "lat": 38.91882716666667, "name": "f6a9f052fdd409e23da5e0105a4a10dd", "fusion_lon": 0.0, "bike_id": "f6a9f052fdd409e23da5e0105a4a10dd", "is_disabled": 0, "is_reserved": 0}, {"rental_uris": {"ios": "https://dc.lft.to/lastmile_qr_scan", "android": "https://dc.lft.to/lastmile_qr_scan"}, "lon": -77.0153265, "type": "electric_scooter", "fusion_lat": 0.0, "lat": 38.8872955, "name": "943ef436c5d17878dc53daf4dad492d7", "fusion_lon": 0.0, "bike_id": "943ef436c5d17878dc53daf4dad492d7", "is_disabled": 0, "is_reserved": 0}, {"rental_uris": {"ios": "https://dc.lft.to/lastmile_qr_scan", "android": "https://dc.lft.to/lastmile_qr_scan"}, "lon": -77.03504, "type": "electric_scooter", "fusion_lat": 0.0, "lat": 38.918783, "name": "faf50a7e8586e1e354e82fceec1104f4", "fusion_lon": 0.0, "bike_id": "faf50a7e8586e1e354e82fceec1104f4", "is_disabled": 0, "is_reserved": 0}, {"rental_uris": {"ios": "https://dc.lft.to/lastmile_qr_scan", "android": "https://dc.lft.to/lastmile_qr_scan"}, "lon": -77.0449165, "type": "electric_scooter", "fusion_lat": 0.0, "lat": 38.9110295, "name": "48b1ec79693deeb10eb45038ab5fd8be", "fusion_lon": 0.0, "bike_id": "48b1ec79693deeb10eb45038ab5fd8be", "is_disabled": 0, "is_reserved": 0}, {"rental_uris": {"ios": "https://dc.lft.to/lastmile_qr_scan", "android": "https://dc.lft.to/lastmile_qr_scan"}, "lon": -77.00563616666666, "type": "electric_scooter", "fusion_lat": 0.0, "lat": 38.905564, "name": "5bbdf5a442e6e40760a20717758b653d", "fusion_lon": 0.0, "bike_id": "5bbdf5a442e6e40760a20717758b653d", "is_disabled": 0, "is_reserved": 0}, {"rental_uris": {"ios": "https://dc.lft.to/lastmile_qr_scan", "android": "https://dc.lft.to/lastmile_qr_scan"}, "lon": -76.98254083333333, "type": "electric_scooter", "fusion_lat": 0.0, "lat": 38.9086685, "name": "a062ac250cc8012170a415fd214827cd", "fusion_lon": 0.0, "bike_id": "a062ac250cc8012170a415fd214827cd", "is_disabled": 0, "is_reserved": 0}, {"rental_uris": {"ios": "https://dc.lft.to/lastmile_qr_scan", "android": "https://dc.lft.to/lastmile_qr_scan"}, "lon": -77.00974433333333, "type": "electric_scooter", "fusion_lat": 0.0, "lat": 38.919247, "name": "b54026382889044420b9b96038b5c09d", "fusion_lon": 0.0, "bike_id": "b54026382889044420b9b96038b5c09d", "is_disabled": 0, "is_reserved": 0}, {"rental_uris": {"ios": "https://dc.lft.to/lastmile_qr_scan", "android": "https://dc.lft.to/lastmile_qr_scan"}, "lon": -76.981838, "type": "electric_scooter", "fusion_lat": 0.0, "lat": 38.89574116666667, "name": "2f0463c3774a00fbcf20dc77901c2740", "fusion_lon": 0.0, "bike_id": "2f0463c3774a00fbcf20dc77901c2740", "is_disabled": 0, "is_reserved": 0}, {"rental_uris": {"ios": "https://dc.lft.to/lastmile_qr_scan", "android": "https://dc.lft.to/lastmile_qr_scan"}, "lon": -77.02361716666667, "type": "electric_scooter", "fusion_lat": 0.0, "lat": 38.925012333333335, "name": "4f46a45842f5455d70f63682a799495b", "fusion_lon": 0.0, "bike_id": "4f46a45842f5455d70f63682a799495b", "is_disabled": 0, "is_reserved": 0}, {"rental_uris": {"ios": "https://dc.lft.to/lastmile_qr_scan", "android": "https://dc.lft.to/lastmile_qr_scan"}, "lon": -76.90952733333333, "type": "electric_bike", "fusion_lat": 0.0, "lat": 38.8541495, "name": "01a5af1aca4dd2af2c90d3e8c748d7e9", "fusion_lon": 0.0, "bike_id": "01a5af1aca4dd2af2c90d3e8c748d7e9", "is_disabled": 0, "is_reserved": 0}, {"rental_uris": {"ios": "https://dc.lft.to/lastmile_qr_scan", "android": "https://dc.lft.to/lastmile_qr_scan"}, "lon": -77.03142233333334, "type": "electric_scooter", "fusion_lat": 0.0, "lat": 38.912645166666664, "name": "647e2b0bcbc96a03a3c5da6054f68ef5", "fusion_lon": 0.0, "bike_id": "647e2b0bcbc96a03a3c5da6054f68ef5", "is_disabled": 0, "is_reserved": 0}, {"rental_uris": {"ios": "https://dc.lft.to/lastmile_qr_scan", "android": "https://dc.lft.to/lastmile_qr_scan"}, "lon": -76.9489095, "type": "electric_scooter", "fusion_lat": 0.0, "lat": 38.89529233333333, "name": "267295a1ad3f608f3f6b3fdbca4292c4", "fusion_lon": 0.0, "bike_id": "267295a1ad3f608f3f6b3fdbca4292c4", "is_disabled": 0, "is_reserved": 0}, {"rental_uris": {"ios": "https://dc.lft.to/lastmile_qr_scan", "android": "https://dc.lft.to/lastmile_qr_scan"}, "lon": -77.03445283333333, "type": "electric_scooter", "fusion_lat": 0.0, "lat": 38.90976116666667, "name": "4ddee76394d0ef54171c896b81e04e85", "fusion_lon": 0.0, "bike_id": "4ddee76394d0ef54171c896b81e04e85", "is_disabled": 0, "is_reserved": 0}, {"rental_uris": {"ios": "https://dc.lft.to/lastmile_qr_scan", "android": "https://dc.lft.to/lastmile_qr_scan"}, "lon": -77.0329805, "type": "electric_scooter", "fusion_lat": 0.0, "lat": 38.918046833333335, "name": "15f201a1b5c71a90dfade6dcda057516", "fusion_lon": 0.0, "bike_id": "15f201a1b5c71a90dfade6dcda057516", "is_disabled": 0, "is_reserved": 0}, {"rental_uris": {"ios": "https://dc.lft.to/lastmile_qr_scan", "android": "https://dc.lft.to/lastmile_qr_scan"}, "lon": -77.02414583333334, "type": "electric_scooter", "fusion_lat": 0.0, "lat": 38.934860666666665, "name": "b81d4af5d34f318104e3fd08bf3f327e", "fusion_lon": 0.0, "bike_id": "b81d4af5d34f318104e3fd08bf3f327e", "is_disabled": 0, "is_reserved": 0}, {"rental_uris": {"ios": "https://dc.lft.to/lastmile_qr_scan", "android": "https://dc.lft.to/lastmile_qr_scan"}, "lon": -76.99366316666666, "type": "electric_scooter", "fusion_lat": 0.0, "lat": 38.9004155, "name": "5c5af1dd9386132b6f2ea83de7734b05", "fusion_lon": 0.0, "bike_id": "5c5af1dd9386132b6f2ea83de7734b05", "is_disabled": 0, "is_reserved": 0}, {"rental_uris": {"ios": "https://dc.lft.to/lastmile_qr_scan", "android": "https://dc.lft.to/lastmile_qr_scan"}, "lon": -76.9843625, "type": "electric_scooter", "fusion_lat": 0.0, "lat": 38.914714833333335, "name": "60c057da8ce9aaa9c702e0e2b9b0a312", "fusion_lon": 0.0, "bike_id": "60c057da8ce9aaa9c702e0e2b9b0a312", "is_disabled": 0, "is_reserved": 0}, {"rental_uris": {"ios": "https://dc.lft.to/lastmile_qr_scan", "android": "https://dc.lft.to/lastmile_qr_scan"}, "lon": -76.99809916666666, "type": "electric_scooter", "fusion_lat": 0.0, "lat": 38.9001015, "name": "dd25c7198d4b247d9941628d39103193", "fusion_lon": 0.0, "bike_id": "dd25c7198d4b247d9941628d39103193", "is_disabled": 0, "is_reserved": 0}, {"rental_uris": {"ios": "https://dc.lft.to/lastmile_qr_scan", "android": "https://dc.lft.to/lastmile_qr_scan"}, "lon": -77.05755833333333, "type": "electric_scooter", "fusion_lat": 0.0, "lat": 38.92465133333334, "name": "dc4699140ce8ca36001d7296dc09bd4c", "fusion_lon": 0.0, "bike_id": "dc4699140ce8ca36001d7296dc09bd4c", "is_disabled": 0, "is_reserved": 0}, {"rental_uris": {"ios": "https://dc.lft.to/lastmile_qr_scan", "android": "https://dc.lft.to/lastmile_qr_scan"}, "lon": -77.059692, "type": "electric_scooter", "fusion_lat": 0.0, "lat": 38.9052495, "name": "80d16251fb537f1bc2a85073fc0e5ff6", "fusion_lon": 0.0, "bike_id": "80d16251fb537f1bc2a85073fc0e5ff6", "is_disabled": 0, "is_reserved": 0}, {"rental_uris": {"ios": "https://dc.lft.to/lastmile_qr_scan", "android": "https://dc.lft.to/lastmile_qr_scan"}, "lon": -77.02976566666666, "type": "electric_scooter", "fusion_lat": 0.0, "lat": 38.916265333333335, "name": "3eaa606f89c9db764eabf148f38e0aa8", "fusion_lon": 0.0, "bike_id": "3eaa606f89c9db764eabf148f38e0aa8", "is_disabled": 0, "is_reserved": 0}, {"rental_uris": {"ios": "https://dc.lft.to/lastmile_qr_scan", "android": "https://dc.lft.to/lastmile_qr_scan"}, "lon": -77.02697683333334, "type": "electric_scooter", "fusion_lat": 0.0, "lat": 38.918699333333336, "name": "d36a7cbbd0e42bd6cc48ef5ca5b1002c", "fusion_lon": 0.0, "bike_id": "d36a7cbbd0e42bd6cc48ef5ca5b1002c", "is_disabled": 0, "is_reserved": 0}, {"rental_uris": {"ios": "https://dc.lft.to/lastmile_qr_scan", "android": "https://dc.lft.to/lastmile_qr_scan"}, "lon": -77.01579216666667, "type": "electric_scooter", "fusion_lat": 0.0, "lat": 38.887498666666666, "name": "379d6589137f0d4ff68e6695de56375f", "fusion_lon": 0.0, "bike_id": "379d6589137f0d4ff68e6695de56375f", "is_disabled": 0, "is_reserved": 0}, {"rental_uris": {"ios": "https://dc.lft.to/lastmile_qr_scan", "android": "https://dc.lft.to/lastmile_qr_scan"}, "lon": -77.027628, "type": "electric_scooter", "fusion_lat": 0.0, "lat": 38.91696016666667, "name": "edf9c4863765bfc3c241f0c8026ce41c", "fusion_lon": 0.0, "bike_id": "edf9c4863765bfc3c241f0c8026ce41c", "is_disabled": 0, "is_reserved": 0}, {"rental_uris": {"ios": "https://dc.lft.to/lastmile_qr_scan", "android": "https://dc.lft.to/lastmile_qr_scan"}, "lon": -77.06299683333333, "type": "electric_scooter", "fusion_lat": 0.0, "lat": 38.9039265, "name": "e363a0e517641b35cceda487ed185d72", "fusion_lon": 0.0, "bike_id": "e363a0e517641b35cceda487ed185d72", "is_disabled": 0, "is_reserved": 0}, {"rental_uris": {"ios": "https://dc.lft.to/lastmile_qr_scan", "android": "https://dc.lft.to/lastmile_qr_scan"}, "lon": -77.02966983333333, "type": "electric_scooter", "fusion_lat": 0.0, "lat": 38.92520433333333, "name": "3471e35304d473aff45c907c8b61c17f", "fusion_lon": 0.0, "bike_id": "3471e35304d473aff45c907c8b61c17f", "is_disabled": 0, "is_reserved": 0}, {"rental_uris": {"ios": "https://dc.lft.to/lastmile_qr_scan", "android": "https://dc.lft.to/lastmile_qr_scan"}, "lon": -76.9916, "type": "electric_scooter", "fusion_lat": 0.0, "lat": 38.89342033333333, "name": "84552897719a8520d439d3138a72a1b5", "fusion_lon": 0.0, "bike_id": "84552897719a8520d439d3138a72a1b5", "is_disabled": 0, "is_reserved": 0}, {"rental_uris": {"ios": "https://dc.lft.to/lastmile_qr_scan", "android": "https://dc.lft.to/lastmile_qr_scan"}, "lon": -77.0481115, "type": "electric_scooter", "fusion_lat": 0.0, "lat": 38.89727966666667, "name": "88e369d3de6b3251b8faf8c79ebc63c0", "fusion_lon": 0.0, "bike_id": "88e369d3de6b3251b8faf8c79ebc63c0", "is_disabled": 0, "is_reserved": 0}, {"rental_uris": {"ios": "https://dc.lft.to/lastmile_qr_scan", "android": "https://dc.lft.to/lastmile_qr_scan"}, "lon": -77.012192, "type": "electric_scooter", "fusion_lat": 0.0, "lat": 38.920319166666665, "name": "b1a799d798f531dbde7e4c2c9d96da02", "fusion_lon": 0.0, "bike_id": "b1a799d798f531dbde7e4c2c9d96da02", "is_disabled": 0, "is_reserved": 0}, {"rental_uris": {"ios": "https://dc.lft.to/lastmile_qr_scan", "android": "https://dc.lft.to/lastmile_qr_scan"}, "lon": -77.042207, "type": "electric_scooter", "fusion_lat": 0.0, "lat": 38.9071215, "name": "6fdfbbe5c79d65646e004500bd8ac54d", "fusion_lon": 0.0, "bike_id": "6fdfbbe5c79d65646e004500bd8ac54d", "is_disabled": 0, "is_reserved": 0}, {"rental_uris": {"ios": "https://dc.lft.to/lastmile_qr_scan", "android": "https://dc.lft.to/lastmile_qr_scan"}, "lon": -77.02381733333333, "type": "electric_scooter", "fusion_lat": 0.0, "lat": 38.914207, "name": "fadbc533aa9ed05cd55849ef3fa7c824", "fusion_lon": 0.0, "bike_id": "fadbc533aa9ed05cd55849ef3fa7c824", "is_disabled": 0, "is_reserved": 0}, {"rental_uris": {"ios": "https://dc.lft.to/lastmile_qr_scan", "android": "https://dc.lft.to/lastmile_qr_scan"},