{"data": {"bikes": [{"name": "f4eedeb09b884c31920586c536ee90f9", "type": "electric_scooter", "lat": 38.97496066666667, "is_reserved": 0, "lon": -77.0168265, "fusion_lon": 0.0, "is_disabled": 0, "fusion_lat": 0.0, "bike_id": "f4eedeb09b884c31920586c536ee90f9", "rental_uris": {"ios": "https://dc.lft.to/lastmile_qr_scan", "android": "https://dc.lft.to/lastmile_qr_scan"}}, {"name": "5f491abb2d650f468f2870a5f371597b", "type": "electric_bike", "lat": 38.953254666666666, "is_reserved": 0, "lon": -76.98247216666667, "fusion_lon": 0.0, "is_disabled": 0, "fusion_lat": 0.0, "bike_id": "5f491abb2d650f468f2870a5f371597b", "rental_uris": {"ios": "https://dc.lft.to/lastmile_qr_scan", "android": "https://dc.lft.to/lastmile_qr_scan"}}, {"name": "257fc2151959e64f352109d62e661a76", "type": "electric_bike", "lat": 38.87745966666667, "is_reserved": 0, "lon": -76.97984783333334, "fusion_lon": 0.0, "is_disabled": 0, "fusion_lat": 0.0, "bike_id": "257fc2151959e64f352109d62e661a76", "rental_uris": {"ios": "https://dc.lft.to/lastmile_qr_scan", "android": "https://dc.lft.to/lastmile_qr_scan"}}, {"name": "fefc483e0f893968645437a2bbd5f6be", "type": "electric_scooter", "lat": 38.902857166666664, "is_reserved": 0, "lon": -77.038219, "fusion_lon": 0.0, "is_disabled": 0, "fusion_lat": 0.0, "bike_id": "fefc483e0f893968645437a2bbd5f6be", "rental_uris": {"ios": "https://dc.lft.to/lastmile_qr_scan", "android": "https://dc.lft.to/lastmile_qr_scan"}}, {"name": "e6b653a1dc1f37a599552176bc7bbe76", "type": "electric_bike", "lat": 38.9593605, "is_reserved": 0, "lon": -76.925293, "fusion_lon": 0.0, "is_disabled": 0, "fusion_lat": 0.0, "bike_id": "e6b653a1dc1f37a599552176bc7bbe76", "rental_uris": {"ios": "https://dc.lft.to/lastmile_qr_scan", "android": "https://dc.lft.to/lastmile_qr_scan"}}, {"name": "059a423be2d118efd7b78f014681f0a0", "type": "electric_scooter", "lat": 38.912372500000004, "is_reserved": 0, "lon": -77.048712, "fusion_lon": 0.0, "is_disabled": 0, "fusion_lat": 0.0, "bike_id": "059a423be2d118efd7b78f014681f0a0", "rental_uris": {"ios": "https://dc.lft.to/lastmile_qr_scan", "android": "https://dc.lft.to/lastmile_qr_scan"}}, {"name": "68dbf7ee120c6d31e80eb1492ba9508c", "type": "electric_scooter", "lat": 38.90965666666666, "is_reserved": 0, "lon": -77.0111515, "fusion_lon": 0.0, "is_disabled": 0, "fusion_lat": 0.0, "bike_id": "68dbf7ee120c6d31e80eb1492ba9508c", "rental_uris": {"ios": "https://dc.lft.to/lastmile_qr_scan", "android": "https://dc.lft.to/lastmile_qr_scan"}}, {"name": "6266ef845bb126da7c7290a95112f11b", "type": "electric_scooter", "lat": 38.92429516666667, "is_reserved": 0, "lon": -77.0424525, "fusion_lon": 0.0, "is_disabled": 0, "fusion_lat": 0.0, "bike_id": "6266ef845bb126da7c7290a95112f11b", "rental_uris": {"ios": "https://dc.lft.to/lastmile_qr_scan", "android": "https://dc.lft.to/lastmile_qr_scan"}}, {"name": "3e00ad99bf4e761854632676909aec88", "type": "electric_bike", "lat": 38.92757683333333, "is_reserved": 0, "lon": -77.0323045, "fusion_lon": 0.0, "is_disabled": 0, "fusion_lat": 0.0, "bike_id": "3e00ad99bf4e761854632676909aec88", "rental_uris": {"ios": "https://dc.lft.to/lastmile_qr_scan", "android": "https://dc.lft.to/lastmile_qr_scan"}}, {"name": "34172095c9b4074d2377cd0eb7f829f1", "type": "electric_scooter", "lat": 38.9066435, "is_reserved": 0, "lon": -77.02693966666666, "fusion_lon": 0.0, "is_disabled": 0, "fusion_lat": 0.0, "bike_id": "34172095c9b4074d2377cd0eb7f829f1", "rental_uris": {"ios": "https://dc.lft.to/lastmile_qr_scan", "android": "https://dc.lft.to/lastmile_qr_scan"}}, {"name": "f525fe848b66102e526745fa7c074578", "type": "electric_bike", "lat": 38.93955316666667, "is_reserved": 0, "lon": -77.360952, "fusion_lon": 0.0, "is_disabled": 0, "fusion_lat": 0.0, "bike_id": "f525fe848b66102e526745fa7c074578", "rental_uris": {"ios": "https://dc.lft.to/lastmile_qr_scan", "android": "https://dc.lft.to/lastmile_qr_scan"}}, {"name": "2a43a680ead954800ce95a11c054876c", "type": "electric_scooter", "lat": 38.91550016666667, "is_reserved": 0, "lon": -77.038511, "fusion_lon": 0.0, "is_disabled": 0, "fusion_lat": 0.0, "bike_id": "2a43a680ead954800ce95a11c054876c", "rental_uris": {"ios": "https://dc.lft.to/lastmile_qr_scan", "android": "https://dc.lft.to/lastmile_qr_scan"}}, {"name": "405b51db978e35b5cb6aab9930104bd2", "type": "electric_scooter", "lat": 38.86960466666667, "is_reserved": 0, "lon": -77.01374233333334, "fusion_lon": 0.0, "is_disabled": 0, "fusion_lat": 0.0, "bike_id": "405b51db978e35b5cb6aab9930104bd2", "rental_uris": {"ios": "https://dc.lft.to/lastmile_qr_scan", "android": "https://dc.lft.to/lastmile_qr_scan"}}, {"name": "11c27872cf3affede675ed5fbcd6df9d", "type": "electric_scooter", "lat": 38.90142983333333, "is_reserved": 0, "lon": -77.03334266666667, "fusion_lon": 0.0, "is_disabled": 0, "fusion_lat": 0.0, "bike_id": "11c27872cf3affede675ed5fbcd6df9d", "rental_uris": {"ios": "https://dc.lft.to/lastmile_qr_scan", "android": "https://dc.lft.to/lastmile_qr_scan"}}, {"name": "2c3cc7c8e4f3a47fc4d37c10197a3f2d", "type": "electric_scooter", "lat": 38.91818883333333, "is_reserved": 0, "lon": -77.02532866666667, "fusion_lon": 0.0, "is_disabled": 0, "fusion_lat": 0.0, "bike_id": "2c3cc7c8e4f3a47fc4d37c10197a3f2d", "rental_uris": {"ios": "https://dc.lft.to/lastmile_qr_scan", "android": "https://dc.lft.to/lastmile_qr_scan"}}, {"name": "4cbb73630a1b7eebb637d0838f95edbc", "type": "electric_scooter", "lat": 38.904642833333334, "is_reserved": 0, "lon": -77.04642683333333, "fusion_lon": 0.0, "is_disabled": 0, "fusion_lat": 0.0, "bike_id": "4cbb73630a1b7eebb637d0838f95edbc", "rental_uris": {"ios": "https://dc.lft.to/lastmile_qr_scan", "android": "https://dc.lft.to/lastmile_qr_scan"}}, {"name": "acd8c3f211edc527277ef9f04474fc37", "type": "electric_scooter", "lat": 38.90959683333333, "is_reserved": 0, "lon": -77.0075935, "fusion_lon": 0.0, "is_disabled": 0, "fusion_lat": 0.0, "bike_id": "acd8c3f211edc527277ef9f04474fc37", "rental_uris": {"ios": "https://dc.lft.to/lastmile_qr_scan", "android": "https://dc.lft.to/lastmile_qr_scan"}}, {"name": "e8b512acf6fb516fdd9e3f66b76bc39e", "type": "electric_scooter", "lat": 38.89191566666667, "is_reserved": 0, "lon": -77.045867, "fusion_lon": 0.0, "is_disabled": 0, "fusion_lat": 0.0, "bike_id": "e8b512acf6fb516fdd9e3f66b76bc39e", "rental_uris": {"ios": "https://dc.lft.to/lastmile_qr_scan", "android": "https://dc.lft.to/lastmile_qr_scan"}}, {"name": "b58513777c0f73a61a61878f264ef574", "type": "electric_scooter", "lat": 38.932007666666664, "is_reserved": 0, "lon": -77.03875, "fusion_lon": 0.0, "is_disabled": 0, "fusion_lat": 0.0, "bike_id": "b58513777c0f73a61a61878f264ef574", "rental_uris": {"ios": "https://dc.lft.to/lastmile_qr_scan", "android": "https://dc.lft.to/lastmile_qr_scan"}}, {"name": "cee3bc7ee8806d30cf78240e9b8cc786", "type": "electric_scooter", "lat": 38.913229333333334, "is_reserved": 0, "lon": -77.0385595, "fusion_lon": 0.0, "is_disabled": 0, "fusion_lat": 0.0, "bike_id": "cee3bc7ee8806d30cf78240e9b8cc786", "rental_uris": {"ios": "https://dc.lft.to/lastmile_qr_scan", "android": "https://dc.lft.to/lastmile_qr_scan"}}, {"name": "ef1a281081621c831cff541c00076629", "type": "electric_scooter", "lat": 38.903792833333334, "is_reserved": 0, "lon": -77.0109595, "fusion_lon": 0.0, "is_disabled": 0, "fusion_lat": 0.0, "bike_id": "ef1a281081621c831cff541c00076629", "rental_uris": {"ios": "https://dc.lft.to/lastmile_qr_scan", "android": "https://dc.lft.to/lastmile_qr_scan"}}, {"name": "2540e1bb7a728b904665de10dfcf50ef", "type": "electric_bike", "lat": 38.80228016666667, "is_reserved": 0, "lon": -77.0791635, "fusion_lon": 0.0, "is_disabled": 0, "fusion_lat": 0.0, "bike_id": "2540e1bb7a728b904665de10dfcf50ef", "rental_uris": {"ios": "https://dc.lft.to/lastmile_qr_scan", "android": "https://dc.lft.to/lastmile_qr_scan"}}, {"name": "a4ac1e395c51cfb3cb5dc3a695056d7e", "type": "electric_bike", "lat": 38.906819666666664, "is_reserved": 0, "lon": -76.95184716666667, "fusion_lon": 0.0, "is_disabled": 0, "fusion_lat": 0.0, "bike_id": "a4ac1e395c51cfb3cb5dc3a695056d7e", "rental_uris": {"ios": "https://dc.lft.to/lastmile_qr_scan", "android": "https://dc.lft.to/lastmile_qr_scan"}}, {"name": "f9a8bf2097f97c85caf21de2d0eeaed5", "type": "electric_bike", "lat": 38.896978, "is_reserved": 0, "lon": -77.007194, "fusion_lon": 0.0, "is_disabled": 0, "fusion_lat": 0.0, "bike_id": "f9a8bf2097f97c85caf21de2d0eeaed5", "rental_uris": {"ios": "https://dc.lft.to/lastmile_qr_scan", "android": "https://dc.lft.to/lastmile_qr_scan"}}, {"name": "1fa11186619f8e0d20970c7052ec755c", "type": "electric_scooter", "lat": 38.907190666666665, "is_reserved": 0, "lon": -77.03446983333333, "fusion_lon": 0.0, "is_disabled": 0, "fusion_lat": 0.0, "bike_id": "1fa11186619f8e0d20970c7052ec755c", "rental_uris": {"ios": "https://dc.lft.to/lastmile_qr_scan", "android": "https://dc.lft.to/lastmile_qr_scan"}}, {"name": "f6d6ac47f7a6113a446a2f9d12dd1797", "type": "electric_scooter", "lat": 38.94444933333333, "is_reserved": 0, "lon": -77.06354766666666, "fusion_lon": 0.0, "is_disabled": 0, "fusion_lat": 0.0, "bike_id": "f6d6ac47f7a6113a446a2f9d12dd1797", "rental_uris": {"ios": "https://dc.lft.to/lastmile_qr_scan", "android": "https://dc.lft.to/lastmile_qr_scan"}}, {"name": "3efa2a424acdee78f9adc242ab9b9764", "type": "electric_scooter", "lat": 38.90546416666667, "is_reserved": 0, "lon": -77.02180166666666, "fusion_lon": 0.0, "is_disabled": 0, "fusion_lat": 0.0, "bike_id": "3efa2a424acdee78f9adc242ab9b9764", "rental_uris": {"ios": "https://dc.lft.to/lastmile_qr_scan", "android": "https://dc.lft.to/lastmile_qr_scan"}}, {"name": "51c9423187925ebe74f8cb130737e754", "type": "electric_scooter", "lat": 38.929507666666666, "is_reserved": 0, "lon": -77.04394466666666, "fusion_lon": 0.0, "is_disabled": 0, "fusion_lat": 0.0, "bike_id": "51c9423187925ebe74f8cb130737e754", "rental_uris": {"ios": "https://dc.lft.to/lastmile_qr_scan", "android": "https://dc.lft.to/lastmile_qr_scan"}}, {"name": "762b7cc5be5f3c5e03454f8a7bbed54e", "type": "electric_scooter", "lat": 38.921619666666665, "is_reserved": 0, "lon": -77.03859183333333, "fusion_lon": 0.0, "is_disabled": 0, "fusion_lat": 0.0, "bike_id": "762b7cc5be5f3c5e03454f8a7bbed54e", "rental_uris": {"ios": "https://dc.lft.to/lastmile_qr_scan", "android": "https://dc.lft.to/lastmile_qr_scan"}}, {"name": "0a9d3d99ed0b8a84a962a2c172cdcf62", "type": "electric_scooter", "lat": 38.9053415, "is_reserved": 0, "lon": -77.05007583333334, "fusion_lon": 0.0, "is_disabled": 0, "fusion_lat": 0.0, "bike_id": "0a9d3d99ed0b8a84a962a2c172cdcf62", "rental_uris": {"ios": "https://dc.lft.to/lastmile_qr_scan", "android": "https://dc.lft.to/lastmile_qr_scan"}}, {"name": "1be4b371c88693319f4bcac35579da4c", "type": "electric_scooter", "lat": 38.909975, "is_reserved": 0, "lon": -77.0400255, "fusion_lon": 0.0, "is_disabled": 0, "fusion_lat": 0.0, "bike_id": "1be4b371c88693319f4bcac35579da4c", "rental_uris": {"ios": "https://dc.lft.to/lastmile_qr_scan", "android": "https://dc.lft.to/lastmile_qr_scan"}}, {"name": "3f7958ae073739db525c34ca41658d43", "type": "electric_scooter", "lat": 38.8762665, "is_reserved": 0, "lon": -76.96523783333333, "fusion_lon": 0.0, "is_disabled": 0, "fusion_lat": 0.0, "bike_id": "3f7958ae073739db525c34ca41658d43", "rental_uris": {"ios": "https://dc.lft.to/lastmile_qr_scan", "android": "https://dc.lft.to/lastmile_qr_scan"}}, {"name": "51248efbee62ff61219b896ab232b298", "type": "electric_scooter", "lat": 38.89978283333333, "is_reserved": 0, "lon": -76.99147483333333, "fusion_lon": 0.0, "is_disabled": 0, "fusion_lat": 0.0, "bike_id": "51248efbee62ff61219b896ab232b298", "rental_uris": {"ios": "https://dc.lft.to/lastmile_qr_scan", "android": "https://dc.lft.to/lastmile_qr_scan"}}, {"name": "7b68f25215c8008e0dec6558396e467d", "type": "electric_scooter", "lat": 38.89330416666667, "is_reserved": 0, "lon": -76.92990483333334, "fusion_lon": 0.0, "is_disabled": 0, "fusion_lat": 0.0, "bike_id": "7b68f25215c8008e0dec6558396e467d", "rental_uris": {"ios": "https://dc.lft.to/lastmile_qr_scan", "android": "https://dc.lft.to/lastmile_qr_scan"}}, {"name": "de123999d462bac3c6b05bdbb24367fb", "type": "electric_scooter", "lat": 38.9364205, "is_reserved": 0, "lon": -77.03675466666667, "fusion_lon": 0.0, "is_disabled": 0, "fusion_lat": 0.0, "bike_id": "de123999d462bac3c6b05bdbb24367fb", "rental_uris": {"ios": "https://dc.lft.to/lastmile_qr_scan", "android": "https://dc.lft.to/lastmile_qr_scan"}}, {"name": "45db3a7cb903737c1a326bb5731514d8", "type": "electric_scooter", "lat": 38.906619, "is_reserved": 0, "lon": -77.03856933333333, "fusion_lon": 0.0, "is_disabled": 0, "fusion_lat": 0.0, "bike_id": "45db3a7cb903737c1a326bb5731514d8", "rental_uris": {"ios": "https://dc.lft.to/lastmile_qr_scan", "android": "https://dc.lft.to/lastmile_qr_scan"}}, {"name": "44f54bb104f1d31f9ba406d9f03c4aba", "type": "electric_scooter", "lat": 38.828942166666664, "is_reserved": 0, "lon": -76.99703183333334, "fusion_lon": 0.0, "is_disabled": 0, "fusion_lat": 0.0, "bike_id": "44f54bb104f1d31f9ba406d9f03c4aba", "rental_uris": {"ios": "https://dc.lft.to/lastmile_qr_scan", "android": "https://dc.lft.to/lastmile_qr_scan"}}, {"name": "bab8db97e1dd2bb03323da186c589f88", "type": "electric_scooter", "lat": 38.922839333333336, "is_reserved": 0, "lon": -77.036675, "fusion_lon": 0.0, "is_disabled": 0, "fusion_lat": 0.0, "bike_id": "bab8db97e1dd2bb03323da186c589f88", "rental_uris": {"ios": "https://dc.lft.to/lastmile_qr_scan", "android": "https://dc.lft.to/lastmile_qr_scan"}}, {"name": "5aa484a380fefd71bb4ad43948b8c4bc", "type": "electric_scooter", "lat": 38.88610466666667, "is_reserved": 0, "lon": -76.99510633333334, "fusion_lon": 0.0, "is_disabled": 0, "fusion_lat": 0.0, "bike_id": "5aa484a380fefd71bb4ad43948b8c4bc", "rental_uris": {"ios": "https://dc.lft.to/lastmile_qr_scan", "android": "https://dc.lft.to/lastmile_qr_scan"}}, {"name": "78700ca2d7c9165039311ef3dde01b8c", "type": "electric_scooter", "lat": 38.90761233333333, "is_reserved": 0, "lon": -77.03071166666666, "fusion_lon": 0.0, "is_disabled": 0, "fusion_lat": 0.0, "bike_id": "78700ca2d7c9165039311ef3dde01b8c", "rental_uris": {"ios": "https://dc.lft.to/lastmile_qr_scan", "android": "https://dc.lft.to/lastmile_qr_scan"}}, {"name": "d433e46b9a83c3d9b36b4215a487cab2", "type": "electric_bike", "lat": 38.94154133333333, "is_reserved": 0, "lon": -77.00194883333333, "fusion_lon": 0.0, "is_disabled": 0, "fusion_lat": 0.0, "bike_id": "d433e46b9a83c3d9b36b4215a487cab2", "rental_uris": {"ios": "https://dc.lft.to/lastmile_qr_scan", "android": "https://dc.lft.to/lastmile_qr_scan"}}, {"name": "a96d3e135fce4391e9c1b7b4476fcf6c", "type": "electric_scooter", "lat": 38.903308833333334, "is_reserved": 0, "lon": -76.98967616666667, "fusion_lon": 0.0, "is_disabled": 0, "fusion_lat": 0.0, "bike_id": "a96d3e135fce4391e9c1b7b4476fcf6c", "rental_uris": {"ios": "https://dc.lft.to/lastmile_qr_scan", "android": "https://dc.lft.to/lastmile_qr_scan"}}, {"name": "cbdf6e59fbda3f3f7b33b2bbb5b562b1", "type": "electric_scooter", "lat": 38.92214716666667, "is_reserved": 0, "lon": -77.04240466666667, "fusion_lon": 0.0, "is_disabled": 0, "fusion_lat": 0.0, "bike_id": "cbdf6e59fbda3f3f7b33b2bbb5b562b1", "rental_uris": {"ios": "https://dc.lft.to/lastmile_qr_scan", "android": "https://dc.lft.to/lastmile_qr_scan"}}, {"name": "6fd43873b29667228e61aae3886accaa", "type": "electric_scooter", "lat": 38.905669, "is_reserved": 0, "lon": -77.00589866666667, "fusion_lon": 0.0, "is_disabled": 0, "fusion_lat": 0.0, "bike_id": "6fd43873b29667228e61aae3886accaa", "rental_uris": {"ios": "https://dc.lft.to/lastmile_qr_scan", "android": "https://dc.lft.to/lastmile_qr_scan"}}, {"name": "53291eb136e41ca455e2737d65d692a2", "type": "electric_scooter", "lat": 38.90256816666667, "is_reserved": 0, "lon": -77.03181066666667, "fusion_lon": 0.0, "is_disabled": 0, "fusion_lat": 0.0, "bike_id": "53291eb136e41ca455e2737d65d692a2", "rental_uris": {"ios": "https://dc.lft.to/lastmile_qr_scan", "android": "https://dc.lft.to/lastmile_qr_scan"}}, {"name": "dc0db2a97de712f076e0a96c0b2872ad", "type": "electric_scooter", "lat": 38.90260383333333, "is_reserved": 0, "lon": -77.01757566666667, "fusion_lon": 0.0, "is_disabled": 0, "fusion_lat": 0.0, "bike_id": "dc0db2a97de712f076e0a96c0b2872ad", "rental_uris": {"ios": "https://dc.lft.to/lastmile_qr_scan", "android": "https://dc.lft.to/lastmile_qr_scan"}}, {"name": "89f8e26b684766b085023d6df7391632", "type": "electric_scooter", "lat": 38.90730883333333, "is_reserved": 0, "lon": -77.0113315, "fusion_lon": 0.0, "is_disabled": 0, "fusion_lat": 0.0, "bike_id": "89f8e26b684766b085023d6df7391632", "rental_uris": {"ios": "https://dc.lft.to/lastmile_qr_scan", "android": "https://dc.lft.to/lastmile_qr_scan"}}, {"name": "4117269ab2c61df7a3b6d4399b52dbe2", "type": "electric_scooter", "lat": 38.921564333333336, "is_reserved": 0, "lon": -77.03387283333333, "fusion_lon": 0.0, "is_disabled": 0, "fusion_lat": 0.0, "bike_id": "4117269ab2c61df7a3b6d4399b52dbe2", "rental_uris": {"ios": "https://dc.lft.to/lastmile_qr_scan", "android": "https://dc.lft.to/lastmile_qr_scan"}}, {"name": "0e79d5815feb4601d70d99bd1f57816b", "type": "electric_scooter", "lat": 38.882212333333335, "is_reserved": 0, "lon": -76.94177233333333, "fusion_lon": 0.0, "is_disabled": 0, "fusion_lat": 0.0, "bike_id": "0e79d5815feb4601d70d99bd1f57816b", "rental_uris": {"ios": "https://dc.lft.to/lastmile_qr_scan", "android": "https://dc.lft.to/lastmile_qr_scan"}}, {"name": "90d5b929426d6b2cf94dfcd2acfdb71c", "type": "electric_scooter", "lat": 38.886094166666666, "is_reserved": 0, "lon": -76.9950725, "fusion_lon": 0.0, "is_disabled": 0, "fusion_lat": 0.0, "bike_id": "90d5b929426d6b2cf94dfcd2acfdb71c", "rental_uris": {"ios": "https://dc.lft.to/lastmile_qr_scan", "android": "https://dc.lft.to/lastmile_qr_scan"}}, {"name": "86b1656c822babaf24a6196512af2076", "type": "electric_bike", "lat": 38.90536016666667, "is_reserved": 0, "lon": -76.99808033333333, "fusion_lon": 0.0, "is_disabled": 0, "fusion_lat": 0.0, "bike_id": "86b1656c822babaf24a6196512af2076", "rental_uris": {"ios": "https://dc.lft.to/lastmile_qr_scan", "android": "https://dc.lft.to/lastmile_qr_scan"}}, {"name": "7bd965661318a04fb2d93413f376c93b", "type": "electric_bike", "lat": 38.99092816666667, "is_reserved": 0, "lon": -76.87497966666666, "fusion_lon": 0.0, "is_disabled": 0, "fusion_lat": 0.0, "bike_id": "7bd965661318a04fb2d93413f376c93b", "rental_uris": {"ios": "https://dc.lft.to/lastmile_qr_scan", "android": "https://dc.lft.to/lastmile_qr_scan"}}, {"name": "ece750ef7b50ef5adc4d776356a9f34f", "type": "electric_scooter", "lat": 38.86700533333333, "is_reserved": 0, "lon": -76.98708166666667, "fusion_lon": 0.0, "is_disabled": 0, "fusion_lat": 0.0, "bike_id": "ece750ef7b50ef5adc4d776356a9f34f", "rental_uris": {"ios": "https://dc.lft.to/lastmile_qr_scan", "android": "https://dc.lft.to/lastmile_qr_scan"}}, {"name": "86cdd743b42f2836785cdef1fc3ec457", "type": "electric_scooter", "lat": 38.906757999999996, "is_reserved": 0, "lon": -77.03827366666667, "fusion_lon": 0.0, "is_disabled": 0, "fusion_lat": 0.0, "bike_id": "86cdd743b42f2836785cdef1fc3ec457", "rental_uris": {"ios": "https://dc.lft.to/lastmile_qr_scan", "android": "https://dc.lft.to/lastmile_qr_scan"}}, {"name": "19d9b6ea03e74da38db04ddf29542bdb", "type": "electric_scooter", "lat": 38.9371345, "is_reserved": 0, "lon": -77.03652433333333, "fusion_lon": 0.0, "is_disabled": 0, "fusion_lat": 0.0, "bike_id": "19d9b6ea03e74da38db04ddf29542bdb", "rental_uris": {"ios": "https://dc.lft.to/lastmile_qr_scan", "android": "https://dc.lft.to/lastmile_qr_scan"}}, {"name": "29ac24db96e14f20a522efa772823bd4", "type": "electric_scooter", "lat": 38.922957, "is_reserved": 0, "lon": -77.02069766666666, "fusion_lon": 0.0, "is_disabled": 0, "fusion_lat": 0.0, "bike_id": "29ac24db96e14f20a522efa772823bd4", "rental_uris": {"ios": "https://dc.lft.to/lastmile_qr_scan", "android": "https://dc.lft.to/lastmile_qr_scan"}}, {"name": "84fffd67d9502546a165e3bf2d4b530d", "type": "electric_scooter", "lat": 38.8967455, "is_reserved": 0, "lon": -77.0540905, "fusion_lon": 0.0, "is_disabled": 0, "fusion_lat": 0.0, "bike_id": "84fffd67d9502546a165e3bf2d4b530d", "rental_uris": {"ios": "https://dc.lft.to/lastmile_qr_scan", "android": "https://dc.lft.to/lastmile_qr_scan"}}, {"name": "3a411daebd23869f30bb2a4f1a1d09ce", "type": "electric_scooter", "lat": 38.9133475, "is_reserved": 0, "lon": -77.03046216666667, "fusion_lon": 0.0, "is_disabled": 0, "fusion_lat": 0.0, "bike_id": "3a411daebd23869f30bb2a4f1a1d09ce", "rental_uris": {"ios": "https://dc.lft.to/lastmile_qr_scan", "android": "https://dc.lft.to/lastmile_qr_scan"}}, {"name": "65b1d95cd1433a6bf7ffc00f363410c7", "type": "electric_scooter", "lat": 38.93101983333333, "is_reserved": 0, "lon": -77.026719, "fusion_lon": 0.0, "is_disabled": 0, "fusion_lat": 0.0, "bike_id": "65b1d95cd1433a6bf7ffc00f363410c7", "rental_uris": {"ios": "https://dc.lft.to/lastmile_qr_scan", "android": "https://dc.lft.to/lastmile_qr_scan"}}, {"name": "f9d8eb378bd7609c2ca6eb05345f5a23", "type": "electric_scooter", "lat": 38.94151866666667, "is_reserved": 0, "lon": -77.03651283333333, "fusion_lon": 0.0, "is_disabled": 0, "fusion_lat": 0.0, "bike_id": "f9d8eb378bd7609c2ca6eb05345f5a23", "rental_uris": {"ios": "https://dc.lft.to/lastmile_qr_scan", "android": "https://dc.lft.to/lastmile_qr_scan"}}, {"name": "eee839aa5e0944c7dd1e9829226094a2", "type": "electric_scooter", "lat": 38.89827533333333, "is_reserved": 0, "lon": -76.92639516666667, "fusion_lon": 0.0, "is_disabled": 0, "fusion_lat": 0.0, "bike_id": "eee839aa5e0944c7dd1e9829226094a2", "rental_uris": {"ios": "https://dc.lft.to/lastmile_qr_scan", "android": "https://dc.lft.to/lastmile_qr_scan"}}, {"name": "93c40c9bfa26c93b5a3de7ab8a1d482a", "type": "electric_scooter", "lat": 38.89902633333333, "is_reserved": 0, "lon": -77.0069145, "fusion_lon": 0.0, "is_disabled": 0, "fusion_lat": 0.0, "bike_id": "93c40c9bfa26c93b5a3de7ab8a1d482a", "rental_uris": {"ios": "https://dc.lft.to/lastmile_qr_scan", "android": "https://dc.lft.to/lastmile_qr_scan"}}, {"name": "8d90ae56a8c6c10b284ce641f8f600f3", "type": "electric_scooter", "lat": 38.893450666666666, "is_reserved": 0, "lon": -76.99387366666667, "fusion_lon": 0.0, "is_disabled": 0, "fusion_lat": 0.0, "bike_id": "8d90ae56a8c6c10b284ce641f8f600f3", "rental_uris": {"ios": "https://dc.lft.to/lastmile_qr_scan", "android": "https://dc.lft.to/lastmile_qr_scan"}}, {"name": "96ebc63b5047d79dc3336ada1ee2c135", "type": "electric_scooter", "lat": 38.86370133333333, "is_reserved": 0, "lon": -77.01359316666667, "fusion_lon": 0.0, "is_disabled": 0, "fusion_lat": 0.0, "bike_id": "96ebc63b5047d79dc3336ada1ee2c135", "rental_uris": {"ios": "https://dc.lft.to/lastmile_qr_scan", "android": "https://dc.lft.to/lastmile_qr_scan"}}, {"name": "cfc22bdd997d4f4b33e8a232fff5debf", "type": "electric_scooter", "lat": 38.923046166666666, "is_reserved": 0, "lon": -77.0121125, "fusion_lon": 0.0, "is_disabled": 0, "fusion_lat": 0.0, "bike_id": "cfc22bdd997d4f4b33e8a232fff5debf", "rental_uris": {"ios": "https://dc.lft.to/lastmile_qr_scan", "android": "https://dc.lft.to/lastmile_qr_scan"}}, {"name": "e4c854c9255da7b2bb34fddef279b99f", "type": "electric_scooter", "lat": 38.90256016666667, "is_reserved": 0, "lon": -77.01759816666667, "fusion_lon": 0.0, "is_disabled": 0, "fusion_lat": 0.0, "bike_id": "e4c854c9255da7b2bb34fddef279b99f", "rental_uris": {"ios": "https://dc.lft.to/lastmile_qr_scan", "android": "https://dc.lft.to/lastmile_qr_scan"}}, {"name": "785205ab56dd24c67fdb118b2b49449e", "type": "electric_bike", "lat": 38.8457255, "is_reserved": 0, "lon": -77.09627316666666, "fusion_lon": 0.0, "is_disabled": 0, "fusion_lat": 0.0, "bike_id": "785205ab56dd24c67fdb118b2b49449e", "rental_uris": {"ios": "https://dc.lft.to/lastmile_qr_scan", "android": "https://dc.lft.to/lastmile_qr_scan"}}, {"name": "64d0c382bbbb80ae3ad8541d63424e23", "type": "electric_scooter", "lat": 38.961132166666665, "is_reserved": 0, "lon": -77.02812, "fusion_lon": 0.0, "is_disabled": 0, "fusion_lat": 0.0, "bike_id": "64d0c382bbbb80ae3ad8541d63424e23", "rental_uris": {"ios": "https://dc.lft.to/lastmile_qr_scan", "android": "https://dc.lft.to/lastmile_qr_scan"}}, {"name": "bb997df44f3b6e2763d999e822aa0c71", "type": "electric_bike", "lat": 38.999082333333334, "is_reserved": 0, "lon": -77.04619666666666, "fusion_lon": 0.0, "is_disabled": 0, "fusion_lat": 0.0, "bike_id": "bb997df44f3b6e2763d999e822aa0c71", "rental_uris": {"ios": "https://dc.lft.to/lastmile_qr_scan", "android": "https://dc.lft.to/lastmile_qr_scan"}}, {"name": "1aae460b47e57dc5dfa8bb4768ffbbaa", "type": "electric_scooter", "lat": 38.907264833333336, "is_reserved": 0, "lon": -77.04353116666667, "fusion_lon": 0.0, "is_disabled": 0, "fusion_lat": 0.0, "bike_id": "1aae460b47e57dc5dfa8bb4768ffbbaa", "rental_uris": {"ios": "https://dc.lft.to/lastmile_qr_scan", "android": "https://dc.lft.to/lastmile_qr_scan"}}, {"name": "febf6fb5680ad39f77fc469b2f196b22", "type": "electric_scooter", "lat": 38.9193275, "is_reserved": 0, "lon": -77.04496833333333, "fusion_lon": 0.0, "is_disabled": 0, "fusion_lat": 0.0, "bike_id": "febf6fb5680ad39f77fc469b2f196b22", "rental_uris": {"ios": "https://dc.lft.to/lastmile_qr_scan", "android": "https://dc.lft.to/lastmile_qr_scan"}}, {"name": "8bb4fadb9ac48d8ba820b0eb1455fe17", "type": "electric_scooter", "lat": 38.913335000000004, "is_reserved": 0, "lon": -77.01621166666666, "fusion_lon": 0.0, "is_disabled": 0, "fusion_lat": 0.0, "bike_id": "8bb4fadb9ac48d8ba820b0eb1455fe17", "rental_uris": {"ios": "https://dc.lft.to/lastmile_qr_scan", "android": "https://dc.lft.to/lastmile_qr_scan"}}, {"name": "2b199be39daee1cac8f5f45f64208b96", "type": "electric_bike", "lat": 38.908637166666665, "is_reserved": 0, "lon": -76.93164483333334, "fusion_lon": 0.0, "is_disabled": 0, "fusion_lat": 0.0, "bike_id": "2b199be39daee1cac8f5f45f64208b96", "rental_uris": {"ios": "https://dc.lft.to/lastmile_qr_scan", "android": "https://dc.lft.to/lastmile_qr_scan"}}, {"name": "9d249f9f40079717ee1033e64e80885c", "type": "electric_scooter", "lat": 38.90687283333333, "is_reserved": 0, "lon": -77.0249825, "fusion_lon": 0.0, "is_disabled": 0, "fusion_lat": 0.0, "bike_id": "9d249f9f40079717ee1033e64e80885c", "rental_uris": {"ios": "https://dc.lft.to/lastmile_qr_scan", "android": "https://dc.lft.to/lastmile_qr_scan"}}, {"name": "10fe7aa62ed2b5f70ddef470cdde3aa5", "type": "electric_scooter", "lat": 38.9172, "is_reserved": 0, "lon": -77.036533, "fusion_lon": 0.0, "is_disabled": 0, "fusion_lat": 0.0, "bike_id": "10fe7aa62ed2b5f70ddef470cdde3aa5", "rental_uris": {"ios": "https://dc.lft.to/lastmile_qr_scan", "android": "https://dc.lft.to/lastmile_qr_scan"}}, {"name": "512a0848b5fb84e0d78c01d45de8e4be", "type": "electric_scooter", "lat": 38.9270995, "is_reserved": 0, "lon": -77.020926, "fusion_lon": 0.0, "is_disabled": 0, "fusion_lat": 0.0, "bike_id": "512a0848b5fb84e0d78c01d45de8e4be", "rental_uris": {"ios": "https://dc.lft.to/lastmile_qr_scan", "android": "https://dc.lft.to/lastmile_qr_scan"}}, {"name": "6eaf3d0b95bbf066a1e9bf8a79ae79dd", "type": "electric_scooter", "lat": 38.908634, "is_reserved": 0, "lon": -77.08594983333333, "fusion_lon": 0.0, "is_disabled": 0, "fusion_lat": 0.0, "bike_id": "6eaf3d0b95bbf066a1e9bf8a79ae79dd", "rental_uris": {"ios": "https://dc.lft.to/lastmile_qr_scan", "android": "https://dc.lft.to/lastmile_qr_scan"}}, {"name": "e742bafdb8dfcc52d141c9c2d4a24829", "type": "electric_scooter", "lat": 38.901956, "is_reserved": 0, "lon": -76.98198733333334, "fusion_lon": 0.0, "is_disabled": 0, "fusion_lat": 0.0, "bike_id": "e742bafdb8dfcc52d141c9c2d4a24829", "rental_uris": {"ios": "https://dc.lft.to/lastmile_qr_scan", "android": "https://dc.lft.to/lastmile_qr_scan"}}, {"name": "73f706e1d82ea9141c14efef4ad6988c", "type": "electric_scooter", "lat": 38.90191, "is_reserved": 0, "lon": -77.02172333333333, "fusion_lon": 0.0, "is_disabled": 0, "fusion_lat": 0.0, "bike_id": "73f706e1d82ea9141c14efef4ad6988c", "rental_uris": {"ios": "https://dc.lft.to/lastmile_qr_scan", "android": "https://dc.lft.to/lastmile_qr_scan"}}, {"name": "017e53d15ad25373daaa5e4ac0e483ba", "type": "electric_scooter", "lat": 38.92872966666667, "is_reserved": 0, "lon": -77.01404416666666, "fusion_lon": 0.0, "is_disabled": 0, "fusion_lat": 0.0, "bike_id": "017e53d15ad25373daaa5e4ac0e483ba", "rental_uris": {"ios": "https://dc.lft.to/lastmile_qr_scan", "android": "https://dc.lft.to/lastmile_qr_scan"}}, {"name": "bb3a8d61a0c6672adc441e3f3b372c72", "type": "electric_scooter", "lat": 38.905930166666664, "is_reserved": 0, "lon": -77.048687, "fusion_lon": 0.0, "is_disabled": 0, "fusion_lat": 0.0, "bike_id": "bb3a8d61a0c6672adc441e3f3b372c72", "rental_uris": {"ios": "https://dc.lft.to/lastmile_qr_scan", "android": "https://dc.lft.to/lastmile_qr_scan"}}, {"name": "b302981145c2a7f4371fa4cbd910149e", "type": "electric_scooter", "lat": 38.9208915, "is_reserved": 0, "lon": -77.01367816666666, "fusion_lon": 0.0, "is_disabled": 0, "fusion_lat": 0.0, "bike_id": "b302981145c2a7f4371fa4cbd910149e", "rental_uris": {"ios": "https://dc.lft.to/lastmile_qr_scan", "android": "https://dc.lft.to/lastmile_qr_scan"}}, {"name": "a352b1f058ed65762d1097e7def2627a", "type": "electric_scooter", "lat": 38.882797833333335, "is_reserved": 0, "lon": -76.98613266666666, "fusion_lon": 0.0, "is_disabled": 0, "fusion_lat": 0.0, "bike_id": "a352b1f058ed65762d1097e7def2627a", "rental_uris": {"ios": "https://dc.lft.to/lastmile_qr_scan", "android": "https://dc.lft.to/lastmile_qr_scan"}}, {"name": "72f611d92fd30d62b4c7e1c07d13c46f", "type": "electric_scooter", "lat": 38.93283433333333, "is_reserved": 0, "lon": -77.02967833333334, "fusion_lon": 0.0, "is_disabled": 0, "fusion_lat": 0.0, "bike_id": "72f611d92fd30d62b4c7e1c07d13c46f", "rental_uris": {"ios": "https://dc.lft.to/lastmile_qr_scan", "android": "https://dc.lft.to/lastmile_qr_scan"}}, {"name": "f2d88c0e7030a99f03c71fe4b5bb5134", "type": "electric_scooter", "lat": 38.8682355, "is_reserved": 0, "lon": -76.98608383333334, "fusion_lon": 0.0, "is_disabled": 0, "fusion_lat": 0.0, "bike_id": "f2d88c0e7030a99f03c71fe4b5bb5134", "rental_uris": {"ios": "https://dc.lft.to/lastmile_qr_scan", "android": "https://dc.lft.to/lastmile_qr_scan"}}, {"name": "cca295d84312b675001bd5000684124b", "type": "electric_scooter", "lat": 38.949416666666664, "is_reserved": 0, "lon": -77.0160135, "fusion_lon": 0.0, "is_disabled": 0, "fusion_lat": 0.0, "bike_id": "cca295d84312b675001bd5000684124b", "rental_uris": {"ios": "https://dc.lft.to/lastmile_qr_scan", "android": "https://dc.lft.to/lastmile_qr_scan"}}, {"name": "e80e173e813359cbaa133ea5f1058308", "type": "electric_scooter", "lat": 38.90335816666666, "is_reserved": 0, "lon": -77.03828983333334, "fusion_lon": 0.0, "is_disabled": 0, "fusion_lat": 0.0, "bike_id": "e80e173e813359cbaa133ea5f1058308", "rental_uris": {"ios": "https://dc.lft.to/lastmile_qr_scan", "android": "https://dc.lft.to/lastmile_qr_scan"}}, {"name": "f273b36ff2440d9696af8d5c117ac776", "type": "electric_scooter", "lat": 38.9156645, "is_reserved": 0, "lon": -77.04675683333333, "fusion_lon": 0.0, "is_disabled": 0, "fusion_lat": 0.0, "bike_id": "f273b36ff2440d9696af8d5c117ac776", "rental_uris": {"ios": "https://dc.lft.to/lastmile_qr_scan", "android": "https://dc.lft.to/lastmile_qr_scan"}}, {"name": "105e56a0b752357f16b285378b6d8082", "type": "electric_scooter", "lat": 38.927959666666666, "is_reserved": 0, "lon": -77.043557, "fusion_lon": 0.0, "is_disabled": 0, "fusion_lat": 0.0, "bike_id": "105e56a0b752357f16b285378b6d8082", "rental_uris": {"ios": "https://dc.lft.to/lastmile_qr_scan", "android": "https://dc.lft.to/lastmile_qr_scan"}}, {"name": "819fe13fc478b53d3912eb9875c4c4c9", "type": "electric_scooter", "lat": 38.900612333333335, "is_reserved": 0, "lon": -77.02580066666667, "fusion_lon": 0.0, "is_disabled": 0, "fusion_lat": 0.0, "bike_id": "819fe13fc478b53d3912eb9875c4c4c9", "rental_uris": {"ios": "https://dc.lft.to/lastmile_qr_scan", "android": "https://dc.lft.to/lastmile_qr_scan"}}, {"name": "1edcf3acd5560f77b2bac17309d9cdf7", "type": "electric_scooter", "lat": 38.911087333333334, "is_reserved": 0, "lon": -77.04676783333333, "fusion_lon": 0.0, "is_disabled": 0, "fusion_lat": 0.0, "bike_id": "1edcf3acd5560f77b2bac17309d9cdf7", "rental_uris": {"ios": "https://dc.lft.to/lastmile_qr_scan", "android": "https://dc.lft.to/lastmile_qr_scan"}}, {"name": "8f3813242fc18dfd4326691f81379744", "type": "electric_scooter", "lat": 38.92741733333333, "is_reserved": 0, "lon": -77.01204466666667, "fusion_lon": 0.0, "is_disabled": 0, "fusion_lat": 0.0, "bike_id": "8f3813242fc18dfd4326691f81379744", "rental_uris": {"ios": "https://dc.lft.to/lastmile_qr_scan", "android": "https://dc.lft.to/lastmile_qr_scan"}}, {"name": "53f5f232ccf8f2d27bf72780aa5819fc", "type": "electric_scooter", "lat": 38.900807, "is_reserved": 0, "lon": -77.05067783333334, "fusion_lon": 0.0, "is_disabled": 0, "fusion_lat": 0.0, "bike_id": "53f5f232ccf8f2d27bf72780aa5819fc", "rental_uris": {"ios": "https://dc.lft.to/lastmile_qr_scan", "android": "https://dc.lft.to/lastmile_qr_scan"}}, {"name": "176add2122cc9e6426af9ea12b25ac15", "type": "electric_scooter", "lat": 38.884143, "is_reserved": 0, "lon": -76.9759965, "fusion_lon": 0.0, "is_disabled": 0, "fusion_lat": 0.0, "bike_id": "176add2122cc9e6426af9ea12b25ac15", "rental_uris": {"ios": "https://dc.lft.to/lastmile_qr_scan", "android": "https://dc.lft.to/lastmile_qr_scan"}}, {"name": "62061f2132f78051459a84c4a7f9c4e9", "type": "electric_scooter", "lat": 38.90334033333333, "is_reserved": 0, "lon": -77.03819866666667, "fusion_lon": 0.0, "is_disabled": 0, "fusion_lat": 0.0, "bike_id": "62061f2132f78051459a84c4a7f9c4e9", "rental_uris": {"ios": "https://dc.lft.to/lastmile_qr_scan", "android": "https://dc.lft.to/lastmile_qr_scan"}}, {"name": "56792bb1a3e945cc7dcef2c1a09028d8", "type": "electric_scooter", "lat": 38.920223666666665, "is_reserved": 0, "lon": -77.02602283333333, "fusion_lon": 0.0, "is_disabled": 0, "fusion_lat": 0.0, "bike_id": "56792bb1a3e945cc7dcef2c1a09028d8", "rental_uris": {"ios": "https://dc.lft.to/lastmile_qr_scan", "android": "https://dc.lft.to/lastmile_qr_scan"}}, {"name": "22e2f28886bb35c95568795756f7a818", "type": "electric_scooter", "lat": 38.94971533333333, "is_reserved": 0, "lon": -77.079265, "fusion_lon": 0.0, "is_disabled": 0, "fusion_lat": 0.0, "bike_id": "22e2f28886bb35c95568795756f7a818", "rental_uris": {"ios": "https://dc.lft.to/lastmile_qr_scan", "android": "https://dc.lft.to/lastmile_qr_scan"}}, {"name": "e4fffd6b506c0935070d78d542145414", "type": "electric_scooter", "lat": 38.96986116666667, "is_reserved": 0, "lon": -77.02714383333333, "fusion_lon": 0.0, "is_disabled": 0, "fusion_lat": 0.0, "bike_id": "e4fffd6b506c0935070d78d542145414", "rental_uris": {"ios": "https://dc.lft.to/lastmile_qr_scan", "android": "https://dc.lft.to/lastmile_qr_scan"}}, {"name": "f5937b2dd53dd2e5e080e04621b5bc4a", "type": "electric_scooter", "lat": 38.8429105, "is_reserved": 0, "lon": -76.99944616666667, "fusion_lon": 0.0, "is_disabled": 0, "fusion_lat": 0.0, "bike_id": "f5937b2dd53dd2e5e080e04621b5bc4a", "rental_uris": {"ios": "https://dc.lft.to/lastmile_qr_scan", "android": "https://dc.lft.to/lastmile_qr_scan"}}, {"name": "3122d2fa90eb416ffb610df050d44ed8", "type": "electric_scooter", "lat": 38.876833500000004, "is_reserved": 0, "lon": -77.000738, "fusion_lon": 0.0, "is_disabled": 0, "fusion_lat": 0.0, "bike_id": "3122d2fa90eb416ffb610df050d44ed8", "rental_uris": {"ios": "https://dc.lft.to/lastmile_qr_scan", "android": "https://dc.lft.to/lastmile_qr_scan"}}, {"name": "c086120aa2e5218fa671984ccf7abe61", "type": "electric_scooter", "lat": 38.92009766666666, "is_reserved": 0, "lon": -77.03875966666666, "fusion_lon": 0.0, "is_disabled": 0, "fusion_lat": 0.0, "bike_id": "c086120aa2e5218fa671984ccf7abe61", "rental_uris": {"ios": "https://dc.lft.to/lastmile_qr_scan", "android": "https://dc.lft.to/lastmile_qr_scan"}}, {"name": "f1d6c4a46ed30aaf808ec9dde21c7243", "type": "electric_scooter", "lat": 38.866960666666664, "is_reserved": 0, "lon": -76.9871295, "fusion_lon": 0.0, "is_disabled": 0, "fusion_lat": 0.0, "bike_id": "f1d6c4a46ed30aaf808ec9dde21c7243", "rental_uris": {"ios": "https://dc.lft.to/lastmile_qr_scan", "android": "https://dc.lft.to/lastmile_qr_scan"}}, {"name": "fa4087eebfd9d636bccbfe548900b4c4", "type": "electric_bike", "lat": 38.965447833333336, "is_reserved": 0, "lon": -77.03515783333333, "fusion_lon": 0.0, "is_disabled": 0, "fusion_lat": 0.0, "bike_id": "fa4087eebfd9d636bccbfe548900b4c4", "rental_uris": {"ios": "https://dc.lft.to/lastmile_qr_scan", "android": "https://dc.lft.to/lastmile_qr_scan"}}, {"name": "3cf925185f270f8e40d2b119b41fde97", "type": "electric_scooter", "lat": 38.905603666666664, "is_reserved": 0, "lon": -77.00541783333334, "fusion_lon": 0.0, "is_disabled": 0, "fusion_lat": 0.0, "bike_id": "3cf925185f270f8e40d2b119b41fde97", "rental_uris": {"ios": "https://dc.lft.to/lastmile_qr_scan", "android": "https://dc.lft.to/lastmile_qr_scan"}}, {"name": "87a0185937cf027e31de6ed15b1f401f", "type": "electric_scooter", "lat": 38.906169166666665, "is_reserved": 0, "lon": -77.01283566666666, "fusion_lon": 0.0, "is_disabled": 0, "fusion_lat": 0.0, "bike_id": "87a0185937cf027e31de6ed15b1f401f", "rental_uris": {"ios": "https://dc.lft.to/lastmile_qr_scan", "android": "https://dc.lft.to/lastmile_qr_scan"}}, {"name": "cdfca39ec0080390ac03dd6de9ca2c60", "type": "electric_scooter", "lat": 38.9111865, "is_reserved": 0, "lon": -77.03300366666667, "fusion_lon": 0.0, "is_disabled": 0, "fusion_lat": 0.0, "bike_id": "cdfca39ec0080390ac03dd6de9ca2c60", "rental_uris": {"ios": "https://dc.lft.to/lastmile_qr_scan", "android": "https://dc.lft.to/lastmile_qr_scan"}}, {"name": "f646785c02a0101021928ed0bcc501d4", "type": "electric_scooter", "lat": 38.8974085, "is_reserved": 0, "lon": -77.01321133333333, "fusion_lon": 0.0, "is_disabled": 0, "fusion_lat": 0.0, "bike_id": "f646785c02a0101021928ed0bcc501d4", "rental_uris": {"ios": "https://dc.lft.to/lastmile_qr_scan", "android": "https://dc.lft.to/lastmile_qr_scan"}}, {"name": "e9bd83b663448f92b40f6fce8baf0397", "type": "electric_scooter", "lat": 38.913372833333334, "is_reserved": 0, "lon": -77.0312145, "fusion_lon": 0.0, "is_disabled": 0, "fusion_lat": 0.0, "bike_id": "e9bd83b663448f92b40f6fce8baf0397", "rental_uris": {"ios": "https://dc.lft.to/lastmile_qr_scan", "android": "https://dc.lft.to/lastmile_qr_scan"}}, {"name": "8327cb5011eed9df00e5488c0147ab78", "type": "electric_scooter", "lat": 38.9275535, "is_reserved": 0, "lon": -77.024259, "fusion_lon": 0.0, "is_disabled": 0, "fusion_lat": 0.0, "bike_id": "8327cb5011eed9df00e5488c0147ab78", "rental_uris": {"ios": "https://dc.lft.to/lastmile_qr_scan", "android": "https://dc.lft.to/lastmile_qr_scan"}}, {"name": "387de9db4e5561eee2201286ea707d36", "type": "electric_scooter", "lat": 38.89883833333333, "is_reserved": 0, "lon": -76.93172066666666, "fusion_lon": 0.0, "is_disabled": 0, "fusion_lat": 0.0, "bike_id": "387de9db4e5561eee2201286ea707d36", "rental_uris": {"ios": "https://dc.lft.to/lastmile_qr_scan", "android": "https://dc.lft.to/lastmile_qr_scan"}}, {"name": "e75e7dd7d9f0efba9c9ca5a91a5cf644", "type": "electric_scooter", "lat": 38.928807666666664, "is_reserved": 0, "lon": -77.03724766666667, "fusion_lon": 0.0, "is_disabled": 0, "fusion_lat": 0.0, "bike_id": "e75e7dd7d9f0efba9c9ca5a91a5cf644", "rental_uris": {"ios": "https://dc.lft.to/lastmile_qr_scan", "android": "https://dc.lft.to/lastmile_qr_scan"}}, {"name": "c04dfebbfe32a6d58eedb3ce9f4181ff", "type": "electric_scooter", "lat": 38.9164835, "is_reserved": 0, "lon": -77.04620483333333, "fusion_lon": 0.0, "is_disabled": 0, "fusion_lat": 0.0, "bike_id": "c04dfebbfe32a6d58eedb3ce9f4181ff", "rental_uris": {"ios": "https://dc.lft.to/lastmile_qr_scan", "android": "https://dc.lft.to/lastmile_qr_scan"}}, {"name": "041339305ea443a1555c168f5883ed53", "type": "electric_scooter", "lat": 38.89398666666666, "is_reserved": 0, "lon": -76.99366933333333, "fusion_lon": 0.0, "is_disabled": 0, "fusion_lat": 0.0, "bike_id": "041339305ea443a1555c168f5883ed53", "rental_uris": {"ios": "https://dc.lft.to/lastmile_qr_scan", "android": "https://dc.lft.to/lastmile_qr_scan"}}, {"name": "3c7b8e60dc904de2479d07bedb886332", "type": "electric_scooter", "lat": 38.90510733333333, "is_reserved": 0, "lon": -77.06627116666667, "fusion_lon": 0.0, "is_disabled": 0, "fusion_lat": 0.0, "bike_id": "3c7b8e60dc904de2479d07bedb886332", "rental_uris": {"ios": "https://dc.lft.to/lastmile_qr_scan", "android": "https://dc.lft.to/lastmile_qr_scan"}}, {"name": "b4e236eeffc8a00b7174598e18073010", "type": "electric_scooter", "lat": 38.94635516666666, "is_reserved": 0, "lon": -77.01927083333334, "fusion_lon": 0.0, "is_disabled": 0, "fusion_lat": 0.0, "bike_id": "b4e236eeffc8a00b7174598e18073010", "rental_uris": {"ios": "https://dc.lft.to/lastmile_qr_scan", "android": "https://dc.lft.to/lastmile_qr_scan"}}, {"name": "283877fa60a55aa44c489ffce783549e", "type": "electric_bike", "lat": 38.942726, "is_reserved": 0, "lon": -76.980732, "fusion_lon": 0.0, "is_disabled": 0, "fusion_lat": 0.0, "bike_id": "283877fa60a55aa44c489ffce783549e", "rental_uris": {"ios": "https://dc.lft.to/lastmile_qr_scan", "android": "https://dc.lft.to/lastmile_qr_scan"}}, {"name": "b03fa86e2e53e4ec8438a5cd083ed6c4", "type": "electric_scooter", "lat": 38.92735583333334, "is_reserved": 0, "lon": -77.029839, "fusion_lon": 0.0, "is_disabled": 0, "fusion_lat": 0.0, "bike_id": "b03fa86e2e53e4ec8438a5cd083ed6c4", "rental_uris": {"ios": "https://dc.lft.to/lastmile_qr_scan", "android": "https://dc.lft.to/lastmile_qr_scan"}}, {"name": "2384852dd54ca79035ec65382447abf9", "type": "electric_scooter", "lat": 38.9394185, "is_reserved": 0, "lon": -77.01702883333333, "fusion_lon": 0.0, "is_disabled": 0, "fusion_lat": 0.0, "bike_id": "2384852dd54ca79035ec65382447abf9", "rental_uris": {"ios": "https://dc.lft.to/lastmile_qr_scan", "android": "https://dc.lft.to/lastmile_qr_scan"}}, {"name": "10fff5aed3ac2dc7de36e89b53e9cf04", "type": "electric_scooter", "lat": 38.9345005, "is_reserved": 0, "lon": -77.07240466666667, "fusion_lon": 0.0, "is_disabled": 0, "fusion_lat": 0.0, "bike_id": "10fff5aed3ac2dc7de36e89b53e9cf04", "rental_uris": {"ios": "https://dc.lft.to/lastmile_qr_scan", "android": "https://dc.lft.to/lastmile_qr_scan"}}, {"name": "7b5e8fd0bcd0f23eee98728c6fa56650", "type": "electric_scooter", "lat": 38.89611266666667, "is_reserved": 0, "lon": -77.04501816666667, "fusion_lon": 0.0, "is_disabled": 0, "fusion_lat": 0.0, "bike_id": "7b5e8fd0bcd0f23eee98728c6fa56650", "rental_uris": {"ios": "https://dc.lft.to/lastmile_qr_scan", "android": "https://dc.lft.to/lastmile_qr_scan"}}, {"name": "5e8983c1138b5bf6603e8570dfdc9c2f", "type": "electric_scooter", "lat": 38.88312716666667, "is_reserved": 0, "lon": -77.00938516666666, "fusion_lon": 0.0, "is_disabled": 0, "fusion_lat": 0.0, "bike_id": "5e8983c1138b5bf6603e8570dfdc9c2f", "rental_uris": {"ios": "https://dc.lft.to/lastmile_qr_scan", "android": "https://dc.lft.to/lastmile_qr_scan"}}, {"name": "2fa2416e4d3c1fdb0983d33698f25fad", "type": "electric_scooter", "lat": 38.905383666666665, "is_reserved": 0, "lon": -77.050178, "fusion_lon": 0.0, "is_disabled": 0, "fusion_lat": 0.0, "bike_id": "2fa2416e4d3c1fdb0983d33698f25fad", "rental_uris": {"ios": "https://dc.lft.to/lastmile_qr_scan", "android": "https://dc.lft.to/lastmile_qr_scan"}}, {"name": "8e6240d395d9b0df2ed07ab65fb33143", "type": "electric_scooter", "lat": 38.89515516666667, "is_reserved": 0, "lon": -77.02280616666667, "fusion_lon": 0.0, "is_disabled": 0, "fusion_lat": 0.0, "bike_id": "8e6240d395d9b0df2ed07ab65fb33143", "rental_uris": {"ios": "https://dc.lft.to/lastmile_qr_scan", "android": "https://dc.lft.to/lastmile_qr_scan"}}, {"name": "11af7674ab02b8af69eb46b3e067c109", "type": "electric_bike", "lat": 38.874804166666664, "is_reserved": 0, "lon": -76.96527766666667, "fusion_lon": 0.0, "is_disabled": 0, "fusion_lat": 0.0, "bike_id": "11af7674ab02b8af69eb46b3e067c109", "rental_uris": {"ios": "https://dc.lft.to/lastmile_qr_scan", "android": "https://dc.lft.to/lastmile_qr_scan"}}, {"name": "3726172d33527468abd1dacb7afbad3b", "type": "electric_scooter", "lat": 38.896162, "is_reserved": 0, "lon": -77.01022516666667, "fusion_lon": 0.0, "is_disabled": 0, "fusion_lat": 0.0, "bike_id": "3726172d33527468abd1dacb7afbad3b", "rental_uris": {"ios": "https://dc.lft.to/lastmile_qr_scan", "android": "https://dc.lft.to/lastmile_qr_scan"}}, {"name": "3fb4c31cdc57466f9637fecf8fdc4413", "type": "electric_bike", "lat": 38.898862333333334, "is_reserved": 0, "lon": -76.983881, "fusion_lon": 0.0, "is_disabled": 0, "fusion_lat": 0.0, "bike_id": "3fb4c31cdc57466f9637fecf8fdc4413", "rental_uris": {"ios": "https://dc.lft.to/lastmile_qr_scan", "android": "https://dc.lft.to/lastmile_qr_scan"}}, {"name": "be0defa0d98b1cbbd11210c71dbf1c89", "type": "electric_scooter", "lat": 38.866597, "is_reserved": 0, "lon": -76.98891833333333, "fusion_lon": 0.0, "is_disabled": 0, "fusion_lat": 0.0, "bike_id": "be0defa0d98b1cbbd11210c71dbf1c89", "rental_uris": {"ios": "https://dc.lft.to/lastmile_qr_scan", "android": "https://dc.lft.to/lastmile_qr_scan"}}, {"name": "2f5e016dae94b052fc54583ddb40a115", "type": "electric_scooter", "lat": 38.884472833333334, "is_reserved": 0, "lon": -77.00571016666666, "fusion_lon": 0.0, "is_disabled": 0, "fusion_lat": 0.0, "bike_id": "2f5e016dae94b052fc54583ddb40a115", "rental_uris": {"ios": "https://dc.lft.to/lastmile_qr_scan", "android": "https://dc.lft.to/lastmile_qr_scan"}}, {"name": "81d861fe172e132be9af40a76d77e377", "type": "electric_bike", "lat": 38.9346165, "is_reserved": 0, "lon": -77.03032533333334, "fusion_lon": 0.0, "is_disabled": 0, "fusion_lat": 0.0, "bike_id": "81d861fe172e132be9af40a76d77e377", "rental_uris": {"ios": "https://dc.lft.to/lastmile_qr_scan", "android": "https://dc.lft.to/lastmile_qr_scan"}}, {"name": "db726ac4544292d1f2dd45396e24700a", "type": "electric_scooter", "lat": 38.9020205, "is_reserved": 0, "lon": -77.043879, "fusion_lon": 0.0, "is_disabled": 0, "fusion_lat": 0.0, "bike_id": "db726ac4544292d1f2dd45396e24700a", "rental_uris": {"ios": "https://dc.lft.to/lastmile_qr_scan", "android": "https://dc.lft.to/lastmile_qr_scan"}}, {"name": "228528083b6109e60de21ad2cd4c7367", "type": "electric_bike", "lat": 38.956398166666666, "is_reserved": 0, "lon": -76.99738266666667, "fusion_lon": 0.0, "is_disabled": 0, "fusion_lat": 0.0, "bike_id": "228528083b6109e60de21ad2cd4c7367", "rental_uris": {"ios": "https://dc.lft.to/lastmile_qr_scan", "android": "https://dc.lft.to/lastmile_qr_scan"}}, {"name": "2a93d7aedbcc64d1d765020d0c47db6d", "type": "electric_scooter", "lat": 38.913956166666665, "is_reserved": 0, "lon": -77.03314666666667, "fusion_lon": 0.0, "is_disabled": 0, "fusion_lat": 0.0, "bike_id": "2a93d7aedbcc64d1d765020d0c47db6d", "rental_uris": {"ios": "https://dc.lft.to/lastmile_qr_scan", "android": "https://dc.lft.to/lastmile_qr_scan"}}, {"name": "e3847c048162779043332a35f312cef6", "type": "electric_bike", "lat": 38.95184866666666, "is_reserved": 0, "lon": -76.93543033333333, "fusion_lon": 0.0, "is_disabled": 0, "fusion_lat": 0.0, "bike_id": "e3847c048162779043332a35f312cef6", "rental_uris": {"ios": "https://dc.lft.to/lastmile_qr_scan", "android": "https://dc.lft.to/lastmile_qr_scan"}}, {"name": "c693774e42bf8af1cc16dbfd113d53c9", "type": "electric_scooter", "lat": 38.9170405, "is_reserved": 0, "lon": -77.00112833333333, "fusion_lon": 0.0, "is_disabled": 0, "fusion_lat": 0.0, "bike_id": "c693774e42bf8af1cc16dbfd113d53c9", "rental_uris": {"ios": "https://dc.lft.to/lastmile_qr_scan", "android": "https://dc.lft.to/lastmile_qr_scan"}}, {"name": "685e38dd00a3ddb4635fec5766330fd3", "type": "electric_scooter", "lat": 38.927087666666665, "is_reserved": 0, "lon": -77.038471, "fusion_lon": 0.0, "is_disabled": 0, "fusion_lat": 0.0, "bike_id": "685e38dd00a3ddb4635fec5766330fd3", "rental_uris": {"ios": "https://dc.lft.to/lastmile_qr_scan", "android": "https://dc.lft.to/lastmile_qr_scan"}}, {"name": "0dc9628797c10b48555b47f384e4cf5c", "type": "electric_bike", "lat": 38.898174833333336, "is_reserved": 0, "lon": -76.99063016666666, "fusion_lon": 0.0, "is_disabled": 0, "fusion_lat": 0.0, "bike_id": "0dc9628797c10b48555b47f384e4cf5c", "rental_uris": {"ios": "https://dc.lft.to/lastmile_qr_scan", "android": "https://dc.lft.to/lastmile_qr_scan"}}, {"name": "955810d1150d8abfd78842cf70aae114", "type": "electric_scooter", "lat": 38.883331166666665, "is_reserved": 0, "lon": -77.017743, "fusion_lon": 0.0, "is_disabled": 0, "fusion_lat": 0.0, "bike_id": "955810d1150d8abfd78842cf70aae114", "rental_uris": {"ios": "https://dc.lft.to/lastmile_qr_scan", "android": "https://dc.lft.to/lastmile_qr_scan"}}, {"name": "900f03d122a9dbaa3e1c9bbb88f65dcd", "type": "electric_scooter", "lat": 38.90445116666667, "is_reserved": 0, "lon": -76.9961735, "fusion_lon": 0.0, "is_disabled": 0, "fusion_lat": 0.0, "bike_id": "900f03d122a9dbaa3e1c9bbb88f65dcd", "rental_uris": {"ios": "https://dc.lft.to/lastmile_qr_scan", "android": "https://dc.lft.to/lastmile_qr_scan"}}, {"name": "2cbec1942ae199addbe715cb326ef096", "type": "electric_scooter", "lat": 38.87835483333333, "is_reserved": 0, "lon": -76.99034916666666, "fusion_lon": 0.0, "is_disabled": 0, "fusion_lat": 0.0, "bike_id": "2cbec1942ae199addbe715cb326ef096", "rental_uris": {"ios": "https://dc.lft.to/lastmile_qr_scan", "android": "https://dc.lft.to/lastmile_qr_scan"}}, {"name": "9bbadb1c819d065baa2e7af9b03ec5b4", "type": "electric_scooter", "lat": 38.93487966666667, "is_reserved": 0, "lon": -77.0327855, "fusion_lon": 0.0, "is_disabled": 0, "fusion_lat": 0.0, "bike_id": "9bbadb1c819d065baa2e7af9b03ec5b4", "rental_uris": {"ios": "https://dc.lft.to/lastmile_qr_scan", "android": "https://dc.lft.to/lastmile_qr_scan"}}, {"name": "5e98ea4febf025842d2a3b81fad5aedc", "type": "electric_scooter", "lat": 38.90300416666667, "is_reserved": 0, "lon": -76.9985705, "fusion_lon": 0.0, "is_disabled": 0, "fusion_lat": 0.0, "bike_id": "5e98ea4febf025842d2a3b81fad5aedc", "rental_uris": {"ios": "https://dc.lft.to/lastmile_qr_scan", "android": "https://dc.lft.to/lastmile_qr_scan"}}, {"name": "22eed3c377f8ad99c23929a44ee22b95", "type": "electric_scooter", "lat": 38.917271666666664, "is_reserved": 0, "lon": -77.06840533333333, "fusion_lon": 0.0, "is_disabled": 0, "fusion_lat": 0.0, "bike_id": "22eed3c377f8ad99c23929a44ee22b95", "rental_uris": {"ios": "https://dc.lft.to/lastmile_qr_scan", "android": "https://dc.lft.to/lastmile_qr_scan"}}, {"name": "867395660c823813c9d57662fa886675", "type": "electric_scooter", "lat": 38.87629483333333, "is_reserved": 0, "lon": -76.96526916666667, "fusion_lon": 0.0, "is_disabled": 0, "fusion_lat": 0.0, "bike_id": "867395660c823813c9d57662fa886675", "rental_uris": {"ios": "https://dc.lft.to/lastmile_qr_scan", "android": "https://dc.lft.to/lastmile_qr_scan"}}, {"name": "2a7978334077fef2e8835ccc17ddbc8c", "type": "electric_scooter", "lat": 38.9056705, "is_reserved": 0, "lon": -77.00601466666667, "fusion_lon": 0.0, "is_disabled": 0, "fusion_lat": 0.0, "bike_id": "2a7978334077fef2e8835ccc17ddbc8c", "rental_uris": {"ios": "https://dc.lft.to/lastmile_qr_scan", "android": "https://dc.lft.to/lastmile_qr_scan"}}, {"name": "fd1a79d6c789eff9c5fb2ef4da6e4f45", "type": "electric_scooter", "lat": 38.8958475, "is_reserved": 0, "lon": -76.93717183333334, "fusion_lon": 0.0, "is_disabled": 0, "fusion_lat": 0.0, "bike_id": "fd1a79d6c789eff9c5fb2ef4da6e4f45", "rental_uris": {"ios": "https://dc.lft.to/lastmile_qr_scan", "android": "https://dc.lft.to/lastmile_qr_scan"}}, {"name": "0f7c482fcb62a12db177c1ba570c8adf", "type": "electric_scooter", "lat": 38.85616783333333, "is_reserved": 0, "lon": -76.98016133333333, "fusion_lon": 0.0, "is_disabled": 0, "fusion_lat": 0.0, "bike_id": "0f7c482fcb62a12db177c1ba570c8adf", "rental_uris": {"ios": "https://dc.lft.to/lastmile_qr_scan", "android": "https://dc.lft.to/lastmile_qr_scan"}}, {"name": "29d161dafdc1e793e95ada24000a25cb", "type": "electric_scooter", "lat": 38.8429535, "is_reserved": 0, "lon": -76.99947216666666, "fusion_lon": 0.0, "is_disabled": 0, "fusion_lat": 0.0, "bike_id": "29d161dafdc1e793e95ada24000a25cb", "rental_uris": {"ios": "https://dc.lft.to/lastmile_qr_scan", "android": "https://dc.lft.to/lastmile_qr_scan"}}, {"name": "cf0a75cee97817ed2be3cfa8ff355151", "type": "electric_scooter", "lat": 38.92888716666667, "is_reserved": 0, "lon": -77.0331575, "fusion_lon": 0.0, "is_disabled": 0, "fusion_lat": 0.0, "bike_id": "cf0a75cee97817ed2be3cfa8ff355151", "rental_uris": {"ios": "https://dc.lft.to/lastmile_qr_scan", "android": "https://dc.lft.to/lastmile_qr_scan"}}, {"name": "2428467499aeac834e604808d7e2f9a5", "type": "electric_scooter", "lat": 38.95734933333333, "is_reserved": 0, "lon": -77.02403533333333, "fusion_lon": 0.0, "is_disabled": 0, "fusion_lat": 0.0, "bike_id": "2428467499aeac834e604808d7e2f9a5", "rental_uris": {"ios": "https://dc.lft.to/lastmile_qr_scan", "android": "https://dc.lft.to/lastmile_qr_scan"}}, {"name": "268cea5e398128616da5b538a5843c52", "type": "electric_scooter", "lat": 38.922285, "is_reserved": 0, "lon": -77.04617083333333, "fusion_lon": 0.0, "is_disabled": 0, "fusion_lat": 0.0, "bike_id": "268cea5e398128616da5b538a5843c52", "rental_uris": {"ios": "https://dc.lft.to/lastmile_qr_scan", "android": "https://dc.lft.to/lastmile_qr_scan"}}, {"name": "11745b8b16ee6338735193ccb8ca5674", "type": "electric_scooter", "lat": 38.9013655, "is_reserved": 0, "lon": -77.04501733333333, "fusion_lon": 0.0, "is_disabled": 0, "fusion_lat": 0.0, "bike_id": "11745b8b16ee6338735193ccb8ca5674", "rental_uris": {"ios": "https://dc.lft.to/lastmile_qr_scan", "android": "https://dc.lft.to/lastmile_qr_scan"}}, {"name": "b6d2af48cc6448f4b6dfcd1bccd6f5f8", "type": "electric_scooter", "lat": 38.9023495, "is_reserved": 0, "lon": -76.97928683333333, "fusion_lon": 0.0, "is_disabled": 0, "fusion_lat": 0.0, "bike_id": "b6d2af48cc6448f4b6dfcd1bccd6f5f8", "rental_uris": {"ios": "https://dc.lft.to/lastmile_qr_scan", "android": "https://dc.lft.to/lastmile_qr_scan"}}, {"name": "45f903bdb711955cca054159860734a9", "type": "electric_bike", "lat": 38.851567, "is_reserved": 0, "lon": -77.128749, "fusion_lon": 0.0, "is_disabled": 0, "fusion_lat": 0.0, "bike_id": "45f903bdb711955cca054159860734a9", "rental_uris": {"ios": "https://dc.lft.to/lastmile_qr_scan", "android": "https://dc.lft.to/lastmile_qr_scan"}}, {"name": "bd5ba34ea975c2a8fc078b27b1c522e1", "type": "electric_bike", "lat": 38.884029166666664, "is_reserved": 0, "lon": -77.04644716666667, "fusion_lon": 0.0, "is_disabled": 0, "fusion_lat": 0.0, "bike_id": "bd5ba34ea975c2a8fc078b27b1c522e1", "rental_uris": {"ios": "https://dc.lft.to/lastmile_qr_scan", "android": "https://dc.lft.to/lastmile_qr_scan"}}, {"name": "a3b097d2b94cd12be7b7fa4b6e8494a3", "type": "electric_scooter", "lat": 38.9064625, "is_reserved": 0, "lon": -77.04287533333333, "fusion_lon": 0.0, "is_disabled": 0, "fusion_lat": 0.0, "bike_id": "a3b097d2b94cd12be7b7fa4b6e8494a3", "rental_uris": {"ios": "https://dc.lft.to/lastmile_qr_scan", "android": "https://dc.lft.to/lastmile_qr_scan"}}, {"name": "abef866ad626f7e55b1c30de6b9c658a", "type": "electric_scooter", "lat": 38.89473616666667, "is_reserved": 0, "lon": -76.9839895, "fusion_lon": 0.0, "is_disabled": 0, "fusion_lat": 0.0, "bike_id": "abef866ad626f7e55b1c30de6b9c658a", "rental_uris": {"ios": "https://dc.lft.to/lastmile_qr_scan", "android": "https://dc.lft.to/lastmile_qr_scan"}}, {"name": "cb132a14741646ba4eec16a2245f7b00", "type": "electric_scooter", "lat": 38.86574, "is_reserved": 0, "lon": -76.989544, "fusion_lon": 0.0, "is_disabled": 0, "fusion_lat": 0.0, "bike_id": "cb132a14741646ba4eec16a2245f7b00", "rental_uris": {"ios": "https://dc.lft.to/lastmile_qr_scan", "android": "https://dc.lft.to/lastmile_qr_scan"}}, {"name": "44cd1cdeb9556adc0ee910cb1430cb9c", "type": "electric_scooter", "lat": 38.93063866666667, "is_reserved": 0, "lon": -77.0394305, "fusion_lon": 0.0, "is_disabled": 0, "fusion_lat": 0.0, "bike_id": "44cd1cdeb9556adc0ee910cb1430cb9c", "rental_uris": {"ios": "https://dc.lft.to/lastmile_qr_scan", "android": "https://dc.lft.to/lastmile_qr_scan"}}, {"name": "8c0832bc8fb3d8b84e7327e13dd42a98", "type": "electric_scooter", "lat": 38.943088333333336, "is_reserved": 0, "lon": -77.05918083333333, "fusion_lon": 0.0, "is_disabled": 0, "fusion_lat": 0.0, "bike_id": "8c0832bc8fb3d8b84e7327e13dd42a98", "rental_uris": {"ios": "https://dc.lft.to/lastmile_qr_scan", "android": "https://dc.lft.to/lastmile_qr_scan"}}, {"name": "571d893c7a7ec0ff3a615ee87ccdea8a", "type": "electric_bike", "lat": 38.8984235, "is_reserved": 0, "lon": -77.00581283333334, "fusion_lon": 0.0, "is_disabled": 0, "fusion_lat": 0.0, "bike_id": "571d893c7a7ec0ff3a615ee87ccdea8a", "rental_uris": {"ios": "https://dc.lft.to/lastmile_qr_scan", "android": "https://dc.lft.to/lastmile_qr_scan"}}, {"name": "d677a68e25accfe0c5e34fca398c36b5", "type": "electric_bike", "lat": 38.911782333333335, "is_reserved": 0, "lon": -77.0027035, "fusion_lon": 0.0, "is_disabled": 0, "fusion_lat": 0.0, "bike_id": "d677a68e25accfe0c5e34fca398c36b5", "rental_uris": {"ios": "https://dc.lft.to/lastmile_qr_scan", "android": "https://dc.lft.to/lastmile_qr_scan"}}, {"name": "c1c8cab2742bfb8f327b2b51d723af36", "type": "electric_scooter", "lat": 38.91643933333334, "is_reserved": 0, "lon": -77.03202966666667, "fusion_lon": 0.0, "is_disabled": 0, "fusion_lat": 0.0, "bike_id": "c1c8cab2742bfb8f327b2b51d723af36", "rental_uris": {"ios": "https://dc.lft.to/lastmile_qr_scan", "android": "https://dc.lft.to/lastmile_qr_scan"}}, {"name": "dbcf05eec2549c89a46ce37cb7266c89", "type": "electric_scooter", "lat": 38.89918016666667, "is_reserved": 0, "lon": -76.9337925, "fusion_lon": 0.0, "is_disabled": 0, "fusion_lat": 0.0, "bike_id": "dbcf05eec2549c89a46ce37cb7266c89", "rental_uris": {"ios": "https://dc.lft.to/lastmile_qr_scan", "android": "https://dc.lft.to/lastmile_qr_scan"}}, {"name": "b29c02b528c3d5ba450c85f8002f0716", "type": "electric_scooter", "lat": 38.949581, "is_reserved": 0, "lon": -77.02719183333333, "fusion_lon": 0.0, "is_disabled": 0, "fusion_lat": 0.0, "bike_id": "b29c02b528c3d5ba450c85f8002f0716", "rental_uris": {"ios": "https://dc.lft.to/lastmile_qr_scan", "android": "https://dc.lft.to/lastmile_qr_scan"}}, {"name": "55817b9319be0ef4c742723de8f5d552", "type": "electric_scooter", "lat": 38.92735166666667, "is_reserved": 0, "lon": -77.02501733333334, "fusion_lon": 0.0, "is_disabled": 0, "fusion_lat": 0.0, "bike_id": "55817b9319be0ef4c742723de8f5d552", "rental_uris": {"ios": "https://dc.lft.to/lastmile_qr_scan", "android": "https://dc.lft.to/lastmile_qr_scan"}}, {"name": "74322f9090e63dbc3c85a61b2e5435a4", "type": "electric_scooter", "lat": 38.92276866666667, "is_reserved": 0, "lon": -77.03661216666667, "fusion_lon": 0.0, "is_disabled": 0, "fusion_lat": 0.0, "bike_id": "74322f9090e63dbc3c85a61b2e5435a4", "rental_uris": {"ios": "https://dc.lft.to/lastmile_qr_scan", "android": "https://dc.lft.to/lastmile_qr_scan"}}, {"name": "6c60cd0f638e903d0488d92e8356784a", "type": "electric_scooter", "lat": 38.91819433333333, "is_reserved": 0, "lon": -77.02316316666666, "fusion_lon": 0.0, "is_disabled": 0, "fusion_lat": 0.0, "bike_id": "6c60cd0f638e903d0488d92e8356784a", "rental_uris": {"ios": "https://dc.lft.to/lastmile_qr_scan", "android": "https://dc.lft.to/lastmile_qr_scan"}}, {"name": "db08a6091028f23d704de83df7911787", "type": "electric_scooter", "lat": 38.921857833333334, "is_reserved": 0, "lon": -77.042746, "fusion_lon": 0.0, "is_disabled": 0, "fusion_lat": 0.0, "bike_id": "db08a6091028f23d704de83df7911787", "rental_uris": {"ios": "https://dc.lft.to/lastmile_qr_scan", "android": "https://dc.lft.to/lastmile_qr_scan"}}, {"name": "53d96ae2031e2365272836fd078967ea", "type": "electric_scooter", "lat": 38.892185, "is_reserved": 0, "lon": -77.0463945, "fusion_lon": 0.0, "is_disabled": 0, "fusion_lat": 0.0, "bike_id": "53d96ae2031e2365272836fd078967ea", "rental_uris": {"ios": "https://dc.lft.to/lastmile_qr_scan", "android": "https://dc.lft.to/lastmile_qr_scan"}}, {"name": "4dd0f33df06f1f93207c6a322bcc6a19", "type": "electric_scooter", "lat": 38.921566, "is_reserved": 0, "lon": -77.036583, "fusion_lon": 0.0, "is_disabled": 0, "fusion_lat": 0.0, "bike_id": "4dd0f33df06f1f93207c6a322bcc6a19", "rental_uris": {"ios": "https://dc.lft.to/lastmile_qr_scan", "android": "https://dc.lft.to/lastmile_qr_scan"}}, {"name": "9fbaf21983ac5fd47dc728efe37c42b9", "type": "electric_scooter", "lat": 38.921512166666666, "is_reserved": 0, "lon": -77.03457633333333, "fusion_lon": 0.0, "is_disabled": 0, "fusion_lat": 0.0, "bike_id": "9fbaf21983ac5fd47dc728efe37c42b9", "rental_uris": {"ios": "https://dc.lft.to/lastmile_qr_scan", "android": "https://dc.lft.to/lastmile_qr_scan"}}, {"name": "fb7e7697d239622881171e9e94216ace", "type": "electric_scooter", "lat": 38.894028166666665, "is_reserved": 0, "lon": -77.04422483333333, "fusion_lon": 0.0, "is_disabled": 0, "fusion_lat": 0.0, "bike_id": "fb7e7697d239622881171e9e94216ace", "rental_uris": {"ios": "https://dc.lft.to/lastmile_qr_scan", "android": "https://dc.lft.to/lastmile_qr_scan"}}, {"name": "dfdcadcb522caf3324cd027d8a437124", "type": "electric_scooter", "lat": 38.905665666666664, "is_reserved": 0, "lon": -77.03440216666667, "fusion_lon": 0.0, "is_disabled": 0, "fusion_lat": 0.0, "bike_id": "dfdcadcb522caf3324cd027d8a437124", "rental_uris": {"ios": "https://dc.lft.to/lastmile_qr_scan", "android": "https://dc.lft.to/lastmile_qr_scan"}}, {"name": "e46ddb32219863d6beae520222b9a310", "type": "electric_scooter", "lat": 38.92123133333333, "is_reserved": 0, "lon": -77.0366575, "fusion_lon": 0.0, "is_disabled": 0, "fusion_lat": 0.0, "bike_id": "e46ddb32219863d6beae520222b9a310", "rental_uris": {"ios": "https://dc.lft.to/lastmile_qr_scan", "android": "https://dc.lft.to/lastmile_qr_scan"}}, {"name": "e91dc74b0278181e218f6dfd77d8af73", "type": "electric_scooter", "lat": 38.899472333333335, "is_reserved": 0, "lon": -77.02964016666667, "fusion_lon": 0.0, "is_disabled": 0, "fusion_lat": 0.0, "bike_id": "e91dc74b0278181e218f6dfd77d8af73", "rental_uris": {"ios": "https://dc.lft.to/lastmile_qr_scan", "android": "https://dc.lft.to/lastmile_qr_scan"}}, {"name": "1534d4ace12fad2fe917d5ff54d6bc38", "type": "electric_scooter", "lat": 38.91918883333334, "is_reserved": 0, "lon": -77.030159, "fusion_lon": 0.0, "is_disabled": 0, "fusion_lat": 0.0, "bike_id": "1534d4ace12fad2fe917d5ff54d6bc38", "rental_uris": {"ios": "https://dc.lft.to/lastmile_qr_scan", "android": "https://dc.lft.to/lastmile_qr_scan"}}, {"name": "2732d512e032d28d390c8ea0aaafbd15", "type": "electric_scooter", "lat": 38.84295783333334, "is_reserved": 0, "lon": -76.99947683333333, "fusion_lon": 0.0, "is_disabled": 0, "fusion_lat": 0.0, "bike_id": "2732d512e032d28d390c8ea0aaafbd15", "rental_uris": {"ios": "https://dc.lft.to/lastmile_qr_scan", "android": "https://dc.lft.to/lastmile_qr_scan"}}, {"name": "fa25dfdb5e1d0a4156c677491ed1156e", "type": "electric_bike", "lat": 38.852429666666666, "is_reserved": 0, "lon": -77.1142895, "fusion_lon": 0.0, "is_disabled": 0, "fusion_lat": 0.0, "bike_id": "fa25dfdb5e1d0a4156c677491ed1156e", "rental_uris": {"ios": "https://dc.lft.to/lastmile_qr_scan", "android": "https://dc.lft.to/lastmile_qr_scan"}}, {"name": "aa3ba2234dfa33fb453f10c6d1b9c751", "type": "electric_scooter", "lat": 38.96721266666667, "is_reserved": 0, "lon": -77.02347966666666, "fusion_lon": 0.0, "is_disabled": 0, "fusion_lat": 0.0, "bike_id": "aa3ba2234dfa33fb453f10c6d1b9c751", "rental_uris": {"ios": "https://dc.lft.to/lastmile_qr_scan", "android": "https://dc.lft.to/lastmile_qr_scan"}}, {"name": "5643109d8d1ffcbf2fbde990030faf28", "type": "electric_scooter", "lat": 38.927609333333336, "is_reserved": 0, "lon": -77.05380866666667, "fusion_lon": 0.0, "is_disabled": 0, "fusion_lat": 0.0, "bike_id": "5643109d8d1ffcbf2fbde990030faf28", "rental_uris": {"ios": "https://dc.lft.to/lastmile_qr_scan", "android": "https://dc.lft.to/lastmile_qr_scan"}}, {"name": "b899e2c9d40db05d42b0e73d30c50359", "type": "electric_scooter", "lat": 38.901169333333335, "is_reserved": 0, "lon": -77.04990233333334, "fusion_lon": 0.0, "is_disabled": 0, "fusion_lat": 0.0, "bike_id": "b899e2c9d40db05d42b0e73d30c50359", "rental_uris": {"ios": "https://dc.lft.to/lastmile_qr_scan", "android": "https://dc.lft.to/lastmile_qr_scan"}}, {"name": "f078903e1a8958c8287f24c91ae8f95b", "type": "electric_scooter", "lat": 38.8871775, "is_reserved": 0, "lon": -77.0177475, "fusion_lon": 0.0, "is_disabled": 0, "fusion_lat": 0.0, "bike_id": "f078903e1a8958c8287f24c91ae8f95b", "rental_uris": {"ios": "https://dc.lft.to/lastmile_qr_scan", "android": "https://dc.lft.to/lastmile_qr_scan"}}, {"name": "448d6769996e3a3a8d9182ea5e161805", "type": "electric_scooter", "lat": 38.928650833333336, "is_reserved": 0, "lon": -77.02609983333333, "fusion_lon": 0.0, "is_disabled": 0, "fusion_lat": 0.0, "bike_id": "448d6769996e3a3a8d9182ea5e161805", "rental_uris": {"ios": "https://dc.lft.to/lastmile_qr_scan", "android": "https://dc.lft.to/lastmile_qr_scan"}}, {"name": "c1ba974c77dd4fe9606d60e7fe6e96c7", "type": "electric_scooter", "lat": 38.90456983333333, "is_reserved": 0, "lon": -77.04176766666667, "fusion_lon": 0.0, "is_disabled": 0, "fusion_lat": 0.0, "bike_id": "c1ba974c77dd4fe9606d60e7fe6e96c7", "rental_uris": {"ios": "https://dc.lft.to/lastmile_qr_scan", "android": "https://dc.lft.to/lastmile_qr_scan"}}, {"name": "cf4388d69a03ec9c770d3fc5003529b7", "type": "electric_scooter", "lat": 38.935279333333334, "is_reserved": 0, "lon": -77.03327566666667, "fusion_lon": 0.0, "is_disabled": 0, "fusion_lat": 0.0, "bike_id": "cf4388d69a03ec9c770d3fc5003529b7", "rental_uris": {"ios": "https://dc.lft.to/lastmile_qr_scan", "android": "https://dc.lft.to/lastmile_qr_scan"}}, {"name": "6a038f61c53a420184df0f20e4bd7039", "type": "electric_scooter", "lat": 38.902729666666666, "is_reserved": 0, "lon": -77.03828033333333, "fusion_lon": 0.0, "is_disabled": 0, "fusion_lat": 0.0, "bike_id": "6a038f61c53a420184df0f20e4bd7039", "rental_uris": {"ios": "https://dc.lft.to/lastmile_qr_scan", "android": "https://dc.lft.to/lastmile_qr_scan"}}, {"name": "d7015e388b243860de16eef1852378de", "type": "electric_scooter", "lat": 38.935158666666666, "is_reserved": 0, "lon": -77.02471383333334, "fusion_lon": 0.0, "is_disabled": 0, "fusion_lat": 0.0, "bike_id": "d7015e388b243860de16eef1852378de", "rental_uris": {"ios": "https://dc.lft.to/lastmile_qr_scan", "android": "https://dc.lft.to/lastmile_qr_scan"}}, {"name": "4407155756db0136b99ae0402177a6b6", "type": "electric_scooter", "lat": 38.92116383333333, "is_reserved": 0, "lon": -77.04211316666667, "fusion_lon": 0.0, "is_disabled": 0, "fusion_lat": 0.0, "bike_id": "4407155756db0136b99ae0402177a6b6", "rental_uris": {"ios": "https://dc.lft.to/lastmile_qr_scan", "android": "https://dc.lft.to/lastmile_qr_scan"}}, {"name": "7bcba40f029a1e4c8c1c13cce392ff90", "type": "electric_scooter", "lat": 38.86512833333333, "is_reserved": 0, "lon": -76.990404, "fusion_lon": 0.0, "is_disabled": 0, "fusion_lat": 0.0, "bike_id": "7bcba40f029a1e4c8c1c13cce392ff90", "rental_uris": {"ios": "https://dc.lft.to/lastmile_qr_scan", "android": "https://dc.lft.to/lastmile_qr_scan"}}, {"name": "2fe7b977c954ce87acad178bf65b3408", "type": "electric_scooter", "lat": 38.89369716666667, "is_reserved": 0, "lon": -77.04677733333334, "fusion_lon": 0.0, "is_disabled": 0, "fusion_lat": 0.0, "bike_id": "2fe7b977c954ce87acad178bf65b3408", "rental_uris": {"ios": "https://dc.lft.to/lastmile_qr_scan", "android": "https://dc.lft.to/lastmile_qr_scan"}}, {"name": "e906c00cf4b3ee307cd6dff2d103a0ff", "type": "electric_scooter", "lat": 38.92259933333333, "is_reserved": 0, "lon": -77.03638316666667, "fusion_lon": 0.0, "is_disabled": 0, "fusion_lat": 0.0, "bike_id": "e906c00cf4b3ee307cd6dff2d103a0ff", "rental_uris": {"ios": "https://dc.lft.to/lastmile_qr_scan", "android": "https://dc.lft.to/lastmile_qr_scan"}}, {"name": "696d3b74b8f045ef2aef0d62c66128a5", "type": "electric_scooter", "lat": 38.899681666666666, "is_reserved": 0, "lon": -77.02956833333333, "fusion_lon": 0.0, "is_disabled": 0, "fusion_lat": 0.0, "bike_id": "696d3b74b8f045ef2aef0d62c66128a5", "rental_uris": {"ios": "https://dc.lft.to/lastmile_qr_scan", "android": "https://dc.lft.to/lastmile_qr_scan"}}, {"name": "3adf4ba1798eb49df430064032bad0e2", "type": "electric_bike", "lat": 38.958813, "is_reserved": 0, "lon": -77.0173635, "fusion_lon": 0.0, "is_disabled": 0, "fusion_lat": 0.0, "bike_id": "3adf4ba1798eb49df430064032bad0e2", "rental_uris": {"ios": "https://dc.lft.to/lastmile_qr_scan", "android": "https://dc.lft.to/lastmile_qr_scan"}}, {"name": "6b10230408fa6869e9882b216c38a491", "type": "electric_scooter", "lat": 38.924746, "is_reserved": 0, "lon": -77.02663766666667, "fusion_lon": 0.0, "is_disabled": 0, "fusion_lat": 0.0, "bike_id": "6b10230408fa6869e9882b216c38a491", "rental_uris": {"ios": "https://dc.lft.to/lastmile_qr_scan", "android": "https://dc.lft.to/lastmile_qr_scan"}}, {"name": "ebaaadd87abad3f56c4b0bfc893b0047", "type": "electric_scooter", "lat": 38.9552925, "is_reserved": 0, "lon": -77.06971633333333, "fusion_lon": 0.0, "is_disabled": 0, "fusion_lat": 0.0, "bike_id": "ebaaadd87abad3f56c4b0bfc893b0047", "rental_uris": {"ios": "https://dc.lft.to/lastmile_qr_scan", "android": "https://dc.lft.to/lastmile_qr_scan"}}, {"name": "522b718873e3502909000e9010081bee", "type": "electric_scooter", "lat": 38.919429666666666, "is_reserved": 0, "lon": -77.045432, "fusion_lon": 0.0, "is_disabled": 0, "fusion_lat": 0.0, "bike_id": "522b718873e3502909000e9010081bee", "rental_uris": {"ios": "https://dc.lft.to/lastmile_qr_scan", "android": "https://dc.lft.to/lastmile_qr_scan"}}, {"name": "7ed4276f89ccc9740678fba89bc8ab20", "type": "electric_bike", "lat": 38.832363, "is_reserved": 0, "lon": -77.00715833333334, "fusion_lon": 0.0, "is_disabled": 0, "fusion_lat": 0.0, "bike_id": "7ed4276f89ccc9740678fba89bc8ab20", "rental_uris": {"ios": "https://dc.lft.to/lastmile_qr_scan", "android": "https://dc.lft.to/lastmile_qr_scan"}}, {"name": "4078b5c5176bcc49339e8b11c41273e4", "type": "electric_scooter", "lat": 38.939506333333334, "is_reserved": 0, "lon": -77.03270283333333, "fusion_lon": 0.0, "is_disabled": 0, "fusion_lat": 0.0, "bike_id": "4078b5c5176bcc49339e8b11c41273e4", "rental_uris": {"ios": "https://dc.lft.to/lastmile_qr_scan", "android": "https://dc.lft.to/lastmile_qr_scan"}}, {"name": "ca56825e3c9e95b38f0da9b267df4f12", "type": "electric_scooter", "lat": 38.885969, "is_reserved": 0, "lon": -76.95265216666667, "fusion_lon": 0.0, "is_disabled": 0, "fusion_lat": 0.0, "bike_id": "ca56825e3c9e95b38f0da9b267df4f12", "rental_uris": {"ios": "https://dc.lft.to/lastmile_qr_scan", "android": "https://dc.lft.to/lastmile_qr_scan"}}, {"name": "be9bb7a2223e7081e3917c4fe14046c1", "type": "electric_scooter", "lat": 38.927650666666665, "is_reserved": 0, "lon": -77.053761, "fusion_lon": 0.0, "is_disabled": 0, "fusion_lat": 0.0, "bike_id": "be9bb7a2223e7081e3917c4fe14046c1", "rental_uris": {"ios": "https://dc.lft.to/lastmile_qr_scan", "android": "https://dc.lft.to/lastmile_qr_scan"}}, {"name": "d27544c88727f5aba1d1965650603090", "type": "electric_scooter", "lat": 38.922387666666665, "is_reserved": 0, "lon": -77.03523933333334, "fusion_lon": 0.0, "is_disabled": 0, "fusion_lat": 0.0, "bike_id": "d27544c88727f5aba1d1965650603090", "rental_uris": {"ios": "https://dc.lft.to/lastmile_qr_scan", "android": "https://dc.lft.to/lastmile_qr_scan"}}, {"name": "4230a3d354e15b920b0f85ea46f38e4c", "type": "electric_scooter", "lat": 38.93954333333333, "is_reserved": 0, "lon": -77.03269916666666, "fusion_lon": 0.0, "is_disabled": 0, "fusion_lat": 0.0, "bike_id": "4230a3d354e15b920b0f85ea46f38e4c", "rental_uris": {"ios": "https://dc.lft.to/lastmile_qr_scan", "android": "https://dc.lft.to/lastmile_qr_scan"}}, {"name": "44a8284dc419487614eed8e2bbf03ebb", "type": "electric_bike", "lat": 38.86593966666667, "is_reserved": 0, "lon": -76.9323215, "fusion_lon": 0.0, "is_disabled": 0, "fusion_lat": 0.0, "bike_id": "44a8284dc419487614eed8e2bbf03ebb", "rental_uris": {"ios": "https://dc.lft.to/lastmile_qr_scan", "android": "https://dc.lft.to/lastmile_qr_scan"}}, {"name": "9d6d84c779f81510bedfc3c8e8e1004d", "type": "electric_bike", "lat": 38.8069335, "is_reserved": 0, "lon": -77.059636, "fusion_lon": 0.0, "is_disabled": 0, "fusion_lat": 0.0, "bike_id": "9d6d84c779f81510bedfc3c8e8e1004d", "rental_uris": {"ios": "https://dc.lft.to/lastmile_qr_scan", "android": "https://dc.lft.to/lastmile_qr_scan"}}, {"name": "c5d4ff43244a181d325d0f976c97919e", "type": "electric_scooter", "lat": 38.90589933333333, "is_reserved": 0, "lon": -77.06274883333333, "fusion_lon": 0.0, "is_disabled": 0, "fusion_lat": 0.0, "bike_id": "c5d4ff43244a181d325d0f976c97919e", "rental_uris": {"ios": "https://dc.lft.to/lastmile_qr_scan", "android": "https://dc.lft.to/lastmile_qr_scan"}}, {"name": "00f50fb4120a19be6d91f3ea5f5de3e9", "type": "electric_scooter", "lat": 38.92486316666667, "is_reserved": 0, "lon": -77.02711966666666, "fusion_lon": 0.0, "is_disabled": 0, "fusion_lat": 0.0, "bike_id": "00f50fb4120a19be6d91f3ea5f5de3e9", "rental_uris": {"ios": "https://dc.lft.to/lastmile_qr_scan", "android": "https://dc.lft.to/lastmile_qr_scan"}}, {"name": "7c6d830c126ddf0069cc975770671a0d", "type": "electric_scooter", "lat": 38.882998666666666, "is_reserved": 0, "lon": -77.01762116666667, "fusion_lon": 0.0, "is_disabled": 0, "fusion_lat": 0.0, "bike_id": "7c6d830c126ddf0069cc975770671a0d", "rental_uris": {"ios": "https://dc.lft.to/lastmile_qr_scan", "android": "https://dc.lft.to/lastmile_qr_scan"}}, {"name": "dbc7bf5842109fb923b732caff0b5e1b", "type": "electric_scooter", "lat": 38.902532, "is_reserved": 0, "lon": -77.0405575, "fusion_lon": 0.0, "is_disabled": 0, "fusion_lat": 0.0, "bike_id": "dbc7bf5842109fb923b732caff0b5e1b", "rental_uris": {"ios": "https://dc.lft.to/lastmile_qr_scan", "android": "https://dc.lft.to/lastmile_qr_scan"}}, {"name": "2ebe34bd2ec6345faaa732ed9321d36e", "type": "electric_bike", "lat": 38.85221166666667, "is_reserved": 0, "lon": -77.129539, "fusion_lon": 0.0, "is_disabled": 0, "fusion_lat": 0.0, "bike_id": "2ebe34bd2ec6345faaa732ed9321d36e", "rental_uris": {"ios": "https://dc.lft.to/lastmile_qr_scan", "android": "https://dc.lft.to/lastmile_qr_scan"}}, {"name": "d3dd6fd23717f802e4914e8b6cd24410", "type": "electric_scooter", "lat": 38.92750633333333, "is_reserved": 0, "lon": -77.0248505, "fusion_lon": 0.0, "is_disabled": 0, "fusion_lat": 0.0, "bike_id": "d3dd6fd23717f802e4914e8b6cd24410", "rental_uris": {"ios": "https://dc.lft.to/lastmile_qr_scan", "android": "https://dc.lft.to/lastmile_qr_scan"}}, {"name": "88b6b924ebfbc66008e6acd2c8066cb9", "type": "electric_scooter", "lat": 38.902687, "is_reserved": 0, "lon": -77.05313566666666, "fusion_lon": 0.0, "is_disabled": 0, "fusion_lat": 0.0, "bike_id": "88b6b924ebfbc66008e6acd2c8066cb9", "rental_uris": {"ios": "https://dc.lft.to/lastmile_qr_scan", "android": "https://dc.lft.to/lastmile_qr_scan"}}, {"name": "f3508b9a56978401340c3db6630acde8", "type": "electric_scooter", "lat": 38.90793633333333, "is_reserved": 0, "lon": -77.04821616666666, "fusion_lon": 0.0, "is_disabled": 0, "fusion_lat": 0.0, "bike_id": "f3508b9a56978401340c3db6630acde8", "rental_uris": {"ios": "https://dc.lft.to/lastmile_qr_scan", "android": "https://dc.lft.to/lastmile_qr_scan"}}, {"name": "05aca2bedcb992692965c5d8ab3866f6", "type": "electric_scooter", "lat": 38.899291833333336, "is_reserved": 0, "lon": -77.03919183333333, "fusion_lon": 0.0, "is_disabled": 0, "fusion_lat": 0.0, "bike_id": "05aca2bedcb992692965c5d8ab3866f6", "rental_uris": {"ios": "https://dc.lft.to/lastmile_qr_scan", "android": "https://dc.lft.to/lastmile_qr_scan"}}, {"name": "baa2f4d4b9428e42a1888044af188e53", "type": "electric_bike", "lat": 38.895595666666665, "is_reserved": 0, "lon": -77.12730066666667, "fusion_lon": 0.0, "is_disabled": 0, "fusion_lat": 0.0, "bike_id": "baa2f4d4b9428e42a1888044af188e53", "rental_uris": {"ios": "https://dc.lft.to/lastmile_qr_scan", "android": "https://dc.lft.to/lastmile_qr_scan"}}, {"name": "74969df7253f9e57a2f57b3689621295", "type": "electric_scooter", "lat": 38.899563666666666, "is_reserved": 0, "lon": -77.05082483333334, "fusion_lon": 0.0, "is_disabled": 0, "fusion_lat": 0.0, "bike_id": "74969df7253f9e57a2f57b3689621295", "rental_uris": {"ios": "https://dc.lft.to/lastmile_qr_scan", "android": "https://dc.lft.to/lastmile_qr_scan"}}, {"name": "5406b07052cd03238b3820ee5f9c84da", "type": "electric_scooter", "lat": 38.9509075, "is_reserved": 0, "lon": -77.028672, "fusion_lon": 0.0, "is_disabled": 0, "fusion_lat": 0.0, "bike_id": "5406b07052cd03238b3820ee5f9c84da", "rental_uris": {"ios": "https://dc.lft.to/lastmile_qr_scan", "android": "https://dc.lft.to/lastmile_qr_scan"}}, {"name": "42ddf3c43635392b86f8849054e72bf1", "type": "electric_scooter", "lat": 38.89854066666667, "is_reserved": 0, "lon": -77.04335666666667, "fusion_lon": 0.0, "is_disabled": 0, "fusion_lat": 0.0, "bike_id": "42ddf3c43635392b86f8849054e72bf1", "rental_uris": {"ios": "https://dc.lft.to/lastmile_qr_scan", "android": "https://dc.lft.to/lastmile_qr_scan"}}, {"name": "f57f5f6655307eb3916bdf76d5be9167", "type": "electric_scooter", "lat": 38.909683, "is_reserved": 0, "lon": -77.0367415, "fusion_lon": 0.0, "is_disabled": 0, "fusion_lat": 0.0, "bike_id": "f57f5f6655307eb3916bdf76d5be9167", "rental_uris": {"ios": "https://dc.lft.to/lastmile_qr_scan", "android": "https://dc.lft.to/lastmile_qr_scan"}}, {"name": "f112b74718a0e776d0d6429503c8b386", "type": "electric_scooter", "lat": 38.90240216666667, "is_reserved": 0, "lon": -77.03638916666667, "fusion_lon": 0.0, "is_disabled": 0, "fusion_lat": 0.0, "bike_id": "f112b74718a0e776d0d6429503c8b386", "rental_uris": {"ios": "https://dc.lft.to/lastmile_qr_scan", "android": "https://dc.lft.to/lastmile_qr_scan"}}, {"name": "a79e21a2e9c4a9f40f4c4dc0f15ab039", "type": "electric_scooter", "lat": 38.902685166666664, "is_reserved": 0, "lon": -77.05315166666666, "fusion_lon": 0.0, "is_disabled": 0, "fusion_lat": 0.0, "bike_id": "a79e21a2e9c4a9f40f4c4dc0f15ab039", "rental_uris": {"ios": "https://dc.lft.to/lastmile_qr_scan", "android": "https://dc.lft.to/lastmile_qr_scan"}}, {"name": "335e956ce204e1d026bd4fc64fe295f7", "type": "electric_scooter", "lat": 38.931679, "is_reserved": 0, "lon": -77.02846116666667, "fusion_lon": 0.0, "is_disabled": 0, "fusion_lat": 0.0, "bike_id": "335e956ce204e1d026bd4fc64fe295f7", "rental_uris": {"ios": "https://dc.lft.to/lastmile_qr_scan", "android": "https://dc.lft.to/lastmile_qr_scan"}}, {"name": "8defce3795f6c2d32f096223802a50b4", "type": "electric_bike", "lat": 38.88268166666667, "is_reserved": 0, "lon": -76.99929766666666, "fusion_lon": 0.0, "is_disabled": 0, "fusion_lat": 0.0, "bike_id": "8defce3795f6c2d32f096223802a50b4", "rental_uris": {"ios": "https://dc.lft.to/lastmile_qr_scan", "android": "https://dc.lft.to/lastmile_qr_scan"}}, {"name": "b6849eba31139a04602cbbbafe501e40", "type": "electric_scooter", "lat": 38.910168166666665, "is_reserved": 0, "lon": -77.021895, "fusion_lon": 0.0, "is_disabled": 0, "fusion_lat": 0.0, "bike_id": "b6849eba31139a04602cbbbafe501e40", "rental_uris": {"ios": "https://dc.lft.to/lastmile_qr_scan", "android": "https://dc.lft.to/lastmile_qr_scan"}}, {"name": "1300b377fdf10cca33a65a0d3cdd7672", "type": "electric_scooter", "lat": 38.90439633333333, "is_reserved": 0, "lon": -76.98491033333333, "fusion_lon": 0.0, "is_disabled": 0, "fusion_lat": 0.0, "bike_id": "1300b377fdf10cca33a65a0d3cdd7672", "rental_uris": {"ios": "https://dc.lft.to/lastmile_qr_scan", "android": "https://dc.lft.to/lastmile_qr_scan"}}, {"name": "fc62b056069ae76722dbcd5c0d933643", "type": "electric_scooter", "lat": 38.9401305, "is_reserved": 0, "lon": -77.07170483333333, "fusion_lon": 0.0, "is_disabled": 0, "fusion_lat": 0.0, "bike_id": "fc62b056069ae76722dbcd5c0d933643", "rental_uris": {"ios": "https://dc.lft.to/lastmile_qr_scan", "android": "https://dc.lft.to/lastmile_qr_scan"}}, {"name": "926f29317acdd4f8aa905a8822d28c88", "type": "electric_scooter", "lat": 38.9169595, "is_reserved": 0, "lon": -77.01227266666666, "fusion_lon": 0.0, "is_disabled": 0, "fusion_lat": 0.0, "bike_id": "926f29317acdd4f8aa905a8822d28c88", "rental_uris": {"ios": "https://dc.lft.to/lastmile_qr_scan", "android": "https://dc.lft.to/lastmile_qr_scan"}}, {"name": "2e4fa4fbbb61c74619d03c3eb7c0fccf", "type": "electric_scooter", "lat": 38.904412, "is_reserved": 0, "lon": -77.0515525, "fusion_lon": 0.0, "is_disabled": 0, "fusion_lat": 0.0, "bike_id": "2e4fa4fbbb61c74619d03c3eb7c0fccf", "rental_uris": {"ios": "https://dc.lft.to/lastmile_qr_scan", "android": "https://dc.lft.to/lastmile_qr_scan"}}, {"name": "4f6e92ae06f88a643fabddbe9e85b4c0", "type": "electric_scooter", "lat": 38.908933, "is_reserved": 0, "lon": -77.03150883333333, "fusion_lon": 0.0, "is_disabled": 0, "fusion_lat": 0.0, "bike_id": "4f6e92ae06f88a643fabddbe9e85b4c0", "rental_uris": {"ios": "https://dc.lft.to/lastmile_qr_scan", "android": "https://dc.lft.to/lastmile_qr_scan"}}, {"name": "782bab91e997c731e6aab22e637a3ef2", "type": "electric_scooter", "lat": 38.91915633333333, "is_reserved": 0, "lon": -77.03419783333334, "fusion_lon": 0.0, "is_disabled": 0, "fusion_lat": 0.0, "bike_id": "782bab91e997c731e6aab22e637a3ef2", "rental_uris": {"ios": "https://dc.lft.to/lastmile_qr_scan", "android": "https://dc.lft.to/lastmile_qr_scan"}}, {"name": "a3141bf31616ded7c0a092c8b48187a4", "type": "electric_scooter", "lat": 38.906633666666664, "is_reserved": 0, "lon": -77.03858183333334, "fusion_lon": 0.0, "is_disabled": 0, "fusion_lat": 0.0, "bike_id": "a3141bf31616ded7c0a092c8b48187a4", "rental_uris": {"ios": "https://dc.lft.to/lastmile_qr_scan", "android": "https://dc.lft.to/lastmile_qr_scan"}}, {"name": "4a8b70a63714828ebec5dd59b07f7817", "type": "electric_scooter", "lat": 38.92013133333333, "is_reserved": 0, "lon": -77.03864266666666, "fusion_lon": 0.0, "is_disabled": 0, "fusion_lat": 0.0, "bike_id": "4a8b70a63714828ebec5dd59b07f7817", "rental_uris": {"ios": "https://dc.lft.to/lastmile_qr_scan", "android": "https://dc.lft.to/lastmile_qr_scan"}}, {"name": "d251c7b42034b783eeba595ecb6ede93", "type": "electric_scooter", "lat": 38.92250133333334, "is_reserved": 0, "lon": -77.03091116666667, "fusion_lon": 0.0, "is_disabled": 0, "fusion_lat": 0.0, "bike_id": "d251c7b42034b783eeba595ecb6ede93", "rental_uris": {"ios": "https://dc.lft.to/lastmile_qr_scan", "android": "https://dc.lft.to/lastmile_qr_scan"}}, {"name": "60198e08c018f281e9b7736a45b7a4df", "type": "electric_scooter", "lat": 38.88516583333333, "is_reserved": 0, "lon": -77.03355116666667, "fusion_lon": 0.0, "is_disabled": 0, "fusion_lat": 0.0, "bike_id": "60198e08c018f281e9b7736a45b7a4df", "rental_uris": {"ios": "https://dc.lft.to/lastmile_qr_scan", "android": "https://dc.lft.to/lastmile_qr_scan"}}, {"name": "da23bfc2c654cc4b80efddfea20983f2", "type": "electric_scooter", "lat": 38.9180735, "is_reserved": 0, "lon": -77.02784233333334, "fusion_lon": 0.0, "is_disabled": 0, "fusion_lat": 0.0, "bike_id": "da23bfc2c654cc4b80efddfea20983f2", "rental_uris": {"ios": "https://dc.lft.to/lastmile_qr_scan", "android": "https://dc.lft.to/lastmile_qr_scan"}}, {"name": "e6a089cfc5e94e05a9ef3f11a30d4702", "type": "electric_scooter", "lat": 38.90414616666666, "is_reserved": 0, "lon": -76.97329583333334, "fusion_lon": 0.0, "is_disabled": 0, "fusion_lat": 0.0, "bike_id": "e6a089cfc5e94e05a9ef3f11a30d4702", "rental_uris": {"ios": "https://dc.lft.to/lastmile_qr_scan", "android": "https://dc.lft.to/lastmile_qr_scan"}}, {"name": "94a363a4aace0c970ff955117d9e0130", "type": "electric_scooter", "lat": 38.885169, "is_reserved": 0, "lon": -76.97707933333334, "fusion_lon": 0.0, "is_disabled": 0, "fusion_lat": 0.0, "bike_id": "94a363a4aace0c970ff955117d9e0130", "rental_uris": {"ios": "https://dc.lft.to/lastmile_qr_scan", "android": "https://dc.lft.to/lastmile_qr_scan"}}, {"name": "4c566354fbe79d1c48bc0b2460632840", "type": "electric_scooter", "lat": 38.89223116666667, "is_reserved": 0, "lon": -77.03210433333334, "fusion_lon": 0.0, "is_disabled": 0, "fusion_lat": 0.0, "bike_id": "4c566354fbe79d1c48bc0b2460632840", "rental_uris": {"ios": "https://dc.lft.to/lastmile_qr_scan", "android": "https://dc.lft.to/lastmile_qr_scan"}}, {"name": "40a576ab7bc268b3f8d3d8790c7e33fd", "type": "electric_scooter", "lat": 38.911851166666665, "is_reserved": 0, "lon": -77.00557583333334, "fusion_lon": 0.0, "is_disabled": 0, "fusion_lat": 0.0, "bike_id": "40a576ab7bc268b3f8d3d8790c7e33fd", "rental_uris": {"ios": "https://dc.lft.to/lastmile_qr_scan", "android": "https://dc.lft.to/lastmile_qr_scan"}}, {"name": "a949e59c63296abe550877c6769fbc1d", "type": "electric_scooter", "lat": 38.947698833333334, "is_reserved": 0, "lon": -77.06540583333333, "fusion_lon": 0.0, "is_disabled": 0, "fusion_lat": 0.0, "bike_id": "a949e59c63296abe550877c6769fbc1d", "rental_uris": {"ios": "https://dc.lft.to/lastmile_qr_scan", "android": "https://dc.lft.to/lastmile_qr_scan"}}, {"name": "bf983bb4b59d16259ce459210ee5cd23", "type": "electric_scooter", "lat": 38.940706, "is_reserved": 0, "lon": -77.02693033333334, "fusion_lon": 0.0, "is_disabled": 0, "fusion_lat": 0.0, "bike_id": "bf983bb4b59d16259ce459210ee5cd23", "rental_uris": {"ios": "https://dc.lft.to/lastmile_qr_scan", "android": "https://dc.lft.to/lastmile_qr_scan"}}, {"name": "d9972541ec0565065d25f16f1dab9e8c", "type": "electric_scooter", "lat": 38.913109666666664, "is_reserved": 0, "lon": -77.04473266666666, "fusion_lon": 0.0, "is_disabled": 0, "fusion_lat": 0.0, "bike_id": "d9972541ec0565065d25f16f1dab9e8c", "rental_uris": {"ios": "https://dc.lft.to/lastmile_qr_scan", "android": "https://dc.lft.to/lastmile_qr_scan"}}, {"name": "80763c88b39243cc9886e6027666d316", "type": "electric_scooter", "lat": 38.90732883333333, "is_reserved": 0, "lon": -77.030829, "fusion_lon": 0.0, "is_disabled": 0, "fusion_lat": 0.0, "bike_id": "80763c88b39243cc9886e6027666d316", "rental_uris": {"ios": "https://dc.lft.to/lastmile_qr_scan", "android": "https://dc.lft.to/lastmile_qr_scan"}}, {"name": "a2b0fe2951bda8b816d7544953bf3cbd", "type": "electric_scooter", "lat": 38.93966433333333, "is_reserved": 0, "lon": -77.032547, "fusion_lon": 0.0, "is_disabled": 0, "fusion_lat": 0.0, "bike_id": "a2b0fe2951bda8b816d7544953bf3cbd", "rental_uris": {"ios": "https://dc.lft.to/lastmile_qr_scan", "android": "https://dc.lft.to/lastmile_qr_scan"}}, {"name": "c3d8b9479db8b9e59760df1527c23f44", "type": "electric_bike", "lat": 38.990662, "is_reserved": 0, "lon": -77.10027383333333, "fusion_lon": 0.0, "is_disabled": 0, "fusion_lat": 0.0, "bike_id": "c3d8b9479db8b9e59760df1527c23f44", "rental_uris": {"ios": "https://dc.lft.to/lastmile_qr_scan", "android": "https://dc.lft.to/lastmile_qr_scan"}}, {"name": "1a9976bfa1a14df70a36aa43040174a3", "type": "electric_scooter", "lat": 38.88112133333333, "is_reserved": 0, "lon": -76.9994425, "fusion_lon": 0.0, "is_disabled": 0, "fusion_lat": 0.0, "bike_id": "1a9976bfa1a14df70a36aa43040174a3", "rental_uris": {"ios": "https://dc.lft.to/lastmile_qr_scan", "android": "https://dc.lft.to/lastmile_qr_scan"}}, {"name": "956b7f33d2a68f8302372a56c88c32cf", "type": "electric_scooter", "lat": 38.93956716666667, "is_reserved": 0, "lon": -77.0326875, "fusion_lon": 0.0, "is_disabled": 0, "fusion_lat": 0.0, "bike_id": "956b7f33d2a68f8302372a56c88c32cf", "rental_uris": {"ios": "https://dc.lft.to/lastmile_qr_scan", "android": "https://dc.lft.to/lastmile_qr_scan"}}, {"name": "bd18c6127ddb6ea637266c49703a80b4", "type": "electric_scooter", "lat": 38.9179735, "is_reserved": 0, "lon": -77.02717766666666, "fusion_lon": 0.0, "is_disabled": 0, "fusion_lat": 0.0, "bike_id": "bd18c6127ddb6ea637266c49703a80b4", "rental_uris": {"ios": "https://dc.lft.to/lastmile_qr_scan", "android": "https://dc.lft.to/lastmile_qr_scan"}}, {"name": "80864b7bc15c5121071e56338a8900fd", "type": "electric_scooter", "lat": 38.9095715, "is_reserved": 0, "lon": -77.04869283333333, "fusion_lon": 0.0, "is_disabled": 0, "fusion_lat": 0.0, "bike_id": "80864b7bc15c5121071e56338a8900fd", "rental_uris": {"ios": "https://dc.lft.to/lastmile_qr_scan", "android": "https://dc.lft.to/lastmile_qr_scan"}}, {"name": "ba768b9144ba551f7b839121d828fa18", "type": "electric_scooter", "lat": 38.9234005, "is_reserved": 0, "lon": -77.03521866666667, "fusion_lon": 0.0, "is_disabled": 0, "fusion_lat": 0.0, "bike_id": "ba768b9144ba551f7b839121d828fa18", "rental_uris": {"ios": "https://dc.lft.to/lastmile_qr_scan", "android": "https://dc.lft.to/lastmile_qr_scan"}}, {"name": "488ad62288e0333f67e44cb46ce56914", "type": "electric_scooter", "lat": 38.88334916666667, "is_reserved": 0, "lon": -77.01744683333334, "fusion_lon": 0.0, "is_disabled": 0, "fusion_lat": 0.0, "bike_id": "488ad62288e0333f67e44cb46ce56914", "rental_uris": {"ios": "https://dc.lft.to/lastmile_qr_scan", "android": "https://dc.lft.to/lastmile_qr_scan"}}, {"name": "d6f47f1667969f977bc0b746b90ca3b6", "type": "electric_scooter", "lat": 38.929503, "is_reserved": 0, "lon": -77.03462633333334, "fusion_lon": 0.0, "is_disabled": 0, "fusion_lat": 0.0, "bike_id": "d6f47f1667969f977bc0b746b90ca3b6", "rental_uris": {"ios": "https://dc.lft.to/lastmile_qr_scan", "android": "https://dc.lft.to/lastmile_qr_scan"}}, {"name": "0bcf71e472eddaa3f34f112fe7f8ae1f", "type": "electric_scooter", "lat": 38.90377466666666, "is_reserved": 0, "lon": -77.0449775, "fusion_lon": 0.0, "is_disabled": 0, "fusion_lat": 0.0, "bike_id": "0bcf71e472eddaa3f34f112fe7f8ae1f", "rental_uris": {"ios": "https://dc.lft.to/lastmile_qr_scan", "android": "https://dc.lft.to/lastmile_qr_scan"}}, {"name": "c408a83c988eeb26ed8fafd5266b795d", "type": "electric_bike", "lat": 38.85064633333333, "is_reserved": 0, "lon": -76.973303, "fusion_lon": 0.0, "is_disabled": 0, "fusion_lat": 0.0, "bike_id": "c408a83c988eeb26ed8fafd5266b795d", "rental_uris": {"ios": "https://dc.lft.to/lastmile_qr_scan", "android": "https://dc.lft.to/lastmile_qr_scan"}}, {"name": "f66cdab67b7c6fd727c203442f572ad8", "type": "electric_scooter", "lat": 38.951054, "is_reserved": 0, "lon": -77.01577233333333, "fusion_lon": 0.0, "is_disabled": 0, "fusion_lat": 0.0, "bike_id": "f66cdab67b7c6fd727c203442f572ad8", "rental_uris": {"ios": "https://dc.lft.to/lastmile_qr_scan", "android": "https://dc.lft.to/lastmile_qr_scan"}}, {"name": "c72332a725a2fa0183f61d89b20e0a43", "type": "electric_scooter", "lat": 38.95734516666667, "is_reserved": 0, "lon": -77.0240335, "fusion_lon": 0.0, "is_disabled": 0, "fusion_lat": 0.0, "bike_id": "c72332a725a2fa0183f61d89b20e0a43", "rental_uris": {"ios": "https://dc.lft.to/lastmile_qr_scan", "android": "https://dc.lft.to/lastmile_qr_scan"}}, {"name": "019cae9ae76b29896dfe3b21f354d138", "type": "electric_scooter", "lat": 38.9111005, "is_reserved": 0, "lon": -77.04231266666666, "fusion_lon": 0.0, "is_disabled": 0, "fusion_lat": 0.0, "bike_id": "019cae9ae76b29896dfe3b21f354d138", "rental_uris": {"ios": "https://dc.lft.to/lastmile_qr_scan", "android": "https://dc.lft.to/lastmile_qr_scan"}}, {"name": "30d85f57b02e7bbf8542ca36acb2b759", "type": "electric_scooter", "lat": 38.90388, "is_reserved": 0, "lon": -77.04010816666667, "fusion_lon": 0.0, "is_disabled": 0, "fusion_lat": 0.0, "bike_id": "30d85f57b02e7bbf8542ca36acb2b759", "rental_uris": {"ios": "https://dc.lft.to/lastmile_qr_scan", "android": "https://dc.lft.to/lastmile_qr_scan"}}, {"name": "b0cafe9bbb31830b7f1b63ab55e0aa77", "type": "electric_scooter", "lat": 38.91105666666667, "is_reserved": 0, "lon": -77.04475133333334, "fusion_lon": 0.0, "is_disabled": 0, "fusion_lat": 0.0, "bike_id": "b0cafe9bbb31830b7f1b63ab55e0aa77", "rental_uris": {"ios": "https://dc.lft.to/lastmile_qr_scan", "android": "https://dc.lft.to/lastmile_qr_scan"}}, {"name": "38b8c0bd1edb1558c52b6217a93f0053", "type": "electric_scooter", "lat": 38.949966333333336, "is_reserved": 0, "lon": -77.066797, "fusion_lon": 0.0, "is_disabled": 0, "fusion_lat": 0.0, "bike_id": "38b8c0bd1edb1558c52b6217a93f0053", "rental_uris": {"ios": "https://dc.lft.to/lastmile_qr_scan", "android": "https://dc.lft.to/lastmile_qr_scan"}}, {"name": "67fdcb1d5d38c9574361b31decd76a51", "type": "electric_scooter", "lat": 38.916982833333336, "is_reserved": 0, "lon": -77.0080725, "fusion_lon": 0.0, "is_disabled": 0, "fusion_lat": 0.0, "bike_id": "67fdcb1d5d38c9574361b31decd76a51", "rental_uris": {"ios": "https://dc.lft.to/lastmile_qr_scan", "android": "https://dc.lft.to/lastmile_qr_scan"}}, {"name": "e86957b021d9777e2c27aefd4d5d9f5a", "type": "electric_scooter", "lat": 38.90290183333333, "is_reserved": 0, "lon": -77.03666516666667, "fusion_lon": 0.0, "is_disabled": 0, "fusion_lat": 0.0, "bike_id": "e86957b021d9777e2c27aefd4d5d9f5a", "rental_uris": {"ios": "https://dc.lft.to/lastmile_qr_scan", "android": "https://dc.lft.to/lastmile_qr_scan"}}, {"name": "0a1b32f51897ab76680666896529bde9", "type": "electric_scooter", "lat": 38.89476066666667, "is_reserved": 0, "lon": -76.9859545, "fusion_lon": 0.0, "is_disabled": 0, "fusion_lat": 0.0, "bike_id": "0a1b32f51897ab76680666896529bde9", "rental_uris": {"ios": "https://dc.lft.to/lastmile_qr_scan", "android": "https://dc.lft.to/lastmile_qr_scan"}}, {"name": "49ee8a3f2d4d8e829469d5fe0397a07b", "type": "electric_scooter", "lat": 38.94014583333333, "is_reserved": 0, "lon": -77.07168833333333, "fusion_lon": 0.0, "is_disabled": 0, "fusion_lat": 0.0, "bike_id": "49ee8a3f2d4d8e829469d5fe0397a07b", "rental_uris": {"ios": "https://dc.lft.to/lastmile_qr_scan", "android": "https://dc.lft.to/lastmile_qr_scan"}}, {"name": "afaa19f03c4e69cc1e3f8824f75cb882", "type": "electric_scooter", "lat": 38.9163975, "is_reserved": 0, "lon": -77.03201433333334, "fusion_lon": 0.0, "is_disabled": 0, "fusion_lat": 0.0, "bike_id": "afaa19f03c4e69cc1e3f8824f75cb882", "rental_uris": {"ios": "https://dc.lft.to/lastmile_qr_scan", "android": "https://dc.lft.to/lastmile_qr_scan"}}, {"name": "73f6b1a17d3e3476548c940290e2abba", "type": "electric_scooter", "lat": 38.907241, "is_reserved": 0, "lon": -76.98599466666667, "fusion_lon": 0.0, "is_disabled": 0, "fusion_lat": 0.0, "bike_id": "73f6b1a17d3e3476548c940290e2abba", "rental_uris": {"ios": "https://dc.lft.to/lastmile_qr_scan", "android": "https://dc.lft.to/lastmile_qr_scan"}}, {"name": "8d72f5874fb17c16da686ccff9860654", "type": "electric_scooter", "lat": 38.931023833333334, "is_reserved": 0, "lon": -77.02508783333333, "fusion_lon": 0.0, "is_disabled": 0, "fusion_lat": 0.0, "bike_id": "8d72f5874fb17c16da686ccff9860654", "rental_uris": {"ios": "https://dc.lft.to/lastmile_qr_scan", "android": "https://dc.lft.to/lastmile_qr_scan"}}, {"name": "8f39181fc748b83a8ec697389fe44340", "type": "electric_scooter", "lat": 38.900775, "is_reserved": 0, "lon": -76.9385985, "fusion_lon": 0.0, "is_disabled": 0, "fusion_lat": 0.0, "bike_id": "8f39181fc748b83a8ec697389fe44340", "rental_uris": {"ios": "https://dc.lft.to/lastmile_qr_scan", "android": "https://dc.lft.to/lastmile_qr_scan"}}, {"name": "7dbfd0ed205fff31dcc5fe21b54f822d", "type": "electric_scooter", "lat": 38.91678566666667, "is_reserved": 0, "lon": -77.029728, "fusion_lon": 0.0, "is_disabled": 0, "fusion_lat": 0.0, "bike_id": "7dbfd0ed205fff31dcc5fe21b54f822d", "rental_uris": {"ios": "https://dc.lft.to/lastmile_qr_scan", "android": "https://dc.lft.to/lastmile_qr_scan"}}, {"name": "8434144af8a42484b4520d6990ba54bb", "type": "electric_scooter", "lat": 38.91683316666666, "is_reserved": 0, "lon": -77.01216516666666, "fusion_lon": 0.0, "is_disabled": 0, "fusion_lat": 0.0, "bike_id": "8434144af8a42484b4520d6990ba54bb", "rental_uris": {"ios": "https://dc.lft.to/lastmile_qr_scan", "android": "https://dc.lft.to/lastmile_qr_scan"}}, {"name": "9a64fe0c0faa7d614b044ec9c7f776b8", "type": "electric_scooter", "lat": 38.934419, "is_reserved": 0, "lon": -77.07256866666667, "fusion_lon": 0.0, "is_disabled": 0, "fusion_lat": 0.0, "bike_id": "9a64fe0c0faa7d614b044ec9c7f776b8", "rental_uris": {"ios": "https://dc.lft.to/lastmile_qr_scan", "android": "https://dc.lft.to/lastmile_qr_scan"}}, {"name": "1156f90c364c43de372f669757da8118", "type": "electric_scooter", "lat": 38.90794916666667, "is_reserved": 0, "lon": -76.99691933333334, "fusion_lon": 0.0, "is_disabled": 0, "fusion_lat": 0.0, "bike_id": "1156f90c364c43de372f669757da8118", "rental_uris": {"ios": "https://dc.lft.to/lastmile_qr_scan", "android": "https://dc.lft.to/lastmile_qr_scan"}}, {"name": "e7ebc07d551dcff666c5c80053d85081", "type": "electric_scooter", "lat": 38.89682883333333, "is_reserved": 0, "lon": -76.99623916666667, "fusion_lon": 0.0, "is_disabled": 0, "fusion_lat": 0.0, "bike_id": "e7ebc07d551dcff666c5c80053d85081", "rental_uris": {"ios": "https://dc.lft.to/lastmile_qr_scan", "android": "https://dc.lft.to/lastmile_qr_scan"}}, {"name": "4ebe5e56cd910b6519dd812e10ed19f1", "type": "electric_bike", "lat": 38.902399, "is_reserved": 0, "lon": -77.05907466666666, "fusion_lon": 0.0, "is_disabled": 0, "fusion_lat": 0.0, "bike_id": "4ebe5e56cd910b6519dd812e10ed19f1", "rental_uris": {"ios": "https://dc.lft.to/lastmile_qr_scan", "android": "https://dc.lft.to/lastmile_qr_scan"}}, {"name": "129d2e5a0ebbe8b265b9493aee9f7475", "type": "electric_scooter", "lat": 38.897330833333335, "is_reserved": 0, "lon": -77.05569566666667, "fusion_lon": 0.0, "is_disabled": 0, "fusion_lat": 0.0, "bike_id": "129d2e5a0ebbe8b265b9493aee9f7475", "rental_uris": {"ios": "https://dc.lft.to/lastmile_qr_scan", "android": "https://dc.lft.to/lastmile_qr_scan"}}, {"name": "9b9e566cf53d9269b469f1170ba0f990", "type": "electric_scooter", "lat": 38.89222216666667, "is_reserved": 0, "lon": -77.03210216666666, "fusion_lon": 0.0, "is_disabled": 0, "fusion_lat": 0.0, "bike_id": "9b9e566cf53d9269b469f1170ba0f990", "rental_uris": {"ios": "https://dc.lft.to/lastmile_qr_scan", "android": "https://dc.lft.to/lastmile_qr_scan"}}, {"name": "639cae97406f02a4bc84aca2e468429c", "type": "electric_scooter", "lat": 38.91724266666667, "is_reserved": 0, "lon": -77.036583, "fusion_lon": 0.0, "is_disabled": 0, "fusion_lat": 0.0, "bike_id": "639cae97406f02a4bc84aca2e468429c", "rental_uris": {"ios": "https://dc.lft.to/lastmile_qr_scan", "android": "https://dc.lft.to/lastmile_qr_scan"}}, {"name": "ae4d1a27a07ba64c41ee9d8e34a05837", "type": "electric_bike", "lat": 38.858531666666664, "is_reserved": 0, "lon": -77.09757583333334, "fusion_lon": 0.0, "is_disabled": 0, "fusion_lat": 0.0, "bike_id": "ae4d1a27a07ba64c41ee9d8e34a05837", "rental_uris": {"ios": "https://dc.lft.to/lastmile_qr_scan", "android": "https://dc.lft.to/lastmile_qr_scan"}}, {"name": "d2831854b12eb37ca3baefa74bb23c75", "type": "electric_scooter", "lat": 38.900047666666666, "is_reserved": 0, "lon": -76.99154466666667, "fusion_lon": 0.0, "is_disabled": 0, "fusion_lat": 0.0, "bike_id": "d2831854b12eb37ca3baefa74bb23c75", "rental_uris": {"ios": "https://dc.lft.to/lastmile_qr_scan", "android": "https://dc.lft.to/lastmile_qr_scan"}}, {"name": "fe9c50fafd21e567a77432219a62396c", "type": "electric_scooter", "lat": 38.9338465, "is_reserved": 0, "lon": -77.029659, "fusion_lon": 0.0, "is_disabled": 0, "fusion_lat": 0.0, "bike_id": "fe9c50fafd21e567a77432219a62396c", "rental_uris": {"ios": "https://dc.lft.to/lastmile_qr_scan", "android": "https://dc.lft.to/lastmile_qr_scan"}}, {"name": "b4cd07582ccc2df51b6088789589f4ae", "type": "electric_scooter", "lat": 38.93971333333333, "is_reserved": 0, "lon": -77.02887083333333, "fusion_lon": 0.0, "is_disabled": 0, "fusion_lat": 0.0, "bike_id": "b4cd07582ccc2df51b6088789589f4ae", "rental_uris": {"ios": "https://dc.lft.to/lastmile_qr_scan", "android": "https://dc.lft.to/lastmile_qr_scan"}}, {"name": "bdba8111cbc921ace1415f85eff090e6", "type": "electric_scooter", "lat": 38.92356366666667, "is_reserved": 0, "lon": -77.04141583333333, "fusion_lon": 0.0, "is_disabled": 0, "fusion_lat": 0.0, "bike_id": "bdba8111cbc921ace1415f85eff090e6", "rental_uris": {"ios": "https://dc.lft.to/lastmile_qr_scan", "android": "https://dc.lft.to/lastmile_qr_scan"}}, {"name": "b9a0ad7efc8a9fa5ca67cbae1115b257", "type": "electric_scooter", "lat": 38.92065383333333, "is_reserved": 0, "lon": -77.0334475, "fusion_lon": 0.0, "is_disabled": 0, "fusion_lat": 0.0, "bike_id": "b9a0ad7efc8a9fa5ca67cbae1115b257", "rental_uris": {"ios": "https://dc.lft.to/lastmile_qr_scan", "android": "https://dc.lft.to/lastmile_qr_scan"}},