{"data": {"bikes": [{"lon": -77.0235005, "name": "83a343a2e8ef4d8585393e1bdd07888a", "is_disabled": 0, "type": "electric_scooter", "is_reserved": 0, "fusion_lon": 0.0, "lat": 38.929673333333334, "rental_uris": {"ios": "https://dc.lft.to/lastmile_qr_scan", "android": "https://dc.lft.to/lastmile_qr_scan"}, "bike_id": "83a343a2e8ef4d8585393e1bdd07888a", "fusion_lat": 0.0}, {"lon": -77.02317466666666, "name": "925abddee27368c7e427c9bb6e4c04cc", "is_disabled": 0, "type": "electric_scooter", "is_reserved": 0, "fusion_lon": 0.0, "lat": 38.92071516666667, "rental_uris": {"ios": "https://dc.lft.to/lastmile_qr_scan", "android": "https://dc.lft.to/lastmile_qr_scan"}, "bike_id": "925abddee27368c7e427c9bb6e4c04cc", "fusion_lat": 0.0}, {"lon": -77.02410183333333, "name": "f584d34b4f0f271986df54612acb477c", "is_disabled": 0, "type": "electric_scooter", "is_reserved": 0, "fusion_lon": 0.0, "lat": 38.927055, "rental_uris": {"ios": "https://dc.lft.to/lastmile_qr_scan", "android": "https://dc.lft.to/lastmile_qr_scan"}, "bike_id": "f584d34b4f0f271986df54612acb477c", "fusion_lat": 0.0}, {"lon": -77.03148433333334, "name": "9113e3b0516edc49e9eb0907d657f33d", "is_disabled": 0, "type": "electric_scooter", "is_reserved": 0, "fusion_lon": 0.0, "lat": 38.9280945, "rental_uris": {"ios": "https://dc.lft.to/lastmile_qr_scan", "android": "https://dc.lft.to/lastmile_qr_scan"}, "bike_id": "9113e3b0516edc49e9eb0907d657f33d", "fusion_lat": 0.0}, {"lon": -77.02813833333333, "name": "ecc201b13bbf6bc3b07619e87cb6fe6e", "is_disabled": 0, "type": "electric_scooter", "is_reserved": 0, "fusion_lon": 0.0, "lat": 38.907031833333335, "rental_uris": {"ios": "https://dc.lft.to/lastmile_qr_scan", "android": "https://dc.lft.to/lastmile_qr_scan"}, "bike_id": "ecc201b13bbf6bc3b07619e87cb6fe6e", "fusion_lat": 0.0}, {"lon": -77.05755716666667, "name": "5be1281192617c4cb5408d72d13e3b6a", "is_disabled": 0, "type": "electric_scooter", "is_reserved": 0, "fusion_lon": 0.0, "lat": 38.924743166666666, "rental_uris": {"ios": "https://dc.lft.to/lastmile_qr_scan", "android": "https://dc.lft.to/lastmile_qr_scan"}, "bike_id": "5be1281192617c4cb5408d72d13e3b6a", "fusion_lat": 0.0}, {"lon": -77.0339325, "name": "29b19051148ab3ff9ea5d7058205d686", "is_disabled": 0, "type": "electric_scooter", "is_reserved": 0, "fusion_lon": 0.0, "lat": 38.921600833333336, "rental_uris": {"ios": "https://dc.lft.to/lastmile_qr_scan", "android": "https://dc.lft.to/lastmile_qr_scan"}, "bike_id": "29b19051148ab3ff9ea5d7058205d686", "fusion_lat": 0.0}, {"lon": -77.00583883333333, "name": "e45d2ef0439abde1cebec30c16df3028", "is_disabled": 0, "type": "electric_scooter", "is_reserved": 0, "fusion_lon": 0.0, "lat": 38.90575616666667, "rental_uris": {"ios": "https://dc.lft.to/lastmile_qr_scan", "android": "https://dc.lft.to/lastmile_qr_scan"}, "bike_id": "e45d2ef0439abde1cebec30c16df3028", "fusion_lat": 0.0}, {"lon": -77.012661, "name": "971a3d56779a3d433381752bfa7acf90", "is_disabled": 0, "type": "electric_scooter", "is_reserved": 0, "fusion_lon": 0.0, "lat": 38.89820133333333, "rental_uris": {"ios": "https://dc.lft.to/lastmile_qr_scan", "android": "https://dc.lft.to/lastmile_qr_scan"}, "bike_id": "971a3d56779a3d433381752bfa7acf90", "fusion_lat": 0.0}, {"lon": -76.9782185, "name": "b276179a1bf6cf7a8e177216889371b8", "is_disabled": 0, "type": "electric_scooter", "is_reserved": 0, "fusion_lon": 0.0, "lat": 38.893957, "rental_uris": {"ios": "https://dc.lft.to/lastmile_qr_scan", "android": "https://dc.lft.to/lastmile_qr_scan"}, "bike_id": "b276179a1bf6cf7a8e177216889371b8", "fusion_lat": 0.0}, {"lon": -77.02899133333334, "name": "e26712228e554671ca3a792969993c20", "is_disabled": 0, "type": "electric_scooter", "is_reserved": 0, "fusion_lon": 0.0, "lat": 38.92324583333333, "rental_uris": {"ios": "https://dc.lft.to/lastmile_qr_scan", "android": "https://dc.lft.to/lastmile_qr_scan"}, "bike_id": "e26712228e554671ca3a792969993c20", "fusion_lat": 0.0}, {"lon": -77.04059833333334, "name": "4d535bed42cf9dc97886020a973a34d9", "is_disabled": 0, "type": "electric_scooter", "is_reserved": 0, "fusion_lon": 0.0, "lat": 38.90863183333333, "rental_uris": {"ios": "https://dc.lft.to/lastmile_qr_scan", "android": "https://dc.lft.to/lastmile_qr_scan"}, "bike_id": "4d535bed42cf9dc97886020a973a34d9", "fusion_lat": 0.0}, {"lon": -77.03922883333334, "name": "08f4ae7675707c0cd7a3fa8e7086ac1b", "is_disabled": 0, "type": "electric_scooter", "is_reserved": 0, "fusion_lon": 0.0, "lat": 38.898480166666666, "rental_uris": {"ios": "https://dc.lft.to/lastmile_qr_scan", "android": "https://dc.lft.to/lastmile_qr_scan"}, "bike_id": "08f4ae7675707c0cd7a3fa8e7086ac1b", "fusion_lat": 0.0}, {"lon": -77.03184316666666, "name": "d61ca12943b5044b74c14f68babb3191", "is_disabled": 0, "type": "electric_scooter", "is_reserved": 0, "fusion_lon": 0.0, "lat": 38.90749183333333, "rental_uris": {"ios": "https://dc.lft.to/lastmile_qr_scan", "android": "https://dc.lft.to/lastmile_qr_scan"}, "bike_id": "d61ca12943b5044b74c14f68babb3191", "fusion_lat": 0.0}, {"lon": -77.07665816666666, "name": "e1a3d41b57dea7d71603b8ecfe8c9e0d", "is_disabled": 0, "type": "electric_bike", "is_reserved": 0, "fusion_lon": 0.0, "lat": 38.80976483333333, "rental_uris": {"ios": "https://dc.lft.to/lastmile_qr_scan", "android": "https://dc.lft.to/lastmile_qr_scan"}, "bike_id": "e1a3d41b57dea7d71603b8ecfe8c9e0d", "fusion_lat": 0.0}, {"lon": -77.04784866666667, "name": "141b81103564ad8aedb372f065020438", "is_disabled": 0, "type": "electric_scooter", "is_reserved": 0, "fusion_lon": 0.0, "lat": 38.8991295, "rental_uris": {"ios": "https://dc.lft.to/lastmile_qr_scan", "android": "https://dc.lft.to/lastmile_qr_scan"}, "bike_id": "141b81103564ad8aedb372f065020438", "fusion_lat": 0.0}, {"lon": -77.021401, "name": "b3ec5ffb38f0cbe371e9425023b41a6a", "is_disabled": 0, "type": "electric_scooter", "is_reserved": 0, "fusion_lon": 0.0, "lat": 38.9240495, "rental_uris": {"ios": "https://dc.lft.to/lastmile_qr_scan", "android": "https://dc.lft.to/lastmile_qr_scan"}, "bike_id": "b3ec5ffb38f0cbe371e9425023b41a6a", "fusion_lat": 0.0}, {"lon": -77.04320033333333, "name": "b123d0072f290c84b510a51d9f0e0313", "is_disabled": 0, "type": "electric_scooter", "is_reserved": 0, "fusion_lon": 0.0, "lat": 38.92377033333333, "rental_uris": {"ios": "https://dc.lft.to/lastmile_qr_scan", "android": "https://dc.lft.to/lastmile_qr_scan"}, "bike_id": "b123d0072f290c84b510a51d9f0e0313", "fusion_lat": 0.0}, {"lon": -77.03188583333333, "name": "cacb2998e155f2bcd115cbc8d06900a2", "is_disabled": 0, "type": "electric_scooter", "is_reserved": 0, "fusion_lon": 0.0, "lat": 38.91221766666666, "rental_uris": {"ios": "https://dc.lft.to/lastmile_qr_scan", "android": "https://dc.lft.to/lastmile_qr_scan"}, "bike_id": "cacb2998e155f2bcd115cbc8d06900a2", "fusion_lat": 0.0}, {"lon": -76.97975466666666, "name": "6c41291076c7d2333de61ba135f6d8a9", "is_disabled": 0, "type": "electric_scooter", "is_reserved": 0, "fusion_lon": 0.0, "lat": 38.886589, "rental_uris": {"ios": "https://dc.lft.to/lastmile_qr_scan", "android": "https://dc.lft.to/lastmile_qr_scan"}, "bike_id": "6c41291076c7d2333de61ba135f6d8a9", "fusion_lat": 0.0}, {"lon": -77.02149233333333, "name": "3718b7f7b2ae40ea4d0a12028a368153", "is_disabled": 0, "type": "electric_scooter", "is_reserved": 0, "fusion_lon": 0.0, "lat": 38.92444583333333, "rental_uris": {"ios": "https://dc.lft.to/lastmile_qr_scan", "android": "https://dc.lft.to/lastmile_qr_scan"}, "bike_id": "3718b7f7b2ae40ea4d0a12028a368153", "fusion_lat": 0.0}, {"lon": -77.06297633333334, "name": "a9fc4737394fee3c8211537cff835da2", "is_disabled": 0, "type": "electric_scooter", "is_reserved": 0, "fusion_lon": 0.0, "lat": 38.907753166666666, "rental_uris": {"ios": "https://dc.lft.to/lastmile_qr_scan", "android": "https://dc.lft.to/lastmile_qr_scan"}, "bike_id": "a9fc4737394fee3c8211537cff835da2", "fusion_lat": 0.0}, {"lon": -77.02314983333333, "name": "17355abd13d2847fe1e3f176999ec5ec", "is_disabled": 0, "type": "electric_scooter", "is_reserved": 0, "fusion_lon": 0.0, "lat": 38.9207665, "rental_uris": {"ios": "https://dc.lft.to/lastmile_qr_scan", "android": "https://dc.lft.to/lastmile_qr_scan"}, "bike_id": "17355abd13d2847fe1e3f176999ec5ec", "fusion_lat": 0.0}, {"lon": -77.03524583333333, "name": "6773f240b443c0b4ced90de1f9d5a123", "is_disabled": 0, "type": "electric_scooter", "is_reserved": 0, "fusion_lon": 0.0, "lat": 38.932794, "rental_uris": {"ios": "https://dc.lft.to/lastmile_qr_scan", "android": "https://dc.lft.to/lastmile_qr_scan"}, "bike_id": "6773f240b443c0b4ced90de1f9d5a123", "fusion_lat": 0.0}, {"lon": -77.04185466666667, "name": "7d1a06f79fa3eaf0b127a03a894b2a09", "is_disabled": 0, "type": "electric_scooter", "is_reserved": 0, "fusion_lon": 0.0, "lat": 38.92044666666666, "rental_uris": {"ios": "https://dc.lft.to/lastmile_qr_scan", "android": "https://dc.lft.to/lastmile_qr_scan"}, "bike_id": "7d1a06f79fa3eaf0b127a03a894b2a09", "fusion_lat": 0.0}, {"lon": -77.04471983333333, "name": "8de8a48bf214b3d2fa6649013ec20eb9", "is_disabled": 0, "type": "electric_scooter", "is_reserved": 0, "fusion_lon": 0.0, "lat": 38.92318133333333, "rental_uris": {"ios": "https://dc.lft.to/lastmile_qr_scan", "android": "https://dc.lft.to/lastmile_qr_scan"}, "bike_id": "8de8a48bf214b3d2fa6649013ec20eb9", "fusion_lat": 0.0}, {"lon": -77.0213305, "name": "36a5f3e9d93656c8e26d29f4773fc2ca", "is_disabled": 0, "type": "electric_scooter", "is_reserved": 0, "fusion_lon": 0.0, "lat": 38.922744333333334, "rental_uris": {"ios": "https://dc.lft.to/lastmile_qr_scan", "android": "https://dc.lft.to/lastmile_qr_scan"}, "bike_id": "36a5f3e9d93656c8e26d29f4773fc2ca", "fusion_lat": 0.0}, {"lon": -77.090253, "name": "9687d7802f9934bfe904d0a8c2550223", "is_disabled": 0, "type": "electric_bike", "is_reserved": 0, "fusion_lon": 0.0, "lat": 38.92650183333333, "rental_uris": {"ios": "https://dc.lft.to/lastmile_qr_scan", "android": "https://dc.lft.to/lastmile_qr_scan"}, "bike_id": "9687d7802f9934bfe904d0a8c2550223", "fusion_lat": 0.0}, {"lon": -77.005039, "name": "2d57d8d5e2a1676af42ee3ca7709ec38", "is_disabled": 0, "type": "electric_scooter", "is_reserved": 0, "fusion_lon": 0.0, "lat": 38.9161965, "rental_uris": {"ios": "https://dc.lft.to/lastmile_qr_scan", "android": "https://dc.lft.to/lastmile_qr_scan"}, "bike_id": "2d57d8d5e2a1676af42ee3ca7709ec38", "fusion_lat": 0.0}, {"lon": -77.04898783333333, "name": "e0204e8b172d41924bd7b89affd59263", "is_disabled": 0, "type": "electric_scooter", "is_reserved": 0, "fusion_lon": 0.0, "lat": 38.90060616666667, "rental_uris": {"ios": "https://dc.lft.to/lastmile_qr_scan", "android": "https://dc.lft.to/lastmile_qr_scan"}, "bike_id": "e0204e8b172d41924bd7b89affd59263", "fusion_lat": 0.0}, {"lon": -76.99821333333334, "name": "af8af322ce865e88abea43a2ec4c3f4f", "is_disabled": 0, "type": "electric_scooter", "is_reserved": 0, "fusion_lon": 0.0, "lat": 38.9071405, "rental_uris": {"ios": "https://dc.lft.to/lastmile_qr_scan", "android": "https://dc.lft.to/lastmile_qr_scan"}, "bike_id": "af8af322ce865e88abea43a2ec4c3f4f", "fusion_lat": 0.0}, {"lon": -77.016102, "name": "7adb8ee4f67ec9fa08e27f37a48e798e", "is_disabled": 0, "type": "electric_scooter", "is_reserved": 0, "fusion_lon": 0.0, "lat": 38.919492, "rental_uris": {"ios": "https://dc.lft.to/lastmile_qr_scan", "android": "https://dc.lft.to/lastmile_qr_scan"}, "bike_id": "7adb8ee4f67ec9fa08e27f37a48e798e", "fusion_lat": 0.0}, {"lon": -77.02816, "name": "03120b30369c201874da4c4271daa695", "is_disabled": 0, "type": "electric_scooter", "is_reserved": 0, "fusion_lon": 0.0, "lat": 38.90268616666667, "rental_uris": {"ios": "https://dc.lft.to/lastmile_qr_scan", "android": "https://dc.lft.to/lastmile_qr_scan"}, "bike_id": "03120b30369c201874da4c4271daa695", "fusion_lat": 0.0}, {"lon": -77.0295635, "name": "a98bfcfbcf9052c1ae5a5824144b940b", "is_disabled": 0, "type": "electric_scooter", "is_reserved": 0, "fusion_lon": 0.0, "lat": 38.9430705, "rental_uris": {"ios": "https://dc.lft.to/lastmile_qr_scan", "android": "https://dc.lft.to/lastmile_qr_scan"}, "bike_id": "a98bfcfbcf9052c1ae5a5824144b940b", "fusion_lat": 0.0}, {"lon": -77.0250885, "name": "8e7a29c4318f43fdb883d67ea2c610e0", "is_disabled": 0, "type": "electric_scooter", "is_reserved": 0, "fusion_lon": 0.0, "lat": 38.90709733333333, "rental_uris": {"ios": "https://dc.lft.to/lastmile_qr_scan", "android": "https://dc.lft.to/lastmile_qr_scan"}, "bike_id": "8e7a29c4318f43fdb883d67ea2c610e0", "fusion_lat": 0.0}, {"lon": -77.01402766666666, "name": "dceab266b624855846f74ff98114db6c", "is_disabled": 0, "type": "electric_scooter", "is_reserved": 0, "fusion_lon": 0.0, "lat": 38.911061, "rental_uris": {"ios": "https://dc.lft.to/lastmile_qr_scan", "android": "https://dc.lft.to/lastmile_qr_scan"}, "bike_id": "dceab266b624855846f74ff98114db6c", "fusion_lat": 0.0}, {"lon": -77.098776, "name": "ea444ad5418beea0500d8616e24e0725", "is_disabled": 0, "type": "electric_bike", "is_reserved": 0, "fusion_lon": 0.0, "lat": 38.947194333333336, "rental_uris": {"ios": "https://dc.lft.to/lastmile_qr_scan", "android": "https://dc.lft.to/lastmile_qr_scan"}, "bike_id": "ea444ad5418beea0500d8616e24e0725", "fusion_lat": 0.0}, {"lon": -77.04880033333333, "name": "1c81e8fb94e1fd92a3ff2500721dd8f9", "is_disabled": 0, "type": "electric_scooter", "is_reserved": 0, "fusion_lon": 0.0, "lat": 38.912407, "rental_uris": {"ios": "https://dc.lft.to/lastmile_qr_scan", "android": "https://dc.lft.to/lastmile_qr_scan"}, "bike_id": "1c81e8fb94e1fd92a3ff2500721dd8f9", "fusion_lat": 0.0}, {"lon": -77.00193983333334, "name": "970ebfc8413491b57d1d256f78085577", "is_disabled": 0, "type": "electric_scooter", "is_reserved": 0, "fusion_lon": 0.0, "lat": 38.894834333333336, "rental_uris": {"ios": "https://dc.lft.to/lastmile_qr_scan", "android": "https://dc.lft.to/lastmile_qr_scan"}, "bike_id": "970ebfc8413491b57d1d256f78085577", "fusion_lat": 0.0}, {"lon": -76.98756983333334, "name": "260a8762e741d6fc84b16ed28c28532b", "is_disabled": 0, "type": "electric_bike", "is_reserved": 0, "fusion_lon": 0.0, "lat": 38.857898, "rental_uris": {"ios": "https://dc.lft.to/lastmile_qr_scan", "android": "https://dc.lft.to/lastmile_qr_scan"}, "bike_id": "260a8762e741d6fc84b16ed28c28532b", "fusion_lat": 0.0}, {"lon": -76.97560266666666, "name": "ec8aea653d1b3da85a5bf3b3f31efe87", "is_disabled": 0, "type": "electric_bike", "is_reserved": 0, "fusion_lon": 0.0, "lat": 38.924557, "rental_uris": {"ios": "https://dc.lft.to/lastmile_qr_scan", "android": "https://dc.lft.to/lastmile_qr_scan"}, "bike_id": "ec8aea653d1b3da85a5bf3b3f31efe87", "fusion_lat": 0.0}, {"lon": -77.06410533333333, "name": "7660fa7bdd7d0a0fe06bce7b057d9e5a", "is_disabled": 0, "type": "electric_bike", "is_reserved": 0, "fusion_lon": 0.0, "lat": 38.9800985, "rental_uris": {"ios": "https://dc.lft.to/lastmile_qr_scan", "android": "https://dc.lft.to/lastmile_qr_scan"}, "bike_id": "7660fa7bdd7d0a0fe06bce7b057d9e5a", "fusion_lat": 0.0}, {"lon": -77.0293695, "name": "72325c75279254d3e08f60afa2bff6ef", "is_disabled": 0, "type": "electric_scooter", "is_reserved": 0, "fusion_lon": 0.0, "lat": 38.9428075, "rental_uris": {"ios": "https://dc.lft.to/lastmile_qr_scan", "android": "https://dc.lft.to/lastmile_qr_scan"}, "bike_id": "72325c75279254d3e08f60afa2bff6ef", "fusion_lat": 0.0}, {"lon": -77.03180733333333, "name": "528ab13eeb4727d272a1bb88ec97a20a", "is_disabled": 0, "type": "electric_scooter", "is_reserved": 0, "fusion_lon": 0.0, "lat": 38.91326266666667, "rental_uris": {"ios": "https://dc.lft.to/lastmile_qr_scan", "android": "https://dc.lft.to/lastmile_qr_scan"}, "bike_id": "528ab13eeb4727d272a1bb88ec97a20a", "fusion_lat": 0.0}, {"lon": -77.00148383333334, "name": "dc19ed9db3140410c336f4f571d4cc75", "is_disabled": 0, "type": "electric_scooter", "is_reserved": 0, "fusion_lon": 0.0, "lat": 38.8675015, "rental_uris": {"ios": "https://dc.lft.to/lastmile_qr_scan", "android": "https://dc.lft.to/lastmile_qr_scan"}, "bike_id": "dc19ed9db3140410c336f4f571d4cc75", "fusion_lat": 0.0}, {"lon": -76.95066116666666, "name": "3000aae462c5f2a8a62addd25b4c0d1e", "is_disabled": 0, "type": "electric_bike", "is_reserved": 0, "fusion_lon": 0.0, "lat": 39.085083833333336, "rental_uris": {"ios": "https://dc.lft.to/lastmile_qr_scan", "android": "https://dc.lft.to/lastmile_qr_scan"}, "bike_id": "3000aae462c5f2a8a62addd25b4c0d1e", "fusion_lat": 0.0}, {"lon": -77.01948816666666, "name": "e152da214ea310e34c6134cdf422ed38", "is_disabled": 0, "type": "electric_scooter", "is_reserved": 0, "fusion_lon": 0.0, "lat": 38.974726833333335, "rental_uris": {"ios": "https://dc.lft.to/lastmile_qr_scan", "android": "https://dc.lft.to/lastmile_qr_scan"}, "bike_id": "e152da214ea310e34c6134cdf422ed38", "fusion_lat": 0.0}, {"lon": -76.9851625, "name": "ff24c3f9da5fb5882e6dfa79515b6c64", "is_disabled": 0, "type": "electric_scooter", "is_reserved": 0, "fusion_lon": 0.0, "lat": 38.866775833333335, "rental_uris": {"ios": "https://dc.lft.to/lastmile_qr_scan", "android": "https://dc.lft.to/lastmile_qr_scan"}, "bike_id": "ff24c3f9da5fb5882e6dfa79515b6c64", "fusion_lat": 0.0}, {"lon": -77.03200766666667, "name": "b5644c0e27ca1a42cbdf197cb5efccb7", "is_disabled": 0, "type": "electric_scooter", "is_reserved": 0, "fusion_lon": 0.0, "lat": 38.89233216666667, "rental_uris": {"ios": "https://dc.lft.to/lastmile_qr_scan", "android": "https://dc.lft.to/lastmile_qr_scan"}, "bike_id": "b5644c0e27ca1a42cbdf197cb5efccb7", "fusion_lat": 0.0}, {"lon": -77.04828883333333, "name": "8766b7f2bff1cd37996674b653c5b27a", "is_disabled": 0, "type": "electric_scooter", "is_reserved": 0, "fusion_lon": 0.0, "lat": 38.90186966666667, "rental_uris": {"ios": "https://dc.lft.to/lastmile_qr_scan", "android": "https://dc.lft.to/lastmile_qr_scan"}, "bike_id": "8766b7f2bff1cd37996674b653c5b27a", "fusion_lat": 0.0}, {"lon": -76.98874816666667, "name": "0d7207d26d023cdb3f768a64615d7cb1", "is_disabled": 0, "type": "electric_scooter", "is_reserved": 0, "fusion_lon": 0.0, "lat": 38.91345066666667, "rental_uris": {"ios": "https://dc.lft.to/lastmile_qr_scan", "android": "https://dc.lft.to/lastmile_qr_scan"}, "bike_id": "0d7207d26d023cdb3f768a64615d7cb1", "fusion_lat": 0.0}, {"lon": -77.0361125, "name": "5f8b3686ca21f26af8d49344b3af67c2", "is_disabled": 0, "type": "electric_scooter", "is_reserved": 0, "fusion_lon": 0.0, "lat": 38.92326166666667, "rental_uris": {"ios": "https://dc.lft.to/lastmile_qr_scan", "android": "https://dc.lft.to/lastmile_qr_scan"}, "bike_id": "5f8b3686ca21f26af8d49344b3af67c2", "fusion_lat": 0.0}, {"lon": -77.041444, "name": "93d52be3bafb0c456175068b26d44a01", "is_disabled": 0, "type": "electric_scooter", "is_reserved": 0, "fusion_lon": 0.0, "lat": 38.923682, "rental_uris": {"ios": "https://dc.lft.to/lastmile_qr_scan", "android": "https://dc.lft.to/lastmile_qr_scan"}, "bike_id": "93d52be3bafb0c456175068b26d44a01", "fusion_lat": 0.0}, {"lon": -77.00701366666667, "name": "8ac8626ca9f99783956b48801d18abcf", "is_disabled": 0, "type": "electric_scooter", "is_reserved": 0, "fusion_lon": 0.0, "lat": 38.879099333333336, "rental_uris": {"ios": "https://dc.lft.to/lastmile_qr_scan", "android": "https://dc.lft.to/lastmile_qr_scan"}, "bike_id": "8ac8626ca9f99783956b48801d18abcf", "fusion_lat": 0.0}, {"lon": -77.03202616666667, "name": "f3895d7eaef08df2266d23a89346cf6f", "is_disabled": 0, "type": "electric_scooter", "is_reserved": 0, "fusion_lon": 0.0, "lat": 38.913227166666665, "rental_uris": {"ios": "https://dc.lft.to/lastmile_qr_scan", "android": "https://dc.lft.to/lastmile_qr_scan"}, "bike_id": "f3895d7eaef08df2266d23a89346cf6f", "fusion_lat": 0.0}, {"lon": -77.045128, "name": "68b68e744b489b0e6bbd8a2a2664d0c8", "is_disabled": 0, "type": "electric_scooter", "is_reserved": 0, "fusion_lon": 0.0, "lat": 38.91008983333333, "rental_uris": {"ios": "https://dc.lft.to/lastmile_qr_scan", "android": "https://dc.lft.to/lastmile_qr_scan"}, "bike_id": "68b68e744b489b0e6bbd8a2a2664d0c8", "fusion_lat": 0.0}, {"lon": -77.00583583333334, "name": "7818aa5dddaed36ca0d3c74cdcb2b9ea", "is_disabled": 0, "type": "electric_scooter", "is_reserved": 0, "fusion_lon": 0.0, "lat": 38.87200583333333, "rental_uris": {"ios": "https://dc.lft.to/lastmile_qr_scan", "android": "https://dc.lft.to/lastmile_qr_scan"}, "bike_id": "7818aa5dddaed36ca0d3c74cdcb2b9ea", "fusion_lat": 0.0}, {"lon": -76.99414216666666, "name": "c5b5961d8de9e9da4a70703ee2bea52f", "is_disabled": 0, "type": "electric_scooter", "is_reserved": 0, "fusion_lon": 0.0, "lat": 38.877847333333335, "rental_uris": {"ios": "https://dc.lft.to/lastmile_qr_scan", "android": "https://dc.lft.to/lastmile_qr_scan"}, "bike_id": "c5b5961d8de9e9da4a70703ee2bea52f", "fusion_lat": 0.0}, {"lon": -77.01227933333334, "name": "707d5a00ff9860b7f3a4134f06a0c21f", "is_disabled": 0, "type": "electric_scooter", "is_reserved": 0, "fusion_lon": 0.0, "lat": 38.915975, "rental_uris": {"ios": "https://dc.lft.to/lastmile_qr_scan", "android": "https://dc.lft.to/lastmile_qr_scan"}, "bike_id": "707d5a00ff9860b7f3a4134f06a0c21f", "fusion_lat": 0.0}, {"lon": -77.042211, "name": "f1bb953c18e3f5604dce3f8d9258ba95", "is_disabled": 0, "type": "electric_scooter", "is_reserved": 0, "fusion_lon": 0.0, "lat": 38.92280016666667, "rental_uris": {"ios": "https://dc.lft.to/lastmile_qr_scan", "android": "https://dc.lft.to/lastmile_qr_scan"}, "bike_id": "f1bb953c18e3f5604dce3f8d9258ba95", "fusion_lat": 0.0}, {"lon": -77.04001116666667, "name": "f4e72bb39c2edfb174972676f192cc3b", "is_disabled": 0, "type": "electric_scooter", "is_reserved": 0, "fusion_lon": 0.0, "lat": 38.934239833333336, "rental_uris": {"ios": "https://dc.lft.to/lastmile_qr_scan", "android": "https://dc.lft.to/lastmile_qr_scan"}, "bike_id": "f4e72bb39c2edfb174972676f192cc3b", "fusion_lat": 0.0}, {"lon": -77.0438155, "name": "11f0ea6af6d99aa74807b801ab8e4185", "is_disabled": 0, "type": "electric_scooter", "is_reserved": 0, "fusion_lon": 0.0, "lat": 38.92067, "rental_uris": {"ios": "https://dc.lft.to/lastmile_qr_scan", "android": "https://dc.lft.to/lastmile_qr_scan"}, "bike_id": "11f0ea6af6d99aa74807b801ab8e4185", "fusion_lat": 0.0}, {"lon": -76.99699716666667, "name": "f4e7441cd951476ac540569992c031c8", "is_disabled": 0, "type": "electric_scooter", "is_reserved": 0, "fusion_lon": 0.0, "lat": 38.90829983333333, "rental_uris": {"ios": "https://dc.lft.to/lastmile_qr_scan", "android": "https://dc.lft.to/lastmile_qr_scan"}, "bike_id": "f4e7441cd951476ac540569992c031c8", "fusion_lat": 0.0}, {"lon": -77.02131483333334, "name": "a6a1a0af16b4d1e130ac9cae82355e2a", "is_disabled": 0, "type": "electric_scooter", "is_reserved": 0, "fusion_lon": 0.0, "lat": 38.927911333333334, "rental_uris": {"ios": "https://dc.lft.to/lastmile_qr_scan", "android": "https://dc.lft.to/lastmile_qr_scan"}, "bike_id": "a6a1a0af16b4d1e130ac9cae82355e2a", "fusion_lat": 0.0}, {"lon": -77.02581066666667, "name": "1bd7d605a5121225828f03dc5a339132", "is_disabled": 0, "type": "electric_scooter", "is_reserved": 0, "fusion_lon": 0.0, "lat": 38.903298166666666, "rental_uris": {"ios": "https://dc.lft.to/lastmile_qr_scan", "android": "https://dc.lft.to/lastmile_qr_scan"}, "bike_id": "1bd7d605a5121225828f03dc5a339132", "fusion_lat": 0.0}, {"lon": -77.00448883333334, "name": "d41c2875548c2f0e14eff93f5b6ea064", "is_disabled": 0, "type": "electric_scooter", "is_reserved": 0, "fusion_lon": 0.0, "lat": 38.87745666666667, "rental_uris": {"ios": "https://dc.lft.to/lastmile_qr_scan", "android": "https://dc.lft.to/lastmile_qr_scan"}, "bike_id": "d41c2875548c2f0e14eff93f5b6ea064", "fusion_lat": 0.0}, {"lon": -77.028274, "name": "3b39948fc229e0abbf2fbeffe721d596", "is_disabled": 0, "type": "electric_scooter", "is_reserved": 0, "fusion_lon": 0.0, "lat": 38.96132266666667, "rental_uris": {"ios": "https://dc.lft.to/lastmile_qr_scan", "android": "https://dc.lft.to/lastmile_qr_scan"}, "bike_id": "3b39948fc229e0abbf2fbeffe721d596", "fusion_lat": 0.0}, {"lon": -76.97744266666666, "name": "7268b1a94b98b0b08bdb00261a0be792", "is_disabled": 0, "type": "electric_scooter", "is_reserved": 0, "fusion_lon": 0.0, "lat": 38.90011033333333, "rental_uris": {"ios": "https://dc.lft.to/lastmile_qr_scan", "android": "https://dc.lft.to/lastmile_qr_scan"}, "bike_id": "7268b1a94b98b0b08bdb00261a0be792", "fusion_lat": 0.0}, {"lon": -76.92509283333334, "name": "9e284a2c25cf5e30fe6ba81196294d2b", "is_disabled": 0, "type": "electric_scooter", "is_reserved": 0, "fusion_lon": 0.0, "lat": 38.88597333333333, "rental_uris": {"ios": "https://dc.lft.to/lastmile_qr_scan", "android": "https://dc.lft.to/lastmile_qr_scan"}, "bike_id": "9e284a2c25cf5e30fe6ba81196294d2b", "fusion_lat": 0.0}, {"lon": -77.04197316666666, "name": "2030215cf025782b7122a2987387946c", "is_disabled": 0, "type": "electric_scooter", "is_reserved": 0, "fusion_lon": 0.0, "lat": 38.906165333333334, "rental_uris": {"ios": "https://dc.lft.to/lastmile_qr_scan", "android": "https://dc.lft.to/lastmile_qr_scan"}, "bike_id": "2030215cf025782b7122a2987387946c", "fusion_lat": 0.0}, {"lon": -76.99347433333334, "name": "7682f2c26b8b92ae281677f77fd42afe", "is_disabled": 0, "type": "electric_scooter", "is_reserved": 0, "fusion_lon": 0.0, "lat": 38.9005605, "rental_uris": {"ios": "https://dc.lft.to/lastmile_qr_scan", "android": "https://dc.lft.to/lastmile_qr_scan"}, "bike_id": "7682f2c26b8b92ae281677f77fd42afe", "fusion_lat": 0.0}, {"lon": -77.05475116666666, "name": "7f51a5b5788aa7b9572e019654381371", "is_disabled": 0, "type": "electric_scooter", "is_reserved": 0, "fusion_lon": 0.0, "lat": 38.89391466666667, "rental_uris": {"ios": "https://dc.lft.to/lastmile_qr_scan", "android": "https://dc.lft.to/lastmile_qr_scan"}, "bike_id": "7f51a5b5788aa7b9572e019654381371", "fusion_lat": 0.0}, {"lon": -77.01555183333333, "name": "b717a9d7d9d31145de3ac51169060fb9", "is_disabled": 0, "type": "electric_scooter", "is_reserved": 0, "fusion_lon": 0.0, "lat": 38.892246, "rental_uris": {"ios": "https://dc.lft.to/lastmile_qr_scan", "android": "https://dc.lft.to/lastmile_qr_scan"}, "bike_id": "b717a9d7d9d31145de3ac51169060fb9", "fusion_lat": 0.0}, {"lon": -77.05705966666666, "name": "01fbb8b8d7498e6322ffe47009fb4a18", "is_disabled": 0, "type": "electric_scooter", "is_reserved": 0, "fusion_lon": 0.0, "lat": 38.91672833333333, "rental_uris": {"ios": "https://dc.lft.to/lastmile_qr_scan", "android": "https://dc.lft.to/lastmile_qr_scan"}, "bike_id": "01fbb8b8d7498e6322ffe47009fb4a18", "fusion_lat": 0.0}, {"lon": -77.04998233333333, "name": "8502803c49722bf005090fb52442c1e5", "is_disabled": 0, "type": "electric_scooter", "is_reserved": 0, "fusion_lon": 0.0, "lat": 38.892251333333334, "rental_uris": {"ios": "https://dc.lft.to/lastmile_qr_scan", "android": "https://dc.lft.to/lastmile_qr_scan"}, "bike_id": "8502803c49722bf005090fb52442c1e5", "fusion_lat": 0.0}, {"lon": -76.99843533333333, "name": "775737b4e64c462a9e43902e6aa11bad", "is_disabled": 0, "type": "electric_scooter", "is_reserved": 0, "fusion_lon": 0.0, "lat": 38.900074333333336, "rental_uris": {"ios": "https://dc.lft.to/lastmile_qr_scan", "android": "https://dc.lft.to/lastmile_qr_scan"}, "bike_id": "775737b4e64c462a9e43902e6aa11bad", "fusion_lat": 0.0}, {"lon": -77.06124283333334, "name": "dc7d1fa7d72d544e5bd27ffb74d575b0", "is_disabled": 0, "type": "electric_scooter", "is_reserved": 0, "fusion_lon": 0.0, "lat": 38.940805166666664, "rental_uris": {"ios": "https://dc.lft.to/lastmile_qr_scan", "android": "https://dc.lft.to/lastmile_qr_scan"}, "bike_id": "dc7d1fa7d72d544e5bd27ffb74d575b0", "fusion_lat": 0.0}, {"lon": -77.01878966666666, "name": "9ff31fae5d10f58ce73fb2e730f2f568", "is_disabled": 0, "type": "electric_scooter", "is_reserved": 0, "fusion_lon": 0.0, "lat": 38.9193835, "rental_uris": {"ios": "https://dc.lft.to/lastmile_qr_scan", "android": "https://dc.lft.to/lastmile_qr_scan"}, "bike_id": "9ff31fae5d10f58ce73fb2e730f2f568", "fusion_lat": 0.0}, {"lon": -77.0294915, "name": "05bb5396a68411fbded7a311497299e4", "is_disabled": 0, "type": "electric_scooter", "is_reserved": 0, "fusion_lon": 0.0, "lat": 38.927737666666665, "rental_uris": {"ios": "https://dc.lft.to/lastmile_qr_scan", "android": "https://dc.lft.to/lastmile_qr_scan"}, "bike_id": "05bb5396a68411fbded7a311497299e4", "fusion_lat": 0.0}, {"lon": -77.00187616666666, "name": "4ee5e8fa8c3d7867cd6b11cc1adf6e96", "is_disabled": 0, "type": "electric_scooter", "is_reserved": 0, "fusion_lon": 0.0, "lat": 38.888675666666664, "rental_uris": {"ios": "https://dc.lft.to/lastmile_qr_scan", "android": "https://dc.lft.to/lastmile_qr_scan"}, "bike_id": "4ee5e8fa8c3d7867cd6b11cc1adf6e96", "fusion_lat": 0.0}, {"lon": -77.0173415, "name": "f8f39e4fbe3c0e07a638c82426220887", "is_disabled": 0, "type": "electric_scooter", "is_reserved": 0, "fusion_lon": 0.0, "lat": 38.91365866666666, "rental_uris": {"ios": "https://dc.lft.to/lastmile_qr_scan", "android": "https://dc.lft.to/lastmile_qr_scan"}, "bike_id": "f8f39e4fbe3c0e07a638c82426220887", "fusion_lat": 0.0}, {"lon": -77.0227555, "name": "6adcbc58cd8c72504dc695a9b36c15b6", "is_disabled": 0, "type": "electric_scooter", "is_reserved": 0, "fusion_lon": 0.0, "lat": 38.91672766666667, "rental_uris": {"ios": "https://dc.lft.to/lastmile_qr_scan", "android": "https://dc.lft.to/lastmile_qr_scan"}, "bike_id": "6adcbc58cd8c72504dc695a9b36c15b6", "fusion_lat": 0.0}, {"lon": -77.00575183333333, "name": "65946f16f0fd19d38585f8a18c3d476e", "is_disabled": 0, "type": "electric_scooter", "is_reserved": 0, "fusion_lon": 0.0, "lat": 38.87212266666667, "rental_uris": {"ios": "https://dc.lft.to/lastmile_qr_scan", "android": "https://dc.lft.to/lastmile_qr_scan"}, "bike_id": "65946f16f0fd19d38585f8a18c3d476e", "fusion_lat": 0.0}, {"lon": -77.018413, "name": "c17e17cfff9eeecac30594686b777328", "is_disabled": 0, "type": "electric_scooter", "is_reserved": 0, "fusion_lon": 0.0, "lat": 38.897383, "rental_uris": {"ios": "https://dc.lft.to/lastmile_qr_scan", "android": "https://dc.lft.to/lastmile_qr_scan"}, "bike_id": "c17e17cfff9eeecac30594686b777328", "fusion_lat": 0.0}, {"lon": -77.026391, "name": "7a81359d5cf4a889371cde8193d4f810", "is_disabled": 0, "type": "electric_scooter", "is_reserved": 0, "fusion_lon": 0.0, "lat": 38.910997333333334, "rental_uris": {"ios": "https://dc.lft.to/lastmile_qr_scan", "android": "https://dc.lft.to/lastmile_qr_scan"}, "bike_id": "7a81359d5cf4a889371cde8193d4f810", "fusion_lat": 0.0}, {"lon": -77.0787145, "name": "c0e7b22cb6c9852d554e8095bd8e0da2", "is_disabled": 0, "type": "electric_scooter", "is_reserved": 0, "fusion_lon": 0.0, "lat": 38.919555, "rental_uris": {"ios": "https://dc.lft.to/lastmile_qr_scan", "android": "https://dc.lft.to/lastmile_qr_scan"}, "bike_id": "c0e7b22cb6c9852d554e8095bd8e0da2", "fusion_lat": 0.0}, {"lon": -76.99561233333333, "name": "3833d7cc7ca0913157c101759f0defe8", "is_disabled": 0, "type": "electric_scooter", "is_reserved": 0, "fusion_lon": 0.0, "lat": 38.90009833333333, "rental_uris": {"ios": "https://dc.lft.to/lastmile_qr_scan", "android": "https://dc.lft.to/lastmile_qr_scan"}, "bike_id": "3833d7cc7ca0913157c101759f0defe8", "fusion_lat": 0.0}, {"lon": -77.0151395, "name": "15d338cf476058497d1f62a1aa022205", "is_disabled": 0, "type": "electric_scooter", "is_reserved": 0, "fusion_lon": 0.0, "lat": 38.91325916666667, "rental_uris": {"ios": "https://dc.lft.to/lastmile_qr_scan", "android": "https://dc.lft.to/lastmile_qr_scan"}, "bike_id": "15d338cf476058497d1f62a1aa022205", "fusion_lat": 0.0}, {"lon": -77.032016, "name": "6c11074750db060d1c12984c90173ed9", "is_disabled": 0, "type": "electric_scooter", "is_reserved": 0, "fusion_lon": 0.0, "lat": 38.91632116666667, "rental_uris": {"ios": "https://dc.lft.to/lastmile_qr_scan", "android": "https://dc.lft.to/lastmile_qr_scan"}, "bike_id": "6c11074750db060d1c12984c90173ed9", "fusion_lat": 0.0}, {"lon": -77.03288833333333, "name": "862584a1c69c2e65e90db56e5fcd6703", "is_disabled": 0, "type": "electric_scooter", "is_reserved": 0, "fusion_lon": 0.0, "lat": 38.92935833333333, "rental_uris": {"ios": "https://dc.lft.to/lastmile_qr_scan", "android": "https://dc.lft.to/lastmile_qr_scan"}, "bike_id": "862584a1c69c2e65e90db56e5fcd6703", "fusion_lat": 0.0}, {"lon": -77.06984116666666, "name": "56e475d4af84d1daebce5ca4073f9ce7", "is_disabled": 0, "type": "electric_scooter", "is_reserved": 0, "fusion_lon": 0.0, "lat": 38.95306183333334, "rental_uris": {"ios": "https://dc.lft.to/lastmile_qr_scan", "android": "https://dc.lft.to/lastmile_qr_scan"}, "bike_id": "56e475d4af84d1daebce5ca4073f9ce7", "fusion_lat": 0.0}, {"lon": -77.005111, "name": "ea1a03d9c2eefea51022b65d6b92a24a", "is_disabled": 0, "type": "electric_scooter", "is_reserved": 0, "fusion_lon": 0.0, "lat": 38.875311333333336, "rental_uris": {"ios": "https://dc.lft.to/lastmile_qr_scan", "android": "https://dc.lft.to/lastmile_qr_scan"}, "bike_id": "ea1a03d9c2eefea51022b65d6b92a24a", "fusion_lat": 0.0}, {"lon": -77.039557, "name": "b3c81b55eb49037bf72605f2d1c46ffb", "is_disabled": 0, "type": "electric_scooter", "is_reserved": 0, "fusion_lon": 0.0, "lat": 38.9247955, "rental_uris": {"ios": "https://dc.lft.to/lastmile_qr_scan", "android": "https://dc.lft.to/lastmile_qr_scan"}, "bike_id": "b3c81b55eb49037bf72605f2d1c46ffb", "fusion_lat": 0.0}, {"lon": -77.002872, "name": "fbcd67415f23ea051c7c50c026b7c1d7", "is_disabled": 0, "type": "electric_scooter", "is_reserved": 0, "fusion_lon": 0.0, "lat": 38.9111125, "rental_uris": {"ios": "https://dc.lft.to/lastmile_qr_scan", "android": "https://dc.lft.to/lastmile_qr_scan"}, "bike_id": "fbcd67415f23ea051c7c50c026b7c1d7", "fusion_lat": 0.0}, {"lon": -76.97330166666667, "name": "202a2385d613da2383bfe2660ad1fb46", "is_disabled": 0, "type": "electric_scooter", "is_reserved": 0, "fusion_lon": 0.0, "lat": 38.90409733333333, "rental_uris": {"ios": "https://dc.lft.to/lastmile_qr_scan", "android": "https://dc.lft.to/lastmile_qr_scan"}, "bike_id": "202a2385d613da2383bfe2660ad1fb46", "fusion_lat": 0.0}, {"lon": -77.02691433333334, "name": "a3ef84719a658df22a5dc72f1dfc42ec", "is_disabled": 0, "type": "electric_scooter", "is_reserved": 0, "fusion_lon": 0.0, "lat": 38.91689183333333, "rental_uris": {"ios": "https://dc.lft.to/lastmile_qr_scan", "android": "https://dc.lft.to/lastmile_qr_scan"}, "bike_id": "a3ef84719a658df22a5dc72f1dfc42ec", "fusion_lat": 0.0}, {"lon": -77.0215755, "name": "fb6e0fb2af0889531adfce6631c714ea", "is_disabled": 0, "type": "electric_scooter", "is_reserved": 0, "fusion_lon": 0.0, "lat": 38.926135333333335, "rental_uris": {"ios": "https://dc.lft.to/lastmile_qr_scan", "android": "https://dc.lft.to/lastmile_qr_scan"}, "bike_id": "fb6e0fb2af0889531adfce6631c714ea", "fusion_lat": 0.0}, {"lon": -77.03177916666667, "name": "0e45fe60c978ceb922af386d8fc79261", "is_disabled": 0, "type": "electric_scooter", "is_reserved": 0, "fusion_lon": 0.0, "lat": 38.920630833333334, "rental_uris": {"ios": "https://dc.lft.to/lastmile_qr_scan", "android": "https://dc.lft.to/lastmile_qr_scan"}, "bike_id": "0e45fe60c978ceb922af386d8fc79261", "fusion_lat": 0.0}, {"lon": -77.029651, "name": "45b68779ec2e7a1c96c7e55120d9cde6", "is_disabled": 0, "type": "electric_scooter", "is_reserved": 0, "fusion_lon": 0.0, "lat": 38.9259075, "rental_uris": {"ios": "https://dc.lft.to/lastmile_qr_scan", "android": "https://dc.lft.to/lastmile_qr_scan"}, "bike_id": "45b68779ec2e7a1c96c7e55120d9cde6", "fusion_lat": 0.0}, {"lon": -77.041288, "name": "3dc0917a6866ad16bd7fb75853d76dae", "is_disabled": 0, "type": "electric_scooter", "is_reserved": 0, "fusion_lon": 0.0, "lat": 38.918901, "rental_uris": {"ios": "https://dc.lft.to/lastmile_qr_scan", "android": "https://dc.lft.to/lastmile_qr_scan"}, "bike_id": "3dc0917a6866ad16bd7fb75853d76dae", "fusion_lat": 0.0}, {"lon": -77.02851816666667, "name": "97c2a12cc890db059f1d2e55fe7bbb1e", "is_disabled": 0, "type": "electric_scooter", "is_reserved": 0, "fusion_lon": 0.0, "lat": 38.93524683333333, "rental_uris": {"ios": "https://dc.lft.to/lastmile_qr_scan", "android": "https://dc.lft.to/lastmile_qr_scan"}, "bike_id": "97c2a12cc890db059f1d2e55fe7bbb1e", "fusion_lat": 0.0}, {"lon": -77.029629, "name": "704a931ce5a2979242e7f1e7992c14f5", "is_disabled": 0, "type": "electric_scooter", "is_reserved": 0, "fusion_lon": 0.0, "lat": 38.90486966666667, "rental_uris": {"ios": "https://dc.lft.to/lastmile_qr_scan", "android": "https://dc.lft.to/lastmile_qr_scan"}, "bike_id": "704a931ce5a2979242e7f1e7992c14f5", "fusion_lat": 0.0}, {"lon": -77.022011, "name": "95e2f953179414004c8396bd5c3b77a4", "is_disabled": 0, "type": "electric_scooter", "is_reserved": 0, "fusion_lon": 0.0, "lat": 38.9101145, "rental_uris": {"ios": "https://dc.lft.to/lastmile_qr_scan", "android": "https://dc.lft.to/lastmile_qr_scan"}, "bike_id": "95e2f953179414004c8396bd5c3b77a4", "fusion_lat": 0.0}, {"lon": -77.0162135, "name": "a6b3170e12f1b1d8c9071a5ca1d946f7", "is_disabled": 0, "type": "electric_scooter", "is_reserved": 0, "fusion_lon": 0.0, "lat": 38.9106905, "rental_uris": {"ios": "https://dc.lft.to/lastmile_qr_scan", "android": "https://dc.lft.to/lastmile_qr_scan"}, "bike_id": "a6b3170e12f1b1d8c9071a5ca1d946f7", "fusion_lat": 0.0}, {"lon": -77.02545833333333, "name": "5ec5bcb7ea47e2932ec4878fa869f163", "is_disabled": 0, "type": "electric_scooter", "is_reserved": 0, "fusion_lon": 0.0, "lat": 38.907202166666664, "rental_uris": {"ios": "https://dc.lft.to/lastmile_qr_scan", "android": "https://dc.lft.to/lastmile_qr_scan"}, "bike_id": "5ec5bcb7ea47e2932ec4878fa869f163", "fusion_lat": 0.0}, {"lon": -77.02046233333333, "name": "622b8c1cc468bc86b364ac03e4cb6da4", "is_disabled": 0, "type": "electric_scooter", "is_reserved": 0, "fusion_lon": 0.0, "lat": 38.92177316666667, "rental_uris": {"ios": "https://dc.lft.to/lastmile_qr_scan", "android": "https://dc.lft.to/lastmile_qr_scan"}, "bike_id": "622b8c1cc468bc86b364ac03e4cb6da4", "fusion_lat": 0.0}, {"lon": -77.05087466666667, "name": "5453f28d947261e6f6259fd67fa41c93", "is_disabled": 0, "type": "electric_bike", "is_reserved": 0, "fusion_lon": 0.0, "lat": 38.8132625, "rental_uris": {"ios": "https://dc.lft.to/lastmile_qr_scan", "android": "https://dc.lft.to/lastmile_qr_scan"}, "bike_id": "5453f28d947261e6f6259fd67fa41c93", "fusion_lat": 0.0}, {"lon": -77.08494433333334, "name": "60c25564292fba0770c5a69aea3e6c81", "is_disabled": 0, "type": "electric_scooter", "is_reserved": 0, "fusion_lon": 0.0, "lat": 38.958867833333336, "rental_uris": {"ios": "https://dc.lft.to/lastmile_qr_scan", "android": "https://dc.lft.to/lastmile_qr_scan"}, "bike_id": "60c25564292fba0770c5a69aea3e6c81", "fusion_lat": 0.0}, {"lon": -77.04317583333334, "name": "1a4e706a1cde8f51f31b22a43b550fb8", "is_disabled": 0, "type": "electric_scooter", "is_reserved": 0, "fusion_lon": 0.0, "lat": 38.92209, "rental_uris": {"ios": "https://dc.lft.to/lastmile_qr_scan", "android": "https://dc.lft.to/lastmile_qr_scan"}, "bike_id": "1a4e706a1cde8f51f31b22a43b550fb8", "fusion_lat": 0.0}, {"lon": -77.03831233333334, "name": "6aab078c5439cedd27632157784deffc", "is_disabled": 0, "type": "electric_scooter", "is_reserved": 0, "fusion_lon": 0.0, "lat": 38.911098333333335, "rental_uris": {"ios": "https://dc.lft.to/lastmile_qr_scan", "android": "https://dc.lft.to/lastmile_qr_scan"}, "bike_id": "6aab078c5439cedd27632157784deffc", "fusion_lat": 0.0}, {"lon": -77.02251366666667, "name": "545db8a643b71897099548e87e4132fe", "is_disabled": 0, "type": "electric_scooter", "is_reserved": 0, "fusion_lon": 0.0, "lat": 38.894633, "rental_uris": {"ios": "https://dc.lft.to/lastmile_qr_scan", "android": "https://dc.lft.to/lastmile_qr_scan"}, "bike_id": "545db8a643b71897099548e87e4132fe", "fusion_lat": 0.0}, {"lon": -77.04194516666666, "name": "e72afe4cff46844c019b99ea1b40a84c", "is_disabled": 0, "type": "electric_scooter", "is_reserved": 0, "fusion_lon": 0.0, "lat": 38.920423666666665, "rental_uris": {"ios": "https://dc.lft.to/lastmile_qr_scan", "android": "https://dc.lft.to/lastmile_qr_scan"}, "bike_id": "e72afe4cff46844c019b99ea1b40a84c", "fusion_lat": 0.0}, {"lon": -77.0033725, "name": "5fd9e32510dbfe73bbdbc48e54bb9a75", "is_disabled": 0, "type": "electric_bike", "is_reserved": 0, "fusion_lon": 0.0, "lat": 38.92018633333333, "rental_uris": {"ios": "https://dc.lft.to/lastmile_qr_scan", "android": "https://dc.lft.to/lastmile_qr_scan"}, "bike_id": "5fd9e32510dbfe73bbdbc48e54bb9a75", "fusion_lat": 0.0}, {"lon": -77.04470816666667, "name": "b174cf1885290f14c6f64246556e608d", "is_disabled": 0, "type": "electric_scooter", "is_reserved": 0, "fusion_lon": 0.0, "lat": 38.9153235, "rental_uris": {"ios": "https://dc.lft.to/lastmile_qr_scan", "android": "https://dc.lft.to/lastmile_qr_scan"}, "bike_id": "b174cf1885290f14c6f64246556e608d", "fusion_lat": 0.0}, {"lon": -77.013635, "name": "6cac091496fc6c16e2f9149806b4073d", "is_disabled": 0, "type": "electric_scooter", "is_reserved": 0, "fusion_lon": 0.0, "lat": 38.9288175, "rental_uris": {"ios": "https://dc.lft.to/lastmile_qr_scan", "android": "https://dc.lft.to/lastmile_qr_scan"}, "bike_id": "6cac091496fc6c16e2f9149806b4073d", "fusion_lat": 0.0}, {"lon": -77.05769983333333, "name": "401cec9971e763a35bffde9899c24acc", "is_disabled": 0, "type": "electric_scooter", "is_reserved": 0, "fusion_lon": 0.0, "lat": 38.924847666666665, "rental_uris": {"ios": "https://dc.lft.to/lastmile_qr_scan", "android": "https://dc.lft.to/lastmile_qr_scan"}, "bike_id": "401cec9971e763a35bffde9899c24acc", "fusion_lat": 0.0}, {"lon": -77.0570825, "name": "6e936339f39c840558d33e378cbc1930", "is_disabled": 0, "type": "electric_scooter", "is_reserved": 0, "fusion_lon": 0.0, "lat": 38.925993, "rental_uris": {"ios": "https://dc.lft.to/lastmile_qr_scan", "android": "https://dc.lft.to/lastmile_qr_scan"}, "bike_id": "6e936339f39c840558d33e378cbc1930", "fusion_lat": 0.0}, {"lon": -77.04159133333333, "name": "372b1dadcfbb3b9f4f8efb94a071abdf", "is_disabled": 0, "type": "electric_scooter", "is_reserved": 0, "fusion_lon": 0.0, "lat": 38.907308666666665, "rental_uris": {"ios": "https://dc.lft.to/lastmile_qr_scan", "android": "https://dc.lft.to/lastmile_qr_scan"}, "bike_id": "372b1dadcfbb3b9f4f8efb94a071abdf", "fusion_lat": 0.0}, {"lon": -77.02401866666666, "name": "0c17d3341e1b3b774ad94e891d3a4d45", "is_disabled": 0, "type": "electric_scooter", "is_reserved": 0, "fusion_lon": 0.0, "lat": 38.916172333333336, "rental_uris": {"ios": "https://dc.lft.to/lastmile_qr_scan", "android": "https://dc.lft.to/lastmile_qr_scan"}, "bike_id": "0c17d3341e1b3b774ad94e891d3a4d45", "fusion_lat": 0.0}, {"lon": -77.03575883333333, "name": "b692d45334632f25ac7944deab116993", "is_disabled": 0, "type": "electric_scooter", "is_reserved": 0, "fusion_lon": 0.0, "lat": 38.926810833333334, "rental_uris": {"ios": "https://dc.lft.to/lastmile_qr_scan", "android": "https://dc.lft.to/lastmile_qr_scan"}, "bike_id": "b692d45334632f25ac7944deab116993", "fusion_lat": 0.0}, {"lon": -77.021566, "name": "d6cb6fd3e05d560258545beee01a929a", "is_disabled": 0, "type": "electric_scooter", "is_reserved": 0, "fusion_lon": 0.0, "lat": 38.9260615, "rental_uris": {"ios": "https://dc.lft.to/lastmile_qr_scan", "android": "https://dc.lft.to/lastmile_qr_scan"}, "bike_id": "d6cb6fd3e05d560258545beee01a929a", "fusion_lat": 0.0}, {"lon": -76.9908135, "name": "f38794cfa9f73dfaea8630f91fbf36cb", "is_disabled": 0, "type": "electric_bike", "is_reserved": 0, "fusion_lon": 0.0, "lat": 38.898044, "rental_uris": {"ios": "https://dc.lft.to/lastmile_qr_scan", "android": "https://dc.lft.to/lastmile_qr_scan"}, "bike_id": "f38794cfa9f73dfaea8630f91fbf36cb", "fusion_lat": 0.0}, {"lon": -77.03188733333333, "name": "8cd4d9149ce06a7dad1f32adb5b92810", "is_disabled": 0, "type": "electric_scooter", "is_reserved": 0, "fusion_lon": 0.0, "lat": 38.919374833333336, "rental_uris": {"ios": "https://dc.lft.to/lastmile_qr_scan", "android": "https://dc.lft.to/lastmile_qr_scan"}, "bike_id": "8cd4d9149ce06a7dad1f32adb5b92810", "fusion_lat": 0.0}, {"lon": -77.0195005, "name": "dc6f2ed1b0413c7ce347699c35f34803", "is_disabled": 0, "type": "electric_scooter", "is_reserved": 0, "fusion_lon": 0.0, "lat": 38.92418466666667, "rental_uris": {"ios": "https://dc.lft.to/lastmile_qr_scan", "android": "https://dc.lft.to/lastmile_qr_scan"}, "bike_id": "dc6f2ed1b0413c7ce347699c35f34803", "fusion_lat": 0.0}, {"lon": -77.0122215, "name": "05d3d4db63824af32da278ac45cd1000", "is_disabled": 0, "type": "electric_scooter", "is_reserved": 0, "fusion_lon": 0.0, "lat": 38.914463833333336, "rental_uris": {"ios": "https://dc.lft.to/lastmile_qr_scan", "android": "https://dc.lft.to/lastmile_qr_scan"}, "bike_id": "05d3d4db63824af32da278ac45cd1000", "fusion_lat": 0.0}, {"lon": -77.0270695, "name": "f4a2c7cc1d90338b1762ffb454c722ef", "is_disabled": 0, "type": "electric_bike", "is_reserved": 0, "fusion_lon": 0.0, "lat": 38.94986383333333, "rental_uris": {"ios": "https://dc.lft.to/lastmile_qr_scan", "android": "https://dc.lft.to/lastmile_qr_scan"}, "bike_id": "f4a2c7cc1d90338b1762ffb454c722ef", "fusion_lat": 0.0}, {"lon": -77.03179166666666, "name": "c31ae5e3b68a7e18f04a6634530f5a5e", "is_disabled": 0, "type": "electric_scooter", "is_reserved": 0, "fusion_lon": 0.0, "lat": 38.892384666666665, "rental_uris": {"ios": "https://dc.lft.to/lastmile_qr_scan", "android": "https://dc.lft.to/lastmile_qr_scan"}, "bike_id": "c31ae5e3b68a7e18f04a6634530f5a5e", "fusion_lat": 0.0}, {"lon": -76.99609133333334, "name": "9fb8880f38c98cd9142768a53ef28258", "is_disabled": 0, "type": "electric_scooter", "is_reserved": 0, "fusion_lon": 0.0, "lat": 38.9014375, "rental_uris": {"ios": "https://dc.lft.to/lastmile_qr_scan", "android": "https://dc.lft.to/lastmile_qr_scan"}, "bike_id": "9fb8880f38c98cd9142768a53ef28258", "fusion_lat": 0.0}, {"lon": -77.03988466666667, "name": "1dd077498a77f0de8f9ad6d3ad8ec3ed", "is_disabled": 0, "type": "electric_bike", "is_reserved": 0, "fusion_lon": 0.0, "lat": 38.93336816666667, "rental_uris": {"ios": "https://dc.lft.to/lastmile_qr_scan", "android": "https://dc.lft.to/lastmile_qr_scan"}, "bike_id": "1dd077498a77f0de8f9ad6d3ad8ec3ed", "fusion_lat": 0.0}, {"lon": -77.02701916666666, "name": "f9f66d12e59d9fe748443f2a11e07b62", "is_disabled": 0, "type": "electric_scooter", "is_reserved": 0, "fusion_lon": 0.0, "lat": 38.905870666666665, "rental_uris": {"ios": "https://dc.lft.to/lastmile_qr_scan", "android": "https://dc.lft.to/lastmile_qr_scan"}, "bike_id": "f9f66d12e59d9fe748443f2a11e07b62", "fusion_lat": 0.0}, {"lon": -77.03579133333334, "name": "6ae7c35c72655c08fa3cb65a3de3f6d2", "is_disabled": 0, "type": "electric_scooter", "is_reserved": 0, "fusion_lon": 0.0, "lat": 38.919174166666664, "rental_uris": {"ios": "https://dc.lft.to/lastmile_qr_scan", "android": "https://dc.lft.to/lastmile_qr_scan"}, "bike_id": "6ae7c35c72655c08fa3cb65a3de3f6d2", "fusion_lat": 0.0}, {"lon": -77.02218766666667, "name": "0ed5c31ef0d0454cece9d553694ab075", "is_disabled": 0, "type": "electric_scooter", "is_reserved": 0, "fusion_lon": 0.0, "lat": 38.899785666666666, "rental_uris": {"ios": "https://dc.lft.to/lastmile_qr_scan", "android": "https://dc.lft.to/lastmile_qr_scan"}, "bike_id": "0ed5c31ef0d0454cece9d553694ab075", "fusion_lat": 0.0}, {"lon": -77.02304533333333, "name": "fd2821fe22a1d4c6ec4d66ad0e5d290e", "is_disabled": 0, "type": "electric_scooter", "is_reserved": 0, "fusion_lon": 0.0, "lat": 38.900777833333336, "rental_uris": {"ios": "https://dc.lft.to/lastmile_qr_scan", "android": "https://dc.lft.to/lastmile_qr_scan"}, "bike_id": "fd2821fe22a1d4c6ec4d66ad0e5d290e", "fusion_lat": 0.0}, {"lon": -77.0216165, "name": "5125a0b7c879320ae9cf1d14a6470e97", "is_disabled": 0, "type": "electric_scooter", "is_reserved": 0, "fusion_lon": 0.0, "lat": 38.930673166666665, "rental_uris": {"ios": "https://dc.lft.to/lastmile_qr_scan", "android": "https://dc.lft.to/lastmile_qr_scan"}, "bike_id": "5125a0b7c879320ae9cf1d14a6470e97", "fusion_lat": 0.0}, {"lon": -77.02425266666667, "name": "c217e4388b84276cf11579e42efbea77", "is_disabled": 0, "type": "electric_scooter", "is_reserved": 0, "fusion_lon": 0.0, "lat": 38.920918, "rental_uris": {"ios": "https://dc.lft.to/lastmile_qr_scan", "android": "https://dc.lft.to/lastmile_qr_scan"}, "bike_id": "c217e4388b84276cf11579e42efbea77", "fusion_lat": 0.0}, {"lon": -77.02817833333333, "name": "34b4e380a666d0af8494186c9f65121a", "is_disabled": 0, "type": "electric_scooter", "is_reserved": 0, "fusion_lon": 0.0, "lat": 38.92240266666667, "rental_uris": {"ios": "https://dc.lft.to/lastmile_qr_scan", "android": "https://dc.lft.to/lastmile_qr_scan"}, "bike_id": "34b4e380a666d0af8494186c9f65121a", "fusion_lat": 0.0}, {"lon": -77.0251265, "name": "9d7fed3025ed57a3502e9a31a1764813", "is_disabled": 0, "type": "electric_scooter", "is_reserved": 0, "fusion_lon": 0.0, "lat": 38.920790833333335, "rental_uris": {"ios": "https://dc.lft.to/lastmile_qr_scan", "android": "https://dc.lft.to/lastmile_qr_scan"}, "bike_id": "9d7fed3025ed57a3502e9a31a1764813", "fusion_lat": 0.0}, {"lon": -77.00919616666667, "name": "f85db06d624628aa62f816c1321adbdb", "is_disabled": 0, "type": "electric_scooter", "is_reserved": 0, "fusion_lon": 0.0, "lat": 38.913433166666664, "rental_uris": {"ios": "https://dc.lft.to/lastmile_qr_scan", "android": "https://dc.lft.to/lastmile_qr_scan"}, "bike_id": "f85db06d624628aa62f816c1321adbdb", "fusion_lat": 0.0}, {"lon": -77.0224325, "name": "287bc32f30e58ddc5e6730f27d2d1b05", "is_disabled": 0, "type": "electric_scooter", "is_reserved": 0, "fusion_lon": 0.0, "lat": 38.9245795, "rental_uris": {"ios": "https://dc.lft.to/lastmile_qr_scan", "android": "https://dc.lft.to/lastmile_qr_scan"}, "bike_id": "287bc32f30e58ddc5e6730f27d2d1b05", "fusion_lat": 0.0}, {"lon": -76.98058483333334, "name": "c41a411fe70a22dc46901414f3a174ab", "is_disabled": 0, "type": "electric_scooter", "is_reserved": 0, "fusion_lon": 0.0, "lat": 38.885290499999996, "rental_uris": {"ios": "https://dc.lft.to/lastmile_qr_scan", "android": "https://dc.lft.to/lastmile_qr_scan"}, "bike_id": "c41a411fe70a22dc46901414f3a174ab", "fusion_lat": 0.0}, {"lon": -77.047508, "name": "e82fc7b7c3725d9d05d10b3b70d3ec7a", "is_disabled": 0, "type": "electric_scooter", "is_reserved": 0, "fusion_lon": 0.0, "lat": 38.920075, "rental_uris": {"ios": "https://dc.lft.to/lastmile_qr_scan", "android": "https://dc.lft.to/lastmile_qr_scan"}, "bike_id": "e82fc7b7c3725d9d05d10b3b70d3ec7a", "fusion_lat": 0.0}, {"lon": -76.9949205, "name": "65085c88dbda7bb8205769ad54baa298", "is_disabled": 0, "type": "electric_scooter", "is_reserved": 0, "fusion_lon": 0.0, "lat": 38.8874045, "rental_uris": {"ios": "https://dc.lft.to/lastmile_qr_scan", "android": "https://dc.lft.to/lastmile_qr_scan"}, "bike_id": "65085c88dbda7bb8205769ad54baa298", "fusion_lat": 0.0}, {"lon": -76.97741966666666, "name": "5cbfa0991db9190a14d35a24606f6e60", "is_disabled": 0, "type": "electric_scooter", "is_reserved": 0, "fusion_lon": 0.0, "lat": 38.87146116666667, "rental_uris": {"ios": "https://dc.lft.to/lastmile_qr_scan", "android": "https://dc.lft.to/lastmile_qr_scan"}, "bike_id": "5cbfa0991db9190a14d35a24606f6e60", "fusion_lat": 0.0}, {"lon": -76.93393166666667, "name": "a43c5ba71837cb3d39ee31fb1cc3260f", "is_disabled": 0, "type": "electric_scooter", "is_reserved": 0, "fusion_lon": 0.0, "lat": 38.899072833333335, "rental_uris": {"ios": "https://dc.lft.to/lastmile_qr_scan", "android": "https://dc.lft.to/lastmile_qr_scan"}, "bike_id": "a43c5ba71837cb3d39ee31fb1cc3260f", "fusion_lat": 0.0}, {"lon": -77.02964166666666, "name": "5c5c22eaf811115df34529b11962ffad", "is_disabled": 0, "type": "electric_scooter", "is_reserved": 0, "fusion_lon": 0.0, "lat": 38.904877166666665, "rental_uris": {"ios": "https://dc.lft.to/lastmile_qr_scan", "android": "https://dc.lft.to/lastmile_qr_scan"}, "bike_id": "5c5c22eaf811115df34529b11962ffad", "fusion_lat": 0.0}, {"lon": -77.00196366666667, "name": "a343e6cb9823231541d0b488d39f2438", "is_disabled": 0, "type": "electric_scooter", "is_reserved": 0, "fusion_lon": 0.0, "lat": 38.8763045, "rental_uris": {"ios": "https://dc.lft.to/lastmile_qr_scan", "android": "https://dc.lft.to/lastmile_qr_scan"}, "bike_id": "a343e6cb9823231541d0b488d39f2438", "fusion_lat": 0.0}, {"lon": -77.0253765, "name": "a1724a7b475a14c34fa07da674b1b6a6", "is_disabled": 0, "type": "electric_scooter", "is_reserved": 0, "fusion_lon": 0.0, "lat": 38.920812, "rental_uris": {"ios": "https://dc.lft.to/lastmile_qr_scan", "android": "https://dc.lft.to/lastmile_qr_scan"}, "bike_id": "a1724a7b475a14c34fa07da674b1b6a6", "fusion_lat": 0.0}, {"lon": -77.0424735, "name": "4d57c951a8714e820ec2b221b926fef8", "is_disabled": 0, "type": "electric_scooter", "is_reserved": 0, "fusion_lon": 0.0, "lat": 38.92428433333333, "rental_uris": {"ios": "https://dc.lft.to/lastmile_qr_scan", "android": "https://dc.lft.to/lastmile_qr_scan"}, "bike_id": "4d57c951a8714e820ec2b221b926fef8", "fusion_lat": 0.0}, {"lon": -77.0366965, "name": "76182e05848bef273c411ea857644402", "is_disabled": 0, "type": "electric_scooter", "is_reserved": 0, "fusion_lon": 0.0, "lat": 38.9030245, "rental_uris": {"ios": "https://dc.lft.to/lastmile_qr_scan", "android": "https://dc.lft.to/lastmile_qr_scan"}, "bike_id": "76182e05848bef273c411ea857644402", "fusion_lat": 0.0}, {"lon": -77.00195816666667, "name": "a43443c043ffd1106830841d6ab20937", "is_disabled": 0, "type": "electric_scooter", "is_reserved": 0, "fusion_lon": 0.0, "lat": 38.9062785, "rental_uris": {"ios": "https://dc.lft.to/lastmile_qr_scan", "android": "https://dc.lft.to/lastmile_qr_scan"}, "bike_id": "a43443c043ffd1106830841d6ab20937", "fusion_lat": 0.0}, {"lon": -77.017751, "name": "4dbea429667b8d14b0baf951b5fcae3a", "is_disabled": 0, "type": "electric_scooter", "is_reserved": 0, "fusion_lon": 0.0, "lat": 38.884669, "rental_uris": {"ios": "https://dc.lft.to/lastmile_qr_scan", "android": "https://dc.lft.to/lastmile_qr_scan"}, "bike_id": "4dbea429667b8d14b0baf951b5fcae3a", "fusion_lat": 0.0}, {"lon": -76.90188216666667, "name": "5fa53158ee9c3d3574330e9a59c372a6", "is_disabled": 0, "type": "electric_bike", "is_reserved": 0, "fusion_lon": 0.0, "lat": 39.001917, "rental_uris": {"ios": "https://dc.lft.to/lastmile_qr_scan", "android": "https://dc.lft.to/lastmile_qr_scan"}, "bike_id": "5fa53158ee9c3d3574330e9a59c372a6", "fusion_lat": 0.0}, {"lon": -77.022197, "name": "a7185db2f86cb36daaa42811381bb3f0", "is_disabled": 0, "type": "electric_scooter", "is_reserved": 0, "fusion_lon": 0.0, "lat": 38.924702, "rental_uris": {"ios": "https://dc.lft.to/lastmile_qr_scan", "android": "https://dc.lft.to/lastmile_qr_scan"}, "bike_id": "a7185db2f86cb36daaa42811381bb3f0", "fusion_lat": 0.0}, {"lon": -77.01704333333333, "name": "160f6592f6c42fb2598bbf9e72826e86", "is_disabled": 0, "type": "electric_scooter", "is_reserved": 0, "fusion_lon": 0.0, "lat": 38.8874745, "rental_uris": {"ios": "https://dc.lft.to/lastmile_qr_scan", "android": "https://dc.lft.to/lastmile_qr_scan"}, "bike_id": "160f6592f6c42fb2598bbf9e72826e86", "fusion_lat": 0.0}, {"lon": -77.0723945, "name": "c13eb2cf44c1734ed6a32b456b3f04c2", "is_disabled": 0, "type": "electric_scooter", "is_reserved": 0, "fusion_lon": 0.0, "lat": 38.92156333333333, "rental_uris": {"ios": "https://dc.lft.to/lastmile_qr_scan", "android": "https://dc.lft.to/lastmile_qr_scan"}, "bike_id": "c13eb2cf44c1734ed6a32b456b3f04c2", "fusion_lat": 0.0}, {"lon": -76.99778083333334, "name": "8443a9ebea636601e505fc03c2d1caff", "is_disabled": 0, "type": "electric_scooter", "is_reserved": 0, "fusion_lon": 0.0, "lat": 38.9003645, "rental_uris": {"ios": "https://dc.lft.to/lastmile_qr_scan", "android": "https://dc.lft.to/lastmile_qr_scan"}, "bike_id": "8443a9ebea636601e505fc03c2d1caff", "fusion_lat": 0.0}, {"lon": -76.984932, "name": "963e2282c842832920d91c8dd45cdf9b", "is_disabled": 0, "type": "electric_scooter", "is_reserved": 0, "fusion_lon": 0.0, "lat": 38.903682, "rental_uris": {"ios": "https://dc.lft.to/lastmile_qr_scan", "android": "https://dc.lft.to/lastmile_qr_scan"}, "bike_id": "963e2282c842832920d91c8dd45cdf9b", "fusion_lat": 0.0}, {"lon": -77.00323416666667, "name": "fb7b96afb7d89703439501b9053818fa", "is_disabled": 0, "type": "electric_scooter", "is_reserved": 0, "fusion_lon": 0.0, "lat": 38.86126, "rental_uris": {"ios": "https://dc.lft.to/lastmile_qr_scan", "android": "https://dc.lft.to/lastmile_qr_scan"}, "bike_id": "fb7b96afb7d89703439501b9053818fa", "fusion_lat": 0.0}, {"lon": -77.103502, "name": "03f612482e50b97fbcdee7c2cbe79c62", "is_disabled": 0, "type": "electric_bike", "is_reserved": 0, "fusion_lon": 0.0, "lat": 38.836930333333335, "rental_uris": {"ios": "https://dc.lft.to/lastmile_qr_scan", "android": "https://dc.lft.to/lastmile_qr_scan"}, "bike_id": "03f612482e50b97fbcdee7c2cbe79c62", "fusion_lat": 0.0}, {"lon": -77.0383305, "name": "6a0062669fbfd4d5bae2f78b36b0d8a2", "is_disabled": 0, "type": "electric_scooter", "is_reserved": 0, "fusion_lon": 0.0, "lat": 38.91105, "rental_uris": {"ios": "https://dc.lft.to/lastmile_qr_scan", "android": "https://dc.lft.to/lastmile_qr_scan"}, "bike_id": "6a0062669fbfd4d5bae2f78b36b0d8a2", "fusion_lat": 0.0}, {"lon": -77.032054, "name": "04334087af39045b093d882b6c0181dc", "is_disabled": 0, "type": "electric_scooter", "is_reserved": 0, "fusion_lon": 0.0, "lat": 38.91615816666667, "rental_uris": {"ios": "https://dc.lft.to/lastmile_qr_scan", "android": "https://dc.lft.to/lastmile_qr_scan"}, "bike_id": "04334087af39045b093d882b6c0181dc", "fusion_lat": 0.0}, {"lon": -77.03527133333333, "name": "9ea076144f8105e93f5d8b9b6e1f2d32", "is_disabled": 0, "type": "electric_scooter", "is_reserved": 0, "fusion_lon": 0.0, "lat": 38.918480833333334, "rental_uris": {"ios": "https://dc.lft.to/lastmile_qr_scan", "android": "https://dc.lft.to/lastmile_qr_scan"}, "bike_id": "9ea076144f8105e93f5d8b9b6e1f2d32", "fusion_lat": 0.0}, {"lon": -76.985449, "name": "6c24a6d98de4cbda82a7f6659d0a7f8a", "is_disabled": 0, "type": "electric_scooter", "is_reserved": 0, "fusion_lon": 0.0, "lat": 38.88604616666667, "rental_uris": {"ios": "https://dc.lft.to/lastmile_qr_scan", "android": "https://dc.lft.to/lastmile_qr_scan"}, "bike_id": "6c24a6d98de4cbda82a7f6659d0a7f8a", "fusion_lat": 0.0}, {"lon": -77.009299, "name": "6ba812998ea34f08a7fe5f6d69a2a134", "is_disabled": 0, "type": "electric_scooter", "is_reserved": 0, "fusion_lon": 0.0, "lat": 38.89605733333333, "rental_uris": {"ios": "https://dc.lft.to/lastmile_qr_scan", "android": "https://dc.lft.to/lastmile_qr_scan"}, "bike_id": "6ba812998ea34f08a7fe5f6d69a2a134", "fusion_lat": 0.0}, {"lon": -77.0423695, "name": "bbad027ee88f2873db2cf0bc78aa6368", "is_disabled": 0, "type": "electric_scooter", "is_reserved": 0, "fusion_lon": 0.0, "lat": 38.9215515, "rental_uris": {"ios": "https://dc.lft.to/lastmile_qr_scan", "android": "https://dc.lft.to/lastmile_qr_scan"}, "bike_id": "bbad027ee88f2873db2cf0bc78aa6368", "fusion_lat": 0.0}, {"lon": -77.02584133333333, "name": "0c8fe5dae26ef5b2878ad703b66e02eb", "is_disabled": 0, "type": "electric_scooter", "is_reserved": 0, "fusion_lon": 0.0, "lat": 38.909585166666666, "rental_uris": {"ios": "https://dc.lft.to/lastmile_qr_scan", "android": "https://dc.lft.to/lastmile_qr_scan"}, "bike_id": "0c8fe5dae26ef5b2878ad703b66e02eb", "fusion_lat": 0.0}, {"lon": -77.0357905, "name": "49a0b7734e61e925a3d7d4875bd2c5e3", "is_disabled": 0, "type": "electric_scooter", "is_reserved": 0, "fusion_lon": 0.0, "lat": 38.92788016666667, "rental_uris": {"ios": "https://dc.lft.to/lastmile_qr_scan", "android": "https://dc.lft.to/lastmile_qr_scan"}, "bike_id": "49a0b7734e61e925a3d7d4875bd2c5e3", "fusion_lat": 0.0}, {"lon": -76.95199033333333, "name": "36acd5a3f69656b704b6f41245ceef21", "is_disabled": 0, "type": "electric_bike", "is_reserved": 0, "fusion_lon": 0.0, "lat": 38.891136, "rental_uris": {"ios": "https://dc.lft.to/lastmile_qr_scan", "android": "https://dc.lft.to/lastmile_qr_scan"}, "bike_id": "36acd5a3f69656b704b6f41245ceef21", "fusion_lat": 0.0}, {"lon": -77.025936, "name": "e53b7e443a66ad56490dda5ca5390262", "is_disabled": 0, "type": "electric_scooter", "is_reserved": 0, "fusion_lon": 0.0, "lat": 38.920922833333336, "rental_uris": {"ios": "https://dc.lft.to/lastmile_qr_scan", "android": "https://dc.lft.to/lastmile_qr_scan"}, "bike_id": "e53b7e443a66ad56490dda5ca5390262", "fusion_lat": 0.0}, {"lon": -77.06459283333334, "name": "6fd7c3107a55253de993049a04d43165", "is_disabled": 0, "type": "electric_scooter", "is_reserved": 0, "fusion_lon": 0.0, "lat": 38.910434333333335, "rental_uris": {"ios": "https://dc.lft.to/lastmile_qr_scan", "android": "https://dc.lft.to/lastmile_qr_scan"}, "bike_id": "6fd7c3107a55253de993049a04d43165", "fusion_lat": 0.0}, {"lon": -76.99863916666666, "name": "0b2e5396d74e7fc2a653d8919a65f0bd", "is_disabled": 0, "type": "electric_scooter", "is_reserved": 0, "fusion_lon": 0.0, "lat": 38.902550166666664, "rental_uris": {"ios": "https://dc.lft.to/lastmile_qr_scan", "android": "https://dc.lft.to/lastmile_qr_scan"}, "bike_id": "0b2e5396d74e7fc2a653d8919a65f0bd", "fusion_lat": 0.0}, {"lon": -77.02376916666667, "name": "7a80bba68e79bbf57be6d3b096ecd66d", "is_disabled": 0, "type": "electric_scooter", "is_reserved": 0, "fusion_lon": 0.0, "lat": 38.90208416666667, "rental_uris": {"ios": "https://dc.lft.to/lastmile_qr_scan", "android": "https://dc.lft.to/lastmile_qr_scan"}, "bike_id": "7a80bba68e79bbf57be6d3b096ecd66d", "fusion_lat": 0.0}, {"lon": -77.02079033333334, "name": "6413bd213690c1c3adc5a9ab89e5ed73", "is_disabled": 0, "type": "electric_scooter", "is_reserved": 0, "fusion_lon": 0.0, "lat": 38.952594166666664, "rental_uris": {"ios": "https://dc.lft.to/lastmile_qr_scan", "android": "https://dc.lft.to/lastmile_qr_scan"}, "bike_id": "6413bd213690c1c3adc5a9ab89e5ed73", "fusion_lat": 0.0}, {"lon": -77.04175266666667, "name": "8631e1b76a0621b33b02a7ce244418fb", "is_disabled": 0, "type": "electric_scooter", "is_reserved": 0, "fusion_lon": 0.0, "lat": 38.91703366666667, "rental_uris": {"ios": "https://dc.lft.to/lastmile_qr_scan", "android": "https://dc.lft.to/lastmile_qr_scan"}, "bike_id": "8631e1b76a0621b33b02a7ce244418fb", "fusion_lat": 0.0}, {"lon": -77.01435716666667, "name": "a1aed24b2170301c6522a3aa1d1c6d7e", "is_disabled": 0, "type": "electric_scooter", "is_reserved": 0, "fusion_lon": 0.0, "lat": 38.91314916666666, "rental_uris": {"ios": "https://dc.lft.to/lastmile_qr_scan", "android": "https://dc.lft.to/lastmile_qr_scan"}, "bike_id": "a1aed24b2170301c6522a3aa1d1c6d7e", "fusion_lat": 0.0}, {"lon": -77.0320015, "name": "315a4179689ee11fd9c1b51003ef446f", "is_disabled": 0, "type": "electric_scooter", "is_reserved": 0, "fusion_lon": 0.0, "lat": 38.91609066666667, "rental_uris": {"ios": "https://dc.lft.to/lastmile_qr_scan", "android": "https://dc.lft.to/lastmile_qr_scan"}, "bike_id": "315a4179689ee11fd9c1b51003ef446f", "fusion_lat": 0.0}, {"lon": -77.02318616666666, "name": "1b8b6e63eb07c439392b34715bb010c4", "is_disabled": 0, "type": "electric_scooter", "is_reserved": 0, "fusion_lon": 0.0, "lat": 38.92071983333334, "rental_uris": {"ios": "https://dc.lft.to/lastmile_qr_scan", "android": "https://dc.lft.to/lastmile_qr_scan"}, "bike_id": "1b8b6e63eb07c439392b34715bb010c4", "fusion_lat": 0.0}, {"lon": -76.98954766666667, "name": "f2423b6dc8eea77978e87771dda2d2e8", "is_disabled": 0, "type": "electric_scooter", "is_reserved": 0, "fusion_lon": 0.0, "lat": 38.90135883333333, "rental_uris": {"ios": "https://dc.lft.to/lastmile_qr_scan", "android": "https://dc.lft.to/lastmile_qr_scan"}, "bike_id": "f2423b6dc8eea77978e87771dda2d2e8", "fusion_lat": 0.0}, {"lon": -77.042302, "name": "9a9ec152c7bf81db2b7c87b193bbc75e", "is_disabled": 0, "type": "electric_scooter", "is_reserved": 0, "fusion_lon": 0.0, "lat": 38.92159433333333, "rental_uris": {"ios": "https://dc.lft.to/lastmile_qr_scan", "android": "https://dc.lft.to/lastmile_qr_scan"}, "bike_id": "9a9ec152c7bf81db2b7c87b193bbc75e", "fusion_lat": 0.0}, {"lon": -77.05728183333333, "name": "46b19285ad627fe8389bf5a3e2401ee0", "is_disabled": 0, "type": "electric_scooter", "is_reserved": 0, "fusion_lon": 0.0, "lat": 38.9313135, "rental_uris": {"ios": "https://dc.lft.to/lastmile_qr_scan", "android": "https://dc.lft.to/lastmile_qr_scan"}, "bike_id": "46b19285ad627fe8389bf5a3e2401ee0", "fusion_lat": 0.0}, {"lon": -77.01755066666666, "name": "c8c72755f073687aea85324ea89ebab3", "is_disabled": 0, "type": "electric_scooter", "is_reserved": 0, "fusion_lon": 0.0, "lat": 38.902559333333336, "rental_uris": {"ios": "https://dc.lft.to/lastmile_qr_scan", "android": "https://dc.lft.to/lastmile_qr_scan"}, "bike_id": "c8c72755f073687aea85324ea89ebab3", "fusion_lat": 0.0}, {"lon": -76.98084766666666, "name": "b34694f54b2e404e16a35b1029812590", "is_disabled": 0, "type": "electric_scooter", "is_reserved": 0, "fusion_lon": 0.0, "lat": 38.894401333333334, "rental_uris": {"ios": "https://dc.lft.to/lastmile_qr_scan", "android": "https://dc.lft.to/lastmile_qr_scan"}, "bike_id": "b34694f54b2e404e16a35b1029812590", "fusion_lat": 0.0}, {"lon": -77.0200625, "name": "6f4754780d970a6fe8eb15fcef0d6105", "is_disabled": 0, "type": "electric_scooter", "is_reserved": 0, "fusion_lon": 0.0, "lat": 38.92358766666667, "rental_uris": {"ios": "https://dc.lft.to/lastmile_qr_scan", "android": "https://dc.lft.to/lastmile_qr_scan"}, "bike_id": "6f4754780d970a6fe8eb15fcef0d6105", "fusion_lat": 0.0}, {"lon": -77.0164545, "name": "283dec40abeb34ae039fe6faabb8c391", "is_disabled": 0, "type": "electric_scooter", "is_reserved": 0, "fusion_lon": 0.0, "lat": 38.929400333333334, "rental_uris": {"ios": "https://dc.lft.to/lastmile_qr_scan", "android": "https://dc.lft.to/lastmile_qr_scan"}, "bike_id": "283dec40abeb34ae039fe6faabb8c391", "fusion_lat": 0.0}, {"lon": -77.04215733333334, "name": "dfaa34601384d56abe129864bdf9c38e", "is_disabled": 0, "type": "electric_scooter", "is_reserved": 0, "fusion_lon": 0.0, "lat": 38.9214435, "rental_uris": {"ios": "https://dc.lft.to/lastmile_qr_scan", "android": "https://dc.lft.to/lastmile_qr_scan"}, "bike_id": "dfaa34601384d56abe129864bdf9c38e", "fusion_lat": 0.0}, {"lon": -77.0194885, "name": "13c089b11b2279cdacd2b13b5adaaf72", "is_disabled": 0, "type": "electric_scooter", "is_reserved": 0, "fusion_lon": 0.0, "lat": 38.923164666666665, "rental_uris": {"ios": "https://dc.lft.to/lastmile_qr_scan", "android": "https://dc.lft.to/lastmile_qr_scan"}, "bike_id": "13c089b11b2279cdacd2b13b5adaaf72", "fusion_lat": 0.0}, {"lon": -77.05368166666666, "name": "825f58e37a6182cbe86716df8a7aa556", "is_disabled": 0, "type": "electric_scooter", "is_reserved": 0, "fusion_lon": 0.0, "lat": 38.923274666666664, "rental_uris": {"ios": "https://dc.lft.to/lastmile_qr_scan", "android": "https://dc.lft.to/lastmile_qr_scan"}, "bike_id": "825f58e37a6182cbe86716df8a7aa556", "fusion_lat": 0.0}, {"lon": -77.0194475, "name": "16ea4757375c4237a0c92aa1a3ef1cb4", "is_disabled": 0, "type": "electric_scooter", "is_reserved": 0, "fusion_lon": 0.0, "lat": 38.92415716666667, "rental_uris": {"ios": "https://dc.lft.to/lastmile_qr_scan", "android": "https://dc.lft.to/lastmile_qr_scan"}, "bike_id": "16ea4757375c4237a0c92aa1a3ef1cb4", "fusion_lat": 0.0}, {"lon": -77.04409666666666, "name": "3bc8e05345412697b63db97cad55e810", "is_disabled": 0, "type": "electric_scooter", "is_reserved": 0, "fusion_lon": 0.0, "lat": 38.920411333333334, "rental_uris": {"ios": "https://dc.lft.to/lastmile_qr_scan", "android": "https://dc.lft.to/lastmile_qr_scan"}, "bike_id": "3bc8e05345412697b63db97cad55e810", "fusion_lat": 0.0}, {"lon": -77.00415533333333, "name": "c187de4796160869326c803947faf842", "is_disabled": 0, "type": "electric_scooter", "is_reserved": 0, "fusion_lon": 0.0, "lat": 38.87686933333333, "rental_uris": {"ios": "https://dc.lft.to/lastmile_qr_scan", "android": "https://dc.lft.to/lastmile_qr_scan"}, "bike_id": "c187de4796160869326c803947faf842", "fusion_lat": 0.0}, {"lon": -77.01058833333333, "name": "bdc47fd8d4675e8b48998f929453dbbe", "is_disabled": 0, "type": "electric_bike", "is_reserved": 0, "fusion_lon": 0.0, "lat": 38.966309333333335, "rental_uris": {"ios": "https://dc.lft.to/lastmile_qr_scan", "android": "https://dc.lft.to/lastmile_qr_scan"}, "bike_id": "bdc47fd8d4675e8b48998f929453dbbe", "fusion_lat": 0.0}, {"lon": -77.02078983333334, "name": "52588d65b0129e410f9e75d773dafc7d", "is_disabled": 0, "type": "electric_scooter", "is_reserved": 0, "fusion_lon": 0.0, "lat": 38.92699283333334, "rental_uris": {"ios": "https://dc.lft.to/lastmile_qr_scan", "android": "https://dc.lft.to/lastmile_qr_scan"}, "bike_id": "52588d65b0129e410f9e75d773dafc7d", "fusion_lat": 0.0}, {"lon": -77.04563833333333, "name": "6893913f49812f0e16529e6ba7f7cf31", "is_disabled": 0, "type": "electric_scooter", "is_reserved": 0, "fusion_lon": 0.0, "lat": 38.91355566666667, "rental_uris": {"ios": "https://dc.lft.to/lastmile_qr_scan", "android": "https://dc.lft.to/lastmile_qr_scan"}, "bike_id": "6893913f49812f0e16529e6ba7f7cf31", "fusion_lat": 0.0}, {"lon": -77.0253215, "name": "ff11edfa2ea6a06d9eb0d7da9f07f537", "is_disabled": 0, "type": "electric_scooter", "is_reserved": 0, "fusion_lon": 0.0, "lat": 38.918132166666666, "rental_uris": {"ios": "https://dc.lft.to/lastmile_qr_scan", "android": "https://dc.lft.to/lastmile_qr_scan"}, "bike_id": "ff11edfa2ea6a06d9eb0d7da9f07f537", "fusion_lat": 0.0}, {"lon": -77.0975425, "name": "bd48185d284694ce597c8d55ed15e81d", "is_disabled": 0, "type": "electric_bike", "is_reserved": 0, "fusion_lon": 0.0, "lat": 38.858474, "rental_uris": {"ios": "https://dc.lft.to/lastmile_qr_scan", "android": "https://dc.lft.to/lastmile_qr_scan"}, "bike_id": "bd48185d284694ce597c8d55ed15e81d", "fusion_lat": 0.0}, {"lon": -76.9258945, "name": "6be4e959b5de8c61333c9d23a968dbf1", "is_disabled": 0, "type": "electric_scooter", "is_reserved": 0, "fusion_lon": 0.0, "lat": 38.8972905, "rental_uris": {"ios": "https://dc.lft.to/lastmile_qr_scan", "android": "https://dc.lft.to/lastmile_qr_scan"}, "bike_id": "6be4e959b5de8c61333c9d23a968dbf1", "fusion_lat": 0.0}, {"lon": -77.03227216666667, "name": "84b58e530e32b658c9099c4b604d1272", "is_disabled": 0, "type": "electric_scooter", "is_reserved": 0, "fusion_lon": 0.0, "lat": 38.92109883333333, "rental_uris": {"ios": "https://dc.lft.to/lastmile_qr_scan", "android": "https://dc.lft.to/lastmile_qr_scan"}, "bike_id": "84b58e530e32b658c9099c4b604d1272", "fusion_lat": 0.0}, {"lon": -77.0120245, "name": "cdfeeaa895c3911e08a26e99f8a6208f", "is_disabled": 0, "type": "electric_scooter", "is_reserved": 0, "fusion_lon": 0.0, "lat": 38.8709825, "rental_uris": {"ios": "https://dc.lft.to/lastmile_qr_scan", "android": "https://dc.lft.to/lastmile_qr_scan"}, "bike_id": "cdfeeaa895c3911e08a26e99f8a6208f", "fusion_lat": 0.0}, {"lon": -76.9852005, "name": "dd7cbb1284f4d3ce358d8afcfd96bf1a", "is_disabled": 0, "type": "electric_scooter", "is_reserved": 0, "fusion_lon": 0.0, "lat": 38.860028, "rental_uris": {"ios": "https://dc.lft.to/lastmile_qr_scan", "android": "https://dc.lft.to/lastmile_qr_scan"}, "bike_id": "dd7cbb1284f4d3ce358d8afcfd96bf1a", "fusion_lat": 0.0}, {"lon": -77.03470083333333, "name": "564d4b58437bd7d2a8bf2a194ceb78ff", "is_disabled": 0, "type": "electric_scooter", "is_reserved": 0, "fusion_lon": 0.0, "lat": 38.929774, "rental_uris": {"ios": "https://dc.lft.to/lastmile_qr_scan", "android": "https://dc.lft.to/lastmile_qr_scan"}, "bike_id": "564d4b58437bd7d2a8bf2a194ceb78ff", "fusion_lat": 0.0}, {"lon": -77.021323, "name": "0497018e3cf161f8bef6ad5edd1dbeab", "is_disabled": 0, "type": "electric_scooter", "is_reserved": 0, "fusion_lon": 0.0, "lat": 38.924161833333336, "rental_uris": {"ios": "https://dc.lft.to/lastmile_qr_scan", "android": "https://dc.lft.to/lastmile_qr_scan"}, "bike_id": "0497018e3cf161f8bef6ad5edd1dbeab", "fusion_lat": 0.0}, {"lon": -77.0344135, "name": "677a0601ebc96ea083bd128b9e7b9de5", "is_disabled": 0, "type": "electric_scooter", "is_reserved": 0, "fusion_lon": 0.0, "lat": 38.92160633333334, "rental_uris": {"ios": "https://dc.lft.to/lastmile_qr_scan", "android": "https://dc.lft.to/lastmile_qr_scan"}, "bike_id": "677a0601ebc96ea083bd128b9e7b9de5", "fusion_lat": 0.0}, {"lon": -77.03413866666666, "name": "31f0f6a3ee9507f7cefbd5bba14e6820", "is_disabled": 0, "type": "electric_scooter", "is_reserved": 0, "fusion_lon": 0.0, "lat": 38.92339466666667, "rental_uris": {"ios": "https://dc.lft.to/lastmile_qr_scan", "android": "https://dc.lft.to/lastmile_qr_scan"}, "bike_id": "31f0f6a3ee9507f7cefbd5bba14e6820", "fusion_lat": 0.0}, {"lon": -77.03207516666667, "name": "7ca528b8c7cfb5b991e1a8bc529a617a", "is_disabled": 0, "type": "electric_scooter", "is_reserved": 0, "fusion_lon": 0.0, "lat": 38.91620366666667, "rental_uris": {"ios": "https://dc.lft.to/lastmile_qr_scan", "android": "https://dc.lft.to/lastmile_qr_scan"}, "bike_id": "7ca528b8c7cfb5b991e1a8bc529a617a", "fusion_lat": 0.0}, {"lon": -77.1289055, "name": "b2dc8d9a6eed360c0a6c18383973c7c5", "is_disabled": 0, "type": "electric_bike", "is_reserved": 0, "fusion_lon": 0.0, "lat": 38.90604583333333, "rental_uris": {"ios": "https://dc.lft.to/lastmile_qr_scan", "android": "https://dc.lft.to/lastmile_qr_scan"}, "bike_id": "b2dc8d9a6eed360c0a6c18383973c7c5", "fusion_lat": 0.0}, {"lon": -77.02787433333333, "name": "7b6d6399f323ef1f62257d9cbe926138", "is_disabled": 0, "type": "electric_scooter", "is_reserved": 0, "fusion_lon": 0.0, "lat": 38.938367, "rental_uris": {"ios": "https://dc.lft.to/lastmile_qr_scan", "android": "https://dc.lft.to/lastmile_qr_scan"}, "bike_id": "7b6d6399f323ef1f62257d9cbe926138", "fusion_lat": 0.0}, {"lon": -77.00601633333333, "name": "7918dc031e7621f9b451420cb64ac196", "is_disabled": 0, "type": "electric_scooter", "is_reserved": 0, "fusion_lon": 0.0, "lat": 38.9065375, "rental_uris": {"ios": "https://dc.lft.to/lastmile_qr_scan", "android": "https://dc.lft.to/lastmile_qr_scan"}, "bike_id": "7918dc031e7621f9b451420cb64ac196", "fusion_lat": 0.0}, {"lon": -77.00923083333333, "name": "316e95f5bc3e3bfbac37172ac3e9c1dd", "is_disabled": 0, "type": "electric_scooter", "is_reserved": 0, "fusion_lon": 0.0, "lat": 38.8954485, "rental_uris": {"ios": "https://dc.lft.to/lastmile_qr_scan", "android": "https://dc.lft.to/lastmile_qr_scan"}, "bike_id": "316e95f5bc3e3bfbac37172ac3e9c1dd", "fusion_lat": 0.0}, {"lon": -77.00131333333333, "name": "6de6def669ed99aedb58180cbae15d0d", "is_disabled": 0, "type": "electric_scooter", "is_reserved": 0, "fusion_lon": 0.0, "lat": 38.873852, "rental_uris": {"ios": "https://dc.lft.to/lastmile_qr_scan", "android": "https://dc.lft.to/lastmile_qr_scan"}, "bike_id": "6de6def669ed99aedb58180cbae15d0d", "fusion_lat": 0.0}, {"lon": -76.97683033333334, "name": "0d529a5d095837506be7a17edb77a367", "is_disabled": 0, "type": "electric_scooter", "is_reserved": 0, "fusion_lon": 0.0, "lat": 38.900917666666665, "rental_uris": {"ios": "https://dc.lft.to/lastmile_qr_scan", "android": "https://dc.lft.to/lastmile_qr_scan"}, "bike_id": "0d529a5d095837506be7a17edb77a367", "fusion_lat": 0.0}, {"lon": -77.02742433333333, "name": "b54f668ca60d617b74286023879de7f2", "is_disabled": 0, "type": "electric_scooter", "is_reserved": 0, "fusion_lon": 0.0, "lat": 38.924103333333335, "rental_uris": {"ios": "https://dc.lft.to/lastmile_qr_scan", "android": "https://dc.lft.to/lastmile_qr_scan"}, "bike_id": "b54f668ca60d617b74286023879de7f2", "fusion_lat": 0.0}, {"lon": -76.9731515, "name": "2c473a197f9ae334469faccf072b836a", "is_disabled": 0, "type": "electric_bike", "is_reserved": 0, "fusion_lon": 0.0, "lat": 38.865679166666666, "rental_uris": {"ios": "https://dc.lft.to/lastmile_qr_scan", "android": "https://dc.lft.to/lastmile_qr_scan"}, "bike_id": "2c473a197f9ae334469faccf072b836a", "fusion_lat": 0.0}, {"lon": -77.02025983333333, "name": "ccdb8c6476bb2abb556cd5c3e570caef", "is_disabled": 0, "type": "electric_scooter", "is_reserved": 0, "fusion_lon": 0.0, "lat": 38.924194166666666, "rental_uris": {"ios": "https://dc.lft.to/lastmile_qr_scan", "android": "https://dc.lft.to/lastmile_qr_scan"}, "bike_id": "ccdb8c6476bb2abb556cd5c3e570caef", "fusion_lat": 0.0}, {"lon": -77.069434, "name": "7cb221e7fb2cbf5811f80ac3c03030eb", "is_disabled": 0, "type": "electric_bike", "is_reserved": 0, "fusion_lon": 0.0, "lat": 38.847614166666666, "rental_uris": {"ios": "https://dc.lft.to/lastmile_qr_scan", "android": "https://dc.lft.to/lastmile_qr_scan"}, "bike_id": "7cb221e7fb2cbf5811f80ac3c03030eb", "fusion_lat": 0.0}, {"lon": -76.98787233333333, "name": "82d8768f0fbb7ebb132e8b4d80494ca3", "is_disabled": 0, "type": "electric_scooter", "is_reserved": 0, "fusion_lon": 0.0, "lat": 38.878412, "rental_uris": {"ios": "https://dc.lft.to/lastmile_qr_scan", "android": "https://dc.lft.to/lastmile_qr_scan"}, "bike_id": "82d8768f0fbb7ebb132e8b4d80494ca3", "fusion_lat": 0.0}, {"lon": -77.03519883333334, "name": "59cf2c6b5afd1a2939b491233ec22ff4", "is_disabled": 0, "type": "electric_scooter", "is_reserved": 0, "fusion_lon": 0.0, "lat": 38.922343, "rental_uris": {"ios": "https://dc.lft.to/lastmile_qr_scan", "android": "https://dc.lft.to/lastmile_qr_scan"}, "bike_id": "59cf2c6b5afd1a2939b491233ec22ff4", "fusion_lat": 0.0}, {"lon": -77.0251755, "name": "62a44dfe3276803519038d10c951dab7", "is_disabled": 0, "type": "electric_scooter", "is_reserved": 0, "fusion_lon": 0.0, "lat": 38.92068783333333, "rental_uris": {"ios": "https://dc.lft.to/lastmile_qr_scan", "android": "https://dc.lft.to/lastmile_qr_scan"}, "bike_id": "62a44dfe3276803519038d10c951dab7", "fusion_lat": 0.0}, {"lon": -77.01538216666667, "name": "ff5088627f4c26cc39c55a1162871456", "is_disabled": 0, "type": "electric_scooter", "is_reserved": 0, "fusion_lon": 0.0, "lat": 38.92062766666667, "rental_uris": {"ios": "https://dc.lft.to/lastmile_qr_scan", "android": "https://dc.lft.to/lastmile_qr_scan"}, "bike_id": "ff5088627f4c26cc39c55a1162871456", "fusion_lat": 0.0}, {"lon": -77.053091, "name": "411b2fdb0448b08018ef5286f8b8f22d", "is_disabled": 0, "type": "electric_scooter", "is_reserved": 0, "fusion_lon": 0.0, "lat": 38.93456333333334, "rental_uris": {"ios": "https://dc.lft.to/lastmile_qr_scan", "android": "https://dc.lft.to/lastmile_qr_scan"}, "bike_id": "411b2fdb0448b08018ef5286f8b8f22d", "fusion_lat": 0.0}, {"lon": -77.00190266666667, "name": "3cefbc0f893fba15702c1b698a09837e", "is_disabled": 0, "type": "electric_scooter", "is_reserved": 0, "fusion_lon": 0.0, "lat": 38.87375466666667, "rental_uris": {"ios": "https://dc.lft.to/lastmile_qr_scan", "android": "https://dc.lft.to/lastmile_qr_scan"}, "bike_id": "3cefbc0f893fba15702c1b698a09837e", "fusion_lat": 0.0}, {"lon": -77.003328, "name": "2f70112653477590918a0c8301e175c5", "is_disabled": 0, "type": "electric_scooter", "is_reserved": 0, "fusion_lon": 0.0, "lat": 38.893657833333336, "rental_uris": {"ios": "https://dc.lft.to/lastmile_qr_scan", "android": "https://dc.lft.to/lastmile_qr_scan"}, "bike_id": "2f70112653477590918a0c8301e175c5", "fusion_lat": 0.0}, {"lon": -77.0254685, "name": "53551b012c30c02806900143bbd89dd8", "is_disabled": 0, "type": "electric_scooter", "is_reserved": 0, "fusion_lon": 0.0, "lat": 38.895929, "rental_uris": {"ios": "https://dc.lft.to/lastmile_qr_scan", "android": "https://dc.lft.to/lastmile_qr_scan"}, "bike_id": "53551b012c30c02806900143bbd89dd8", "fusion_lat": 0.0}, {"lon": -77.03370883333334, "name": "567bc1212d0184b9d609f1986599a44a", "is_disabled": 0, "type": "electric_scooter", "is_reserved": 0, "fusion_lon": 0.0, "lat": 38.930754666666665, "rental_uris": {"ios": "https://dc.lft.to/lastmile_qr_scan", "android": "https://dc.lft.to/lastmile_qr_scan"}, "bike_id": "567bc1212d0184b9d609f1986599a44a", "fusion_lat": 0.0}, {"lon": -77.0006945, "name": "8e45916786a01cf91f1a2ab79f58ab56", "is_disabled": 0, "type": "electric_scooter", "is_reserved": 0, "fusion_lon": 0.0, "lat": 38.92435166666667, "rental_uris": {"ios": "https://dc.lft.to/lastmile_qr_scan", "android": "https://dc.lft.to/lastmile_qr_scan"}, "bike_id": "8e45916786a01cf91f1a2ab79f58ab56", "fusion_lat": 0.0}, {"lon": -77.04910116666667, "name": "5f39e81fd6c9f9a18d3747f08ce0a36a", "is_disabled": 0, "type": "electric_scooter", "is_reserved": 0, "fusion_lon": 0.0, "lat": 38.91597483333334, "rental_uris": {"ios": "https://dc.lft.to/lastmile_qr_scan", "android": "https://dc.lft.to/lastmile_qr_scan"}, "bike_id": "5f39e81fd6c9f9a18d3747f08ce0a36a", "fusion_lat": 0.0}, {"lon": -77.00762666666667, "name": "a78f5b68aec3157efe4f11572363fcda", "is_disabled": 0, "type": "electric_scooter", "is_reserved": 0, "fusion_lon": 0.0, "lat": 38.90468766666667, "rental_uris": {"ios": "https://dc.lft.to/lastmile_qr_scan", "android": "https://dc.lft.to/lastmile_qr_scan"}, "bike_id": "a78f5b68aec3157efe4f11572363fcda", "fusion_lat": 0.0}, {"lon": -77.05933516666667, "name": "60ea9e5d8065f9cb0b6821d6b8a5b9f7", "is_disabled": 0, "type": "electric_scooter", "is_reserved": 0, "fusion_lon": 0.0, "lat": 38.94297566666667, "rental_uris": {"ios": "https://dc.lft.to/lastmile_qr_scan", "android": "https://dc.lft.to/lastmile_qr_scan"}, "bike_id": "60ea9e5d8065f9cb0b6821d6b8a5b9f7", "fusion_lat": 0.0}, {"lon": -76.986272, "name": "cbfc8d8bd88c278dc53727aff8dec93c", "is_disabled": 0, "type": "electric_scooter", "is_reserved": 0, "fusion_lon": 0.0, "lat": 38.905818333333336, "rental_uris": {"ios": "https://dc.lft.to/lastmile_qr_scan", "android": "https://dc.lft.to/lastmile_qr_scan"}, "bike_id": "cbfc8d8bd88c278dc53727aff8dec93c", "fusion_lat": 0.0}, {"lon": -76.93209516666667, "name": "aad0d8c96fb568c3054b5f9ae2fc96e7", "is_disabled": 0, "type": "electric_scooter", "is_reserved": 0, "fusion_lon": 0.0, "lat": 38.89851183333333, "rental_uris": {"ios": "https://dc.lft.to/lastmile_qr_scan", "android": "https://dc.lft.to/lastmile_qr_scan"}, "bike_id": "aad0d8c96fb568c3054b5f9ae2fc96e7", "fusion_lat": 0.0}, {"lon": -76.95362433333334, "name": "ff3d3f3bd8108bbc6565a258b9b0a49b", "is_disabled": 0, "type": "electric_scooter", "is_reserved": 0, "fusion_lon": 0.0, "lat": 38.889557833333335, "rental_uris": {"ios": "https://dc.lft.to/lastmile_qr_scan", "android": "https://dc.lft.to/lastmile_qr_scan"}, "bike_id": "ff3d3f3bd8108bbc6565a258b9b0a49b", "fusion_lat": 0.0}, {"lon": -76.99032233333334, "name": "c32578b16ad5184979fce90d1c41fd05", "is_disabled": 0, "type": "electric_scooter", "is_reserved": 0, "fusion_lon": 0.0, "lat": 38.865163833333334, "rental_uris": {"ios": "https://dc.lft.to/lastmile_qr_scan", "android": "https://dc.lft.to/lastmile_qr_scan"}, "bike_id": "c32578b16ad5184979fce90d1c41fd05", "fusion_lat": 0.0}, {"lon": -77.0317985, "name": "497448aaf0363a604a502c9f7ce6e6fe", "is_disabled": 0, "type": "electric_scooter", "is_reserved": 0, "fusion_lon": 0.0, "lat": 38.91414566666667, "rental_uris": {"ios": "https://dc.lft.to/lastmile_qr_scan", "android": "https://dc.lft.to/lastmile_qr_scan"}, "bike_id": "497448aaf0363a604a502c9f7ce6e6fe", "fusion_lat": 0.0}, {"lon": -76.93135633333333, "name": "ce75343d78323d7949525f140d362dec", "is_disabled": 0, "type": "electric_scooter", "is_reserved": 0, "fusion_lon": 0.0, "lat": 38.88331566666667, "rental_uris": {"ios": "https://dc.lft.to/lastmile_qr_scan", "android": "https://dc.lft.to/lastmile_qr_scan"}, "bike_id": "ce75343d78323d7949525f140d362dec", "fusion_lat": 0.0}, {"lon": -77.03211983333334, "name": "81553bc4bde0d30401860c5549ef30a1", "is_disabled": 0, "type": "electric_scooter", "is_reserved": 0, "fusion_lon": 0.0, "lat": 38.917292833333335, "rental_uris": {"ios": "https://dc.lft.to/lastmile_qr_scan", "android": "https://dc.lft.to/lastmile_qr_scan"}, "bike_id": "81553bc4bde0d30401860c5549ef30a1", "fusion_lat": 0.0}, {"lon": -76.99823766666667, "name": "d538a2fb06f428f2e602c2eafc0ca11f", "is_disabled": 0, "type": "electric_scooter", "is_reserved": 0, "fusion_lon": 0.0, "lat": 38.907212333333334, "rental_uris": {"ios": "https://dc.lft.to/lastmile_qr_scan", "android": "https://dc.lft.to/lastmile_qr_scan"}, "bike_id": "d538a2fb06f428f2e602c2eafc0ca11f", "fusion_lat": 0.0}, {"lon": -77.03202983333334, "name": "fdab6e1bc0d24f3f47e6cc26148d3f5b", "is_disabled": 0, "type": "electric_scooter", "is_reserved": 0, "fusion_lon": 0.0, "lat": 38.91824716666667, "rental_uris": {"ios": "https://dc.lft.to/lastmile_qr_scan", "android": "https://dc.lft.to/lastmile_qr_scan"}, "bike_id": "fdab6e1bc0d24f3f47e6cc26148d3f5b", "fusion_lat": 0.0}, {"lon": -77.04122883333334, "name": "6e74df23d4eceb659bb498f4a0a35f12", "is_disabled": 0, "type": "electric_scooter", "is_reserved": 0, "fusion_lon": 0.0, "lat": 38.9321695, "rental_uris": {"ios": "https://dc.lft.to/lastmile_qr_scan", "android": "https://dc.lft.to/lastmile_qr_scan"}, "bike_id": "6e74df23d4eceb659bb498f4a0a35f12", "fusion_lat": 0.0}, {"lon": -77.03197466666667, "name": "b38f0e342b3f3c3cbe843923a8213e83", "is_disabled": 0, "type": "electric_scooter", "is_reserved": 0, "fusion_lon": 0.0, "lat": 38.908020666666665, "rental_uris": {"ios": "https://dc.lft.to/lastmile_qr_scan", "android": "https://dc.lft.to/lastmile_qr_scan"}, "bike_id": "b38f0e342b3f3c3cbe843923a8213e83", "fusion_lat": 0.0}, {"lon": -77.012125, "name": "f4cd9cf77847fbad1112437b91a5b213", "is_disabled": 0, "type": "electric_scooter", "is_reserved": 0, "fusion_lon": 0.0, "lat": 38.91825083333333, "rental_uris": {"ios": "https://dc.lft.to/lastmile_qr_scan", "android": "https://dc.lft.to/lastmile_qr_scan"}, "bike_id": "f4cd9cf77847fbad1112437b91a5b213", "fusion_lat": 0.0}, {"lon": -77.07437433333334, "name": "05a568837c2a55b1b94f9d23e1168e9f", "is_disabled": 0, "type": "electric_scooter", "is_reserved": 0, "fusion_lon": 0.0, "lat": 38.93584233333333, "rental_uris": {"ios": "https://dc.lft.to/lastmile_qr_scan", "android": "https://dc.lft.to/lastmile_qr_scan"}, "bike_id": "05a568837c2a55b1b94f9d23e1168e9f", "fusion_lat": 0.0}, {"lon": -77.05421716666666, "name": "cb0ec35c9404bf0152171a2907049681", "is_disabled": 0, "type": "electric_scooter", "is_reserved": 0, "fusion_lon": 0.0, "lat": 38.985225666666665, "rental_uris": {"ios": "https://dc.lft.to/lastmile_qr_scan", "android": "https://dc.lft.to/lastmile_qr_scan"}, "bike_id": "cb0ec35c9404bf0152171a2907049681", "fusion_lat": 0.0}, {"lon": -76.9321555, "name": "dcc976578fdf0952e062099f1a17ac1b", "is_disabled": 0, "type": "electric_scooter", "is_reserved": 0, "fusion_lon": 0.0, "lat": 38.896645166666666, "rental_uris": {"ios": "https://dc.lft.to/lastmile_qr_scan", "android": "https://dc.lft.to/lastmile_qr_scan"}, "bike_id": "dcc976578fdf0952e062099f1a17ac1b", "fusion_lat": 0.0}, {"lon": -77.00414166666667, "name": "3bb19a90f596db11266730284a7db210", "is_disabled": 0, "type": "electric_bike", "is_reserved": 0, "fusion_lon": 0.0, "lat": 38.98530316666667, "rental_uris": {"ios": "https://dc.lft.to/lastmile_qr_scan", "android": "https://dc.lft.to/lastmile_qr_scan"}, "bike_id": "3bb19a90f596db11266730284a7db210", "fusion_lat": 0.0}, {"lon": -77.04908533333334, "name": "c499534f610e01af2d1c405e703614a3", "is_disabled": 0, "type": "electric_scooter", "is_reserved": 0, "fusion_lon": 0.0, "lat": 38.915946, "rental_uris": {"ios": "https://dc.lft.to/lastmile_qr_scan", "android": "https://dc.lft.to/lastmile_qr_scan"}, "bike_id": "c499534f610e01af2d1c405e703614a3", "fusion_lat": 0.0}, {"lon": -77.0319775, "name": "3aad87ddda91fc3de0589b799f265d77", "is_disabled": 0, "type": "electric_scooter", "is_reserved": 0, "fusion_lon": 0.0, "lat": 38.91002566666667, "rental_uris": {"ios": "https://dc.lft.to/lastmile_qr_scan", "android": "https://dc.lft.to/lastmile_qr_scan"}, "bike_id": "3aad87ddda91fc3de0589b799f265d77", "fusion_lat": 0.0}, {"lon": -77.041656, "name": "73b2b55a20586c9e0b94a194dd24e256", "is_disabled": 0, "type": "electric_scooter", "is_reserved": 0, "fusion_lon": 0.0, "lat": 38.9165175, "rental_uris": {"ios": "https://dc.lft.to/lastmile_qr_scan", "android": "https://dc.lft.to/lastmile_qr_scan"}, "bike_id": "73b2b55a20586c9e0b94a194dd24e256", "fusion_lat": 0.0}, {"lon": -77.01947766666666, "name": "0e7192d6ee0813fd6c0a5c6172329c52", "is_disabled": 0, "type": "electric_scooter", "is_reserved": 0, "fusion_lon": 0.0, "lat": 38.9241455, "rental_uris": {"ios": "https://dc.lft.to/lastmile_qr_scan", "android": "https://dc.lft.to/lastmile_qr_scan"}, "bike_id": "0e7192d6ee0813fd6c0a5c6172329c52", "fusion_lat": 0.0}, {"lon": -77.03870816666667, "name": "7940dd4fad011c5e294c691656bab703", "is_disabled": 0, "type": "electric_scooter", "is_reserved": 0, "fusion_lon": 0.0, "lat": 38.912684166666665, "rental_uris": {"ios": "https://dc.lft.to/lastmile_qr_scan", "android": "https://dc.lft.to/lastmile_qr_scan"}, "bike_id": "7940dd4fad011c5e294c691656bab703", "fusion_lat": 0.0}, {"lon": -77.01920966666667, "name": "65e18835cd888db9b7d632b97b010129", "is_disabled": 0, "type": "electric_scooter", "is_reserved": 0, "fusion_lon": 0.0, "lat": 38.9173095, "rental_uris": {"ios": "https://dc.lft.to/lastmile_qr_scan", "android": "https://dc.lft.to/lastmile_qr_scan"}, "bike_id": "65e18835cd888db9b7d632b97b010129", "fusion_lat": 0.0}, {"lon": -77.03207633333334, "name": "b034db0b26ff67702b3280405daa8f41", "is_disabled": 0, "type": "electric_scooter", "is_reserved": 0, "fusion_lon": 0.0, "lat": 38.9181275, "rental_uris": {"ios": "https://dc.lft.to/lastmile_qr_scan", "android": "https://dc.lft.to/lastmile_qr_scan"}, "bike_id": "b034db0b26ff67702b3280405daa8f41", "fusion_lat": 0.0}, {"lon": -77.02188583333333, "name": "d668949be2e2eb481fe45c600f7328ab", "is_disabled": 0, "type": "electric_scooter", "is_reserved": 0, "fusion_lon": 0.0, "lat": 38.899983, "rental_uris": {"ios": "https://dc.lft.to/lastmile_qr_scan", "android": "https://dc.lft.to/lastmile_qr_scan"}, "bike_id": "d668949be2e2eb481fe45c600f7328ab", "fusion_lat": 0.0}, {"lon": -77.03448833333333, "name": "ddb5360557d68baba8e6c431755d7fe3", "is_disabled": 0, "type": "electric_scooter", "is_reserved": 0, "fusion_lon": 0.0, "lat": 38.9287085, "rental_uris": {"ios": "https://dc.lft.to/lastmile_qr_scan", "android": "https://dc.lft.to/lastmile_qr_scan"}, "bike_id": "ddb5360557d68baba8e6c431755d7fe3", "fusion_lat": 0.0}, {"lon": -76.98420116666667, "name": "561bf907857054d13bc2b922e8a37c26", "is_disabled": 0, "type": "electric_scooter", "is_reserved": 0, "fusion_lon": 0.0, "lat": 38.9139035, "rental_uris": {"ios": "https://dc.lft.to/lastmile_qr_scan", "android": "https://dc.lft.to/lastmile_qr_scan"}, "bike_id": "561bf907857054d13bc2b922e8a37c26", "fusion_lat": 0.0}, {"lon": -77.04964366666667, "name": "3f2f1b931b3c9b36dda8b5207f9714da", "is_disabled": 0, "type": "electric_scooter", "is_reserved": 0, "fusion_lon": 0.0, "lat": 38.905293666666665, "rental_uris": {"ios": "https://dc.lft.to/lastmile_qr_scan", "android": "https://dc.lft.to/lastmile_qr_scan"}, "bike_id": "3f2f1b931b3c9b36dda8b5207f9714da", "fusion_lat": 0.0}, {"lon": -77.04466316666667, "name": "2856e6bf3e82c91fe346b382f27e7e6f", "is_disabled": 0, "type": "electric_scooter", "is_reserved": 0, "fusion_lon": 0.0, "lat": 38.91523816666667, "rental_uris": {"ios": "https://dc.lft.to/lastmile_qr_scan", "android": "https://dc.lft.to/lastmile_qr_scan"}, "bike_id": "2856e6bf3e82c91fe346b382f27e7e6f", "fusion_lat": 0.0}, {"lon": -77.0103655, "name": "e1ba228f233f3c7f649166620e0f629e", "is_disabled": 0, "type": "electric_bike", "is_reserved": 0, "fusion_lon": 0.0, "lat": 38.9587535, "rental_uris": {"ios": "https://dc.lft.to/lastmile_qr_scan", "android": "https://dc.lft.to/lastmile_qr_scan"}, "bike_id": "e1ba228f233f3c7f649166620e0f629e", "fusion_lat": 0.0}, {"lon": -77.0288285, "name": "f6df094e3ab0c6bdbd1df1efed9bbe2a", "is_disabled": 0, "type": "electric_scooter", "is_reserved": 0, "fusion_lon": 0.0, "lat": 38.9163165, "rental_uris": {"ios": "https://dc.lft.to/lastmile_qr_scan", "android": "https://dc.lft.to/lastmile_qr_scan"}, "bike_id": "f6df094e3ab0c6bdbd1df1efed9bbe2a", "fusion_lat": 0.0}, {"lon": -77.07172833333334, "name": "8ad84f8e36f214e81a6ca609cb807717", "is_disabled": 0, "type": "electric_scooter", "is_reserved": 0, "fusion_lon": 0.0, "lat": 38.9066475, "rental_uris": {"ios": "https://dc.lft.to/lastmile_qr_scan", "android": "https://dc.lft.to/lastmile_qr_scan"}, "bike_id": "8ad84f8e36f214e81a6ca609cb807717", "fusion_lat": 0.0}, {"lon": -76.98714066666666, "name": "9a7ba86877c100cdad3d2f14ec3cf744", "is_disabled": 0, "type": "electric_scooter", "is_reserved": 0, "fusion_lon": 0.0, "lat": 38.9049275, "rental_uris": {"ios": "https://dc.lft.to/lastmile_qr_scan", "android": "https://dc.lft.to/lastmile_qr_scan"}, "bike_id": "9a7ba86877c100cdad3d2f14ec3cf744", "fusion_lat": 0.0}, {"lon": -77.03126566666667, "name": "3c25ba3eb4665485d4e064abd10e6260", "is_disabled": 0, "type": "electric_scooter", "is_reserved": 0, "fusion_lon": 0.0, "lat": 38.92023916666667, "rental_uris": {"ios": "https://dc.lft.to/lastmile_qr_scan", "android": "https://dc.lft.to/lastmile_qr_scan"}, "bike_id": "3c25ba3eb4665485d4e064abd10e6260", "fusion_lat": 0.0}, {"lon": -77.0188135, "name": "09e71d9d26e91103bedd56d1c5726a3c", "is_disabled": 0, "type": "electric_scooter", "is_reserved": 0, "fusion_lon": 0.0, "lat": 38.919377, "rental_uris": {"ios": "https://dc.lft.to/lastmile_qr_scan", "android": "https://dc.lft.to/lastmile_qr_scan"}, "bike_id": "09e71d9d26e91103bedd56d1c5726a3c", "fusion_lat": 0.0}, {"lon": -77.04594466666667, "name": "0ac21712280499232e77e4aeedf4add8", "is_disabled": 0, "type": "electric_scooter", "is_reserved": 0, "fusion_lon": 0.0, "lat": 38.90062616666667, "rental_uris": {"ios": "https://dc.lft.to/lastmile_qr_scan", "android": "https://dc.lft.to/lastmile_qr_scan"}, "bike_id": "0ac21712280499232e77e4aeedf4add8", "fusion_lat": 0.0}, {"lon": -77.01873583333334, "name": "a39c056d3002e820b3070f75c22723c3", "is_disabled": 0, "type": "electric_scooter", "is_reserved": 0, "fusion_lon": 0.0, "lat": 38.9305225, "rental_uris": {"ios": "https://dc.lft.to/lastmile_qr_scan", "android": "https://dc.lft.to/lastmile_qr_scan"}, "bike_id": "a39c056d3002e820b3070f75c22723c3", "fusion_lat": 0.0}, {"lon": -76.98859166666666, "name": "41c64ce7eb3a8f45ad9aa39f673aaf1e", "is_disabled": 0, "type": "electric_scooter", "is_reserved": 0, "fusion_lon": 0.0, "lat": 38.9003255, "rental_uris": {"ios": "https://dc.lft.to/lastmile_qr_scan", "android": "https://dc.lft.to/lastmile_qr_scan"}, "bike_id": "41c64ce7eb3a8f45ad9aa39f673aaf1e", "fusion_lat": 0.0}, {"lon": -76.99104983333334, "name": "3a3e847679c3282191374fe7e34116f5", "is_disabled": 0, "type": "electric_scooter", "is_reserved": 0, "fusion_lon": 0.0, "lat": 38.863284166666666, "rental_uris": {"ios": "https://dc.lft.to/lastmile_qr_scan", "android": "https://dc.lft.to/lastmile_qr_scan"}, "bike_id": "3a3e847679c3282191374fe7e34116f5", "fusion_lat": 0.0}, {"lon": -77.01275966666667, "name": "7a5430011e4bdeea13e8148161da28e2", "is_disabled": 0, "type": "electric_scooter", "is_reserved": 0, "fusion_lon": 0.0, "lat": 38.90951916666667, "rental_uris": {"ios": "https://dc.lft.to/lastmile_qr_scan", "android": "https://dc.lft.to/lastmile_qr_scan"}, "bike_id": "7a5430011e4bdeea13e8148161da28e2", "fusion_lat": 0.0}, {"lon": -77.00787416666667, "name": "2fdf19f3f712a45ba20b45171888eeb7", "is_disabled": 0, "type": "electric_scooter", "is_reserved": 0, "fusion_lon": 0.0, "lat": 38.92666633333333, "rental_uris": {"ios": "https://dc.lft.to/lastmile_qr_scan", "android": "https://dc.lft.to/lastmile_qr_scan"}, "bike_id": "2fdf19f3f712a45ba20b45171888eeb7", "fusion_lat": 0.0}, {"lon": -77.02304866666667, "name": "6097520006aacad133b180424f52f2af", "is_disabled": 0, "type": "electric_scooter", "is_reserved": 0, "fusion_lon": 0.0, "lat": 38.917899, "rental_uris": {"ios": "https://dc.lft.to/lastmile_qr_scan", "android": "https://dc.lft.to/lastmile_qr_scan"}, "bike_id": "6097520006aacad133b180424f52f2af", "fusion_lat": 0.0}, {"lon": -77.02794933333334, "name": "069ebe9210c0f1b8c262ebaf6ada46f8", "is_disabled": 0, "type": "electric_scooter", "is_reserved": 0, "fusion_lon": 0.0, "lat": 38.94177716666667, "rental_uris": {"ios": "https://dc.lft.to/lastmile_qr_scan", "android": "https://dc.lft.to/lastmile_qr_scan"}, "bike_id": "069ebe9210c0f1b8c262ebaf6ada46f8", "fusion_lat": 0.0}, {"lon": -77.03526866666667, "name": "bad1cb7734ce32e6f21c19521a337f61", "is_disabled": 0, "type": "electric_scooter", "is_reserved": 0, "fusion_lon": 0.0, "lat": 38.9182435, "rental_uris": {"ios": "https://dc.lft.to/lastmile_qr_scan", "android": "https://dc.lft.to/lastmile_qr_scan"}, "bike_id": "bad1cb7734ce32e6f21c19521a337f61", "fusion_lat": 0.0}, {"lon": -77.03172583333334, "name": "fab67c6f1f7464ba9df70267bfc2298c", "is_disabled": 0, "type": "electric_scooter", "is_reserved": 0, "fusion_lon": 0.0, "lat": 38.892236, "rental_uris": {"ios": "https://dc.lft.to/lastmile_qr_scan", "android": "https://dc.lft.to/lastmile_qr_scan"}, "bike_id": "fab67c6f1f7464ba9df70267bfc2298c", "fusion_lat": 0.0}, {"lon": -76.95772483333333, "name": "9187ed8cb5ac204d2c804d46f829c423", "is_disabled": 0, "type": "electric_scooter", "is_reserved": 0, "fusion_lon": 0.0, "lat": 38.88355133333334, "rental_uris": {"ios": "https://dc.lft.to/lastmile_qr_scan", "android": "https://dc.lft.to/lastmile_qr_scan"}, "bike_id": "9187ed8cb5ac204d2c804d46f829c423", "fusion_lat": 0.0}, {"lon": -77.0020705, "name": "71378b13048f6ed11c375d0e29e029ff", "is_disabled": 0, "type": "electric_scooter", "is_reserved": 0, "fusion_lon": 0.0, "lat": 38.900298166666666, "rental_uris": {"ios": "https://dc.lft.to/lastmile_qr_scan", "android": "https://dc.lft.to/lastmile_qr_scan"}, "bike_id": "71378b13048f6ed11c375d0e29e029ff", "fusion_lat": 0.0}, {"lon": -77.02540033333334, "name": "d68e317174de8d593313f54b6f3f1f9b", "is_disabled": 0, "type": "electric_scooter", "is_reserved": 0, "fusion_lon": 0.0, "lat": 38.892218, "rental_uris": {"ios": "https://dc.lft.to/lastmile_qr_scan", "android": "https://dc.lft.to/lastmile_qr_scan"}, "bike_id": "d68e317174de8d593313f54b6f3f1f9b", "fusion_lat": 0.0}, {"lon": -77.04549433333334, "name": "bf2d601b46d6645df91e2dbe6e0fecb2", "is_disabled": 0, "type": "electric_scooter", "is_reserved": 0, "fusion_lon": 0.0, "lat": 38.9023695, "rental_uris": {"ios": "https://dc.lft.to/lastmile_qr_scan", "android": "https://dc.lft.to/lastmile_qr_scan"}, "bike_id": "bf2d601b46d6645df91e2dbe6e0fecb2", "fusion_lat": 0.0}, {"lon": -77.02671333333333, "name": "25386afadb07b03da16f0fb23db28231", "is_disabled": 0, "type": "electric_scooter", "is_reserved": 0, "fusion_lon": 0.0, "lat": 38.92175916666667, "rental_uris": {"ios": "https://dc.lft.to/lastmile_qr_scan", "android": "https://dc.lft.to/lastmile_qr_scan"}, "bike_id": "25386afadb07b03da16f0fb23db28231", "fusion_lat": 0.0}, {"lon": -77.03218466666667, "name": "c2c11b6c40671830fff7c76f8c413def", "is_disabled": 0, "type": "electric_scooter", "is_reserved": 0, "fusion_lon": 0.0, "lat": 38.91654366666667, "rental_uris": {"ios": "https://dc.lft.to/lastmile_qr_scan", "android": "https://dc.lft.to/lastmile_qr_scan"}, "bike_id": "c2c11b6c40671830fff7c76f8c413def", "fusion_lat": 0.0}, {"lon": -77.0237375, "name": "4d2495b9e8a472411df8e0db4a354077", "is_disabled": 0, "type": "electric_scooter", "is_reserved": 0, "fusion_lon": 0.0, "lat": 38.90201783333333, "rental_uris": {"ios": "https://dc.lft.to/lastmile_qr_scan", "android": "https://dc.lft.to/lastmile_qr_scan"}, "bike_id": "4d2495b9e8a472411df8e0db4a354077", "fusion_lat": 0.0}, {"lon": -77.043413, "name": "d4adb614ac72d0c3f1467d00552c730d", "is_disabled": 0, "type": "electric_scooter", "is_reserved": 0, "fusion_lon": 0.0, "lat": 38.92493316666667, "rental_uris": {"ios": "https://dc.lft.to/lastmile_qr_scan", "android": "https://dc.lft.to/lastmile_qr_scan"}, "bike_id": "d4adb614ac72d0c3f1467d00552c730d", "fusion_lat": 0.0}, {"lon": -77.04174983333333, "name": "80568aaa0f094d1b4ad61d6f06205112", "is_disabled": 0, "type": "electric_scooter", "is_reserved": 0, "fusion_lon": 0.0, "lat": 38.917015666666664, "rental_uris": {"ios": "https://dc.lft.to/lastmile_qr_scan", "android": "https://dc.lft.to/lastmile_qr_scan"}, "bike_id": "80568aaa0f094d1b4ad61d6f06205112", "fusion_lat": 0.0}, {"lon": -77.02428683333333, "name": "5d37f44140f6b3b24636b86f4743dfc7", "is_disabled": 0, "type": "electric_scooter", "is_reserved": 0, "fusion_lon": 0.0, "lat": 38.920490666666666, "rental_uris": {"ios": "https://dc.lft.to/lastmile_qr_scan", "android": "https://dc.lft.to/lastmile_qr_scan"}, "bike_id": "5d37f44140f6b3b24636b86f4743dfc7", "fusion_lat": 0.0}, {"lon": -77.01956283333334, "name": "e567c37a9887d101bec818913afda5b7", "is_disabled": 0, "type": "electric_scooter", "is_reserved": 0, "fusion_lon": 0.0, "lat": 38.92365066666667, "rental_uris": {"ios": "https://dc.lft.to/lastmile_qr_scan", "android": "https://dc.lft.to/lastmile_qr_scan"}, "bike_id": "e567c37a9887d101bec818913afda5b7", "fusion_lat": 0.0},