{"data": {"bikes": [{"type": "electric_scooter", "name": "1f222fb99a26fe798676a453da63e70b", "rental_uris": {"ios": "https://dc.lft.to/lastmile_qr_scan", "android": "https://dc.lft.to/lastmile_qr_scan"}, "fusion_lon": 0.0, "lat": 38.884934666666666, "is_disabled": 0, "bike_id": "1f222fb99a26fe798676a453da63e70b", "fusion_lat": 0.0, "is_reserved": 0, "lon": -76.95647966666667}, {"type": "electric_scooter", "name": "38614ad2214b706528bb44d92af978c2", "rental_uris": {"ios": "https://dc.lft.to/lastmile_qr_scan", "android": "https://dc.lft.to/lastmile_qr_scan"}, "fusion_lon": 0.0, "lat": 38.93672316666667, "is_disabled": 0, "bike_id": "38614ad2214b706528bb44d92af978c2", "fusion_lat": 0.0, "is_reserved": 0, "lon": -77.0238845}, {"type": "electric_scooter", "name": "eb0e64b2243520b644de827b8b4589b5", "rental_uris": {"ios": "https://dc.lft.to/lastmile_qr_scan", "android": "https://dc.lft.to/lastmile_qr_scan"}, "fusion_lon": 0.0, "lat": 38.89228883333333, "is_disabled": 0, "bike_id": "eb0e64b2243520b644de827b8b4589b5", "fusion_lat": 0.0, "is_reserved": 0, "lon": -77.02423516666667}, {"type": "electric_scooter", "name": "ad22b73c4ebac03b593ffa0b4a96a759", "rental_uris": {"ios": "https://dc.lft.to/lastmile_qr_scan", "android": "https://dc.lft.to/lastmile_qr_scan"}, "fusion_lon": 0.0, "lat": 38.913466166666666, "is_disabled": 0, "bike_id": "ad22b73c4ebac03b593ffa0b4a96a759", "fusion_lat": 0.0, "is_reserved": 0, "lon": -77.03170366666667}, {"type": "electric_scooter", "name": "846396a92638ae8557ce02de6fedc4ae", "rental_uris": {"ios": "https://dc.lft.to/lastmile_qr_scan", "android": "https://dc.lft.to/lastmile_qr_scan"}, "fusion_lon": 0.0, "lat": 38.906483333333334, "is_disabled": 0, "bike_id": "846396a92638ae8557ce02de6fedc4ae", "fusion_lat": 0.0, "is_reserved": 0, "lon": -77.034638}, {"type": "electric_scooter", "name": "b792c30c56cf829d0e42d56f390859e8", "rental_uris": {"ios": "https://dc.lft.to/lastmile_qr_scan", "android": "https://dc.lft.to/lastmile_qr_scan"}, "fusion_lon": 0.0, "lat": 38.838679, "is_disabled": 0, "bike_id": "b792c30c56cf829d0e42d56f390859e8", "fusion_lat": 0.0, "is_reserved": 0, "lon": -76.9969745}, {"type": "electric_scooter", "name": "f448524de437c1cf7c7fec21c0d2fc7b", "rental_uris": {"ios": "https://dc.lft.to/lastmile_qr_scan", "android": "https://dc.lft.to/lastmile_qr_scan"}, "fusion_lon": 0.0, "lat": 38.92130516666667, "is_disabled": 0, "bike_id": "f448524de437c1cf7c7fec21c0d2fc7b", "fusion_lat": 0.0, "is_reserved": 0, "lon": -77.0411405}, {"type": "electric_bike", "name": "3b7551ead2852b1dc5ba3ff8080c3d4e", "rental_uris": {"ios": "https://dc.lft.to/lastmile_qr_scan", "android": "https://dc.lft.to/lastmile_qr_scan"}, "fusion_lon": 0.0, "lat": 38.83947766666667, "is_disabled": 0, "bike_id": "3b7551ead2852b1dc5ba3ff8080c3d4e", "fusion_lat": 0.0, "is_reserved": 0, "lon": -77.08758666666667}, {"type": "electric_scooter", "name": "a7e4810f3ca9a8a45f03b095b7b12638", "rental_uris": {"ios": "https://dc.lft.to/lastmile_qr_scan", "android": "https://dc.lft.to/lastmile_qr_scan"}, "fusion_lon": 0.0, "lat": 38.90574816666667, "is_disabled": 0, "bike_id": "a7e4810f3ca9a8a45f03b095b7b12638", "fusion_lat": 0.0, "is_reserved": 0, "lon": -77.0039545}, {"type": "electric_scooter", "name": "38efb676476398f43c1ef5b1ee626f8c", "rental_uris": {"ios": "https://dc.lft.to/lastmile_qr_scan", "android": "https://dc.lft.to/lastmile_qr_scan"}, "fusion_lon": 0.0, "lat": 38.92319966666667, "is_disabled": 0, "bike_id": "38efb676476398f43c1ef5b1ee626f8c", "fusion_lat": 0.0, "is_reserved": 0, "lon": -77.04522766666666}, {"type": "electric_scooter", "name": "f6deefffa4dd191968c417b8310f0383", "rental_uris": {"ios": "https://dc.lft.to/lastmile_qr_scan", "android": "https://dc.lft.to/lastmile_qr_scan"}, "fusion_lon": 0.0, "lat": 38.87841916666667, "is_disabled": 0, "bike_id": "f6deefffa4dd191968c417b8310f0383", "fusion_lat": 0.0, "is_reserved": 0, "lon": -76.99028083333333}, {"type": "electric_scooter", "name": "2d4fbbdd756d6791ed230e14036562f4", "rental_uris": {"ios": "https://dc.lft.to/lastmile_qr_scan", "android": "https://dc.lft.to/lastmile_qr_scan"}, "fusion_lon": 0.0, "lat": 38.911217666666666, "is_disabled": 0, "bike_id": "2d4fbbdd756d6791ed230e14036562f4", "fusion_lat": 0.0, "is_reserved": 0, "lon": -77.034352}, {"type": "electric_scooter", "name": "c1faf67932eb308b9bdaeda6dbcfa3b8", "rental_uris": {"ios": "https://dc.lft.to/lastmile_qr_scan", "android": "https://dc.lft.to/lastmile_qr_scan"}, "fusion_lon": 0.0, "lat": 38.90821866666667, "is_disabled": 0, "bike_id": "c1faf67932eb308b9bdaeda6dbcfa3b8", "fusion_lat": 0.0, "is_reserved": 0, "lon": -77.03842633333333}, {"type": "electric_scooter", "name": "cfccd5302689ef420c72be73f7cd16fd", "rental_uris": {"ios": "https://dc.lft.to/lastmile_qr_scan", "android": "https://dc.lft.to/lastmile_qr_scan"}, "fusion_lon": 0.0, "lat": 38.927088166666664, "is_disabled": 0, "bike_id": "cfccd5302689ef420c72be73f7cd16fd", "fusion_lat": 0.0, "is_reserved": 0, "lon": -77.0243255}, {"type": "electric_scooter", "name": "fe31e6f1708f3fc4168cf03882c0bf34", "rental_uris": {"ios": "https://dc.lft.to/lastmile_qr_scan", "android": "https://dc.lft.to/lastmile_qr_scan"}, "fusion_lon": 0.0, "lat": 38.90409666666667, "is_disabled": 0, "bike_id": "fe31e6f1708f3fc4168cf03882c0bf34", "fusion_lat": 0.0, "is_reserved": 0, "lon": -77.04013266666666}, {"type": "electric_scooter", "name": "723256386369642e2f0f9df331520d13", "rental_uris": {"ios": "https://dc.lft.to/lastmile_qr_scan", "android": "https://dc.lft.to/lastmile_qr_scan"}, "fusion_lon": 0.0, "lat": 38.921161833333336, "is_disabled": 0, "bike_id": "723256386369642e2f0f9df331520d13", "fusion_lat": 0.0, "is_reserved": 0, "lon": -77.02036833333334}, {"type": "electric_scooter", "name": "03f44b149419cec2594e495fbdcc935c", "rental_uris": {"ios": "https://dc.lft.to/lastmile_qr_scan", "android": "https://dc.lft.to/lastmile_qr_scan"}, "fusion_lon": 0.0, "lat": 38.9114525, "is_disabled": 0, "bike_id": "03f44b149419cec2594e495fbdcc935c", "fusion_lat": 0.0, "is_reserved": 0, "lon": -77.02806}, {"type": "electric_scooter", "name": "e97884aca2ea57e8a9b5ae047953e755", "rental_uris": {"ios": "https://dc.lft.to/lastmile_qr_scan", "android": "https://dc.lft.to/lastmile_qr_scan"}, "fusion_lon": 0.0, "lat": 38.912648, "is_disabled": 0, "bike_id": "e97884aca2ea57e8a9b5ae047953e755", "fusion_lat": 0.0, "is_reserved": 0, "lon": -77.04737716666666}, {"type": "electric_scooter", "name": "0ca09eb4be8890ae650fe61557d0ad6a", "rental_uris": {"ios": "https://dc.lft.to/lastmile_qr_scan", "android": "https://dc.lft.to/lastmile_qr_scan"}, "fusion_lon": 0.0, "lat": 38.90680116666667, "is_disabled": 0, "bike_id": "0ca09eb4be8890ae650fe61557d0ad6a", "fusion_lat": 0.0, "is_reserved": 0, "lon": -77.03783733333333}, {"type": "electric_scooter", "name": "bfce07da943407600d83fd2553caeb5a", "rental_uris": {"ios": "https://dc.lft.to/lastmile_qr_scan", "android": "https://dc.lft.to/lastmile_qr_scan"}, "fusion_lon": 0.0, "lat": 38.909533833333334, "is_disabled": 0, "bike_id": "bfce07da943407600d83fd2553caeb5a", "fusion_lat": 0.0, "is_reserved": 0, "lon": -77.06435966666666}, {"type": "electric_scooter", "name": "ba2cb728a405a4afe12f85de2b195132", "rental_uris": {"ios": "https://dc.lft.to/lastmile_qr_scan", "android": "https://dc.lft.to/lastmile_qr_scan"}, "fusion_lon": 0.0, "lat": 38.85724233333333, "is_disabled": 0, "bike_id": "ba2cb728a405a4afe12f85de2b195132", "fusion_lat": 0.0, "is_reserved": 0, "lon": -76.98098416666667}, {"type": "electric_scooter", "name": "bd225638855038c553c42eb29f67c9f8", "rental_uris": {"ios": "https://dc.lft.to/lastmile_qr_scan", "android": "https://dc.lft.to/lastmile_qr_scan"}, "fusion_lon": 0.0, "lat": 38.8639415, "is_disabled": 0, "bike_id": "bd225638855038c553c42eb29f67c9f8", "fusion_lat": 0.0, "is_reserved": 0, "lon": -76.990391}, {"type": "electric_scooter", "name": "367db62e68b9d67538077f2d018d79e9", "rental_uris": {"ios": "https://dc.lft.to/lastmile_qr_scan", "android": "https://dc.lft.to/lastmile_qr_scan"}, "fusion_lon": 0.0, "lat": 38.89949, "is_disabled": 0, "bike_id": "367db62e68b9d67538077f2d018d79e9", "fusion_lat": 0.0, "is_reserved": 0, "lon": -77.029965}, {"type": "electric_scooter", "name": "0e2e5424df0d4654051b12cf1293038d", "rental_uris": {"ios": "https://dc.lft.to/lastmile_qr_scan", "android": "https://dc.lft.to/lastmile_qr_scan"}, "fusion_lon": 0.0, "lat": 38.897334, "is_disabled": 0, "bike_id": "0e2e5424df0d4654051b12cf1293038d", "fusion_lat": 0.0, "is_reserved": 0, "lon": -76.94699566666667}, {"type": "electric_scooter", "name": "8f2afd01e42caef87c0274aee52573cb", "rental_uris": {"ios": "https://dc.lft.to/lastmile_qr_scan", "android": "https://dc.lft.to/lastmile_qr_scan"}, "fusion_lon": 0.0, "lat": 38.9010595, "is_disabled": 0, "bike_id": "8f2afd01e42caef87c0274aee52573cb", "fusion_lat": 0.0, "is_reserved": 0, "lon": -77.0177225}, {"type": "electric_scooter", "name": "3d20f17f38c47565cb6e00da57b69a63", "rental_uris": {"ios": "https://dc.lft.to/lastmile_qr_scan", "android": "https://dc.lft.to/lastmile_qr_scan"}, "fusion_lon": 0.0, "lat": 38.92865, "is_disabled": 0, "bike_id": "3d20f17f38c47565cb6e00da57b69a63", "fusion_lat": 0.0, "is_reserved": 0, "lon": -77.03500266666667}, {"type": "electric_scooter", "name": "217116e52ad1d0ded2d133cff27878bc", "rental_uris": {"ios": "https://dc.lft.to/lastmile_qr_scan", "android": "https://dc.lft.to/lastmile_qr_scan"}, "fusion_lon": 0.0, "lat": 38.9274515, "is_disabled": 0, "bike_id": "217116e52ad1d0ded2d133cff27878bc", "fusion_lat": 0.0, "is_reserved": 0, "lon": -77.02314516666667}, {"type": "electric_scooter", "name": "9d4a3948a7350f58d8ad2e14cf86a5c9", "rental_uris": {"ios": "https://dc.lft.to/lastmile_qr_scan", "android": "https://dc.lft.to/lastmile_qr_scan"}, "fusion_lon": 0.0, "lat": 38.917019333333336, "is_disabled": 0, "bike_id": "9d4a3948a7350f58d8ad2e14cf86a5c9", "fusion_lat": 0.0, "is_reserved": 0, "lon": -77.031123}, {"type": "electric_scooter", "name": "5408895eed65493cba3e7a20f2796330", "rental_uris": {"ios": "https://dc.lft.to/lastmile_qr_scan", "android": "https://dc.lft.to/lastmile_qr_scan"}, "fusion_lon": 0.0, "lat": 38.8939565, "is_disabled": 0, "bike_id": "5408895eed65493cba3e7a20f2796330", "fusion_lat": 0.0, "is_reserved": 0, "lon": -76.92310016666667}, {"type": "electric_scooter", "name": "6b44273203b928105ac7e88537715af4", "rental_uris": {"ios": "https://dc.lft.to/lastmile_qr_scan", "android": "https://dc.lft.to/lastmile_qr_scan"}, "fusion_lon": 0.0, "lat": 38.9361365, "is_disabled": 0, "bike_id": "6b44273203b928105ac7e88537715af4", "fusion_lat": 0.0, "is_reserved": 0, "lon": -77.05866016666667}, {"type": "electric_scooter", "name": "56c8e210f221d065c83398d9785915dd", "rental_uris": {"ios": "https://dc.lft.to/lastmile_qr_scan", "android": "https://dc.lft.to/lastmile_qr_scan"}, "fusion_lon": 0.0, "lat": 38.898657, "is_disabled": 0, "bike_id": "56c8e210f221d065c83398d9785915dd", "fusion_lat": 0.0, "is_reserved": 0, "lon": -76.94638583333334}, {"type": "electric_scooter", "name": "60a3056ca70606e70c92bd3f0761bb58", "rental_uris": {"ios": "https://dc.lft.to/lastmile_qr_scan", "android": "https://dc.lft.to/lastmile_qr_scan"}, "fusion_lon": 0.0, "lat": 38.901997, "is_disabled": 0, "bike_id": "60a3056ca70606e70c92bd3f0761bb58", "fusion_lat": 0.0, "is_reserved": 0, "lon": -77.023728}, {"type": "electric_scooter", "name": "77ff88ecb8e7fb8bc5f025be16986bb2", "rental_uris": {"ios": "https://dc.lft.to/lastmile_qr_scan", "android": "https://dc.lft.to/lastmile_qr_scan"}, "fusion_lon": 0.0, "lat": 38.902687, "is_disabled": 0, "bike_id": "77ff88ecb8e7fb8bc5f025be16986bb2", "fusion_lat": 0.0, "is_reserved": 0, "lon": -77.03338766666667}, {"type": "electric_scooter", "name": "b50e0a3640124e00c30b27e542398357", "rental_uris": {"ios": "https://dc.lft.to/lastmile_qr_scan", "android": "https://dc.lft.to/lastmile_qr_scan"}, "fusion_lon": 0.0, "lat": 38.86185116666667, "is_disabled": 0, "bike_id": "b50e0a3640124e00c30b27e542398357", "fusion_lat": 0.0, "is_reserved": 0, "lon": -76.96907283333333}, {"type": "electric_scooter", "name": "b43f0b4f8110f5132546b8f214cde10f", "rental_uris": {"ios": "https://dc.lft.to/lastmile_qr_scan", "android": "https://dc.lft.to/lastmile_qr_scan"}, "fusion_lon": 0.0, "lat": 38.898746333333335, "is_disabled": 0, "bike_id": "b43f0b4f8110f5132546b8f214cde10f", "fusion_lat": 0.0, "is_reserved": 0, "lon": -77.02827333333333}, {"type": "electric_scooter", "name": "6fbd2a65cd057dc222552cddc12d19c1", "rental_uris": {"ios": "https://dc.lft.to/lastmile_qr_scan", "android": "https://dc.lft.to/lastmile_qr_scan"}, "fusion_lon": 0.0, "lat": 38.90866533333333, "is_disabled": 0, "bike_id": "6fbd2a65cd057dc222552cddc12d19c1", "fusion_lat": 0.0, "is_reserved": 0, "lon": -76.9979145}, {"type": "electric_scooter", "name": "72a19d3e99c29fe1ba34a244c221b3ff", "rental_uris": {"ios": "https://dc.lft.to/lastmile_qr_scan", "android": "https://dc.lft.to/lastmile_qr_scan"}, "fusion_lon": 0.0, "lat": 38.94954633333333, "is_disabled": 0, "bike_id": "72a19d3e99c29fe1ba34a244c221b3ff", "fusion_lat": 0.0, "is_reserved": 0, "lon": -77.02316466666667}, {"type": "electric_scooter", "name": "fcca31cda9976fdc89f604fc0d0cd80a", "rental_uris": {"ios": "https://dc.lft.to/lastmile_qr_scan", "android": "https://dc.lft.to/lastmile_qr_scan"}, "fusion_lon": 0.0, "lat": 38.9079, "is_disabled": 0, "bike_id": "fcca31cda9976fdc89f604fc0d0cd80a", "fusion_lat": 0.0, "is_reserved": 0, "lon": -77.0725875}, {"type": "electric_scooter", "name": "502cb6ada123af2301414b4c2d5986da", "rental_uris": {"ios": "https://dc.lft.to/lastmile_qr_scan", "android": "https://dc.lft.to/lastmile_qr_scan"}, "fusion_lon": 0.0, "lat": 38.91064816666667, "is_disabled": 0, "bike_id": "502cb6ada123af2301414b4c2d5986da", "fusion_lat": 0.0, "is_reserved": 0, "lon": -77.0528985}, {"type": "electric_scooter", "name": "b066e7f8cb0f1cac0481bf9bb41d002f", "rental_uris": {"ios": "https://dc.lft.to/lastmile_qr_scan", "android": "https://dc.lft.to/lastmile_qr_scan"}, "fusion_lon": 0.0, "lat": 38.90526, "is_disabled": 0, "bike_id": "b066e7f8cb0f1cac0481bf9bb41d002f", "fusion_lat": 0.0, "is_reserved": 0, "lon": -77.041617}, {"type": "electric_scooter", "name": "530e83e0454a62a38848bf9433977391", "rental_uris": {"ios": "https://dc.lft.to/lastmile_qr_scan", "android": "https://dc.lft.to/lastmile_qr_scan"}, "fusion_lon": 0.0, "lat": 38.93385133333334, "is_disabled": 0, "bike_id": "530e83e0454a62a38848bf9433977391", "fusion_lat": 0.0, "is_reserved": 0, "lon": -77.02677216666666}, {"type": "electric_bike", "name": "025b5ae58d6b63163521e443b3c57140", "rental_uris": {"ios": "https://dc.lft.to/lastmile_qr_scan", "android": "https://dc.lft.to/lastmile_qr_scan"}, "fusion_lon": 0.0, "lat": 39.056409, "is_disabled": 0, "bike_id": "025b5ae58d6b63163521e443b3c57140", "fusion_lat": 0.0, "is_reserved": 0, "lon": -77.12527883333334}, {"type": "electric_scooter", "name": "30cba2617a2a764f901e32d82d860c3a", "rental_uris": {"ios": "https://dc.lft.to/lastmile_qr_scan", "android": "https://dc.lft.to/lastmile_qr_scan"}, "fusion_lon": 0.0, "lat": 38.9112335, "is_disabled": 0, "bike_id": "30cba2617a2a764f901e32d82d860c3a", "fusion_lat": 0.0, "is_reserved": 0, "lon": -77.022074}, {"type": "electric_scooter", "name": "4f1069677aed0b7c6fe8b2d9d52201a8", "rental_uris": {"ios": "https://dc.lft.to/lastmile_qr_scan", "android": "https://dc.lft.to/lastmile_qr_scan"}, "fusion_lon": 0.0, "lat": 38.89517933333333, "is_disabled": 0, "bike_id": "4f1069677aed0b7c6fe8b2d9d52201a8", "fusion_lat": 0.0, "is_reserved": 0, "lon": -77.02198466666667}, {"type": "electric_scooter", "name": "ccf1149b16001487931099a03c3aa1c8", "rental_uris": {"ios": "https://dc.lft.to/lastmile_qr_scan", "android": "https://dc.lft.to/lastmile_qr_scan"}, "fusion_lon": 0.0, "lat": 38.91716, "is_disabled": 0, "bike_id": "ccf1149b16001487931099a03c3aa1c8", "fusion_lat": 0.0, "is_reserved": 0, "lon": -77.03476666666667}, {"type": "electric_scooter", "name": "8dfd39ec4bd10cc824514db7042b2cba", "rental_uris": {"ios": "https://dc.lft.to/lastmile_qr_scan", "android": "https://dc.lft.to/lastmile_qr_scan"}, "fusion_lon": 0.0, "lat": 38.92128066666667, "is_disabled": 0, "bike_id": "8dfd39ec4bd10cc824514db7042b2cba", "fusion_lat": 0.0, "is_reserved": 0, "lon": -77.0439215}, {"type": "electric_scooter", "name": "adf85d92847c945e20722079ca2a4d0e", "rental_uris": {"ios": "https://dc.lft.to/lastmile_qr_scan", "android": "https://dc.lft.to/lastmile_qr_scan"}, "fusion_lon": 0.0, "lat": 38.88467133333333, "is_disabled": 0, "bike_id": "adf85d92847c945e20722079ca2a4d0e", "fusion_lat": 0.0, "is_reserved": 0, "lon": -76.94984183333334}, {"type": "electric_scooter", "name": "6479e8655a75a9e1122ebde0bf66a5e3", "rental_uris": {"ios": "https://dc.lft.to/lastmile_qr_scan", "android": "https://dc.lft.to/lastmile_qr_scan"}, "fusion_lon": 0.0, "lat": 38.936795333333336, "is_disabled": 0, "bike_id": "6479e8655a75a9e1122ebde0bf66a5e3", "fusion_lat": 0.0, "is_reserved": 0, "lon": -77.03591383333334}, {"type": "electric_scooter", "name": "2f5b3e33f45baa6a40c2cde0b86d3337", "rental_uris": {"ios": "https://dc.lft.to/lastmile_qr_scan", "android": "https://dc.lft.to/lastmile_qr_scan"}, "fusion_lon": 0.0, "lat": 38.883365, "is_disabled": 0, "bike_id": "2f5b3e33f45baa6a40c2cde0b86d3337", "fusion_lat": 0.0, "is_reserved": 0, "lon": -77.01773316666667}, {"type": "electric_scooter", "name": "b59e862f7d99ae30152855a42bb6bd93", "rental_uris": {"ios": "https://dc.lft.to/lastmile_qr_scan", "android": "https://dc.lft.to/lastmile_qr_scan"}, "fusion_lon": 0.0, "lat": 38.902306, "is_disabled": 0, "bike_id": "b59e862f7d99ae30152855a42bb6bd93", "fusion_lat": 0.0, "is_reserved": 0, "lon": -77.0458525}, {"type": "electric_scooter", "name": "3b9980ad48b2a01e65a2f4b51770e99b", "rental_uris": {"ios": "https://dc.lft.to/lastmile_qr_scan", "android": "https://dc.lft.to/lastmile_qr_scan"}, "fusion_lon": 0.0, "lat": 38.92044416666667, "is_disabled": 0, "bike_id": "3b9980ad48b2a01e65a2f4b51770e99b", "fusion_lat": 0.0, "is_reserved": 0, "lon": -77.01679783333333}, {"type": "electric_scooter", "name": "323ccd7fae46faff9e3200d019a6098a", "rental_uris": {"ios": "https://dc.lft.to/lastmile_qr_scan", "android": "https://dc.lft.to/lastmile_qr_scan"}, "fusion_lon": 0.0, "lat": 38.908075, "is_disabled": 0, "bike_id": "323ccd7fae46faff9e3200d019a6098a", "fusion_lat": 0.0, "is_reserved": 0, "lon": -77.03861283333333}, {"type": "electric_scooter", "name": "f36d446512461a246fcc13454c82ba1b", "rental_uris": {"ios": "https://dc.lft.to/lastmile_qr_scan", "android": "https://dc.lft.to/lastmile_qr_scan"}, "fusion_lon": 0.0, "lat": 38.9164445, "is_disabled": 0, "bike_id": "f36d446512461a246fcc13454c82ba1b", "fusion_lat": 0.0, "is_reserved": 0, "lon": -77.0478965}, {"type": "electric_scooter", "name": "484b191e29fb59af6780bdd200ef1dcf", "rental_uris": {"ios": "https://dc.lft.to/lastmile_qr_scan", "android": "https://dc.lft.to/lastmile_qr_scan"}, "fusion_lon": 0.0, "lat": 38.899232833333336, "is_disabled": 0, "bike_id": "484b191e29fb59af6780bdd200ef1dcf", "fusion_lat": 0.0, "is_reserved": 0, "lon": -77.03306066666667}, {"type": "electric_scooter", "name": "4b91d8dc2e2176ed415c68d9e0c385e3", "rental_uris": {"ios": "https://dc.lft.to/lastmile_qr_scan", "android": "https://dc.lft.to/lastmile_qr_scan"}, "fusion_lon": 0.0, "lat": 38.92293866666667, "is_disabled": 0, "bike_id": "4b91d8dc2e2176ed415c68d9e0c385e3", "fusion_lat": 0.0, "is_reserved": 0, "lon": -77.03192216666666}, {"type": "electric_scooter", "name": "551e37f6fd61224ee191613aebf3a69c", "rental_uris": {"ios": "https://dc.lft.to/lastmile_qr_scan", "android": "https://dc.lft.to/lastmile_qr_scan"}, "fusion_lon": 0.0, "lat": 38.91808783333333, "is_disabled": 0, "bike_id": "551e37f6fd61224ee191613aebf3a69c", "fusion_lat": 0.0, "is_reserved": 0, "lon": -77.02816333333334}, {"type": "electric_scooter", "name": "1eee717dbdbf2e73730857a1b1bef352", "rental_uris": {"ios": "https://dc.lft.to/lastmile_qr_scan", "android": "https://dc.lft.to/lastmile_qr_scan"}, "fusion_lon": 0.0, "lat": 38.917775666666664, "is_disabled": 0, "bike_id": "1eee717dbdbf2e73730857a1b1bef352", "fusion_lat": 0.0, "is_reserved": 0, "lon": -77.04100783333334}, {"type": "electric_scooter", "name": "8ade9b0a8d44497b25e27b2d8cefbc18", "rental_uris": {"ios": "https://dc.lft.to/lastmile_qr_scan", "android": "https://dc.lft.to/lastmile_qr_scan"}, "fusion_lon": 0.0, "lat": 38.88738583333333, "is_disabled": 0, "bike_id": "8ade9b0a8d44497b25e27b2d8cefbc18", "fusion_lat": 0.0, "is_reserved": 0, "lon": -77.02582033333333}, {"type": "electric_bike", "name": "1ae2275ee0c7b2c5b564690930023996", "rental_uris": {"ios": "https://dc.lft.to/lastmile_qr_scan", "android": "https://dc.lft.to/lastmile_qr_scan"}, "fusion_lon": 0.0, "lat": 38.9245945, "is_disabled": 0, "bike_id": "1ae2275ee0c7b2c5b564690930023996", "fusion_lat": 0.0, "is_reserved": 0, "lon": -77.0673495}, {"type": "electric_scooter", "name": "8dd93bfe33ddca334cd206a282d04511", "rental_uris": {"ios": "https://dc.lft.to/lastmile_qr_scan", "android": "https://dc.lft.to/lastmile_qr_scan"}, "fusion_lon": 0.0, "lat": 38.87892266666667, "is_disabled": 0, "bike_id": "8dd93bfe33ddca334cd206a282d04511", "fusion_lat": 0.0, "is_reserved": 0, "lon": -77.02309783333334}, {"type": "electric_scooter", "name": "93001330e9ce8a3673cacef5604d8e54", "rental_uris": {"ios": "https://dc.lft.to/lastmile_qr_scan", "android": "https://dc.lft.to/lastmile_qr_scan"}, "fusion_lon": 0.0, "lat": 38.90268566666667, "is_disabled": 0, "bike_id": "93001330e9ce8a3673cacef5604d8e54", "fusion_lat": 0.0, "is_reserved": 0, "lon": -77.03427533333333}, {"type": "electric_scooter", "name": "bb5bccfa0424f1d60cad3d51ab7b9f6c", "rental_uris": {"ios": "https://dc.lft.to/lastmile_qr_scan", "android": "https://dc.lft.to/lastmile_qr_scan"}, "fusion_lon": 0.0, "lat": 38.883411333333335, "is_disabled": 0, "bike_id": "bb5bccfa0424f1d60cad3d51ab7b9f6c", "fusion_lat": 0.0, "is_reserved": 0, "lon": -77.01778083333333}, {"type": "electric_scooter", "name": "f27a5ed4ff070379217db6b53ae9c7ce", "rental_uris": {"ios": "https://dc.lft.to/lastmile_qr_scan", "android": "https://dc.lft.to/lastmile_qr_scan"}, "fusion_lon": 0.0, "lat": 38.903167, "is_disabled": 0, "bike_id": "f27a5ed4ff070379217db6b53ae9c7ce", "fusion_lat": 0.0, "is_reserved": 0, "lon": -77.0602395}, {"type": "electric_scooter", "name": "05e0883d4c277fb899bf9cbf0b8402ee", "rental_uris": {"ios": "https://dc.lft.to/lastmile_qr_scan", "android": "https://dc.lft.to/lastmile_qr_scan"}, "fusion_lon": 0.0, "lat": 38.956355, "is_disabled": 0, "bike_id": "05e0883d4c277fb899bf9cbf0b8402ee", "fusion_lat": 0.0, "is_reserved": 0, "lon": -77.03303916666667}, {"type": "electric_scooter", "name": "3d7a0fdbe3691594ca1ece545df50f27", "rental_uris": {"ios": "https://dc.lft.to/lastmile_qr_scan", "android": "https://dc.lft.to/lastmile_qr_scan"}, "fusion_lon": 0.0, "lat": 38.901947666666665, "is_disabled": 0, "bike_id": "3d7a0fdbe3691594ca1ece545df50f27", "fusion_lat": 0.0, "is_reserved": 0, "lon": -77.02759066666667}, {"type": "electric_scooter", "name": "8e84dc6948022bd06d3b151953806977", "rental_uris": {"ios": "https://dc.lft.to/lastmile_qr_scan", "android": "https://dc.lft.to/lastmile_qr_scan"}, "fusion_lon": 0.0, "lat": 38.90671233333333, "is_disabled": 0, "bike_id": "8e84dc6948022bd06d3b151953806977", "fusion_lat": 0.0, "is_reserved": 0, "lon": -77.02707766666667}, {"type": "electric_scooter", "name": "2264f729ce86efc330b63fe6dd2f55ab", "rental_uris": {"ios": "https://dc.lft.to/lastmile_qr_scan", "android": "https://dc.lft.to/lastmile_qr_scan"}, "fusion_lon": 0.0, "lat": 38.898338, "is_disabled": 0, "bike_id": "2264f729ce86efc330b63fe6dd2f55ab", "fusion_lat": 0.0, "is_reserved": 0, "lon": -77.03157716666666}, {"type": "electric_scooter", "name": "36ad73b71e07fb307813b2f7b539cc5c", "rental_uris": {"ios": "https://dc.lft.to/lastmile_qr_scan", "android": "https://dc.lft.to/lastmile_qr_scan"}, "fusion_lon": 0.0, "lat": 38.911248666666665, "is_disabled": 0, "bike_id": "36ad73b71e07fb307813b2f7b539cc5c", "fusion_lat": 0.0, "is_reserved": 0, "lon": -77.04459883333334}, {"type": "electric_scooter", "name": "40f2e0eb3d3e88b01dcd12ecf9358d58", "rental_uris": {"ios": "https://dc.lft.to/lastmile_qr_scan", "android": "https://dc.lft.to/lastmile_qr_scan"}, "fusion_lon": 0.0, "lat": 38.892375666666666, "is_disabled": 0, "bike_id": "40f2e0eb3d3e88b01dcd12ecf9358d58", "fusion_lat": 0.0, "is_reserved": 0, "lon": -77.0218105}, {"type": "electric_scooter", "name": "7c97acefacbbd7c4bd646a789a18602d", "rental_uris": {"ios": "https://dc.lft.to/lastmile_qr_scan", "android": "https://dc.lft.to/lastmile_qr_scan"}, "fusion_lon": 0.0, "lat": 38.89562033333333, "is_disabled": 0, "bike_id": "7c97acefacbbd7c4bd646a789a18602d", "fusion_lat": 0.0, "is_reserved": 0, "lon": -77.0467375}, {"type": "electric_scooter", "name": "3ef8000c0ac1810b2a970067af6fc12c", "rental_uris": {"ios": "https://dc.lft.to/lastmile_qr_scan", "android": "https://dc.lft.to/lastmile_qr_scan"}, "fusion_lon": 0.0, "lat": 38.939237, "is_disabled": 0, "bike_id": "3ef8000c0ac1810b2a970067af6fc12c", "fusion_lat": 0.0, "is_reserved": 0, "lon": -77.0604645}, {"type": "electric_scooter", "name": "8573d505a27b188f3e05b12661b88dda", "rental_uris": {"ios": "https://dc.lft.to/lastmile_qr_scan", "android": "https://dc.lft.to/lastmile_qr_scan"}, "fusion_lon": 0.0, "lat": 38.93539166666667, "is_disabled": 0, "bike_id": "8573d505a27b188f3e05b12661b88dda", "fusion_lat": 0.0, "is_reserved": 0, "lon": -77.023488}, {"type": "electric_scooter", "name": "3b6df6bf8967251655a50ab35913da85", "rental_uris": {"ios": "https://dc.lft.to/lastmile_qr_scan", "android": "https://dc.lft.to/lastmile_qr_scan"}, "fusion_lon": 0.0, "lat": 38.91857266666667, "is_disabled": 0, "bike_id": "3b6df6bf8967251655a50ab35913da85", "fusion_lat": 0.0, "is_reserved": 0, "lon": -77.024624}, {"type": "electric_bike", "name": "d10ad52d75426ca54f98f3245f79fdf1", "rental_uris": {"ios": "https://dc.lft.to/lastmile_qr_scan", "android": "https://dc.lft.to/lastmile_qr_scan"}, "fusion_lon": 0.0, "lat": 38.94416233333333, "is_disabled": 0, "bike_id": "d10ad52d75426ca54f98f3245f79fdf1", "fusion_lat": 0.0, "is_reserved": 0, "lon": -77.05516116666666}, {"type": "electric_scooter", "name": "aa207224dab4422a725135e3585eb1eb", "rental_uris": {"ios": "https://dc.lft.to/lastmile_qr_scan", "android": "https://dc.lft.to/lastmile_qr_scan"}, "fusion_lon": 0.0, "lat": 38.8838895, "is_disabled": 0, "bike_id": "aa207224dab4422a725135e3585eb1eb", "fusion_lat": 0.0, "is_reserved": 0, "lon": -76.930486}, {"type": "electric_bike", "name": "328839de7f898ac7f3293563d954a6ac", "rental_uris": {"ios": "https://dc.lft.to/lastmile_qr_scan", "android": "https://dc.lft.to/lastmile_qr_scan"}, "fusion_lon": 0.0, "lat": 38.99425566666667, "is_disabled": 0, "bike_id": "328839de7f898ac7f3293563d954a6ac", "fusion_lat": 0.0, "is_reserved": 0, "lon": -77.07694716666667}, {"type": "electric_bike", "name": "9cdf802f42b59b05e31ff71e229280e2", "rental_uris": {"ios": "https://dc.lft.to/lastmile_qr_scan", "android": "https://dc.lft.to/lastmile_qr_scan"}, "fusion_lon": 0.0, "lat": 39.03611516666667, "is_disabled": 0, "bike_id": "9cdf802f42b59b05e31ff71e229280e2", "fusion_lat": 0.0, "is_reserved": 0, "lon": -77.0554095}, {"type": "electric_bike", "name": "00ec589f93484fb2eefa95e1472e80dc", "rental_uris": {"ios": "https://dc.lft.to/lastmile_qr_scan", "android": "https://dc.lft.to/lastmile_qr_scan"}, "fusion_lon": 0.0, "lat": 38.9517195, "is_disabled": 0, "bike_id": "00ec589f93484fb2eefa95e1472e80dc", "fusion_lat": 0.0, "is_reserved": 0, "lon": -77.03163883333333}, {"type": "electric_scooter", "name": "7af3561515f9f2b044bad8f857172da4", "rental_uris": {"ios": "https://dc.lft.to/lastmile_qr_scan", "android": "https://dc.lft.to/lastmile_qr_scan"}, "fusion_lon": 0.0, "lat": 38.924466833333334, "is_disabled": 0, "bike_id": "7af3561515f9f2b044bad8f857172da4", "fusion_lat": 0.0, "is_reserved": 0, "lon": -77.03368066666667}, {"type": "electric_scooter", "name": "92851755a6c62bf58236cc34a9c637bb", "rental_uris": {"ios": "https://dc.lft.to/lastmile_qr_scan", "android": "https://dc.lft.to/lastmile_qr_scan"}, "fusion_lon": 0.0, "lat": 38.89994166666666, "is_disabled": 0, "bike_id": "92851755a6c62bf58236cc34a9c637bb", "fusion_lat": 0.0, "is_reserved": 0, "lon": -76.98442016666667}, {"type": "electric_scooter", "name": "1b32fdc459a423c88bf5015d46d3320c", "rental_uris": {"ios": "https://dc.lft.to/lastmile_qr_scan", "android": "https://dc.lft.to/lastmile_qr_scan"}, "fusion_lon": 0.0, "lat": 38.919181333333334, "is_disabled": 0, "bike_id": "1b32fdc459a423c88bf5015d46d3320c", "fusion_lat": 0.0, "is_reserved": 0, "lon": -77.03173366666667}, {"type": "electric_scooter", "name": "45cc6a7c30a610ae8a3bdcece592dd50", "rental_uris": {"ios": "https://dc.lft.to/lastmile_qr_scan", "android": "https://dc.lft.to/lastmile_qr_scan"}, "fusion_lon": 0.0, "lat": 38.90148933333333, "is_disabled": 0, "bike_id": "45cc6a7c30a610ae8a3bdcece592dd50", "fusion_lat": 0.0, "is_reserved": 0, "lon": -77.02296766666667}, {"type": "electric_scooter", "name": "feafb26eced8603098be7febb843f87e", "rental_uris": {"ios": "https://dc.lft.to/lastmile_qr_scan", "android": "https://dc.lft.to/lastmile_qr_scan"}, "fusion_lon": 0.0, "lat": 38.92377166666667, "is_disabled": 0, "bike_id": "feafb26eced8603098be7febb843f87e", "fusion_lat": 0.0, "is_reserved": 0, "lon": -77.0313595}, {"type": "electric_scooter", "name": "067be452e6687318bc99dbc9e993d228", "rental_uris": {"ios": "https://dc.lft.to/lastmile_qr_scan", "android": "https://dc.lft.to/lastmile_qr_scan"}, "fusion_lon": 0.0, "lat": 38.91667566666667, "is_disabled": 0, "bike_id": "067be452e6687318bc99dbc9e993d228", "fusion_lat": 0.0, "is_reserved": 0, "lon": -77.03465916666667}, {"type": "electric_scooter", "name": "59b1c92909d68eb6bac0d400c227ece3", "rental_uris": {"ios": "https://dc.lft.to/lastmile_qr_scan", "android": "https://dc.lft.to/lastmile_qr_scan"}, "fusion_lon": 0.0, "lat": 38.92830983333333, "is_disabled": 0, "bike_id": "59b1c92909d68eb6bac0d400c227ece3", "fusion_lat": 0.0, "is_reserved": 0, "lon": -77.05969583333334}, {"type": "electric_scooter", "name": "00231567496b104aea96aeb0a2cf24e8", "rental_uris": {"ios": "https://dc.lft.to/lastmile_qr_scan", "android": "https://dc.lft.to/lastmile_qr_scan"}, "fusion_lon": 0.0, "lat": 38.85718766666667, "is_disabled": 0, "bike_id": "00231567496b104aea96aeb0a2cf24e8", "fusion_lat": 0.0, "is_reserved": 0, "lon": -76.98091916666667}, {"type": "electric_scooter", "name": "49c5678b4bdadf769930fd7519b83f82", "rental_uris": {"ios": "https://dc.lft.to/lastmile_qr_scan", "android": "https://dc.lft.to/lastmile_qr_scan"}, "fusion_lon": 0.0, "lat": 38.91287766666667, "is_disabled": 0, "bike_id": "49c5678b4bdadf769930fd7519b83f82", "fusion_lat": 0.0, "is_reserved": 0, "lon": -77.0474105}, {"type": "electric_scooter", "name": "7395a13bc8eb066c43bab4d2e73b8bd1", "rental_uris": {"ios": "https://dc.lft.to/lastmile_qr_scan", "android": "https://dc.lft.to/lastmile_qr_scan"}, "fusion_lon": 0.0, "lat": 38.92046533333333, "is_disabled": 0, "bike_id": "7395a13bc8eb066c43bab4d2e73b8bd1", "fusion_lat": 0.0, "is_reserved": 0, "lon": -77.01218783333333}, {"type": "electric_scooter", "name": "c06e9bd2feb2df8900462aec872e7531", "rental_uris": {"ios": "https://dc.lft.to/lastmile_qr_scan", "android": "https://dc.lft.to/lastmile_qr_scan"}, "fusion_lon": 0.0, "lat": 38.90412216666667, "is_disabled": 0, "bike_id": "c06e9bd2feb2df8900462aec872e7531", "fusion_lat": 0.0, "is_reserved": 0, "lon": -76.97332183333333}, {"type": "electric_scooter", "name": "1aa17bca23bfaf626a23c6470666abe8", "rental_uris": {"ios": "https://dc.lft.to/lastmile_qr_scan", "android": "https://dc.lft.to/lastmile_qr_scan"}, "fusion_lon": 0.0, "lat": 38.896153, "is_disabled": 0, "bike_id": "1aa17bca23bfaf626a23c6470666abe8", "fusion_lat": 0.0, "is_reserved": 0, "lon": -77.04478683333333}, {"type": "electric_scooter", "name": "98e2861bc2ef439668f8c63058cd4092", "rental_uris": {"ios": "https://dc.lft.to/lastmile_qr_scan", "android": "https://dc.lft.to/lastmile_qr_scan"}, "fusion_lon": 0.0, "lat": 38.90384616666667, "is_disabled": 0, "bike_id": "98e2861bc2ef439668f8c63058cd4092", "fusion_lat": 0.0, "is_reserved": 0, "lon": -77.01765383333333}, {"type": "electric_scooter", "name": "564c4c44a7d85c50ddc58b3206d84af7", "rental_uris": {"ios": "https://dc.lft.to/lastmile_qr_scan", "android": "https://dc.lft.to/lastmile_qr_scan"}, "fusion_lon": 0.0, "lat": 38.896094833333336, "is_disabled": 0, "bike_id": "564c4c44a7d85c50ddc58b3206d84af7", "fusion_lat": 0.0, "is_reserved": 0, "lon": -77.04410916666667}, {"type": "electric_scooter", "name": "9b94e3f81e6bb37ea47111f52c5e0092", "rental_uris": {"ios": "https://dc.lft.to/lastmile_qr_scan", "android": "https://dc.lft.to/lastmile_qr_scan"}, "fusion_lon": 0.0, "lat": 38.9119265, "is_disabled": 0, "bike_id": "9b94e3f81e6bb37ea47111f52c5e0092", "fusion_lat": 0.0, "is_reserved": 0, "lon": -77.03958116666666}, {"type": "electric_scooter", "name": "f73db6438fd4f8710b4ffcd3a5d49fea", "rental_uris": {"ios": "https://dc.lft.to/lastmile_qr_scan", "android": "https://dc.lft.to/lastmile_qr_scan"}, "fusion_lon": 0.0, "lat": 38.90388333333333, "is_disabled": 0, "bike_id": "f73db6438fd4f8710b4ffcd3a5d49fea", "fusion_lat": 0.0, "is_reserved": 0, "lon": -77.06267283333334}, {"type": "electric_bike", "name": "784ca175935c7a31f854389c3a0f0a79", "rental_uris": {"ios": "https://dc.lft.to/lastmile_qr_scan", "android": "https://dc.lft.to/lastmile_qr_scan"}, "fusion_lon": 0.0, "lat": 38.845113166666664, "is_disabled": 0, "bike_id": "784ca175935c7a31f854389c3a0f0a79", "fusion_lat": 0.0, "is_reserved": 0, "lon": -76.99352033333334}, {"type": "electric_bike", "name": "40e4d34694d6b0fbeec7dce325980549", "rental_uris": {"ios": "https://dc.lft.to/lastmile_qr_scan", "android": "https://dc.lft.to/lastmile_qr_scan"}, "fusion_lon": 0.0, "lat": 38.99415533333333, "is_disabled": 0, "bike_id": "40e4d34694d6b0fbeec7dce325980549", "fusion_lat": 0.0, "is_reserved": 0, "lon": -77.03101283333334}, {"type": "electric_scooter", "name": "5329d6bf52f5596efd91fb391cd95f71", "rental_uris": {"ios": "https://dc.lft.to/lastmile_qr_scan", "android": "https://dc.lft.to/lastmile_qr_scan"}, "fusion_lon": 0.0, "lat": 38.927621, "is_disabled": 0, "bike_id": "5329d6bf52f5596efd91fb391cd95f71", "fusion_lat": 0.0, "is_reserved": 0, "lon": -77.03278983333334}, {"type": "electric_bike", "name": "0c3493f64e9be8b59699e91fb836c0e0", "rental_uris": {"ios": "https://dc.lft.to/lastmile_qr_scan", "android": "https://dc.lft.to/lastmile_qr_scan"}, "fusion_lon": 0.0, "lat": 38.89572016666666, "is_disabled": 0, "bike_id": "0c3493f64e9be8b59699e91fb836c0e0", "fusion_lat": 0.0, "is_reserved": 0, "lon": -77.12738266666666}, {"type": "electric_scooter", "name": "de228ab98106a0979a49ed65bf2841c2", "rental_uris": {"ios": "https://dc.lft.to/lastmile_qr_scan", "android": "https://dc.lft.to/lastmile_qr_scan"}, "fusion_lon": 0.0, "lat": 38.89008966666667, "is_disabled": 0, "bike_id": "de228ab98106a0979a49ed65bf2841c2", "fusion_lat": 0.0, "is_reserved": 0, "lon": -76.9374325}, {"type": "electric_scooter", "name": "31a621d721fb0ed41b6ac548312e8e0c", "rental_uris": {"ios": "https://dc.lft.to/lastmile_qr_scan", "android": "https://dc.lft.to/lastmile_qr_scan"}, "fusion_lon": 0.0, "lat": 38.91745433333333, "is_disabled": 0, "bike_id": "31a621d721fb0ed41b6ac548312e8e0c", "fusion_lat": 0.0, "is_reserved": 0, "lon": -77.03188266666666}, {"type": "electric_scooter", "name": "da75a295654db688246c9af012d823c4", "rental_uris": {"ios": "https://dc.lft.to/lastmile_qr_scan", "android": "https://dc.lft.to/lastmile_qr_scan"}, "fusion_lon": 0.0, "lat": 38.934050166666665, "is_disabled": 0, "bike_id": "da75a295654db688246c9af012d823c4", "fusion_lat": 0.0, "is_reserved": 0, "lon": -77.05739766666666}, {"type": "electric_scooter", "name": "cdc9a1bf16629401571d7af9ba67b2a8", "rental_uris": {"ios": "https://dc.lft.to/lastmile_qr_scan", "android": "https://dc.lft.to/lastmile_qr_scan"}, "fusion_lon": 0.0, "lat": 38.909741833333335, "is_disabled": 0, "bike_id": "cdc9a1bf16629401571d7af9ba67b2a8", "fusion_lat": 0.0, "is_reserved": 0, "lon": -77.03443916666667}, {"type": "electric_scooter", "name": "07fb4000202af0079d3bdc32e4121688", "rental_uris": {"ios": "https://dc.lft.to/lastmile_qr_scan", "android": "https://dc.lft.to/lastmile_qr_scan"}, "fusion_lon": 0.0, "lat": 38.916162, "is_disabled": 0, "bike_id": "07fb4000202af0079d3bdc32e4121688", "fusion_lat": 0.0, "is_reserved": 0, "lon": -77.0462125}, {"type": "electric_scooter", "name": "af14e9ef79c0025846fe89e0c0dd01e3", "rental_uris": {"ios": "https://dc.lft.to/lastmile_qr_scan", "android": "https://dc.lft.to/lastmile_qr_scan"}, "fusion_lon": 0.0, "lat": 38.8968285, "is_disabled": 0, "bike_id": "af14e9ef79c0025846fe89e0c0dd01e3", "fusion_lat": 0.0, "is_reserved": 0, "lon": -77.00516916666666}, {"type": "electric_scooter", "name": "a93194533b3e2cd97264c8471c81e641", "rental_uris": {"ios": "https://dc.lft.to/lastmile_qr_scan", "android": "https://dc.lft.to/lastmile_qr_scan"}, "fusion_lon": 0.0, "lat": 38.9142025, "is_disabled": 0, "bike_id": "a93194533b3e2cd97264c8471c81e641", "fusion_lat": 0.0, "is_reserved": 0, "lon": -77.0236295}, {"type": "electric_scooter", "name": "9ba994f30e94ebd50dee05bae54b0e43", "rental_uris": {"ios": "https://dc.lft.to/lastmile_qr_scan", "android": "https://dc.lft.to/lastmile_qr_scan"}, "fusion_lon": 0.0, "lat": 38.92422, "is_disabled": 0, "bike_id": "9ba994f30e94ebd50dee05bae54b0e43", "fusion_lat": 0.0, "is_reserved": 0, "lon": -77.02034266666666}, {"type": "electric_scooter", "name": "fd7da2b2a2fd6d7754b386cf3f7ee4cd", "rental_uris": {"ios": "https://dc.lft.to/lastmile_qr_scan", "android": "https://dc.lft.to/lastmile_qr_scan"}, "fusion_lon": 0.0, "lat": 38.9105865, "is_disabled": 0, "bike_id": "fd7da2b2a2fd6d7754b386cf3f7ee4cd", "fusion_lat": 0.0, "is_reserved": 0, "lon": -77.04078183333333}, {"type": "electric_scooter", "name": "50f60e7086cf982cf215cd7a2a1dd9e6", "rental_uris": {"ios": "https://dc.lft.to/lastmile_qr_scan", "android": "https://dc.lft.to/lastmile_qr_scan"}, "fusion_lon": 0.0, "lat": 38.885999166666664, "is_disabled": 0, "bike_id": "50f60e7086cf982cf215cd7a2a1dd9e6", "fusion_lat": 0.0, "is_reserved": 0, "lon": -77.01719766666666}, {"type": "electric_scooter", "name": "5a33e399c490bdccaa6617f357862c17", "rental_uris": {"ios": "https://dc.lft.to/lastmile_qr_scan", "android": "https://dc.lft.to/lastmile_qr_scan"}, "fusion_lon": 0.0, "lat": 38.92352866666667, "is_disabled": 0, "bike_id": "5a33e399c490bdccaa6617f357862c17", "fusion_lat": 0.0, "is_reserved": 0, "lon": -77.04339283333333}, {"type": "electric_scooter", "name": "b365c45b52a1d4108fe4d1d568e69096", "rental_uris": {"ios": "https://dc.lft.to/lastmile_qr_scan", "android": "https://dc.lft.to/lastmile_qr_scan"}, "fusion_lon": 0.0, "lat": 38.917246666666664, "is_disabled": 0, "bike_id": "b365c45b52a1d4108fe4d1d568e69096", "fusion_lat": 0.0, "is_reserved": 0, "lon": -77.025855}, {"type": "electric_scooter", "name": "03352b0569f004580a02f2811304dc98", "rental_uris": {"ios": "https://dc.lft.to/lastmile_qr_scan", "android": "https://dc.lft.to/lastmile_qr_scan"}, "fusion_lon": 0.0, "lat": 38.898047, "is_disabled": 0, "bike_id": "03352b0569f004580a02f2811304dc98", "fusion_lat": 0.0, "is_reserved": 0, "lon": -77.0282595}, {"type": "electric_scooter", "name": "e37b479ef46fc3d2b790a2e41da84273", "rental_uris": {"ios": "https://dc.lft.to/lastmile_qr_scan", "android": "https://dc.lft.to/lastmile_qr_scan"}, "fusion_lon": 0.0, "lat": 38.900072, "is_disabled": 0, "bike_id": "e37b479ef46fc3d2b790a2e41da84273", "fusion_lat": 0.0, "is_reserved": 0, "lon": -77.04347983333334}, {"type": "electric_scooter", "name": "661fda8a6fc9329bb09fc522488a3d56", "rental_uris": {"ios": "https://dc.lft.to/lastmile_qr_scan", "android": "https://dc.lft.to/lastmile_qr_scan"}, "fusion_lon": 0.0, "lat": 38.92537166666666, "is_disabled": 0, "bike_id": "661fda8a6fc9329bb09fc522488a3d56", "fusion_lat": 0.0, "is_reserved": 0, "lon": -77.02278166666666}, {"type": "electric_scooter", "name": "4055319a39c3b58f1e2839cefa20844d", "rental_uris": {"ios": "https://dc.lft.to/lastmile_qr_scan", "android": "https://dc.lft.to/lastmile_qr_scan"}, "fusion_lon": 0.0, "lat": 38.92489416666667, "is_disabled": 0, "bike_id": "4055319a39c3b58f1e2839cefa20844d", "fusion_lat": 0.0, "is_reserved": 0, "lon": -77.03183583333333}, {"type": "electric_scooter", "name": "867cc5cb2dbba2c4133021cebe6e7998", "rental_uris": {"ios": "https://dc.lft.to/lastmile_qr_scan", "android": "https://dc.lft.to/lastmile_qr_scan"}, "fusion_lon": 0.0, "lat": 38.932401, "is_disabled": 0, "bike_id": "867cc5cb2dbba2c4133021cebe6e7998", "fusion_lat": 0.0, "is_reserved": 0, "lon": -76.99532383333333}, {"type": "electric_bike", "name": "f2ef372723a43ce400fb9aca1291b7bf", "rental_uris": {"ios": "https://dc.lft.to/lastmile_qr_scan", "android": "https://dc.lft.to/lastmile_qr_scan"}, "fusion_lon": 0.0, "lat": 38.95763983333333, "is_disabled": 0, "bike_id": "f2ef372723a43ce400fb9aca1291b7bf", "fusion_lat": 0.0, "is_reserved": 0, "lon": -76.98088883333334}, {"type": "electric_scooter", "name": "7e00142ed3508246f3b838eaa3130dda", "rental_uris": {"ios": "https://dc.lft.to/lastmile_qr_scan", "android": "https://dc.lft.to/lastmile_qr_scan"}, "fusion_lon": 0.0, "lat": 38.92077783333333, "is_disabled": 0, "bike_id": "7e00142ed3508246f3b838eaa3130dda", "fusion_lat": 0.0, "is_reserved": 0, "lon": -77.024122}, {"type": "electric_bike", "name": "284951c20650f0e11b148b005b8e46b8", "rental_uris": {"ios": "https://dc.lft.to/lastmile_qr_scan", "android": "https://dc.lft.to/lastmile_qr_scan"}, "fusion_lon": 0.0, "lat": 38.959731, "is_disabled": 0, "bike_id": "284951c20650f0e11b148b005b8e46b8", "fusion_lat": 0.0, "is_reserved": 0, "lon": -76.98161583333334}, {"type": "electric_scooter", "name": "db3005a60e0ec2deb916939d20feaf3d", "rental_uris": {"ios": "https://dc.lft.to/lastmile_qr_scan", "android": "https://dc.lft.to/lastmile_qr_scan"}, "fusion_lon": 0.0, "lat": 38.91942366666667, "is_disabled": 0, "bike_id": "db3005a60e0ec2deb916939d20feaf3d", "fusion_lat": 0.0, "is_reserved": 0, "lon": -77.04488333333333}, {"type": "electric_scooter", "name": "ade409cee56a8274358cf6377f72d812", "rental_uris": {"ios": "https://dc.lft.to/lastmile_qr_scan", "android": "https://dc.lft.to/lastmile_qr_scan"}, "fusion_lon": 0.0, "lat": 38.913381666666666, "is_disabled": 0, "bike_id": "ade409cee56a8274358cf6377f72d812", "fusion_lat": 0.0, "is_reserved": 0, "lon": -77.04868133333333}, {"type": "electric_scooter", "name": "fe8f30235dd3c97c625b3cd1331bf5b4", "rental_uris": {"ios": "https://dc.lft.to/lastmile_qr_scan", "android": "https://dc.lft.to/lastmile_qr_scan"}, "fusion_lon": 0.0, "lat": 38.89896866666667, "is_disabled": 0, "bike_id": "fe8f30235dd3c97c625b3cd1331bf5b4", "fusion_lat": 0.0, "is_reserved": 0, "lon": -77.0329095}, {"type": "electric_scooter", "name": "6daa34cde4f90b9cf21a02b5d23ed298", "rental_uris": {"ios": "https://dc.lft.to/lastmile_qr_scan", "android": "https://dc.lft.to/lastmile_qr_scan"}, "fusion_lon": 0.0, "lat": 38.892249166666666, "is_disabled": 0, "bike_id": "6daa34cde4f90b9cf21a02b5d23ed298", "fusion_lat": 0.0, "is_reserved": 0, "lon": -77.04868766666667}, {"type": "electric_scooter", "name": "f0e38a0626e81d095d81dfc6749db5a7", "rental_uris": {"ios": "https://dc.lft.to/lastmile_qr_scan", "android": "https://dc.lft.to/lastmile_qr_scan"}, "fusion_lon": 0.0, "lat": 38.89830116666667, "is_disabled": 0, "bike_id": "f0e38a0626e81d095d81dfc6749db5a7", "fusion_lat": 0.0, "is_reserved": 0, "lon": -77.03264033333333}, {"type": "electric_scooter", "name": "5ca69750e13b68bf51c74c1d1fe70c6f", "rental_uris": {"ios": "https://dc.lft.to/lastmile_qr_scan", "android": "https://dc.lft.to/lastmile_qr_scan"}, "fusion_lon": 0.0, "lat": 38.9318495, "is_disabled": 0, "bike_id": "5ca69750e13b68bf51c74c1d1fe70c6f", "fusion_lat": 0.0, "is_reserved": 0, "lon": -77.04295133333333}, {"type": "electric_scooter", "name": "978fe617b32daa8429afa8f5b729521d", "rental_uris": {"ios": "https://dc.lft.to/lastmile_qr_scan", "android": "https://dc.lft.to/lastmile_qr_scan"}, "fusion_lon": 0.0, "lat": 38.94446516666667, "is_disabled": 0, "bike_id": "978fe617b32daa8429afa8f5b729521d", "fusion_lat": 0.0, "is_reserved": 0, "lon": -77.06409333333333}, {"type": "electric_scooter", "name": "98ea8d2c1ac42d6bb05394c6615ec4d0", "rental_uris": {"ios": "https://dc.lft.to/lastmile_qr_scan", "android": "https://dc.lft.to/lastmile_qr_scan"}, "fusion_lon": 0.0, "lat": 38.898167, "is_disabled": 0, "bike_id": "98ea8d2c1ac42d6bb05394c6615ec4d0", "fusion_lat": 0.0, "is_reserved": 0, "lon": -77.02412733333334}, {"type": "electric_scooter", "name": "3263ff74f207cd660250edda38b5224f", "rental_uris": {"ios": "https://dc.lft.to/lastmile_qr_scan", "android": "https://dc.lft.to/lastmile_qr_scan"}, "fusion_lon": 0.0, "lat": 38.9041235, "is_disabled": 0, "bike_id": "3263ff74f207cd660250edda38b5224f", "fusion_lat": 0.0, "is_reserved": 0, "lon": -76.973316}, {"type": "electric_scooter", "name": "aca029f6f648cb07c950ed78d09d1fbf", "rental_uris": {"ios": "https://dc.lft.to/lastmile_qr_scan", "android": "https://dc.lft.to/lastmile_qr_scan"}, "fusion_lon": 0.0, "lat": 38.8922255, "is_disabled": 0, "bike_id": "aca029f6f648cb07c950ed78d09d1fbf", "fusion_lat": 0.0, "is_reserved": 0, "lon": -77.04511916666667}, {"type": "electric_scooter", "name": "2d7683af6e3a7f614e3e1810d4ea044b", "rental_uris": {"ios": "https://dc.lft.to/lastmile_qr_scan", "android": "https://dc.lft.to/lastmile_qr_scan"}, "fusion_lon": 0.0, "lat": 38.907853333333335, "is_disabled": 0, "bike_id": "2d7683af6e3a7f614e3e1810d4ea044b", "fusion_lat": 0.0, "is_reserved": 0, "lon": -77.03286183333333}, {"type": "electric_scooter", "name": "2f255358c39de88e8248ca77dc47dc1e", "rental_uris": {"ios": "https://dc.lft.to/lastmile_qr_scan", "android": "https://dc.lft.to/lastmile_qr_scan"}, "fusion_lon": 0.0, "lat": 38.8874925, "is_disabled": 0, "bike_id": "2f255358c39de88e8248ca77dc47dc1e", "fusion_lat": 0.0, "is_reserved": 0, "lon": -76.9835485}, {"type": "electric_scooter", "name": "6ade2275bb2ec99e54efe5036362bd21", "rental_uris": {"ios": "https://dc.lft.to/lastmile_qr_scan", "android": "https://dc.lft.to/lastmile_qr_scan"}, "fusion_lon": 0.0, "lat": 38.892264833333336, "is_disabled": 0, "bike_id": "6ade2275bb2ec99e54efe5036362bd21", "fusion_lat": 0.0, "is_reserved": 0, "lon": -77.02010116666666}, {"type": "electric_scooter", "name": "1a8931800e0ecf335273d27978c330cc", "rental_uris": {"ios": "https://dc.lft.to/lastmile_qr_scan", "android": "https://dc.lft.to/lastmile_qr_scan"}, "fusion_lon": 0.0, "lat": 38.90114, "is_disabled": 0, "bike_id": "1a8931800e0ecf335273d27978c330cc", "fusion_lat": 0.0, "is_reserved": 0, "lon": -77.04997233333333}, {"type": "electric_scooter", "name": "9b60383babf91115b0ba7d306c09a57e", "rental_uris": {"ios": "https://dc.lft.to/lastmile_qr_scan", "android": "https://dc.lft.to/lastmile_qr_scan"}, "fusion_lon": 0.0, "lat": 38.897335166666664, "is_disabled": 0, "bike_id": "9b60383babf91115b0ba7d306c09a57e", "fusion_lat": 0.0, "is_reserved": 0, "lon": -77.002138}, {"type": "electric_scooter", "name": "cac6dd5c50cb084577b909a149b86476", "rental_uris": {"ios": "https://dc.lft.to/lastmile_qr_scan", "android": "https://dc.lft.to/lastmile_qr_scan"}, "fusion_lon": 0.0, "lat": 38.887318666666665, "is_disabled": 0, "bike_id": "cac6dd5c50cb084577b909a149b86476", "fusion_lat": 0.0, "is_reserved": 0, "lon": -77.02583133333333}, {"type": "electric_scooter", "name": "3e494e8561faed4a7330b202b98c9fa0", "rental_uris": {"ios": "https://dc.lft.to/lastmile_qr_scan", "android": "https://dc.lft.to/lastmile_qr_scan"}, "fusion_lon": 0.0, "lat": 38.90384316666667, "is_disabled": 0, "bike_id": "3e494e8561faed4a7330b202b98c9fa0", "fusion_lat": 0.0, "is_reserved": 0, "lon": -77.01638983333333}, {"type": "electric_scooter", "name": "73a014e038e7254b02d73249fa4487f0", "rental_uris": {"ios": "https://dc.lft.to/lastmile_qr_scan", "android": "https://dc.lft.to/lastmile_qr_scan"}, "fusion_lon": 0.0, "lat": 38.86686383333333, "is_disabled": 0, "bike_id": "73a014e038e7254b02d73249fa4487f0", "fusion_lat": 0.0, "is_reserved": 0, "lon": -76.98569666666667}, {"type": "electric_scooter", "name": "3cd3af16c21a400e5632641b45b1550c", "rental_uris": {"ios": "https://dc.lft.to/lastmile_qr_scan", "android": "https://dc.lft.to/lastmile_qr_scan"}, "fusion_lon": 0.0, "lat": 38.911275833333335, "is_disabled": 0, "bike_id": "3cd3af16c21a400e5632641b45b1550c", "fusion_lat": 0.0, "is_reserved": 0, "lon": -77.035664}, {"type": "electric_scooter", "name": "9474b3a4404b9c83e2cf80421c111b9d", "rental_uris": {"ios": "https://dc.lft.to/lastmile_qr_scan", "android": "https://dc.lft.to/lastmile_qr_scan"}, "fusion_lon": 0.0, "lat": 38.901400833333334, "is_disabled": 0, "bike_id": "9474b3a4404b9c83e2cf80421c111b9d", "fusion_lat": 0.0, "is_reserved": 0, "lon": -77.035474}, {"type": "electric_scooter", "name": "535da1a1aac36116a97009b499d85a58", "rental_uris": {"ios": "https://dc.lft.to/lastmile_qr_scan", "android": "https://dc.lft.to/lastmile_qr_scan"}, "fusion_lon": 0.0, "lat": 38.908409166666665, "is_disabled": 0, "bike_id": "535da1a1aac36116a97009b499d85a58", "fusion_lat": 0.0, "is_reserved": 0, "lon": -77.05577883333333}, {"type": "electric_scooter", "name": "7eaeda449c91bac4677a21652ab7355a", "rental_uris": {"ios": "https://dc.lft.to/lastmile_qr_scan", "android": "https://dc.lft.to/lastmile_qr_scan"}, "fusion_lon": 0.0, "lat": 38.919204666666666, "is_disabled": 0, "bike_id": "7eaeda449c91bac4677a21652ab7355a", "fusion_lat": 0.0, "is_reserved": 0, "lon": -77.0316545}, {"type": "electric_scooter", "name": "0493fedb6d10d0fb4855b8cea04c9815", "rental_uris": {"ios": "https://dc.lft.to/lastmile_qr_scan", "android": "https://dc.lft.to/lastmile_qr_scan"}, "fusion_lon": 0.0, "lat": 38.90599683333333, "is_disabled": 0, "bike_id": "0493fedb6d10d0fb4855b8cea04c9815", "fusion_lat": 0.0, "is_reserved": 0, "lon": -77.06563433333334}, {"type": "electric_scooter", "name": "7f7b6893bfef5a6e2d54b1cea8fa08d7", "rental_uris": {"ios": "https://dc.lft.to/lastmile_qr_scan", "android": "https://dc.lft.to/lastmile_qr_scan"}, "fusion_lon": 0.0, "lat": 38.91922, "is_disabled": 0, "bike_id": "7f7b6893bfef5a6e2d54b1cea8fa08d7", "fusion_lat": 0.0, "is_reserved": 0, "lon": -77.03173116666666}, {"type": "electric_scooter", "name": "577a42c53bd5e6577be638ed213b25af", "rental_uris": {"ios": "https://dc.lft.to/lastmile_qr_scan", "android": "https://dc.lft.to/lastmile_qr_scan"}, "fusion_lon": 0.0, "lat": 38.886426, "is_disabled": 0, "bike_id": "577a42c53bd5e6577be638ed213b25af", "fusion_lat": 0.0, "is_reserved": 0, "lon": -77.015455}, {"type": "electric_scooter", "name": "541aba8568664d6b3a3f16e9264456cd", "rental_uris": {"ios": "https://dc.lft.to/lastmile_qr_scan", "android": "https://dc.lft.to/lastmile_qr_scan"}, "fusion_lon": 0.0, "lat": 38.90564716666667, "is_disabled": 0, "bike_id": "541aba8568664d6b3a3f16e9264456cd", "fusion_lat": 0.0, "is_reserved": 0, "lon": -77.00601183333333}, {"type": "electric_scooter", "name": "d4fcbe306d3b690b42af146c8eeecad8", "rental_uris": {"ios": "https://dc.lft.to/lastmile_qr_scan", "android": "https://dc.lft.to/lastmile_qr_scan"}, "fusion_lon": 0.0, "lat": 38.876688333333334, "is_disabled": 0, "bike_id": "d4fcbe306d3b690b42af146c8eeecad8", "fusion_lat": 0.0, "is_reserved": 0, "lon": -77.00579633333334}, {"type": "electric_scooter", "name": "0042ecb75db73715b8d3592e0d4b5b63", "rental_uris": {"ios": "https://dc.lft.to/lastmile_qr_scan", "android": "https://dc.lft.to/lastmile_qr_scan"}, "fusion_lon": 0.0, "lat": 38.916957333333336, "is_disabled": 0, "bike_id": "0042ecb75db73715b8d3592e0d4b5b63", "fusion_lat": 0.0, "is_reserved": 0, "lon": -77.0259675}, {"type": "electric_scooter", "name": "34dea1835afbf3d228fa38bc66a235cc", "rental_uris": {"ios": "https://dc.lft.to/lastmile_qr_scan", "android": "https://dc.lft.to/lastmile_qr_scan"}, "fusion_lon": 0.0, "lat": 38.85465583333333, "is_disabled": 0, "bike_id": "34dea1835afbf3d228fa38bc66a235cc", "fusion_lat": 0.0, "is_reserved": 0, "lon": -76.97233766666666}, {"type": "electric_scooter", "name": "2922d2c27c8cd3b86d3f4b238d506f83", "rental_uris": {"ios": "https://dc.lft.to/lastmile_qr_scan", "android": "https://dc.lft.to/lastmile_qr_scan"}, "fusion_lon": 0.0, "lat": 38.920803666666664, "is_disabled": 0, "bike_id": "2922d2c27c8cd3b86d3f4b238d506f83", "fusion_lat": 0.0, "is_reserved": 0, "lon": -77.03216983333333}, {"type": "electric_scooter", "name": "aa1c49293fa52840196fe491fb8ffef9", "rental_uris": {"ios": "https://dc.lft.to/lastmile_qr_scan", "android": "https://dc.lft.to/lastmile_qr_scan"}, "fusion_lon": 0.0, "lat": 38.88774983333333, "is_disabled": 0, "bike_id": "aa1c49293fa52840196fe491fb8ffef9", "fusion_lat": 0.0, "is_reserved": 0, "lon": -76.9774985}, {"type": "electric_scooter", "name": "0031e7641c1210c8e84e9d660bc3bc6d", "rental_uris": {"ios": "https://dc.lft.to/lastmile_qr_scan", "android": "https://dc.lft.to/lastmile_qr_scan"}, "fusion_lon": 0.0, "lat": 38.919153666666666, "is_disabled": 0, "bike_id": "0031e7641c1210c8e84e9d660bc3bc6d", "fusion_lat": 0.0, "is_reserved": 0, "lon": -77.03165016666667}, {"type": "electric_scooter", "name": "373bf2fd4b2eed7da30916dcf7a81a33", "rental_uris": {"ios": "https://dc.lft.to/lastmile_qr_scan", "android": "https://dc.lft.to/lastmile_qr_scan"}, "fusion_lon": 0.0, "lat": 38.8904565, "is_disabled": 0, "bike_id": "373bf2fd4b2eed7da30916dcf7a81a33", "fusion_lat": 0.0, "is_reserved": 0, "lon": -76.990434}, {"type": "electric_bike", "name": "1a829ce2ff637c248ef57df97514ea97", "rental_uris": {"ios": "https://dc.lft.to/lastmile_qr_scan", "android": "https://dc.lft.to/lastmile_qr_scan"}, "fusion_lon": 0.0, "lat": 39.03413616666667, "is_disabled": 0, "bike_id": "1a829ce2ff637c248ef57df97514ea97", "fusion_lat": 0.0, "is_reserved": 0, "lon": -77.04172383333334}, {"type": "electric_scooter", "name": "9e6341459d775bc24117c92e36999c04", "rental_uris": {"ios": "https://dc.lft.to/lastmile_qr_scan", "android": "https://dc.lft.to/lastmile_qr_scan"}, "fusion_lon": 0.0, "lat": 38.90693, "is_disabled": 0, "bike_id": "9e6341459d775bc24117c92e36999c04", "fusion_lat": 0.0, "is_reserved": 0, "lon": -76.98495783333334}, {"type": "electric_scooter", "name": "3056b8e70a5cd3a211719217874a8451", "rental_uris": {"ios": "https://dc.lft.to/lastmile_qr_scan", "android": "https://dc.lft.to/lastmile_qr_scan"}, "fusion_lon": 0.0, "lat": 38.8849195, "is_disabled": 0, "bike_id": "3056b8e70a5cd3a211719217874a8451", "fusion_lat": 0.0, "is_reserved": 0, "lon": -77.00712483333334}, {"type": "electric_scooter", "name": "dcdc1da2ddb45561975000ecf405c954", "rental_uris": {"ios": "https://dc.lft.to/lastmile_qr_scan", "android": "https://dc.lft.to/lastmile_qr_scan"}, "fusion_lon": 0.0, "lat": 38.915391166666666, "is_disabled": 0, "bike_id": "dcdc1da2ddb45561975000ecf405c954", "fusion_lat": 0.0, "is_reserved": 0, "lon": -77.012198}, {"type": "electric_scooter", "name": "442c1fdc264043f55bdd8fe2bc2638b3", "rental_uris": {"ios": "https://dc.lft.to/lastmile_qr_scan", "android": "https://dc.lft.to/lastmile_qr_scan"}, "fusion_lon": 0.0, "lat": 38.89800816666666, "is_disabled": 0, "bike_id": "442c1fdc264043f55bdd8fe2bc2638b3", "fusion_lat": 0.0, "is_reserved": 0, "lon": -76.9312115}, {"type": "electric_scooter", "name": "4db831ac4f44cee23cbf56f09de87e4a", "rental_uris": {"ios": "https://dc.lft.to/lastmile_qr_scan", "android": "https://dc.lft.to/lastmile_qr_scan"}, "fusion_lon": 0.0, "lat": 38.8650585, "is_disabled": 0, "bike_id": "4db831ac4f44cee23cbf56f09de87e4a", "fusion_lat": 0.0, "is_reserved": 0, "lon": -76.99001283333334}, {"type": "electric_scooter", "name": "4fcab6436b0e31a3c403223b4f89933d", "rental_uris": {"ios": "https://dc.lft.to/lastmile_qr_scan", "android": "https://dc.lft.to/lastmile_qr_scan"}, "fusion_lon": 0.0, "lat": 38.90275416666667, "is_disabled": 0, "bike_id": "4fcab6436b0e31a3c403223b4f89933d", "fusion_lat": 0.0, "is_reserved": 0, "lon": -77.03505616666666}, {"type": "electric_scooter", "name": "cfd014e0a3c8962669b5600f81fc1ffb", "rental_uris": {"ios": "https://dc.lft.to/lastmile_qr_scan", "android": "https://dc.lft.to/lastmile_qr_scan"}, "fusion_lon": 0.0, "lat": 38.915603, "is_disabled": 0, "bike_id": "cfd014e0a3c8962669b5600f81fc1ffb", "fusion_lat": 0.0, "is_reserved": 0, "lon": -77.02354033333333}, {"type": "electric_scooter", "name": "eec40b781d54712b4d33991a7df85fd9", "rental_uris": {"ios": "https://dc.lft.to/lastmile_qr_scan", "android": "https://dc.lft.to/lastmile_qr_scan"}, "fusion_lon": 0.0, "lat": 38.892259833333334, "is_disabled": 0, "bike_id": "eec40b781d54712b4d33991a7df85fd9", "fusion_lat": 0.0, "is_reserved": 0, "lon": -77.03337133333333}, {"type": "electric_scooter", "name": "b0d0603cfbeb691d673eac7d840bda7d", "rental_uris": {"ios": "https://dc.lft.to/lastmile_qr_scan", "android": "https://dc.lft.to/lastmile_qr_scan"}, "fusion_lon": 0.0, "lat": 38.8984395, "is_disabled": 0, "bike_id": "b0d0603cfbeb691d673eac7d840bda7d", "fusion_lat": 0.0, "is_reserved": 0, "lon": -77.00751833333334}, {"type": "electric_scooter", "name": "3c33779c97aa03d211926f8616693f08", "rental_uris": {"ios": "https://dc.lft.to/lastmile_qr_scan", "android": "https://dc.lft.to/lastmile_qr_scan"}, "fusion_lon": 0.0, "lat": 38.901617333333334, "is_disabled": 0, "bike_id": "3c33779c97aa03d211926f8616693f08", "fusion_lat": 0.0, "is_reserved": 0, "lon": -77.01328983333333}, {"type": "electric_scooter", "name": "248f8a38033cdec1bb5469ae3d96083b", "rental_uris": {"ios": "https://dc.lft.to/lastmile_qr_scan", "android": "https://dc.lft.to/lastmile_qr_scan"}, "fusion_lon": 0.0, "lat": 38.912390333333335, "is_disabled": 0, "bike_id": "248f8a38033cdec1bb5469ae3d96083b", "fusion_lat": 0.0, "is_reserved": 0, "lon": -76.98788}, {"type": "electric_scooter", "name": "2d498f78e56842c586fa4e58cf563a96", "rental_uris": {"ios": "https://dc.lft.to/lastmile_qr_scan", "android": "https://dc.lft.to/lastmile_qr_scan"}, "fusion_lon": 0.0, "lat": 38.895335833333334, "is_disabled": 0, "bike_id": "2d498f78e56842c586fa4e58cf563a96", "fusion_lat": 0.0, "is_reserved": 0, "lon": -77.00217666666667}, {"type": "electric_scooter", "name": "9d8ccec3c00a9ebed7bf093a35fa773e", "rental_uris": {"ios": "https://dc.lft.to/lastmile_qr_scan", "android": "https://dc.lft.to/lastmile_qr_scan"}, "fusion_lon": 0.0, "lat": 38.9298245, "is_disabled": 0, "bike_id": "9d8ccec3c00a9ebed7bf093a35fa773e", "fusion_lat": 0.0, "is_reserved": 0, "lon": -77.05495916666666}, {"type": "electric_scooter", "name": "81f269dcfce45ed2760705d8ed526ae5", "rental_uris": {"ios": "https://dc.lft.to/lastmile_qr_scan", "android": "https://dc.lft.to/lastmile_qr_scan"}, "fusion_lon": 0.0, "lat": 38.90030983333333, "is_disabled": 0, "bike_id": "81f269dcfce45ed2760705d8ed526ae5", "fusion_lat": 0.0, "is_reserved": 0, "lon": -77.011807}, {"type": "electric_bike", "name": "79f19a44d427b93b8cb966a5e94ffc3f", "rental_uris": {"ios": "https://dc.lft.to/lastmile_qr_scan", "android": "https://dc.lft.to/lastmile_qr_scan"}, "fusion_lon": 0.0, "lat": 38.859081333333336, "is_disabled": 0, "bike_id": "79f19a44d427b93b8cb966a5e94ffc3f", "fusion_lat": 0.0, "is_reserved": 0, "lon": -77.09553716666667}, {"type": "electric_scooter", "name": "5767c0094a63e791449a0b4f8ada60ee", "rental_uris": {"ios": "https://dc.lft.to/lastmile_qr_scan", "android": "https://dc.lft.to/lastmile_qr_scan"}, "fusion_lon": 0.0, "lat": 38.913461833333336, "is_disabled": 0, "bike_id": "5767c0094a63e791449a0b4f8ada60ee", "fusion_lat": 0.0, "is_reserved": 0, "lon": -77.0317315}, {"type": "electric_scooter", "name": "9a2f13753b61d73f4c9e719bd9c465ce", "rental_uris": {"ios": "https://dc.lft.to/lastmile_qr_scan", "android": "https://dc.lft.to/lastmile_qr_scan"}, "fusion_lon": 0.0, "lat": 38.892261166666664, "is_disabled": 0, "bike_id": "9a2f13753b61d73f4c9e719bd9c465ce", "fusion_lat": 0.0, "is_reserved": 0, "lon": -77.04375716666667}, {"type": "electric_scooter", "name": "aa6203c2dd25f0280d99ed8632b6720f", "rental_uris": {"ios": "https://dc.lft.to/lastmile_qr_scan", "android": "https://dc.lft.to/lastmile_qr_scan"}, "fusion_lon": 0.0, "lat": 38.892132, "is_disabled": 0, "bike_id": "aa6203c2dd25f0280d99ed8632b6720f", "fusion_lat": 0.0, "is_reserved": 0, "lon": -76.9971335}, {"type": "electric_scooter", "name": "6ee06cae5dd99f52bd1956650d35e49e", "rental_uris": {"ios": "https://dc.lft.to/lastmile_qr_scan", "android": "https://dc.lft.to/lastmile_qr_scan"}, "fusion_lon": 0.0, "lat": 38.93612533333334, "is_disabled": 0, "bike_id": "6ee06cae5dd99f52bd1956650d35e49e", "fusion_lat": 0.0, "is_reserved": 0, "lon": -77.05858816666667}, {"type": "electric_scooter", "name": "9c638f2296e9e816a8bfb8d6648d82f2", "rental_uris": {"ios": "https://dc.lft.to/lastmile_qr_scan", "android": "https://dc.lft.to/lastmile_qr_scan"}, "fusion_lon": 0.0, "lat": 38.9259685, "is_disabled": 0, "bike_id": "9c638f2296e9e816a8bfb8d6648d82f2", "fusion_lat": 0.0, "is_reserved": 0, "lon": -77.02965283333333}, {"type": "electric_scooter", "name": "cb371aa91de2ec7fdeb9fe305faadde3", "rental_uris": {"ios": "https://dc.lft.to/lastmile_qr_scan", "android": "https://dc.lft.to/lastmile_qr_scan"}, "fusion_lon": 0.0, "lat": 38.931348166666666, "is_disabled": 0, "bike_id": "cb371aa91de2ec7fdeb9fe305faadde3", "fusion_lat": 0.0, "is_reserved": 0, "lon": -77.078451}, {"type": "electric_scooter", "name": "1a7180f9b3c643d07d2667d042e4afd9", "rental_uris": {"ios": "https://dc.lft.to/lastmile_qr_scan", "android": "https://dc.lft.to/lastmile_qr_scan"}, "fusion_lon": 0.0, "lat": 38.907250833333336, "is_disabled": 0, "bike_id": "1a7180f9b3c643d07d2667d042e4afd9", "fusion_lat": 0.0, "is_reserved": 0, "lon": -77.02502316666667}, {"type": "electric_scooter", "name": "29aa2744f8ac9c2f94a8b0d27a10cda0", "rental_uris": {"ios": "https://dc.lft.to/lastmile_qr_scan", "android": "https://dc.lft.to/lastmile_qr_scan"}, "fusion_lon": 0.0, "lat": 38.88510566666667, "is_disabled": 0, "bike_id": "29aa2744f8ac9c2f94a8b0d27a10cda0", "fusion_lat": 0.0, "is_reserved": 0, "lon": -77.02074766666667}, {"type": "electric_scooter", "name": "caf2c4a21a023e6b9eff4c7e3109f96d", "rental_uris": {"ios": "https://dc.lft.to/lastmile_qr_scan", "android": "https://dc.lft.to/lastmile_qr_scan"}, "fusion_lon": 0.0, "lat": 38.944523833333335, "is_disabled": 0, "bike_id": "caf2c4a21a023e6b9eff4c7e3109f96d", "fusion_lat": 0.0, "is_reserved": 0, "lon": -77.023409}, {"type": "electric_scooter", "name": "3210a58da357a9ce407bc9961796c42e", "rental_uris": {"ios": "https://dc.lft.to/lastmile_qr_scan", "android": "https://dc.lft.to/lastmile_qr_scan"}, "fusion_lon": 0.0, "lat": 38.89226566666667, "is_disabled": 0, "bike_id": "3210a58da357a9ce407bc9961796c42e", "fusion_lat": 0.0, "is_reserved": 0, "lon": -77.04686966666667}, {"type": "electric_scooter", "name": "e11df0b9bf2c98e2aaacec684c2e569f", "rental_uris": {"ios": "https://dc.lft.to/lastmile_qr_scan", "android": "https://dc.lft.to/lastmile_qr_scan"}, "fusion_lon": 0.0, "lat": 38.866376333333335, "is_disabled": 0, "bike_id": "e11df0b9bf2c98e2aaacec684c2e569f", "fusion_lat": 0.0, "is_reserved": 0, "lon": -76.98721583333334}, {"type": "electric_scooter", "name": "baa65ba091ccb5910c8247158c879008", "rental_uris": {"ios": "https://dc.lft.to/lastmile_qr_scan", "android": "https://dc.lft.to/lastmile_qr_scan"}, "fusion_lon": 0.0, "lat": 38.88743633333333, "is_disabled": 0, "bike_id": "baa65ba091ccb5910c8247158c879008", "fusion_lat": 0.0, "is_reserved": 0, "lon": -77.0317065}, {"type": "electric_scooter", "name": "f8fc0047505b6574aa3613b1b2721f1b", "rental_uris": {"ios": "https://dc.lft.to/lastmile_qr_scan", "android": "https://dc.lft.to/lastmile_qr_scan"}, "fusion_lon": 0.0, "lat": 38.931755, "is_disabled": 0, "bike_id": "f8fc0047505b6574aa3613b1b2721f1b", "fusion_lat": 0.0, "is_reserved": 0, "lon": -77.03669483333333}, {"type": "electric_scooter", "name": "ecf33eb5f6bc868bb3fcf86902a84773", "rental_uris": {"ios": "https://dc.lft.to/lastmile_qr_scan", "android": "https://dc.lft.to/lastmile_qr_scan"}, "fusion_lon": 0.0, "lat": 38.907226333333334, "is_disabled": 0, "bike_id": "ecf33eb5f6bc868bb3fcf86902a84773", "fusion_lat": 0.0, "is_reserved": 0, "lon": -77.068946}, {"type": "electric_scooter", "name": "5d1fae20b5cdefc9bb7ff73647a83bf2", "rental_uris": {"ios": "https://dc.lft.to/lastmile_qr_scan", "android": "https://dc.lft.to/lastmile_qr_scan"}, "fusion_lon": 0.0, "lat": 38.896148333333336, "is_disabled": 0, "bike_id": "5d1fae20b5cdefc9bb7ff73647a83bf2", "fusion_lat": 0.0, "is_reserved": 0, "lon": -77.048113}, {"type": "electric_scooter", "name": "06c1a6df9b38f1ec379a54770b9a2c56", "rental_uris": {"ios": "https://dc.lft.to/lastmile_qr_scan", "android": "https://dc.lft.to/lastmile_qr_scan"}, "fusion_lon": 0.0, "lat": 38.926621, "is_disabled": 0, "bike_id": "06c1a6df9b38f1ec379a54770b9a2c56", "fusion_lat": 0.0, "is_reserved": 0, "lon": -77.03710716666667}, {"type": "electric_scooter", "name": "116409dd42f78d35ba73cdfddf5cc89a", "rental_uris": {"ios": "https://dc.lft.to/lastmile_qr_scan", "android": "https://dc.lft.to/lastmile_qr_scan"}, "fusion_lon": 0.0, "lat": 38.980631333333335, "is_disabled": 0, "bike_id": "116409dd42f78d35ba73cdfddf5cc89a", "fusion_lat": 0.0, "is_reserved": 0, "lon": -77.02637866666667}, {"type": "electric_scooter", "name": "9d0e63657c4c725b74af166e242e2ccd", "rental_uris": {"ios": "https://dc.lft.to/lastmile_qr_scan", "android": "https://dc.lft.to/lastmile_qr_scan"}, "fusion_lon": 0.0, "lat": 38.939047333333335, "is_disabled": 0, "bike_id": "9d0e63657c4c725b74af166e242e2ccd", "fusion_lat": 0.0, "is_reserved": 0, "lon": -77.03341016666667}, {"type": "electric_scooter", "name": "414242d2c933c32c4c9a35f4feea91d1", "rental_uris": {"ios": "https://dc.lft.to/lastmile_qr_scan", "android": "https://dc.lft.to/lastmile_qr_scan"}, "fusion_lon": 0.0, "lat": 38.9427715, "is_disabled": 0, "bike_id": "414242d2c933c32c4c9a35f4feea91d1", "fusion_lat": 0.0, "is_reserved": 0, "lon": -77.01263933333334}, {"type": "electric_bike", "name": "438bd037d1151055f5f7302e26cd39f5", "rental_uris": {"ios": "https://dc.lft.to/lastmile_qr_scan", "android": "https://dc.lft.to/lastmile_qr_scan"}, "fusion_lon": 0.0, "lat": 38.835833, "is_disabled": 0, "bike_id": "438bd037d1151055f5f7302e26cd39f5", "fusion_lat": 0.0, "is_reserved": 0, "lon": -77.0012485}, {"type": "electric_scooter", "name": "1a9efc9e8f2fa4c35d95f6282e9b71c7", "rental_uris": {"ios": "https://dc.lft.to/lastmile_qr_scan", "android": "https://dc.lft.to/lastmile_qr_scan"}, "fusion_lon": 0.0, "lat": 38.927633666666665, "is_disabled": 0, "bike_id": "1a9efc9e8f2fa4c35d95f6282e9b71c7", "fusion_lat": 0.0, "is_reserved": 0, "lon": -77.021373}, {"type": "electric_scooter", "name": "6435c30435f1b33dbe6eab0e06294c47", "rental_uris": {"ios": "https://dc.lft.to/lastmile_qr_scan", "android": "https://dc.lft.to/lastmile_qr_scan"}, "fusion_lon": 0.0, "lat": 38.895356166666666, "is_disabled": 0, "bike_id": "6435c30435f1b33dbe6eab0e06294c47", "fusion_lat": 0.0, "is_reserved": 0, "lon": -77.02823266666667}, {"type": "electric_scooter", "name": "4da7a521cfb8834f9d12c362127089c0", "rental_uris": {"ios": "https://dc.lft.to/lastmile_qr_scan", "android": "https://dc.lft.to/lastmile_qr_scan"}, "fusion_lon": 0.0, "lat": 38.908044, "is_disabled": 0, "bike_id": "4da7a521cfb8834f9d12c362127089c0", "fusion_lat": 0.0, "is_reserved": 0, "lon": -77.04347266666667}, {"type": "electric_scooter", "name": "1334d5f92b3110dc57be8afdcd59e1b5", "rental_uris": {"ios": "https://dc.lft.to/lastmile_qr_scan", "android": "https://dc.lft.to/lastmile_qr_scan"}, "fusion_lon": 0.0, "lat": 38.89560766666666, "is_disabled": 0, "bike_id": "1334d5f92b3110dc57be8afdcd59e1b5", "fusion_lat": 0.0, "is_reserved": 0, "lon": -77.03958733333333}, {"type": "electric_scooter", "name": "d3ff5fb5a2c67387d378bf882b751b74", "rental_uris": {"ios": "https://dc.lft.to/lastmile_qr_scan", "android": "https://dc.lft.to/lastmile_qr_scan"}, "fusion_lon": 0.0, "lat": 38.909760166666665, "is_disabled": 0, "bike_id": "d3ff5fb5a2c67387d378bf882b751b74", "fusion_lat": 0.0, "is_reserved": 0, "lon": -77.02265066666666}, {"type": "electric_scooter", "name": "97ebef61fb4359076f0cfa1e9b8a9abb", "rental_uris": {"ios": "https://dc.lft.to/lastmile_qr_scan", "android": "https://dc.lft.to/lastmile_qr_scan"}, "fusion_lon": 0.0, "lat": 38.894293, "is_disabled": 0, "bike_id": "97ebef61fb4359076f0cfa1e9b8a9abb", "fusion_lat": 0.0, "is_reserved": 0, "lon": -77.000905}, {"type": "electric_scooter", "name": "9fffaa31716c16abf0d8be6e0db3b52a", "rental_uris": {"ios": "https://dc.lft.to/lastmile_qr_scan", "android": "https://dc.lft.to/lastmile_qr_scan"}, "fusion_lon": 0.0, "lat": 38.92332366666667, "is_disabled": 0, "bike_id": "9fffaa31716c16abf0d8be6e0db3b52a", "fusion_lat": 0.0, "is_reserved": 0, "lon": -77.02962616666667}, {"type": "electric_bike", "name": "8ff3349e083e2225597f3e3cf298ae73", "rental_uris": {"ios": "https://dc.lft.to/lastmile_qr_scan", "android": "https://dc.lft.to/lastmile_qr_scan"}, "fusion_lon": 0.0, "lat": 38.90310083333333, "is_disabled": 0, "bike_id": "8ff3349e083e2225597f3e3cf298ae73", "fusion_lat": 0.0, "is_reserved": 0, "lon": -76.9764995}, {"type": "electric_scooter", "name": "f0ce5df2b1a62e5962cfff5d2f51b943", "rental_uris": {"ios": "https://dc.lft.to/lastmile_qr_scan", "android": "https://dc.lft.to/lastmile_qr_scan"}, "fusion_lon": 0.0, "lat": 38.91131583333333, "is_disabled": 0, "bike_id": "f0ce5df2b1a62e5962cfff5d2f51b943", "fusion_lat": 0.0, "is_reserved": 0, "lon": -77.04350366666667}, {"type": "electric_scooter", "name": "13d93fb11e2fd9e2bae9ff3511be82c7", "rental_uris": {"ios": "https://dc.lft.to/lastmile_qr_scan", "android": "https://dc.lft.to/lastmile_qr_scan"}, "fusion_lon": 0.0, "lat": 38.902371, "is_disabled": 0, "bike_id": "13d93fb11e2fd9e2bae9ff3511be82c7", "fusion_lat": 0.0, "is_reserved": 0, "lon": -77.03775683333333}, {"type": "electric_scooter", "name": "1bd427c13015d98d9f3af4cc68a24aa3", "rental_uris": {"ios": "https://dc.lft.to/lastmile_qr_scan", "android": "https://dc.lft.to/lastmile_qr_scan"}, "fusion_lon": 0.0, "lat": 38.90549166666667, "is_disabled": 0, "bike_id": "1bd427c13015d98d9f3af4cc68a24aa3", "fusion_lat": 0.0, "is_reserved": 0, "lon": -77.051468}, {"type": "electric_scooter", "name": "29f0ab38d876f0b97921406831b06b01", "rental_uris": {"ios": "https://dc.lft.to/lastmile_qr_scan", "android": "https://dc.lft.to/lastmile_qr_scan"}, "fusion_lon": 0.0, "lat": 38.912726, "is_disabled": 0, "bike_id": "29f0ab38d876f0b97921406831b06b01", "fusion_lat": 0.0, "is_reserved": 0, "lon": -77.01294266666666}, {"type": "electric_scooter", "name": "45b71c3d8ea7a01db0a859a3ce72e2a4", "rental_uris": {"ios": "https://dc.lft.to/lastmile_qr_scan", "android": "https://dc.lft.to/lastmile_qr_scan"}, "fusion_lon": 0.0, "lat": 38.8862425, "is_disabled": 0, "bike_id": "45b71c3d8ea7a01db0a859a3ce72e2a4", "fusion_lat": 0.0, "is_reserved": 0, "lon": -77.01251566666667}, {"type": "electric_scooter", "name": "f58173a06a03b8afda5ac6c66c18cbb4", "rental_uris": {"ios": "https://dc.lft.to/lastmile_qr_scan", "android": "https://dc.lft.to/lastmile_qr_scan"}, "fusion_lon": 0.0, "lat": 38.921015833333335, "is_disabled": 0, "bike_id": "f58173a06a03b8afda5ac6c66c18cbb4", "fusion_lat": 0.0, "is_reserved": 0, "lon": -77.025202}, {"type": "electric_scooter", "name": "96b1a67b10db9fc934bcef743f996088", "rental_uris": {"ios": "https://dc.lft.to/lastmile_qr_scan", "android": "https://dc.lft.to/lastmile_qr_scan"}, "fusion_lon": 0.0, "lat": 38.883143, "is_disabled": 0, "bike_id": "96b1a67b10db9fc934bcef743f996088", "fusion_lat": 0.0, "is_reserved": 0, "lon": -77.0175315}, {"type": "electric_scooter", "name": "0ec4aceae8bad9b8cd27d011e7e6cf49", "rental_uris": {"ios": "https://dc.lft.to/lastmile_qr_scan", "android": "https://dc.lft.to/lastmile_qr_scan"}, "fusion_lon": 0.0, "lat": 38.905814166666666, "is_disabled": 0, "bike_id": "0ec4aceae8bad9b8cd27d011e7e6cf49", "fusion_lat": 0.0, "is_reserved": 0, "lon": -77.02659}, {"type": "electric_scooter", "name": "d3c1463ce8d34d599666097ad3380c07", "rental_uris": {"ios": "https://dc.lft.to/lastmile_qr_scan", "android": "https://dc.lft.to/lastmile_qr_scan"}, "fusion_lon": 0.0, "lat": 38.905730166666665, "is_disabled": 0, "bike_id": "d3c1463ce8d34d599666097ad3380c07", "fusion_lat": 0.0, "is_reserved": 0, "lon": -77.04360983333333}, {"type": "electric_bike", "name": "1c02738c26d7763cf337bc303385c917", "rental_uris": {"ios": "https://dc.lft.to/lastmile_qr_scan", "android": "https://dc.lft.to/lastmile_qr_scan"}, "fusion_lon": 0.0, "lat": 38.8849935, "is_disabled": 0, "bike_id": "1c02738c26d7763cf337bc303385c917", "fusion_lat": 0.0, "is_reserved": 0, "lon": -76.956658}, {"type": "electric_scooter", "name": "2c6e5ff721b0340bee15007d7e82b130", "rental_uris": {"ios": "https://dc.lft.to/lastmile_qr_scan", "android": "https://dc.lft.to/lastmile_qr_scan"}, "fusion_lon": 0.0, "lat": 38.923253, "is_disabled": 0, "bike_id": "2c6e5ff721b0340bee15007d7e82b130", "fusion_lat": 0.0, "is_reserved": 0, "lon": -77.02910583333333}, {"type": "electric_scooter", "name": "d5ef5dcc6fbafe00c017d5ec9cf405f5", "rental_uris": {"ios": "https://dc.lft.to/lastmile_qr_scan", "android": "https://dc.lft.to/lastmile_qr_scan"}, "fusion_lon": 0.0, "lat": 38.89475783333334, "is_disabled": 0, "bike_id": "d5ef5dcc6fbafe00c017d5ec9cf405f5", "fusion_lat": 0.0, "is_reserved": 0, "lon": -77.01658866666666}, {"type": "electric_scooter", "name": "7debb2b28218507101df2f5106d314dd", "rental_uris": {"ios": "https://dc.lft.to/lastmile_qr_scan", "android": "https://dc.lft.to/lastmile_qr_scan"}, "fusion_lon": 0.0, "lat": 38.90068566666667, "is_disabled": 0, "bike_id": "7debb2b28218507101df2f5106d314dd", "fusion_lat": 0.0, "is_reserved": 0, "lon": -77.05427583333334}, {"type": "electric_scooter", "name": "d74b8027f662172604f95b3f74309181", "rental_uris": {"ios": "https://dc.lft.to/lastmile_qr_scan", "android": "https://dc.lft.to/lastmile_qr_scan"}, "fusion_lon": 0.0, "lat": 38.887503333333335, "is_disabled": 0, "bike_id": "d74b8027f662172604f95b3f74309181", "fusion_lat": 0.0, "is_reserved": 0, "lon": -76.97317266666667}, {"type": "electric_scooter", "name": "5c313f17dbea2ea13681a651f86196f8", "rental_uris": {"ios": "https://dc.lft.to/lastmile_qr_scan", "android": "https://dc.lft.to/lastmile_qr_scan"}, "fusion_lon": 0.0, "lat": 38.881552, "is_disabled": 0, "bike_id": "5c313f17dbea2ea13681a651f86196f8", "fusion_lat": 0.0, "is_reserved": 0, "lon": -77.02737966666666}, {"type": "electric_scooter", "name": "3461db8c55f05a18409a59608c38a8fd", "rental_uris": {"ios": "https://dc.lft.to/lastmile_qr_scan", "android": "https://dc.lft.to/lastmile_qr_scan"}, "fusion_lon": 0.0, "lat": 38.90608183333333, "is_disabled": 0, "bike_id": "3461db8c55f05a18409a59608c38a8fd", "fusion_lat": 0.0, "is_reserved": 0, "lon": -77.00364766666667}, {"type": "electric_scooter", "name": "b0c97a9286e84a246ccb4ebe31ba6cdb", "rental_uris": {"ios": "https://dc.lft.to/lastmile_qr_scan", "android": "https://dc.lft.to/lastmile_qr_scan"}, "fusion_lon": 0.0, "lat": 38.91039383333333, "is_disabled": 0, "bike_id": "b0c97a9286e84a246ccb4ebe31ba6cdb", "fusion_lat": 0.0, "is_reserved": 0, "lon": -77.07575683333333}, {"type": "electric_scooter", "name": "c0479ee2e7a3a1f219b42ba6714ae83d", "rental_uris": {"ios": "https://dc.lft.to/lastmile_qr_scan", "android": "https://dc.lft.to/lastmile_qr_scan"}, "fusion_lon": 0.0, "lat": 38.907825833333334, "is_disabled": 0, "bike_id": "c0479ee2e7a3a1f219b42ba6714ae83d", "fusion_lat": 0.0, "is_reserved": 0, "lon": -77.07160466666667}, {"type": "electric_scooter", "name": "70e6519142351530fa72c965b42671f0", "rental_uris": {"ios": "https://dc.lft.to/lastmile_qr_scan", "android": "https://dc.lft.to/lastmile_qr_scan"}, "fusion_lon": 0.0, "lat": 38.91669983333333, "is_disabled": 0, "bike_id": "70e6519142351530fa72c965b42671f0", "fusion_lat": 0.0, "is_reserved": 0, "lon": -77.022735}, {"type": "electric_scooter", "name": "85178f069a8b72909e82a7bdc6f9221a", "rental_uris": {"ios": "https://dc.lft.to/lastmile_qr_scan", "android": "https://dc.lft.to/lastmile_qr_scan"}, "fusion_lon": 0.0, "lat": 38.91860883333333, "is_disabled": 0, "bike_id": "85178f069a8b72909e82a7bdc6f9221a", "fusion_lat": 0.0, "is_reserved": 0, "lon": -77.002092}, {"type": "electric_scooter", "name": "00b1442fa7f779e87f926b0fb0b8626c", "rental_uris": {"ios": "https://dc.lft.to/lastmile_qr_scan", "android": "https://dc.lft.to/lastmile_qr_scan"}, "fusion_lon": 0.0, "lat": 38.91826116666667, "is_disabled": 0, "bike_id": "00b1442fa7f779e87f926b0fb0b8626c", "fusion_lat": 0.0, "is_reserved": 0, "lon": -77.012108}, {"type": "electric_scooter", "name": "9e13a116f6572bc3de3c00361f105cf1", "rental_uris": {"ios": "https://dc.lft.to/lastmile_qr_scan", "android": "https://dc.lft.to/lastmile_qr_scan"}, "fusion_lon": 0.0, "lat": 38.90267133333333, "is_disabled": 0, "bike_id": "9e13a116f6572bc3de3c00361f105cf1", "fusion_lat": 0.0, "is_reserved": 0, "lon": -77.00887566666667}, {"type": "electric_scooter", "name": "99336673f1e45d3627d8653cf9090da0", "rental_uris": {"ios": "https://dc.lft.to/lastmile_qr_scan", "android": "https://dc.lft.to/lastmile_qr_scan"}, "fusion_lon": 0.0, "lat": 38.92257166666667, "is_disabled": 0, "bike_id": "99336673f1e45d3627d8653cf9090da0", "fusion_lat": 0.0, "is_reserved": 0, "lon": -77.0425205}, {"type": "electric_scooter", "name": "886dbac7bb1197b4c02c2e42eeeb76cd", "rental_uris": {"ios": "https://dc.lft.to/lastmile_qr_scan", "android": "https://dc.lft.to/lastmile_qr_scan"}, "fusion_lon": 0.0, "lat": 38.91817966666667, "is_disabled": 0, "bike_id": "886dbac7bb1197b4c02c2e42eeeb76cd", "fusion_lat": 0.0, "is_reserved": 0, "lon": -77.02476983333334}, {"type": "electric_scooter", "name": "7d06098c31faaf8be8f745d6ab2ce414", "rental_uris": {"ios": "https://dc.lft.to/lastmile_qr_scan", "android": "https://dc.lft.to/lastmile_qr_scan"}, "fusion_lon": 0.0, "lat": 38.918186, "is_disabled": 0, "bike_id": "7d06098c31faaf8be8f745d6ab2ce414", "fusion_lat": 0.0, "is_reserved": 0, "lon": -77.02475033333333}, {"type": "electric_scooter", "name": "9d7bc9ba4dc1e8e4ed1e8df826be86f4", "rental_uris": {"ios": "https://dc.lft.to/lastmile_qr_scan", "android": "https://dc.lft.to/lastmile_qr_scan"}, "fusion_lon": 0.0, "lat": 38.9041935, "is_disabled": 0, "bike_id": "9d7bc9ba4dc1e8e4ed1e8df826be86f4", "fusion_lat": 0.0, "is_reserved": 0, "lon": -76.99280416666667}, {"type": "electric_scooter", "name": "eb0037a735e18421d6f53857d805e684", "rental_uris": {"ios": "https://dc.lft.to/lastmile_qr_scan", "android": "https://dc.lft.to/lastmile_qr_scan"}, "fusion_lon": 0.0, "lat": 38.898836, "is_disabled": 0, "bike_id": "eb0037a735e18421d6f53857d805e684", "fusion_lat": 0.0, "is_reserved": 0, "lon": -77.05286616666666}, {"type": "electric_scooter", "name": "388b57ec110e69bf14c639b1992ff0a5", "rental_uris": {"ios": "https://dc.lft.to/lastmile_qr_scan", "android": "https://dc.lft.to/lastmile_qr_scan"}, "fusion_lon": 0.0, "lat": 38.920472833333335, "is_disabled": 0, "bike_id": "388b57ec110e69bf14c639b1992ff0a5", "fusion_lat": 0.0, "is_reserved": 0, "lon": -77.01812716666667}, {"type": "electric_scooter", "name": "e645b918145ddda567d2c3227e114783", "rental_uris": {"ios": "https://dc.lft.to/lastmile_qr_scan", "android": "https://dc.lft.to/lastmile_qr_scan"}, "fusion_lon": 0.0, "lat": 38.900289666666666, "is_disabled": 0, "bike_id": "e645b918145ddda567d2c3227e114783", "fusion_lat": 0.0, "is_reserved": 0, "lon": -77.03712516666667}, {"type": "electric_scooter", "name": "11ed0d36a4229406a7d105d2e660a5a3", "rental_uris": {"ios": "https://dc.lft.to/lastmile_qr_scan", "android": "https://dc.lft.to/lastmile_qr_scan"}, "fusion_lon": 0.0, "lat": 38.9419815, "is_disabled": 0, "bike_id": "11ed0d36a4229406a7d105d2e660a5a3", "fusion_lat": 0.0, "is_reserved": 0, "lon": -77.03836566666666}, {"type": "electric_scooter", "name": "eb322dd1acd35028c4362d6bf6d7d91b", "rental_uris": {"ios": "https://dc.lft.to/lastmile_qr_scan", "android": "https://dc.lft.to/lastmile_qr_scan"}, "fusion_lon": 0.0, "lat": 38.895450833333335, "is_disabled": 0, "bike_id": "eb322dd1acd35028c4362d6bf6d7d91b", "fusion_lat": 0.0, "is_reserved": 0, "lon": -76.98208666666666}, {"type": "electric_scooter", "name": "080891657f2cb34ea07fd13c56c888f5", "rental_uris": {"ios": "https://dc.lft.to/lastmile_qr_scan", "android": "https://dc.lft.to/lastmile_qr_scan"}, "fusion_lon": 0.0, "lat": 38.897143166666666, "is_disabled": 0, "bike_id": "080891657f2cb34ea07fd13c56c888f5", "fusion_lat": 0.0, "is_reserved": 0, "lon": -77.00839233333333}, {"type": "electric_scooter", "name": "860511de0282673dcb81fb276e54fb91", "rental_uris": {"ios": "https://dc.lft.to/lastmile_qr_scan", "android": "https://dc.lft.to/lastmile_qr_scan"}, "fusion_lon": 0.0, "lat": 38.896202333333335, "is_disabled": 0, "bike_id": "860511de0282673dcb81fb276e54fb91", "fusion_lat": 0.0, "is_reserved": 0, "lon": -77.02151016666667}, {"type": "electric_scooter", "name": "656cc2a63a0e94ba605298709cb53680", "rental_uris": {"ios": "https://dc.lft.to/lastmile_qr_scan", "android": "https://dc.lft.to/lastmile_qr_scan"}, "fusion_lon": 0.0, "lat": 38.90880766666667, "is_disabled": 0, "bike_id": "656cc2a63a0e94ba605298709cb53680", "fusion_lat": 0.0, "is_reserved": 0, "lon": -77.04325783333333}, {"type": "electric_bike", "name": "0440b606b9c3ee16265d6fb16f731807", "rental_uris": {"ios": "https://dc.lft.to/lastmile_qr_scan", "android": "https://dc.lft.to/lastmile_qr_scan"}, "fusion_lon": 0.0, "lat": 38.80508566666666, "is_disabled": 0, "bike_id": "0440b606b9c3ee16265d6fb16f731807", "fusion_lat": 0.0, "is_reserved": 0, "lon": -77.04813383333334}, {"type": "electric_scooter", "name": "a7642cdeb6e6d5d5d373e7a482b5ee4a", "rental_uris": {"ios": "https://dc.lft.to/lastmile_qr_scan", "android": "https://dc.lft.to/lastmile_qr_scan"}, "fusion_lon": 0.0, "lat": 38.898336, "is_disabled": 0, "bike_id": "a7642cdeb6e6d5d5d373e7a482b5ee4a", "fusion_lat": 0.0, "is_reserved": 0, "lon": -77.048275}, {"type": "electric_scooter", "name": "a138c788fee8c95620db8784c263fa91", "rental_uris": {"ios": "https://dc.lft.to/lastmile_qr_scan", "android": "https://dc.lft.to/lastmile_qr_scan"}, "fusion_lon": 0.0, "lat": 38.93482933333333, "is_disabled": 0, "bike_id": "a138c788fee8c95620db8784c263fa91", "fusion_lat": 0.0, "is_reserved": 0, "lon": -77.0296995}, {"type": "electric_scooter", "name": "6c902f9a62773e25b92a3ebcdf686785", "rental_uris": {"ios": "https://dc.lft.to/lastmile_qr_scan", "android": "https://dc.lft.to/lastmile_qr_scan"}, "fusion_lon": 0.0, "lat": 38.905212666666664, "is_disabled": 0, "bike_id": "6c902f9a62773e25b92a3ebcdf686785", "fusion_lat": 0.0, "is_reserved": 0, "lon": -77.04156266666666}, {"type": "electric_scooter", "name": "6b343313a70b5942a58d94d75ac2a7bb", "rental_uris": {"ios": "https://dc.lft.to/lastmile_qr_scan", "android": "https://dc.lft.to/lastmile_qr_scan"}, "fusion_lon": 0.0, "lat": 38.94972833333333, "is_disabled": 0, "bike_id": "6b343313a70b5942a58d94d75ac2a7bb", "fusion_lat": 0.0, "is_reserved": 0, "lon": -77.0752365}, {"type": "electric_scooter", "name": "2bf6d7527dbc9ac622896b6a8046540d", "rental_uris": {"ios": "https://dc.lft.to/lastmile_qr_scan", "android": "https://dc.lft.to/lastmile_qr_scan"}, "fusion_lon": 0.0, "lat": 38.88394683333333, "is_disabled": 0, "bike_id": "2bf6d7527dbc9ac622896b6a8046540d", "fusion_lat": 0.0, "is_reserved": 0, "lon": -76.93047283333334}, {"type": "electric_scooter", "name": "b7338ec89525e61aef3ff01d3c19969e", "rental_uris": {"ios": "https://dc.lft.to/lastmile_qr_scan", "android": "https://dc.lft.to/lastmile_qr_scan"}, "fusion_lon": 0.0, "lat": 38.909980833333336, "is_disabled": 0, "bike_id": "b7338ec89525e61aef3ff01d3c19969e", "fusion_lat": 0.0, "is_reserved": 0, "lon": -77.02689916666667}, {"type": "electric_scooter", "name": "fba1e52d9c68623f34b2b33f9a63be79", "rental_uris": {"ios": "https://dc.lft.to/lastmile_qr_scan", "android": "https://dc.lft.to/lastmile_qr_scan"}, "fusion_lon": 0.0, "lat": 38.90697216666667, "is_disabled": 0, "bike_id": "fba1e52d9c68623f34b2b33f9a63be79", "fusion_lat": 0.0, "is_reserved": 0, "lon": -77.03773633333333}, {"type": "electric_scooter", "name": "b9f7e2e45cd9ebaddc9998e8746ca234", "rental_uris": {"ios": "https://dc.lft.to/lastmile_qr_scan", "android": "https://dc.lft.to/lastmile_qr_scan"}, "fusion_lon": 0.0, "lat": 38.922503666666664, "is_disabled": 0, "bike_id": "b9f7e2e45cd9ebaddc9998e8746ca234", "fusion_lat": 0.0, "is_reserved": 0, "lon": -77.08088166666667}, {"type": "electric_scooter", "name": "9f985cbfb9622773e0825cb94d0d8667", "rental_uris": {"ios": "https://dc.lft.to/lastmile_qr_scan", "android": "https://dc.lft.to/lastmile_qr_scan"}, "fusion_lon": 0.0, "lat": 38.941911166666664, "is_disabled": 0, "bike_id": "9f985cbfb9622773e0825cb94d0d8667", "fusion_lat": 0.0, "is_reserved": 0, "lon": -77.02408466666667}, {"type": "electric_scooter", "name": "bf5e11ce449b657b21c72e5235d1585a", "rental_uris": {"ios": "https://dc.lft.to/lastmile_qr_scan", "android": "https://dc.lft.to/lastmile_qr_scan"}, "fusion_lon": 0.0, "lat": 38.905043, "is_disabled": 0, "bike_id": "bf5e11ce449b657b21c72e5235d1585a", "fusion_lat": 0.0, "is_reserved": 0, "lon": -77.01981433333333}, {"type": "electric_scooter", "name": "b3007948c7f68653f006fdfdbced6cfb", "rental_uris": {"ios": "https://dc.lft.to/lastmile_qr_scan", "android": "https://dc.lft.to/lastmile_qr_scan"}, "fusion_lon": 0.0, "lat": 38.901966333333334, "is_disabled": 0, "bike_id": "b3007948c7f68653f006fdfdbced6cfb", "fusion_lat": 0.0, "is_reserved": 0, "lon": -77.01624583333333}, {"type": "electric_scooter", "name": "f1634fea4d28a5b824b2e5c066fe607c", "rental_uris": {"ios": "https://dc.lft.to/lastmile_qr_scan", "android": "https://dc.lft.to/lastmile_qr_scan"}, "fusion_lon": 0.0, "lat": 38.90423966666667, "is_disabled": 0, "bike_id": "f1634fea4d28a5b824b2e5c066fe607c", "fusion_lat": 0.0, "is_reserved": 0, "lon": -77.0241365}, {"type": "electric_scooter", "name": "8f164f6fc15bc0c5fa3b59305e798100", "rental_uris": {"ios": "https://dc.lft.to/lastmile_qr_scan", "android": "https://dc.lft.to/lastmile_qr_scan"}, "fusion_lon": 0.0, "lat": 38.91308566666667, "is_disabled": 0, "bike_id": "8f164f6fc15bc0c5fa3b59305e798100", "fusion_lat": 0.0, "is_reserved": 0, "lon": -77.031853}, {"type": "electric_scooter", "name": "d5026e9fa9a1b2e143e61a39bd1e756b", "rental_uris": {"ios": "https://dc.lft.to/lastmile_qr_scan", "android": "https://dc.lft.to/lastmile_qr_scan"}, "fusion_lon": 0.0, "lat": 38.92374233333334, "is_disabled": 0, "bike_id": "d5026e9fa9a1b2e143e61a39bd1e756b", "fusion_lat": 0.0, "is_reserved": 0, "lon": -77.02119216666667}, {"type": "electric_scooter", "name": "70374c9692e847df59f6ecb76b03612b", "rental_uris": {"ios": "https://dc.lft.to/lastmile_qr_scan", "android": "https://dc.lft.to/lastmile_qr_scan"}, "fusion_lon": 0.0, "lat": 38.923717, "is_disabled": 0, "bike_id": "70374c9692e847df59f6ecb76b03612b", "fusion_lat": 0.0, "is_reserved": 0, "lon": -77.0195245}, {"type": "electric_scooter", "name": "40740bea40c3627b475a7a5a6fa64dc8", "rental_uris": {"ios": "https://dc.lft.to/lastmile_qr_scan", "android": "https://dc.lft.to/lastmile_qr_scan"}, "fusion_lon": 0.0, "lat": 38.90027833333333, "is_disabled": 0, "bike_id": "40740bea40c3627b475a7a5a6fa64dc8", "fusion_lat": 0.0, "is_reserved": 0, "lon": -76.99807933333334}, {"type": "electric_scooter", "name": "a48c7af1909ad737f618222180291b30", "rental_uris": {"ios": "https://dc.lft.to/lastmile_qr_scan", "android": "https://dc.lft.to/lastmile_qr_scan"}, "fusion_lon": 0.0, "lat": 38.89734816666667, "is_disabled": 0, "bike_id": "a48c7af1909ad737f618222180291b30", "fusion_lat": 0.0, "is_reserved": 0, "lon": -77.05521016666667}, {"type": "electric_scooter", "name": "73aa90a55bc15eb448ce5d768fcf0b18", "rental_uris": {"ios": "https://dc.lft.to/lastmile_qr_scan", "android": "https://dc.lft.to/lastmile_qr_scan"}, "fusion_lon": 0.0, "lat": 38.918962, "is_disabled": 0, "bike_id": "73aa90a55bc15eb448ce5d768fcf0b18", "fusion_lat": 0.0, "is_reserved": 0, "lon": -77.00350433333334}, {"type": "electric_scooter", "name": "870b415075b1710c3c6720885dae2478", "rental_uris": {"ios": "https://dc.lft.to/lastmile_qr_scan", "android": "https://dc.lft.to/lastmile_qr_scan"}, "fusion_lon": 0.0, "lat": 38.87973916666667, "is_disabled": 0, "bike_id": "870b415075b1710c3c6720885dae2478", "fusion_lat": 0.0, "is_reserved": 0, "lon": -77.02377783333333}, {"type": "electric_bike", "name": "cd47dc072df053b58689b75ebf608c11", "rental_uris": {"ios": "https://dc.lft.to/lastmile_qr_scan", "android": "https://dc.lft.to/lastmile_qr_scan"}, "fusion_lon": 0.0, "lat": 38.97080866666667, "is_disabled": 0, "bike_id": "cd47dc072df053b58689b75ebf608c11", "fusion_lat": 0.0, "is_reserved": 0, "lon": -76.93600033333334}, {"type": "electric_scooter", "name": "d65d847cd161362e2109c449cb5b2e99", "rental_uris": {"ios": "https://dc.lft.to/lastmile_qr_scan", "android": "https://dc.lft.to/lastmile_qr_scan"}, "fusion_lon": 0.0, "lat": 38.92595633333333, "is_disabled": 0, "bike_id": "d65d847cd161362e2109c449cb5b2e99", "fusion_lat": 0.0, "is_reserved": 0, "lon": -77.03783316666667}, {"type": "electric_scooter", "name": "942a54490405037d6b125e3a66b6569d", "rental_uris": {"ios": "https://dc.lft.to/lastmile_qr_scan", "android": "https://dc.lft.to/lastmile_qr_scan"}, "fusion_lon": 0.0, "lat": 38.8972085, "is_disabled": 0, "bike_id": "942a54490405037d6b125e3a66b6569d", "fusion_lat": 0.0, "is_reserved": 0, "lon": -77.0098625}, {"type": "electric_scooter", "name": "de2220a280d83589536ec87b7d13eb49", "rental_uris": {"ios": "https://dc.lft.to/lastmile_qr_scan", "android": "https://dc.lft.to/lastmile_qr_scan"}, "fusion_lon": 0.0, "lat": 38.922958333333334, "is_disabled": 0, "bike_id": "de2220a280d83589536ec87b7d13eb49", "fusion_lat": 0.0, "is_reserved": 0, "lon": -77.031999}, {"type": "electric_scooter", "name": "ba72fbfd13a2e550142529928f3ed371", "rental_uris": {"ios": "https://dc.lft.to/lastmile_qr_scan", "android": "https://dc.lft.to/lastmile_qr_scan"}, "fusion_lon": 0.0, "lat": 38.9028115, "is_disabled": 0, "bike_id": "ba72fbfd13a2e550142529928f3ed371", "fusion_lat": 0.0, "is_reserved": 0, "lon": -77.0303925}, {"type": "electric_scooter", "name": "8797a03b33498bfafa7cc38b763ca3e4", "rental_uris": {"ios": "https://dc.lft.to/lastmile_qr_scan", "android": "https://dc.lft.to/lastmile_qr_scan"}, "fusion_lon": 0.0, "lat": 38.93289516666667, "is_disabled": 0, "bike_id": "8797a03b33498bfafa7cc38b763ca3e4", "fusion_lat": 0.0, "is_reserved": 0, "lon": -77.025433}, {"type": "electric_scooter", "name": "1eded1a48f87e312f74c89c2e5a42e10", "rental_uris": {"ios": "https://dc.lft.to/lastmile_qr_scan", "android": "https://dc.lft.to/lastmile_qr_scan"}, "fusion_lon": 0.0, "lat": 38.92960033333333, "is_disabled": 0, "bike_id": "1eded1a48f87e312f74c89c2e5a42e10", "fusion_lat": 0.0, "is_reserved": 0, "lon": -77.01835666666666}, {"type": "electric_scooter", "name": "9035ca87f64b5f2d5fb9820a09d35449", "rental_uris": {"ios": "https://dc.lft.to/lastmile_qr_scan", "android": "https://dc.lft.to/lastmile_qr_scan"}, "fusion_lon": 0.0, "lat": 38.887125166666664, "is_disabled": 0, "bike_id": "9035ca87f64b5f2d5fb9820a09d35449", "fusion_lat": 0.0, "is_reserved": 0, "lon": -77.02214733333334}, {"type": "electric_scooter", "name": "cfdba26fdecc62e059cab2ed0427fabd", "rental_uris": {"ios": "https://dc.lft.to/lastmile_qr_scan", "android": "https://dc.lft.to/lastmile_qr_scan"}, "fusion_lon": 0.0, "lat": 38.89735266666667, "is_disabled": 0, "bike_id": "cfdba26fdecc62e059cab2ed0427fabd", "fusion_lat": 0.0, "is_reserved": 0, "lon": -77.00369916666666}, {"type": "electric_scooter", "name": "607ed6704331ce037095581b1e605825", "rental_uris": {"ios": "https://dc.lft.to/lastmile_qr_scan", "android": "https://dc.lft.to/lastmile_qr_scan"}, "fusion_lon": 0.0, "lat": 38.92456766666667, "is_disabled": 0, "bike_id": "607ed6704331ce037095581b1e605825", "fusion_lat": 0.0, "is_reserved": 0, "lon": -77.03322566666667}, {"type": "electric_scooter", "name": "c076ca377a09d353821888cc4f7182c0", "rental_uris": {"ios": "https://dc.lft.to/lastmile_qr_scan", "android": "https://dc.lft.to/lastmile_qr_scan"}, "fusion_lon": 0.0, "lat": 38.899111166666664, "is_disabled": 0, "bike_id": "c076ca377a09d353821888cc4f7182c0", "fusion_lat": 0.0, "is_reserved": 0, "lon": -76.93370183333333}, {"type": "electric_scooter", "name": "d4a092b0afbf2394af1ecb4933c6e6ef", "rental_uris": {"ios": "https://dc.lft.to/lastmile_qr_scan", "android": "https://dc.lft.to/lastmile_qr_scan"}, "fusion_lon": 0.0, "lat": 38.901198666666666, "is_disabled": 0, "bike_id": "d4a092b0afbf2394af1ecb4933c6e6ef", "fusion_lat": 0.0, "is_reserved": 0, "lon": -77.04484883333333}, {"type": "electric_scooter", "name": "e55a10652d067eba87313b369f572597", "rental_uris": {"ios": "https://dc.lft.to/lastmile_qr_scan", "android": "https://dc.lft.to/lastmile_qr_scan"}, "fusion_lon": 0.0, "lat": 38.90834233333333, "is_disabled": 0, "bike_id": "e55a10652d067eba87313b369f572597", "fusion_lat": 0.0, "is_reserved": 0, "lon": -77.03201533333333}, {"type": "electric_scooter", "name": "b7db1598af4fd02f21e0549705989e79", "rental_uris": {"ios": "https://dc.lft.to/lastmile_qr_scan", "android": "https://dc.lft.to/lastmile_qr_scan"}, "fusion_lon": 0.0, "lat": 38.917925833333335, "is_disabled": 0, "bike_id": "b7db1598af4fd02f21e0549705989e79", "fusion_lat": 0.0, "is_reserved": 0, "lon": -77.02312716666667}, {"type": "electric_scooter", "name": "b79993a56f2af65ee6577835ed5fc80f", "rental_uris": {"ios": "https://dc.lft.to/lastmile_qr_scan", "android": "https://dc.lft.to/lastmile_qr_scan"}, "fusion_lon": 0.0, "lat": 38.91708066666666, "is_disabled": 0, "bike_id": "b79993a56f2af65ee6577835ed5fc80f", "fusion_lat": 0.0, "is_reserved": 0, "lon": -77.04171333333333}, {"type": "electric_scooter", "name": "4725fbdfa078a5320e966b22c183e1ab", "rental_uris": {"ios": "https://dc.lft.to/lastmile_qr_scan", "android": "https://dc.lft.to/lastmile_qr_scan"}, "fusion_lon": 0.0, "lat": 38.956938, "is_disabled": 0, "bike_id": "4725fbdfa078a5320e966b22c183e1ab", "fusion_lat": 0.0, "is_reserved": 0, "lon": -77.01928466666666}, {"type": "electric_scooter", "name": "e9dd35a9de0792db9a84d637451a31c3", "rental_uris": {"ios": "https://dc.lft.to/lastmile_qr_scan", "android": "https://dc.lft.to/lastmile_qr_scan"}, "fusion_lon": 0.0, "lat": 38.931237833333334, "is_disabled": 0, "bike_id": "e9dd35a9de0792db9a84d637451a31c3", "fusion_lat": 0.0, "is_reserved": 0, "lon": -77.03881383333334}, {"type": "electric_bike", "name": "e2d2c1888bfd1c07c7196db72089fd68", "rental_uris": {"ios": "https://dc.lft.to/lastmile_qr_scan", "android": "https://dc.lft.to/lastmile_qr_scan"}, "fusion_lon": 0.0, "lat": 38.8973945, "is_disabled": 0, "bike_id": "e2d2c1888bfd1c07c7196db72089fd68", "fusion_lat": 0.0, "is_reserved": 0, "lon": -76.92043733333334}, {"type": "electric_scooter", "name": "2609be8127262b370f6bb32960051dcd", "rental_uris": {"ios": "https://dc.lft.to/lastmile_qr_scan", "android": "https://dc.lft.to/lastmile_qr_scan"}, "fusion_lon": 0.0, "lat": 38.95646283333333, "is_disabled": 0, "bike_id": "2609be8127262b370f6bb32960051dcd", "fusion_lat": 0.0, "is_reserved": 0, "lon": -76.99791266666666}, {"type": "electric_scooter", "name": "85f4b8beab6d54100e8a696ea617dda5", "rental_uris": {"ios": "https://dc.lft.to/lastmile_qr_scan", "android": "https://dc.lft.to/lastmile_qr_scan"}, "fusion_lon": 0.0, "lat": 38.85659183333333, "is_disabled": 0, "bike_id": "85f4b8beab6d54100e8a696ea617dda5", "fusion_lat": 0.0, "is_reserved": 0, "lon": -76.99676083333334}, {"type": "electric_scooter", "name": "9b3a1dc49f8f108a1dff54a34a80bd3e", "rental_uris": {"ios": "https://dc.lft.to/lastmile_qr_scan", "android": "https://dc.lft.to/lastmile_qr_scan"}, "fusion_lon": 0.0, "lat": 38.902781, "is_disabled": 0, "bike_id": "9b3a1dc49f8f108a1dff54a34a80bd3e", "fusion_lat": 0.0, "is_reserved": 0, "lon": -77.0176405}, {"type": "electric_scooter", "name": "bf773716cde2b902e5f7bdbfd285c44a", "rental_uris": {"ios": "https://dc.lft.to/lastmile_qr_scan", "android": "https://dc.lft.to/lastmile_qr_scan"}, "fusion_lon": 0.0, "lat": 38.92879166666667, "is_disabled": 0, "bike_id": "bf773716cde2b902e5f7bdbfd285c44a", "fusion_lat": 0.0, "is_reserved": 0, "lon": -77.01373366666667}, {"type": "electric_scooter", "name": "d57b53eac7e3b82e59114531c7298aaf", "rental_uris": {"ios": "https://dc.lft.to/lastmile_qr_scan", "android": "https://dc.lft.to/lastmile_qr_scan"}, "fusion_lon": 0.0, "lat": 38.89481933333333, "is_disabled": 0, "bike_id": "d57b53eac7e3b82e59114531c7298aaf", "fusion_lat": 0.0, "is_reserved": 0, "lon": -77.02184533333333}, {"type": "electric_scooter", "name": "83e7984937f250e6094a9c9c49104a65", "rental_uris": {"ios": "https://dc.lft.to/lastmile_qr_scan", "android": "https://dc.lft.to/lastmile_qr_scan"}, "fusion_lon": 0.0, "lat": 38.9054225, "is_disabled": 0, "bike_id": "83e7984937f250e6094a9c9c49104a65", "fusion_lat": 0.0, "is_reserved": 0, "lon": -77.02702166666667}, {"type": "electric_scooter", "name": "7dd9ad1b23f22a0fa9c3508fe77bd272", "rental_uris": {"ios": "https://dc.lft.to/lastmile_qr_scan", "android": "https://dc.lft.to/lastmile_qr_scan"}, "fusion_lon": 0.0, "lat": 38.88814383333333, "is_disabled": 0, "bike_id": "7dd9ad1b23f22a0fa9c3508fe77bd272", "fusion_lat": 0.0, "is_reserved": 0, "lon": -76.98358083333333}, {"type": "electric_scooter", "name": "edcdf69cf4f79727b0fcece59bc5a928", "rental_uris": {"ios": "https://dc.lft.to/lastmile_qr_scan", "android": "https://dc.lft.to/lastmile_qr_scan"}, "fusion_lon": 0.0, "lat": 38.8974285, "is_disabled": 0, "bike_id": "edcdf69cf4f79727b0fcece59bc5a928", "fusion_lat": 0.0, "is_reserved": 0, "lon": -77.027623}, {"type": "electric_scooter", "name": "a6a853487ae67ba2171296de93d78802", "rental_uris": {"ios": "https://dc.lft.to/lastmile_qr_scan", "android": "https://dc.lft.to/lastmile_qr_scan"}, "fusion_lon": 0.0, "lat": 38.92047783333334, "is_disabled": 0, "bike_id": "a6a853487ae67ba2171296de93d78802", "fusion_lat": 0.0, "is_reserved": 0, "lon": -77.01673833333334}, {"type": "electric_scooter", "name": "334fc5bb0ba1ee4b562a534624304931", "rental_uris": {"ios": "https://dc.lft.to/lastmile_qr_scan", "android": "https://dc.lft.to/lastmile_qr_scan"}, "fusion_lon": 0.0, "lat": 38.875492333333334, "is_disabled": 0, "bike_id": "334fc5bb0ba1ee4b562a534624304931", "fusion_lat": 0.0, "is_reserved": 0, "lon": -77.00533033333333}, {"type": "electric_bike", "name": "f6dec7a68031244822bc7186b118f245", "rental_uris": {"ios": "https://dc.lft.to/lastmile_qr_scan", "android": "https://dc.lft.to/lastmile_qr_scan"}, "fusion_lon": 0.0, "lat": 38.85655933333334, "is_disabled": 0, "bike_id": "f6dec7a68031244822bc7186b118f245", "fusion_lat": 0.0, "is_reserved": 0, "lon": -77.08528716666666}, {"type": "electric_scooter", "name": "ed19cf45703d3b768e5759e5a151b45c", "rental_uris": {"ios": "https://dc.lft.to/lastmile_qr_scan", "android": "https://dc.lft.to/lastmile_qr_scan"}, "fusion_lon": 0.0, "lat": 38.907118, "is_disabled": 0, "bike_id": "ed19cf45703d3b768e5759e5a151b45c", "fusion_lat": 0.0, "is_reserved": 0, "lon": -77.0057755}, {"type": "electric_scooter", "name": "66676729f7bb7c0b008075839faa4a1d", "rental_uris": {"ios": "https://dc.lft.to/lastmile_qr_scan", "android": "https://dc.lft.to/lastmile_qr_scan"}, "fusion_lon": 0.0, "lat": 38.882665833333334, "is_disabled": 0, "bike_id": "66676729f7bb7c0b008075839faa4a1d", "fusion_lat": 0.0, "is_reserved": 0, "lon": -76.9266845}, {"type": "electric_scooter", "name": "fe4674f33e2646959017d4571c9e37a8", "rental_uris": {"ios": "https://dc.lft.to/lastmile_qr_scan", "android": "https://dc.lft.to/lastmile_qr_scan"}, "fusion_lon": 0.0, "lat": 38.91537816666667, "is_disabled": 0, "bike_id": "fe4674f33e2646959017d4571c9e37a8", "fusion_lat": 0.0, "is_reserved": 0, "lon": -77.01219983333333}, {"type": "electric_scooter", "name": "5d2d452e9eecd9e6809472ca77aa4396", "rental_uris": {"ios": "https://dc.lft.to/lastmile_qr_scan", "android": "https://dc.lft.to/lastmile_qr_scan"}, "fusion_lon": 0.0, "lat": 38.8970495, "is_disabled": 0, "bike_id": "5d2d452e9eecd9e6809472ca77aa4396", "fusion_lat": 0.0, "is_reserved": 0, "lon": -77.0161185},