{"data": {"bikes": [{"lat": 38.911235833333336, "is_disabled": 0, "type": "electric_scooter", "lon": -77.038157, "bike_id": "17799a20e935179228a69d5f9631664f", "fusion_lat": 0.0, "name": "17799a20e935179228a69d5f9631664f", "is_reserved": 0, "rental_uris": {"android": "https://dc.lft.to/lastmile_qr_scan", "ios": "https://dc.lft.to/lastmile_qr_scan"}, "fusion_lon": 0.0}, {"lat": 38.901961166666666, "is_disabled": 0, "type": "electric_scooter", "lon": -77.03659916666666, "bike_id": "f4a29832883cf05ba414cabc4a35c563", "fusion_lat": 0.0, "name": "f4a29832883cf05ba414cabc4a35c563", "is_reserved": 0, "rental_uris": {"android": "https://dc.lft.to/lastmile_qr_scan", "ios": "https://dc.lft.to/lastmile_qr_scan"}, "fusion_lon": 0.0}, {"lat": 38.900053, "is_disabled": 0, "type": "electric_scooter", "lon": -76.9984785, "bike_id": "39cf0a0dd95e417d4b7b55dc153a59c1", "fusion_lat": 0.0, "name": "39cf0a0dd95e417d4b7b55dc153a59c1", "is_reserved": 0, "rental_uris": {"android": "https://dc.lft.to/lastmile_qr_scan", "ios": "https://dc.lft.to/lastmile_qr_scan"}, "fusion_lon": 0.0}, {"lat": 38.81353816666667, "is_disabled": 0, "type": "electric_bike", "lon": -77.04923683333334, "bike_id": "55686ec3fc503281f24c26187ab276c2", "fusion_lat": 0.0, "name": "55686ec3fc503281f24c26187ab276c2", "is_reserved": 0, "rental_uris": {"android": "https://dc.lft.to/lastmile_qr_scan", "ios": "https://dc.lft.to/lastmile_qr_scan"}, "fusion_lon": 0.0}, {"lat": 38.962085, "is_disabled": 0, "type": "electric_bike", "lon": -77.03518683333333, "bike_id": "604b60fd1905a8e551cc2111899802b7", "fusion_lat": 0.0, "name": "604b60fd1905a8e551cc2111899802b7", "is_reserved": 0, "rental_uris": {"android": "https://dc.lft.to/lastmile_qr_scan", "ios": "https://dc.lft.to/lastmile_qr_scan"}, "fusion_lon": 0.0}, {"lat": 38.9043155, "is_disabled": 0, "type": "electric_scooter", "lon": -77.00213266666667, "bike_id": "7fad19f69c59b48e70a7c283824067b5", "fusion_lat": 0.0, "name": "7fad19f69c59b48e70a7c283824067b5", "is_reserved": 0, "rental_uris": {"android": "https://dc.lft.to/lastmile_qr_scan", "ios": "https://dc.lft.to/lastmile_qr_scan"}, "fusion_lon": 0.0}, {"lat": 38.92621716666667, "is_disabled": 0, "type": "electric_scooter", "lon": -77.03777133333334, "bike_id": "96bf27ba5ba14fe13b57527540bd6dec", "fusion_lat": 0.0, "name": "96bf27ba5ba14fe13b57527540bd6dec", "is_reserved": 0, "rental_uris": {"android": "https://dc.lft.to/lastmile_qr_scan", "ios": "https://dc.lft.to/lastmile_qr_scan"}, "fusion_lon": 0.0}, {"lat": 38.9325065, "is_disabled": 0, "type": "electric_scooter", "lon": -77.03269316666666, "bike_id": "29c0e310c03c0a208fe3865a832ea756", "fusion_lat": 0.0, "name": "29c0e310c03c0a208fe3865a832ea756", "is_reserved": 0, "rental_uris": {"android": "https://dc.lft.to/lastmile_qr_scan", "ios": "https://dc.lft.to/lastmile_qr_scan"}, "fusion_lon": 0.0}, {"lat": 38.90737333333333, "is_disabled": 0, "type": "electric_scooter", "lon": -77.02981866666667, "bike_id": "e4fd0f2f4253adef9195e9ac99202e4c", "fusion_lat": 0.0, "name": "e4fd0f2f4253adef9195e9ac99202e4c", "is_reserved": 0, "rental_uris": {"android": "https://dc.lft.to/lastmile_qr_scan", "ios": "https://dc.lft.to/lastmile_qr_scan"}, "fusion_lon": 0.0}, {"lat": 38.90173083333333, "is_disabled": 0, "type": "electric_scooter", "lon": -77.02014016666666, "bike_id": "cb7a934fb7d8b6f73a9f418e475cf039", "fusion_lat": 0.0, "name": "cb7a934fb7d8b6f73a9f418e475cf039", "is_reserved": 0, "rental_uris": {"android": "https://dc.lft.to/lastmile_qr_scan", "ios": "https://dc.lft.to/lastmile_qr_scan"}, "fusion_lon": 0.0}, {"lat": 38.90048866666667, "is_disabled": 0, "type": "electric_bike", "lon": -76.97184233333333, "bike_id": "101ee853e8a02fb1d8f3ee73456352e4", "fusion_lat": 0.0, "name": "101ee853e8a02fb1d8f3ee73456352e4", "is_reserved": 0, "rental_uris": {"android": "https://dc.lft.to/lastmile_qr_scan", "ios": "https://dc.lft.to/lastmile_qr_scan"}, "fusion_lon": 0.0}, {"lat": 38.902458333333335, "is_disabled": 0, "type": "electric_scooter", "lon": -77.01772516666666, "bike_id": "8dac7756d18f7c74a0ade77a4319c75c", "fusion_lat": 0.0, "name": "8dac7756d18f7c74a0ade77a4319c75c", "is_reserved": 0, "rental_uris": {"android": "https://dc.lft.to/lastmile_qr_scan", "ios": "https://dc.lft.to/lastmile_qr_scan"}, "fusion_lon": 0.0}, {"lat": 38.95628466666667, "is_disabled": 0, "type": "electric_bike", "lon": -76.938842, "bike_id": "bdd959bbd409ba50d18720732aefd4d5", "fusion_lat": 0.0, "name": "bdd959bbd409ba50d18720732aefd4d5", "is_reserved": 0, "rental_uris": {"android": "https://dc.lft.to/lastmile_qr_scan", "ios": "https://dc.lft.to/lastmile_qr_scan"}, "fusion_lon": 0.0}, {"lat": 38.85207783333333, "is_disabled": 0, "type": "electric_bike", "lon": -76.98555083333333, "bike_id": "697392ed258985b0f2807a8a3ed79179", "fusion_lat": 0.0, "name": "697392ed258985b0f2807a8a3ed79179", "is_reserved": 0, "rental_uris": {"android": "https://dc.lft.to/lastmile_qr_scan", "ios": "https://dc.lft.to/lastmile_qr_scan"}, "fusion_lon": 0.0}, {"lat": 38.900016, "is_disabled": 0, "type": "electric_scooter", "lon": -76.99843083333333, "bike_id": "8358a724b5c9448797c465db8612ec20", "fusion_lat": 0.0, "name": "8358a724b5c9448797c465db8612ec20", "is_reserved": 0, "rental_uris": {"android": "https://dc.lft.to/lastmile_qr_scan", "ios": "https://dc.lft.to/lastmile_qr_scan"}, "fusion_lon": 0.0}, {"lat": 38.90377483333333, "is_disabled": 0, "type": "electric_scooter", "lon": -77.045049, "bike_id": "f0370ca7e98f74b853fc46c6e16ad943", "fusion_lat": 0.0, "name": "f0370ca7e98f74b853fc46c6e16ad943", "is_reserved": 0, "rental_uris": {"android": "https://dc.lft.to/lastmile_qr_scan", "ios": "https://dc.lft.to/lastmile_qr_scan"}, "fusion_lon": 0.0}, {"lat": 38.928429, "is_disabled": 0, "type": "electric_scooter", "lon": -77.01590266666666, "bike_id": "1369c0ab2ee25d11af0b9ec3dafb86c0", "fusion_lat": 0.0, "name": "1369c0ab2ee25d11af0b9ec3dafb86c0", "is_reserved": 0, "rental_uris": {"android": "https://dc.lft.to/lastmile_qr_scan", "ios": "https://dc.lft.to/lastmile_qr_scan"}, "fusion_lon": 0.0}, {"lat": 38.92665933333333, "is_disabled": 0, "type": "electric_scooter", "lon": -76.99534916666667, "bike_id": "f13872cc1df15efcb5d5c4bb11c91146", "fusion_lat": 0.0, "name": "f13872cc1df15efcb5d5c4bb11c91146", "is_reserved": 0, "rental_uris": {"android": "https://dc.lft.to/lastmile_qr_scan", "ios": "https://dc.lft.to/lastmile_qr_scan"}, "fusion_lon": 0.0}, {"lat": 38.91203083333333, "is_disabled": 0, "type": "electric_scooter", "lon": -77.0321135, "bike_id": "6a49f6e2f92cfbdd5409218fd368a4d2", "fusion_lat": 0.0, "name": "6a49f6e2f92cfbdd5409218fd368a4d2", "is_reserved": 0, "rental_uris": {"android": "https://dc.lft.to/lastmile_qr_scan", "ios": "https://dc.lft.to/lastmile_qr_scan"}, "fusion_lon": 0.0}, {"lat": 38.9352085, "is_disabled": 0, "type": "electric_scooter", "lon": -77.03264616666667, "bike_id": "2aeac96b5f238dca5bc47bca40035c72", "fusion_lat": 0.0, "name": "2aeac96b5f238dca5bc47bca40035c72", "is_reserved": 0, "rental_uris": {"android": "https://dc.lft.to/lastmile_qr_scan", "ios": "https://dc.lft.to/lastmile_qr_scan"}, "fusion_lon": 0.0}, {"lat": 38.932570166666665, "is_disabled": 0, "type": "electric_scooter", "lon": -77.0328205, "bike_id": "56c6e014cf4e8e365a549c917d99707c", "fusion_lat": 0.0, "name": "56c6e014cf4e8e365a549c917d99707c", "is_reserved": 0, "rental_uris": {"android": "https://dc.lft.to/lastmile_qr_scan", "ios": "https://dc.lft.to/lastmile_qr_scan"}, "fusion_lon": 0.0}, {"lat": 38.9041295, "is_disabled": 0, "type": "electric_scooter", "lon": -77.025913, "bike_id": "7a0bf1933744366044777211ac04a27c", "fusion_lat": 0.0, "name": "7a0bf1933744366044777211ac04a27c", "is_reserved": 0, "rental_uris": {"android": "https://dc.lft.to/lastmile_qr_scan", "ios": "https://dc.lft.to/lastmile_qr_scan"}, "fusion_lon": 0.0}, {"lat": 38.91814016666667, "is_disabled": 0, "type": "electric_scooter", "lon": -77.04512733333334, "bike_id": "c3d9393b335cbff3eb676fecb7d1c2b4", "fusion_lat": 0.0, "name": "c3d9393b335cbff3eb676fecb7d1c2b4", "is_reserved": 0, "rental_uris": {"android": "https://dc.lft.to/lastmile_qr_scan", "ios": "https://dc.lft.to/lastmile_qr_scan"}, "fusion_lon": 0.0}, {"lat": 38.91122416666666, "is_disabled": 0, "type": "electric_scooter", "lon": -77.0436485, "bike_id": "f2c94e11bd267c10c71bc669e74ecca3", "fusion_lat": 0.0, "name": "f2c94e11bd267c10c71bc669e74ecca3", "is_reserved": 0, "rental_uris": {"android": "https://dc.lft.to/lastmile_qr_scan", "ios": "https://dc.lft.to/lastmile_qr_scan"}, "fusion_lon": 0.0}, {"lat": 38.886753, "is_disabled": 0, "type": "electric_scooter", "lon": -76.98563566666667, "bike_id": "5a58f1f748dc402470da87051b867603", "fusion_lat": 0.0, "name": "5a58f1f748dc402470da87051b867603", "is_reserved": 0, "rental_uris": {"android": "https://dc.lft.to/lastmile_qr_scan", "ios": "https://dc.lft.to/lastmile_qr_scan"}, "fusion_lon": 0.0}, {"lat": 38.92570033333333, "is_disabled": 0, "type": "electric_scooter", "lon": -77.05755433333333, "bike_id": "76d1e33cd1865821e15438a4f61086f3", "fusion_lat": 0.0, "name": "76d1e33cd1865821e15438a4f61086f3", "is_reserved": 0, "rental_uris": {"android": "https://dc.lft.to/lastmile_qr_scan", "ios": "https://dc.lft.to/lastmile_qr_scan"}, "fusion_lon": 0.0}, {"lat": 38.91117466666667, "is_disabled": 0, "type": "electric_scooter", "lon": -77.04322466666666, "bike_id": "927ec8a3e2120fb3cdfa683aa0e0b16d", "fusion_lat": 0.0, "name": "927ec8a3e2120fb3cdfa683aa0e0b16d", "is_reserved": 0, "rental_uris": {"android": "https://dc.lft.to/lastmile_qr_scan", "ios": "https://dc.lft.to/lastmile_qr_scan"}, "fusion_lon": 0.0}, {"lat": 38.922916666666666, "is_disabled": 0, "type": "electric_scooter", "lon": -77.04261116666666, "bike_id": "ff216a8bb432eff0ec76de7b7e374cc8", "fusion_lat": 0.0, "name": "ff216a8bb432eff0ec76de7b7e374cc8", "is_reserved": 0, "rental_uris": {"android": "https://dc.lft.to/lastmile_qr_scan", "ios": "https://dc.lft.to/lastmile_qr_scan"}, "fusion_lon": 0.0}, {"lat": 38.87655783333334, "is_disabled": 0, "type": "electric_scooter", "lon": -77.00415166666667, "bike_id": "6ae4a2ff8095e6e27277b7a78c3dd6c0", "fusion_lat": 0.0, "name": "6ae4a2ff8095e6e27277b7a78c3dd6c0", "is_reserved": 0, "rental_uris": {"android": "https://dc.lft.to/lastmile_qr_scan", "ios": "https://dc.lft.to/lastmile_qr_scan"}, "fusion_lon": 0.0}, {"lat": 38.91335466666666, "is_disabled": 0, "type": "electric_scooter", "lon": -77.0317045, "bike_id": "e070ac360299af05c71fdf2f4d187c4d", "fusion_lat": 0.0, "name": "e070ac360299af05c71fdf2f4d187c4d", "is_reserved": 0, "rental_uris": {"android": "https://dc.lft.to/lastmile_qr_scan", "ios": "https://dc.lft.to/lastmile_qr_scan"}, "fusion_lon": 0.0}, {"lat": 38.89768616666667, "is_disabled": 0, "type": "electric_bike", "lon": -76.904369, "bike_id": "f57c2d7fdf54e7ba14cdc836df0d159a", "fusion_lat": 0.0, "name": "f57c2d7fdf54e7ba14cdc836df0d159a", "is_reserved": 0, "rental_uris": {"android": "https://dc.lft.to/lastmile_qr_scan", "ios": "https://dc.lft.to/lastmile_qr_scan"}, "fusion_lon": 0.0}, {"lat": 38.96143433333334, "is_disabled": 0, "type": "electric_scooter", "lon": -77.0223865, "bike_id": "708481285a8e8ffb5c7e4d7b5051587d", "fusion_lat": 0.0, "name": "708481285a8e8ffb5c7e4d7b5051587d", "is_reserved": 0, "rental_uris": {"android": "https://dc.lft.to/lastmile_qr_scan", "ios": "https://dc.lft.to/lastmile_qr_scan"}, "fusion_lon": 0.0}, {"lat": 38.896592166666665, "is_disabled": 0, "type": "electric_scooter", "lon": -77.05011266666666, "bike_id": "f020d589085b10a4d527824ff1b1b712", "fusion_lat": 0.0, "name": "f020d589085b10a4d527824ff1b1b712", "is_reserved": 0, "rental_uris": {"android": "https://dc.lft.to/lastmile_qr_scan", "ios": "https://dc.lft.to/lastmile_qr_scan"}, "fusion_lon": 0.0}, {"lat": 38.92291916666667, "is_disabled": 0, "type": "electric_scooter", "lon": -77.0426005, "bike_id": "0dcb68ed00dd2f3dbeb4323b0db0b9e4", "fusion_lat": 0.0, "name": "0dcb68ed00dd2f3dbeb4323b0db0b9e4", "is_reserved": 0, "rental_uris": {"android": "https://dc.lft.to/lastmile_qr_scan", "ios": "https://dc.lft.to/lastmile_qr_scan"}, "fusion_lon": 0.0}, {"lat": 38.8988415, "is_disabled": 0, "type": "electric_scooter", "lon": -76.93174916666666, "bike_id": "d19c4793dcc13193057a9bf14079f8dc", "fusion_lat": 0.0, "name": "d19c4793dcc13193057a9bf14079f8dc", "is_reserved": 0, "rental_uris": {"android": "https://dc.lft.to/lastmile_qr_scan", "ios": "https://dc.lft.to/lastmile_qr_scan"}, "fusion_lon": 0.0}, {"lat": 38.934150833333334, "is_disabled": 0, "type": "electric_bike", "lon": -77.0251305, "bike_id": "38f36df0af036f79d5d992c8a1610497", "fusion_lat": 0.0, "name": "38f36df0af036f79d5d992c8a1610497", "is_reserved": 0, "rental_uris": {"android": "https://dc.lft.to/lastmile_qr_scan", "ios": "https://dc.lft.to/lastmile_qr_scan"}, "fusion_lon": 0.0}, {"lat": 38.904780333333335, "is_disabled": 0, "type": "electric_scooter", "lon": -77.0392135, "bike_id": "8a80133d7e8b3fd5ac52df099a35a6a3", "fusion_lat": 0.0, "name": "8a80133d7e8b3fd5ac52df099a35a6a3", "is_reserved": 0, "rental_uris": {"android": "https://dc.lft.to/lastmile_qr_scan", "ios": "https://dc.lft.to/lastmile_qr_scan"}, "fusion_lon": 0.0}, {"lat": 38.897839833333336, "is_disabled": 0, "type": "electric_scooter", "lon": -77.03170416666667, "bike_id": "3351073f22ea733b8663534a0d81af30", "fusion_lat": 0.0, "name": "3351073f22ea733b8663534a0d81af30", "is_reserved": 0, "rental_uris": {"android": "https://dc.lft.to/lastmile_qr_scan", "ios": "https://dc.lft.to/lastmile_qr_scan"}, "fusion_lon": 0.0}, {"lat": 38.92255516666667, "is_disabled": 0, "type": "electric_scooter", "lon": -77.03014083333333, "bike_id": "4991b7d52237170a1ac06e53e981de3d", "fusion_lat": 0.0, "name": "4991b7d52237170a1ac06e53e981de3d", "is_reserved": 0, "rental_uris": {"android": "https://dc.lft.to/lastmile_qr_scan", "ios": "https://dc.lft.to/lastmile_qr_scan"}, "fusion_lon": 0.0}, {"lat": 38.905142833333336, "is_disabled": 0, "type": "electric_scooter", "lon": -77.0434715, "bike_id": "c604f214ee9fbaa9490e2ffd528ecaed", "fusion_lat": 0.0, "name": "c604f214ee9fbaa9490e2ffd528ecaed", "is_reserved": 0, "rental_uris": {"android": "https://dc.lft.to/lastmile_qr_scan", "ios": "https://dc.lft.to/lastmile_qr_scan"}, "fusion_lon": 0.0}, {"lat": 38.884303333333335, "is_disabled": 0, "type": "electric_scooter", "lon": -76.95753966666666, "bike_id": "784a346aac67ef2302046743f48d7130", "fusion_lat": 0.0, "name": "784a346aac67ef2302046743f48d7130", "is_reserved": 0, "rental_uris": {"android": "https://dc.lft.to/lastmile_qr_scan", "ios": "https://dc.lft.to/lastmile_qr_scan"}, "fusion_lon": 0.0}, {"lat": 38.92250166666667, "is_disabled": 0, "type": "electric_scooter", "lon": -77.019506, "bike_id": "30923aecb44b7aa0363d2cf8fd1c7add", "fusion_lat": 0.0, "name": "30923aecb44b7aa0363d2cf8fd1c7add", "is_reserved": 0, "rental_uris": {"android": "https://dc.lft.to/lastmile_qr_scan", "ios": "https://dc.lft.to/lastmile_qr_scan"}, "fusion_lon": 0.0}, {"lat": 38.87148833333333, "is_disabled": 0, "type": "electric_bike", "lon": -76.93707583333334, "bike_id": "744d8787a0bb7cb79c23730222952125", "fusion_lat": 0.0, "name": "744d8787a0bb7cb79c23730222952125", "is_reserved": 0, "rental_uris": {"android": "https://dc.lft.to/lastmile_qr_scan", "ios": "https://dc.lft.to/lastmile_qr_scan"}, "fusion_lon": 0.0}, {"lat": 38.90650566666667, "is_disabled": 0, "type": "electric_scooter", "lon": -77.01140633333333, "bike_id": "1c6be16dbc01aa75a5c563866303378d", "fusion_lat": 0.0, "name": "1c6be16dbc01aa75a5c563866303378d", "is_reserved": 0, "rental_uris": {"android": "https://dc.lft.to/lastmile_qr_scan", "ios": "https://dc.lft.to/lastmile_qr_scan"}, "fusion_lon": 0.0}, {"lat": 38.85716433333333, "is_disabled": 0, "type": "electric_bike", "lon": -76.97097683333334, "bike_id": "747ada87decb7e4e09e3167acb800c8b", "fusion_lat": 0.0, "name": "747ada87decb7e4e09e3167acb800c8b", "is_reserved": 0, "rental_uris": {"android": "https://dc.lft.to/lastmile_qr_scan", "ios": "https://dc.lft.to/lastmile_qr_scan"}, "fusion_lon": 0.0}, {"lat": 38.918173, "is_disabled": 0, "type": "electric_scooter", "lon": -77.0391385, "bike_id": "14f145613d75e9776a3d5517d30da691", "fusion_lat": 0.0, "name": "14f145613d75e9776a3d5517d30da691", "is_reserved": 0, "rental_uris": {"android": "https://dc.lft.to/lastmile_qr_scan", "ios": "https://dc.lft.to/lastmile_qr_scan"}, "fusion_lon": 0.0}, {"lat": 38.917353166666665, "is_disabled": 0, "type": "electric_scooter", "lon": -77.036629, "bike_id": "5726e182477c1a93dad0394850032e5a", "fusion_lat": 0.0, "name": "5726e182477c1a93dad0394850032e5a", "is_reserved": 0, "rental_uris": {"android": "https://dc.lft.to/lastmile_qr_scan", "ios": "https://dc.lft.to/lastmile_qr_scan"}, "fusion_lon": 0.0}, {"lat": 38.914234666666665, "is_disabled": 0, "type": "electric_scooter", "lon": -77.0220205, "bike_id": "94a015b8e8a8e58cc8e74bdb2ce1fc15", "fusion_lat": 0.0, "name": "94a015b8e8a8e58cc8e74bdb2ce1fc15", "is_reserved": 0, "rental_uris": {"android": "https://dc.lft.to/lastmile_qr_scan", "ios": "https://dc.lft.to/lastmile_qr_scan"}, "fusion_lon": 0.0}, {"lat": 38.93711166666667, "is_disabled": 0, "type": "electric_scooter", "lon": -77.03637383333333, "bike_id": "662fd51f502263302d79b77901fedd6e", "fusion_lat": 0.0, "name": "662fd51f502263302d79b77901fedd6e", "is_reserved": 0, "rental_uris": {"android": "https://dc.lft.to/lastmile_qr_scan", "ios": "https://dc.lft.to/lastmile_qr_scan"}, "fusion_lon": 0.0}, {"lat": 38.99637233333333, "is_disabled": 0, "type": "electric_bike", "lon": -77.02970933333333, "bike_id": "b6148ed74a9e3ea31527aca1341403e8", "fusion_lat": 0.0, "name": "b6148ed74a9e3ea31527aca1341403e8", "is_reserved": 0, "rental_uris": {"android": "https://dc.lft.to/lastmile_qr_scan", "ios": "https://dc.lft.to/lastmile_qr_scan"}, "fusion_lon": 0.0}, {"lat": 38.9080885, "is_disabled": 0, "type": "electric_scooter", "lon": -77.04337466666667, "bike_id": "5164c6227637afad0cacf640384ace0f", "fusion_lat": 0.0, "name": "5164c6227637afad0cacf640384ace0f", "is_reserved": 0, "rental_uris": {"android": "https://dc.lft.to/lastmile_qr_scan", "ios": "https://dc.lft.to/lastmile_qr_scan"}, "fusion_lon": 0.0}, {"lat": 38.907381, "is_disabled": 0, "type": "electric_scooter", "lon": -77.027176, "bike_id": "0be7b2daf5941c670939f227ee443628", "fusion_lat": 0.0, "name": "0be7b2daf5941c670939f227ee443628", "is_reserved": 0, "rental_uris": {"android": "https://dc.lft.to/lastmile_qr_scan", "ios": "https://dc.lft.to/lastmile_qr_scan"}, "fusion_lon": 0.0}, {"lat": 38.915664666666665, "is_disabled": 0, "type": "electric_scooter", "lon": -77.029856, "bike_id": "7eb1fdbad8d52db9f7eb84e53f493c4a", "fusion_lat": 0.0, "name": "7eb1fdbad8d52db9f7eb84e53f493c4a", "is_reserved": 0, "rental_uris": {"android": "https://dc.lft.to/lastmile_qr_scan", "ios": "https://dc.lft.to/lastmile_qr_scan"}, "fusion_lon": 0.0}, {"lat": 38.926165166666664, "is_disabled": 0, "type": "electric_scooter", "lon": -77.0216515, "bike_id": "3b304af06ec0b949d3cc0cd2b59d721c", "fusion_lat": 0.0, "name": "3b304af06ec0b949d3cc0cd2b59d721c", "is_reserved": 0, "rental_uris": {"android": "https://dc.lft.to/lastmile_qr_scan", "ios": "https://dc.lft.to/lastmile_qr_scan"}, "fusion_lon": 0.0}, {"lat": 38.90782433333333, "is_disabled": 0, "type": "electric_bike", "lon": -77.07169333333333, "bike_id": "80bafadfebf92d9598bd089f00522189", "fusion_lat": 0.0, "name": "80bafadfebf92d9598bd089f00522189", "is_reserved": 0, "rental_uris": {"android": "https://dc.lft.to/lastmile_qr_scan", "ios": "https://dc.lft.to/lastmile_qr_scan"}, "fusion_lon": 0.0}, {"lat": 38.90738016666667, "is_disabled": 0, "type": "electric_scooter", "lon": -77.02806266666667, "bike_id": "15f22e79a18ddfede46223f988b45911", "fusion_lat": 0.0, "name": "15f22e79a18ddfede46223f988b45911", "is_reserved": 0, "rental_uris": {"android": "https://dc.lft.to/lastmile_qr_scan", "ios": "https://dc.lft.to/lastmile_qr_scan"}, "fusion_lon": 0.0}, {"lat": 38.88377883333333, "is_disabled": 0, "type": "electric_scooter", "lon": -76.99520316666667, "bike_id": "c78e2af310fae9193fe32702effd2881", "fusion_lat": 0.0, "name": "c78e2af310fae9193fe32702effd2881", "is_reserved": 0, "rental_uris": {"android": "https://dc.lft.to/lastmile_qr_scan", "ios": "https://dc.lft.to/lastmile_qr_scan"}, "fusion_lon": 0.0}, {"lat": 38.902239333333334, "is_disabled": 0, "type": "electric_scooter", "lon": -77.02936083333333, "bike_id": "53e105ecec8bf575e5b91edbe3f204ff", "fusion_lat": 0.0, "name": "53e105ecec8bf575e5b91edbe3f204ff", "is_reserved": 0, "rental_uris": {"android": "https://dc.lft.to/lastmile_qr_scan", "ios": "https://dc.lft.to/lastmile_qr_scan"}, "fusion_lon": 0.0}, {"lat": 38.903630666666665, "is_disabled": 0, "type": "electric_scooter", "lon": -77.033168, "bike_id": "6dd7a2c7e8f1dbd7ba8de764ef3b2475", "fusion_lat": 0.0, "name": "6dd7a2c7e8f1dbd7ba8de764ef3b2475", "is_reserved": 0, "rental_uris": {"android": "https://dc.lft.to/lastmile_qr_scan", "ios": "https://dc.lft.to/lastmile_qr_scan"}, "fusion_lon": 0.0}, {"lat": 38.93267683333333, "is_disabled": 0, "type": "electric_scooter", "lon": -77.02970983333333, "bike_id": "d806ae0baab6aa4f591561c324286d3b", "fusion_lat": 0.0, "name": "d806ae0baab6aa4f591561c324286d3b", "is_reserved": 0, "rental_uris": {"android": "https://dc.lft.to/lastmile_qr_scan", "ios": "https://dc.lft.to/lastmile_qr_scan"}, "fusion_lon": 0.0}, {"lat": 38.911845666666665, "is_disabled": 0, "type": "electric_scooter", "lon": -77.01078466666667, "bike_id": "3deb40f0256e52727e94048aad1a761f", "fusion_lat": 0.0, "name": "3deb40f0256e52727e94048aad1a761f", "is_reserved": 0, "rental_uris": {"android": "https://dc.lft.to/lastmile_qr_scan", "ios": "https://dc.lft.to/lastmile_qr_scan"}, "fusion_lon": 0.0}, {"lat": 38.902393333333336, "is_disabled": 0, "type": "electric_scooter", "lon": -77.00204683333334, "bike_id": "94fab2be27b459a8a21c2d3b2d31c2c9", "fusion_lat": 0.0, "name": "94fab2be27b459a8a21c2d3b2d31c2c9", "is_reserved": 0, "rental_uris": {"android": "https://dc.lft.to/lastmile_qr_scan", "ios": "https://dc.lft.to/lastmile_qr_scan"}, "fusion_lon": 0.0}, {"lat": 38.930181166666664, "is_disabled": 0, "type": "electric_scooter", "lon": -77.0445795, "bike_id": "2ac512d0d27ad9372636587578ed4523", "fusion_lat": 0.0, "name": "2ac512d0d27ad9372636587578ed4523", "is_reserved": 0, "rental_uris": {"android": "https://dc.lft.to/lastmile_qr_scan", "ios": "https://dc.lft.to/lastmile_qr_scan"}, "fusion_lon": 0.0}, {"lat": 38.91033316666667, "is_disabled": 0, "type": "electric_scooter", "lon": -77.042797, "bike_id": "ca16b5213f83c4ed265f86d949b5c454", "fusion_lat": 0.0, "name": "ca16b5213f83c4ed265f86d949b5c454", "is_reserved": 0, "rental_uris": {"android": "https://dc.lft.to/lastmile_qr_scan", "ios": "https://dc.lft.to/lastmile_qr_scan"}, "fusion_lon": 0.0}, {"lat": 38.91404433333334, "is_disabled": 0, "type": "electric_scooter", "lon": -77.03155866666667, "bike_id": "d1fbcd9595553becb42b51c2c2f6db99", "fusion_lat": 0.0, "name": "d1fbcd9595553becb42b51c2c2f6db99", "is_reserved": 0, "rental_uris": {"android": "https://dc.lft.to/lastmile_qr_scan", "ios": "https://dc.lft.to/lastmile_qr_scan"}, "fusion_lon": 0.0}, {"lat": 38.89557, "is_disabled": 0, "type": "electric_scooter", "lon": -77.00928466666667, "bike_id": "4f5a24940159dea1982a17e6bb1f8ac6", "fusion_lat": 0.0, "name": "4f5a24940159dea1982a17e6bb1f8ac6", "is_reserved": 0, "rental_uris": {"android": "https://dc.lft.to/lastmile_qr_scan", "ios": "https://dc.lft.to/lastmile_qr_scan"}, "fusion_lon": 0.0}, {"lat": 38.91910083333333, "is_disabled": 0, "type": "electric_scooter", "lon": -77.03181433333333, "bike_id": "c20e9f8354994a4738b060e7f9354fab", "fusion_lat": 0.0, "name": "c20e9f8354994a4738b060e7f9354fab", "is_reserved": 0, "rental_uris": {"android": "https://dc.lft.to/lastmile_qr_scan", "ios": "https://dc.lft.to/lastmile_qr_scan"}, "fusion_lon": 0.0}, {"lat": 38.8971555, "is_disabled": 0, "type": "electric_scooter", "lon": -77.04882833333333, "bike_id": "893097a5d87be07db08342ce39cd1456", "fusion_lat": 0.0, "name": "893097a5d87be07db08342ce39cd1456", "is_reserved": 0, "rental_uris": {"android": "https://dc.lft.to/lastmile_qr_scan", "ios": "https://dc.lft.to/lastmile_qr_scan"}, "fusion_lon": 0.0}, {"lat": 38.8991535, "is_disabled": 0, "type": "electric_scooter", "lon": -76.93351016666666, "bike_id": "6a41348c023ca128ef76eeed5b622240", "fusion_lat": 0.0, "name": "6a41348c023ca128ef76eeed5b622240", "is_reserved": 0, "rental_uris": {"android": "https://dc.lft.to/lastmile_qr_scan", "ios": "https://dc.lft.to/lastmile_qr_scan"}, "fusion_lon": 0.0}, {"lat": 38.90551, "is_disabled": 0, "type": "electric_scooter", "lon": -77.03405583333333, "bike_id": "83d3b5de0800a48e35390586b8ef9080", "fusion_lat": 0.0, "name": "83d3b5de0800a48e35390586b8ef9080", "is_reserved": 0, "rental_uris": {"android": "https://dc.lft.to/lastmile_qr_scan", "ios": "https://dc.lft.to/lastmile_qr_scan"}, "fusion_lon": 0.0}, {"lat": 38.917113666666665, "is_disabled": 0, "type": "electric_scooter", "lon": -77.0266355, "bike_id": "1da464d1edba282f12d468c4423e6c99", "fusion_lat": 0.0, "name": "1da464d1edba282f12d468c4423e6c99", "is_reserved": 0, "rental_uris": {"android": "https://dc.lft.to/lastmile_qr_scan", "ios": "https://dc.lft.to/lastmile_qr_scan"}, "fusion_lon": 0.0}, {"lat": 38.859054666666665, "is_disabled": 0, "type": "electric_scooter", "lon": -76.991518, "bike_id": "14039339422a4f06605bedcdf238bd20", "fusion_lat": 0.0, "name": "14039339422a4f06605bedcdf238bd20", "is_reserved": 0, "rental_uris": {"android": "https://dc.lft.to/lastmile_qr_scan", "ios": "https://dc.lft.to/lastmile_qr_scan"}, "fusion_lon": 0.0}, {"lat": 38.91197283333333, "is_disabled": 0, "type": "electric_scooter", "lon": -77.0318265, "bike_id": "9378c579fa4cc57e7caa4cc23556df81", "fusion_lat": 0.0, "name": "9378c579fa4cc57e7caa4cc23556df81", "is_reserved": 0, "rental_uris": {"android": "https://dc.lft.to/lastmile_qr_scan", "ios": "https://dc.lft.to/lastmile_qr_scan"}, "fusion_lon": 0.0}, {"lat": 38.90610483333333, "is_disabled": 0, "type": "electric_scooter", "lon": -77.01881983333334, "bike_id": "b85668d424c213045ab231aeddebe49b", "fusion_lat": 0.0, "name": "b85668d424c213045ab231aeddebe49b", "is_reserved": 0, "rental_uris": {"android": "https://dc.lft.to/lastmile_qr_scan", "ios": "https://dc.lft.to/lastmile_qr_scan"}, "fusion_lon": 0.0}, {"lat": 38.917365833333335, "is_disabled": 0, "type": "electric_scooter", "lon": -77.03644716666666, "bike_id": "d1f7336e89de53132afa675b3df8ba06", "fusion_lat": 0.0, "name": "d1f7336e89de53132afa675b3df8ba06", "is_reserved": 0, "rental_uris": {"android": "https://dc.lft.to/lastmile_qr_scan", "ios": "https://dc.lft.to/lastmile_qr_scan"}, "fusion_lon": 0.0}, {"lat": 39.052024, "is_disabled": 0, "type": "electric_bike", "lon": -77.10923866666667, "bike_id": "6c76f5ae459f1bed050cc3cfce89aa0c", "fusion_lat": 0.0, "name": "6c76f5ae459f1bed050cc3cfce89aa0c", "is_reserved": 0, "rental_uris": {"android": "https://dc.lft.to/lastmile_qr_scan", "ios": "https://dc.lft.to/lastmile_qr_scan"}, "fusion_lon": 0.0}, {"lat": 38.902112833333334, "is_disabled": 0, "type": "electric_scooter", "lon": -77.02372783333334, "bike_id": "53ddc31e2f39c9d63f676a021739273e", "fusion_lat": 0.0, "name": "53ddc31e2f39c9d63f676a021739273e", "is_reserved": 0, "rental_uris": {"android": "https://dc.lft.to/lastmile_qr_scan", "ios": "https://dc.lft.to/lastmile_qr_scan"}, "fusion_lon": 0.0}, {"lat": 38.95278116666667, "is_disabled": 0, "type": "electric_scooter", "lon": -77.0687225, "bike_id": "c2e7ed6f321a6e3270a825d61eb075b5", "fusion_lat": 0.0, "name": "c2e7ed6f321a6e3270a825d61eb075b5", "is_reserved": 0, "rental_uris": {"android": "https://dc.lft.to/lastmile_qr_scan", "ios": "https://dc.lft.to/lastmile_qr_scan"}, "fusion_lon": 0.0}, {"lat": 38.866572, "is_disabled": 0, "type": "electric_scooter", "lon": -76.98888783333334, "bike_id": "ff48c3d4d4008e1a50ca87753b6d5a4b", "fusion_lat": 0.0, "name": "ff48c3d4d4008e1a50ca87753b6d5a4b", "is_reserved": 0, "rental_uris": {"android": "https://dc.lft.to/lastmile_qr_scan", "ios": "https://dc.lft.to/lastmile_qr_scan"}, "fusion_lon": 0.0}, {"lat": 38.89916, "is_disabled": 0, "type": "electric_scooter", "lon": -76.93351866666667, "bike_id": "50f492ea845af4062fa71ff53d197835", "fusion_lat": 0.0, "name": "50f492ea845af4062fa71ff53d197835", "is_reserved": 0, "rental_uris": {"android": "https://dc.lft.to/lastmile_qr_scan", "ios": "https://dc.lft.to/lastmile_qr_scan"}, "fusion_lon": 0.0}, {"lat": 38.923648666666665, "is_disabled": 0, "type": "electric_scooter", "lon": -77.05052733333333, "bike_id": "3c6e2cdd4c0d874cadf9cc1ffce63388", "fusion_lat": 0.0, "name": "3c6e2cdd4c0d874cadf9cc1ffce63388", "is_reserved": 0, "rental_uris": {"android": "https://dc.lft.to/lastmile_qr_scan", "ios": "https://dc.lft.to/lastmile_qr_scan"}, "fusion_lon": 0.0}, {"lat": 38.8874305, "is_disabled": 0, "type": "electric_bike", "lon": -77.02588083333333, "bike_id": "66944005833cc6cbb542ab73f188c347", "fusion_lat": 0.0, "name": "66944005833cc6cbb542ab73f188c347", "is_reserved": 0, "rental_uris": {"android": "https://dc.lft.to/lastmile_qr_scan", "ios": "https://dc.lft.to/lastmile_qr_scan"}, "fusion_lon": 0.0}, {"lat": 38.9155985, "is_disabled": 0, "type": "electric_scooter", "lon": -77.05323483333333, "bike_id": "69c13904f2a4e06868bb5757fa283f1a", "fusion_lat": 0.0, "name": "69c13904f2a4e06868bb5757fa283f1a", "is_reserved": 0, "rental_uris": {"android": "https://dc.lft.to/lastmile_qr_scan", "ios": "https://dc.lft.to/lastmile_qr_scan"}, "fusion_lon": 0.0}, {"lat": 38.90829133333333, "is_disabled": 0, "type": "electric_scooter", "lon": -77.03448616666667, "bike_id": "ef99930371df4fa3da3c635a29935d3a", "fusion_lat": 0.0, "name": "ef99930371df4fa3da3c635a29935d3a", "is_reserved": 0, "rental_uris": {"android": "https://dc.lft.to/lastmile_qr_scan", "ios": "https://dc.lft.to/lastmile_qr_scan"}, "fusion_lon": 0.0}, {"lat": 38.90572566666667, "is_disabled": 0, "type": "electric_scooter", "lon": -77.03269916666666, "bike_id": "6ccd98853ab32bbb74c093f5c357a6d6", "fusion_lat": 0.0, "name": "6ccd98853ab32bbb74c093f5c357a6d6", "is_reserved": 0, "rental_uris": {"android": "https://dc.lft.to/lastmile_qr_scan", "ios": "https://dc.lft.to/lastmile_qr_scan"}, "fusion_lon": 0.0}, {"lat": 38.872380666666665, "is_disabled": 0, "type": "electric_bike", "lon": -77.012174, "bike_id": "297c3db6c405b5ef276787071ff09288", "fusion_lat": 0.0, "name": "297c3db6c405b5ef276787071ff09288", "is_reserved": 0, "rental_uris": {"android": "https://dc.lft.to/lastmile_qr_scan", "ios": "https://dc.lft.to/lastmile_qr_scan"}, "fusion_lon": 0.0}, {"lat": 38.9182185, "is_disabled": 0, "type": "electric_scooter", "lon": -77.04187666666667, "bike_id": "41a15f9bc2785735da3bc8d5b2063443", "fusion_lat": 0.0, "name": "41a15f9bc2785735da3bc8d5b2063443", "is_reserved": 0, "rental_uris": {"android": "https://dc.lft.to/lastmile_qr_scan", "ios": "https://dc.lft.to/lastmile_qr_scan"}, "fusion_lon": 0.0}, {"lat": 38.910084166666664, "is_disabled": 0, "type": "electric_scooter", "lon": -77.04424133333333, "bike_id": "f322b323a1524584fd8c79fa1efe9362", "fusion_lat": 0.0, "name": "f322b323a1524584fd8c79fa1efe9362", "is_reserved": 0, "rental_uris": {"android": "https://dc.lft.to/lastmile_qr_scan", "ios": "https://dc.lft.to/lastmile_qr_scan"}, "fusion_lon": 0.0}, {"lat": 38.928617, "is_disabled": 0, "type": "electric_bike", "lon": -77.22225783333333, "bike_id": "4dac05692de116bfb53aedfa4a06cbba", "fusion_lat": 0.0, "name": "4dac05692de116bfb53aedfa4a06cbba", "is_reserved": 0, "rental_uris": {"android": "https://dc.lft.to/lastmile_qr_scan", "ios": "https://dc.lft.to/lastmile_qr_scan"}, "fusion_lon": 0.0}, {"lat": 39.08860633333333, "is_disabled": 0, "type": "electric_bike", "lon": -77.17842383333333, "bike_id": "cbea6e995ea15dd0c9263c54c83724d8", "fusion_lat": 0.0, "name": "cbea6e995ea15dd0c9263c54c83724d8", "is_reserved": 0, "rental_uris": {"android": "https://dc.lft.to/lastmile_qr_scan", "ios": "https://dc.lft.to/lastmile_qr_scan"}, "fusion_lon": 0.0}, {"lat": 38.89888883333333, "is_disabled": 0, "type": "electric_scooter", "lon": -76.93179033333334, "bike_id": "ad615189753760ee9ba18836b8e1688e", "fusion_lat": 0.0, "name": "ad615189753760ee9ba18836b8e1688e", "is_reserved": 0, "rental_uris": {"android": "https://dc.lft.to/lastmile_qr_scan", "ios": "https://dc.lft.to/lastmile_qr_scan"}, "fusion_lon": 0.0}, {"lat": 38.90382483333333, "is_disabled": 0, "type": "electric_scooter", "lon": -77.03587116666667, "bike_id": "99f0886a8e35e4115d9a71e5fb336ddb", "fusion_lat": 0.0, "name": "99f0886a8e35e4115d9a71e5fb336ddb", "is_reserved": 0, "rental_uris": {"android": "https://dc.lft.to/lastmile_qr_scan", "ios": "https://dc.lft.to/lastmile_qr_scan"}, "fusion_lon": 0.0}, {"lat": 38.9248905, "is_disabled": 0, "type": "electric_bike", "lon": -76.99030433333333, "bike_id": "3f4fd952e52a0c127d29f58d9251b8b7", "fusion_lat": 0.0, "name": "3f4fd952e52a0c127d29f58d9251b8b7", "is_reserved": 0, "rental_uris": {"android": "https://dc.lft.to/lastmile_qr_scan", "ios": "https://dc.lft.to/lastmile_qr_scan"}, "fusion_lon": 0.0}, {"lat": 38.903790666666666, "is_disabled": 0, "type": "electric_scooter", "lon": -77.03645566666667, "bike_id": "028df76eedff51aa7501ac822005895e", "fusion_lat": 0.0, "name": "028df76eedff51aa7501ac822005895e", "is_reserved": 0, "rental_uris": {"android": "https://dc.lft.to/lastmile_qr_scan", "ios": "https://dc.lft.to/lastmile_qr_scan"}, "fusion_lon": 0.0}, {"lat": 38.91621466666667, "is_disabled": 0, "type": "electric_scooter", "lon": -77.03154933333333, "bike_id": "04ca9e809cd216aaba241650b1e3e42f", "fusion_lat": 0.0, "name": "04ca9e809cd216aaba241650b1e3e42f", "is_reserved": 0, "rental_uris": {"android": "https://dc.lft.to/lastmile_qr_scan", "ios": "https://dc.lft.to/lastmile_qr_scan"}, "fusion_lon": 0.0}, {"lat": 38.9073575, "is_disabled": 0, "type": "electric_scooter", "lon": -77.02715416666666, "bike_id": "fb4c41ce09547d0d29b10d0c9c1c613b", "fusion_lat": 0.0, "name": "fb4c41ce09547d0d29b10d0c9c1c613b", "is_reserved": 0, "rental_uris": {"android": "https://dc.lft.to/lastmile_qr_scan", "ios": "https://dc.lft.to/lastmile_qr_scan"}, "fusion_lon": 0.0}, {"lat": 38.892199166666664, "is_disabled": 0, "type": "electric_scooter", "lon": -77.04514583333334, "bike_id": "01ec1bbc6bedc6049d7f8bc499792db3", "fusion_lat": 0.0, "name": "01ec1bbc6bedc6049d7f8bc499792db3", "is_reserved": 0, "rental_uris": {"android": "https://dc.lft.to/lastmile_qr_scan", "ios": "https://dc.lft.to/lastmile_qr_scan"}, "fusion_lon": 0.0}, {"lat": 38.9338485, "is_disabled": 0, "type": "electric_scooter", "lon": -77.03256516666667, "bike_id": "b547910246fa5c716c84688e8c5bed69", "fusion_lat": 0.0, "name": "b547910246fa5c716c84688e8c5bed69", "is_reserved": 0, "rental_uris": {"android": "https://dc.lft.to/lastmile_qr_scan", "ios": "https://dc.lft.to/lastmile_qr_scan"}, "fusion_lon": 0.0}, {"lat": 38.90069666666667, "is_disabled": 0, "type": "electric_scooter", "lon": -77.01220016666667, "bike_id": "1d6d95c431d15d502eb839a857f8d301", "fusion_lat": 0.0, "name": "1d6d95c431d15d502eb839a857f8d301", "is_reserved": 0, "rental_uris": {"android": "https://dc.lft.to/lastmile_qr_scan", "ios": "https://dc.lft.to/lastmile_qr_scan"}, "fusion_lon": 0.0}, {"lat": 38.92767816666667, "is_disabled": 0, "type": "electric_scooter", "lon": -77.0273355, "bike_id": "19306b0d304017173390b04a73389968", "fusion_lat": 0.0, "name": "19306b0d304017173390b04a73389968", "is_reserved": 0, "rental_uris": {"android": "https://dc.lft.to/lastmile_qr_scan", "ios": "https://dc.lft.to/lastmile_qr_scan"}, "fusion_lon": 0.0}, {"lat": 38.900169, "is_disabled": 0, "type": "electric_scooter", "lon": -77.03326566666667, "bike_id": "72c571484928036c587379c6bd21fa81", "fusion_lat": 0.0, "name": "72c571484928036c587379c6bd21fa81", "is_reserved": 0, "rental_uris": {"android": "https://dc.lft.to/lastmile_qr_scan", "ios": "https://dc.lft.to/lastmile_qr_scan"}, "fusion_lon": 0.0}, {"lat": 38.90281066666667, "is_disabled": 0, "type": "electric_scooter", "lon": -77.03847066666667, "bike_id": "d42675644f394ba0e1e57cf511ed9aff", "fusion_lat": 0.0, "name": "d42675644f394ba0e1e57cf511ed9aff", "is_reserved": 0, "rental_uris": {"android": "https://dc.lft.to/lastmile_qr_scan", "ios": "https://dc.lft.to/lastmile_qr_scan"}, "fusion_lon": 0.0}, {"lat": 38.91758333333333, "is_disabled": 0, "type": "electric_scooter", "lon": -77.031942, "bike_id": "b0f27276fc10835cf2c28f37f4fa7045", "fusion_lat": 0.0, "name": "b0f27276fc10835cf2c28f37f4fa7045", "is_reserved": 0, "rental_uris": {"android": "https://dc.lft.to/lastmile_qr_scan", "ios": "https://dc.lft.to/lastmile_qr_scan"}, "fusion_lon": 0.0}, {"lat": 38.90280516666667, "is_disabled": 0, "type": "electric_scooter", "lon": -77.04391216666667, "bike_id": "8aca8a420a088cf80aa0eac9544e2c9f", "fusion_lat": 0.0, "name": "8aca8a420a088cf80aa0eac9544e2c9f", "is_reserved": 0, "rental_uris": {"android": "https://dc.lft.to/lastmile_qr_scan", "ios": "https://dc.lft.to/lastmile_qr_scan"}, "fusion_lon": 0.0}, {"lat": 38.9099345, "is_disabled": 0, "type": "electric_scooter", "lon": -77.038441, "bike_id": "23f7baec6df9a0fcfaba6713144c1255", "fusion_lat": 0.0, "name": "23f7baec6df9a0fcfaba6713144c1255", "is_reserved": 0, "rental_uris": {"android": "https://dc.lft.to/lastmile_qr_scan", "ios": "https://dc.lft.to/lastmile_qr_scan"}, "fusion_lon": 0.0}, {"lat": 38.892867333333335, "is_disabled": 0, "type": "electric_scooter", "lon": -76.95854066666666, "bike_id": "9ef4ad15d44bbf78ce1c9e84273e21a6", "fusion_lat": 0.0, "name": "9ef4ad15d44bbf78ce1c9e84273e21a6", "is_reserved": 0, "rental_uris": {"android": "https://dc.lft.to/lastmile_qr_scan", "ios": "https://dc.lft.to/lastmile_qr_scan"}, "fusion_lon": 0.0}, {"lat": 38.910986333333334, "is_disabled": 0, "type": "electric_scooter", "lon": -77.03205716666666, "bike_id": "3ee38ec91df1362b6770fa46366e42bb", "fusion_lat": 0.0, "name": "3ee38ec91df1362b6770fa46366e42bb", "is_reserved": 0, "rental_uris": {"android": "https://dc.lft.to/lastmile_qr_scan", "ios": "https://dc.lft.to/lastmile_qr_scan"}, "fusion_lon": 0.0}, {"lat": 38.906803333333336, "is_disabled": 0, "type": "electric_scooter", "lon": -77.02717283333334, "bike_id": "382d2ef7ed5c05aa85b5d21e1922b8c2", "fusion_lat": 0.0, "name": "382d2ef7ed5c05aa85b5d21e1922b8c2", "is_reserved": 0, "rental_uris": {"android": "https://dc.lft.to/lastmile_qr_scan", "ios": "https://dc.lft.to/lastmile_qr_scan"}, "fusion_lon": 0.0}, {"lat": 38.91996483333333, "is_disabled": 0, "type": "electric_scooter", "lon": -77.032217, "bike_id": "ac2f5a0b5b34f8a99527153adb4e382a", "fusion_lat": 0.0, "name": "ac2f5a0b5b34f8a99527153adb4e382a", "is_reserved": 0, "rental_uris": {"android": "https://dc.lft.to/lastmile_qr_scan", "ios": "https://dc.lft.to/lastmile_qr_scan"}, "fusion_lon": 0.0}, {"lat": 38.92954116666667, "is_disabled": 0, "type": "electric_scooter", "lon": -76.99087183333333, "bike_id": "7fc26bb556af6f06d43f75feac5aa619", "fusion_lat": 0.0, "name": "7fc26bb556af6f06d43f75feac5aa619", "is_reserved": 0, "rental_uris": {"android": "https://dc.lft.to/lastmile_qr_scan", "ios": "https://dc.lft.to/lastmile_qr_scan"}, "fusion_lon": 0.0}, {"lat": 38.887245166666666, "is_disabled": 0, "type": "electric_scooter", "lon": -76.99616433333334, "bike_id": "83da4c67fd07ee94d3ddd87873fa11dc", "fusion_lat": 0.0, "name": "83da4c67fd07ee94d3ddd87873fa11dc", "is_reserved": 0, "rental_uris": {"android": "https://dc.lft.to/lastmile_qr_scan", "ios": "https://dc.lft.to/lastmile_qr_scan"}, "fusion_lon": 0.0}, {"lat": 38.898456, "is_disabled": 0, "type": "electric_scooter", "lon": -76.94637183333333, "bike_id": "a4f7435a731db202dc3ea57ae8cbb478", "fusion_lat": 0.0, "name": "a4f7435a731db202dc3ea57ae8cbb478", "is_reserved": 0, "rental_uris": {"android": "https://dc.lft.to/lastmile_qr_scan", "ios": "https://dc.lft.to/lastmile_qr_scan"}, "fusion_lon": 0.0}, {"lat": 38.915491, "is_disabled": 0, "type": "electric_scooter", "lon": -77.07424266666666, "bike_id": "20739b10ed2a3d5785ad19248d7507f5", "fusion_lat": 0.0, "name": "20739b10ed2a3d5785ad19248d7507f5", "is_reserved": 0, "rental_uris": {"android": "https://dc.lft.to/lastmile_qr_scan", "ios": "https://dc.lft.to/lastmile_qr_scan"}, "fusion_lon": 0.0}, {"lat": 38.90969666666667, "is_disabled": 0, "type": "electric_scooter", "lon": -76.99606366666667, "bike_id": "1b78499149a250ab60a585b47dd71416", "fusion_lat": 0.0, "name": "1b78499149a250ab60a585b47dd71416", "is_reserved": 0, "rental_uris": {"android": "https://dc.lft.to/lastmile_qr_scan", "ios": "https://dc.lft.to/lastmile_qr_scan"}, "fusion_lon": 0.0}, {"lat": 38.899969166666665, "is_disabled": 0, "type": "electric_scooter", "lon": -76.99958316666667, "bike_id": "7caba66ee58288d93bc4ca0a69e106a7", "fusion_lat": 0.0, "name": "7caba66ee58288d93bc4ca0a69e106a7", "is_reserved": 0, "rental_uris": {"android": "https://dc.lft.to/lastmile_qr_scan", "ios": "https://dc.lft.to/lastmile_qr_scan"}, "fusion_lon": 0.0}, {"lat": 38.912021, "is_disabled": 0, "type": "electric_scooter", "lon": -77.03176966666666, "bike_id": "1229dd4bd5d0db9e76f3f2cf9845e713", "fusion_lat": 0.0, "name": "1229dd4bd5d0db9e76f3f2cf9845e713", "is_reserved": 0, "rental_uris": {"android": "https://dc.lft.to/lastmile_qr_scan", "ios": "https://dc.lft.to/lastmile_qr_scan"}, "fusion_lon": 0.0}, {"lat": 38.917488666666664, "is_disabled": 0, "type": "electric_scooter", "lon": -77.0229305, "bike_id": "6fcd4a25bb335744194fd1f8b1b52f7b", "fusion_lat": 0.0, "name": "6fcd4a25bb335744194fd1f8b1b52f7b", "is_reserved": 0, "rental_uris": {"android": "https://dc.lft.to/lastmile_qr_scan", "ios": "https://dc.lft.to/lastmile_qr_scan"}, "fusion_lon": 0.0}, {"lat": 38.91254283333333, "is_disabled": 0, "type": "electric_scooter", "lon": -77.02534866666667, "bike_id": "138a90f0cbd30e496ea96202cf39baf7", "fusion_lat": 0.0, "name": "138a90f0cbd30e496ea96202cf39baf7", "is_reserved": 0, "rental_uris": {"android": "https://dc.lft.to/lastmile_qr_scan", "ios": "https://dc.lft.to/lastmile_qr_scan"}, "fusion_lon": 0.0}, {"lat": 38.909142333333335, "is_disabled": 0, "type": "electric_scooter", "lon": -77.04403266666667, "bike_id": "988e7510c80014fc8605e8652f4ec7a1", "fusion_lat": 0.0, "name": "988e7510c80014fc8605e8652f4ec7a1", "is_reserved": 0, "rental_uris": {"android": "https://dc.lft.to/lastmile_qr_scan", "ios": "https://dc.lft.to/lastmile_qr_scan"}, "fusion_lon": 0.0}, {"lat": 38.90383216666667, "is_disabled": 0, "type": "electric_scooter", "lon": -77.04240466666667, "bike_id": "26849b4d4b7e1b0881c8195b1f05769c", "fusion_lat": 0.0, "name": "26849b4d4b7e1b0881c8195b1f05769c", "is_reserved": 0, "rental_uris": {"android": "https://dc.lft.to/lastmile_qr_scan", "ios": "https://dc.lft.to/lastmile_qr_scan"}, "fusion_lon": 0.0}, {"lat": 38.929665, "is_disabled": 0, "type": "electric_scooter", "lon": -77.0278875, "bike_id": "febe320e5014bb70ba1fc445bb5147f6", "fusion_lat": 0.0, "name": "febe320e5014bb70ba1fc445bb5147f6", "is_reserved": 0, "rental_uris": {"android": "https://dc.lft.to/lastmile_qr_scan", "ios": "https://dc.lft.to/lastmile_qr_scan"}, "fusion_lon": 0.0}, {"lat": 38.9492335, "is_disabled": 0, "type": "electric_bike", "lon": -77.00803783333333, "bike_id": "ab69c6fb8c92a23af21e4b753b1876d1", "fusion_lat": 0.0, "name": "ab69c6fb8c92a23af21e4b753b1876d1", "is_reserved": 0, "rental_uris": {"android": "https://dc.lft.to/lastmile_qr_scan", "ios": "https://dc.lft.to/lastmile_qr_scan"}, "fusion_lon": 0.0}, {"lat": 38.9244645, "is_disabled": 0, "type": "electric_scooter", "lon": -77.04033216666667, "bike_id": "b744847c650c548a2aa22339d2be717d", "fusion_lat": 0.0, "name": "b744847c650c548a2aa22339d2be717d", "is_reserved": 0, "rental_uris": {"android": "https://dc.lft.to/lastmile_qr_scan", "ios": "https://dc.lft.to/lastmile_qr_scan"}, "fusion_lon": 0.0}, {"lat": 38.884154333333335, "is_disabled": 0, "type": "electric_scooter", "lon": -77.0152715, "bike_id": "c80753ca24f9ec10e8297449e9457546", "fusion_lat": 0.0, "name": "c80753ca24f9ec10e8297449e9457546", "is_reserved": 0, "rental_uris": {"android": "https://dc.lft.to/lastmile_qr_scan", "ios": "https://dc.lft.to/lastmile_qr_scan"}, "fusion_lon": 0.0}, {"lat": 38.904754, "is_disabled": 0, "type": "electric_scooter", "lon": -77.002155, "bike_id": "c9851a626f89ce0320878c8b3175f773", "fusion_lat": 0.0, "name": "c9851a626f89ce0320878c8b3175f773", "is_reserved": 0, "rental_uris": {"android": "https://dc.lft.to/lastmile_qr_scan", "ios": "https://dc.lft.to/lastmile_qr_scan"}, "fusion_lon": 0.0}, {"lat": 38.91427133333333, "is_disabled": 0, "type": "electric_scooter", "lon": -77.031857, "bike_id": "958b19172a3251f4a601976b36fa81b3", "fusion_lat": 0.0, "name": "958b19172a3251f4a601976b36fa81b3", "is_reserved": 0, "rental_uris": {"android": "https://dc.lft.to/lastmile_qr_scan", "ios": "https://dc.lft.to/lastmile_qr_scan"}, "fusion_lon": 0.0}, {"lat": 38.9061675, "is_disabled": 0, "type": "electric_scooter", "lon": -76.9898365, "bike_id": "7def2e74c7d9aa5503479cd1ff9790b8", "fusion_lat": 0.0, "name": "7def2e74c7d9aa5503479cd1ff9790b8", "is_reserved": 0, "rental_uris": {"android": "https://dc.lft.to/lastmile_qr_scan", "ios": "https://dc.lft.to/lastmile_qr_scan"}, "fusion_lon": 0.0}, {"lat": 38.90142, "is_disabled": 0, "type": "electric_scooter", "lon": -77.04349266666667, "bike_id": "abf5a6cd32fbd41cdfea087b6a1b3eea", "fusion_lat": 0.0, "name": "abf5a6cd32fbd41cdfea087b6a1b3eea", "is_reserved": 0, "rental_uris": {"android": "https://dc.lft.to/lastmile_qr_scan", "ios": "https://dc.lft.to/lastmile_qr_scan"}, "fusion_lon": 0.0}, {"lat": 38.8699915, "is_disabled": 0, "type": "electric_bike", "lon": -77.065708, "bike_id": "89841aa61230980386f13e31abb9636d", "fusion_lat": 0.0, "name": "89841aa61230980386f13e31abb9636d", "is_reserved": 0, "rental_uris": {"android": "https://dc.lft.to/lastmile_qr_scan", "ios": "https://dc.lft.to/lastmile_qr_scan"}, "fusion_lon": 0.0}, {"lat": 38.92406483333333, "is_disabled": 0, "type": "electric_scooter", "lon": -77.02743033333333, "bike_id": "297730db3573db003df89a6660adb177", "fusion_lat": 0.0, "name": "297730db3573db003df89a6660adb177", "is_reserved": 0, "rental_uris": {"android": "https://dc.lft.to/lastmile_qr_scan", "ios": "https://dc.lft.to/lastmile_qr_scan"}, "fusion_lon": 0.0}, {"lat": 38.89727966666667, "is_disabled": 0, "type": "electric_scooter", "lon": -77.02166416666667, "bike_id": "fa5ab0b861b88c9a0714a09703aac15f", "fusion_lat": 0.0, "name": "fa5ab0b861b88c9a0714a09703aac15f", "is_reserved": 0, "rental_uris": {"android": "https://dc.lft.to/lastmile_qr_scan", "ios": "https://dc.lft.to/lastmile_qr_scan"}, "fusion_lon": 0.0}, {"lat": 38.892292833333336, "is_disabled": 0, "type": "electric_bike", "lon": -77.03448166666666, "bike_id": "409134d62da754d8131a1cdc82ff9e92", "fusion_lat": 0.0, "name": "409134d62da754d8131a1cdc82ff9e92", "is_reserved": 0, "rental_uris": {"android": "https://dc.lft.to/lastmile_qr_scan", "ios": "https://dc.lft.to/lastmile_qr_scan"}, "fusion_lon": 0.0}, {"lat": 38.89621733333333, "is_disabled": 0, "type": "electric_scooter", "lon": -77.026639, "bike_id": "7b2d0ff93e76f9a47d964841c3f50369", "fusion_lat": 0.0, "name": "7b2d0ff93e76f9a47d964841c3f50369", "is_reserved": 0, "rental_uris": {"android": "https://dc.lft.to/lastmile_qr_scan", "ios": "https://dc.lft.to/lastmile_qr_scan"}, "fusion_lon": 0.0}, {"lat": 38.92038616666667, "is_disabled": 0, "type": "electric_scooter", "lon": -77.04193883333333, "bike_id": "6de00705c4e2769602a53c83d761a91d", "fusion_lat": 0.0, "name": "6de00705c4e2769602a53c83d761a91d", "is_reserved": 0, "rental_uris": {"android": "https://dc.lft.to/lastmile_qr_scan", "ios": "https://dc.lft.to/lastmile_qr_scan"}, "fusion_lon": 0.0}, {"lat": 38.906505333333335, "is_disabled": 0, "type": "electric_scooter", "lon": -77.0338515, "bike_id": "a2ba46cff090140eba76a1a9d3bb3292", "fusion_lat": 0.0, "name": "a2ba46cff090140eba76a1a9d3bb3292", "is_reserved": 0, "rental_uris": {"android": "https://dc.lft.to/lastmile_qr_scan", "ios": "https://dc.lft.to/lastmile_qr_scan"}, "fusion_lon": 0.0}, {"lat": 38.906833, "is_disabled": 0, "type": "electric_scooter", "lon": -77.037698, "bike_id": "bde23445c331e3e668cd1850733d3420", "fusion_lat": 0.0, "name": "bde23445c331e3e668cd1850733d3420", "is_reserved": 0, "rental_uris": {"android": "https://dc.lft.to/lastmile_qr_scan", "ios": "https://dc.lft.to/lastmile_qr_scan"}, "fusion_lon": 0.0}, {"lat": 38.89382283333333, "is_disabled": 0, "type": "electric_scooter", "lon": -77.050271, "bike_id": "e0150aa1c23b50aafb28e4b96a784699", "fusion_lat": 0.0, "name": "e0150aa1c23b50aafb28e4b96a784699", "is_reserved": 0, "rental_uris": {"android": "https://dc.lft.to/lastmile_qr_scan", "ios": "https://dc.lft.to/lastmile_qr_scan"}, "fusion_lon": 0.0}, {"lat": 38.933067333333334, "is_disabled": 0, "type": "electric_scooter", "lon": -77.03592766666667, "bike_id": "cd4d55d5b3819361396ca6b19aa7a1a7", "fusion_lat": 0.0, "name": "cd4d55d5b3819361396ca6b19aa7a1a7", "is_reserved": 0, "rental_uris": {"android": "https://dc.lft.to/lastmile_qr_scan", "ios": "https://dc.lft.to/lastmile_qr_scan"}, "fusion_lon": 0.0}, {"lat": 38.924808, "is_disabled": 0, "type": "electric_scooter", "lon": -77.0221955, "bike_id": "31583b402f3732435f36c27cc9da83db", "fusion_lat": 0.0, "name": "31583b402f3732435f36c27cc9da83db", "is_reserved": 0, "rental_uris": {"android": "https://dc.lft.to/lastmile_qr_scan", "ios": "https://dc.lft.to/lastmile_qr_scan"}, "fusion_lon": 0.0}, {"lat": 38.92234833333333, "is_disabled": 0, "type": "electric_scooter", "lon": -77.04253333333334, "bike_id": "5d6a3e147d6e0947ba0cb47dfe4fb423", "fusion_lat": 0.0, "name": "5d6a3e147d6e0947ba0cb47dfe4fb423", "is_reserved": 0, "rental_uris": {"android": "https://dc.lft.to/lastmile_qr_scan", "ios": "https://dc.lft.to/lastmile_qr_scan"}, "fusion_lon": 0.0}, {"lat": 38.93207433333333, "is_disabled": 0, "type": "electric_scooter", "lon": -77.0442975, "bike_id": "32a9edaa6617f42ac798a8345b4e3516", "fusion_lat": 0.0, "name": "32a9edaa6617f42ac798a8345b4e3516", "is_reserved": 0, "rental_uris": {"android": "https://dc.lft.to/lastmile_qr_scan", "ios": "https://dc.lft.to/lastmile_qr_scan"}, "fusion_lon": 0.0}, {"lat": 38.8778805, "is_disabled": 0, "type": "electric_scooter", "lon": -76.994111, "bike_id": "b27a9f4ca48e880abff4271a15a9fc0b", "fusion_lat": 0.0, "name": "b27a9f4ca48e880abff4271a15a9fc0b", "is_reserved": 0, "rental_uris": {"android": "https://dc.lft.to/lastmile_qr_scan", "ios": "https://dc.lft.to/lastmile_qr_scan"}, "fusion_lon": 0.0}, {"lat": 39.039006666666666, "is_disabled": 0, "type": "electric_bike", "lon": -77.05034716666667, "bike_id": "a569653cd2e0c937fcfe1b217e4dfab6", "fusion_lat": 0.0, "name": "a569653cd2e0c937fcfe1b217e4dfab6", "is_reserved": 0, "rental_uris": {"android": "https://dc.lft.to/lastmile_qr_scan", "ios": "https://dc.lft.to/lastmile_qr_scan"}, "fusion_lon": 0.0}, {"lat": 38.915638666666666, "is_disabled": 0, "type": "electric_scooter", "lon": -77.0314655, "bike_id": "8f4c70d448824a3748c2a039faa404ee", "fusion_lat": 0.0, "name": "8f4c70d448824a3748c2a039faa404ee", "is_reserved": 0, "rental_uris": {"android": "https://dc.lft.to/lastmile_qr_scan", "ios": "https://dc.lft.to/lastmile_qr_scan"}, "fusion_lon": 0.0}, {"lat": 38.922133333333335, "is_disabled": 0, "type": "electric_bike", "lon": -76.98800783333333, "bike_id": "7f5308e176846c49923a008190d2daaa", "fusion_lat": 0.0, "name": "7f5308e176846c49923a008190d2daaa", "is_reserved": 0, "rental_uris": {"android": "https://dc.lft.to/lastmile_qr_scan", "ios": "https://dc.lft.to/lastmile_qr_scan"}, "fusion_lon": 0.0}, {"lat": 38.902054, "is_disabled": 0, "type": "electric_scooter", "lon": -77.02185466666667, "bike_id": "7c2e14bc7ce178b99a45762412d1cc30", "fusion_lat": 0.0, "name": "7c2e14bc7ce178b99a45762412d1cc30", "is_reserved": 0, "rental_uris": {"android": "https://dc.lft.to/lastmile_qr_scan", "ios": "https://dc.lft.to/lastmile_qr_scan"}, "fusion_lon": 0.0}, {"lat": 38.917049166666665, "is_disabled": 0, "type": "electric_scooter", "lon": -77.02947783333333, "bike_id": "1bd93157493af4fba802d7672c36d027", "fusion_lat": 0.0, "name": "1bd93157493af4fba802d7672c36d027", "is_reserved": 0, "rental_uris": {"android": "https://dc.lft.to/lastmile_qr_scan", "ios": "https://dc.lft.to/lastmile_qr_scan"}, "fusion_lon": 0.0}, {"lat": 38.88372483333333, "is_disabled": 0, "type": "electric_scooter", "lon": -76.99506866666667, "bike_id": "c1080263900039ff6f75d4a1eea25054", "fusion_lat": 0.0, "name": "c1080263900039ff6f75d4a1eea25054", "is_reserved": 0, "rental_uris": {"android": "https://dc.lft.to/lastmile_qr_scan", "ios": "https://dc.lft.to/lastmile_qr_scan"}, "fusion_lon": 0.0}, {"lat": 38.928476333333336, "is_disabled": 0, "type": "electric_scooter", "lon": -77.03327833333333, "bike_id": "d079feb82742def52ad9b77bea4a7675", "fusion_lat": 0.0, "name": "d079feb82742def52ad9b77bea4a7675", "is_reserved": 0, "rental_uris": {"android": "https://dc.lft.to/lastmile_qr_scan", "ios": "https://dc.lft.to/lastmile_qr_scan"}, "fusion_lon": 0.0}, {"lat": 38.93318466666667, "is_disabled": 0, "type": "electric_scooter", "lon": -77.04529216666667, "bike_id": "a501190e705b7e7a559c21a3d7db422f", "fusion_lat": 0.0, "name": "a501190e705b7e7a559c21a3d7db422f", "is_reserved": 0, "rental_uris": {"android": "https://dc.lft.to/lastmile_qr_scan", "ios": "https://dc.lft.to/lastmile_qr_scan"}, "fusion_lon": 0.0}, {"lat": 38.97232066666667, "is_disabled": 0, "type": "electric_bike", "lon": -76.99345416666667, "bike_id": "6efb15f26072dd7d7b352253d5ea126b", "fusion_lat": 0.0, "name": "6efb15f26072dd7d7b352253d5ea126b", "is_reserved": 0, "rental_uris": {"android": "https://dc.lft.to/lastmile_qr_scan", "ios": "https://dc.lft.to/lastmile_qr_scan"}, "fusion_lon": 0.0}, {"lat": 38.890048, "is_disabled": 0, "type": "electric_scooter", "lon": -76.93749033333333, "bike_id": "8338c64855c93a755845faef7b9d36f6", "fusion_lat": 0.0, "name": "8338c64855c93a755845faef7b9d36f6", "is_reserved": 0, "rental_uris": {"android": "https://dc.lft.to/lastmile_qr_scan", "ios": "https://dc.lft.to/lastmile_qr_scan"}, "fusion_lon": 0.0}, {"lat": 38.923439333333334, "is_disabled": 0, "type": "electric_scooter", "lon": -77.05033683333333, "bike_id": "1dc59a79c07f0f0f39f99bb9fa3b7e29", "fusion_lat": 0.0, "name": "1dc59a79c07f0f0f39f99bb9fa3b7e29", "is_reserved": 0, "rental_uris": {"android": "https://dc.lft.to/lastmile_qr_scan", "ios": "https://dc.lft.to/lastmile_qr_scan"}, "fusion_lon": 0.0}, {"lat": 38.90977483333333, "is_disabled": 0, "type": "electric_scooter", "lon": -77.03182083333333, "bike_id": "4b46de50b5f271209ddc9355de75321f", "fusion_lat": 0.0, "name": "4b46de50b5f271209ddc9355de75321f", "is_reserved": 0, "rental_uris": {"android": "https://dc.lft.to/lastmile_qr_scan", "ios": "https://dc.lft.to/lastmile_qr_scan"}, "fusion_lon": 0.0}, {"lat": 38.908409166666665, "is_disabled": 0, "type": "electric_scooter", "lon": -76.99702483333333, "bike_id": "6baa3a9b9489661c2e5308cc70489835", "fusion_lat": 0.0, "name": "6baa3a9b9489661c2e5308cc70489835", "is_reserved": 0, "rental_uris": {"android": "https://dc.lft.to/lastmile_qr_scan", "ios": "https://dc.lft.to/lastmile_qr_scan"}, "fusion_lon": 0.0}, {"lat": 38.92244, "is_disabled": 0, "type": "electric_scooter", "lon": -77.04571933333334, "bike_id": "e7454448c9aa36e421b753f9cf94da38", "fusion_lat": 0.0, "name": "e7454448c9aa36e421b753f9cf94da38", "is_reserved": 0, "rental_uris": {"android": "https://dc.lft.to/lastmile_qr_scan", "ios": "https://dc.lft.to/lastmile_qr_scan"}, "fusion_lon": 0.0}, {"lat": 38.90271966666667, "is_disabled": 0, "type": "electric_scooter", "lon": -77.02841216666667, "bike_id": "483eb37409460a68bd2f722f27ec226f", "fusion_lat": 0.0, "name": "483eb37409460a68bd2f722f27ec226f", "is_reserved": 0, "rental_uris": {"android": "https://dc.lft.to/lastmile_qr_scan", "ios": "https://dc.lft.to/lastmile_qr_scan"}, "fusion_lon": 0.0}, {"lat": 38.90673666666667, "is_disabled": 0, "type": "electric_scooter", "lon": -77.03837883333334, "bike_id": "8426b1e45e3709a6a1ad5343ad1ceb1a", "fusion_lat": 0.0, "name": "8426b1e45e3709a6a1ad5343ad1ceb1a", "is_reserved": 0, "rental_uris": {"android": "https://dc.lft.to/lastmile_qr_scan", "ios": "https://dc.lft.to/lastmile_qr_scan"}, "fusion_lon": 0.0}, {"lat": 38.920397666666666, "is_disabled": 0, "type": "electric_bike", "lon": -77.03711466666667, "bike_id": "0cfe6707d6cd7f7f5d6634d30160784e", "fusion_lat": 0.0, "name": "0cfe6707d6cd7f7f5d6634d30160784e", "is_reserved": 0, "rental_uris": {"android": "https://dc.lft.to/lastmile_qr_scan", "ios": "https://dc.lft.to/lastmile_qr_scan"}, "fusion_lon": 0.0}, {"lat": 38.920475, "is_disabled": 0, "type": "electric_scooter", "lon": -77.03406266666667, "bike_id": "e32baed728cf233b6d72116e3adaac3b", "fusion_lat": 0.0, "name": "e32baed728cf233b6d72116e3adaac3b", "is_reserved": 0, "rental_uris": {"android": "https://dc.lft.to/lastmile_qr_scan", "ios": "https://dc.lft.to/lastmile_qr_scan"}, "fusion_lon": 0.0}, {"lat": 38.92403983333333, "is_disabled": 0, "type": "electric_scooter", "lon": -77.05258266666667, "bike_id": "3633568271f481f4d45c15c6ce1259ec", "fusion_lat": 0.0, "name": "3633568271f481f4d45c15c6ce1259ec", "is_reserved": 0, "rental_uris": {"android": "https://dc.lft.to/lastmile_qr_scan", "ios": "https://dc.lft.to/lastmile_qr_scan"}, "fusion_lon": 0.0}, {"lat": 38.900414166666664, "is_disabled": 0, "type": "electric_scooter", "lon": -76.99499766666666, "bike_id": "6d1b709e2617c22192fd7b09fff118d5", "fusion_lat": 0.0, "name": "6d1b709e2617c22192fd7b09fff118d5", "is_reserved": 0, "rental_uris": {"android": "https://dc.lft.to/lastmile_qr_scan", "ios": "https://dc.lft.to/lastmile_qr_scan"}, "fusion_lon": 0.0}, {"lat": 38.910095166666665, "is_disabled": 0, "type": "electric_scooter", "lon": -76.9849455, "bike_id": "4ded420ad3f65ea56542f268fb95a388", "fusion_lat": 0.0, "name": "4ded420ad3f65ea56542f268fb95a388", "is_reserved": 0, "rental_uris": {"android": "https://dc.lft.to/lastmile_qr_scan", "ios": "https://dc.lft.to/lastmile_qr_scan"}, "fusion_lon": 0.0}, {"lat": 38.83988216666667, "is_disabled": 0, "type": "electric_bike", "lon": -77.00572316666667, "bike_id": "299283634e00f14c314d4b525a9571c9", "fusion_lat": 0.0, "name": "299283634e00f14c314d4b525a9571c9", "is_reserved": 0, "rental_uris": {"android": "https://dc.lft.to/lastmile_qr_scan", "ios": "https://dc.lft.to/lastmile_qr_scan"}, "fusion_lon": 0.0}, {"lat": 38.888153, "is_disabled": 0, "type": "electric_scooter", "lon": -76.93342916666667, "bike_id": "bfde3c9e3c23f15ef6dfa3e4788d48fb", "fusion_lat": 0.0, "name": "bfde3c9e3c23f15ef6dfa3e4788d48fb", "is_reserved": 0, "rental_uris": {"android": "https://dc.lft.to/lastmile_qr_scan", "ios": "https://dc.lft.to/lastmile_qr_scan"}, "fusion_lon": 0.0}, {"lat": 38.91977466666667, "is_disabled": 0, "type": "electric_scooter", "lon": -77.03232216666666, "bike_id": "63bb3c91c47a518779fbb284e6f3e5d6", "fusion_lat": 0.0, "name": "63bb3c91c47a518779fbb284e6f3e5d6", "is_reserved": 0, "rental_uris": {"android": "https://dc.lft.to/lastmile_qr_scan", "ios": "https://dc.lft.to/lastmile_qr_scan"}, "fusion_lon": 0.0}, {"lat": 38.90213116666666, "is_disabled": 0, "type": "electric_scooter", "lon": -77.03351083333334, "bike_id": "b0303efa9ef2b7ebe827c428a5edb326", "fusion_lat": 0.0, "name": "b0303efa9ef2b7ebe827c428a5edb326", "is_reserved": 0, "rental_uris": {"android": "https://dc.lft.to/lastmile_qr_scan", "ios": "https://dc.lft.to/lastmile_qr_scan"}, "fusion_lon": 0.0}, {"lat": 38.91745516666667, "is_disabled": 0, "type": "electric_scooter", "lon": -77.031929, "bike_id": "eadaef1afa3d30e4a21632e18029e7eb", "fusion_lat": 0.0, "name": "eadaef1afa3d30e4a21632e18029e7eb", "is_reserved": 0, "rental_uris": {"android": "https://dc.lft.to/lastmile_qr_scan", "ios": "https://dc.lft.to/lastmile_qr_scan"}, "fusion_lon": 0.0}, {"lat": 38.896839166666666, "is_disabled": 0, "type": "electric_scooter", "lon": -76.9360855, "bike_id": "b21624acba0799a86069675bbe90b455", "fusion_lat": 0.0, "name": "b21624acba0799a86069675bbe90b455", "is_reserved": 0, "rental_uris": {"android": "https://dc.lft.to/lastmile_qr_scan", "ios": "https://dc.lft.to/lastmile_qr_scan"}, "fusion_lon": 0.0}, {"lat": 38.9446295, "is_disabled": 0, "type": "electric_scooter", "lon": -77.06030416666667, "bike_id": "b195368b8abb0d59f26aa319a4c74c48", "fusion_lat": 0.0, "name": "b195368b8abb0d59f26aa319a4c74c48", "is_reserved": 0, "rental_uris": {"android": "https://dc.lft.to/lastmile_qr_scan", "ios": "https://dc.lft.to/lastmile_qr_scan"}, "fusion_lon": 0.0}, {"lat": 38.884515666666665, "is_disabled": 0, "type": "electric_scooter", "lon": -76.95097083333333, "bike_id": "5c05b6f23f2c345a262b21c71d542c37", "fusion_lat": 0.0, "name": "5c05b6f23f2c345a262b21c71d542c37", "is_reserved": 0, "rental_uris": {"android": "https://dc.lft.to/lastmile_qr_scan", "ios": "https://dc.lft.to/lastmile_qr_scan"}, "fusion_lon": 0.0}, {"lat": 38.948282666666664, "is_disabled": 0, "type": "electric_scooter", "lon": -76.99904316666667, "bike_id": "668b236bab6cd6304cae0280514d9c15", "fusion_lat": 0.0, "name": "668b236bab6cd6304cae0280514d9c15", "is_reserved": 0, "rental_uris": {"android": "https://dc.lft.to/lastmile_qr_scan", "ios": "https://dc.lft.to/lastmile_qr_scan"}, "fusion_lon": 0.0}, {"lat": 38.925039166666664, "is_disabled": 0, "type": "electric_scooter", "lon": -77.05227283333333, "bike_id": "d15f41168ae9f0bb14332574d37a026b", "fusion_lat": 0.0, "name": "d15f41168ae9f0bb14332574d37a026b", "is_reserved": 0, "rental_uris": {"android": "https://dc.lft.to/lastmile_qr_scan", "ios": "https://dc.lft.to/lastmile_qr_scan"}, "fusion_lon": 0.0}, {"lat": 38.93079766666666, "is_disabled": 0, "type": "electric_scooter", "lon": -77.03395783333333, "bike_id": "54217f0e40b8433147e71025b3b60fea", "fusion_lat": 0.0, "name": "54217f0e40b8433147e71025b3b60fea", "is_reserved": 0, "rental_uris": {"android": "https://dc.lft.to/lastmile_qr_scan", "ios": "https://dc.lft.to/lastmile_qr_scan"}, "fusion_lon": 0.0}, {"lat": 38.9211925, "is_disabled": 0, "type": "electric_scooter", "lon": -77.0417345, "bike_id": "92bdb3d19a1301462198d55876ff50f5", "fusion_lat": 0.0, "name": "92bdb3d19a1301462198d55876ff50f5", "is_reserved": 0, "rental_uris": {"android": "https://dc.lft.to/lastmile_qr_scan", "ios": "https://dc.lft.to/lastmile_qr_scan"}, "fusion_lon": 0.0}, {"lat": 38.902334333333336, "is_disabled": 0, "type": "electric_scooter", "lon": -77.06055116666667, "bike_id": "dd0234a0105fcd5624c0d7c384f0f272", "fusion_lat": 0.0, "name": "dd0234a0105fcd5624c0d7c384f0f272", "is_reserved": 0, "rental_uris": {"android": "https://dc.lft.to/lastmile_qr_scan", "ios": "https://dc.lft.to/lastmile_qr_scan"}, "fusion_lon": 0.0}, {"lat": 38.90284166666667, "is_disabled": 0, "type": "electric_scooter", "lon": -77.04389, "bike_id": "222b9e2506807586aa4684524477f7f6", "fusion_lat": 0.0, "name": "222b9e2506807586aa4684524477f7f6", "is_reserved": 0, "rental_uris": {"android": "https://dc.lft.to/lastmile_qr_scan", "ios": "https://dc.lft.to/lastmile_qr_scan"}, "fusion_lon": 0.0}, {"lat": 38.918835, "is_disabled": 0, "type": "electric_scooter", "lon": -77.03178483333333, "bike_id": "36edfdc5ddd8a58f6fcd959d7b333f64", "fusion_lat": 0.0, "name": "36edfdc5ddd8a58f6fcd959d7b333f64", "is_reserved": 0, "rental_uris": {"android": "https://dc.lft.to/lastmile_qr_scan", "ios": "https://dc.lft.to/lastmile_qr_scan"}, "fusion_lon": 0.0}, {"lat": 38.91116133333333, "is_disabled": 0, "type": "electric_scooter", "lon": -77.0379005, "bike_id": "ebebd4ceb38e98978cdbe3ea132e7a96", "fusion_lat": 0.0, "name": "ebebd4ceb38e98978cdbe3ea132e7a96", "is_reserved": 0, "rental_uris": {"android": "https://dc.lft.to/lastmile_qr_scan", "ios": "https://dc.lft.to/lastmile_qr_scan"}, "fusion_lon": 0.0}, {"lat": 38.890424833333334, "is_disabled": 0, "type": "electric_scooter", "lon": -76.9524775, "bike_id": "eb699ff768906799b98df47efe7481b1", "fusion_lat": 0.0, "name": "eb699ff768906799b98df47efe7481b1", "is_reserved": 0, "rental_uris": {"android": "https://dc.lft.to/lastmile_qr_scan", "ios": "https://dc.lft.to/lastmile_qr_scan"}, "fusion_lon": 0.0}, {"lat": 38.898315833333335, "is_disabled": 0, "type": "electric_scooter", "lon": -77.031156, "bike_id": "17d2e3e27ba5999f4e34c0d7a0488610", "fusion_lat": 0.0, "name": "17d2e3e27ba5999f4e34c0d7a0488610", "is_reserved": 0, "rental_uris": {"android": "https://dc.lft.to/lastmile_qr_scan", "ios": "https://dc.lft.to/lastmile_qr_scan"}, "fusion_lon": 0.0}, {"lat": 38.89276366666667, "is_disabled": 0, "type": "electric_bike", "lon": -76.94236233333334, "bike_id": "a5ad752893e8bddcce983e64d157f65e", "fusion_lat": 0.0, "name": "a5ad752893e8bddcce983e64d157f65e", "is_reserved": 0, "rental_uris": {"android": "https://dc.lft.to/lastmile_qr_scan", "ios": "https://dc.lft.to/lastmile_qr_scan"}, "fusion_lon": 0.0}, {"lat": 38.8874095, "is_disabled": 0, "type": "electric_scooter", "lon": -77.01533416666666, "bike_id": "0edc9a842a8e159b585174948b0ac8e2", "fusion_lat": 0.0, "name": "0edc9a842a8e159b585174948b0ac8e2", "is_reserved": 0, "rental_uris": {"android": "https://dc.lft.to/lastmile_qr_scan", "ios": "https://dc.lft.to/lastmile_qr_scan"}, "fusion_lon": 0.0}, {"lat": 39.05635816666667, "is_disabled": 0, "type": "electric_bike", "lon": -77.12527183333333, "bike_id": "87831a9c6fbf84b57e975ec80c9cdce0", "fusion_lat": 0.0, "name": "87831a9c6fbf84b57e975ec80c9cdce0", "is_reserved": 0, "rental_uris": {"android": "https://dc.lft.to/lastmile_qr_scan", "ios": "https://dc.lft.to/lastmile_qr_scan"}, "fusion_lon": 0.0}, {"lat": 38.87672933333333, "is_disabled": 0, "type": "electric_scooter", "lon": -77.00411483333333, "bike_id": "9b404114cf9e10c59a4e0490169aeb23", "fusion_lat": 0.0, "name": "9b404114cf9e10c59a4e0490169aeb23", "is_reserved": 0, "rental_uris": {"android": "https://dc.lft.to/lastmile_qr_scan", "ios": "https://dc.lft.to/lastmile_qr_scan"}, "fusion_lon": 0.0}, {"lat": 38.917333166666666, "is_disabled": 0, "type": "electric_scooter", "lon": -77.036434, "bike_id": "7a4e8160137cf96d47165a3fda92cb40", "fusion_lat": 0.0, "name": "7a4e8160137cf96d47165a3fda92cb40", "is_reserved": 0, "rental_uris": {"android": "https://dc.lft.to/lastmile_qr_scan", "ios": "https://dc.lft.to/lastmile_qr_scan"}, "fusion_lon": 0.0}, {"lat": 38.91126883333333, "is_disabled": 0, "type": "electric_scooter", "lon": -77.03148616666667, "bike_id": "e9fae777af1b4c4f407e24349151216b", "fusion_lat": 0.0, "name": "e9fae777af1b4c4f407e24349151216b", "is_reserved": 0, "rental_uris": {"android": "https://dc.lft.to/lastmile_qr_scan", "ios": "https://dc.lft.to/lastmile_qr_scan"}, "fusion_lon": 0.0}, {"lat": 38.9220595, "is_disabled": 0, "type": "electric_scooter", "lon": -77.0425935, "bike_id": "1e4dcda7b82211c841f755d8aad892c9", "fusion_lat": 0.0, "name": "1e4dcda7b82211c841f755d8aad892c9", "is_reserved": 0, "rental_uris": {"android": "https://dc.lft.to/lastmile_qr_scan", "ios": "https://dc.lft.to/lastmile_qr_scan"}, "fusion_lon": 0.0}, {"lat": 38.906228166666665, "is_disabled": 0, "type": "electric_scooter", "lon": -77.02184, "bike_id": "e2a2c5fe7fce32bef00cef7f4b588943", "fusion_lat": 0.0, "name": "e2a2c5fe7fce32bef00cef7f4b588943", "is_reserved": 0, "rental_uris": {"android": "https://dc.lft.to/lastmile_qr_scan", "ios": "https://dc.lft.to/lastmile_qr_scan"}, "fusion_lon": 0.0}, {"lat": 38.90736883333334, "is_disabled": 0, "type": "electric_scooter", "lon": -76.9968805, "bike_id": "3e3075df8e03094f8a0c934ce65c2468", "fusion_lat": 0.0, "name": "3e3075df8e03094f8a0c934ce65c2468", "is_reserved": 0, "rental_uris": {"android": "https://dc.lft.to/lastmile_qr_scan", "ios": "https://dc.lft.to/lastmile_qr_scan"}, "fusion_lon": 0.0}, {"lat": 38.887445, "is_disabled": 0, "type": "electric_scooter", "lon": -77.02209116666667, "bike_id": "3273f6f47ae8d6c76879649c781d6ac4", "fusion_lat": 0.0, "name": "3273f6f47ae8d6c76879649c781d6ac4", "is_reserved": 0, "rental_uris": {"android": "https://dc.lft.to/lastmile_qr_scan", "ios": "https://dc.lft.to/lastmile_qr_scan"}, "fusion_lon": 0.0}, {"lat": 38.91812316666667, "is_disabled": 0, "type": "electric_scooter", "lon": -77.040309, "bike_id": "d45f5e8ddadc1ef602cbf9ccbe542242", "fusion_lat": 0.0, "name": "d45f5e8ddadc1ef602cbf9ccbe542242", "is_reserved": 0, "rental_uris": {"android": "https://dc.lft.to/lastmile_qr_scan", "ios": "https://dc.lft.to/lastmile_qr_scan"}, "fusion_lon": 0.0}, {"lat": 38.8939615, "is_disabled": 0, "type": "electric_scooter", "lon": -76.94995333333334, "bike_id": "51f55bc9098b17ab4fdfb3e5873482d9", "fusion_lat": 0.0, "name": "51f55bc9098b17ab4fdfb3e5873482d9", "is_reserved": 0, "rental_uris": {"android": "https://dc.lft.to/lastmile_qr_scan", "ios": "https://dc.lft.to/lastmile_qr_scan"}, "fusion_lon": 0.0}, {"lat": 38.915719833333334, "is_disabled": 0, "type": "electric_scooter", "lon": -77.0200815, "bike_id": "fdc93a084f27fc998e45faff294646a9", "fusion_lat": 0.0, "name": "fdc93a084f27fc998e45faff294646a9", "is_reserved": 0, "rental_uris": {"android": "https://dc.lft.to/lastmile_qr_scan", "ios": "https://dc.lft.to/lastmile_qr_scan"}, "fusion_lon": 0.0}, {"lat": 38.9236675, "is_disabled": 0, "type": "electric_scooter", "lon": -77.05127216666666, "bike_id": "b300a4329ce14f04149b7c16b5db2343", "fusion_lat": 0.0, "name": "b300a4329ce14f04149b7c16b5db2343", "is_reserved": 0, "rental_uris": {"android": "https://dc.lft.to/lastmile_qr_scan", "ios": "https://dc.lft.to/lastmile_qr_scan"}, "fusion_lon": 0.0}, {"lat": 38.90679866666667, "is_disabled": 0, "type": "electric_scooter", "lon": -77.03823416666667, "bike_id": "6db0c524afe02b3e82f054141c223c3d", "fusion_lat": 0.0, "name": "6db0c524afe02b3e82f054141c223c3d", "is_reserved": 0, "rental_uris": {"android": "https://dc.lft.to/lastmile_qr_scan", "ios": "https://dc.lft.to/lastmile_qr_scan"}, "fusion_lon": 0.0}, {"lat": 38.94414833333333, "is_disabled": 0, "type": "electric_scooter", "lon": -77.05521766666666, "bike_id": "026987f4d06cff8d6d29aa6306bd531c", "fusion_lat": 0.0, "name": "026987f4d06cff8d6d29aa6306bd531c", "is_reserved": 0, "rental_uris": {"android": "https://dc.lft.to/lastmile_qr_scan", "ios": "https://dc.lft.to/lastmile_qr_scan"}, "fusion_lon": 0.0}, {"lat": 38.9111895, "is_disabled": 0, "type": "electric_scooter", "lon": -77.03151766666667, "bike_id": "11fc81f1ac4d4df148740202192733f5", "fusion_lat": 0.0, "name": "11fc81f1ac4d4df148740202192733f5", "is_reserved": 0, "rental_uris": {"android": "https://dc.lft.to/lastmile_qr_scan", "ios": "https://dc.lft.to/lastmile_qr_scan"}, "fusion_lon": 0.0}, {"lat": 38.9352525, "is_disabled": 0, "type": "electric_scooter", "lon": -77.03265916666666, "bike_id": "1701e5a57aadf72b7aee636c9dac81ea", "fusion_lat": 0.0, "name": "1701e5a57aadf72b7aee636c9dac81ea", "is_reserved": 0, "rental_uris": {"android": "https://dc.lft.to/lastmile_qr_scan", "ios": "https://dc.lft.to/lastmile_qr_scan"}, "fusion_lon": 0.0}, {"lat": 38.93671966666667, "is_disabled": 0, "type": "electric_bike", "lon": -76.951996, "bike_id": "447a0299da6636e476f3a52bad2ade18", "fusion_lat": 0.0, "name": "447a0299da6636e476f3a52bad2ade18", "is_reserved": 0, "rental_uris": {"android": "https://dc.lft.to/lastmile_qr_scan", "ios": "https://dc.lft.to/lastmile_qr_scan"}, "fusion_lon": 0.0}, {"lat": 38.90723916666666, "is_disabled": 0, "type": "electric_scooter", "lon": -77.0344775, "bike_id": "7961457354791a6d6dc0b745132e5d9f", "fusion_lat": 0.0, "name": "7961457354791a6d6dc0b745132e5d9f", "is_reserved": 0, "rental_uris": {"android": "https://dc.lft.to/lastmile_qr_scan", "ios": "https://dc.lft.to/lastmile_qr_scan"}, "fusion_lon": 0.0}, {"lat": 38.902194, "is_disabled": 0, "type": "electric_scooter", "lon": -76.94590333333333, "bike_id": "09aa3e566a1d9589881ee315472eeefc", "fusion_lat": 0.0, "name": "09aa3e566a1d9589881ee315472eeefc", "is_reserved": 0, "rental_uris": {"android": "https://dc.lft.to/lastmile_qr_scan", "ios": "https://dc.lft.to/lastmile_qr_scan"}, "fusion_lon": 0.0}, {"lat": 38.93011683333334, "is_disabled": 0, "type": "electric_bike", "lon": -77.216538, "bike_id": "d12988e78e79f24ae83312e84395a475", "fusion_lat": 0.0, "name": "d12988e78e79f24ae83312e84395a475", "is_reserved": 0, "rental_uris": {"android": "https://dc.lft.to/lastmile_qr_scan", "ios": "https://dc.lft.to/lastmile_qr_scan"}, "fusion_lon": 0.0}, {"lat": 38.912182333333334, "is_disabled": 0, "type": "electric_scooter", "lon": -77.02757883333334, "bike_id": "05acaf41fe8a30055a9551e667d3e2f4", "fusion_lat": 0.0, "name": "05acaf41fe8a30055a9551e667d3e2f4", "is_reserved": 0, "rental_uris": {"android": "https://dc.lft.to/lastmile_qr_scan", "ios": "https://dc.lft.to/lastmile_qr_scan"}, "fusion_lon": 0.0}, {"lat": 38.936978833333335, "is_disabled": 0, "type": "electric_scooter", "lon": -77.02398266666667, "bike_id": "ce1e6c89d8ecf2227c9b33ed31d1cc93", "fusion_lat": 0.0, "name": "ce1e6c89d8ecf2227c9b33ed31d1cc93", "is_reserved": 0, "rental_uris": {"android": "https://dc.lft.to/lastmile_qr_scan", "ios": "https://dc.lft.to/lastmile_qr_scan"}, "fusion_lon": 0.0}, {"lat": 38.99426283333333, "is_disabled": 0, "type": "electric_bike", "lon": -77.02651116666667, "bike_id": "7eb4574e582db4d596b6613b787f6b46", "fusion_lat": 0.0, "name": "7eb4574e582db4d596b6613b787f6b46", "is_reserved": 0, "rental_uris": {"android": "https://dc.lft.to/lastmile_qr_scan", "ios": "https://dc.lft.to/lastmile_qr_scan"}, "fusion_lon": 0.0}, {"lat": 38.8991855, "is_disabled": 0, "type": "electric_scooter", "lon": -77.0411835, "bike_id": "9425f30d291373039c263be27cd71668", "fusion_lat": 0.0, "name": "9425f30d291373039c263be27cd71668", "is_reserved": 0, "rental_uris": {"android": "https://dc.lft.to/lastmile_qr_scan", "ios": "https://dc.lft.to/lastmile_qr_scan"}, "fusion_lon": 0.0}, {"lat": 38.9175685, "is_disabled": 0, "type": "electric_scooter", "lon": -77.03193683333333, "bike_id": "cdd6599fdbf8b0a406e8b264e067ff25", "fusion_lat": 0.0, "name": "cdd6599fdbf8b0a406e8b264e067ff25", "is_reserved": 0, "rental_uris": {"android": "https://dc.lft.to/lastmile_qr_scan", "ios": "https://dc.lft.to/lastmile_qr_scan"}, "fusion_lon": 0.0}, {"lat": 38.919669, "is_disabled": 0, "type": "electric_bike", "lon": -76.97273333333334, "bike_id": "696e7216d855884a05e28b48b3909ebe", "fusion_lat": 0.0, "name": "696e7216d855884a05e28b48b3909ebe", "is_reserved": 0, "rental_uris": {"android": "https://dc.lft.to/lastmile_qr_scan", "ios": "https://dc.lft.to/lastmile_qr_scan"}, "fusion_lon": 0.0}, {"lat": 38.89498566666666, "is_disabled": 0, "type": "electric_scooter", "lon": -77.021944, "bike_id": "f33bc038333799f52f4d059a7be43e79", "fusion_lat": 0.0, "name": "f33bc038333799f52f4d059a7be43e79", "is_reserved": 0, "rental_uris": {"android": "https://dc.lft.to/lastmile_qr_scan", "ios": "https://dc.lft.to/lastmile_qr_scan"}, "fusion_lon": 0.0}, {"lat": 38.93331833333333, "is_disabled": 0, "type": "electric_scooter", "lon": -77.04369166666666, "bike_id": "bc1b1ac11256770c22c970b85918571d", "fusion_lat": 0.0, "name": "bc1b1ac11256770c22c970b85918571d", "is_reserved": 0, "rental_uris": {"android": "https://dc.lft.to/lastmile_qr_scan", "ios": "https://dc.lft.to/lastmile_qr_scan"}, "fusion_lon": 0.0}, {"lat": 38.90232183333333, "is_disabled": 0, "type": "electric_scooter", "lon": -77.06060466666666, "bike_id": "74d8e31e1b05d010474192cf6f4df129", "fusion_lat": 0.0, "name": "74d8e31e1b05d010474192cf6f4df129", "is_reserved": 0, "rental_uris": {"android": "https://dc.lft.to/lastmile_qr_scan", "ios": "https://dc.lft.to/lastmile_qr_scan"}, "fusion_lon": 0.0}, {"lat": 38.9077125, "is_disabled": 0, "type": "electric_scooter", "lon": -77.00374533333333, "bike_id": "3241294265e4007ca926ada3eedd5ec8", "fusion_lat": 0.0, "name": "3241294265e4007ca926ada3eedd5ec8", "is_reserved": 0, "rental_uris": {"android": "https://dc.lft.to/lastmile_qr_scan", "ios": "https://dc.lft.to/lastmile_qr_scan"}, "fusion_lon": 0.0}, {"lat": 38.924825166666665, "is_disabled": 0, "type": "electric_scooter", "lon": -77.05751816666667, "bike_id": "8996055a844615e042a2d3a6842cb848", "fusion_lat": 0.0, "name": "8996055a844615e042a2d3a6842cb848", "is_reserved": 0, "rental_uris": {"android": "https://dc.lft.to/lastmile_qr_scan", "ios": "https://dc.lft.to/lastmile_qr_scan"}, "fusion_lon": 0.0}, {"lat": 38.919552833333334, "is_disabled": 0, "type": "electric_scooter", "lon": -76.98083383333334, "bike_id": "2c0a9ca7080dc632b004feaad3ef9885", "fusion_lat": 0.0, "name": "2c0a9ca7080dc632b004feaad3ef9885", "is_reserved": 0, "rental_uris": {"android": "https://dc.lft.to/lastmile_qr_scan", "ios": "https://dc.lft.to/lastmile_qr_scan"}, "fusion_lon": 0.0}, {"lat": 38.88529366666667, "is_disabled": 0, "type": "electric_scooter", "lon": -77.0113525, "bike_id": "2aaf4291bbd75c922d01b48621fc49ad", "fusion_lat": 0.0, "name": "2aaf4291bbd75c922d01b48621fc49ad", "is_reserved": 0, "rental_uris": {"android": "https://dc.lft.to/lastmile_qr_scan", "ios": "https://dc.lft.to/lastmile_qr_scan"}, "fusion_lon": 0.0}, {"lat": 38.93610533333333, "is_disabled": 0, "type": "electric_scooter", "lon": -77.05862116666667, "bike_id": "1202ebdd3aba862febb5c31e9a71b6dc", "fusion_lat": 0.0, "name": "1202ebdd3aba862febb5c31e9a71b6dc", "is_reserved": 0, "rental_uris": {"android": "https://dc.lft.to/lastmile_qr_scan", "ios": "https://dc.lft.to/lastmile_qr_scan"}, "fusion_lon": 0.0}, {"lat": 38.859443166666665, "is_disabled": 0, "type": "electric_bike", "lon": -77.08615633333334, "bike_id": "12b195addb816d6c09c8e8dde4e28db0", "fusion_lat": 0.0, "name": "12b195addb816d6c09c8e8dde4e28db0", "is_reserved": 0, "rental_uris": {"android": "https://dc.lft.to/lastmile_qr_scan", "ios": "https://dc.lft.to/lastmile_qr_scan"}, "fusion_lon": 0.0}, {"lat": 38.911165, "is_disabled": 0, "type": "electric_scooter", "lon": -77.04371366666666, "bike_id": "d762ca8718e662790fd956c722c789af", "fusion_lat": 0.0, "name": "d762ca8718e662790fd956c722c789af", "is_reserved": 0, "rental_uris": {"android": "https://dc.lft.to/lastmile_qr_scan", "ios": "https://dc.lft.to/lastmile_qr_scan"}, "fusion_lon": 0.0}, {"lat": 38.8922675, "is_disabled": 0, "type": "electric_scooter", "lon": -77.03342116666667, "bike_id": "6a927b8272e3c3bb4abbb0564258f964", "fusion_lat": 0.0, "name": "6a927b8272e3c3bb4abbb0564258f964", "is_reserved": 0, "rental_uris": {"android": "https://dc.lft.to/lastmile_qr_scan", "ios": "https://dc.lft.to/lastmile_qr_scan"}, "fusion_lon": 0.0}, {"lat": 38.922581666666666, "is_disabled": 0, "type": "electric_scooter", "lon": -77.01939216666666, "bike_id": "ddb0e72ac67d8a7df14c842ff97fd11f", "fusion_lat": 0.0, "name": "ddb0e72ac67d8a7df14c842ff97fd11f", "is_reserved": 0, "rental_uris": {"android": "https://dc.lft.to/lastmile_qr_scan", "ios": "https://dc.lft.to/lastmile_qr_scan"}, "fusion_lon": 0.0}, {"lat": 38.982293166666665, "is_disabled": 0, "type": "electric_scooter", "lon": -77.0264155, "bike_id": "9471795e6f0c1c8f7b38cad70d94868c", "fusion_lat": 0.0, "name": "9471795e6f0c1c8f7b38cad70d94868c", "is_reserved": 0, "rental_uris": {"android": "https://dc.lft.to/lastmile_qr_scan", "ios": "https://dc.lft.to/lastmile_qr_scan"}, "fusion_lon": 0.0}, {"lat": 38.915591, "is_disabled": 0, "type": "electric_scooter", "lon": -77.03168583333333, "bike_id": "95df1021ed33eda656864d7259ded1fa", "fusion_lat": 0.0, "name": "95df1021ed33eda656864d7259ded1fa", "is_reserved": 0, "rental_uris": {"android": "https://dc.lft.to/lastmile_qr_scan", "ios": "https://dc.lft.to/lastmile_qr_scan"}, "fusion_lon": 0.0}, {"lat": 38.90487916666667, "is_disabled": 0, "type": "electric_scooter", "lon": -76.9733465, "bike_id": "d9203e3308661bf4cf5590e2c137e6cb", "fusion_lat": 0.0, "name": "d9203e3308661bf4cf5590e2c137e6cb", "is_reserved": 0, "rental_uris": {"android": "https://dc.lft.to/lastmile_qr_scan", "ios": "https://dc.lft.to/lastmile_qr_scan"}, "fusion_lon": 0.0}, {"lat": 38.902804, "is_disabled": 0, "type": "electric_scooter", "lon": -77.03655516666667, "bike_id": "d5b388464c1ba4283168f81daeb0f190", "fusion_lat": 0.0, "name": "d5b388464c1ba4283168f81daeb0f190", "is_reserved": 0, "rental_uris": {"android": "https://dc.lft.to/lastmile_qr_scan", "ios": "https://dc.lft.to/lastmile_qr_scan"}, "fusion_lon": 0.0}, {"lat": 38.91734983333333, "is_disabled": 0, "type": "electric_scooter", "lon": -77.0364415, "bike_id": "56d6f8b12b8f7aca9cb59c853e2e2f1a", "fusion_lat": 0.0, "name": "56d6f8b12b8f7aca9cb59c853e2e2f1a", "is_reserved": 0, "rental_uris": {"android": "https://dc.lft.to/lastmile_qr_scan", "ios": "https://dc.lft.to/lastmile_qr_scan"}, "fusion_lon": 0.0}, {"lat": 38.89483416666667, "is_disabled": 0, "type": "electric_scooter", "lon": -77.0023, "bike_id": "1a76448bf8508d885d1b09aad59be95f", "fusion_lat": 0.0, "name": "1a76448bf8508d885d1b09aad59be95f", "is_reserved": 0, "rental_uris": {"android": "https://dc.lft.to/lastmile_qr_scan", "ios": "https://dc.lft.to/lastmile_qr_scan"}, "fusion_lon": 0.0}, {"lat": 38.916974833333335, "is_disabled": 0, "type": "electric_scooter", "lon": -77.03933933333333, "bike_id": "7418f28215829bc42aa055286c33489f", "fusion_lat": 0.0, "name": "7418f28215829bc42aa055286c33489f", "is_reserved": 0, "rental_uris": {"android": "https://dc.lft.to/lastmile_qr_scan", "ios": "https://dc.lft.to/lastmile_qr_scan"}, "fusion_lon": 0.0}, {"lat": 38.90683633333333, "is_disabled": 0, "type": "electric_scooter", "lon": -77.03857533333333, "bike_id": "ee06017db15098c772167117f271e5a1", "fusion_lat": 0.0, "name": "ee06017db15098c772167117f271e5a1", "is_reserved": 0, "rental_uris": {"android": "https://dc.lft.to/lastmile_qr_scan", "ios": "https://dc.lft.to/lastmile_qr_scan"}, "fusion_lon": 0.0}, {"lat": 38.91632583333333, "is_disabled": 0, "type": "electric_scooter", "lon": -77.03199333333333, "bike_id": "c1580f236ff95f1ded1699cbcc8ce82b", "fusion_lat": 0.0, "name": "c1580f236ff95f1ded1699cbcc8ce82b", "is_reserved": 0, "rental_uris": {"android": "https://dc.lft.to/lastmile_qr_scan", "ios": "https://dc.lft.to/lastmile_qr_scan"}, "fusion_lon": 0.0}, {"lat": 38.92196466666667, "is_disabled": 0, "type": "electric_scooter", "lon": -77.022106, "bike_id": "457c248095342fc1b133b484ea18abf1", "fusion_lat": 0.0, "name": "457c248095342fc1b133b484ea18abf1", "is_reserved": 0, "rental_uris": {"android": "https://dc.lft.to/lastmile_qr_scan", "ios": "https://dc.lft.to/lastmile_qr_scan"}, "fusion_lon": 0.0}, {"lat": 38.9248835, "is_disabled": 0, "type": "electric_scooter", "lon": -77.03481883333333, "bike_id": "f872ffa4603638a586f7396241e45cad", "fusion_lat": 0.0, "name": "f872ffa4603638a586f7396241e45cad", "is_reserved": 0, "rental_uris": {"android": "https://dc.lft.to/lastmile_qr_scan", "ios": "https://dc.lft.to/lastmile_qr_scan"}, "fusion_lon": 0.0}, {"lat": 38.88635, "is_disabled": 0, "type": "electric_scooter", "lon": -76.95523833333333, "bike_id": "00f750c538c41477dfeb63b2ee73779c", "fusion_lat": 0.0, "name": "00f750c538c41477dfeb63b2ee73779c", "is_reserved": 0, "rental_uris": {"android": "https://dc.lft.to/lastmile_qr_scan", "ios": "https://dc.lft.to/lastmile_qr_scan"}, "fusion_lon": 0.0}, {"lat": 38.914081333333336, "is_disabled": 0, "type": "electric_scooter", "lon": -77.03185333333333, "bike_id": "e4349a1ebea08c99b04aea6a318c3503", "fusion_lat": 0.0, "name": "e4349a1ebea08c99b04aea6a318c3503", "is_reserved": 0, "rental_uris": {"android": "https://dc.lft.to/lastmile_qr_scan", "ios": "https://dc.lft.to/lastmile_qr_scan"}, "fusion_lon": 0.0}, {"lat": 38.91803083333333, "is_disabled": 0, "type": "electric_scooter", "lon": -77.0401685, "bike_id": "9a9a91552523ae6850305f4c6b8ac5e5", "fusion_lat": 0.0, "name": "9a9a91552523ae6850305f4c6b8ac5e5", "is_reserved": 0, "rental_uris": {"android": "https://dc.lft.to/lastmile_qr_scan", "ios": "https://dc.lft.to/lastmile_qr_scan"}, "fusion_lon": 0.0}, {"lat": 38.85224733333333, "is_disabled": 0, "type": "electric_bike", "lon": -77.12962316666666, "bike_id": "d62d5468308f3323a8dc45b05bc78011", "fusion_lat": 0.0, "name": "d62d5468308f3323a8dc45b05bc78011", "is_reserved": 0, "rental_uris": {"android": "https://dc.lft.to/lastmile_qr_scan", "ios": "https://dc.lft.to/lastmile_qr_scan"}, "fusion_lon": 0.0}, {"lat": 38.953525, "is_disabled": 0, "type": "electric_bike", "lon": -76.9810735, "bike_id": "535e06aac1033105475c3c8e13e3d7d6", "fusion_lat": 0.0, "name": "535e06aac1033105475c3c8e13e3d7d6", "is_reserved": 0, "rental_uris": {"android": "https://dc.lft.to/lastmile_qr_scan", "ios": "https://dc.lft.to/lastmile_qr_scan"}, "fusion_lon": 0.0}, {"lat": 38.9071565, "is_disabled": 0, "type": "electric_scooter", "lon": -77.03223433333334, "bike_id": "8862eb744a14576665f31ad65596f3d5", "fusion_lat": 0.0, "name": "8862eb744a14576665f31ad65596f3d5", "is_reserved": 0, "rental_uris": {"android": "https://dc.lft.to/lastmile_qr_scan", "ios": "https://dc.lft.to/lastmile_qr_scan"}, "fusion_lon": 0.0}, {"lat": 38.892254, "is_disabled": 0, "type": "electric_scooter", "lon": -77.048698, "bike_id": "274d1da4668155118767c4aa74a58ffe", "fusion_lat": 0.0, "name": "274d1da4668155118767c4aa74a58ffe", "is_reserved": 0, "rental_uris": {"android": "https://dc.lft.to/lastmile_qr_scan", "ios": "https://dc.lft.to/lastmile_qr_scan"}, "fusion_lon": 0.0}, {"lat": 38.895112833333336, "is_disabled": 0, "type": "electric_scooter", "lon": -77.02208916666666, "bike_id": "5f5927f1c5708b96d333b24a668072e2", "fusion_lat": 0.0, "name": "5f5927f1c5708b96d333b24a668072e2", "is_reserved": 0, "rental_uris": {"android": "https://dc.lft.to/lastmile_qr_scan", "ios": "https://dc.lft.to/lastmile_qr_scan"}, "fusion_lon": 0.0}, {"lat": 38.91602316666667, "is_disabled": 0, "type": "electric_scooter", "lon": -77.015905, "bike_id": "0e1e2682a58aaf6b57a357c795fd257e", "fusion_lat": 0.0, "name": "0e1e2682a58aaf6b57a357c795fd257e", "is_reserved": 0, "rental_uris": {"android": "https://dc.lft.to/lastmile_qr_scan", "ios": "https://dc.lft.to/lastmile_qr_scan"}, "fusion_lon": 0.0}, {"lat": 38.91914383333334, "is_disabled": 0, "type": "electric_scooter", "lon": -77.03173133333334, "bike_id": "38418c70b937886a424955b02d7cbbcc", "fusion_lat": 0.0, "name": "38418c70b937886a424955b02d7cbbcc", "is_reserved": 0, "rental_uris": {"android": "https://dc.lft.to/lastmile_qr_scan", "ios": "https://dc.lft.to/lastmile_qr_scan"}, "fusion_lon": 0.0}, {"lat": 38.8922875, "is_disabled": 0, "type": "electric_scooter", "lon": -77.0262525, "bike_id": "bd7b166a8973ac38eadf978078cec4fb", "fusion_lat": 0.0, "name": "bd7b166a8973ac38eadf978078cec4fb", "is_reserved": 0, "rental_uris": {"android": "https://dc.lft.to/lastmile_qr_scan", "ios": "https://dc.lft.to/lastmile_qr_scan"}, "fusion_lon": 0.0}, {"lat": 38.89222566666667, "is_disabled": 0, "type": "electric_scooter", "lon": -77.02628933333334, "bike_id": "1fe01fa38cd6416ae9cf013b02566db0", "fusion_lat": 0.0, "name": "1fe01fa38cd6416ae9cf013b02566db0", "is_reserved": 0, "rental_uris": {"android": "https://dc.lft.to/lastmile_qr_scan", "ios": "https://dc.lft.to/lastmile_qr_scan"}, "fusion_lon": 0.0}, {"lat": 38.93232233333333, "is_disabled": 0, "type": "electric_scooter", "lon": -77.04411933333333, "bike_id": "bfd11f46a626c924c980b06e4fe2325b", "fusion_lat": 0.0, "name": "bfd11f46a626c924c980b06e4fe2325b", "is_reserved": 0, "rental_uris": {"android": "https://dc.lft.to/lastmile_qr_scan", "ios": "https://dc.lft.to/lastmile_qr_scan"}, "fusion_lon": 0.0}, {"lat": 38.91764766666667, "is_disabled": 0, "type": "electric_scooter", "lon": -77.00457083333333, "bike_id": "43851578addd63def40553fcf2b67e5d", "fusion_lat": 0.0, "name": "43851578addd63def40553fcf2b67e5d", "is_reserved": 0, "rental_uris": {"android": "https://dc.lft.to/lastmile_qr_scan", "ios": "https://dc.lft.to/lastmile_qr_scan"}, "fusion_lon": 0.0}, {"lat": 38.9006915, "is_disabled": 0, "type": "electric_scooter", "lon": -77.00754433333333, "bike_id": "915fe8cb6d124d6c1a9c69758ddf77f2", "fusion_lat": 0.0, "name": "915fe8cb6d124d6c1a9c69758ddf77f2", "is_reserved": 0, "rental_uris": {"android": "https://dc.lft.to/lastmile_qr_scan", "ios": "https://dc.lft.to/lastmile_qr_scan"}, "fusion_lon": 0.0}, {"lat": 38.92452266666667, "is_disabled": 0, "type": "electric_scooter", "lon": -77.04024566666666, "bike_id": "1d03f2a58366e6f19946bd4ce485e6c8", "fusion_lat": 0.0, "name": "1d03f2a58366e6f19946bd4ce485e6c8", "is_reserved": 0, "rental_uris": {"android": "https://dc.lft.to/lastmile_qr_scan", "ios": "https://dc.lft.to/lastmile_qr_scan"}, "fusion_lon": 0.0}, {"lat": 38.8852975, "is_disabled": 0, "type": "electric_scooter", "lon": -77.01504766666666, "bike_id": "f6b4fe2c599955d369c0508067d5bbc7", "fusion_lat": 0.0, "name": "f6b4fe2c599955d369c0508067d5bbc7", "is_reserved": 0, "rental_uris": {"android": "https://dc.lft.to/lastmile_qr_scan", "ios": "https://dc.lft.to/lastmile_qr_scan"}, "fusion_lon": 0.0}, {"lat": 38.87717933333333, "is_disabled": 0, "type": "electric_scooter", "lon": -77.01763733333334, "bike_id": "cd0135b197a8ec06b290bfabb75ceb80", "fusion_lat": 0.0, "name": "cd0135b197a8ec06b290bfabb75ceb80", "is_reserved": 0, "rental_uris": {"android": "https://dc.lft.to/lastmile_qr_scan", "ios": "https://dc.lft.to/lastmile_qr_scan"}, "fusion_lon": 0.0}, {"lat": 38.9575285, "is_disabled": 0, "type": "electric_bike", "lon": -77.02173366666666, "bike_id": "1e0719f6c95ab9d2460c09e7490d4eaa", "fusion_lat": 0.0, "name": "1e0719f6c95ab9d2460c09e7490d4eaa", "is_reserved": 0, "rental_uris": {"android": "https://dc.lft.to/lastmile_qr_scan", "ios": "https://dc.lft.to/lastmile_qr_scan"}, "fusion_lon": 0.0}, {"lat": 38.9154655, "is_disabled": 0, "type": "electric_scooter", "lon": -77.03203466666666, "bike_id": "9dbe5ec7817f21897eb918c932188941", "fusion_lat": 0.0, "name": "9dbe5ec7817f21897eb918c932188941", "is_reserved": 0, "rental_uris": {"android": "https://dc.lft.to/lastmile_qr_scan", "ios": "https://dc.lft.to/lastmile_qr_scan"}, "fusion_lon": 0.0}, {"lat": 38.865976, "is_disabled": 0, "type": "electric_bike", "lon": -76.93231766666666, "bike_id": "1518b0e864c02054df37e15e4c52a991", "fusion_lat": 0.0, "name": "1518b0e864c02054df37e15e4c52a991", "is_reserved": 0, "rental_uris": {"android": "https://dc.lft.to/lastmile_qr_scan", "ios": "https://dc.lft.to/lastmile_qr_scan"}, "fusion_lon": 0.0}, {"lat": 38.91008033333333, "is_disabled": 0, "type": "electric_scooter", "lon": -77.040091, "bike_id": "981577c355c1f5f19676efd0ca647e2d", "fusion_lat": 0.0, "name": "981577c355c1f5f19676efd0ca647e2d", "is_reserved": 0, "rental_uris": {"android": "https://dc.lft.to/lastmile_qr_scan", "ios": "https://dc.lft.to/lastmile_qr_scan"}, "fusion_lon": 0.0}, {"lat": 38.86520183333333, "is_disabled": 0, "type": "electric_scooter", "lon": -76.99031716666667, "bike_id": "a0f8a300b3c65d671fa73ef6a54ffe2e", "fusion_lat": 0.0, "name": "a0f8a300b3c65d671fa73ef6a54ffe2e", "is_reserved": 0, "rental_uris": {"android": "https://dc.lft.to/lastmile_qr_scan", "ios": "https://dc.lft.to/lastmile_qr_scan"}, "fusion_lon": 0.0}, {"lat": 38.93490633333333, "is_disabled": 0, "type": "electric_scooter", "lon": -77.07279633333333, "bike_id": "5f511c8d169c3817481c43a595bc01c6", "fusion_lat": 0.0, "name": "5f511c8d169c3817481c43a595bc01c6", "is_reserved": 0, "rental_uris": {"android": "https://dc.lft.to/lastmile_qr_scan", "ios": "https://dc.lft.to/lastmile_qr_scan"}, "fusion_lon": 0.0}, {"lat": 38.940762666666664, "is_disabled": 0, "type": "electric_scooter", "lon": -77.011557, "bike_id": "8a4654fd5d66e3684e89022046f6500d", "fusion_lat": 0.0, "name": "8a4654fd5d66e3684e89022046f6500d", "is_reserved": 0, "rental_uris": {"android": "https://dc.lft.to/lastmile_qr_scan", "ios": "https://dc.lft.to/lastmile_qr_scan"}, "fusion_lon": 0.0}, {"lat": 38.929372666666666, "is_disabled": 0, "type": "electric_scooter", "lon": -77.03759383333333, "bike_id": "7034caea3486eaaa9a5d80a3e1d5a4c4", "fusion_lat": 0.0, "name": "7034caea3486eaaa9a5d80a3e1d5a4c4", "is_reserved": 0, "rental_uris": {"android": "https://dc.lft.to/lastmile_qr_scan", "ios": "https://dc.lft.to/lastmile_qr_scan"}, "fusion_lon": 0.0}, {"lat": 38.83743416666667, "is_disabled": 0, "type": "electric_bike", "lon": -76.99773516666667, "bike_id": "ccaf72769a38c013597bc6dd79906f2a", "fusion_lat": 0.0, "name": "ccaf72769a38c013597bc6dd79906f2a", "is_reserved": 0, "rental_uris": {"android": "https://dc.lft.to/lastmile_qr_scan", "ios": "https://dc.lft.to/lastmile_qr_scan"}, "fusion_lon": 0.0}, {"lat": 38.917362833333335, "is_disabled": 0, "type": "electric_scooter", "lon": -77.03661016666666, "bike_id": "5b3585c01e764070ac4e8c8b8773bf35", "fusion_lat": 0.0, "name": "5b3585c01e764070ac4e8c8b8773bf35", "is_reserved": 0, "rental_uris": {"android": "https://dc.lft.to/lastmile_qr_scan", "ios": "https://dc.lft.to/lastmile_qr_scan"}, "fusion_lon": 0.0}, {"lat": 38.865102666666665, "is_disabled": 0, "type": "electric_scooter", "lon": -76.9900775, "bike_id": "ede90831b75007d4f83a661d9a386b49", "fusion_lat": 0.0, "name": "ede90831b75007d4f83a661d9a386b49", "is_reserved": 0, "rental_uris": {"android": "https://dc.lft.to/lastmile_qr_scan", "ios": "https://dc.lft.to/lastmile_qr_scan"}, "fusion_lon": 0.0}, {"lat": 38.8955095, "is_disabled": 0, "type": "electric_scooter", "lon": -77.00438266666667, "bike_id": "9602860aaab8381ace415bfa6b6bad2e", "fusion_lat": 0.0, "name": "9602860aaab8381ace415bfa6b6bad2e", "is_reserved": 0, "rental_uris": {"android": "https://dc.lft.to/lastmile_qr_scan", "ios": "https://dc.lft.to/lastmile_qr_scan"}, "fusion_lon": 0.0}, {"lat": 38.895088, "is_disabled": 0, "type": "electric_scooter", "lon": -77.0111955, "bike_id": "ab5fd5448d43f721e64033a900409bb3", "fusion_lat": 0.0, "name": "ab5fd5448d43f721e64033a900409bb3", "is_reserved": 0, "rental_uris": {"android": "https://dc.lft.to/lastmile_qr_scan", "ios": "https://dc.lft.to/lastmile_qr_scan"}, "fusion_lon": 0.0}, {"lat": 38.935361666666665, "is_disabled": 0, "type": "electric_scooter", "lon": -77.02342066666667, "bike_id": "af906dd73c4c518d1b1bd76efb7ebe8b", "fusion_lat": 0.0, "name": "af906dd73c4c518d1b1bd76efb7ebe8b", "is_reserved": 0, "rental_uris": {"android": "https://dc.lft.to/lastmile_qr_scan", "ios": "https://dc.lft.to/lastmile_qr_scan"}, "fusion_lon": 0.0}, {"lat": 38.901116333333334, "is_disabled": 0, "type": "electric_scooter", "lon": -77.0430755, "bike_id": "008a7dd2d30799de1a91931aa28192e2", "fusion_lat": 0.0, "name": "008a7dd2d30799de1a91931aa28192e2", "is_reserved": 0, "rental_uris": {"android": "https://dc.lft.to/lastmile_qr_scan", "ios": "https://dc.lft.to/lastmile_qr_scan"}, "fusion_lon": 0.0}, {"lat": 38.90544366666666, "is_disabled": 0, "type": "electric_scooter", "lon": -77.02201416666666, "bike_id": "81af3c79d16ec08c2843b3ed38cf90cf", "fusion_lat": 0.0, "name": "81af3c79d16ec08c2843b3ed38cf90cf", "is_reserved": 0, "rental_uris": {"android": "https://dc.lft.to/lastmile_qr_scan", "ios": "https://dc.lft.to/lastmile_qr_scan"}, "fusion_lon": 0.0}, {"lat": 38.856787, "is_disabled": 0, "type": "electric_scooter", "lon": -76.98177466666667, "bike_id": "f3f864a2284ef8531dea26c64be67d80", "fusion_lat": 0.0, "name": "f3f864a2284ef8531dea26c64be67d80", "is_reserved": 0, "rental_uris": {"android": "https://dc.lft.to/lastmile_qr_scan", "ios": "https://dc.lft.to/lastmile_qr_scan"}, "fusion_lon": 0.0}, {"lat": 38.9181705, "is_disabled": 0, "type": "electric_scooter", "lon": -77.04196083333333, "bike_id": "53c6c735a2dcd1b1e4d30c945dc73a49", "fusion_lat": 0.0, "name": "53c6c735a2dcd1b1e4d30c945dc73a49", "is_reserved": 0, "rental_uris": {"android": "https://dc.lft.to/lastmile_qr_scan", "ios": "https://dc.lft.to/lastmile_qr_scan"}, "fusion_lon": 0.0}, {"lat": 38.93697016666667, "is_disabled": 0, "type": "electric_bike", "lon": -77.05650766666666, "bike_id": "1923377853284675e550a0fab62de1e8", "fusion_lat": 0.0, "name": "1923377853284675e550a0fab62de1e8", "is_reserved": 0, "rental_uris": {"android": "https://dc.lft.to/lastmile_qr_scan", "ios": "https://dc.lft.to/lastmile_qr_scan"}, "fusion_lon": 0.0}, {"lat": 38.90350083333333, "is_disabled": 0, "type": "electric_scooter", "lon": -77.0504155, "bike_id": "68579e5b8b34def75d7e477650c61ff3", "fusion_lat": 0.0, "name": "68579e5b8b34def75d7e477650c61ff3", "is_reserved": 0, "rental_uris": {"android": "https://dc.lft.to/lastmile_qr_scan", "ios": "https://dc.lft.to/lastmile_qr_scan"}, "fusion_lon": 0.0}, {"lat": 38.91769466666667, "is_disabled": 0, "type": "electric_scooter", "lon": -77.018774, "bike_id": "2c50c03b07296ff69216d9a843719185", "fusion_lat": 0.0, "name": "2c50c03b07296ff69216d9a843719185", "is_reserved": 0, "rental_uris": {"android": "https://dc.lft.to/lastmile_qr_scan", "ios": "https://dc.lft.to/lastmile_qr_scan"}, "fusion_lon": 0.0}, {"lat": 38.92288666666666, "is_disabled": 0, "type": "electric_scooter", "lon": -77.03206183333333, "bike_id": "573274813683029cd1cc0b13b6b389ba", "fusion_lat": 0.0, "name": "573274813683029cd1cc0b13b6b389ba", "is_reserved": 0, "rental_uris": {"android": "https://dc.lft.to/lastmile_qr_scan", "ios": "https://dc.lft.to/lastmile_qr_scan"}, "fusion_lon": 0.0}, {"lat": 38.90298766666667, "is_disabled": 0, "type": "electric_scooter", "lon": -77.04173466666667, "bike_id": "5272e731df022de26685592687f3c3c6", "fusion_lat": 0.0, "name": "5272e731df022de26685592687f3c3c6", "is_reserved": 0, "rental_uris": {"android": "https://dc.lft.to/lastmile_qr_scan", "ios": "https://dc.lft.to/lastmile_qr_scan"}, "fusion_lon": 0.0}, {"lat": 38.927717, "is_disabled": 0, "type": "electric_scooter", "lon": -77.02624866666666, "bike_id": "41ab69d6fb2dca0016666074085b0ff3", "fusion_lat": 0.0, "name": "41ab69d6fb2dca0016666074085b0ff3", "is_reserved": 0, "rental_uris": {"android": "https://dc.lft.to/lastmile_qr_scan", "ios": "https://dc.lft.to/lastmile_qr_scan"}, "fusion_lon": 0.0}, {"lat": 38.935149333333335, "is_disabled": 0, "type": "electric_scooter", "lon": -77.03354083333333, "bike_id": "b94af1b78717844a746b08aaebc6a63a", "fusion_lat": 0.0, "name": "b94af1b78717844a746b08aaebc6a63a", "is_reserved": 0, "rental_uris": {"android": "https://dc.lft.to/lastmile_qr_scan", "ios": "https://dc.lft.to/lastmile_qr_scan"}, "fusion_lon": 0.0}, {"lat": 38.916979, "is_disabled": 0, "type": "electric_scooter", "lon": -77.0289725, "bike_id": "8e7b46cd260a6f34b383f62bb27f9f65", "fusion_lat": 0.0, "name": "8e7b46cd260a6f34b383f62bb27f9f65", "is_reserved": 0, "rental_uris": {"android": "https://dc.lft.to/lastmile_qr_scan", "ios": "https://dc.lft.to/lastmile_qr_scan"}, "fusion_lon": 0.0}, {"lat": 38.904611333333335, "is_disabled": 0, "type": "electric_scooter", "lon": -77.06291016666667, "bike_id": "6f82a0de1c84be0e16a8378b7d235f92", "fusion_lat": 0.0, "name": "6f82a0de1c84be0e16a8378b7d235f92", "is_reserved": 0, "rental_uris": {"android": "https://dc.lft.to/lastmile_qr_scan", "ios": "https://dc.lft.to/lastmile_qr_scan"}, "fusion_lon": 0.0}, {"lat": 38.92251916666667, "is_disabled": 0, "type": "electric_scooter", "lon": -77.03466666666667, "bike_id": "7b812137dbbe8d0517ebc9b17bf6bc65", "fusion_lat": 0.0, "name": "7b812137dbbe8d0517ebc9b17bf6bc65", "is_reserved": 0, "rental_uris": {"android": "https://dc.lft.to/lastmile_qr_scan", "ios": "https://dc.lft.to/lastmile_qr_scan"}, "fusion_lon": 0.0}, {"lat": 38.897646333333334, "is_disabled": 0, "type": "electric_scooter", "lon": -77.02696766666666, "bike_id": "76d1bd96d90d1a6e4a714bb0a4665d37", "fusion_lat": 0.0, "name": "76d1bd96d90d1a6e4a714bb0a4665d37", "is_reserved": 0, "rental_uris": {"android": "https://dc.lft.to/lastmile_qr_scan", "ios": "https://dc.lft.to/lastmile_qr_scan"}, "fusion_lon": 0.0}, {"lat": 38.89005516666667, "is_disabled": 0, "type": "electric_scooter", "lon": -77.04905466666666, "bike_id": "d03410f25fa6d595e3a9935099285edc", "fusion_lat": 0.0, "name": "d03410f25fa6d595e3a9935099285edc", "is_reserved": 0, "rental_uris": {"android": "https://dc.lft.to/lastmile_qr_scan", "ios": "https://dc.lft.to/lastmile_qr_scan"}, "fusion_lon": 0.0}, {"lat": 38.866768666666665, "is_disabled": 0, "type": "electric_scooter", "lon": -76.985415, "bike_id": "964780971bc902cd79b931fffccf4dac", "fusion_lat": 0.0, "name": "964780971bc902cd79b931fffccf4dac", "is_reserved": 0, "rental_uris": {"android": "https://dc.lft.to/lastmile_qr_scan", "ios": "https://dc.lft.to/lastmile_qr_scan"}, "fusion_lon": 0.0}, {"lat": 38.90689316666667, "is_disabled": 0, "type": "electric_scooter", "lon": -77.03766166666666, "bike_id": "55e035e46fa4a1fcae86ff91f7670ee6", "fusion_lat": 0.0, "name": "55e035e46fa4a1fcae86ff91f7670ee6", "is_reserved": 0, "rental_uris": {"android": "https://dc.lft.to/lastmile_qr_scan", "ios": "https://dc.lft.to/lastmile_qr_scan"}, "fusion_lon": 0.0},