{"data": {"bikes": [{"lon": -77.01736116666666, "rental_uris": {"android": "https://dc.lft.to/lastmile_qr_scan", "ios": "https://dc.lft.to/lastmile_qr_scan"}, "fusion_lon": 0.0, "is_reserved": 0, "is_disabled": 0, "fusion_lat": 0.0, "type": "electric_scooter", "name": "c5ae0a9da7a6644f1779bae289d45855", "lat": 38.89226266666667, "bike_id": "c5ae0a9da7a6644f1779bae289d45855"}, {"lon": -77.03677433333333, "rental_uris": {"android": "https://dc.lft.to/lastmile_qr_scan", "ios": "https://dc.lft.to/lastmile_qr_scan"}, "fusion_lon": 0.0, "is_reserved": 0, "is_disabled": 0, "fusion_lat": 0.0, "type": "electric_scooter", "name": "1921dccbc39cd6e275d1b1567664dcfd", "lat": 38.90832066666667, "bike_id": "1921dccbc39cd6e275d1b1567664dcfd"}, {"lon": -77.09724, "rental_uris": {"android": "https://dc.lft.to/lastmile_qr_scan", "ios": "https://dc.lft.to/lastmile_qr_scan"}, "fusion_lon": 0.0, "is_reserved": 0, "is_disabled": 0, "fusion_lat": 0.0, "type": "electric_bike", "name": "0bb458f99d6b55648f2239385705404c", "lat": 38.8073595, "bike_id": "0bb458f99d6b55648f2239385705404c"}, {"lon": -77.03164416666667, "rental_uris": {"android": "https://dc.lft.to/lastmile_qr_scan", "ios": "https://dc.lft.to/lastmile_qr_scan"}, "fusion_lon": 0.0, "is_reserved": 0, "is_disabled": 0, "fusion_lat": 0.0, "type": "electric_scooter", "name": "6a03e2f048a64ba91e1e6c2af546ec9e", "lat": 38.91641883333333, "bike_id": "6a03e2f048a64ba91e1e6c2af546ec9e"}, {"lon": -77.0459235, "rental_uris": {"android": "https://dc.lft.to/lastmile_qr_scan", "ios": "https://dc.lft.to/lastmile_qr_scan"}, "fusion_lon": 0.0, "is_reserved": 0, "is_disabled": 0, "fusion_lat": 0.0, "type": "electric_scooter", "name": "cc2026c533531d2d653053012e6799f3", "lat": 38.90283266666667, "bike_id": "cc2026c533531d2d653053012e6799f3"}, {"lon": -77.04649383333333, "rental_uris": {"android": "https://dc.lft.to/lastmile_qr_scan", "ios": "https://dc.lft.to/lastmile_qr_scan"}, "fusion_lon": 0.0, "is_reserved": 0, "is_disabled": 0, "fusion_lat": 0.0, "type": "electric_scooter", "name": "76552df0ecf3ba7d0d663ad203a073d1", "lat": 38.8922935, "bike_id": "76552df0ecf3ba7d0d663ad203a073d1"}, {"lon": -77.020318, "rental_uris": {"android": "https://dc.lft.to/lastmile_qr_scan", "ios": "https://dc.lft.to/lastmile_qr_scan"}, "fusion_lon": 0.0, "is_reserved": 0, "is_disabled": 0, "fusion_lat": 0.0, "type": "electric_scooter", "name": "4d75d83cb0d7837b4c40cbc9ddfba677", "lat": 38.922477666666666, "bike_id": "4d75d83cb0d7837b4c40cbc9ddfba677"}, {"lon": -77.01955, "rental_uris": {"android": "https://dc.lft.to/lastmile_qr_scan", "ios": "https://dc.lft.to/lastmile_qr_scan"}, "fusion_lon": 0.0, "is_reserved": 0, "is_disabled": 0, "fusion_lat": 0.0, "type": "electric_scooter", "name": "7bee406930bedc9cbb8b3d3ef67225c7", "lat": 38.9225655, "bike_id": "7bee406930bedc9cbb8b3d3ef67225c7"}, {"lon": -77.03575283333333, "rental_uris": {"android": "https://dc.lft.to/lastmile_qr_scan", "ios": "https://dc.lft.to/lastmile_qr_scan"}, "fusion_lon": 0.0, "is_reserved": 0, "is_disabled": 0, "fusion_lat": 0.0, "type": "electric_scooter", "name": "40ded5d612234d88c51818c82c301fec", "lat": 38.91873316666667, "bike_id": "40ded5d612234d88c51818c82c301fec"}, {"lon": -77.0899235, "rental_uris": {"android": "https://dc.lft.to/lastmile_qr_scan", "ios": "https://dc.lft.to/lastmile_qr_scan"}, "fusion_lon": 0.0, "is_reserved": 0, "is_disabled": 0, "fusion_lat": 0.0, "type": "electric_scooter", "name": "1e63efc8a9db166019920575204e9b82", "lat": 38.93703383333333, "bike_id": "1e63efc8a9db166019920575204e9b82"}, {"lon": -76.99566883333334, "rental_uris": {"android": "https://dc.lft.to/lastmile_qr_scan", "ios": "https://dc.lft.to/lastmile_qr_scan"}, "fusion_lon": 0.0, "is_reserved": 0, "is_disabled": 0, "fusion_lat": 0.0, "type": "electric_scooter", "name": "3d3839c55b19b5ad100037cd26e639da", "lat": 38.862718, "bike_id": "3d3839c55b19b5ad100037cd26e639da"}, {"lon": -77.01897516666666, "rental_uris": {"android": "https://dc.lft.to/lastmile_qr_scan", "ios": "https://dc.lft.to/lastmile_qr_scan"}, "fusion_lon": 0.0, "is_reserved": 0, "is_disabled": 0, "fusion_lat": 0.0, "type": "electric_scooter", "name": "e3f319f281927bd7944fe4852b53d159", "lat": 38.923356166666665, "bike_id": "e3f319f281927bd7944fe4852b53d159"}, {"lon": -77.04016416666667, "rental_uris": {"android": "https://dc.lft.to/lastmile_qr_scan", "ios": "https://dc.lft.to/lastmile_qr_scan"}, "fusion_lon": 0.0, "is_reserved": 0, "is_disabled": 0, "fusion_lat": 0.0, "type": "electric_scooter", "name": "fad16b6eecf338bd212f09fa67c8e8cc", "lat": 38.90328183333333, "bike_id": "fad16b6eecf338bd212f09fa67c8e8cc"}, {"lon": -77.04361683333333, "rental_uris": {"android": "https://dc.lft.to/lastmile_qr_scan", "ios": "https://dc.lft.to/lastmile_qr_scan"}, "fusion_lon": 0.0, "is_reserved": 0, "is_disabled": 0, "fusion_lat": 0.0, "type": "electric_scooter", "name": "2a941605b0f64ae180602b066110e947", "lat": 38.92144866666667, "bike_id": "2a941605b0f64ae180602b066110e947"}, {"lon": -77.02191333333333, "rental_uris": {"android": "https://dc.lft.to/lastmile_qr_scan", "ios": "https://dc.lft.to/lastmile_qr_scan"}, "fusion_lon": 0.0, "is_reserved": 0, "is_disabled": 0, "fusion_lat": 0.0, "type": "electric_scooter", "name": "81cd402b7b0a4db834bb51e08139bca4", "lat": 38.89513383333333, "bike_id": "81cd402b7b0a4db834bb51e08139bca4"}, {"lon": -77.02994033333333, "rental_uris": {"android": "https://dc.lft.to/lastmile_qr_scan", "ios": "https://dc.lft.to/lastmile_qr_scan"}, "fusion_lon": 0.0, "is_reserved": 0, "is_disabled": 0, "fusion_lat": 0.0, "type": "electric_scooter", "name": "0940fc2fe5d52519110e8cc73faef208", "lat": 38.904893666666666, "bike_id": "0940fc2fe5d52519110e8cc73faef208"}, {"lon": -77.02401566666667, "rental_uris": {"android": "https://dc.lft.to/lastmile_qr_scan", "ios": "https://dc.lft.to/lastmile_qr_scan"}, "fusion_lon": 0.0, "is_reserved": 0, "is_disabled": 0, "fusion_lat": 0.0, "type": "electric_scooter", "name": "f50e7906fa53801c11d8782233603ac0", "lat": 38.937036666666664, "bike_id": "f50e7906fa53801c11d8782233603ac0"}, {"lon": -77.00769766666667, "rental_uris": {"android": "https://dc.lft.to/lastmile_qr_scan", "ios": "https://dc.lft.to/lastmile_qr_scan"}, "fusion_lon": 0.0, "is_reserved": 0, "is_disabled": 0, "fusion_lat": 0.0, "type": "electric_scooter", "name": "ea00c7dc3caa2f15b7762559cf59d3f5", "lat": 38.89727333333333, "bike_id": "ea00c7dc3caa2f15b7762559cf59d3f5"}, {"lon": -77.02225833333334, "rental_uris": {"android": "https://dc.lft.to/lastmile_qr_scan", "ios": "https://dc.lft.to/lastmile_qr_scan"}, "fusion_lon": 0.0, "is_reserved": 0, "is_disabled": 0, "fusion_lat": 0.0, "type": "electric_scooter", "name": "2a50c32880c7c1a19573f980ecfc6f39", "lat": 38.9247215, "bike_id": "2a50c32880c7c1a19573f980ecfc6f39"}, {"lon": -77.018272, "rental_uris": {"android": "https://dc.lft.to/lastmile_qr_scan", "ios": "https://dc.lft.to/lastmile_qr_scan"}, "fusion_lon": 0.0, "is_reserved": 0, "is_disabled": 0, "fusion_lat": 0.0, "type": "electric_scooter", "name": "1be25868eb9d60eeb572128f362cbe8b", "lat": 38.921336333333336, "bike_id": "1be25868eb9d60eeb572128f362cbe8b"}, {"lon": -77.043283, "rental_uris": {"android": "https://dc.lft.to/lastmile_qr_scan", "ios": "https://dc.lft.to/lastmile_qr_scan"}, "fusion_lon": 0.0, "is_reserved": 0, "is_disabled": 0, "fusion_lat": 0.0, "type": "electric_scooter", "name": "5340f59495da43588f5853a172971316", "lat": 38.892214, "bike_id": "5340f59495da43588f5853a172971316"}, {"lon": -77.032868, "rental_uris": {"android": "https://dc.lft.to/lastmile_qr_scan", "ios": "https://dc.lft.to/lastmile_qr_scan"}, "fusion_lon": 0.0, "is_reserved": 0, "is_disabled": 0, "fusion_lat": 0.0, "type": "electric_scooter", "name": "38845dea0499a5e91ee8f3cecf915a08", "lat": 38.93004783333333, "bike_id": "38845dea0499a5e91ee8f3cecf915a08"}, {"lon": -77.00763033333334, "rental_uris": {"android": "https://dc.lft.to/lastmile_qr_scan", "ios": "https://dc.lft.to/lastmile_qr_scan"}, "fusion_lon": 0.0, "is_reserved": 0, "is_disabled": 0, "fusion_lat": 0.0, "type": "electric_scooter", "name": "9e99fc98eedb8c0363093cc286af9b4a", "lat": 38.871139166666666, "bike_id": "9e99fc98eedb8c0363093cc286af9b4a"}, {"lon": -77.02577183333334, "rental_uris": {"android": "https://dc.lft.to/lastmile_qr_scan", "ios": "https://dc.lft.to/lastmile_qr_scan"}, "fusion_lon": 0.0, "is_reserved": 0, "is_disabled": 0, "fusion_lat": 0.0, "type": "electric_scooter", "name": "a77b3e5e3841a0416982203ab0d43dc0", "lat": 38.920475833333334, "bike_id": "a77b3e5e3841a0416982203ab0d43dc0"}, {"lon": -77.01851933333333, "rental_uris": {"android": "https://dc.lft.to/lastmile_qr_scan", "ios": "https://dc.lft.to/lastmile_qr_scan"}, "fusion_lon": 0.0, "is_reserved": 0, "is_disabled": 0, "fusion_lat": 0.0, "type": "electric_scooter", "name": "af9ccfe6de85ef107e7bf0ccd6b91c0e", "lat": 38.954313166666665, "bike_id": "af9ccfe6de85ef107e7bf0ccd6b91c0e"}, {"lon": -77.04206833333333, "rental_uris": {"android": "https://dc.lft.to/lastmile_qr_scan", "ios": "https://dc.lft.to/lastmile_qr_scan"}, "fusion_lon": 0.0, "is_reserved": 0, "is_disabled": 0, "fusion_lat": 0.0, "type": "electric_scooter", "name": "88f741e7304c2e1ae8c015eebdc5ee95", "lat": 38.905870666666665, "bike_id": "88f741e7304c2e1ae8c015eebdc5ee95"}, {"lon": -77.042404, "rental_uris": {"android": "https://dc.lft.to/lastmile_qr_scan", "ios": "https://dc.lft.to/lastmile_qr_scan"}, "fusion_lon": 0.0, "is_reserved": 0, "is_disabled": 0, "fusion_lat": 0.0, "type": "electric_scooter", "name": "53d89f10050c5d53eb809436850dd06b", "lat": 38.92370866666667, "bike_id": "53d89f10050c5d53eb809436850dd06b"}, {"lon": -76.99832316666667, "rental_uris": {"android": "https://dc.lft.to/lastmile_qr_scan", "ios": "https://dc.lft.to/lastmile_qr_scan"}, "fusion_lon": 0.0, "is_reserved": 0, "is_disabled": 0, "fusion_lat": 0.0, "type": "electric_scooter", "name": "c16f78acaa382b69b0389dbd476de917", "lat": 38.90055016666667, "bike_id": "c16f78acaa382b69b0389dbd476de917"}, {"lon": -77.05790133333333, "rental_uris": {"android": "https://dc.lft.to/lastmile_qr_scan", "ios": "https://dc.lft.to/lastmile_qr_scan"}, "fusion_lon": 0.0, "is_reserved": 0, "is_disabled": 0, "fusion_lat": 0.0, "type": "electric_scooter", "name": "a80fe058379e15b8fb63acdefdc42c27", "lat": 38.901044, "bike_id": "a80fe058379e15b8fb63acdefdc42c27"}, {"lon": -76.96914766666667, "rental_uris": {"android": "https://dc.lft.to/lastmile_qr_scan", "ios": "https://dc.lft.to/lastmile_qr_scan"}, "fusion_lon": 0.0, "is_reserved": 0, "is_disabled": 0, "fusion_lat": 0.0, "type": "electric_bike", "name": "ba51441f025cabecd9c1d9fcaae0835a", "lat": 38.8460935, "bike_id": "ba51441f025cabecd9c1d9fcaae0835a"}, {"lon": -77.02664683333333, "rental_uris": {"android": "https://dc.lft.to/lastmile_qr_scan", "ios": "https://dc.lft.to/lastmile_qr_scan"}, "fusion_lon": 0.0, "is_reserved": 0, "is_disabled": 0, "fusion_lat": 0.0, "type": "electric_scooter", "name": "9ac21c03ba8e35ff930bd0b36b0a8b5f", "lat": 38.900077833333334, "bike_id": "9ac21c03ba8e35ff930bd0b36b0a8b5f"}, {"lon": -77.045367, "rental_uris": {"android": "https://dc.lft.to/lastmile_qr_scan", "ios": "https://dc.lft.to/lastmile_qr_scan"}, "fusion_lon": 0.0, "is_reserved": 0, "is_disabled": 0, "fusion_lat": 0.0, "type": "electric_scooter", "name": "9b833bb93326a50232c5b6af5ba0c48b", "lat": 38.911984, "bike_id": "9b833bb93326a50232c5b6af5ba0c48b"}, {"lon": -77.04346833333334, "rental_uris": {"android": "https://dc.lft.to/lastmile_qr_scan", "ios": "https://dc.lft.to/lastmile_qr_scan"}, "fusion_lon": 0.0, "is_reserved": 0, "is_disabled": 0, "fusion_lat": 0.0, "type": "electric_scooter", "name": "c7b9a49cc43c16a2b4f04cb57c28b355", "lat": 38.90560583333333, "bike_id": "c7b9a49cc43c16a2b4f04cb57c28b355"}, {"lon": -77.02190833333333, "rental_uris": {"android": "https://dc.lft.to/lastmile_qr_scan", "ios": "https://dc.lft.to/lastmile_qr_scan"}, "fusion_lon": 0.0, "is_reserved": 0, "is_disabled": 0, "fusion_lat": 0.0, "type": "electric_scooter", "name": "2cfce445c013ade543b1e20db7966d6b", "lat": 38.91085233333333, "bike_id": "2cfce445c013ade543b1e20db7966d6b"}, {"lon": -77.031826, "rental_uris": {"android": "https://dc.lft.to/lastmile_qr_scan", "ios": "https://dc.lft.to/lastmile_qr_scan"}, "fusion_lon": 0.0, "is_reserved": 0, "is_disabled": 0, "fusion_lat": 0.0, "type": "electric_scooter", "name": "d50936d78bf23d0835c78e73a876676d", "lat": 38.92487916666666, "bike_id": "d50936d78bf23d0835c78e73a876676d"}, {"lon": -76.98647416666667, "rental_uris": {"android": "https://dc.lft.to/lastmile_qr_scan", "ios": "https://dc.lft.to/lastmile_qr_scan"}, "fusion_lon": 0.0, "is_reserved": 0, "is_disabled": 0, "fusion_lat": 0.0, "type": "electric_scooter", "name": "e9762d9e414f86453b1d0652216a13da", "lat": 38.89756533333333, "bike_id": "e9762d9e414f86453b1d0652216a13da"}, {"lon": -77.02825866666667, "rental_uris": {"android": "https://dc.lft.to/lastmile_qr_scan", "ios": "https://dc.lft.to/lastmile_qr_scan"}, "fusion_lon": 0.0, "is_reserved": 0, "is_disabled": 0, "fusion_lat": 0.0, "type": "electric_scooter", "name": "fed80be6ba79390310950af1503d0181", "lat": 38.88661533333333, "bike_id": "fed80be6ba79390310950af1503d0181"}, {"lon": -77.03286333333334, "rental_uris": {"android": "https://dc.lft.to/lastmile_qr_scan", "ios": "https://dc.lft.to/lastmile_qr_scan"}, "fusion_lon": 0.0, "is_reserved": 0, "is_disabled": 0, "fusion_lat": 0.0, "type": "electric_scooter", "name": "b4777486cae9162dfcf60d993712f13f", "lat": 38.937690833333335, "bike_id": "b4777486cae9162dfcf60d993712f13f"}, {"lon": -77.03280966666667, "rental_uris": {"android": "https://dc.lft.to/lastmile_qr_scan", "ios": "https://dc.lft.to/lastmile_qr_scan"}, "fusion_lon": 0.0, "is_reserved": 0, "is_disabled": 0, "fusion_lat": 0.0, "type": "electric_scooter", "name": "f41055b704570fce78e20247e5d2e692", "lat": 38.89900133333333, "bike_id": "f41055b704570fce78e20247e5d2e692"}, {"lon": -77.01450016666666, "rental_uris": {"android": "https://dc.lft.to/lastmile_qr_scan", "ios": "https://dc.lft.to/lastmile_qr_scan"}, "fusion_lon": 0.0, "is_reserved": 0, "is_disabled": 0, "fusion_lat": 0.0, "type": "electric_scooter", "name": "49769636f706fddb009d2106ca17b689", "lat": 38.902396, "bike_id": "49769636f706fddb009d2106ca17b689"}, {"lon": -76.9523845, "rental_uris": {"android": "https://dc.lft.to/lastmile_qr_scan", "ios": "https://dc.lft.to/lastmile_qr_scan"}, "fusion_lon": 0.0, "is_reserved": 0, "is_disabled": 0, "fusion_lat": 0.0, "type": "electric_bike", "name": "ee10f4dc84051b879343c3cb9789fb74", "lat": 38.88463866666667, "bike_id": "ee10f4dc84051b879343c3cb9789fb74"}, {"lon": -77.05020916666666, "rental_uris": {"android": "https://dc.lft.to/lastmile_qr_scan", "ios": "https://dc.lft.to/lastmile_qr_scan"}, "fusion_lon": 0.0, "is_reserved": 0, "is_disabled": 0, "fusion_lat": 0.0, "type": "electric_scooter", "name": "55d0b2a2036e4c4c771d1e0e059f2cd4", "lat": 38.90105483333333, "bike_id": "55d0b2a2036e4c4c771d1e0e059f2cd4"}, {"lon": -77.01518183333333, "rental_uris": {"android": "https://dc.lft.to/lastmile_qr_scan", "ios": "https://dc.lft.to/lastmile_qr_scan"}, "fusion_lon": 0.0, "is_reserved": 0, "is_disabled": 0, "fusion_lat": 0.0, "type": "electric_scooter", "name": "a377a087ed4322c6e313bf983cb26672", "lat": 38.9266895, "bike_id": "a377a087ed4322c6e313bf983cb26672"}, {"lon": -77.01130233333333, "rental_uris": {"android": "https://dc.lft.to/lastmile_qr_scan", "ios": "https://dc.lft.to/lastmile_qr_scan"}, "fusion_lon": 0.0, "is_reserved": 0, "is_disabled": 0, "fusion_lat": 0.0, "type": "electric_scooter", "name": "abbb32f3ad17ec75e81d4c30c0e37362", "lat": 38.91186716666667, "bike_id": "abbb32f3ad17ec75e81d4c30c0e37362"}, {"lon": -77.043855, "rental_uris": {"android": "https://dc.lft.to/lastmile_qr_scan", "ios": "https://dc.lft.to/lastmile_qr_scan"}, "fusion_lon": 0.0, "is_reserved": 0, "is_disabled": 0, "fusion_lat": 0.0, "type": "electric_scooter", "name": "1c57cd8e52217bdc295c248c340f1118", "lat": 38.934959166666665, "bike_id": "1c57cd8e52217bdc295c248c340f1118"}, {"lon": -77.02962216666667, "rental_uris": {"android": "https://dc.lft.to/lastmile_qr_scan", "ios": "https://dc.lft.to/lastmile_qr_scan"}, "fusion_lon": 0.0, "is_reserved": 0, "is_disabled": 0, "fusion_lat": 0.0, "type": "electric_scooter", "name": "0391f91ebba5988f7e45bdf8357e10f1", "lat": 38.918933333333335, "bike_id": "0391f91ebba5988f7e45bdf8357e10f1"}, {"lon": -77.035887, "rental_uris": {"android": "https://dc.lft.to/lastmile_qr_scan", "ios": "https://dc.lft.to/lastmile_qr_scan"}, "fusion_lon": 0.0, "is_reserved": 0, "is_disabled": 0, "fusion_lat": 0.0, "type": "electric_bike", "name": "d4248fa43976e0ddf24c6e44ac93ffde", "lat": 38.992253, "bike_id": "d4248fa43976e0ddf24c6e44ac93ffde"}, {"lon": -76.93970216666666, "rental_uris": {"android": "https://dc.lft.to/lastmile_qr_scan", "ios": "https://dc.lft.to/lastmile_qr_scan"}, "fusion_lon": 0.0, "is_reserved": 0, "is_disabled": 0, "fusion_lat": 0.0, "type": "electric_bike", "name": "6296b3aa07c1a9bc78087556f453f033", "lat": 38.98811583333333, "bike_id": "6296b3aa07c1a9bc78087556f453f033"}, {"lon": -77.022122, "rental_uris": {"android": "https://dc.lft.to/lastmile_qr_scan", "ios": "https://dc.lft.to/lastmile_qr_scan"}, "fusion_lon": 0.0, "is_reserved": 0, "is_disabled": 0, "fusion_lat": 0.0, "type": "electric_scooter", "name": "6a95b5b57ea7b6ab7df06142c8c5e107", "lat": 38.88715233333333, "bike_id": "6a95b5b57ea7b6ab7df06142c8c5e107"}, {"lon": -77.072628, "rental_uris": {"android": "https://dc.lft.to/lastmile_qr_scan", "ios": "https://dc.lft.to/lastmile_qr_scan"}, "fusion_lon": 0.0, "is_reserved": 0, "is_disabled": 0, "fusion_lat": 0.0, "type": "electric_scooter", "name": "167a9ee73e6b34230f76369bbdd64704", "lat": 38.93435233333334, "bike_id": "167a9ee73e6b34230f76369bbdd64704"}, {"lon": -77.01635483333334, "rental_uris": {"android": "https://dc.lft.to/lastmile_qr_scan", "ios": "https://dc.lft.to/lastmile_qr_scan"}, "fusion_lon": 0.0, "is_reserved": 0, "is_disabled": 0, "fusion_lat": 0.0, "type": "electric_scooter", "name": "5cdc2d2f6bca97a1d70e07d21b061436", "lat": 38.903725666666666, "bike_id": "5cdc2d2f6bca97a1d70e07d21b061436"}, {"lon": -76.94975183333334, "rental_uris": {"android": "https://dc.lft.to/lastmile_qr_scan", "ios": "https://dc.lft.to/lastmile_qr_scan"}, "fusion_lon": 0.0, "is_reserved": 0, "is_disabled": 0, "fusion_lat": 0.0, "type": "electric_scooter", "name": "cd7f5d9434ea113fa95a23ff37d09291", "lat": 38.904216, "bike_id": "cd7f5d9434ea113fa95a23ff37d09291"}, {"lon": -77.01972316666667, "rental_uris": {"android": "https://dc.lft.to/lastmile_qr_scan", "ios": "https://dc.lft.to/lastmile_qr_scan"}, "fusion_lon": 0.0, "is_reserved": 0, "is_disabled": 0, "fusion_lat": 0.0, "type": "electric_scooter", "name": "febdf4b4ac934fc7968425bbce3cf88a", "lat": 38.95650966666667, "bike_id": "febdf4b4ac934fc7968425bbce3cf88a"}, {"lon": -77.02380666666667, "rental_uris": {"android": "https://dc.lft.to/lastmile_qr_scan", "ios": "https://dc.lft.to/lastmile_qr_scan"}, "fusion_lon": 0.0, "is_reserved": 0, "is_disabled": 0, "fusion_lat": 0.0, "type": "electric_scooter", "name": "1197ce42eb9106b061288168e2a0b0c7", "lat": 38.88729983333333, "bike_id": "1197ce42eb9106b061288168e2a0b0c7"}, {"lon": -77.02132683333333, "rental_uris": {"android": "https://dc.lft.to/lastmile_qr_scan", "ios": "https://dc.lft.to/lastmile_qr_scan"}, "fusion_lon": 0.0, "is_reserved": 0, "is_disabled": 0, "fusion_lat": 0.0, "type": "electric_scooter", "name": "2934655fbacc4daec145462c0e8f7a7f", "lat": 38.937629333333334, "bike_id": "2934655fbacc4daec145462c0e8f7a7f"}, {"lon": -77.0337625, "rental_uris": {"android": "https://dc.lft.to/lastmile_qr_scan", "ios": "https://dc.lft.to/lastmile_qr_scan"}, "fusion_lon": 0.0, "is_reserved": 0, "is_disabled": 0, "fusion_lat": 0.0, "type": "electric_scooter", "name": "062b018642e100440dd3eadccc11e883", "lat": 38.901108666666666, "bike_id": "062b018642e100440dd3eadccc11e883"}, {"lon": -77.0238045, "rental_uris": {"android": "https://dc.lft.to/lastmile_qr_scan", "ios": "https://dc.lft.to/lastmile_qr_scan"}, "fusion_lon": 0.0, "is_reserved": 0, "is_disabled": 0, "fusion_lat": 0.0, "type": "electric_scooter", "name": "7856686f847b1bcc1212d091a0696be4", "lat": 38.89197466666667, "bike_id": "7856686f847b1bcc1212d091a0696be4"}, {"lon": -77.02604183333334, "rental_uris": {"android": "https://dc.lft.to/lastmile_qr_scan", "ios": "https://dc.lft.to/lastmile_qr_scan"}, "fusion_lon": 0.0, "is_reserved": 0, "is_disabled": 0, "fusion_lat": 0.0, "type": "electric_scooter", "name": "5f7df5873d40a38fd8e983689b2e5cb9", "lat": 38.91872716666666, "bike_id": "5f7df5873d40a38fd8e983689b2e5cb9"}, {"lon": -77.04362716666667, "rental_uris": {"android": "https://dc.lft.to/lastmile_qr_scan", "ios": "https://dc.lft.to/lastmile_qr_scan"}, "fusion_lon": 0.0, "is_reserved": 0, "is_disabled": 0, "fusion_lat": 0.0, "type": "electric_scooter", "name": "303ac6efee4185d5e44c547ba4dabe18", "lat": 38.90377616666667, "bike_id": "303ac6efee4185d5e44c547ba4dabe18"}, {"lon": -77.00925783333334, "rental_uris": {"android": "https://dc.lft.to/lastmile_qr_scan", "ios": "https://dc.lft.to/lastmile_qr_scan"}, "fusion_lon": 0.0, "is_reserved": 0, "is_disabled": 0, "fusion_lat": 0.0, "type": "electric_scooter", "name": "181aa30af0e8d3016f7b24b325502071", "lat": 38.896081333333335, "bike_id": "181aa30af0e8d3016f7b24b325502071"}, {"lon": -77.03547866666666, "rental_uris": {"android": "https://dc.lft.to/lastmile_qr_scan", "ios": "https://dc.lft.to/lastmile_qr_scan"}, "fusion_lon": 0.0, "is_reserved": 0, "is_disabled": 0, "fusion_lat": 0.0, "type": "electric_scooter", "name": "262b2a808da8d5da34570d3a95af827a", "lat": 38.925824666666664, "bike_id": "262b2a808da8d5da34570d3a95af827a"}, {"lon": -77.00791883333333, "rental_uris": {"android": "https://dc.lft.to/lastmile_qr_scan", "ios": "https://dc.lft.to/lastmile_qr_scan"}, "fusion_lon": 0.0, "is_reserved": 0, "is_disabled": 0, "fusion_lat": 0.0, "type": "electric_scooter", "name": "14c8152ddd193aeb5a0d256d1d733aa1", "lat": 38.876633166666664, "bike_id": "14c8152ddd193aeb5a0d256d1d733aa1"}, {"lon": -77.022255, "rental_uris": {"android": "https://dc.lft.to/lastmile_qr_scan", "ios": "https://dc.lft.to/lastmile_qr_scan"}, "fusion_lon": 0.0, "is_reserved": 0, "is_disabled": 0, "fusion_lat": 0.0, "type": "electric_scooter", "name": "d54d8f778ba3985f656c7209c136761f", "lat": 38.89355466666667, "bike_id": "d54d8f778ba3985f656c7209c136761f"}, {"lon": -76.93486983333334, "rental_uris": {"android": "https://dc.lft.to/lastmile_qr_scan", "ios": "https://dc.lft.to/lastmile_qr_scan"}, "fusion_lon": 0.0, "is_reserved": 0, "is_disabled": 0, "fusion_lat": 0.0, "type": "electric_bike", "name": "eb4db9afaa9b389329067c5e2e1f44d3", "lat": 38.89102183333333, "bike_id": "eb4db9afaa9b389329067c5e2e1f44d3"}, {"lon": -77.02201366666667, "rental_uris": {"android": "https://dc.lft.to/lastmile_qr_scan", "ios": "https://dc.lft.to/lastmile_qr_scan"}, "fusion_lon": 0.0, "is_reserved": 0, "is_disabled": 0, "fusion_lat": 0.0, "type": "electric_scooter", "name": "2ffcb35e7ef079eaa1fb8db7163016fd", "lat": 38.92469066666666, "bike_id": "2ffcb35e7ef079eaa1fb8db7163016fd"}, {"lon": -77.03350433333334, "rental_uris": {"android": "https://dc.lft.to/lastmile_qr_scan", "ios": "https://dc.lft.to/lastmile_qr_scan"}, "fusion_lon": 0.0, "is_reserved": 0, "is_disabled": 0, "fusion_lat": 0.0, "type": "electric_scooter", "name": "f066ba500f9411be95117876914098f0", "lat": 38.88765266666667, "bike_id": "f066ba500f9411be95117876914098f0"}, {"lon": -77.0961975, "rental_uris": {"android": "https://dc.lft.to/lastmile_qr_scan", "ios": "https://dc.lft.to/lastmile_qr_scan"}, "fusion_lon": 0.0, "is_reserved": 0, "is_disabled": 0, "fusion_lat": 0.0, "type": "electric_bike", "name": "c0bbf2025e1ab98cb59421fc4542f927", "lat": 38.89568416666667, "bike_id": "c0bbf2025e1ab98cb59421fc4542f927"}, {"lon": -77.0453725, "rental_uris": {"android": "https://dc.lft.to/lastmile_qr_scan", "ios": "https://dc.lft.to/lastmile_qr_scan"}, "fusion_lon": 0.0, "is_reserved": 0, "is_disabled": 0, "fusion_lat": 0.0, "type": "electric_scooter", "name": "d9b11a174b55acfc9f885f8feb6ccdd1", "lat": 38.9006545, "bike_id": "d9b11a174b55acfc9f885f8feb6ccdd1"}, {"lon": -77.02845416666666, "rental_uris": {"android": "https://dc.lft.to/lastmile_qr_scan", "ios": "https://dc.lft.to/lastmile_qr_scan"}, "fusion_lon": 0.0, "is_reserved": 0, "is_disabled": 0, "fusion_lat": 0.0, "type": "electric_scooter", "name": "d0e7a21473b886a7c623877b9a70d925", "lat": 38.93251583333333, "bike_id": "d0e7a21473b886a7c623877b9a70d925"}, {"lon": -77.028163, "rental_uris": {"android": "https://dc.lft.to/lastmile_qr_scan", "ios": "https://dc.lft.to/lastmile_qr_scan"}, "fusion_lon": 0.0, "is_reserved": 0, "is_disabled": 0, "fusion_lat": 0.0, "type": "electric_scooter", "name": "09d9fced12d98cea26a8f73a522ebc8d", "lat": 38.931754166666664, "bike_id": "09d9fced12d98cea26a8f73a522ebc8d"}, {"lon": -77.05339066666667, "rental_uris": {"android": "https://dc.lft.to/lastmile_qr_scan", "ios": "https://dc.lft.to/lastmile_qr_scan"}, "fusion_lon": 0.0, "is_reserved": 0, "is_disabled": 0, "fusion_lat": 0.0, "type": "electric_scooter", "name": "f36b18ad271cc3316ca7ed2a0bd32f07", "lat": 38.90645716666667, "bike_id": "f36b18ad271cc3316ca7ed2a0bd32f07"}, {"lon": -77.02173283333333, "rental_uris": {"android": "https://dc.lft.to/lastmile_qr_scan", "ios": "https://dc.lft.to/lastmile_qr_scan"}, "fusion_lon": 0.0, "is_reserved": 0, "is_disabled": 0, "fusion_lat": 0.0, "type": "electric_scooter", "name": "a31b5f024d4b2ba1df2583472560c143", "lat": 38.89575283333333, "bike_id": "a31b5f024d4b2ba1df2583472560c143"}, {"lon": -77.06777533333333, "rental_uris": {"android": "https://dc.lft.to/lastmile_qr_scan", "ios": "https://dc.lft.to/lastmile_qr_scan"}, "fusion_lon": 0.0, "is_reserved": 0, "is_disabled": 0, "fusion_lat": 0.0, "type": "electric_scooter", "name": "e9db8540d5c88763773285f1813808b3", "lat": 38.90882166666667, "bike_id": "e9db8540d5c88763773285f1813808b3"}, {"lon": -77.01431433333333, "rental_uris": {"android": "https://dc.lft.to/lastmile_qr_scan", "ios": "https://dc.lft.to/lastmile_qr_scan"}, "fusion_lon": 0.0, "is_reserved": 0, "is_disabled": 0, "fusion_lat": 0.0, "type": "electric_scooter", "name": "98b55e90af18da2aa259dd19d6b3dad2", "lat": 38.920266, "bike_id": "98b55e90af18da2aa259dd19d6b3dad2"}, {"lon": -77.02253466666667, "rental_uris": {"android": "https://dc.lft.to/lastmile_qr_scan", "ios": "https://dc.lft.to/lastmile_qr_scan"}, "fusion_lon": 0.0, "is_reserved": 0, "is_disabled": 0, "fusion_lat": 0.0, "type": "electric_scooter", "name": "22105a7c5a0ee54dc94beccd148ab9ed", "lat": 38.924124166666665, "bike_id": "22105a7c5a0ee54dc94beccd148ab9ed"}, {"lon": -77.03799533333333, "rental_uris": {"android": "https://dc.lft.to/lastmile_qr_scan", "ios": "https://dc.lft.to/lastmile_qr_scan"}, "fusion_lon": 0.0, "is_reserved": 0, "is_disabled": 0, "fusion_lat": 0.0, "type": "electric_scooter", "name": "324d8a62179e30d3debca5f4b22427bb", "lat": 38.93604033333333, "bike_id": "324d8a62179e30d3debca5f4b22427bb"}, {"lon": -77.04526566666667, "rental_uris": {"android": "https://dc.lft.to/lastmile_qr_scan", "ios": "https://dc.lft.to/lastmile_qr_scan"}, "fusion_lon": 0.0, "is_reserved": 0, "is_disabled": 0, "fusion_lat": 0.0, "type": "electric_scooter", "name": "8988d6e23650f6b2ce7d991a8eb0bb7c", "lat": 38.918269333333335, "bike_id": "8988d6e23650f6b2ce7d991a8eb0bb7c"}, {"lon": -77.0426725, "rental_uris": {"android": "https://dc.lft.to/lastmile_qr_scan", "ios": "https://dc.lft.to/lastmile_qr_scan"}, "fusion_lon": 0.0, "is_reserved": 0, "is_disabled": 0, "fusion_lat": 0.0, "type": "electric_scooter", "name": "05243778d3f9d5ac0497228922bfcde4", "lat": 38.89897833333333, "bike_id": "05243778d3f9d5ac0497228922bfcde4"}, {"lon": -77.04997583333333, "rental_uris": {"android": "https://dc.lft.to/lastmile_qr_scan", "ios": "https://dc.lft.to/lastmile_qr_scan"}, "fusion_lon": 0.0, "is_reserved": 0, "is_disabled": 0, "fusion_lat": 0.0, "type": "electric_scooter", "name": "f51ccf7681db56bfabb16d608e9f07ba", "lat": 38.899250333333335, "bike_id": "f51ccf7681db56bfabb16d608e9f07ba"}, {"lon": -77.03816033333334, "rental_uris": {"android": "https://dc.lft.to/lastmile_qr_scan", "ios": "https://dc.lft.to/lastmile_qr_scan"}, "fusion_lon": 0.0, "is_reserved": 0, "is_disabled": 0, "fusion_lat": 0.0, "type": "electric_scooter", "name": "1c3291c44797e5243074709bcde9daf3", "lat": 38.9097345, "bike_id": "1c3291c44797e5243074709bcde9daf3"}, {"lon": -77.038943, "rental_uris": {"android": "https://dc.lft.to/lastmile_qr_scan", "ios": "https://dc.lft.to/lastmile_qr_scan"}, "fusion_lon": 0.0, "is_reserved": 0, "is_disabled": 0, "fusion_lat": 0.0, "type": "electric_scooter", "name": "93f2d19896d5238db4f450fefc94e6ba", "lat": 38.906438, "bike_id": "93f2d19896d5238db4f450fefc94e6ba"}, {"lon": -76.96259816666667, "rental_uris": {"android": "https://dc.lft.to/lastmile_qr_scan", "ios": "https://dc.lft.to/lastmile_qr_scan"}, "fusion_lon": 0.0, "is_reserved": 0, "is_disabled": 0, "fusion_lat": 0.0, "type": "electric_scooter", "name": "275e4c7db580ce1950639dbfde6c748c", "lat": 38.87868916666667, "bike_id": "275e4c7db580ce1950639dbfde6c748c"}, {"lon": -77.01838333333333, "rental_uris": {"android": "https://dc.lft.to/lastmile_qr_scan", "ios": "https://dc.lft.to/lastmile_qr_scan"}, "fusion_lon": 0.0, "is_reserved": 0, "is_disabled": 0, "fusion_lat": 0.0, "type": "electric_scooter", "name": "3f15dd1284c3f3ba5ed75087aec9cbe9", "lat": 38.9042495, "bike_id": "3f15dd1284c3f3ba5ed75087aec9cbe9"}, {"lon": -76.93758383333333, "rental_uris": {"android": "https://dc.lft.to/lastmile_qr_scan", "ios": "https://dc.lft.to/lastmile_qr_scan"}, "fusion_lon": 0.0, "is_reserved": 0, "is_disabled": 0, "fusion_lat": 0.0, "type": "electric_scooter", "name": "94c814eaac149712ad73fe7d0d868aed", "lat": 38.8904135, "bike_id": "94c814eaac149712ad73fe7d0d868aed"}, {"lon": -77.02482566666667, "rental_uris": {"android": "https://dc.lft.to/lastmile_qr_scan", "ios": "https://dc.lft.to/lastmile_qr_scan"}, "fusion_lon": 0.0, "is_reserved": 0, "is_disabled": 0, "fusion_lat": 0.0, "type": "electric_scooter", "name": "d9a2addea564562c307a7b2a84b504c9", "lat": 38.923991, "bike_id": "d9a2addea564562c307a7b2a84b504c9"}, {"lon": -77.0455375, "rental_uris": {"android": "https://dc.lft.to/lastmile_qr_scan", "ios": "https://dc.lft.to/lastmile_qr_scan"}, "fusion_lon": 0.0, "is_reserved": 0, "is_disabled": 0, "fusion_lat": 0.0, "type": "electric_scooter", "name": "ce396ef77753e339716d80e787ae4bf2", "lat": 38.91266133333333, "bike_id": "ce396ef77753e339716d80e787ae4bf2"}, {"lon": -77.04697033333333, "rental_uris": {"android": "https://dc.lft.to/lastmile_qr_scan", "ios": "https://dc.lft.to/lastmile_qr_scan"}, "fusion_lon": 0.0, "is_reserved": 0, "is_disabled": 0, "fusion_lat": 0.0, "type": "electric_scooter", "name": "9da3a7a2bc80a1311b1fc83801d134f3", "lat": 38.92114816666667, "bike_id": "9da3a7a2bc80a1311b1fc83801d134f3"}, {"lon": -77.02304066666666, "rental_uris": {"android": "https://dc.lft.to/lastmile_qr_scan", "ios": "https://dc.lft.to/lastmile_qr_scan"}, "fusion_lon": 0.0, "is_reserved": 0, "is_disabled": 0, "fusion_lat": 0.0, "type": "electric_bike", "name": "0659f30d2c8396d27566001b0b5a0f52", "lat": 38.96670016666667, "bike_id": "0659f30d2c8396d27566001b0b5a0f52"}, {"lon": -77.0490665, "rental_uris": {"android": "https://dc.lft.to/lastmile_qr_scan", "ios": "https://dc.lft.to/lastmile_qr_scan"}, "fusion_lon": 0.0, "is_reserved": 0, "is_disabled": 0, "fusion_lat": 0.0, "type": "electric_scooter", "name": "9e6027024d6fb892283fe9c539ace510", "lat": 38.897309166666666, "bike_id": "9e6027024d6fb892283fe9c539ace510"}, {"lon": -77.04468433333334, "rental_uris": {"android": "https://dc.lft.to/lastmile_qr_scan", "ios": "https://dc.lft.to/lastmile_qr_scan"}, "fusion_lon": 0.0, "is_reserved": 0, "is_disabled": 0, "fusion_lat": 0.0, "type": "electric_scooter", "name": "62d3bb56cc783783e227507f73b696db", "lat": 38.892234, "bike_id": "62d3bb56cc783783e227507f73b696db"}, {"lon": -77.04183466666667, "rental_uris": {"android": "https://dc.lft.to/lastmile_qr_scan", "ios": "https://dc.lft.to/lastmile_qr_scan"}, "fusion_lon": 0.0, "is_reserved": 0, "is_disabled": 0, "fusion_lat": 0.0, "type": "electric_scooter", "name": "d0fad3efac8460169a9fb8a01386bc00", "lat": 38.901412666666666, "bike_id": "d0fad3efac8460169a9fb8a01386bc00"}, {"lon": -77.08141466666666, "rental_uris": {"android": "https://dc.lft.to/lastmile_qr_scan", "ios": "https://dc.lft.to/lastmile_qr_scan"}, "fusion_lon": 0.0, "is_reserved": 0, "is_disabled": 0, "fusion_lat": 0.0, "type": "electric_bike", "name": "154d8fb505316e9c4dd3961d629c8dd9", "lat": 38.822986, "bike_id": "154d8fb505316e9c4dd3961d629c8dd9"}, {"lon": -77.04680833333333, "rental_uris": {"android": "https://dc.lft.to/lastmile_qr_scan", "ios": "https://dc.lft.to/lastmile_qr_scan"}, "fusion_lon": 0.0, "is_reserved": 0, "is_disabled": 0, "fusion_lat": 0.0, "type": "electric_scooter", "name": "557023e9748abca8119f73dccdc03365", "lat": 38.900256666666664, "bike_id": "557023e9748abca8119f73dccdc03365"}, {"lon": -77.045071, "rental_uris": {"android": "https://dc.lft.to/lastmile_qr_scan", "ios": "https://dc.lft.to/lastmile_qr_scan"}, "fusion_lon": 0.0, "is_reserved": 0, "is_disabled": 0, "fusion_lat": 0.0, "type": "electric_scooter", "name": "806c7cf11819ce5f04ca283806aa1197", "lat": 38.89945216666667, "bike_id": "806c7cf11819ce5f04ca283806aa1197"}, {"lon": -77.069397, "rental_uris": {"android": "https://dc.lft.to/lastmile_qr_scan", "ios": "https://dc.lft.to/lastmile_qr_scan"}, "fusion_lon": 0.0, "is_reserved": 0, "is_disabled": 0, "fusion_lat": 0.0, "type": "electric_scooter", "name": "f63fa16a156a41bb135bec8a9496de2a", "lat": 38.91745616666667, "bike_id": "f63fa16a156a41bb135bec8a9496de2a"}, {"lon": -77.026022, "rental_uris": {"android": "https://dc.lft.to/lastmile_qr_scan", "ios": "https://dc.lft.to/lastmile_qr_scan"}, "fusion_lon": 0.0, "is_reserved": 0, "is_disabled": 0, "fusion_lat": 0.0, "type": "electric_scooter", "name": "65d1736052fa94b35873c07d87e496d2", "lat": 38.916858166666664, "bike_id": "65d1736052fa94b35873c07d87e496d2"}, {"lon": -76.99614133333333, "rental_uris": {"android": "https://dc.lft.to/lastmile_qr_scan", "ios": "https://dc.lft.to/lastmile_qr_scan"}, "fusion_lon": 0.0, "is_reserved": 0, "is_disabled": 0, "fusion_lat": 0.0, "type": "electric_scooter", "name": "a5a0d9cdfa85be105da9ce134f781fc3", "lat": 38.894713833333334, "bike_id": "a5a0d9cdfa85be105da9ce134f781fc3"}, {"lon": -77.041563, "rental_uris": {"android": "https://dc.lft.to/lastmile_qr_scan", "ios": "https://dc.lft.to/lastmile_qr_scan"}, "fusion_lon": 0.0, "is_reserved": 0, "is_disabled": 0, "fusion_lat": 0.0, "type": "electric_scooter", "name": "d38a534c4d40f23ad83d494d5b8f1352", "lat": 38.9171505, "bike_id": "d38a534c4d40f23ad83d494d5b8f1352"}, {"lon": -77.0349685, "rental_uris": {"android": "https://dc.lft.to/lastmile_qr_scan", "ios": "https://dc.lft.to/lastmile_qr_scan"}, "fusion_lon": 0.0, "is_reserved": 0, "is_disabled": 0, "fusion_lat": 0.0, "type": "electric_scooter", "name": "10f49984c21ac9c33270d8d6e32c967a", "lat": 38.923466166666664, "bike_id": "10f49984c21ac9c33270d8d6e32c967a"}, {"lon": -77.07460233333333, "rental_uris": {"android": "https://dc.lft.to/lastmile_qr_scan", "ios": "https://dc.lft.to/lastmile_qr_scan"}, "fusion_lon": 0.0, "is_reserved": 0, "is_disabled": 0, "fusion_lat": 0.0, "type": "electric_scooter", "name": "b38e6d863afff1012b5f6c332949d64f", "lat": 38.93558933333333, "bike_id": "b38e6d863afff1012b5f6c332949d64f"}, {"lon": -77.00477766666667, "rental_uris": {"android": "https://dc.lft.to/lastmile_qr_scan", "ios": "https://dc.lft.to/lastmile_qr_scan"}, "fusion_lon": 0.0, "is_reserved": 0, "is_disabled": 0, "fusion_lat": 0.0, "type": "electric_bike", "name": "14c46a2a7892257f55ac758d3e108531", "lat": 38.89157433333333, "bike_id": "14c46a2a7892257f55ac758d3e108531"}, {"lon": -77.03474266666667, "rental_uris": {"android": "https://dc.lft.to/lastmile_qr_scan", "ios": "https://dc.lft.to/lastmile_qr_scan"}, "fusion_lon": 0.0, "is_reserved": 0, "is_disabled": 0, "fusion_lat": 0.0, "type": "electric_scooter", "name": "e65238108e4333abe825703c8b5bd3f7", "lat": 38.9051035, "bike_id": "e65238108e4333abe825703c8b5bd3f7"}, {"lon": -77.02401783333333, "rental_uris": {"android": "https://dc.lft.to/lastmile_qr_scan", "ios": "https://dc.lft.to/lastmile_qr_scan"}, "fusion_lon": 0.0, "is_reserved": 0, "is_disabled": 0, "fusion_lat": 0.0, "type": "electric_scooter", "name": "126f604457590f48772458371d9dc7d2", "lat": 38.90188083333334, "bike_id": "126f604457590f48772458371d9dc7d2"}, {"lon": -77.017674, "rental_uris": {"android": "https://dc.lft.to/lastmile_qr_scan", "ios": "https://dc.lft.to/lastmile_qr_scan"}, "fusion_lon": 0.0, "is_reserved": 0, "is_disabled": 0, "fusion_lat": 0.0, "type": "electric_scooter", "name": "bdd4bdf0bf7d1027a6693784d19c600c", "lat": 38.90642883333334, "bike_id": "bdd4bdf0bf7d1027a6693784d19c600c"}, {"lon": -77.00386616666667, "rental_uris": {"android": "https://dc.lft.to/lastmile_qr_scan", "ios": "https://dc.lft.to/lastmile_qr_scan"}, "fusion_lon": 0.0, "is_reserved": 0, "is_disabled": 0, "fusion_lat": 0.0, "type": "electric_bike", "name": "80be4c0f0cc04e23bcfbc932db811b33", "lat": 38.83608616666667, "bike_id": "80be4c0f0cc04e23bcfbc932db811b33"}, {"lon": -77.04193933333333, "rental_uris": {"android": "https://dc.lft.to/lastmile_qr_scan", "ios": "https://dc.lft.to/lastmile_qr_scan"}, "fusion_lon": 0.0, "is_reserved": 0, "is_disabled": 0, "fusion_lat": 0.0, "type": "electric_scooter", "name": "0f089f6651e4d50fd67f26b06a47d5a3", "lat": 38.90705416666667, "bike_id": "0f089f6651e4d50fd67f26b06a47d5a3"}, {"lon": -76.918051, "rental_uris": {"android": "https://dc.lft.to/lastmile_qr_scan", "ios": "https://dc.lft.to/lastmile_qr_scan"}, "fusion_lon": 0.0, "is_reserved": 0, "is_disabled": 0, "fusion_lat": 0.0, "type": "electric_bike", "name": "6d56fe62acd1fea58da4488590bdafc0", "lat": 38.999989166666666, "bike_id": "6d56fe62acd1fea58da4488590bdafc0"}, {"lon": -77.01548933333333, "rental_uris": {"android": "https://dc.lft.to/lastmile_qr_scan", "ios": "https://dc.lft.to/lastmile_qr_scan"}, "fusion_lon": 0.0, "is_reserved": 0, "is_disabled": 0, "fusion_lat": 0.0, "type": "electric_scooter", "name": "5a0a3ed10c7da36a0bd93ff172762dab", "lat": 38.90247633333333, "bike_id": "5a0a3ed10c7da36a0bd93ff172762dab"}, {"lon": -77.0443045, "rental_uris": {"android": "https://dc.lft.to/lastmile_qr_scan", "ios": "https://dc.lft.to/lastmile_qr_scan"}, "fusion_lon": 0.0, "is_reserved": 0, "is_disabled": 0, "fusion_lat": 0.0, "type": "electric_scooter", "name": "34d53bf098971b0a140f7074fbcc3027", "lat": 38.90136116666667, "bike_id": "34d53bf098971b0a140f7074fbcc3027"}, {"lon": -76.99171866666667, "rental_uris": {"android": "https://dc.lft.to/lastmile_qr_scan", "ios": "https://dc.lft.to/lastmile_qr_scan"}, "fusion_lon": 0.0, "is_reserved": 0, "is_disabled": 0, "fusion_lat": 0.0, "type": "electric_scooter", "name": "5055ffc8eea33093b17ec2465ae728cd", "lat": 38.88121616666667, "bike_id": "5055ffc8eea33093b17ec2465ae728cd"}, {"lon": -77.01355383333333, "rental_uris": {"android": "https://dc.lft.to/lastmile_qr_scan", "ios": "https://dc.lft.to/lastmile_qr_scan"}, "fusion_lon": 0.0, "is_reserved": 0, "is_disabled": 0, "fusion_lat": 0.0, "type": "electric_scooter", "name": "2d7629d8c13f694fd03cc1e9fe6262ae", "lat": 38.91853866666666, "bike_id": "2d7629d8c13f694fd03cc1e9fe6262ae"}, {"lon": -77.04694833333333, "rental_uris": {"android": "https://dc.lft.to/lastmile_qr_scan", "ios": "https://dc.lft.to/lastmile_qr_scan"}, "fusion_lon": 0.0, "is_reserved": 0, "is_disabled": 0, "fusion_lat": 0.0, "type": "electric_scooter", "name": "4c122150217415e04e5789d5aa5d76a4", "lat": 38.9216205, "bike_id": "4c122150217415e04e5789d5aa5d76a4"}, {"lon": -77.03847283333333, "rental_uris": {"android": "https://dc.lft.to/lastmile_qr_scan", "ios": "https://dc.lft.to/lastmile_qr_scan"}, "fusion_lon": 0.0, "is_reserved": 0, "is_disabled": 0, "fusion_lat": 0.0, "type": "electric_scooter", "name": "8f3b17fc90c35f1b1357b981ea749860", "lat": 38.90849133333333, "bike_id": "8f3b17fc90c35f1b1357b981ea749860"}, {"lon": -76.957616, "rental_uris": {"android": "https://dc.lft.to/lastmile_qr_scan", "ios": "https://dc.lft.to/lastmile_qr_scan"}, "fusion_lon": 0.0, "is_reserved": 0, "is_disabled": 0, "fusion_lat": 0.0, "type": "electric_bike", "name": "4c1b7974b1889ec780e8a9470f185105", "lat": 38.884896833333336, "bike_id": "4c1b7974b1889ec780e8a9470f185105"}, {"lon": -77.03226683333334, "rental_uris": {"android": "https://dc.lft.to/lastmile_qr_scan", "ios": "https://dc.lft.to/lastmile_qr_scan"}, "fusion_lon": 0.0, "is_reserved": 0, "is_disabled": 0, "fusion_lat": 0.0, "type": "electric_scooter", "name": "015fd58e180764671f711cb3a9944c7e", "lat": 38.930452833333334, "bike_id": "015fd58e180764671f711cb3a9944c7e"}, {"lon": -77.03868716666666, "rental_uris": {"android": "https://dc.lft.to/lastmile_qr_scan", "ios": "https://dc.lft.to/lastmile_qr_scan"}, "fusion_lon": 0.0, "is_reserved": 0, "is_disabled": 0, "fusion_lat": 0.0, "type": "electric_scooter", "name": "ce6ab7ff93cf928230c2a5945d477623", "lat": 38.94229466666667, "bike_id": "ce6ab7ff93cf928230c2a5945d477623"}, {"lon": -77.039751, "rental_uris": {"android": "https://dc.lft.to/lastmile_qr_scan", "ios": "https://dc.lft.to/lastmile_qr_scan"}, "fusion_lon": 0.0, "is_reserved": 0, "is_disabled": 0, "fusion_lat": 0.0, "type": "electric_scooter", "name": "49b8166dc7835913fa04aaf71120c745", "lat": 38.9026825, "bike_id": "49b8166dc7835913fa04aaf71120c745"}, {"lon": -77.046604, "rental_uris": {"android": "https://dc.lft.to/lastmile_qr_scan", "ios": "https://dc.lft.to/lastmile_qr_scan"}, "fusion_lon": 0.0, "is_reserved": 0, "is_disabled": 0, "fusion_lat": 0.0, "type": "electric_scooter", "name": "5882543d4e4e91ac01eddc6d33e61716", "lat": 38.894684, "bike_id": "5882543d4e4e91ac01eddc6d33e61716"}, {"lon": -76.95289616666666, "rental_uris": {"android": "https://dc.lft.to/lastmile_qr_scan", "ios": "https://dc.lft.to/lastmile_qr_scan"}, "fusion_lon": 0.0, "is_reserved": 0, "is_disabled": 0, "fusion_lat": 0.0, "type": "electric_scooter", "name": "f8df7633d21f19efa6bf230d0b35626f", "lat": 38.885112, "bike_id": "f8df7633d21f19efa6bf230d0b35626f"}, {"lon": -77.03887316666666, "rental_uris": {"android": "https://dc.lft.to/lastmile_qr_scan", "ios": "https://dc.lft.to/lastmile_qr_scan"}, "fusion_lon": 0.0, "is_reserved": 0, "is_disabled": 0, "fusion_lat": 0.0, "type": "electric_scooter", "name": "f3e6dd278c8d40788cb4497196b676e6", "lat": 38.906427, "bike_id": "f3e6dd278c8d40788cb4497196b676e6"}, {"lon": -77.03275416666666, "rental_uris": {"android": "https://dc.lft.to/lastmile_qr_scan", "ios": "https://dc.lft.to/lastmile_qr_scan"}, "fusion_lon": 0.0, "is_reserved": 0, "is_disabled": 0, "fusion_lat": 0.0, "type": "electric_scooter", "name": "e47734c1403193f5e61ce1da7b19a610", "lat": 38.91260033333333, "bike_id": "e47734c1403193f5e61ce1da7b19a610"}, {"lon": -76.99507516666667, "rental_uris": {"android": "https://dc.lft.to/lastmile_qr_scan", "ios": "https://dc.lft.to/lastmile_qr_scan"}, "fusion_lon": 0.0, "is_reserved": 0, "is_disabled": 0, "fusion_lat": 0.0, "type": "electric_scooter", "name": "80656f5804da07cf511e8fd140054058", "lat": 38.879023, "bike_id": "80656f5804da07cf511e8fd140054058"}, {"lon": -77.00180883333333, "rental_uris": {"android": "https://dc.lft.to/lastmile_qr_scan", "ios": "https://dc.lft.to/lastmile_qr_scan"}, "fusion_lon": 0.0, "is_reserved": 0, "is_disabled": 0, "fusion_lat": 0.0, "type": "electric_scooter", "name": "47ae1388da68f44af428ede8db1705e6", "lat": 38.90835166666667, "bike_id": "47ae1388da68f44af428ede8db1705e6"}, {"lon": -77.01221616666666, "rental_uris": {"android": "https://dc.lft.to/lastmile_qr_scan", "ios": "https://dc.lft.to/lastmile_qr_scan"}, "fusion_lon": 0.0, "is_reserved": 0, "is_disabled": 0, "fusion_lat": 0.0, "type": "electric_scooter", "name": "8e33c6e7f54d2370bae472f34faccc50", "lat": 38.900450666666664, "bike_id": "8e33c6e7f54d2370bae472f34faccc50"}, {"lon": -77.02386, "rental_uris": {"android": "https://dc.lft.to/lastmile_qr_scan", "ios": "https://dc.lft.to/lastmile_qr_scan"}, "fusion_lon": 0.0, "is_reserved": 0, "is_disabled": 0, "fusion_lat": 0.0, "type": "electric_scooter", "name": "9a320e396c5bf112f764ecde7447499f", "lat": 38.88736083333333, "bike_id": "9a320e396c5bf112f764ecde7447499f"}, {"lon": -77.03842483333334, "rental_uris": {"android": "https://dc.lft.to/lastmile_qr_scan", "ios": "https://dc.lft.to/lastmile_qr_scan"}, "fusion_lon": 0.0, "is_reserved": 0, "is_disabled": 0, "fusion_lat": 0.0, "type": "electric_scooter", "name": "96e5b86a3d62ac54eca71f63f9f380e7", "lat": 38.941918, "bike_id": "96e5b86a3d62ac54eca71f63f9f380e7"}, {"lon": -77.02045333333334, "rental_uris": {"android": "https://dc.lft.to/lastmile_qr_scan", "ios": "https://dc.lft.to/lastmile_qr_scan"}, "fusion_lon": 0.0, "is_reserved": 0, "is_disabled": 0, "fusion_lat": 0.0, "type": "electric_scooter", "name": "5a812e22079177fc36f13cd215880d7c", "lat": 38.9190505, "bike_id": "5a812e22079177fc36f13cd215880d7c"}, {"lon": -76.98355883333333, "rental_uris": {"android": "https://dc.lft.to/lastmile_qr_scan", "ios": "https://dc.lft.to/lastmile_qr_scan"}, "fusion_lon": 0.0, "is_reserved": 0, "is_disabled": 0, "fusion_lat": 0.0, "type": "electric_scooter", "name": "d2505cbab72a5700fdc8a1bae64f7e1c", "lat": 38.887326333333334, "bike_id": "d2505cbab72a5700fdc8a1bae64f7e1c"}, {"lon": -77.03796833333334, "rental_uris": {"android": "https://dc.lft.to/lastmile_qr_scan", "ios": "https://dc.lft.to/lastmile_qr_scan"}, "fusion_lon": 0.0, "is_reserved": 0, "is_disabled": 0, "fusion_lat": 0.0, "type": "electric_scooter", "name": "ee0b78f8681f004e7451e3f7626bccd6", "lat": 38.91191466666667, "bike_id": "ee0b78f8681f004e7451e3f7626bccd6"}, {"lon": -76.98671016666667, "rental_uris": {"android": "https://dc.lft.to/lastmile_qr_scan", "ios": "https://dc.lft.to/lastmile_qr_scan"}, "fusion_lon": 0.0, "is_reserved": 0, "is_disabled": 0, "fusion_lat": 0.0, "type": "electric_scooter", "name": "e2d15c3437f1f80aa69b4e8247e62ab3", "lat": 38.906823833333334, "bike_id": "e2d15c3437f1f80aa69b4e8247e62ab3"}, {"lon": -77.001518, "rental_uris": {"android": "https://dc.lft.to/lastmile_qr_scan", "ios": "https://dc.lft.to/lastmile_qr_scan"}, "fusion_lon": 0.0, "is_reserved": 0, "is_disabled": 0, "fusion_lat": 0.0, "type": "electric_scooter", "name": "13225c02f975af4fe443be22cc547df2", "lat": 38.91077133333334, "bike_id": "13225c02f975af4fe443be22cc547df2"}, {"lon": -77.02376183333334, "rental_uris": {"android": "https://dc.lft.to/lastmile_qr_scan", "ios": "https://dc.lft.to/lastmile_qr_scan"}, "fusion_lon": 0.0, "is_reserved": 0, "is_disabled": 0, "fusion_lat": 0.0, "type": "electric_scooter", "name": "5803206bf6d5e0e1391477521dfd8309", "lat": 38.89218533333333, "bike_id": "5803206bf6d5e0e1391477521dfd8309"}, {"lon": -77.06351766666667, "rental_uris": {"android": "https://dc.lft.to/lastmile_qr_scan", "ios": "https://dc.lft.to/lastmile_qr_scan"}, "fusion_lon": 0.0, "is_reserved": 0, "is_disabled": 0, "fusion_lat": 0.0, "type": "electric_scooter", "name": "8bc88326f182854af9d457e1137124d5", "lat": 38.944477166666665, "bike_id": "8bc88326f182854af9d457e1137124d5"}, {"lon": -76.9872825, "rental_uris": {"android": "https://dc.lft.to/lastmile_qr_scan", "ios": "https://dc.lft.to/lastmile_qr_scan"}, "fusion_lon": 0.0, "is_reserved": 0, "is_disabled": 0, "fusion_lat": 0.0, "type": "electric_scooter", "name": "1d09a698bc07bc11848ff6011363bee6", "lat": 38.903611, "bike_id": "1d09a698bc07bc11848ff6011363bee6"}, {"lon": -77.050351, "rental_uris": {"android": "https://dc.lft.to/lastmile_qr_scan", "ios": "https://dc.lft.to/lastmile_qr_scan"}, "fusion_lon": 0.0, "is_reserved": 0, "is_disabled": 0, "fusion_lat": 0.0, "type": "electric_scooter", "name": "dd92a2db646f03a19ffa9a9cd48ae558", "lat": 38.906265166666664, "bike_id": "dd92a2db646f03a19ffa9a9cd48ae558"}, {"lon": -77.0278805, "rental_uris": {"android": "https://dc.lft.to/lastmile_qr_scan", "ios": "https://dc.lft.to/lastmile_qr_scan"}, "fusion_lon": 0.0, "is_reserved": 0, "is_disabled": 0, "fusion_lat": 0.0, "type": "electric_scooter", "name": "dc7469fa037dba46943bc30996f60d5f", "lat": 38.973522833333334, "bike_id": "dc7469fa037dba46943bc30996f60d5f"}, {"lon": -77.02370816666667, "rental_uris": {"android": "https://dc.lft.to/lastmile_qr_scan", "ios": "https://dc.lft.to/lastmile_qr_scan"}, "fusion_lon": 0.0, "is_reserved": 0, "is_disabled": 0, "fusion_lat": 0.0, "type": "electric_scooter", "name": "7f58abacc7504e372ff9ec59f0c23294", "lat": 38.90197533333333, "bike_id": "7f58abacc7504e372ff9ec59f0c23294"}, {"lon": -77.01965166666666, "rental_uris": {"android": "https://dc.lft.to/lastmile_qr_scan", "ios": "https://dc.lft.to/lastmile_qr_scan"}, "fusion_lon": 0.0, "is_reserved": 0, "is_disabled": 0, "fusion_lat": 0.0, "type": "electric_scooter", "name": "3b3691778b681f91dfb213e312c97302", "lat": 38.91903383333333, "bike_id": "3b3691778b681f91dfb213e312c97302"}, {"lon": -77.032165, "rental_uris": {"android": "https://dc.lft.to/lastmile_qr_scan", "ios": "https://dc.lft.to/lastmile_qr_scan"}, "fusion_lon": 0.0, "is_reserved": 0, "is_disabled": 0, "fusion_lat": 0.0, "type": "electric_scooter", "name": "08acb91e99578220eeb73931aa59d7a3", "lat": 38.9095475, "bike_id": "08acb91e99578220eeb73931aa59d7a3"}, {"lon": -77.0365785, "rental_uris": {"android": "https://dc.lft.to/lastmile_qr_scan", "ios": "https://dc.lft.to/lastmile_qr_scan"}, "fusion_lon": 0.0, "is_reserved": 0, "is_disabled": 0, "fusion_lat": 0.0, "type": "electric_scooter", "name": "372af1a6937e35f73292cb6e64ae1b05", "lat": 38.93204216666667, "bike_id": "372af1a6937e35f73292cb6e64ae1b05"}, {"lon": -77.02183916666667, "rental_uris": {"android": "https://dc.lft.to/lastmile_qr_scan", "ios": "https://dc.lft.to/lastmile_qr_scan"}, "fusion_lon": 0.0, "is_reserved": 0, "is_disabled": 0, "fusion_lat": 0.0, "type": "electric_scooter", "name": "5ef6135b77b52cbd61b142518bc6e10d", "lat": 38.897520166666666, "bike_id": "5ef6135b77b52cbd61b142518bc6e10d"}, {"lon": -77.03831683333334, "rental_uris": {"android": "https://dc.lft.to/lastmile_qr_scan", "ios": "https://dc.lft.to/lastmile_qr_scan"}, "fusion_lon": 0.0, "is_reserved": 0, "is_disabled": 0, "fusion_lat": 0.0, "type": "electric_scooter", "name": "a133f7221b19f1ca31eb0942f149da81", "lat": 38.945032166666664, "bike_id": "a133f7221b19f1ca31eb0942f149da81"}, {"lon": -77.0288565, "rental_uris": {"android": "https://dc.lft.to/lastmile_qr_scan", "ios": "https://dc.lft.to/lastmile_qr_scan"}, "fusion_lon": 0.0, "is_reserved": 0, "is_disabled": 0, "fusion_lat": 0.0, "type": "electric_scooter", "name": "0c3ed583d6402bb06ba7096c6be94f4e", "lat": 38.91705133333333, "bike_id": "0c3ed583d6402bb06ba7096c6be94f4e"}, {"lon": -77.0417835, "rental_uris": {"android": "https://dc.lft.to/lastmile_qr_scan", "ios": "https://dc.lft.to/lastmile_qr_scan"}, "fusion_lon": 0.0, "is_reserved": 0, "is_disabled": 0, "fusion_lat": 0.0, "type": "electric_scooter", "name": "255d6a586db5f29b41c2b4de98a3f16d", "lat": 38.91655516666667, "bike_id": "255d6a586db5f29b41c2b4de98a3f16d"}, {"lon": -77.048961, "rental_uris": {"android": "https://dc.lft.to/lastmile_qr_scan", "ios": "https://dc.lft.to/lastmile_qr_scan"}, "fusion_lon": 0.0, "is_reserved": 0, "is_disabled": 0, "fusion_lat": 0.0, "type": "electric_scooter", "name": "a4bcbf6a1a3203c79e3bb4bcf2509ef7", "lat": 38.892278, "bike_id": "a4bcbf6a1a3203c79e3bb4bcf2509ef7"}, {"lon": -77.04108233333334, "rental_uris": {"android": "https://dc.lft.to/lastmile_qr_scan", "ios": "https://dc.lft.to/lastmile_qr_scan"}, "fusion_lon": 0.0, "is_reserved": 0, "is_disabled": 0, "fusion_lat": 0.0, "type": "electric_scooter", "name": "1c5dff8681f233a19e098727f800876c", "lat": 38.91693633333333, "bike_id": "1c5dff8681f233a19e098727f800876c"}, {"lon": -77.00918966666667, "rental_uris": {"android": "https://dc.lft.to/lastmile_qr_scan", "ios": "https://dc.lft.to/lastmile_qr_scan"}, "fusion_lon": 0.0, "is_reserved": 0, "is_disabled": 0, "fusion_lat": 0.0, "type": "electric_scooter", "name": "0d3142031945dfc7bfbcee9ee1c35bab", "lat": 38.907676, "bike_id": "0d3142031945dfc7bfbcee9ee1c35bab"}, {"lon": -77.03754466666666, "rental_uris": {"android": "https://dc.lft.to/lastmile_qr_scan", "ios": "https://dc.lft.to/lastmile_qr_scan"}, "fusion_lon": 0.0, "is_reserved": 0, "is_disabled": 0, "fusion_lat": 0.0, "type": "electric_scooter", "name": "c1820e69cfcc99042298d38264bac3b5", "lat": 38.915529666666664, "bike_id": "c1820e69cfcc99042298d38264bac3b5"}, {"lon": -77.033925, "rental_uris": {"android": "https://dc.lft.to/lastmile_qr_scan", "ios": "https://dc.lft.to/lastmile_qr_scan"}, "fusion_lon": 0.0, "is_reserved": 0, "is_disabled": 0, "fusion_lat": 0.0, "type": "electric_scooter", "name": "f7f679350c7d2af3e3af31a187c1eaf1", "lat": 38.938493, "bike_id": "f7f679350c7d2af3e3af31a187c1eaf1"}, {"lon": -76.9872215, "rental_uris": {"android": "https://dc.lft.to/lastmile_qr_scan", "ios": "https://dc.lft.to/lastmile_qr_scan"}, "fusion_lon": 0.0, "is_reserved": 0, "is_disabled": 0, "fusion_lat": 0.0, "type": "electric_bike", "name": "f6cb44b05e59a347503c766baf0bb229", "lat": 38.863294333333336, "bike_id": "f6cb44b05e59a347503c766baf0bb229"}, {"lon": -77.23675433333334, "rental_uris": {"android": "https://dc.lft.to/lastmile_qr_scan", "ios": "https://dc.lft.to/lastmile_qr_scan"}, "fusion_lon": 0.0, "is_reserved": 0, "is_disabled": 0, "fusion_lat": 0.0, "type": "electric_bike", "name": "a7aca54a889c7062a4b5b3ff9aac3d7a", "lat": 38.921186166666665, "bike_id": "a7aca54a889c7062a4b5b3ff9aac3d7a"}, {"lon": -77.05312383333333, "rental_uris": {"android": "https://dc.lft.to/lastmile_qr_scan", "ios": "https://dc.lft.to/lastmile_qr_scan"}, "fusion_lon": 0.0, "is_reserved": 0, "is_disabled": 0, "fusion_lat": 0.0, "type": "electric_scooter", "name": "b36b204830325a5b0448c406d2ceae7d", "lat": 38.902703333333335, "bike_id": "b36b204830325a5b0448c406d2ceae7d"}, {"lon": -77.005732, "rental_uris": {"android": "https://dc.lft.to/lastmile_qr_scan", "ios": "https://dc.lft.to/lastmile_qr_scan"}, "fusion_lon": 0.0, "is_reserved": 0, "is_disabled": 0, "fusion_lat": 0.0, "type": "electric_scooter", "name": "4d36bc96edb4dd9b66e476aa6efdc703", "lat": 38.918159, "bike_id": "4d36bc96edb4dd9b66e476aa6efdc703"}, {"lon": -77.02755766666667, "rental_uris": {"android": "https://dc.lft.to/lastmile_qr_scan", "ios": "https://dc.lft.to/lastmile_qr_scan"}, "fusion_lon": 0.0, "is_reserved": 0, "is_disabled": 0, "fusion_lat": 0.0, "type": "electric_scooter", "name": "3028e6dd9f459e0d95dbdfd2a62bfdb4", "lat": 38.88153883333333, "bike_id": "3028e6dd9f459e0d95dbdfd2a62bfdb4"}, {"lon": -77.02761666666666, "rental_uris": {"android": "https://dc.lft.to/lastmile_qr_scan", "ios": "https://dc.lft.to/lastmile_qr_scan"}, "fusion_lon": 0.0, "is_reserved": 0, "is_disabled": 0, "fusion_lat": 0.0, "type": "electric_scooter", "name": "6b50e830c958a936a2c6678a1ddcff8f", "lat": 38.9560725, "bike_id": "6b50e830c958a936a2c6678a1ddcff8f"}, {"lon": -76.99750133333333, "rental_uris": {"android": "https://dc.lft.to/lastmile_qr_scan", "ios": "https://dc.lft.to/lastmile_qr_scan"}, "fusion_lon": 0.0, "is_reserved": 0, "is_disabled": 0, "fusion_lat": 0.0, "type": "electric_bike", "name": "e8ea43d75d801685d809f712532cdbe0", "lat": 38.956398, "bike_id": "e8ea43d75d801685d809f712532cdbe0"}, {"lon": -77.04504366666667, "rental_uris": {"android": "https://dc.lft.to/lastmile_qr_scan", "ios": "https://dc.lft.to/lastmile_qr_scan"}, "fusion_lon": 0.0, "is_reserved": 0, "is_disabled": 0, "fusion_lat": 0.0, "type": "electric_scooter", "name": "7679aa2a2e9fb3ac632f09b406a60a78", "lat": 38.8925425, "bike_id": "7679aa2a2e9fb3ac632f09b406a60a78"}, {"lon": -77.028259, "rental_uris": {"android": "https://dc.lft.to/lastmile_qr_scan", "ios": "https://dc.lft.to/lastmile_qr_scan"}, "fusion_lon": 0.0, "is_reserved": 0, "is_disabled": 0, "fusion_lat": 0.0, "type": "electric_scooter", "name": "b719b45a9685a8a51b9199f3cff49c2f", "lat": 38.88727683333333, "bike_id": "b719b45a9685a8a51b9199f3cff49c2f"}, {"lon": -77.00448716666666, "rental_uris": {"android": "https://dc.lft.to/lastmile_qr_scan", "ios": "https://dc.lft.to/lastmile_qr_scan"}, "fusion_lon": 0.0, "is_reserved": 0, "is_disabled": 0, "fusion_lat": 0.0, "type": "electric_scooter", "name": "750efab23d2abf0fc2f6b5c7c402ca71", "lat": 38.9109875, "bike_id": "750efab23d2abf0fc2f6b5c7c402ca71"}, {"lon": -76.9857965, "rental_uris": {"android": "https://dc.lft.to/lastmile_qr_scan", "ios": "https://dc.lft.to/lastmile_qr_scan"}, "fusion_lon": 0.0, "is_reserved": 0, "is_disabled": 0, "fusion_lat": 0.0, "type": "electric_bike", "name": "bf3cb4bfd05a9b21a2a09d24cd14b8b1", "lat": 38.914777, "bike_id": "bf3cb4bfd05a9b21a2a09d24cd14b8b1"}, {"lon": -77.03055516666667, "rental_uris": {"android": "https://dc.lft.to/lastmile_qr_scan", "ios": "https://dc.lft.to/lastmile_qr_scan"}, "fusion_lon": 0.0, "is_reserved": 0, "is_disabled": 0, "fusion_lat": 0.0, "type": "electric_scooter", "name": "d4e80258c016d1e8a6fa671edecd839d", "lat": 38.91332766666667, "bike_id": "d4e80258c016d1e8a6fa671edecd839d"}, {"lon": -77.044442, "rental_uris": {"android": "https://dc.lft.to/lastmile_qr_scan", "ios": "https://dc.lft.to/lastmile_qr_scan"}, "fusion_lon": 0.0, "is_reserved": 0, "is_disabled": 0, "fusion_lat": 0.0, "type": "electric_scooter", "name": "9ac84d86e516313039ac430e12472cf0", "lat": 38.905677833333336, "bike_id": "9ac84d86e516313039ac430e12472cf0"}, {"lon": -77.06519816666666, "rental_uris": {"android": "https://dc.lft.to/lastmile_qr_scan", "ios": "https://dc.lft.to/lastmile_qr_scan"}, "fusion_lon": 0.0, "is_reserved": 0, "is_disabled": 0, "fusion_lat": 0.0, "type": "electric_scooter", "name": "975cb5c3057ab1838f65a8150d2b7950", "lat": 38.90390983333333, "bike_id": "975cb5c3057ab1838f65a8150d2b7950"}, {"lon": -77.04176483333333, "rental_uris": {"android": "https://dc.lft.to/lastmile_qr_scan", "ios": "https://dc.lft.to/lastmile_qr_scan"}, "fusion_lon": 0.0, "is_reserved": 0, "is_disabled": 0, "fusion_lat": 0.0, "type": "electric_scooter", "name": "3cd43c31f2f3799e2cd85bf0f385692f", "lat": 38.906347333333336, "bike_id": "3cd43c31f2f3799e2cd85bf0f385692f"}, {"lon": -77.129868, "rental_uris": {"android": "https://dc.lft.to/lastmile_qr_scan", "ios": "https://dc.lft.to/lastmile_qr_scan"}, "fusion_lon": 0.0, "is_reserved": 0, "is_disabled": 0, "fusion_lat": 0.0, "type": "electric_bike", "name": "0ab8dc252c2d66f2de82082a0026cc58", "lat": 38.80761966666667, "bike_id": "0ab8dc252c2d66f2de82082a0026cc58"}, {"lon": -77.03468583333333, "rental_uris": {"android": "https://dc.lft.to/lastmile_qr_scan", "ios": "https://dc.lft.to/lastmile_qr_scan"}, "fusion_lon": 0.0, "is_reserved": 0, "is_disabled": 0, "fusion_lat": 0.0, "type": "electric_scooter", "name": "774ce04b3dd82dabaffbbf5909f0cadf", "lat": 38.90420133333333, "bike_id": "774ce04b3dd82dabaffbbf5909f0cadf"}, {"lon": -77.03822316666667, "rental_uris": {"android": "https://dc.lft.to/lastmile_qr_scan", "ios": "https://dc.lft.to/lastmile_qr_scan"}, "fusion_lon": 0.0, "is_reserved": 0, "is_disabled": 0, "fusion_lat": 0.0, "type": "electric_scooter", "name": "7c9e947d3ac6bbfb0943611f0fabebae", "lat": 38.92710666666667, "bike_id": "7c9e947d3ac6bbfb0943611f0fabebae"}, {"lon": -76.99703566666666, "rental_uris": {"android": "https://dc.lft.to/lastmile_qr_scan", "ios": "https://dc.lft.to/lastmile_qr_scan"}, "fusion_lon": 0.0, "is_reserved": 0, "is_disabled": 0, "fusion_lat": 0.0, "type": "electric_scooter", "name": "587bcbd16f7b92ac3975dd9a559dcb2b", "lat": 38.9079385, "bike_id": "587bcbd16f7b92ac3975dd9a559dcb2b"}, {"lon": -76.94255716666666, "rental_uris": {"android": "https://dc.lft.to/lastmile_qr_scan", "ios": "https://dc.lft.to/lastmile_qr_scan"}, "fusion_lon": 0.0, "is_reserved": 0, "is_disabled": 0, "fusion_lat": 0.0, "type": "electric_scooter", "name": "622f40400515120f35daebe0a209ccac", "lat": 38.898463166666666, "bike_id": "622f40400515120f35daebe0a209ccac"}, {"lon": -77.09378533333333, "rental_uris": {"android": "https://dc.lft.to/lastmile_qr_scan", "ios": "https://dc.lft.to/lastmile_qr_scan"}, "fusion_lon": 0.0, "is_reserved": 0, "is_disabled": 0, "fusion_lat": 0.0, "type": "electric_bike", "name": "ec94fec9c4ebe22e59540e0e0325c6e2", "lat": 38.86031, "bike_id": "ec94fec9c4ebe22e59540e0e0325c6e2"}, {"lon": -77.04420166666667, "rental_uris": {"android": "https://dc.lft.to/lastmile_qr_scan", "ios": "https://dc.lft.to/lastmile_qr_scan"}, "fusion_lon": 0.0, "is_reserved": 0, "is_disabled": 0, "fusion_lat": 0.0, "type": "electric_scooter", "name": "f102458e13dc419892beb8d869edea78", "lat": 38.92131283333333, "bike_id": "f102458e13dc419892beb8d869edea78"}, {"lon": -77.0298495, "rental_uris": {"android": "https://dc.lft.to/lastmile_qr_scan", "ios": "https://dc.lft.to/lastmile_qr_scan"}, "fusion_lon": 0.0, "is_reserved": 0, "is_disabled": 0, "fusion_lat": 0.0, "type": "electric_scooter", "name": "e74c312761a0ca5d927bc68f7f4f4330", "lat": 38.903752, "bike_id": "e74c312761a0ca5d927bc68f7f4f4330"}, {"lon": -77.0221845, "rental_uris": {"android": "https://dc.lft.to/lastmile_qr_scan", "ios": "https://dc.lft.to/lastmile_qr_scan"}, "fusion_lon": 0.0, "is_reserved": 0, "is_disabled": 0, "fusion_lat": 0.0, "type": "electric_scooter", "name": "a4930298f7e5167ab12b84499fd044da", "lat": 38.92476516666667, "bike_id": "a4930298f7e5167ab12b84499fd044da"}, {"lon": -77.03125183333333, "rental_uris": {"android": "https://dc.lft.to/lastmile_qr_scan", "ios": "https://dc.lft.to/lastmile_qr_scan"}, "fusion_lon": 0.0, "is_reserved": 0, "is_disabled": 0, "fusion_lat": 0.0, "type": "electric_scooter", "name": "32935ff78712589442893e03e6cf347d", "lat": 38.91258783333333, "bike_id": "32935ff78712589442893e03e6cf347d"}, {"lon": -76.992685, "rental_uris": {"android": "https://dc.lft.to/lastmile_qr_scan", "ios": "https://dc.lft.to/lastmile_qr_scan"}, "fusion_lon": 0.0, "is_reserved": 0, "is_disabled": 0, "fusion_lat": 0.0, "type": "electric_scooter", "name": "5715b17f31f4c46427fc99d84704d266", "lat": 38.88177233333333, "bike_id": "5715b17f31f4c46427fc99d84704d266"}, {"lon": -77.03760566666666, "rental_uris": {"android": "https://dc.lft.to/lastmile_qr_scan", "ios": "https://dc.lft.to/lastmile_qr_scan"}, "fusion_lon": 0.0, "is_reserved": 0, "is_disabled": 0, "fusion_lat": 0.0, "type": "electric_scooter", "name": "446f1edc4e5dd3e69ccb4fa1566e0ec1", "lat": 38.929173, "bike_id": "446f1edc4e5dd3e69ccb4fa1566e0ec1"}, {"lon": -77.041985, "rental_uris": {"android": "https://dc.lft.to/lastmile_qr_scan", "ios": "https://dc.lft.to/lastmile_qr_scan"}, "fusion_lon": 0.0, "is_reserved": 0, "is_disabled": 0, "fusion_lat": 0.0, "type": "electric_scooter", "name": "bebda4098d27cbe9b2e51c12176160fe", "lat": 38.892225, "bike_id": "bebda4098d27cbe9b2e51c12176160fe"}, {"lon": -77.03324183333334, "rental_uris": {"android": "https://dc.lft.to/lastmile_qr_scan", "ios": "https://dc.lft.to/lastmile_qr_scan"}, "fusion_lon": 0.0, "is_reserved": 0, "is_disabled": 0, "fusion_lat": 0.0, "type": "electric_scooter", "name": "1b67604405f7eb33991fda8a7ff21d50", "lat": 38.927568666666666, "bike_id": "1b67604405f7eb33991fda8a7ff21d50"}, {"lon": -77.04539766666667, "rental_uris": {"android": "https://dc.lft.to/lastmile_qr_scan", "ios": "https://dc.lft.to/lastmile_qr_scan"}, "fusion_lon": 0.0, "is_reserved": 0, "is_disabled": 0, "fusion_lat": 0.0, "type": "electric_scooter", "name": "4a77459e76be62f37079de60ecf50996", "lat": 38.91106516666667, "bike_id": "4a77459e76be62f37079de60ecf50996"}, {"lon": -76.93746133333333, "rental_uris": {"android": "https://dc.lft.to/lastmile_qr_scan", "ios": "https://dc.lft.to/lastmile_qr_scan"}, "fusion_lon": 0.0, "is_reserved": 0, "is_disabled": 0, "fusion_lat": 0.0, "type": "electric_scooter", "name": "3e14107a7c45bc91f1fc0a4ecbe0412c", "lat": 38.890051666666665, "bike_id": "3e14107a7c45bc91f1fc0a4ecbe0412c"}, {"lon": -77.00672283333333, "rental_uris": {"android": "https://dc.lft.to/lastmile_qr_scan", "ios": "https://dc.lft.to/lastmile_qr_scan"}, "fusion_lon": 0.0, "is_reserved": 0, "is_disabled": 0, "fusion_lat": 0.0, "type": "electric_scooter", "name": "5032fab95522543b1fbe57f38a98a132", "lat": 38.90013233333333, "bike_id": "5032fab95522543b1fbe57f38a98a132"}, {"lon": -77.06759566666666, "rental_uris": {"android": "https://dc.lft.to/lastmile_qr_scan", "ios": "https://dc.lft.to/lastmile_qr_scan"}, "fusion_lon": 0.0, "is_reserved": 0, "is_disabled": 0, "fusion_lat": 0.0, "type": "electric_bike", "name": "f5e89322f090d7fb21a1cebd528a7176", "lat": 38.84198583333333, "bike_id": "f5e89322f090d7fb21a1cebd528a7176"}, {"lon": -77.0038695, "rental_uris": {"android": "https://dc.lft.to/lastmile_qr_scan", "ios": "https://dc.lft.to/lastmile_qr_scan"}, "fusion_lon": 0.0, "is_reserved": 0, "is_disabled": 0, "fusion_lat": 0.0, "type": "electric_scooter", "name": "cf9f4f14163ef1b938b7779a9d912d47", "lat": 38.87640733333333, "bike_id": "cf9f4f14163ef1b938b7779a9d912d47"}, {"lon": -77.20111933333334, "rental_uris": {"android": "https://dc.lft.to/lastmile_qr_scan", "ios": "https://dc.lft.to/lastmile_qr_scan"}, "fusion_lon": 0.0, "is_reserved": 0, "is_disabled": 0, "fusion_lat": 0.0, "type": "electric_bike", "name": "6a7de273765db74c27ef78f8a766237b", "lat": 38.863982666666665, "bike_id": "6a7de273765db74c27ef78f8a766237b"}, {"lon": -77.0433635, "rental_uris": {"android": "https://dc.lft.to/lastmile_qr_scan", "ios": "https://dc.lft.to/lastmile_qr_scan"}, "fusion_lon": 0.0, "is_reserved": 0, "is_disabled": 0, "fusion_lat": 0.0, "type": "electric_scooter", "name": "711099b23143342c1c2948331eecbfeb", "lat": 38.89223583333333, "bike_id": "711099b23143342c1c2948331eecbfeb"}, {"lon": -77.03523083333333, "rental_uris": {"android": "https://dc.lft.to/lastmile_qr_scan", "ios": "https://dc.lft.to/lastmile_qr_scan"}, "fusion_lon": 0.0, "is_reserved": 0, "is_disabled": 0, "fusion_lat": 0.0, "type": "electric_scooter", "name": "32c6f017bd9160603bca048a5aa7b692", "lat": 38.9076075, "bike_id": "32c6f017bd9160603bca048a5aa7b692"}, {"lon": -77.02528216666667, "rental_uris": {"android": "https://dc.lft.to/lastmile_qr_scan", "ios": "https://dc.lft.to/lastmile_qr_scan"}, "fusion_lon": 0.0, "is_reserved": 0, "is_disabled": 0, "fusion_lat": 0.0, "type": "electric_scooter", "name": "cfc2a5c051b0c54c7f0b4d8e3cb84735", "lat": 38.92081833333334, "bike_id": "cfc2a5c051b0c54c7f0b4d8e3cb84735"}, {"lon": -76.95188616666667, "rental_uris": {"android": "https://dc.lft.to/lastmile_qr_scan", "ios": "https://dc.lft.to/lastmile_qr_scan"}, "fusion_lon": 0.0, "is_reserved": 0, "is_disabled": 0, "fusion_lat": 0.0, "type": "electric_scooter", "name": "2ca39fe925d32800bbe95405f3cb1900", "lat": 38.90512983333333, "bike_id": "2ca39fe925d32800bbe95405f3cb1900"}, {"lon": -77.04273516666667, "rental_uris": {"android": "https://dc.lft.to/lastmile_qr_scan", "ios": "https://dc.lft.to/lastmile_qr_scan"}, "fusion_lon": 0.0, "is_reserved": 0, "is_disabled": 0, "fusion_lat": 0.0, "type": "electric_scooter", "name": "34a5296ea2a13aa9118427d35cccb717", "lat": 38.90421333333333, "bike_id": "34a5296ea2a13aa9118427d35cccb717"}, {"lon": -77.03336883333333, "rental_uris": {"android": "https://dc.lft.to/lastmile_qr_scan", "ios": "https://dc.lft.to/lastmile_qr_scan"}, "fusion_lon": 0.0, "is_reserved": 0, "is_disabled": 0, "fusion_lat": 0.0, "type": "electric_scooter", "name": "a8e3739b43218508f1030ff4e134fd74", "lat": 38.97214983333333, "bike_id": "a8e3739b43218508f1030ff4e134fd74"}, {"lon": -77.0382535, "rental_uris": {"android": "https://dc.lft.to/lastmile_qr_scan", "ios": "https://dc.lft.to/lastmile_qr_scan"}, "fusion_lon": 0.0, "is_reserved": 0, "is_disabled": 0, "fusion_lat": 0.0, "type": "electric_scooter", "name": "59d3f19bb48d87432bc5dfb7ab643d1b", "lat": 38.918903, "bike_id": "59d3f19bb48d87432bc5dfb7ab643d1b"}, {"lon": -77.00294666666667, "rental_uris": {"android": "https://dc.lft.to/lastmile_qr_scan", "ios": "https://dc.lft.to/lastmile_qr_scan"}, "fusion_lon": 0.0, "is_reserved": 0, "is_disabled": 0, "fusion_lat": 0.0, "type": "electric_scooter", "name": "b086253d67aa10ad8e409367b3114eaa", "lat": 38.89196483333333, "bike_id": "b086253d67aa10ad8e409367b3114eaa"}, {"lon": -77.03123816666667, "rental_uris": {"android": "https://dc.lft.to/lastmile_qr_scan", "ios": "https://dc.lft.to/lastmile_qr_scan"}, "fusion_lon": 0.0, "is_reserved": 0, "is_disabled": 0, "fusion_lat": 0.0, "type": "electric_scooter", "name": "1b9a69f983b2fec60ce17b05e38c0874", "lat": 38.920164, "bike_id": "1b9a69f983b2fec60ce17b05e38c0874"}, {"lon": -76.98070483333333, "rental_uris": {"android": "https://dc.lft.to/lastmile_qr_scan", "ios": "https://dc.lft.to/lastmile_qr_scan"}, "fusion_lon": 0.0, "is_reserved": 0, "is_disabled": 0, "fusion_lat": 0.0, "type": "electric_scooter", "name": "91f42ad5ac12a39d89b0ff104f56570c", "lat": 38.88017633333333, "bike_id": "91f42ad5ac12a39d89b0ff104f56570c"}, {"lon": -77.02073483333334, "rental_uris": {"android": "https://dc.lft.to/lastmile_qr_scan", "ios": "https://dc.lft.to/lastmile_qr_scan"}, "fusion_lon": 0.0, "is_reserved": 0, "is_disabled": 0, "fusion_lat": 0.0, "type": "electric_scooter", "name": "2aa40261995c432cab562d1e8e80ba7f", "lat": 38.921142333333336, "bike_id": "2aa40261995c432cab562d1e8e80ba7f"}, {"lon": -77.0371155, "rental_uris": {"android": "https://dc.lft.to/lastmile_qr_scan", "ios": "https://dc.lft.to/lastmile_qr_scan"}, "fusion_lon": 0.0, "is_reserved": 0, "is_disabled": 0, "fusion_lat": 0.0, "type": "electric_scooter", "name": "38cdefe11805f877b9959b2193358d0f", "lat": 38.9263805, "bike_id": "38cdefe11805f877b9959b2193358d0f"}, {"lon": -77.04503883333334, "rental_uris": {"android": "https://dc.lft.to/lastmile_qr_scan", "ios": "https://dc.lft.to/lastmile_qr_scan"}, "fusion_lon": 0.0, "is_reserved": 0, "is_disabled": 0, "fusion_lat": 0.0, "type": "electric_scooter", "name": "dae53978f501e6004ecde9b27067a171", "lat": 38.89901733333333, "bike_id": "dae53978f501e6004ecde9b27067a171"}, {"lon": -77.04135216666667, "rental_uris": {"android": "https://dc.lft.to/lastmile_qr_scan", "ios": "https://dc.lft.to/lastmile_qr_scan"}, "fusion_lon": 0.0, "is_reserved": 0, "is_disabled": 0, "fusion_lat": 0.0, "type": "electric_scooter", "name": "a83153408740544cca40da384c025147", "lat": 38.934640333333334, "bike_id": "a83153408740544cca40da384c025147"}, {"lon": -77.0515495, "rental_uris": {"android": "https://dc.lft.to/lastmile_qr_scan", "ios": "https://dc.lft.to/lastmile_qr_scan"}, "fusion_lon": 0.0, "is_reserved": 0, "is_disabled": 0, "fusion_lat": 0.0, "type": "electric_bike", "name": "eda88bc4c560dbd77766bb393e7864f0", "lat": 39.037323, "bike_id": "eda88bc4c560dbd77766bb393e7864f0"}, {"lon": -77.06948283333334, "rental_uris": {"android": "https://dc.lft.to/lastmile_qr_scan", "ios": "https://dc.lft.to/lastmile_qr_scan"}, "fusion_lon": 0.0, "is_reserved": 0, "is_disabled": 0, "fusion_lat": 0.0, "type": "electric_scooter", "name": "1a5363b63a099af7691778d6a0167e8e", "lat": 38.9173235, "bike_id": "1a5363b63a099af7691778d6a0167e8e"}, {"lon": -77.0437955, "rental_uris": {"android": "https://dc.lft.to/lastmile_qr_scan", "ios": "https://dc.lft.to/lastmile_qr_scan"}, "fusion_lon": 0.0, "is_reserved": 0, "is_disabled": 0, "fusion_lat": 0.0, "type": "electric_scooter", "name": "517e80a2d651d7edb31ce438c99562f6", "lat": 38.907235666666665, "bike_id": "517e80a2d651d7edb31ce438c99562f6"}, {"lon": -76.97672983333334, "rental_uris": {"android": "https://dc.lft.to/lastmile_qr_scan", "ios": "https://dc.lft.to/lastmile_qr_scan"}, "fusion_lon": 0.0, "is_reserved": 0, "is_disabled": 0, "fusion_lat": 0.0, "type": "electric_bike", "name": "1898d7f27955210a3d58144338fde6c7", "lat": 38.901707333333334, "bike_id": "1898d7f27955210a3d58144338fde6c7"}, {"lon": -77.02953283333333, "rental_uris": {"android": "https://dc.lft.to/lastmile_qr_scan", "ios": "https://dc.lft.to/lastmile_qr_scan"}, "fusion_lon": 0.0, "is_reserved": 0, "is_disabled": 0, "fusion_lat": 0.0, "type": "electric_scooter", "name": "88c2b7d9ef41a6ec349230207f9c9f6d", "lat": 38.8840145, "bike_id": "88c2b7d9ef41a6ec349230207f9c9f6d"}, {"lon": -77.04071733333333, "rental_uris": {"android": "https://dc.lft.to/lastmile_qr_scan", "ios": "https://dc.lft.to/lastmile_qr_scan"}, "fusion_lon": 0.0, "is_reserved": 0, "is_disabled": 0, "fusion_lat": 0.0, "type": "electric_scooter", "name": "f0f55d0a181d8de2020f96c2ba1abca2", "lat": 38.932840666666664, "bike_id": "f0f55d0a181d8de2020f96c2ba1abca2"}, {"lon": -76.98441283333334, "rental_uris": {"android": "https://dc.lft.to/lastmile_qr_scan", "ios": "https://dc.lft.to/lastmile_qr_scan"}, "fusion_lon": 0.0, "is_reserved": 0, "is_disabled": 0, "fusion_lat": 0.0, "type": "electric_scooter", "name": "273268ec45bf14dd2bc5db24e813d242", "lat": 38.91435033333333, "bike_id": "273268ec45bf14dd2bc5db24e813d242"}, {"lon": -77.0298325, "rental_uris": {"android": "https://dc.lft.to/lastmile_qr_scan", "ios": "https://dc.lft.to/lastmile_qr_scan"}, "fusion_lon": 0.0, "is_reserved": 0, "is_disabled": 0, "fusion_lat": 0.0, "type": "electric_scooter", "name": "d1b90f256dc06eb32c37a0bcf02ccc72", "lat": 38.94979933333333, "bike_id": "d1b90f256dc06eb32c37a0bcf02ccc72"}, {"lon": -76.973324, "rental_uris": {"android": "https://dc.lft.to/lastmile_qr_scan", "ios": "https://dc.lft.to/lastmile_qr_scan"}, "fusion_lon": 0.0, "is_reserved": 0, "is_disabled": 0, "fusion_lat": 0.0, "type": "electric_scooter", "name": "079bad4aab13ebe546124a13038dd7b0", "lat": 38.90411866666667, "bike_id": "079bad4aab13ebe546124a13038dd7b0"}, {"lon": -77.02926283333333, "rental_uris": {"android": "https://dc.lft.to/lastmile_qr_scan", "ios": "https://dc.lft.to/lastmile_qr_scan"}, "fusion_lon": 0.0, "is_reserved": 0, "is_disabled": 0, "fusion_lat": 0.0, "type": "electric_scooter", "name": "df9636ecbde2ad64de0b23912f413534", "lat": 38.94287166666667, "bike_id": "df9636ecbde2ad64de0b23912f413534"}, {"lon": -77.0317855, "rental_uris": {"android": "https://dc.lft.to/lastmile_qr_scan", "ios": "https://dc.lft.to/lastmile_qr_scan"}, "fusion_lon": 0.0, "is_reserved": 0, "is_disabled": 0, "fusion_lat": 0.0, "type": "electric_scooter", "name": "9a4ebf79bc70b2d7ad01521150596eae", "lat": 38.887397666666665, "bike_id": "9a4ebf79bc70b2d7ad01521150596eae"}, {"lon": -77.04642183333333, "rental_uris": {"android": "https://dc.lft.to/lastmile_qr_scan", "ios": "https://dc.lft.to/lastmile_qr_scan"}, "fusion_lon": 0.0, "is_reserved": 0, "is_disabled": 0, "fusion_lat": 0.0, "type": "electric_scooter", "name": "4673fbaab2704e5cd38218a9aad112fe", "lat": 38.903576, "bike_id": "4673fbaab2704e5cd38218a9aad112fe"}, {"lon": -77.04656183333333, "rental_uris": {"android": "https://dc.lft.to/lastmile_qr_scan", "ios": "https://dc.lft.to/lastmile_qr_scan"}, "fusion_lon": 0.0, "is_reserved": 0, "is_disabled": 0, "fusion_lat": 0.0, "type": "electric_scooter", "name": "3c6892b887cc651fd1134217192e3763", "lat": 38.910208, "bike_id": "3c6892b887cc651fd1134217192e3763"}, {"lon": -77.0182515, "rental_uris": {"android": "https://dc.lft.to/lastmile_qr_scan", "ios": "https://dc.lft.to/lastmile_qr_scan"}, "fusion_lon": 0.0, "is_reserved": 0, "is_disabled": 0, "fusion_lat": 0.0, "type": "electric_scooter", "name": "0fd41ea717668695cf045aa5d3e722ca", "lat": 38.9225955, "bike_id": "0fd41ea717668695cf045aa5d3e722ca"}, {"lon": -77.0029685, "rental_uris": {"android": "https://dc.lft.to/lastmile_qr_scan", "ios": "https://dc.lft.to/lastmile_qr_scan"}, "fusion_lon": 0.0, "is_reserved": 0, "is_disabled": 0, "fusion_lat": 0.0, "type": "electric_scooter", "name": "e267737e1aa6a72ae26dd0f9091ebee8", "lat": 38.892297666666664, "bike_id": "e267737e1aa6a72ae26dd0f9091ebee8"}, {"lon": -77.0451875, "rental_uris": {"android": "https://dc.lft.to/lastmile_qr_scan", "ios": "https://dc.lft.to/lastmile_qr_scan"}, "fusion_lon": 0.0, "is_reserved": 0, "is_disabled": 0, "fusion_lat": 0.0, "type": "electric_scooter", "name": "cd80da2beef737414e97d86085537f47", "lat": 38.901235166666666, "bike_id": "cd80da2beef737414e97d86085537f47"}, {"lon": -77.051604, "rental_uris": {"android": "https://dc.lft.to/lastmile_qr_scan", "ios": "https://dc.lft.to/lastmile_qr_scan"}, "fusion_lon": 0.0, "is_reserved": 0, "is_disabled": 0, "fusion_lat": 0.0, "type": "electric_bike", "name": "409c3d030b728060b8e4d63058f4d372", "lat": 39.0371865, "bike_id": "409c3d030b728060b8e4d63058f4d372"}, {"lon": -77.03194033333334, "rental_uris": {"android": "https://dc.lft.to/lastmile_qr_scan", "ios": "https://dc.lft.to/lastmile_qr_scan"}, "fusion_lon": 0.0, "is_reserved": 0, "is_disabled": 0, "fusion_lat": 0.0, "type": "electric_scooter", "name": "2517ce96b717c2b57d3d958d024f37da", "lat": 38.91062433333333, "bike_id": "2517ce96b717c2b57d3d958d024f37da"}, {"lon": -77.02111833333333, "rental_uris": {"android": "https://dc.lft.to/lastmile_qr_scan", "ios": "https://dc.lft.to/lastmile_qr_scan"}, "fusion_lon": 0.0, "is_reserved": 0, "is_disabled": 0, "fusion_lat": 0.0, "type": "electric_scooter", "name": "97a7e2d7518689e216b7d12caa93fc7b", "lat": 38.904849666666664, "bike_id": "97a7e2d7518689e216b7d12caa93fc7b"}, {"lon": -77.00601483333334, "rental_uris": {"android": "https://dc.lft.to/lastmile_qr_scan", "ios": "https://dc.lft.to/lastmile_qr_scan"}, "fusion_lon": 0.0, "is_reserved": 0, "is_disabled": 0, "fusion_lat": 0.0, "type": "electric_scooter", "name": "dda4550d70a748764a4f9c081e5a1dcc", "lat": 38.90628916666667, "bike_id": "dda4550d70a748764a4f9c081e5a1dcc"}, {"lon": -77.041812, "rental_uris": {"android": "https://dc.lft.to/lastmile_qr_scan", "ios": "https://dc.lft.to/lastmile_qr_scan"}, "fusion_lon": 0.0, "is_reserved": 0, "is_disabled": 0, "fusion_lat": 0.0, "type": "electric_scooter", "name": "888a2a309c1a761b0ee2eaaec411e9c1", "lat": 38.91303766666667, "bike_id": "888a2a309c1a761b0ee2eaaec411e9c1"}, {"lon": -77.03181216666667, "rental_uris": {"android": "https://dc.lft.to/lastmile_qr_scan", "ios": "https://dc.lft.to/lastmile_qr_scan"}, "fusion_lon": 0.0, "is_reserved": 0, "is_disabled": 0, "fusion_lat": 0.0, "type": "electric_scooter", "name": "b26d07ad6f3e22a756e50bfa2c201926", "lat": 38.9112735, "bike_id": "b26d07ad6f3e22a756e50bfa2c201926"}, {"lon": -77.041491, "rental_uris": {"android": "https://dc.lft.to/lastmile_qr_scan", "ios": "https://dc.lft.to/lastmile_qr_scan"}, "fusion_lon": 0.0, "is_reserved": 0, "is_disabled": 0, "fusion_lat": 0.0, "type": "electric_scooter", "name": "2599fba882d9d3900fab19103e85e3cb", "lat": 38.909073166666666, "bike_id": "2599fba882d9d3900fab19103e85e3cb"}, {"lon": -77.03432333333333, "rental_uris": {"android": "https://dc.lft.to/lastmile_qr_scan", "ios": "https://dc.lft.to/lastmile_qr_scan"}, "fusion_lon": 0.0, "is_reserved": 0, "is_disabled": 0, "fusion_lat": 0.0, "type": "electric_scooter", "name": "6e51141ae88fb75fa8eb3794cc5e7a8b", "lat": 38.917097, "bike_id": "6e51141ae88fb75fa8eb3794cc5e7a8b"}, {"lon": -77.03961333333334, "rental_uris": {"android": "https://dc.lft.to/lastmile_qr_scan", "ios": "https://dc.lft.to/lastmile_qr_scan"}, "fusion_lon": 0.0, "is_reserved": 0, "is_disabled": 0, "fusion_lat": 0.0, "type": "electric_scooter", "name": "1f728120adaae2f3e6ac4e87fd42b8ee", "lat": 38.89245866666667, "bike_id": "1f728120adaae2f3e6ac4e87fd42b8ee"}, {"lon": -77.02494383333334, "rental_uris": {"android": "https://dc.lft.to/lastmile_qr_scan", "ios": "https://dc.lft.to/lastmile_qr_scan"}, "fusion_lon": 0.0, "is_reserved": 0, "is_disabled": 0, "fusion_lat": 0.0, "type": "electric_scooter", "name": "17dfc27f17adbce8d83e8b3401ae22ff", "lat": 38.919243, "bike_id": "17dfc27f17adbce8d83e8b3401ae22ff"}, {"lon": -77.04042216666667, "rental_uris": {"android": "https://dc.lft.to/lastmile_qr_scan", "ios": "https://dc.lft.to/lastmile_qr_scan"}, "fusion_lon": 0.0, "is_reserved": 0, "is_disabled": 0, "fusion_lat": 0.0, "type": "electric_scooter", "name": "d4da2273481b773d6021001db7720603", "lat": 38.9246235, "bike_id": "d4da2273481b773d6021001db7720603"}, {"lon": -77.03450383333333, "rental_uris": {"android": "https://dc.lft.to/lastmile_qr_scan", "ios": "https://dc.lft.to/lastmile_qr_scan"}, "fusion_lon": 0.0, "is_reserved": 0, "is_disabled": 0, "fusion_lat": 0.0, "type": "electric_scooter", "name": "8bee68e7f118f54fdcbb82de6a85ae85", "lat": 38.903814, "bike_id": "8bee68e7f118f54fdcbb82de6a85ae85"}, {"lon": -76.99698383333333, "rental_uris": {"android": "https://dc.lft.to/lastmile_qr_scan", "ios": "https://dc.lft.to/lastmile_qr_scan"}, "fusion_lon": 0.0, "is_reserved": 0, "is_disabled": 0, "fusion_lat": 0.0, "type": "electric_scooter", "name": "4bb0c47e2a2896db00f7d625e6b59b47", "lat": 38.908296166666666, "bike_id": "4bb0c47e2a2896db00f7d625e6b59b47"}, {"lon": -77.01978083333333, "rental_uris": {"android": "https://dc.lft.to/lastmile_qr_scan", "ios": "https://dc.lft.to/lastmile_qr_scan"}, "fusion_lon": 0.0, "is_reserved": 0, "is_disabled": 0, "fusion_lat": 0.0, "type": "electric_scooter", "name": "94704d8ba43b61623be8cde4477bd1b8", "lat": 38.898819333333336, "bike_id": "94704d8ba43b61623be8cde4477bd1b8"}, {"lon": -77.041618, "rental_uris": {"android": "https://dc.lft.to/lastmile_qr_scan", "ios": "https://dc.lft.to/lastmile_qr_scan"}, "fusion_lon": 0.0, "is_reserved": 0, "is_disabled": 0, "fusion_lat": 0.0, "type": "electric_scooter", "name": "9edad9cdb48148105bc0aa4e90870382", "lat": 38.892322166666666, "bike_id": "9edad9cdb48148105bc0aa4e90870382"}, {"lon": -77.02544683333333, "rental_uris": {"android": "https://dc.lft.to/lastmile_qr_scan", "ios": "https://dc.lft.to/lastmile_qr_scan"}, "fusion_lon": 0.0, "is_reserved": 0, "is_disabled": 0, "fusion_lat": 0.0, "type": "electric_scooter", "name": "b3f0dcdb8060bde0b8e4fbc3f6e7607d", "lat": 38.90721816666667, "bike_id": "b3f0dcdb8060bde0b8e4fbc3f6e7607d"}, {"lon": -77.0712225, "rental_uris": {"android": "https://dc.lft.to/lastmile_qr_scan", "ios": "https://dc.lft.to/lastmile_qr_scan"}, "fusion_lon": 0.0, "is_reserved": 0, "is_disabled": 0, "fusion_lat": 0.0, "type": "electric_scooter", "name": "edf3bcf4d33b42024c0f13368a4fd79c", "lat": 38.9197075, "bike_id": "edf3bcf4d33b42024c0f13368a4fd79c"}, {"lon": -76.97777916666666, "rental_uris": {"android": "https://dc.lft.to/lastmile_qr_scan", "ios": "https://dc.lft.to/lastmile_qr_scan"}, "fusion_lon": 0.0, "is_reserved": 0, "is_disabled": 0, "fusion_lat": 0.0, "type": "electric_bike", "name": "0427a2df78128d9ec8eebb9afd75f546", "lat": 38.857220833333336, "bike_id": "0427a2df78128d9ec8eebb9afd75f546"}, {"lon": -77.04229183333334, "rental_uris": {"android": "https://dc.lft.to/lastmile_qr_scan", "ios": "https://dc.lft.to/lastmile_qr_scan"}, "fusion_lon": 0.0, "is_reserved": 0, "is_disabled": 0, "fusion_lat": 0.0, "type": "electric_scooter", "name": "fd8f4c0db0ff2b6f0ca5663820b7f975", "lat": 38.91187166666667, "bike_id": "fd8f4c0db0ff2b6f0ca5663820b7f975"}, {"lon": -77.03929383333333, "rental_uris": {"android": "https://dc.lft.to/lastmile_qr_scan", "ios": "https://dc.lft.to/lastmile_qr_scan"}, "fusion_lon": 0.0, "is_reserved": 0, "is_disabled": 0, "fusion_lat": 0.0, "type": "electric_scooter", "name": "56b6af3784c48f1f1ddbf780d0ec000c", "lat": 38.91808283333334, "bike_id": "56b6af3784c48f1f1ddbf780d0ec000c"}, {"lon": -77.02209166666667, "rental_uris": {"android": "https://dc.lft.to/lastmile_qr_scan", "ios": "https://dc.lft.to/lastmile_qr_scan"}, "fusion_lon": 0.0, "is_reserved": 0, "is_disabled": 0, "fusion_lat": 0.0, "type": "electric_scooter", "name": "efe70df15b366dec8edfd06b6d70e1ec", "lat": 38.9036, "bike_id": "efe70df15b366dec8edfd06b6d70e1ec"}, {"lon": -77.03876133333333, "rental_uris": {"android": "https://dc.lft.to/lastmile_qr_scan", "ios": "https://dc.lft.to/lastmile_qr_scan"}, "fusion_lon": 0.0, "is_reserved": 0, "is_disabled": 0, "fusion_lat": 0.0, "type": "electric_scooter", "name": "76464692f70720599efe12a13110e383", "lat": 38.903619, "bike_id": "76464692f70720599efe12a13110e383"}, {"lon": -77.02606616666667, "rental_uris": {"android": "https://dc.lft.to/lastmile_qr_scan", "ios": "https://dc.lft.to/lastmile_qr_scan"}, "fusion_lon": 0.0, "is_reserved": 0, "is_disabled": 0, "fusion_lat": 0.0, "type": "electric_scooter", "name": "4a8103e45f950fde53bfde59bfe88b29", "lat": 38.9172505, "bike_id": "4a8103e45f950fde53bfde59bfe88b29"}, {"lon": -76.99674433333334, "rental_uris": {"android": "https://dc.lft.to/lastmile_qr_scan", "ios": "https://dc.lft.to/lastmile_qr_scan"}, "fusion_lon": 0.0, "is_reserved": 0, "is_disabled": 0, "fusion_lat": 0.0, "type": "electric_scooter", "name": "636a6b25fee75283d82fb7ca6296b3a1", "lat": 38.856540333333335, "bike_id": "636a6b25fee75283d82fb7ca6296b3a1"}, {"lon": -77.05524983333333, "rental_uris": {"android": "https://dc.lft.to/lastmile_qr_scan", "ios": "https://dc.lft.to/lastmile_qr_scan"}, "fusion_lon": 0.0, "is_reserved": 0, "is_disabled": 0, "fusion_lat": 0.0, "type": "electric_scooter", "name": "0c6e7ea7d86dd07d16635dc452b5632a", "lat": 38.897300666666666, "bike_id": "0c6e7ea7d86dd07d16635dc452b5632a"}, {"lon": -77.09059716666667, "rental_uris": {"android": "https://dc.lft.to/lastmile_qr_scan", "ios": "https://dc.lft.to/lastmile_qr_scan"}, "fusion_lon": 0.0, "is_reserved": 0, "is_disabled": 0, "fusion_lat": 0.0, "type": "electric_scooter", "name": "ab375f94b83d35f547736f49bec8b871", "lat": 38.934479333333336, "bike_id": "ab375f94b83d35f547736f49bec8b871"}, {"lon": -77.04153, "rental_uris": {"android": "https://dc.lft.to/lastmile_qr_scan", "ios": "https://dc.lft.to/lastmile_qr_scan"}, "fusion_lon": 0.0, "is_reserved": 0, "is_disabled": 0, "fusion_lat": 0.0, "type": "electric_scooter", "name": "b920fb5b91daadb5a3b6c1cb01e986df", "lat": 38.9171635, "bike_id": "b920fb5b91daadb5a3b6c1cb01e986df"}, {"lon": -77.04149233333334, "rental_uris": {"android": "https://dc.lft.to/lastmile_qr_scan", "ios": "https://dc.lft.to/lastmile_qr_scan"}, "fusion_lon": 0.0, "is_reserved": 0, "is_disabled": 0, "fusion_lat": 0.0, "type": "electric_scooter", "name": "866f70e5065322985ffd1b93939a8e91", "lat": 38.89950016666667, "bike_id": "866f70e5065322985ffd1b93939a8e91"}, {"lon": -77.00345083333333, "rental_uris": {"android": "https://dc.lft.to/lastmile_qr_scan", "ios": "https://dc.lft.to/lastmile_qr_scan"}, "fusion_lon": 0.0, "is_reserved": 0, "is_disabled": 0, "fusion_lat": 0.0, "type": "electric_scooter", "name": "a5a0824544c1fc55a0d0b3751cf4fb05", "lat": 38.89537466666667, "bike_id": "a5a0824544c1fc55a0d0b3751cf4fb05"}, {"lon": -77.08306333333333, "rental_uris": {"android": "https://dc.lft.to/lastmile_qr_scan", "ios": "https://dc.lft.to/lastmile_qr_scan"}, "fusion_lon": 0.0, "is_reserved": 0, "is_disabled": 0, "fusion_lat": 0.0, "type": "electric_scooter", "name": "415ed852f56df060569cd1f7fd8351bc", "lat": 38.95393333333333, "bike_id": "415ed852f56df060569cd1f7fd8351bc"}, {"lon": -77.003205, "rental_uris": {"android": "https://dc.lft.to/lastmile_qr_scan", "ios": "https://dc.lft.to/lastmile_qr_scan"}, "fusion_lon": 0.0, "is_reserved": 0, "is_disabled": 0, "fusion_lat": 0.0, "type": "electric_scooter", "name": "bbfd2af843f664c34f9dd152c9a7e2fa", "lat": 38.9083075, "bike_id": "bbfd2af843f664c34f9dd152c9a7e2fa"}, {"lon": -77.04822, "rental_uris": {"android": "https://dc.lft.to/lastmile_qr_scan", "ios": "https://dc.lft.to/lastmile_qr_scan"}, "fusion_lon": 0.0, "is_reserved": 0, "is_disabled": 0, "fusion_lat": 0.0, "type": "electric_scooter", "name": "1b4f29d8201757a692b5467a96278fe8", "lat": 38.9051375, "bike_id": "1b4f29d8201757a692b5467a96278fe8"}, {"lon": -77.032762, "rental_uris": {"android": "https://dc.lft.to/lastmile_qr_scan", "ios": "https://dc.lft.to/lastmile_qr_scan"}, "fusion_lon": 0.0, "is_reserved": 0, "is_disabled": 0, "fusion_lat": 0.0, "type": "electric_scooter", "name": "74a020c859201ae37810218bcb3f822a", "lat": 38.932556, "bike_id": "74a020c859201ae37810218bcb3f822a"}, {"lon": -77.0468835, "rental_uris": {"android": "https://dc.lft.to/lastmile_qr_scan", "ios": "https://dc.lft.to/lastmile_qr_scan"}, "fusion_lon": 0.0, "is_reserved": 0, "is_disabled": 0, "fusion_lat": 0.0, "type": "electric_scooter", "name": "941c0383039bd49ae9ad2f39c0700703", "lat": 38.92098633333333, "bike_id": "941c0383039bd49ae9ad2f39c0700703"}, {"lon": -77.03663066666667, "rental_uris": {"android": "https://dc.lft.to/lastmile_qr_scan", "ios": "https://dc.lft.to/lastmile_qr_scan"}, "fusion_lon": 0.0, "is_reserved": 0, "is_disabled": 0, "fusion_lat": 0.0, "type": "electric_scooter", "name": "35d1212b86c3c219ac362cc7eacd3c76", "lat": 38.91668766666667, "bike_id": "35d1212b86c3c219ac362cc7eacd3c76"}, {"lon": -77.23411266666666, "rental_uris": {"android": "https://dc.lft.to/lastmile_qr_scan", "ios": "https://dc.lft.to/lastmile_qr_scan"}, "fusion_lon": 0.0, "is_reserved": 0, "is_disabled": 0, "fusion_lat": 0.0, "type": "electric_bike", "name": "5a1e5e27961eafb795d970f904397a3c", "lat": 38.875815833333334, "bike_id": "5a1e5e27961eafb795d970f904397a3c"}, {"lon": -77.013723, "rental_uris": {"android": "https://dc.lft.to/lastmile_qr_scan", "ios": "https://dc.lft.to/lastmile_qr_scan"}, "fusion_lon": 0.0, "is_reserved": 0, "is_disabled": 0, "fusion_lat": 0.0, "type": "electric_scooter", "name": "89296f6dcee46a239eec3a8938a0b06f", "lat": 38.9286655, "bike_id": "89296f6dcee46a239eec3a8938a0b06f"}, {"lon": -77.00363933333334, "rental_uris": {"android": "https://dc.lft.to/lastmile_qr_scan", "ios": "https://dc.lft.to/lastmile_qr_scan"}, "fusion_lon": 0.0, "is_reserved": 0, "is_disabled": 0, "fusion_lat": 0.0, "type": "electric_scooter", "name": "27e72476185e7dde7767b5e4c7d405a3", "lat": 38.89637183333333, "bike_id": "27e72476185e7dde7767b5e4c7d405a3"}, {"lon": -77.02994516666666, "rental_uris": {"android": "https://dc.lft.to/lastmile_qr_scan", "ios": "https://dc.lft.to/lastmile_qr_scan"}, "fusion_lon": 0.0, "is_reserved": 0, "is_disabled": 0, "fusion_lat": 0.0, "type": "electric_scooter", "name": "eab0643bb6d8893219bc6efec51a8bfe", "lat": 38.9001365, "bike_id": "eab0643bb6d8893219bc6efec51a8bfe"}, {"lon": -77.0428345, "rental_uris": {"android": "https://dc.lft.to/lastmile_qr_scan", "ios": "https://dc.lft.to/lastmile_qr_scan"}, "fusion_lon": 0.0, "is_reserved": 0, "is_disabled": 0, "fusion_lat": 0.0, "type": "electric_scooter", "name": "0c694cdb0d863187749516d2fdca5512", "lat": 38.934225833333336, "bike_id": "0c694cdb0d863187749516d2fdca5512"}, {"lon": -77.0393515, "rental_uris": {"android": "https://dc.lft.to/lastmile_qr_scan", "ios": "https://dc.lft.to/lastmile_qr_scan"}, "fusion_lon": 0.0, "is_reserved": 0, "is_disabled": 0, "fusion_lat": 0.0, "type": "electric_scooter", "name": "f0a0c7aa82ba0562944a321c7057c58e", "lat": 38.90163, "bike_id": "f0a0c7aa82ba0562944a321c7057c58e"}, {"lon": -77.00068916666666, "rental_uris": {"android": "https://dc.lft.to/lastmile_qr_scan", "ios": "https://dc.lft.to/lastmile_qr_scan"}, "fusion_lon": 0.0, "is_reserved": 0, "is_disabled": 0, "fusion_lat": 0.0, "type": "electric_scooter", "name": "2d7ef9eb555c52cf7c6b726326f97dee", "lat": 38.92397316666667, "bike_id": "2d7ef9eb555c52cf7c6b726326f97dee"}, {"lon": -77.04152633333334, "rental_uris": {"android": "https://dc.lft.to/lastmile_qr_scan", "ios": "https://dc.lft.to/lastmile_qr_scan"}, "fusion_lon": 0.0, "is_reserved": 0, "is_disabled": 0, "fusion_lat": 0.0, "type": "electric_scooter", "name": "303126265592a4b8759a378b05bd457f", "lat": 38.906831, "bike_id": "303126265592a4b8759a378b05bd457f"}, {"lon": -77.03293566666666, "rental_uris": {"android": "https://dc.lft.to/lastmile_qr_scan", "ios": "https://dc.lft.to/lastmile_qr_scan"}, "fusion_lon": 0.0, "is_reserved": 0, "is_disabled": 0, "fusion_lat": 0.0, "type": "electric_scooter", "name": "438886f73e3fe7d2f55771ddee06f4e3", "lat": 38.93796066666667, "bike_id": "438886f73e3fe7d2f55771ddee06f4e3"}, {"lon": -77.00480666666667, "rental_uris": {"android": "https://dc.lft.to/lastmile_qr_scan", "ios": "https://dc.lft.to/lastmile_qr_scan"}, "fusion_lon": 0.0, "is_reserved": 0, "is_disabled": 0, "fusion_lat": 0.0, "type": "electric_scooter", "name": "eefedd4f799b018167e28c05718a7115", "lat": 38.88512566666667, "bike_id": "eefedd4f799b018167e28c05718a7115"}, {"lon": -76.94615266666666, "rental_uris": {"android": "https://dc.lft.to/lastmile_qr_scan", "ios": "https://dc.lft.to/lastmile_qr_scan"}, "fusion_lon": 0.0, "is_reserved": 0, "is_disabled": 0, "fusion_lat": 0.0, "type": "electric_scooter", "name": "052ea7225dd80e69fedd0161dc140dff", "lat": 38.898314, "bike_id": "052ea7225dd80e69fedd0161dc140dff"}, {"lon": -76.983732, "rental_uris": {"android": "https://dc.lft.to/lastmile_qr_scan", "ios": "https://dc.lft.to/lastmile_qr_scan"}, "fusion_lon": 0.0, "is_reserved": 0, "is_disabled": 0, "fusion_lat": 0.0, "type": "electric_scooter", "name": "6e7fff5bd5052d167739c9d7f59c8b5a", "lat": 38.889970166666664, "bike_id": "6e7fff5bd5052d167739c9d7f59c8b5a"}, {"lon": -77.02127466666667, "rental_uris": {"android": "https://dc.lft.to/lastmile_qr_scan", "ios": "https://dc.lft.to/lastmile_qr_scan"}, "fusion_lon": 0.0, "is_reserved": 0, "is_disabled": 0, "fusion_lat": 0.0, "type": "electric_scooter", "name": "441669a89a3d197b14a34b80cadf3e1d", "lat": 38.926982833333334, "bike_id": "441669a89a3d197b14a34b80cadf3e1d"}, {"lon": -76.9835715, "rental_uris": {"android": "https://dc.lft.to/lastmile_qr_scan", "ios": "https://dc.lft.to/lastmile_qr_scan"}, "fusion_lon": 0.0, "is_reserved": 0, "is_disabled": 0, "fusion_lat": 0.0, "type": "electric_scooter", "name": "2424161fd99602ab9b550e605ae1f7b4", "lat": 38.88724066666666, "bike_id": "2424161fd99602ab9b550e605ae1f7b4"}, {"lon": -77.00536966666667, "rental_uris": {"android": "https://dc.lft.to/lastmile_qr_scan", "ios": "https://dc.lft.to/lastmile_qr_scan"}, "fusion_lon": 0.0, "is_reserved": 0, "is_disabled": 0, "fusion_lat": 0.0, "type": "electric_scooter", "name": "3831f77527fa9bd123d74b985ae394bf", "lat": 38.8754415, "bike_id": "3831f77527fa9bd123d74b985ae394bf"}, {"lon": -77.006098, "rental_uris": {"android": "https://dc.lft.to/lastmile_qr_scan", "ios": "https://dc.lft.to/lastmile_qr_scan"}, "fusion_lon": 0.0, "is_reserved": 0, "is_disabled": 0, "fusion_lat": 0.0, "type": "electric_scooter", "name": "881462bf697bf31ba464b821265beb45", "lat": 38.87577316666667, "bike_id": "881462bf697bf31ba464b821265beb45"}, {"lon": -77.06886466666667, "rental_uris": {"android": "https://dc.lft.to/lastmile_qr_scan", "ios": "https://dc.lft.to/lastmile_qr_scan"}, "fusion_lon": 0.0, "is_reserved": 0, "is_disabled": 0, "fusion_lat": 0.0, "type": "electric_scooter", "name": "d2efc4b3dce6661f82d53bd53b48144a", "lat": 38.952825, "bike_id": "d2efc4b3dce6661f82d53bd53b48144a"}, {"lon": -77.025311, "rental_uris": {"android": "https://dc.lft.to/lastmile_qr_scan", "ios": "https://dc.lft.to/lastmile_qr_scan"}, "fusion_lon": 0.0, "is_reserved": 0, "is_disabled": 0, "fusion_lat": 0.0, "type": "electric_scooter", "name": "994431a6b388d9494e536560f28f6be5", "lat": 38.929799333333335, "bike_id": "994431a6b388d9494e536560f28f6be5"}, {"lon": -77.04354083333334, "rental_uris": {"android": "https://dc.lft.to/lastmile_qr_scan", "ios": "https://dc.lft.to/lastmile_qr_scan"}, "fusion_lon": 0.0, "is_reserved": 0, "is_disabled": 0, "fusion_lat": 0.0, "type": "electric_scooter", "name": "f081a001ca8f07a9ce9b0051f44bfb79", "lat": 38.90808216666667, "bike_id": "f081a001ca8f07a9ce9b0051f44bfb79"}, {"lon": -77.00389166666666, "rental_uris": {"android": "https://dc.lft.to/lastmile_qr_scan", "ios": "https://dc.lft.to/lastmile_qr_scan"}, "fusion_lon": 0.0, "is_reserved": 0, "is_disabled": 0, "fusion_lat": 0.0, "type": "electric_scooter", "name": "a37592849ffb299f451bdecfc5b6f147", "lat": 38.90029333333333, "bike_id": "a37592849ffb299f451bdecfc5b6f147"}, {"lon": -77.04773533333334, "rental_uris": {"android": "https://dc.lft.to/lastmile_qr_scan", "ios": "https://dc.lft.to/lastmile_qr_scan"}, "fusion_lon": 0.0, "is_reserved": 0, "is_disabled": 0, "fusion_lat": 0.0, "type": "electric_scooter", "name": "03a0d047b28a5c193547f0afaf61a713", "lat": 38.9164285, "bike_id": "03a0d047b28a5c193547f0afaf61a713"}, {"lon": -77.05012166666667, "rental_uris": {"android": "https://dc.lft.to/lastmile_qr_scan", "ios": "https://dc.lft.to/lastmile_qr_scan"}, "fusion_lon": 0.0, "is_reserved": 0, "is_disabled": 0, "fusion_lat": 0.0, "type": "electric_scooter", "name": "c8f27190db1552a4885b2691cd35f526", "lat": 38.89871466666666, "bike_id": "c8f27190db1552a4885b2691cd35f526"}, {"lon": -77.04892416666667, "rental_uris": {"android": "https://dc.lft.to/lastmile_qr_scan", "ios": "https://dc.lft.to/lastmile_qr_scan"}, "fusion_lon": 0.0, "is_reserved": 0, "is_disabled": 0, "fusion_lat": 0.0, "type": "electric_scooter", "name": "2b005fc6d3da5e5e6c269a572ed561dc", "lat": 38.89959066666667, "bike_id": "2b005fc6d3da5e5e6c269a572ed561dc"}, {"lon": -77.021546, "rental_uris": {"android": "https://dc.lft.to/lastmile_qr_scan", "ios": "https://dc.lft.to/lastmile_qr_scan"}, "fusion_lon": 0.0, "is_reserved": 0, "is_disabled": 0, "fusion_lat": 0.0, "type": "electric_scooter", "name": "68222249a4efc7397d68962effd388bb", "lat": 38.89403516666667, "bike_id": "68222249a4efc7397d68962effd388bb"}, {"lon": -77.01937133333334, "rental_uris": {"android": "https://dc.lft.to/lastmile_qr_scan", "ios": "https://dc.lft.to/lastmile_qr_scan"}, "fusion_lon": 0.0, "is_reserved": 0, "is_disabled": 0, "fusion_lat": 0.0, "type": "electric_scooter", "name": "7c0ee3696b5ec344eb99c3ccd00da6b8", "lat": 38.92250333333333, "bike_id": "7c0ee3696b5ec344eb99c3ccd00da6b8"}, {"lon": -77.04158016666666, "rental_uris": {"android": "https://dc.lft.to/lastmile_qr_scan", "ios": "https://dc.lft.to/lastmile_qr_scan"}, "fusion_lon": 0.0, "is_reserved": 0, "is_disabled": 0, "fusion_lat": 0.0, "type": "electric_scooter", "name": "430a0c34503450b59d61ca2d25a8686e", "lat": 38.90369833333333, "bike_id": "430a0c34503450b59d61ca2d25a8686e"}, {"lon": -77.02974233333333, "rental_uris": {"android": "https://dc.lft.to/lastmile_qr_scan", "ios": "https://dc.lft.to/lastmile_qr_scan"}, "fusion_lon": 0.0, "is_reserved": 0, "is_disabled": 0, "fusion_lat": 0.0, "type": "electric_scooter", "name": "90186fc73962707ae3427aa3c9e9b551", "lat": 38.918926, "bike_id": "90186fc73962707ae3427aa3c9e9b551"}, {"lon": -77.01364533333333, "rental_uris": {"android": "https://dc.lft.to/lastmile_qr_scan", "ios": "https://dc.lft.to/lastmile_qr_scan"}, "fusion_lon": 0.0, "is_reserved": 0, "is_disabled": 0, "fusion_lat": 0.0, "type": "electric_scooter", "name": "761d71f952ac1fe3930fea3549e969c4", "lat": 38.87268183333333, "bike_id": "761d71f952ac1fe3930fea3549e969c4"}, {"lon": -77.02161516666666, "rental_uris": {"android": "https://dc.lft.to/lastmile_qr_scan", "ios": "https://dc.lft.to/lastmile_qr_scan"}, "fusion_lon": 0.0, "is_reserved": 0, "is_disabled": 0, "fusion_lat": 0.0, "type": "electric_scooter", "name": "c99aa31e2cfbe24d8fe97a312e43f644", "lat": 38.9248585, "bike_id": "c99aa31e2cfbe24d8fe97a312e43f644"}, {"lon": -77.03861533333334, "rental_uris": {"android": "https://dc.lft.to/lastmile_qr_scan", "ios": "https://dc.lft.to/lastmile_qr_scan"}, "fusion_lon": 0.0, "is_reserved": 0, "is_disabled": 0, "fusion_lat": 0.0, "type": "electric_scooter", "name": "1208994a69908fc9c1c0a1adf98d51c4", "lat": 38.919671666666666, "bike_id": "1208994a69908fc9c1c0a1adf98d51c4"}, {"lon": -76.9784945, "rental_uris": {"android": "https://dc.lft.to/lastmile_qr_scan", "ios": "https://dc.lft.to/lastmile_qr_scan"}, "fusion_lon": 0.0, "is_reserved": 0, "is_disabled": 0, "fusion_lat": 0.0, "type": "electric_scooter", "name": "3ce382d4319b0a9a008d53ad4216a199", "lat": 38.869681, "bike_id": "3ce382d4319b0a9a008d53ad4216a199"}, {"lon": -77.03160533333333, "rental_uris": {"android": "https://dc.lft.to/lastmile_qr_scan", "ios": "https://dc.lft.to/lastmile_qr_scan"}, "fusion_lon": 0.0, "is_reserved": 0, "is_disabled": 0, "fusion_lat": 0.0, "type": "electric_scooter", "name": "409f12572e599d8a67750d697a10eb41", "lat": 38.916926, "bike_id": "409f12572e599d8a67750d697a10eb41"}, {"lon": -77.03493766666666, "rental_uris": {"android": "https://dc.lft.to/lastmile_qr_scan", "ios": "https://dc.lft.to/lastmile_qr_scan"}, "fusion_lon": 0.0, "is_reserved": 0, "is_disabled": 0, "fusion_lat": 0.0, "type": "electric_scooter", "name": "38e989fae8c0f7cceaec95cf4efe0af9", "lat": 38.92337583333333, "bike_id": "38e989fae8c0f7cceaec95cf4efe0af9"},