{"data": {"bikes": [{"fusion_lon": 0.0, "bike_id": "d6bb142086565e1288360a29af9af792", "is_disabled": 0, "is_reserved": 0, "lat": 38.9353375, "name": "d6bb142086565e1288360a29af9af792", "rental_uris": {"ios": "https://dc.lft.to/lastmile_qr_scan", "android": "https://dc.lft.to/lastmile_qr_scan"}, "type": "electric_scooter", "fusion_lat": 0.0, "lon": -77.02351616666667}, {"fusion_lon": 0.0, "bike_id": "1d7bf3b7399ff22bd2de5e236128125e", "is_disabled": 0, "is_reserved": 0, "lat": 38.89391766666667, "name": "1d7bf3b7399ff22bd2de5e236128125e", "rental_uris": {"ios": "https://dc.lft.to/lastmile_qr_scan", "android": "https://dc.lft.to/lastmile_qr_scan"}, "type": "electric_scooter", "fusion_lat": 0.0, "lon": -77.05473833333333}, {"fusion_lon": 0.0, "bike_id": "ace7fbb2b943fb481d9a4842d61c9dfe", "is_disabled": 0, "is_reserved": 0, "lat": 38.886025, "name": "ace7fbb2b943fb481d9a4842d61c9dfe", "rental_uris": {"ios": "https://dc.lft.to/lastmile_qr_scan", "android": "https://dc.lft.to/lastmile_qr_scan"}, "type": "electric_scooter", "fusion_lat": 0.0, "lon": -76.92507383333333}, {"fusion_lon": 0.0, "bike_id": "6ee00c81f82a9d582ad35814ab244618", "is_disabled": 0, "is_reserved": 0, "lat": 38.905636, "name": "6ee00c81f82a9d582ad35814ab244618", "rental_uris": {"ios": "https://dc.lft.to/lastmile_qr_scan", "android": "https://dc.lft.to/lastmile_qr_scan"}, "type": "electric_scooter", "fusion_lat": 0.0, "lon": -77.03447016666667}, {"fusion_lon": 0.0, "bike_id": "61f5a8c9c5459761e42cd556db8d6d56", "is_disabled": 0, "is_reserved": 0, "lat": 38.900527333333336, "name": "61f5a8c9c5459761e42cd556db8d6d56", "rental_uris": {"ios": "https://dc.lft.to/lastmile_qr_scan", "android": "https://dc.lft.to/lastmile_qr_scan"}, "type": "electric_scooter", "fusion_lat": 0.0, "lon": -76.9933865}, {"fusion_lon": 0.0, "bike_id": "e21d0ac7853d7e6542ae5b18691ff7ac", "is_disabled": 0, "is_reserved": 0, "lat": 38.9036795, "name": "e21d0ac7853d7e6542ae5b18691ff7ac", "rental_uris": {"ios": "https://dc.lft.to/lastmile_qr_scan", "android": "https://dc.lft.to/lastmile_qr_scan"}, "type": "electric_scooter", "fusion_lat": 0.0, "lon": -77.003457}, {"fusion_lon": 0.0, "bike_id": "02b548d2ba0b0e64ad6e3dcbde67f22c", "is_disabled": 0, "is_reserved": 0, "lat": 38.90552483333333, "name": "02b548d2ba0b0e64ad6e3dcbde67f22c", "rental_uris": {"ios": "https://dc.lft.to/lastmile_qr_scan", "android": "https://dc.lft.to/lastmile_qr_scan"}, "type": "electric_scooter", "fusion_lat": 0.0, "lon": -77.00477866666667}, {"fusion_lon": 0.0, "bike_id": "1485386cdac90c22d660bff7a3447401", "is_disabled": 0, "is_reserved": 0, "lat": 38.9236235, "name": "1485386cdac90c22d660bff7a3447401", "rental_uris": {"ios": "https://dc.lft.to/lastmile_qr_scan", "android": "https://dc.lft.to/lastmile_qr_scan"}, "type": "electric_scooter", "fusion_lat": 0.0, "lon": -77.02820566666666}, {"fusion_lon": 0.0, "bike_id": "644f475a7b1b03186cce02bf5a701def", "is_disabled": 0, "is_reserved": 0, "lat": 38.917240666666665, "name": "644f475a7b1b03186cce02bf5a701def", "rental_uris": {"ios": "https://dc.lft.to/lastmile_qr_scan", "android": "https://dc.lft.to/lastmile_qr_scan"}, "type": "electric_scooter", "fusion_lat": 0.0, "lon": -77.02950883333334}, {"fusion_lon": 0.0, "bike_id": "2a1e5088d9fb4f512a392df375c68d42", "is_disabled": 0, "is_reserved": 0, "lat": 38.919652, "name": "2a1e5088d9fb4f512a392df375c68d42", "rental_uris": {"ios": "https://dc.lft.to/lastmile_qr_scan", "android": "https://dc.lft.to/lastmile_qr_scan"}, "type": "electric_scooter", "fusion_lat": 0.0, "lon": -77.04223233333333}, {"fusion_lon": 0.0, "bike_id": "c8d594b61bda8144720e506086d8b665", "is_disabled": 0, "is_reserved": 0, "lat": 38.924799, "name": "c8d594b61bda8144720e506086d8b665", "rental_uris": {"ios": "https://dc.lft.to/lastmile_qr_scan", "android": "https://dc.lft.to/lastmile_qr_scan"}, "type": "electric_scooter", "fusion_lat": 0.0, "lon": -77.022355}, {"fusion_lon": 0.0, "bike_id": "96ca90205a5e3fa6164d432ece54d206", "is_disabled": 0, "is_reserved": 0, "lat": 38.909997833333335, "name": "96ca90205a5e3fa6164d432ece54d206", "rental_uris": {"ios": "https://dc.lft.to/lastmile_qr_scan", "android": "https://dc.lft.to/lastmile_qr_scan"}, "type": "electric_bike", "fusion_lat": 0.0, "lon": -76.984227}, {"fusion_lon": 0.0, "bike_id": "b66fc76b3857ba3b130058a403d72309", "is_disabled": 0, "is_reserved": 0, "lat": 38.92415, "name": "b66fc76b3857ba3b130058a403d72309", "rental_uris": {"ios": "https://dc.lft.to/lastmile_qr_scan", "android": "https://dc.lft.to/lastmile_qr_scan"}, "type": "electric_scooter", "fusion_lat": 0.0, "lon": -77.0213005}, {"fusion_lon": 0.0, "bike_id": "9bcd840678a7735658251c1c30abce09", "is_disabled": 0, "is_reserved": 0, "lat": 38.899658, "name": "9bcd840678a7735658251c1c30abce09", "rental_uris": {"ios": "https://dc.lft.to/lastmile_qr_scan", "android": "https://dc.lft.to/lastmile_qr_scan"}, "type": "electric_scooter", "fusion_lat": 0.0, "lon": -77.04501216666667}, {"fusion_lon": 0.0, "bike_id": "652fd00c46d9fefaf9114b8f17915cc7", "is_disabled": 0, "is_reserved": 0, "lat": 38.90054533333333, "name": "652fd00c46d9fefaf9114b8f17915cc7", "rental_uris": {"ios": "https://dc.lft.to/lastmile_qr_scan", "android": "https://dc.lft.to/lastmile_qr_scan"}, "type": "electric_scooter", "fusion_lat": 0.0, "lon": -77.05138916666667}, {"fusion_lon": 0.0, "bike_id": "9fe30cdaaf181dcb613e3c6dd1c403f0", "is_disabled": 0, "is_reserved": 0, "lat": 38.93884966666667, "name": "9fe30cdaaf181dcb613e3c6dd1c403f0", "rental_uris": {"ios": "https://dc.lft.to/lastmile_qr_scan", "android": "https://dc.lft.to/lastmile_qr_scan"}, "type": "electric_scooter", "fusion_lat": 0.0, "lon": -77.02480433333334}, {"fusion_lon": 0.0, "bike_id": "4c69df2c147b3a6770ebc5eb26476910", "is_disabled": 0, "is_reserved": 0, "lat": 38.92042383333333, "name": "4c69df2c147b3a6770ebc5eb26476910", "rental_uris": {"ios": "https://dc.lft.to/lastmile_qr_scan", "android": "https://dc.lft.to/lastmile_qr_scan"}, "type": "electric_scooter", "fusion_lat": 0.0, "lon": -77.0339105}, {"fusion_lon": 0.0, "bike_id": "f0dbda3a111ec6fc30056c47b487fae1", "is_disabled": 0, "is_reserved": 0, "lat": 38.89805533333333, "name": "f0dbda3a111ec6fc30056c47b487fae1", "rental_uris": {"ios": "https://dc.lft.to/lastmile_qr_scan", "android": "https://dc.lft.to/lastmile_qr_scan"}, "type": "electric_bike", "fusion_lat": 0.0, "lon": -76.99036283333334}, {"fusion_lon": 0.0, "bike_id": "cf84afb3449adc3ca9c9a6e0cac2dec5", "is_disabled": 0, "is_reserved": 0, "lat": 38.89363933333333, "name": "cf84afb3449adc3ca9c9a6e0cac2dec5", "rental_uris": {"ios": "https://dc.lft.to/lastmile_qr_scan", "android": "https://dc.lft.to/lastmile_qr_scan"}, "type": "electric_scooter", "fusion_lat": 0.0, "lon": -77.03210866666667}, {"fusion_lon": 0.0, "bike_id": "8bddcce2528492977c61f15d86958e44", "is_disabled": 0, "is_reserved": 0, "lat": 38.92170483333334, "name": "8bddcce2528492977c61f15d86958e44", "rental_uris": {"ios": "https://dc.lft.to/lastmile_qr_scan", "android": "https://dc.lft.to/lastmile_qr_scan"}, "type": "electric_scooter", "fusion_lat": 0.0, "lon": -77.03512566666667}, {"fusion_lon": 0.0, "bike_id": "be8c1122f70cb6851e04257a2dcf3ce7", "is_disabled": 0, "is_reserved": 0, "lat": 38.912818333333334, "name": "be8c1122f70cb6851e04257a2dcf3ce7", "rental_uris": {"ios": "https://dc.lft.to/lastmile_qr_scan", "android": "https://dc.lft.to/lastmile_qr_scan"}, "type": "electric_scooter", "fusion_lat": 0.0, "lon": -77.03858316666667}, {"fusion_lon": 0.0, "bike_id": "6080ba6a54fc5f56e6389763491814d3", "is_disabled": 0, "is_reserved": 0, "lat": 38.92131783333333, "name": "6080ba6a54fc5f56e6389763491814d3", "rental_uris": {"ios": "https://dc.lft.to/lastmile_qr_scan", "android": "https://dc.lft.to/lastmile_qr_scan"}, "type": "electric_scooter", "fusion_lat": 0.0, "lon": -77.04439833333333}, {"fusion_lon": 0.0, "bike_id": "33854165f06db6256b1b7911a0b4b79b", "is_disabled": 0, "is_reserved": 0, "lat": 38.8992995, "name": "33854165f06db6256b1b7911a0b4b79b", "rental_uris": {"ios": "https://dc.lft.to/lastmile_qr_scan", "android": "https://dc.lft.to/lastmile_qr_scan"}, "type": "electric_bike", "fusion_lat": 0.0, "lon": -77.00163216666667}, {"fusion_lon": 0.0, "bike_id": "5f18d6348319d52f6d9a4764335fb2c0", "is_disabled": 0, "is_reserved": 0, "lat": 38.90022666666667, "name": "5f18d6348319d52f6d9a4764335fb2c0", "rental_uris": {"ios": "https://dc.lft.to/lastmile_qr_scan", "android": "https://dc.lft.to/lastmile_qr_scan"}, "type": "electric_scooter", "fusion_lat": 0.0, "lon": -77.011822}, {"fusion_lon": 0.0, "bike_id": "7cf162dc8663f45a625f376a1f42b820", "is_disabled": 0, "is_reserved": 0, "lat": 38.92369033333333, "name": "7cf162dc8663f45a625f376a1f42b820", "rental_uris": {"ios": "https://dc.lft.to/lastmile_qr_scan", "android": "https://dc.lft.to/lastmile_qr_scan"}, "type": "electric_scooter", "fusion_lat": 0.0, "lon": -77.035255}, {"fusion_lon": 0.0, "bike_id": "2628e8e55eac24941070dd8549238e55", "is_disabled": 0, "is_reserved": 0, "lat": 38.95738733333334, "name": "2628e8e55eac24941070dd8549238e55", "rental_uris": {"ios": "https://dc.lft.to/lastmile_qr_scan", "android": "https://dc.lft.to/lastmile_qr_scan"}, "type": "electric_scooter", "fusion_lat": 0.0, "lon": -77.00219966666667}, {"fusion_lon": 0.0, "bike_id": "afd8132c52e7c4acb50f58ff5f4a247c", "is_disabled": 0, "is_reserved": 0, "lat": 38.88356866666667, "name": "afd8132c52e7c4acb50f58ff5f4a247c", "rental_uris": {"ios": "https://dc.lft.to/lastmile_qr_scan", "android": "https://dc.lft.to/lastmile_qr_scan"}, "type": "electric_scooter", "fusion_lat": 0.0, "lon": -76.95771916666666}, {"fusion_lon": 0.0, "bike_id": "0eb2f906bf258b3e37dfbee0aef05d93", "is_disabled": 0, "is_reserved": 0, "lat": 38.8999645, "name": "0eb2f906bf258b3e37dfbee0aef05d93", "rental_uris": {"ios": "https://dc.lft.to/lastmile_qr_scan", "android": "https://dc.lft.to/lastmile_qr_scan"}, "type": "electric_scooter", "fusion_lat": 0.0, "lon": -77.05561066666667}, {"fusion_lon": 0.0, "bike_id": "57d84067425fcd30ff73345dbb7bbe83", "is_disabled": 0, "is_reserved": 0, "lat": 38.924591666666664, "name": "57d84067425fcd30ff73345dbb7bbe83", "rental_uris": {"ios": "https://dc.lft.to/lastmile_qr_scan", "android": "https://dc.lft.to/lastmile_qr_scan"}, "type": "electric_scooter", "fusion_lat": 0.0, "lon": -76.99915816666666}, {"fusion_lon": 0.0, "bike_id": "065a26224bb8919d0ab0dda8deeb64d8", "is_disabled": 0, "is_reserved": 0, "lat": 38.922544, "name": "065a26224bb8919d0ab0dda8deeb64d8", "rental_uris": {"ios": "https://dc.lft.to/lastmile_qr_scan", "android": "https://dc.lft.to/lastmile_qr_scan"}, "type": "electric_scooter", "fusion_lat": 0.0, "lon": -77.01952733333333}, {"fusion_lon": 0.0, "bike_id": "d4d0d1be93d0393cfc76f52fb78f3cf6", "is_disabled": 0, "is_reserved": 0, "lat": 38.8951085, "name": "d4d0d1be93d0393cfc76f52fb78f3cf6", "rental_uris": {"ios": "https://dc.lft.to/lastmile_qr_scan", "android": "https://dc.lft.to/lastmile_qr_scan"}, "type": "electric_scooter", "fusion_lat": 0.0, "lon": -76.9489075}, {"fusion_lon": 0.0, "bike_id": "471663c57bdbebf58565f663db2e1ad2", "is_disabled": 0, "is_reserved": 0, "lat": 38.9054725, "name": "471663c57bdbebf58565f663db2e1ad2", "rental_uris": {"ios": "https://dc.lft.to/lastmile_qr_scan", "android": "https://dc.lft.to/lastmile_qr_scan"}, "type": "electric_scooter", "fusion_lat": 0.0, "lon": -77.0297765}, {"fusion_lon": 0.0, "bike_id": "0c3b48a0b6b6d0d7c7bc877dddcd2b52", "is_disabled": 0, "is_reserved": 0, "lat": 38.87291866666666, "name": "0c3b48a0b6b6d0d7c7bc877dddcd2b52", "rental_uris": {"ios": "https://dc.lft.to/lastmile_qr_scan", "android": "https://dc.lft.to/lastmile_qr_scan"}, "type": "electric_scooter", "fusion_lat": 0.0, "lon": -77.00985233333333}, {"fusion_lon": 0.0, "bike_id": "cdc5986887f3ee7b4a68a9befde23989", "is_disabled": 0, "is_reserved": 0, "lat": 38.880084833333335, "name": "cdc5986887f3ee7b4a68a9befde23989", "rental_uris": {"ios": "https://dc.lft.to/lastmile_qr_scan", "android": "https://dc.lft.to/lastmile_qr_scan"}, "type": "electric_scooter", "fusion_lat": 0.0, "lon": -76.998368}, {"fusion_lon": 0.0, "bike_id": "969cef4823e60cd8de74eeefd076e7a0", "is_disabled": 0, "is_reserved": 0, "lat": 38.8993425, "name": "969cef4823e60cd8de74eeefd076e7a0", "rental_uris": {"ios": "https://dc.lft.to/lastmile_qr_scan", "android": "https://dc.lft.to/lastmile_qr_scan"}, "type": "electric_scooter", "fusion_lat": 0.0, "lon": -76.93754433333334}, {"fusion_lon": 0.0, "bike_id": "c8eb4f0a4178f88c5fa16a6029836035", "is_disabled": 0, "is_reserved": 0, "lat": 38.89333933333333, "name": "c8eb4f0a4178f88c5fa16a6029836035", "rental_uris": {"ios": "https://dc.lft.to/lastmile_qr_scan", "android": "https://dc.lft.to/lastmile_qr_scan"}, "type": "electric_scooter", "fusion_lat": 0.0, "lon": -76.99382483333333}, {"fusion_lon": 0.0, "bike_id": "a64ba4cb4dd1cd8421edc52360240f82", "is_disabled": 0, "is_reserved": 0, "lat": 38.93208216666667, "name": "a64ba4cb4dd1cd8421edc52360240f82", "rental_uris": {"ios": "https://dc.lft.to/lastmile_qr_scan", "android": "https://dc.lft.to/lastmile_qr_scan"}, "type": "electric_scooter", "fusion_lat": 0.0, "lon": -77.02671783333334}, {"fusion_lon": 0.0, "bike_id": "6bf819884516000a0503d956935348c5", "is_disabled": 0, "is_reserved": 0, "lat": 38.92320216666667, "name": "6bf819884516000a0503d956935348c5", "rental_uris": {"ios": "https://dc.lft.to/lastmile_qr_scan", "android": "https://dc.lft.to/lastmile_qr_scan"}, "type": "electric_scooter", "fusion_lat": 0.0, "lon": -77.02896016666666}, {"fusion_lon": 0.0, "bike_id": "fab2816d0d858621e5f3ad3e2641b2dd", "is_disabled": 0, "is_reserved": 0, "lat": 38.9257875, "name": "fab2816d0d858621e5f3ad3e2641b2dd", "rental_uris": {"ios": "https://dc.lft.to/lastmile_qr_scan", "android": "https://dc.lft.to/lastmile_qr_scan"}, "type": "electric_scooter", "fusion_lat": 0.0, "lon": -77.03792833333333}, {"fusion_lon": 0.0, "bike_id": "0fa3eb455c58266b8565151a22a35fa7", "is_disabled": 0, "is_reserved": 0, "lat": 38.902295, "name": "0fa3eb455c58266b8565151a22a35fa7", "rental_uris": {"ios": "https://dc.lft.to/lastmile_qr_scan", "android": "https://dc.lft.to/lastmile_qr_scan"}, "type": "electric_scooter", "fusion_lat": 0.0, "lon": -77.05138133333334}, {"fusion_lon": 0.0, "bike_id": "70dd70fc229d3c6a48d4b5ad80d90cf8", "is_disabled": 0, "is_reserved": 0, "lat": 39.0347355, "name": "70dd70fc229d3c6a48d4b5ad80d90cf8", "rental_uris": {"ios": "https://dc.lft.to/lastmile_qr_scan", "android": "https://dc.lft.to/lastmile_qr_scan"}, "type": "electric_bike", "fusion_lat": 0.0, "lon": -77.0410405}, {"fusion_lon": 0.0, "bike_id": "a0c5e0d109be273af3806260a410e3a4", "is_disabled": 0, "is_reserved": 0, "lat": 38.90184983333333, "name": "a0c5e0d109be273af3806260a410e3a4", "rental_uris": {"ios": "https://dc.lft.to/lastmile_qr_scan", "android": "https://dc.lft.to/lastmile_qr_scan"}, "type": "electric_scooter", "fusion_lat": 0.0, "lon": -76.976702}, {"fusion_lon": 0.0, "bike_id": "16ee06b6772f1846ac4465648a184acd", "is_disabled": 0, "is_reserved": 0, "lat": 38.93086616666667, "name": "16ee06b6772f1846ac4465648a184acd", "rental_uris": {"ios": "https://dc.lft.to/lastmile_qr_scan", "android": "https://dc.lft.to/lastmile_qr_scan"}, "type": "electric_scooter", "fusion_lat": 0.0, "lon": -77.02545333333333}, {"fusion_lon": 0.0, "bike_id": "b8446087548d127b6e5cd5dfa289791c", "is_disabled": 0, "is_reserved": 0, "lat": 38.91429633333333, "name": "b8446087548d127b6e5cd5dfa289791c", "rental_uris": {"ios": "https://dc.lft.to/lastmile_qr_scan", "android": "https://dc.lft.to/lastmile_qr_scan"}, "type": "electric_scooter", "fusion_lat": 0.0, "lon": -77.0320965}, {"fusion_lon": 0.0, "bike_id": "543eda532364727b98bad0bd021a897f", "is_disabled": 0, "is_reserved": 0, "lat": 38.92743333333333, "name": "543eda532364727b98bad0bd021a897f", "rental_uris": {"ios": "https://dc.lft.to/lastmile_qr_scan", "android": "https://dc.lft.to/lastmile_qr_scan"}, "type": "electric_scooter", "fusion_lat": 0.0, "lon": -77.03557883333333}, {"fusion_lon": 0.0, "bike_id": "577f81d5fa5eff3964df281421504b5f", "is_disabled": 0, "is_reserved": 0, "lat": 38.92371933333333, "name": "577f81d5fa5eff3964df281421504b5f", "rental_uris": {"ios": "https://dc.lft.to/lastmile_qr_scan", "android": "https://dc.lft.to/lastmile_qr_scan"}, "type": "electric_scooter", "fusion_lat": 0.0, "lon": -77.02138466666666}, {"fusion_lon": 0.0, "bike_id": "8a53c967b22a333d87e5073de129a9de", "is_disabled": 0, "is_reserved": 0, "lat": 38.933404833333334, "name": "8a53c967b22a333d87e5073de129a9de", "rental_uris": {"ios": "https://dc.lft.to/lastmile_qr_scan", "android": "https://dc.lft.to/lastmile_qr_scan"}, "type": "electric_scooter", "fusion_lat": 0.0, "lon": -77.05713566666667}, {"fusion_lon": 0.0, "bike_id": "540ba5cd0545e709361d4995fbba2435", "is_disabled": 0, "is_reserved": 0, "lat": 38.912694, "name": "540ba5cd0545e709361d4995fbba2435", "rental_uris": {"ios": "https://dc.lft.to/lastmile_qr_scan", "android": "https://dc.lft.to/lastmile_qr_scan"}, "type": "electric_scooter", "fusion_lat": 0.0, "lon": -77.022311}, {"fusion_lon": 0.0, "bike_id": "3aaf73d165e74422194dc9aa69f41713", "is_disabled": 0, "is_reserved": 0, "lat": 38.83690716666667, "name": "3aaf73d165e74422194dc9aa69f41713", "rental_uris": {"ios": "https://dc.lft.to/lastmile_qr_scan", "android": "https://dc.lft.to/lastmile_qr_scan"}, "type": "electric_bike", "fusion_lat": 0.0, "lon": -77.10333783333333}, {"fusion_lon": 0.0, "bike_id": "699a468e720a1e09e9eb6a0a5aa3b786", "is_disabled": 0, "is_reserved": 0, "lat": 38.92756216666667, "name": "699a468e720a1e09e9eb6a0a5aa3b786", "rental_uris": {"ios": "https://dc.lft.to/lastmile_qr_scan", "android": "https://dc.lft.to/lastmile_qr_scan"}, "type": "electric_scooter", "fusion_lat": 0.0, "lon": -77.033594}, {"fusion_lon": 0.0, "bike_id": "5b6a97b83678a80d841729d12da05fd7", "is_disabled": 0, "is_reserved": 0, "lat": 38.9035615, "name": "5b6a97b83678a80d841729d12da05fd7", "rental_uris": {"ios": "https://dc.lft.to/lastmile_qr_scan", "android": "https://dc.lft.to/lastmile_qr_scan"}, "type": "electric_scooter", "fusion_lat": 0.0, "lon": -77.0072465}, {"fusion_lon": 0.0, "bike_id": "fb301152e7cfcd13365828b97d45d86e", "is_disabled": 0, "is_reserved": 0, "lat": 38.926361666666665, "name": "fb301152e7cfcd13365828b97d45d86e", "rental_uris": {"ios": "https://dc.lft.to/lastmile_qr_scan", "android": "https://dc.lft.to/lastmile_qr_scan"}, "type": "electric_scooter", "fusion_lat": 0.0, "lon": -77.02714666666667}, {"fusion_lon": 0.0, "bike_id": "ae9c4c69d9d0a7b6643a37a6697d7132", "is_disabled": 0, "is_reserved": 0, "lat": 38.88990066666667, "name": "ae9c4c69d9d0a7b6643a37a6697d7132", "rental_uris": {"ios": "https://dc.lft.to/lastmile_qr_scan", "android": "https://dc.lft.to/lastmile_qr_scan"}, "type": "electric_scooter", "fusion_lat": 0.0, "lon": -76.98813516666667}, {"fusion_lon": 0.0, "bike_id": "305cc94f312b02be8bcc50df748b1a6f", "is_disabled": 0, "is_reserved": 0, "lat": 38.9801235, "name": "305cc94f312b02be8bcc50df748b1a6f", "rental_uris": {"ios": "https://dc.lft.to/lastmile_qr_scan", "android": "https://dc.lft.to/lastmile_qr_scan"}, "type": "electric_bike", "fusion_lat": 0.0, "lon": -77.06413816666667}, {"fusion_lon": 0.0, "bike_id": "871f9e0f362bb968ed788c22d12803c1", "is_disabled": 0, "is_reserved": 0, "lat": 38.919939166666666, "name": "871f9e0f362bb968ed788c22d12803c1", "rental_uris": {"ios": "https://dc.lft.to/lastmile_qr_scan", "android": "https://dc.lft.to/lastmile_qr_scan"}, "type": "electric_scooter", "fusion_lat": 0.0, "lon": -77.03277916666667}, {"fusion_lon": 0.0, "bike_id": "370d4e199759b3bd09193496283cfcf8", "is_disabled": 0, "is_reserved": 0, "lat": 38.857847666666665, "name": "370d4e199759b3bd09193496283cfcf8", "rental_uris": {"ios": "https://dc.lft.to/lastmile_qr_scan", "android": "https://dc.lft.to/lastmile_qr_scan"}, "type": "electric_bike", "fusion_lat": 0.0, "lon": -76.9876325}, {"fusion_lon": 0.0, "bike_id": "0d6ab56ad575e78e5b5f8ff851825a23", "is_disabled": 0, "is_reserved": 0, "lat": 38.947227166666664, "name": "0d6ab56ad575e78e5b5f8ff851825a23", "rental_uris": {"ios": "https://dc.lft.to/lastmile_qr_scan", "android": "https://dc.lft.to/lastmile_qr_scan"}, "type": "electric_bike", "fusion_lat": 0.0, "lon": -77.09876283333334}, {"fusion_lon": 0.0, "bike_id": "f1afa585fc8cdf8592310894e7a44e6e", "is_disabled": 0, "is_reserved": 0, "lat": 38.91580316666666, "name": "f1afa585fc8cdf8592310894e7a44e6e", "rental_uris": {"ios": "https://dc.lft.to/lastmile_qr_scan", "android": "https://dc.lft.to/lastmile_qr_scan"}, "type": "electric_scooter", "fusion_lat": 0.0, "lon": -77.0366165}, {"fusion_lon": 0.0, "bike_id": "ce0f87c7e40c97ca786fa2b4df07a840", "is_disabled": 0, "is_reserved": 0, "lat": 38.89160283333333, "name": "ce0f87c7e40c97ca786fa2b4df07a840", "rental_uris": {"ios": "https://dc.lft.to/lastmile_qr_scan", "android": "https://dc.lft.to/lastmile_qr_scan"}, "type": "electric_scooter", "fusion_lat": 0.0, "lon": -76.983689}, {"fusion_lon": 0.0, "bike_id": "b3930f24ae1269d5b6b4562161be7ef9", "is_disabled": 0, "is_reserved": 0, "lat": 38.908479166666666, "name": "b3930f24ae1269d5b6b4562161be7ef9", "rental_uris": {"ios": "https://dc.lft.to/lastmile_qr_scan", "android": "https://dc.lft.to/lastmile_qr_scan"}, "type": "electric_scooter", "fusion_lat": 0.0, "lon": -77.0228435}, {"fusion_lon": 0.0, "bike_id": "4c59c7eb335bea1612ffb16f0de2379f", "is_disabled": 0, "is_reserved": 0, "lat": 38.89826766666667, "name": "4c59c7eb335bea1612ffb16f0de2379f", "rental_uris": {"ios": "https://dc.lft.to/lastmile_qr_scan", "android": "https://dc.lft.to/lastmile_qr_scan"}, "type": "electric_scooter", "fusion_lat": 0.0, "lon": -76.946483}, {"fusion_lon": 0.0, "bike_id": "c12c02ba29fd675177d088b9e477af0b", "is_disabled": 0, "is_reserved": 0, "lat": 38.94922716666667, "name": "c12c02ba29fd675177d088b9e477af0b", "rental_uris": {"ios": "https://dc.lft.to/lastmile_qr_scan", "android": "https://dc.lft.to/lastmile_qr_scan"}, "type": "electric_scooter", "fusion_lat": 0.0, "lon": -77.01862}, {"fusion_lon": 0.0, "bike_id": "3dff0f46d3c5379e871094f746cbe579", "is_disabled": 0, "is_reserved": 0, "lat": 38.90442733333333, "name": "3dff0f46d3c5379e871094f746cbe579", "rental_uris": {"ios": "https://dc.lft.to/lastmile_qr_scan", "android": "https://dc.lft.to/lastmile_qr_scan"}, "type": "electric_scooter", "fusion_lat": 0.0, "lon": -77.04822616666667}, {"fusion_lon": 0.0, "bike_id": "fcb27ba593a83cc61540b6cf5559bf68", "is_disabled": 0, "is_reserved": 0, "lat": 38.884890666666664, "name": "fcb27ba593a83cc61540b6cf5559bf68", "rental_uris": {"ios": "https://dc.lft.to/lastmile_qr_scan", "android": "https://dc.lft.to/lastmile_qr_scan"}, "type": "electric_scooter", "fusion_lat": 0.0, "lon": -77.00712466666667}, {"fusion_lon": 0.0, "bike_id": "937a716e671c80ca6438a3a05382621c", "is_disabled": 0, "is_reserved": 0, "lat": 38.903482833333335, "name": "937a716e671c80ca6438a3a05382621c", "rental_uris": {"ios": "https://dc.lft.to/lastmile_qr_scan", "android": "https://dc.lft.to/lastmile_qr_scan"}, "type": "electric_scooter", "fusion_lat": 0.0, "lon": -77.05019466666667}, {"fusion_lon": 0.0, "bike_id": "9775226bf365e1c6ea368522f1a117c1", "is_disabled": 0, "is_reserved": 0, "lat": 38.92284766666667, "name": "9775226bf365e1c6ea368522f1a117c1", "rental_uris": {"ios": "https://dc.lft.to/lastmile_qr_scan", "android": "https://dc.lft.to/lastmile_qr_scan"}, "type": "electric_scooter", "fusion_lat": 0.0, "lon": -77.0365885}, {"fusion_lon": 0.0, "bike_id": "7ba99089286249380e1a39ffa502c30f", "is_disabled": 0, "is_reserved": 0, "lat": 38.902449833333336, "name": "7ba99089286249380e1a39ffa502c30f", "rental_uris": {"ios": "https://dc.lft.to/lastmile_qr_scan", "android": "https://dc.lft.to/lastmile_qr_scan"}, "type": "electric_scooter", "fusion_lat": 0.0, "lon": -77.053271}, {"fusion_lon": 0.0, "bike_id": "7a42f4fc62c8caeb34746becf53f645d", "is_disabled": 0, "is_reserved": 0, "lat": 38.90348983333333, "name": "7a42f4fc62c8caeb34746becf53f645d", "rental_uris": {"ios": "https://dc.lft.to/lastmile_qr_scan", "android": "https://dc.lft.to/lastmile_qr_scan"}, "type": "electric_scooter", "fusion_lat": 0.0, "lon": -76.98616183333333}, {"fusion_lon": 0.0, "bike_id": "4cbf83e251ab8d97940f58bb6dbb6cf6", "is_disabled": 0, "is_reserved": 0, "lat": 38.921822166666665, "name": "4cbf83e251ab8d97940f58bb6dbb6cf6", "rental_uris": {"ios": "https://dc.lft.to/lastmile_qr_scan", "android": "https://dc.lft.to/lastmile_qr_scan"}, "type": "electric_scooter", "fusion_lat": 0.0, "lon": -77.04014616666667}, {"fusion_lon": 0.0, "bike_id": "24f047f40943bcfd4366ce3aadf32a0c", "is_disabled": 0, "is_reserved": 0, "lat": 38.87546583333334, "name": "24f047f40943bcfd4366ce3aadf32a0c", "rental_uris": {"ios": "https://dc.lft.to/lastmile_qr_scan", "android": "https://dc.lft.to/lastmile_qr_scan"}, "type": "electric_scooter", "fusion_lat": 0.0, "lon": -77.00533533333333}, {"fusion_lon": 0.0, "bike_id": "3b855867c53957889c58f509926c8614", "is_disabled": 0, "is_reserved": 0, "lat": 38.914889333333335, "name": "3b855867c53957889c58f509926c8614", "rental_uris": {"ios": "https://dc.lft.to/lastmile_qr_scan", "android": "https://dc.lft.to/lastmile_qr_scan"}, "type": "electric_scooter", "fusion_lat": 0.0, "lon": -76.9806775}, {"fusion_lon": 0.0, "bike_id": "f1c61288d8b0c5852681bff6d2640ba6", "is_disabled": 0, "is_reserved": 0, "lat": 38.9329605, "name": "f1c61288d8b0c5852681bff6d2640ba6", "rental_uris": {"ios": "https://dc.lft.to/lastmile_qr_scan", "android": "https://dc.lft.to/lastmile_qr_scan"}, "type": "electric_scooter", "fusion_lat": 0.0, "lon": -77.02059333333334}, {"fusion_lon": 0.0, "bike_id": "12e96ee497e9777e9cb7437d9adda07f", "is_disabled": 0, "is_reserved": 0, "lat": 38.887125166666664, "name": "12e96ee497e9777e9cb7437d9adda07f", "rental_uris": {"ios": "https://dc.lft.to/lastmile_qr_scan", "android": "https://dc.lft.to/lastmile_qr_scan"}, "type": "electric_scooter", "fusion_lat": 0.0, "lon": -76.983799}, {"fusion_lon": 0.0, "bike_id": "61d3cb018ebaf489ae2560d1415a6e07", "is_disabled": 0, "is_reserved": 0, "lat": 38.907858833333336, "name": "61d3cb018ebaf489ae2560d1415a6e07", "rental_uris": {"ios": "https://dc.lft.to/lastmile_qr_scan", "android": "https://dc.lft.to/lastmile_qr_scan"}, "type": "electric_scooter", "fusion_lat": 0.0, "lon": -77.07253183333333}, {"fusion_lon": 0.0, "bike_id": "9d8ac102d4a1b06471ec625288596b0e", "is_disabled": 0, "is_reserved": 0, "lat": 38.9220785, "name": "9d8ac102d4a1b06471ec625288596b0e", "rental_uris": {"ios": "https://dc.lft.to/lastmile_qr_scan", "android": "https://dc.lft.to/lastmile_qr_scan"}, "type": "electric_scooter", "fusion_lat": 0.0, "lon": -77.02032366666667}, {"fusion_lon": 0.0, "bike_id": "a0411d416e7db930e1737ca35f0b1228", "is_disabled": 0, "is_reserved": 0, "lat": 38.922978666666666, "name": "a0411d416e7db930e1737ca35f0b1228", "rental_uris": {"ios": "https://dc.lft.to/lastmile_qr_scan", "android": "https://dc.lft.to/lastmile_qr_scan"}, "type": "electric_scooter", "fusion_lat": 0.0, "lon": -77.02417733333333}, {"fusion_lon": 0.0, "bike_id": "e138093693d4a09d0e578bd8881d4a86", "is_disabled": 0, "is_reserved": 0, "lat": 38.93289133333333, "name": "e138093693d4a09d0e578bd8881d4a86", "rental_uris": {"ios": "https://dc.lft.to/lastmile_qr_scan", "android": "https://dc.lft.to/lastmile_qr_scan"}, "type": "electric_scooter", "fusion_lat": 0.0, "lon": -76.98647016666666}, {"fusion_lon": 0.0, "bike_id": "93344557fc75789c582f37549b4ad0bc", "is_disabled": 0, "is_reserved": 0, "lat": 38.919213, "name": "93344557fc75789c582f37549b4ad0bc", "rental_uris": {"ios": "https://dc.lft.to/lastmile_qr_scan", "android": "https://dc.lft.to/lastmile_qr_scan"}, "type": "electric_scooter", "fusion_lat": 0.0, "lon": -77.03420983333334}, {"fusion_lon": 0.0, "bike_id": "609930f25b7b09bb10b9af07d4dfad72", "is_disabled": 0, "is_reserved": 0, "lat": 38.8544535, "name": "609930f25b7b09bb10b9af07d4dfad72", "rental_uris": {"ios": "https://dc.lft.to/lastmile_qr_scan", "android": "https://dc.lft.to/lastmile_qr_scan"}, "type": "electric_scooter", "fusion_lat": 0.0, "lon": -76.98611266666667}, {"fusion_lon": 0.0, "bike_id": "6f97498f1bcf49e6dff6e6c27a5eaf31", "is_disabled": 0, "is_reserved": 0, "lat": 38.92414016666667, "name": "6f97498f1bcf49e6dff6e6c27a5eaf31", "rental_uris": {"ios": "https://dc.lft.to/lastmile_qr_scan", "android": "https://dc.lft.to/lastmile_qr_scan"}, "type": "electric_scooter", "fusion_lat": 0.0, "lon": -77.02009166666667}, {"fusion_lon": 0.0, "bike_id": "d001e9d120ba5cac535479eb8f1b7f51", "is_disabled": 0, "is_reserved": 0, "lat": 38.974438166666665, "name": "d001e9d120ba5cac535479eb8f1b7f51", "rental_uris": {"ios": "https://dc.lft.to/lastmile_qr_scan", "android": "https://dc.lft.to/lastmile_qr_scan"}, "type": "electric_bike", "fusion_lat": 0.0, "lon": -77.09619366666666}, {"fusion_lon": 0.0, "bike_id": "0ce273fa6240ad1bc04485b3d0c2fbf4", "is_disabled": 0, "is_reserved": 0, "lat": 38.92087866666667, "name": "0ce273fa6240ad1bc04485b3d0c2fbf4", "rental_uris": {"ios": "https://dc.lft.to/lastmile_qr_scan", "android": "https://dc.lft.to/lastmile_qr_scan"}, "type": "electric_scooter", "fusion_lat": 0.0, "lon": -77.06260366666666}, {"fusion_lon": 0.0, "bike_id": "da5a39fa6decc651ef38ecb1b243ea97", "is_disabled": 0, "is_reserved": 0, "lat": 38.92911516666667, "name": "da5a39fa6decc651ef38ecb1b243ea97", "rental_uris": {"ios": "https://dc.lft.to/lastmile_qr_scan", "android": "https://dc.lft.to/lastmile_qr_scan"}, "type": "electric_scooter", "fusion_lat": 0.0, "lon": -77.02345933333334}, {"fusion_lon": 0.0, "bike_id": "cda81ce5cd6dd79b60c8df0b1313c596", "is_disabled": 0, "is_reserved": 0, "lat": 38.89963633333333, "name": "cda81ce5cd6dd79b60c8df0b1313c596", "rental_uris": {"ios": "https://dc.lft.to/lastmile_qr_scan", "android": "https://dc.lft.to/lastmile_qr_scan"}, "type": "electric_scooter", "fusion_lat": 0.0, "lon": -77.0258355}, {"fusion_lon": 0.0, "bike_id": "8691d7404072787e300d6f1bf7b05e3a", "is_disabled": 0, "is_reserved": 0, "lat": 38.921206, "name": "8691d7404072787e300d6f1bf7b05e3a", "rental_uris": {"ios": "https://dc.lft.to/lastmile_qr_scan", "android": "https://dc.lft.to/lastmile_qr_scan"}, "type": "electric_scooter", "fusion_lat": 0.0, "lon": -77.01210066666667}, {"fusion_lon": 0.0, "bike_id": "7f71568e6b509830d59b9e31b79131d2", "is_disabled": 0, "is_reserved": 0, "lat": 38.904031333333336, "name": "7f71568e6b509830d59b9e31b79131d2", "rental_uris": {"ios": "https://dc.lft.to/lastmile_qr_scan", "android": "https://dc.lft.to/lastmile_qr_scan"}, "type": "electric_scooter", "fusion_lat": 0.0, "lon": -77.024897}, {"fusion_lon": 0.0, "bike_id": "1dc5e72a30161f75c2d07998bc55a559", "is_disabled": 0, "is_reserved": 0, "lat": 38.920949666666665, "name": "1dc5e72a30161f75c2d07998bc55a559", "rental_uris": {"ios": "https://dc.lft.to/lastmile_qr_scan", "android": "https://dc.lft.to/lastmile_qr_scan"}, "type": "electric_scooter", "fusion_lat": 0.0, "lon": -77.0317115}, {"fusion_lon": 0.0, "bike_id": "96b29939dcd705303ac1e2a91145cf47", "is_disabled": 0, "is_reserved": 0, "lat": 38.92102233333333, "name": "96b29939dcd705303ac1e2a91145cf47", "rental_uris": {"ios": "https://dc.lft.to/lastmile_qr_scan", "android": "https://dc.lft.to/lastmile_qr_scan"}, "type": "electric_scooter", "fusion_lat": 0.0, "lon": -76.999205}, {"fusion_lon": 0.0, "bike_id": "03a941a02b19b74991cbd7d0dbca15a4", "is_disabled": 0, "is_reserved": 0, "lat": 38.902401, "name": "03a941a02b19b74991cbd7d0dbca15a4", "rental_uris": {"ios": "https://dc.lft.to/lastmile_qr_scan", "android": "https://dc.lft.to/lastmile_qr_scan"}, "type": "electric_scooter", "fusion_lat": 0.0, "lon": -77.01919333333333}, {"fusion_lon": 0.0, "bike_id": "30b0554101d38a28f78165a7bc6a9daf", "is_disabled": 0, "is_reserved": 0, "lat": 38.92133233333333, "name": "30b0554101d38a28f78165a7bc6a9daf", "rental_uris": {"ios": "https://dc.lft.to/lastmile_qr_scan", "android": "https://dc.lft.to/lastmile_qr_scan"}, "type": "electric_scooter", "fusion_lat": 0.0, "lon": -77.01787566666667}, {"fusion_lon": 0.0, "bike_id": "901c35e10682e747cc2222c16740cc99", "is_disabled": 0, "is_reserved": 0, "lat": 38.92480916666667, "name": "901c35e10682e747cc2222c16740cc99", "rental_uris": {"ios": "https://dc.lft.to/lastmile_qr_scan", "android": "https://dc.lft.to/lastmile_qr_scan"}, "type": "electric_scooter", "fusion_lat": 0.0, "lon": -77.00891283333333}, {"fusion_lon": 0.0, "bike_id": "143754635859e5b9eeb273adfa866b73", "is_disabled": 0, "is_reserved": 0, "lat": 38.939599, "name": "143754635859e5b9eeb273adfa866b73", "rental_uris": {"ios": "https://dc.lft.to/lastmile_qr_scan", "android": "https://dc.lft.to/lastmile_qr_scan"}, "type": "electric_scooter", "fusion_lat": 0.0, "lon": -77.07245966666666}, {"fusion_lon": 0.0, "bike_id": "084d29a1ab0a3c1eb8d01472d15812ad", "is_disabled": 0, "is_reserved": 0, "lat": 38.91049983333333, "name": "084d29a1ab0a3c1eb8d01472d15812ad", "rental_uris": {"ios": "https://dc.lft.to/lastmile_qr_scan", "android": "https://dc.lft.to/lastmile_qr_scan"}, "type": "electric_scooter", "fusion_lat": 0.0, "lon": -77.02770866666667}, {"fusion_lon": 0.0, "bike_id": "faf24cd225a99fdf352c678ee7ecaeba", "is_disabled": 0, "is_reserved": 0, "lat": 38.930859166666664, "name": "faf24cd225a99fdf352c678ee7ecaeba", "rental_uris": {"ios": "https://dc.lft.to/lastmile_qr_scan", "android": "https://dc.lft.to/lastmile_qr_scan"}, "type": "electric_scooter", "fusion_lat": 0.0, "lon": -77.02787216666667}, {"fusion_lon": 0.0, "bike_id": "a4e16f23da4a3d605027f0abc67b985f", "is_disabled": 0, "is_reserved": 0, "lat": 38.8811705, "name": "a4e16f23da4a3d605027f0abc67b985f", "rental_uris": {"ios": "https://dc.lft.to/lastmile_qr_scan", "android": "https://dc.lft.to/lastmile_qr_scan"}, "type": "electric_scooter", "fusion_lat": 0.0, "lon": -77.015046}, {"fusion_lon": 0.0, "bike_id": "365dd34f20b25f265f75a42628d62f40", "is_disabled": 0, "is_reserved": 0, "lat": 38.92368783333333, "name": "365dd34f20b25f265f75a42628d62f40", "rental_uris": {"ios": "https://dc.lft.to/lastmile_qr_scan", "android": "https://dc.lft.to/lastmile_qr_scan"}, "type": "electric_scooter", "fusion_lat": 0.0, "lon": -77.02122583333333}, {"fusion_lon": 0.0, "bike_id": "456ae712ab2ec1785ca634dec9419b4c", "is_disabled": 0, "is_reserved": 0, "lat": 38.92906833333333, "name": "456ae712ab2ec1785ca634dec9419b4c", "rental_uris": {"ios": "https://dc.lft.to/lastmile_qr_scan", "android": "https://dc.lft.to/lastmile_qr_scan"}, "type": "electric_scooter", "fusion_lat": 0.0, "lon": -77.0217675}, {"fusion_lon": 0.0, "bike_id": "16bf128869e577f3d5fcca9b17c679a5", "is_disabled": 0, "is_reserved": 0, "lat": 38.85598783333333, "name": "16bf128869e577f3d5fcca9b17c679a5", "rental_uris": {"ios": "https://dc.lft.to/lastmile_qr_scan", "android": "https://dc.lft.to/lastmile_qr_scan"}, "type": "electric_bike", "fusion_lat": 0.0, "lon": -76.97275216666667}, {"fusion_lon": 0.0, "bike_id": "2b3b3481e3ca8182835934fbfe278c7c", "is_disabled": 0, "is_reserved": 0, "lat": 38.921120333333334, "name": "2b3b3481e3ca8182835934fbfe278c7c", "rental_uris": {"ios": "https://dc.lft.to/lastmile_qr_scan", "android": "https://dc.lft.to/lastmile_qr_scan"}, "type": "electric_scooter", "fusion_lat": 0.0, "lon": -77.02050083333333}, {"fusion_lon": 0.0, "bike_id": "4415dd6c878d77239c295ee87cc84261", "is_disabled": 0, "is_reserved": 0, "lat": 38.9068705, "name": "4415dd6c878d77239c295ee87cc84261", "rental_uris": {"ios": "https://dc.lft.to/lastmile_qr_scan", "android": "https://dc.lft.to/lastmile_qr_scan"}, "type": "electric_scooter", "fusion_lat": 0.0, "lon": -77.010185}, {"fusion_lon": 0.0, "bike_id": "a44c7f0133556eb443157d87e7f5e823", "is_disabled": 0, "is_reserved": 0, "lat": 38.9015255, "name": "a44c7f0133556eb443157d87e7f5e823", "rental_uris": {"ios": "https://dc.lft.to/lastmile_qr_scan", "android": "https://dc.lft.to/lastmile_qr_scan"}, "type": "electric_scooter", "fusion_lat": 0.0, "lon": -76.98644033333333}, {"fusion_lon": 0.0, "bike_id": "8186a6db002f2621054842c41287e8c6", "is_disabled": 0, "is_reserved": 0, "lat": 38.8765805, "name": "8186a6db002f2621054842c41287e8c6", "rental_uris": {"ios": "https://dc.lft.to/lastmile_qr_scan", "android": "https://dc.lft.to/lastmile_qr_scan"}, "type": "electric_scooter", "fusion_lat": 0.0, "lon": -77.00755933333333}, {"fusion_lon": 0.0, "bike_id": "c3bd5542ad9b34f1d3bebc6ee436dace", "is_disabled": 0, "is_reserved": 0, "lat": 38.87469516666667, "name": "c3bd5542ad9b34f1d3bebc6ee436dace", "rental_uris": {"ios": "https://dc.lft.to/lastmile_qr_scan", "android": "https://dc.lft.to/lastmile_qr_scan"}, "type": "electric_scooter", "fusion_lat": 0.0, "lon": -77.00519233333333}, {"fusion_lon": 0.0, "bike_id": "694e6d64f6b9a254304951e7fe954d9e", "is_disabled": 0, "is_reserved": 0, "lat": 38.883329333333336, "name": "694e6d64f6b9a254304951e7fe954d9e", "rental_uris": {"ios": "https://dc.lft.to/lastmile_qr_scan", "android": "https://dc.lft.to/lastmile_qr_scan"}, "type": "electric_scooter", "fusion_lat": 0.0, "lon": -77.01528516666667}, {"fusion_lon": 0.0, "bike_id": "ceef95d00cad5250a133c66d8342425f", "is_disabled": 0, "is_reserved": 0, "lat": 38.936893833333336, "name": "ceef95d00cad5250a133c66d8342425f", "rental_uris": {"ios": "https://dc.lft.to/lastmile_qr_scan", "android": "https://dc.lft.to/lastmile_qr_scan"}, "type": "electric_scooter", "fusion_lat": 0.0, "lon": -77.08438233333334}, {"fusion_lon": 0.0, "bike_id": "3e59c47023cc1ed62b61f50a84c992da", "is_disabled": 0, "is_reserved": 0, "lat": 38.884478333333334, "name": "3e59c47023cc1ed62b61f50a84c992da", "rental_uris": {"ios": "https://dc.lft.to/lastmile_qr_scan", "android": "https://dc.lft.to/lastmile_qr_scan"}, "type": "electric_scooter", "fusion_lat": 0.0, "lon": -77.0303395}, {"fusion_lon": 0.0, "bike_id": "e668b79e640add0016658110adacdfde", "is_disabled": 0, "is_reserved": 0, "lat": 38.9046905, "name": "e668b79e640add0016658110adacdfde", "rental_uris": {"ios": "https://dc.lft.to/lastmile_qr_scan", "android": "https://dc.lft.to/lastmile_qr_scan"}, "type": "electric_scooter", "fusion_lat": 0.0, "lon": -77.03552366666666}, {"fusion_lon": 0.0, "bike_id": "d32a373a227c0a3aa89b790158dee661", "is_disabled": 0, "is_reserved": 0, "lat": 38.93196733333333, "name": "d32a373a227c0a3aa89b790158dee661", "rental_uris": {"ios": "https://dc.lft.to/lastmile_qr_scan", "android": "https://dc.lft.to/lastmile_qr_scan"}, "type": "electric_scooter", "fusion_lat": 0.0, "lon": -77.03749766666667}, {"fusion_lon": 0.0, "bike_id": "0692d8bac6a28dbf406aa5de954c35de", "is_disabled": 0, "is_reserved": 0, "lat": 38.917533166666665, "name": "0692d8bac6a28dbf406aa5de954c35de", "rental_uris": {"ios": "https://dc.lft.to/lastmile_qr_scan", "android": "https://dc.lft.to/lastmile_qr_scan"}, "type": "electric_scooter", "fusion_lat": 0.0, "lon": -77.02390383333334}, {"fusion_lon": 0.0, "bike_id": "bfca181f0d3168fd6f61d0ae6baf955b", "is_disabled": 0, "is_reserved": 0, "lat": 38.967360166666666, "name": "bfca181f0d3168fd6f61d0ae6baf955b", "rental_uris": {"ios": "https://dc.lft.to/lastmile_qr_scan", "android": "https://dc.lft.to/lastmile_qr_scan"}, "type": "electric_scooter", "fusion_lat": 0.0, "lon": -77.02531633333334}, {"fusion_lon": 0.0, "bike_id": "964b9c46874a2b6df91e75d1f4924926", "is_disabled": 0, "is_reserved": 0, "lat": 38.958453, "name": "964b9c46874a2b6df91e75d1f4924926", "rental_uris": {"ios": "https://dc.lft.to/lastmile_qr_scan", "android": "https://dc.lft.to/lastmile_qr_scan"}, "type": "electric_scooter", "fusion_lat": 0.0, "lon": -77.07164616666667}, {"fusion_lon": 0.0, "bike_id": "6768f96d18022c32987b752dee45ca7d", "is_disabled": 0, "is_reserved": 0, "lat": 38.90501283333333, "name": "6768f96d18022c32987b752dee45ca7d", "rental_uris": {"ios": "https://dc.lft.to/lastmile_qr_scan", "android": "https://dc.lft.to/lastmile_qr_scan"}, "type": "electric_scooter", "fusion_lat": 0.0, "lon": -77.02957833333333}, {"fusion_lon": 0.0, "bike_id": "f8e010ef888342fc81cb1dae3c73c3a6", "is_disabled": 0, "is_reserved": 0, "lat": 38.90517583333333, "name": "f8e010ef888342fc81cb1dae3c73c3a6", "rental_uris": {"ios": "https://dc.lft.to/lastmile_qr_scan", "android": "https://dc.lft.to/lastmile_qr_scan"}, "type": "electric_scooter", "fusion_lat": 0.0, "lon": -76.983964}, {"fusion_lon": 0.0, "bike_id": "7eb713a5eeb8fc1c138a59b95ea543b6", "is_disabled": 0, "is_reserved": 0, "lat": 38.822076, "name": "7eb713a5eeb8fc1c138a59b95ea543b6", "rental_uris": {"ios": "https://dc.lft.to/lastmile_qr_scan", "android": "https://dc.lft.to/lastmile_qr_scan"}, "type": "electric_bike", "fusion_lat": 0.0, "lon": -76.977008}, {"fusion_lon": 0.0, "bike_id": "600b5fc1771971d3755a9cbcb4ae0be2", "is_disabled": 0, "is_reserved": 0, "lat": 38.94514683333333, "name": "600b5fc1771971d3755a9cbcb4ae0be2", "rental_uris": {"ios": "https://dc.lft.to/lastmile_qr_scan", "android": "https://dc.lft.to/lastmile_qr_scan"}, "type": "electric_bike", "fusion_lat": 0.0, "lon": -77.00678416666666}, {"fusion_lon": 0.0, "bike_id": "98cb1960b3d295b2a8a2028960cd4571", "is_disabled": 0, "is_reserved": 0, "lat": 38.92465466666667, "name": "98cb1960b3d295b2a8a2028960cd4571", "rental_uris": {"ios": "https://dc.lft.to/lastmile_qr_scan", "android": "https://dc.lft.to/lastmile_qr_scan"}, "type": "electric_scooter", "fusion_lat": 0.0, "lon": -77.02241166666667}, {"fusion_lon": 0.0, "bike_id": "d66ed3884a9dcd94a8ac3da84fb2b43a", "is_disabled": 0, "is_reserved": 0, "lat": 38.878492, "name": "d66ed3884a9dcd94a8ac3da84fb2b43a", "rental_uris": {"ios": "https://dc.lft.to/lastmile_qr_scan", "android": "https://dc.lft.to/lastmile_qr_scan"}, "type": "electric_scooter", "fusion_lat": 0.0, "lon": -77.00758783333333}, {"fusion_lon": 0.0, "bike_id": "105f761fdd93ad0a839bef71dfac4cbe", "is_disabled": 0, "is_reserved": 0, "lat": 38.9162025, "name": "105f761fdd93ad0a839bef71dfac4cbe", "rental_uris": {"ios": "https://dc.lft.to/lastmile_qr_scan", "android": "https://dc.lft.to/lastmile_qr_scan"}, "type": "electric_scooter", "fusion_lat": 0.0, "lon": -77.02808083333333}, {"fusion_lon": 0.0, "bike_id": "19a5269a7291e9c09667365e5273c19d", "is_disabled": 0, "is_reserved": 0, "lat": 38.87793966666667, "name": "19a5269a7291e9c09667365e5273c19d", "rental_uris": {"ios": "https://dc.lft.to/lastmile_qr_scan", "android": "https://dc.lft.to/lastmile_qr_scan"}, "type": "electric_scooter", "fusion_lat": 0.0, "lon": -76.996083}, {"fusion_lon": 0.0, "bike_id": "4f87ade4bb1d72e0ae2efaaa8b4d1d40", "is_disabled": 0, "is_reserved": 0, "lat": 38.89993716666667, "name": "4f87ade4bb1d72e0ae2efaaa8b4d1d40", "rental_uris": {"ios": "https://dc.lft.to/lastmile_qr_scan", "android": "https://dc.lft.to/lastmile_qr_scan"}, "type": "electric_scooter", "fusion_lat": 0.0, "lon": -77.041762}, {"fusion_lon": 0.0, "bike_id": "68fb0f058f04e1db08f257446185a4bf", "is_disabled": 0, "is_reserved": 0, "lat": 38.89445933333333, "name": "68fb0f058f04e1db08f257446185a4bf", "rental_uris": {"ios": "https://dc.lft.to/lastmile_qr_scan", "android": "https://dc.lft.to/lastmile_qr_scan"}, "type": "electric_scooter", "fusion_lat": 0.0, "lon": -76.97732166666667}, {"fusion_lon": 0.0, "bike_id": "8c7ceb3a9ae97d16cba04dbc0cee48c9", "is_disabled": 0, "is_reserved": 0, "lat": 38.92556066666667, "name": "8c7ceb3a9ae97d16cba04dbc0cee48c9", "rental_uris": {"ios": "https://dc.lft.to/lastmile_qr_scan", "android": "https://dc.lft.to/lastmile_qr_scan"}, "type": "electric_scooter", "fusion_lat": 0.0, "lon": -77.03330483333333}, {"fusion_lon": 0.0, "bike_id": "ed8240ae7d3e8b06677a3daa832c15b8", "is_disabled": 0, "is_reserved": 0, "lat": 38.9240655, "name": "ed8240ae7d3e8b06677a3daa832c15b8", "rental_uris": {"ios": "https://dc.lft.to/lastmile_qr_scan", "android": "https://dc.lft.to/lastmile_qr_scan"}, "type": "electric_scooter", "fusion_lat": 0.0, "lon": -77.0404845}, {"fusion_lon": 0.0, "bike_id": "2807cd992042805f4bf84f2f92606237", "is_disabled": 0, "is_reserved": 0, "lat": 38.91673933333333, "name": "2807cd992042805f4bf84f2f92606237", "rental_uris": {"ios": "https://dc.lft.to/lastmile_qr_scan", "android": "https://dc.lft.to/lastmile_qr_scan"}, "type": "electric_scooter", "fusion_lat": 0.0, "lon": -77.04705933333334}, {"fusion_lon": 0.0, "bike_id": "48427b14b3ae9966826b4e35036b7270", "is_disabled": 0, "is_reserved": 0, "lat": 38.885389333333336, "name": "48427b14b3ae9966826b4e35036b7270", "rental_uris": {"ios": "https://dc.lft.to/lastmile_qr_scan", "android": "https://dc.lft.to/lastmile_qr_scan"}, "type": "electric_scooter", "fusion_lat": 0.0, "lon": -76.95430666666667}, {"fusion_lon": 0.0, "bike_id": "371af47ad8d0d06e75aacbea1a568854", "is_disabled": 0, "is_reserved": 0, "lat": 38.9194315, "name": "371af47ad8d0d06e75aacbea1a568854", "rental_uris": {"ios": "https://dc.lft.to/lastmile_qr_scan", "android": "https://dc.lft.to/lastmile_qr_scan"}, "type": "electric_scooter", "fusion_lat": 0.0, "lon": -77.024917}, {"fusion_lon": 0.0, "bike_id": "322c3384a576303241c73951f2102a57", "is_disabled": 0, "is_reserved": 0, "lat": 38.919105, "name": "322c3384a576303241c73951f2102a57", "rental_uris": {"ios": "https://dc.lft.to/lastmile_qr_scan", "android": "https://dc.lft.to/lastmile_qr_scan"}, "type": "electric_scooter", "fusion_lat": 0.0, "lon": -77.0462975}, {"fusion_lon": 0.0, "bike_id": "f122173893f3411d61996aafb6da0ece", "is_disabled": 0, "is_reserved": 0, "lat": 38.877636333333335, "name": "f122173893f3411d61996aafb6da0ece", "rental_uris": {"ios": "https://dc.lft.to/lastmile_qr_scan", "android": "https://dc.lft.to/lastmile_qr_scan"}, "type": "electric_scooter", "fusion_lat": 0.0, "lon": -77.01875116666666}, {"fusion_lon": 0.0, "bike_id": "41477cf043266d4b882cc86c12d0b794", "is_disabled": 0, "is_reserved": 0, "lat": 38.9018505, "name": "41477cf043266d4b882cc86c12d0b794", "rental_uris": {"ios": "https://dc.lft.to/lastmile_qr_scan", "android": "https://dc.lft.to/lastmile_qr_scan"}, "type": "electric_scooter", "fusion_lat": 0.0, "lon": -77.0512055}, {"fusion_lon": 0.0, "bike_id": "e427b60d4906ecdc594536530c19060c", "is_disabled": 0, "is_reserved": 0, "lat": 38.881803833333336, "name": "e427b60d4906ecdc594536530c19060c", "rental_uris": {"ios": "https://dc.lft.to/lastmile_qr_scan", "android": "https://dc.lft.to/lastmile_qr_scan"}, "type": "electric_scooter", "fusion_lat": 0.0, "lon": -77.01763983333333}, {"fusion_lon": 0.0, "bike_id": "d44c4093c685883d49238bdc403c02f4", "is_disabled": 0, "is_reserved": 0, "lat": 38.966852333333335, "name": "d44c4093c685883d49238bdc403c02f4", "rental_uris": {"ios": "https://dc.lft.to/lastmile_qr_scan", "android": "https://dc.lft.to/lastmile_qr_scan"}, "type": "electric_scooter", "fusion_lat": 0.0, "lon": -77.03401233333334}, {"fusion_lon": 0.0, "bike_id": "5556671c226b91e349a40051f1f28101", "is_disabled": 0, "is_reserved": 0, "lat": 38.96779083333333, "name": "5556671c226b91e349a40051f1f28101", "rental_uris": {"ios": "https://dc.lft.to/lastmile_qr_scan", "android": "https://dc.lft.to/lastmile_qr_scan"}, "type": "electric_bike", "fusion_lat": 0.0, "lon": -76.99649783333334}, {"fusion_lon": 0.0, "bike_id": "455b5504d28fc50d7717c1a8a8e75c45", "is_disabled": 0, "is_reserved": 0, "lat": 38.911083833333336, "name": "455b5504d28fc50d7717c1a8a8e75c45", "rental_uris": {"ios": "https://dc.lft.to/lastmile_qr_scan", "android": "https://dc.lft.to/lastmile_qr_scan"}, "type": "electric_scooter", "fusion_lat": 0.0, "lon": -77.01151816666666}, {"fusion_lon": 0.0, "bike_id": "6b399d9f52a73e6a0bac777d76d9c0ad", "is_disabled": 0, "is_reserved": 0, "lat": 38.89979133333333, "name": "6b399d9f52a73e6a0bac777d76d9c0ad", "rental_uris": {"ios": "https://dc.lft.to/lastmile_qr_scan", "android": "https://dc.lft.to/lastmile_qr_scan"}, "type": "electric_scooter", "fusion_lat": 0.0, "lon": -76.99487383333333}, {"fusion_lon": 0.0, "bike_id": "0dc7498542d6719383336b9690b91b39", "is_disabled": 0, "is_reserved": 0, "lat": 38.907462, "name": "0dc7498542d6719383336b9690b91b39", "rental_uris": {"ios": "https://dc.lft.to/lastmile_qr_scan", "android": "https://dc.lft.to/lastmile_qr_scan"}, "type": "electric_bike", "fusion_lat": 0.0, "lon": -77.00308216666667}, {"fusion_lon": 0.0, "bike_id": "f55cbcdd649555653c59caa9a20d097d", "is_disabled": 0, "is_reserved": 0, "lat": 38.92424316666666, "name": "f55cbcdd649555653c59caa9a20d097d", "rental_uris": {"ios": "https://dc.lft.to/lastmile_qr_scan", "android": "https://dc.lft.to/lastmile_qr_scan"}, "type": "electric_scooter", "fusion_lat": 0.0, "lon": -77.04047766666666}, {"fusion_lon": 0.0, "bike_id": "9404ade71e3349789fae907fe8b99aec", "is_disabled": 0, "is_reserved": 0, "lat": 38.91026883333333, "name": "9404ade71e3349789fae907fe8b99aec", "rental_uris": {"ios": "https://dc.lft.to/lastmile_qr_scan", "android": "https://dc.lft.to/lastmile_qr_scan"}, "type": "electric_scooter", "fusion_lat": 0.0, "lon": -77.02942616666667}, {"fusion_lon": 0.0, "bike_id": "3c8e98582e0d3687d9ec215b04a472be", "is_disabled": 0, "is_reserved": 0, "lat": 38.9273985, "name": "3c8e98582e0d3687d9ec215b04a472be", "rental_uris": {"ios": "https://dc.lft.to/lastmile_qr_scan", "android": "https://dc.lft.to/lastmile_qr_scan"}, "type": "electric_scooter", "fusion_lat": 0.0, "lon": -77.02214133333334}, {"fusion_lon": 0.0, "bike_id": "e3e55ba6b10d58581ad5c1eeeac2d4b6", "is_disabled": 0, "is_reserved": 0, "lat": 38.899077, "name": "e3e55ba6b10d58581ad5c1eeeac2d4b6", "rental_uris": {"ios": "https://dc.lft.to/lastmile_qr_scan", "android": "https://dc.lft.to/lastmile_qr_scan"}, "type": "electric_scooter", "fusion_lat": 0.0, "lon": -77.00360633333334}, {"fusion_lon": 0.0, "bike_id": "1268ab3c30a30ee60ae5a117aafd7aa4", "is_disabled": 0, "is_reserved": 0, "lat": 38.913090833333335, "name": "1268ab3c30a30ee60ae5a117aafd7aa4", "rental_uris": {"ios": "https://dc.lft.to/lastmile_qr_scan", "android": "https://dc.lft.to/lastmile_qr_scan"}, "type": "electric_scooter", "fusion_lat": 0.0, "lon": -77.034498}, {"fusion_lon": 0.0, "bike_id": "bf55f8ecc56ceb6a2633ed947c88da80", "is_disabled": 0, "is_reserved": 0, "lat": 38.91886316666667, "name": "bf55f8ecc56ceb6a2633ed947c88da80", "rental_uris": {"ios": "https://dc.lft.to/lastmile_qr_scan", "android": "https://dc.lft.to/lastmile_qr_scan"}, "type": "electric_scooter", "fusion_lat": 0.0, "lon": -77.03502633333333}, {"fusion_lon": 0.0, "bike_id": "0aba71dbd4271333c84e34053f2050e6", "is_disabled": 0, "is_reserved": 0, "lat": 38.9210875, "name": "0aba71dbd4271333c84e34053f2050e6", "rental_uris": {"ios": "https://dc.lft.to/lastmile_qr_scan", "android": "https://dc.lft.to/lastmile_qr_scan"}, "type": "electric_scooter", "fusion_lat": 0.0, "lon": -77.02140383333334}, {"fusion_lon": 0.0, "bike_id": "4fb6dbfdbc02f11788f102ba8df601f7", "is_disabled": 0, "is_reserved": 0, "lat": 38.9175765, "name": "4fb6dbfdbc02f11788f102ba8df601f7", "rental_uris": {"ios": "https://dc.lft.to/lastmile_qr_scan", "android": "https://dc.lft.to/lastmile_qr_scan"}, "type": "electric_scooter", "fusion_lat": 0.0, "lon": -77.0399845}, {"fusion_lon": 0.0, "bike_id": "a328a8df4aaea4322bae10c47fe67524", "is_disabled": 0, "is_reserved": 0, "lat": 38.915683, "name": "a328a8df4aaea4322bae10c47fe67524", "rental_uris": {"ios": "https://dc.lft.to/lastmile_qr_scan", "android": "https://dc.lft.to/lastmile_qr_scan"}, "type": "electric_scooter", "fusion_lat": 0.0, "lon": -77.02192416666666}, {"fusion_lon": 0.0, "bike_id": "eb6f00f7d71b46beb923826bcdcbba13", "is_disabled": 0, "is_reserved": 0, "lat": 38.90591116666667, "name": "eb6f00f7d71b46beb923826bcdcbba13", "rental_uris": {"ios": "https://dc.lft.to/lastmile_qr_scan", "android": "https://dc.lft.to/lastmile_qr_scan"}, "type": "electric_scooter", "fusion_lat": 0.0, "lon": -77.06613383333334}, {"fusion_lon": 0.0, "bike_id": "f3b9ac6bb48ef39219e925b9b7dd0856", "is_disabled": 0, "is_reserved": 0, "lat": 38.899752666666664, "name": "f3b9ac6bb48ef39219e925b9b7dd0856", "rental_uris": {"ios": "https://dc.lft.to/lastmile_qr_scan", "android": "https://dc.lft.to/lastmile_qr_scan"}, "type": "electric_scooter", "fusion_lat": 0.0, "lon": -77.026587}, {"fusion_lon": 0.0, "bike_id": "4131f4d3165a2a81919dfdd3180580a1", "is_disabled": 0, "is_reserved": 0, "lat": 38.9396205, "name": "4131f4d3165a2a81919dfdd3180580a1", "rental_uris": {"ios": "https://dc.lft.to/lastmile_qr_scan", "android": "https://dc.lft.to/lastmile_qr_scan"}, "type": "electric_bike", "fusion_lat": 0.0, "lon": -76.99134783333334}, {"fusion_lon": 0.0, "bike_id": "23bb2c920ae3a902d53552c0b7918aa2", "is_disabled": 0, "is_reserved": 0, "lat": 38.9240755, "name": "23bb2c920ae3a902d53552c0b7918aa2", "rental_uris": {"ios": "https://dc.lft.to/lastmile_qr_scan", "android": "https://dc.lft.to/lastmile_qr_scan"}, "type": "electric_scooter", "fusion_lat": 0.0, "lon": -77.021413}, {"fusion_lon": 0.0, "bike_id": "892caea6114e69369be88dbd1ac9feb8", "is_disabled": 0, "is_reserved": 0, "lat": 38.9264895, "name": "892caea6114e69369be88dbd1ac9feb8", "rental_uris": {"ios": "https://dc.lft.to/lastmile_qr_scan", "android": "https://dc.lft.to/lastmile_qr_scan"}, "type": "electric_scooter", "fusion_lat": 0.0, "lon": -77.03840233333334}, {"fusion_lon": 0.0, "bike_id": "77547f3691dd1c5e4288fd2a2e943cfd", "is_disabled": 0, "is_reserved": 0, "lat": 38.8983515, "name": "77547f3691dd1c5e4288fd2a2e943cfd", "rental_uris": {"ios": "https://dc.lft.to/lastmile_qr_scan", "android": "https://dc.lft.to/lastmile_qr_scan"}, "type": "electric_scooter", "fusion_lat": 0.0, "lon": -77.0126295}, {"fusion_lon": 0.0, "bike_id": "21be8e615c35fc3201f91383951a007c", "is_disabled": 0, "is_reserved": 0, "lat": 38.9037165, "name": "21be8e615c35fc3201f91383951a007c", "rental_uris": {"ios": "https://dc.lft.to/lastmile_qr_scan", "android": "https://dc.lft.to/lastmile_qr_scan"}, "type": "electric_scooter", "fusion_lat": 0.0, "lon": -77.06007516666666}, {"fusion_lon": 0.0, "bike_id": "1c4e41781deb1bc656c9241baaaedec8", "is_disabled": 0, "is_reserved": 0, "lat": 38.93208416666667, "name": "1c4e41781deb1bc656c9241baaaedec8", "rental_uris": {"ios": "https://dc.lft.to/lastmile_qr_scan", "android": "https://dc.lft.to/lastmile_qr_scan"}, "type": "electric_bike", "fusion_lat": 0.0, "lon": -76.9742295}, {"fusion_lon": 0.0, "bike_id": "b0fd828d6ee9d63b8c961077b123051e", "is_disabled": 0, "is_reserved": 0, "lat": 38.900573666666666, "name": "b0fd828d6ee9d63b8c961077b123051e", "rental_uris": {"ios": "https://dc.lft.to/lastmile_qr_scan", "android": "https://dc.lft.to/lastmile_qr_scan"}, "type": "electric_scooter", "fusion_lat": 0.0, "lon": -76.9870735}, {"fusion_lon": 0.0, "bike_id": "73c80e03d5e76fdda982215511604693", "is_disabled": 0, "is_reserved": 0, "lat": 38.92466533333333, "name": "73c80e03d5e76fdda982215511604693", "rental_uris": {"ios": "https://dc.lft.to/lastmile_qr_scan", "android": "https://dc.lft.to/lastmile_qr_scan"}, "type": "electric_scooter", "fusion_lat": 0.0, "lon": -77.02239916666667}, {"fusion_lon": 0.0, "bike_id": "6b518e49acd0aa6b9dc44476ca02d7a6", "is_disabled": 0, "is_reserved": 0, "lat": 38.893989166666664, "name": "6b518e49acd0aa6b9dc44476ca02d7a6", "rental_uris": {"ios": "https://dc.lft.to/lastmile_qr_scan", "android": "https://dc.lft.to/lastmile_qr_scan"}, "type": "electric_scooter", "fusion_lat": 0.0, "lon": -76.97818816666667}, {"fusion_lon": 0.0, "bike_id": "a135114547c3e597326642f9123998cb", "is_disabled": 0, "is_reserved": 0, "lat": 38.876501833333336, "name": "a135114547c3e597326642f9123998cb", "rental_uris": {"ios": "https://dc.lft.to/lastmile_qr_scan", "android": "https://dc.lft.to/lastmile_qr_scan"}, "type": "electric_scooter", "fusion_lat": 0.0, "lon": -77.00590983333333}, {"fusion_lon": 0.0, "bike_id": "e1a5c78da77ac901b7d61d045e2022aa", "is_disabled": 0, "is_reserved": 0, "lat": 38.87692883333333, "name": "e1a5c78da77ac901b7d61d045e2022aa", "rental_uris": {"ios": "https://dc.lft.to/lastmile_qr_scan", "android": "https://dc.lft.to/lastmile_qr_scan"}, "type": "electric_scooter", "fusion_lat": 0.0, "lon": -77.0018565}, {"fusion_lon": 0.0, "bike_id": "aee3e35b414520bfbec848c7cb1a5281", "is_disabled": 0, "is_reserved": 0, "lat": 38.8098035, "name": "aee3e35b414520bfbec848c7cb1a5281", "rental_uris": {"ios": "https://dc.lft.to/lastmile_qr_scan", "android": "https://dc.lft.to/lastmile_qr_scan"}, "type": "electric_bike", "fusion_lat": 0.0, "lon": -77.07655216666667}, {"fusion_lon": 0.0, "bike_id": "e2c60af3950dbf5339d7ccc62550b224", "is_disabled": 0, "is_reserved": 0, "lat": 38.91416516666666, "name": "e2c60af3950dbf5339d7ccc62550b224", "rental_uris": {"ios": "https://dc.lft.to/lastmile_qr_scan", "android": "https://dc.lft.to/lastmile_qr_scan"}, "type": "electric_scooter", "fusion_lat": 0.0, "lon": -77.02212533333334}, {"fusion_lon": 0.0, "bike_id": "d10a5d9005e9c887efb04590c7c72291", "is_disabled": 0, "is_reserved": 0, "lat": 38.914711833333335, "name": "d10a5d9005e9c887efb04590c7c72291", "rental_uris": {"ios": "https://dc.lft.to/lastmile_qr_scan", "android": "https://dc.lft.to/lastmile_qr_scan"}, "type": "electric_scooter", "fusion_lat": 0.0, "lon": -77.00885516666666}, {"fusion_lon": 0.0, "bike_id": "d6b152fcd8ab2fc35fc165d8e7070ee5", "is_disabled": 0, "is_reserved": 0, "lat": 38.90044133333333, "name": "d6b152fcd8ab2fc35fc165d8e7070ee5", "rental_uris": {"ios": "https://dc.lft.to/lastmile_qr_scan", "android": "https://dc.lft.to/lastmile_qr_scan"}, "type": "electric_scooter", "fusion_lat": 0.0, "lon": -77.0169465}, {"fusion_lon": 0.0, "bike_id": "3f893332f4389230ddba213d93c33e36", "is_disabled": 0, "is_reserved": 0, "lat": 38.90824283333333, "name": "3f893332f4389230ddba213d93c33e36", "rental_uris": {"ios": "https://dc.lft.to/lastmile_qr_scan", "android": "https://dc.lft.to/lastmile_qr_scan"}, "type": "electric_scooter", "fusion_lat": 0.0, "lon": -77.03916783333334}, {"fusion_lon": 0.0, "bike_id": "6327e731c2a01d0a815a5953cf1948fe", "is_disabled": 0, "is_reserved": 0, "lat": 38.8998015, "name": "6327e731c2a01d0a815a5953cf1948fe", "rental_uris": {"ios": "https://dc.lft.to/lastmile_qr_scan", "android": "https://dc.lft.to/lastmile_qr_scan"}, "type": "electric_scooter", "fusion_lat": 0.0, "lon": -77.0262485}, {"fusion_lon": 0.0, "bike_id": "636d1364c4fa8da26faa53902c054e60", "is_disabled": 0, "is_reserved": 0, "lat": 38.89995283333333, "name": "636d1364c4fa8da26faa53902c054e60", "rental_uris": {"ios": "https://dc.lft.to/lastmile_qr_scan", "android": "https://dc.lft.to/lastmile_qr_scan"}, "type": "electric_scooter", "fusion_lat": 0.0, "lon": -76.99010133333333}, {"fusion_lon": 0.0, "bike_id": "736dada2ba51db560d59bfdedbc2d893", "is_disabled": 0, "is_reserved": 0, "lat": 38.897361, "name": "736dada2ba51db560d59bfdedbc2d893", "rental_uris": {"ios": "https://dc.lft.to/lastmile_qr_scan", "android": "https://dc.lft.to/lastmile_qr_scan"}, "type": "electric_scooter", "fusion_lat": 0.0, "lon": -77.02454266666666}, {"fusion_lon": 0.0, "bike_id": "78b5f097b73e43dbe037d2e611678c94", "is_disabled": 0, "is_reserved": 0, "lat": 38.924936333333335, "name": "78b5f097b73e43dbe037d2e611678c94", "rental_uris": {"ios": "https://dc.lft.to/lastmile_qr_scan", "android": "https://dc.lft.to/lastmile_qr_scan"}, "type": "electric_scooter", "fusion_lat": 0.0, "lon": -77.03931983333334}, {"fusion_lon": 0.0, "bike_id": "6e41411e52d4b6c35b1559734e8cbd8d", "is_disabled": 0, "is_reserved": 0, "lat": 38.91573066666667, "name": "6e41411e52d4b6c35b1559734e8cbd8d", "rental_uris": {"ios": "https://dc.lft.to/lastmile_qr_scan", "android": "https://dc.lft.to/lastmile_qr_scan"}, "type": "electric_scooter", "fusion_lat": 0.0, "lon": -77.01990883333333}, {"fusion_lon": 0.0, "bike_id": "ff59b19b1ddb11af1ada4648d1f1477c", "is_disabled": 0, "is_reserved": 0, "lat": 38.892287, "name": "ff59b19b1ddb11af1ada4648d1f1477c", "rental_uris": {"ios": "https://dc.lft.to/lastmile_qr_scan", "android": "https://dc.lft.to/lastmile_qr_scan"}, "type": "electric_scooter", "fusion_lat": 0.0, "lon": -77.02417216666667}, {"fusion_lon": 0.0, "bike_id": "67143aff14863c15476369af4e3d02cf", "is_disabled": 0, "is_reserved": 0, "lat": 38.897400833333336, "name": "67143aff14863c15476369af4e3d02cf", "rental_uris": {"ios": "https://dc.lft.to/lastmile_qr_scan", "android": "https://dc.lft.to/lastmile_qr_scan"}, "type": "electric_scooter", "fusion_lat": 0.0, "lon": -76.99214383333333}, {"fusion_lon": 0.0, "bike_id": "8bef69e2649ff669633a27032f5b3ed9", "is_disabled": 0, "is_reserved": 0, "lat": 38.94707366666667, "name": "8bef69e2649ff669633a27032f5b3ed9", "rental_uris": {"ios": "https://dc.lft.to/lastmile_qr_scan", "android": "https://dc.lft.to/lastmile_qr_scan"}, "type": "electric_scooter", "fusion_lat": 0.0, "lon": -77.01941383333333}, {"fusion_lon": 0.0, "bike_id": "29cedc26802633067c222909d753038f", "is_disabled": 0, "is_reserved": 0, "lat": 38.900800333333336, "name": "29cedc26802633067c222909d753038f", "rental_uris": {"ios": "https://dc.lft.to/lastmile_qr_scan", "android": "https://dc.lft.to/lastmile_qr_scan"}, "type": "electric_scooter", "fusion_lat": 0.0, "lon": -77.04744616666666}, {"fusion_lon": 0.0, "bike_id": "20e78a9b10c905e9497ff93c71b647f7", "is_disabled": 0, "is_reserved": 0, "lat": 38.8877145, "name": "20e78a9b10c905e9497ff93c71b647f7", "rental_uris": {"ios": "https://dc.lft.to/lastmile_qr_scan", "android": "https://dc.lft.to/lastmile_qr_scan"}, "type": "electric_scooter", "fusion_lat": 0.0, "lon": -76.9773065}, {"fusion_lon": 0.0, "bike_id": "554eaf38d25e66e6b5d95fb6fbffc24f", "is_disabled": 0, "is_reserved": 0, "lat": 38.89918133333333, "name": "554eaf38d25e66e6b5d95fb6fbffc24f", "rental_uris": {"ios": "https://dc.lft.to/lastmile_qr_scan", "android": "https://dc.lft.to/lastmile_qr_scan"}, "type": "electric_scooter", "fusion_lat": 0.0, "lon": -76.93385266666667}, {"fusion_lon": 0.0, "bike_id": "3f95b4f6b6d7e53ea508b9bdee97e381", "is_disabled": 0, "is_reserved": 0, "lat": 38.90123716666667, "name": "3f95b4f6b6d7e53ea508b9bdee97e381", "rental_uris": {"ios": "https://dc.lft.to/lastmile_qr_scan", "android": "https://dc.lft.to/lastmile_qr_scan"}, "type": "electric_scooter", "fusion_lat": 0.0, "lon": -77.04343416666667}, {"fusion_lon": 0.0, "bike_id": "f24bd4b781df561a575d1adbddd18d46", "is_disabled": 0, "is_reserved": 0, "lat": 38.9038185, "name": "f24bd4b781df561a575d1adbddd18d46", "rental_uris": {"ios": "https://dc.lft.to/lastmile_qr_scan", "android": "https://dc.lft.to/lastmile_qr_scan"}, "type": "electric_scooter", "fusion_lat": 0.0, "lon": -77.06109216666667}, {"fusion_lon": 0.0, "bike_id": "70726731a8493868a5a76fb70929cfc5", "is_disabled": 0, "is_reserved": 0, "lat": 38.871653333333335, "name": "70726731a8493868a5a76fb70929cfc5", "rental_uris": {"ios": "https://dc.lft.to/lastmile_qr_scan", "android": "https://dc.lft.to/lastmile_qr_scan"}, "type": "electric_scooter", "fusion_lat": 0.0, "lon": -77.00641416666667}, {"fusion_lon": 0.0, "bike_id": "7ab0bc9f2cf88430b132c23c5c1ddbd5", "is_disabled": 0, "is_reserved": 0, "lat": 38.924676166666664, "name": "7ab0bc9f2cf88430b132c23c5c1ddbd5", "rental_uris": {"ios": "https://dc.lft.to/lastmile_qr_scan", "android": "https://dc.lft.to/lastmile_qr_scan"}, "type": "electric_scooter", "fusion_lat": 0.0, "lon": -77.0218915}, {"fusion_lon": 0.0, "bike_id": "119ccee7f4a223e6102395ad090dbb78", "is_disabled": 0, "is_reserved": 0, "lat": 38.912843333333335, "name": "119ccee7f4a223e6102395ad090dbb78", "rental_uris": {"ios": "https://dc.lft.to/lastmile_qr_scan", "android": "https://dc.lft.to/lastmile_qr_scan"}, "type": "electric_scooter", "fusion_lat": 0.0, "lon": -77.06792866666666}, {"fusion_lon": 0.0, "bike_id": "7c8d5a5017782508cc4587d3af25a9c8", "is_disabled": 0, "is_reserved": 0, "lat": 38.933457, "name": "7c8d5a5017782508cc4587d3af25a9c8", "rental_uris": {"ios": "https://dc.lft.to/lastmile_qr_scan", "android": "https://dc.lft.to/lastmile_qr_scan"}, "type": "electric_scooter", "fusion_lat": 0.0, "lon": -77.02738316666667}, {"fusion_lon": 0.0, "bike_id": "f080b1139fb18069451d55cabd266fa8", "is_disabled": 0, "is_reserved": 0, "lat": 38.8847325, "name": "f080b1139fb18069451d55cabd266fa8", "rental_uris": {"ios": "https://dc.lft.to/lastmile_qr_scan", "android": "https://dc.lft.to/lastmile_qr_scan"}, "type": "electric_scooter", "fusion_lat": 0.0, "lon": -77.03341183333333}, {"fusion_lon": 0.0, "bike_id": "c0044e9083173c59cab99a40f6ac01b1", "is_disabled": 0, "is_reserved": 0, "lat": 38.887715666666665, "name": "c0044e9083173c59cab99a40f6ac01b1", "rental_uris": {"ios": "https://dc.lft.to/lastmile_qr_scan", "android": "https://dc.lft.to/lastmile_qr_scan"}, "type": "electric_scooter", "fusion_lat": 0.0, "lon": -76.97733866666667}, {"fusion_lon": 0.0, "bike_id": "30b7b9bf829eb64eb9b28471c0416946", "is_disabled": 0, "is_reserved": 0, "lat": 38.91268916666667, "name": "30b7b9bf829eb64eb9b28471c0416946", "rental_uris": {"ios": "https://dc.lft.to/lastmile_qr_scan", "android": "https://dc.lft.to/lastmile_qr_scan"}, "type": "electric_scooter", "fusion_lat": 0.0, "lon": -77.04765533333334}, {"fusion_lon": 0.0, "bike_id": "335d4f7142ec3bbfca7def4437a5b0d5", "is_disabled": 0, "is_reserved": 0, "lat": 38.89909883333333, "name": "335d4f7142ec3bbfca7def4437a5b0d5", "rental_uris": {"ios": "https://dc.lft.to/lastmile_qr_scan", "android": "https://dc.lft.to/lastmile_qr_scan"}, "type": "electric_scooter", "fusion_lat": 0.0, "lon": -76.93392116666666}, {"fusion_lon": 0.0, "bike_id": "6e56051b80dbe1f30edae1ee5569e36b", "is_disabled": 0, "is_reserved": 0, "lat": 38.9170645, "name": "6e56051b80dbe1f30edae1ee5569e36b", "rental_uris": {"ios": "https://dc.lft.to/lastmile_qr_scan", "android": "https://dc.lft.to/lastmile_qr_scan"}, "type": "electric_scooter", "fusion_lat": 0.0, "lon": -77.03127433333333}, {"fusion_lon": 0.0, "bike_id": "4b1e1f178a346ae0f3cc891580bdcda9", "is_disabled": 0, "is_reserved": 0, "lat": 38.912535166666665, "name": "4b1e1f178a346ae0f3cc891580bdcda9", "rental_uris": {"ios": "https://dc.lft.to/lastmile_qr_scan", "android": "https://dc.lft.to/lastmile_qr_scan"}, "type": "electric_scooter", "fusion_lat": 0.0, "lon": -77.04769383333333}, {"fusion_lon": 0.0, "bike_id": "a0b8cb2100e79db841aa0c7858da5224", "is_disabled": 0, "is_reserved": 0, "lat": 38.92169833333333, "name": "a0b8cb2100e79db841aa0c7858da5224", "rental_uris": {"ios": "https://dc.lft.to/lastmile_qr_scan", "android": "https://dc.lft.to/lastmile_qr_scan"}, "type": "electric_scooter", "fusion_lat": 0.0, "lon": -77.03184416666667}, {"fusion_lon": 0.0, "bike_id": "3f22c571447f9656ef1adae91bc9597b", "is_disabled": 0, "is_reserved": 0, "lat": 38.9056585, "name": "3f22c571447f9656ef1adae91bc9597b", "rental_uris": {"ios": "https://dc.lft.to/lastmile_qr_scan", "android": "https://dc.lft.to/lastmile_qr_scan"}, "type": "electric_scooter", "fusion_lat": 0.0, "lon": -77.005628}, {"fusion_lon": 0.0, "bike_id": "0bbd5d9e5850e16e457c98252892fff1", "is_disabled": 0, "is_reserved": 0, "lat": 38.93118166666667, "name": "0bbd5d9e5850e16e457c98252892fff1", "rental_uris": {"ios": "https://dc.lft.to/lastmile_qr_scan", "android": "https://dc.lft.to/lastmile_qr_scan"}, "type": "electric_scooter", "fusion_lat": 0.0, "lon": -77.02099583333333}, {"fusion_lon": 0.0, "bike_id": "13bc6a449770ee56c07f557e99ebbde6", "is_disabled": 0, "is_reserved": 0, "lat": 38.92245666666667, "name": "13bc6a449770ee56c07f557e99ebbde6", "rental_uris": {"ios": "https://dc.lft.to/lastmile_qr_scan", "android": "https://dc.lft.to/lastmile_qr_scan"}, "type": "electric_scooter", "fusion_lat": 0.0, "lon": -77.008313}, {"fusion_lon": 0.0, "bike_id": "741b49f00513af5435c73907ad61f6fc", "is_disabled": 0, "is_reserved": 0, "lat": 38.881472333333335, "name": "741b49f00513af5435c73907ad61f6fc", "rental_uris": {"ios": "https://dc.lft.to/lastmile_qr_scan", "android": "https://dc.lft.to/lastmile_qr_scan"}, "type": "electric_bike", "fusion_lat": 0.0, "lon": -77.01307283333334}, {"fusion_lon": 0.0, "bike_id": "87b22772782fac8042e037ca6944680c", "is_disabled": 0, "is_reserved": 0, "lat": 38.902902166666664, "name": "87b22772782fac8042e037ca6944680c", "rental_uris": {"ios": "https://dc.lft.to/lastmile_qr_scan", "android": "https://dc.lft.to/lastmile_qr_scan"}, "type": "electric_scooter", "fusion_lat": 0.0, "lon": -77.047081}, {"fusion_lon": 0.0, "bike_id": "99218ec12481488bb7c4d7de4b05214e", "is_disabled": 0, "is_reserved": 0, "lat": 38.953581166666666, "name": "99218ec12481488bb7c4d7de4b05214e", "rental_uris": {"ios": "https://dc.lft.to/lastmile_qr_scan", "android": "https://dc.lft.to/lastmile_qr_scan"}, "type": "electric_bike", "fusion_lat": 0.0, "lon": -76.98091083333334}, {"fusion_lon": 0.0, "bike_id": "51a32f4eb203d02d1fc2980108bf0d0a", "is_disabled": 0, "is_reserved": 0, "lat": 38.921211166666666, "name": "51a32f4eb203d02d1fc2980108bf0d0a", "rental_uris": {"ios": "https://dc.lft.to/lastmile_qr_scan", "android": "https://dc.lft.to/lastmile_qr_scan"}, "type": "electric_scooter", "fusion_lat": 0.0, "lon": -77.0366105}, {"fusion_lon": 0.0, "bike_id": "1b17b96ad0c51ca8f0c595145192b5a2", "is_disabled": 0, "is_reserved": 0, "lat": 38.908639666666666, "name": "1b17b96ad0c51ca8f0c595145192b5a2", "rental_uris": {"ios": "https://dc.lft.to/lastmile_qr_scan", "android": "https://dc.lft.to/lastmile_qr_scan"}, "type": "electric_scooter", "fusion_lat": 0.0, "lon": -77.018346}, {"fusion_lon": 0.0, "bike_id": "00c67a1d43d868c5237a043d3ad650ea", "is_disabled": 0, "is_reserved": 0, "lat": 38.8948485, "name": "00c67a1d43d868c5237a043d3ad650ea", "rental_uris": {"ios": "https://dc.lft.to/lastmile_qr_scan", "android": "https://dc.lft.to/lastmile_qr_scan"}, "type": "electric_scooter", "fusion_lat": 0.0, "lon": -77.0550945}, {"fusion_lon": 0.0, "bike_id": "c5f9104c047bf9ecd866f346fb6bcf84", "is_disabled": 0, "is_reserved": 0, "lat": 38.892401666666665, "name": "c5f9104c047bf9ecd866f346fb6bcf84", "rental_uris": {"ios": "https://dc.lft.to/lastmile_qr_scan", "android": "https://dc.lft.to/lastmile_qr_scan"}, "type": "electric_scooter", "fusion_lat": 0.0, "lon": -77.03185366666666}, {"fusion_lon": 0.0, "bike_id": "6f6be291534b20210f249fafe9c39a72", "is_disabled": 0, "is_reserved": 0, "lat": 38.891613166666666, "name": "6f6be291534b20210f249fafe9c39a72", "rental_uris": {"ios": "https://dc.lft.to/lastmile_qr_scan", "android": "https://dc.lft.to/lastmile_qr_scan"}, "type": "electric_scooter", "fusion_lat": 0.0, "lon": -76.99153433333333}, {"fusion_lon": 0.0, "bike_id": "4be252e030ded077487b01577581e11b", "is_disabled": 0, "is_reserved": 0, "lat": 38.92007, "name": "4be252e030ded077487b01577581e11b", "rental_uris": {"ios": "https://dc.lft.to/lastmile_qr_scan", "android": "https://dc.lft.to/lastmile_qr_scan"}, "type": "electric_scooter", "fusion_lat": 0.0, "lon": -77.02165266666667}, {"fusion_lon": 0.0, "bike_id": "6f30493d7c93236c644a2d01e0a45712", "is_disabled": 0, "is_reserved": 0, "lat": 38.91878766666667, "name": "6f30493d7c93236c644a2d01e0a45712", "rental_uris": {"ios": "https://dc.lft.to/lastmile_qr_scan", "android": "https://dc.lft.to/lastmile_qr_scan"}, "type": "electric_bike", "fusion_lat": 0.0, "lon": -77.016457}, {"fusion_lon": 0.0, "bike_id": "60544245b2ce7e809e01642cca6364cb", "is_disabled": 0, "is_reserved": 0, "lat": 38.9006405, "name": "60544245b2ce7e809e01642cca6364cb", "rental_uris": {"ios": "https://dc.lft.to/lastmile_qr_scan", "android": "https://dc.lft.to/lastmile_qr_scan"}, "type": "electric_scooter", "fusion_lat": 0.0, "lon": -77.04591083333334}, {"fusion_lon": 0.0, "bike_id": "a304253110a9ec1d9f517c50347645d7", "is_disabled": 0, "is_reserved": 0, "lat": 38.91701466666667, "name": "a304253110a9ec1d9f517c50347645d7", "rental_uris": {"ios": "https://dc.lft.to/lastmile_qr_scan", "android": "https://dc.lft.to/lastmile_qr_scan"}, "type": "electric_scooter", "fusion_lat": 0.0, "lon": -77.0922785}, {"fusion_lon": 0.0, "bike_id": "8478607604c384fe64212b6fda4f37d3", "is_disabled": 0, "is_reserved": 0, "lat": 38.881908, "name": "8478607604c384fe64212b6fda4f37d3", "rental_uris": {"ios": "https://dc.lft.to/lastmile_qr_scan", "android": "https://dc.lft.to/lastmile_qr_scan"}, "type": "electric_scooter", "fusion_lat": 0.0, "lon": -77.020985}, {"fusion_lon": 0.0, "bike_id": "0a7239f84cd4b3d16585bd14802f0916", "is_disabled": 0, "is_reserved": 0, "lat": 38.9119385, "name": "0a7239f84cd4b3d16585bd14802f0916", "rental_uris": {"ios": "https://dc.lft.to/lastmile_qr_scan", "android": "https://dc.lft.to/lastmile_qr_scan"}, "type": "electric_scooter", "fusion_lat": 0.0, "lon": -77.03216666666667}, {"fusion_lon": 0.0, "bike_id": "2579904012772b6745adea199c231281", "is_disabled": 0, "is_reserved": 0, "lat": 38.902433, "name": "2579904012772b6745adea199c231281", "rental_uris": {"ios": "https://dc.lft.to/lastmile_qr_scan", "android": "https://dc.lft.to/lastmile_qr_scan"}, "type": "electric_scooter", "fusion_lat": 0.0, "lon": -77.03919366666666}, {"fusion_lon": 0.0, "bike_id": "55034f393288aed95a4ad808a1783e63", "is_disabled": 0, "is_reserved": 0, "lat": 38.92323433333333, "name": "55034f393288aed95a4ad808a1783e63", "rental_uris": {"ios": "https://dc.lft.to/lastmile_qr_scan", "android": "https://dc.lft.to/lastmile_qr_scan"}, "type": "electric_scooter", "fusion_lat": 0.0, "lon": -77.039145}, {"fusion_lon": 0.0, "bike_id": "d114b8e51fdcd6f6c565721de66e694e", "is_disabled": 0, "is_reserved": 0, "lat": 38.91812866666667, "name": "d114b8e51fdcd6f6c565721de66e694e", "rental_uris": {"ios": "https://dc.lft.to/lastmile_qr_scan", "android": "https://dc.lft.to/lastmile_qr_scan"}, "type": "electric_scooter", "fusion_lat": 0.0, "lon": -77.0497715}, {"fusion_lon": 0.0, "bike_id": "2b17f9a7621de75ca44419ef8006f89e", "is_disabled": 0, "is_reserved": 0, "lat": 38.89973166666667, "name": "2b17f9a7621de75ca44419ef8006f89e", "rental_uris": {"ios": "https://dc.lft.to/lastmile_qr_scan", "android": "https://dc.lft.to/lastmile_qr_scan"}, "type": "electric_scooter", "fusion_lat": 0.0, "lon": -77.01934866666667}, {"fusion_lon": 0.0, "bike_id": "112d17db66b237e5d34168122479e37b", "is_disabled": 0, "is_reserved": 0, "lat": 38.912431833333336, "name": "112d17db66b237e5d34168122479e37b", "rental_uris": {"ios": "https://dc.lft.to/lastmile_qr_scan", "android": "https://dc.lft.to/lastmile_qr_scan"}, "type": "electric_scooter", "fusion_lat": 0.0, "lon": -77.03840733333334}, {"fusion_lon": 0.0, "bike_id": "ced36890de5a07f70755f9a70dddef9f", "is_disabled": 0, "is_reserved": 0, "lat": 38.89135566666667, "name": "ced36890de5a07f70755f9a70dddef9f", "rental_uris": {"ios": "https://dc.lft.to/lastmile_qr_scan", "android": "https://dc.lft.to/lastmile_qr_scan"}, "type": "electric_scooter", "fusion_lat": 0.0, "lon": -76.99953483333333}, {"fusion_lon": 0.0, "bike_id": "5cca53ab021ea9a32a1c996c57d3325c", "is_disabled": 0, "is_reserved": 0, "lat": 38.876675, "name": "5cca53ab021ea9a32a1c996c57d3325c", "rental_uris": {"ios": "https://dc.lft.to/lastmile_qr_scan", "android": "https://dc.lft.to/lastmile_qr_scan"}, "type": "electric_bike", "fusion_lat": 0.0, "lon": -77.01463716666666}, {"fusion_lon": 0.0, "bike_id": "969750244036b2e3dd78b807449a161e", "is_disabled": 0, "is_reserved": 0, "lat": 38.900926, "name": "969750244036b2e3dd78b807449a161e", "rental_uris": {"ios": "https://dc.lft.to/lastmile_qr_scan", "android": "https://dc.lft.to/lastmile_qr_scan"}, "type": "electric_scooter", "fusion_lat": 0.0, "lon": -76.9833495}, {"fusion_lon": 0.0, "bike_id": "d1f2ad02a0bba482f7f9c7ce9abc583b", "is_disabled": 0, "is_reserved": 0, "lat": 38.94463316666667, "name": "d1f2ad02a0bba482f7f9c7ce9abc583b", "rental_uris": {"ios": "https://dc.lft.to/lastmile_qr_scan", "android": "https://dc.lft.to/lastmile_qr_scan"}, "type": "electric_scooter", "fusion_lat": 0.0, "lon": -77.00658266666667}, {"fusion_lon": 0.0, "bike_id": "ddbeebc16799ddc7c6230791620208fe", "is_disabled": 0, "is_reserved": 0, "lat": 38.915398, "name": "ddbeebc16799ddc7c6230791620208fe", "rental_uris": {"ios": "https://dc.lft.to/lastmile_qr_scan", "android": "https://dc.lft.to/lastmile_qr_scan"}, "type": "electric_scooter", "fusion_lat": 0.0, "lon": -77.044249}, {"fusion_lon": 0.0, "bike_id": "a9926b2818fc57a2ad8c40c7b3777cde", "is_disabled": 0, "is_reserved": 0, "lat": 38.8974135, "name": "a9926b2818fc57a2ad8c40c7b3777cde", "rental_uris": {"ios": "https://dc.lft.to/lastmile_qr_scan", "android": "https://dc.lft.to/lastmile_qr_scan"}, "type": "electric_scooter", "fusion_lat": 0.0, "lon": -77.01049283333333}, {"fusion_lon": 0.0, "bike_id": "259c9b5da06298c0ec2892191da3efee", "is_disabled": 0, "is_reserved": 0, "lat": 38.89559883333333, "name": "259c9b5da06298c0ec2892191da3efee", "rental_uris": {"ios": "https://dc.lft.to/lastmile_qr_scan", "android": "https://dc.lft.to/lastmile_qr_scan"}, "type": "electric_scooter", "fusion_lat": 0.0, "lon": -76.93059133333334}, {"fusion_lon": 0.0, "bike_id": "5ddf9f9a77c03092c358f392bc219042", "is_disabled": 0, "is_reserved": 0, "lat": 38.88513533333333, "name": "5ddf9f9a77c03092c358f392bc219042", "rental_uris": {"ios": "https://dc.lft.to/lastmile_qr_scan", "android": "https://dc.lft.to/lastmile_qr_scan"}, "type": "electric_scooter", "fusion_lat": 0.0, "lon": -77.00223816666667}, {"fusion_lon": 0.0, "bike_id": "23f8f83ae26d1541f625fe8ae336e26f", "is_disabled": 0, "is_reserved": 0, "lat": 38.902109, "name": "23f8f83ae26d1541f625fe8ae336e26f", "rental_uris": {"ios": "https://dc.lft.to/lastmile_qr_scan", "android": "https://dc.lft.to/lastmile_qr_scan"}, "type": "electric_scooter", "fusion_lat": 0.0, "lon": -77.05030483333333}, {"fusion_lon": 0.0, "bike_id": "619bcc6b7850e67faad684400d4f4e0d", "is_disabled": 0, "is_reserved": 0, "lat": 38.908999, "name": "619bcc6b7850e67faad684400d4f4e0d", "rental_uris": {"ios": "https://dc.lft.to/lastmile_qr_scan", "android": "https://dc.lft.to/lastmile_qr_scan"}, "type": "electric_scooter", "fusion_lat": 0.0, "lon": -77.031499}, {"fusion_lon": 0.0, "bike_id": "29f3d711fe1de0578b049f1ca0c5caa0", "is_disabled": 0, "is_reserved": 0, "lat": 38.90364433333333, "name": "29f3d711fe1de0578b049f1ca0c5caa0", "rental_uris": {"ios": "https://dc.lft.to/lastmile_qr_scan", "android": "https://dc.lft.to/lastmile_qr_scan"}, "type": "electric_scooter", "fusion_lat": 0.0, "lon": -77.02201866666667}, {"fusion_lon": 0.0, "bike_id": "c719bc69d5f07ca4ed7ff5e0e12efd94", "is_disabled": 0, "is_reserved": 0, "lat": 38.896264, "name": "c719bc69d5f07ca4ed7ff5e0e12efd94", "rental_uris": {"ios": "https://dc.lft.to/lastmile_qr_scan", "android": "https://dc.lft.to/lastmile_qr_scan"}, "type": "electric_scooter", "fusion_lat": 0.0, "lon": -77.04508083333333}, {"fusion_lon": 0.0, "bike_id": "eb9d6dbb9a1d6984f7395e9afc0f1395", "is_disabled": 0, "is_reserved": 0, "lat": 38.905709, "name": "eb9d6dbb9a1d6984f7395e9afc0f1395", "rental_uris": {"ios": "https://dc.lft.to/lastmile_qr_scan", "android": "https://dc.lft.to/lastmile_qr_scan"}, "type": "electric_scooter", "fusion_lat": 0.0, "lon": -77.00601316666666}, {"fusion_lon": 0.0, "bike_id": "5321ad0d40f1f1dcdbb2b8369ee42648", "is_disabled": 0, "is_reserved": 0, "lat": 38.90277483333333, "name": "5321ad0d40f1f1dcdbb2b8369ee42648", "rental_uris": {"ios": "https://dc.lft.to/lastmile_qr_scan", "android": "https://dc.lft.to/lastmile_qr_scan"}, "type": "electric_scooter", "fusion_lat": 0.0, "lon": -77.0401235}, {"fusion_lon": 0.0, "bike_id": "84debff185feba1f58cca5e422bab66c", "is_disabled": 0, "is_reserved": 0, "lat": 38.90481066666667, "name": "84debff185feba1f58cca5e422bab66c", "rental_uris": {"ios": "https://dc.lft.to/lastmile_qr_scan", "android": "https://dc.lft.to/lastmile_qr_scan"}, "type": "electric_scooter", "fusion_lat": 0.0, "lon": -77.01679133333333}, {"fusion_lon": 0.0, "bike_id": "2695ff9967138d2348acc108a1baca33", "is_disabled": 0, "is_reserved": 0, "lat": 38.92009733333333, "name": "2695ff9967138d2348acc108a1baca33", "rental_uris": {"ios": "https://dc.lft.to/lastmile_qr_scan", "android": "https://dc.lft.to/lastmile_qr_scan"}, "type": "electric_scooter", "fusion_lat": 0.0, "lon": -77.021645}, {"fusion_lon": 0.0, "bike_id": "788e210084445036980de66ceb9ed482", "is_disabled": 0, "is_reserved": 0, "lat": 38.881214666666665, "name": "788e210084445036980de66ceb9ed482", "rental_uris": {"ios": "https://dc.lft.to/lastmile_qr_scan", "android": "https://dc.lft.to/lastmile_qr_scan"}, "type": "electric_bike", "fusion_lat": 0.0, "lon": -77.016619}, {"fusion_lon": 0.0, "bike_id": "5a8581e8524c97a230d6e95e4e0c1a27", "is_disabled": 0, "is_reserved": 0, "lat": 38.920683, "name": "5a8581e8524c97a230d6e95e4e0c1a27", "rental_uris": {"ios": "https://dc.lft.to/lastmile_qr_scan", "android": "https://dc.lft.to/lastmile_qr_scan"}, "type": "electric_scooter", "fusion_lat": 0.0, "lon": -77.0789455}, {"fusion_lon": 0.0, "bike_id": "3f491e83f993826f55525ee103ed92e9", "is_disabled": 0, "is_reserved": 0, "lat": 38.90599433333333, "name": "3f491e83f993826f55525ee103ed92e9", "rental_uris": {"ios": "https://dc.lft.to/lastmile_qr_scan", "android": "https://dc.lft.to/lastmile_qr_scan"}, "type": "electric_scooter", "fusion_lat": 0.0, "lon": -77.02602816666666}, {"fusion_lon": 0.0, "bike_id": "0b5cd2e08c51657ba097e4302907366a", "is_disabled": 0, "is_reserved": 0, "lat": 38.899679, "name": "0b5cd2e08c51657ba097e4302907366a", "rental_uris": {"ios": "https://dc.lft.to/lastmile_qr_scan", "android": "https://dc.lft.to/lastmile_qr_scan"}, "type": "electric_scooter", "fusion_lat": 0.0, "lon": -77.02657516666666}, {"fusion_lon": 0.0, "bike_id": "a9846c6b8118ddba40a51be7fbc45373", "is_disabled": 0, "is_reserved": 0, "lat": 39.08428633333333, "name": "a9846c6b8118ddba40a51be7fbc45373", "rental_uris": {"ios": "https://dc.lft.to/lastmile_qr_scan", "android": "https://dc.lft.to/lastmile_qr_scan"}, "type": "electric_bike", "fusion_lat": 0.0, "lon": -76.95137716666666}, {"fusion_lon": 0.0, "bike_id": "abaab873bb758c3c8d0305fc53b9f5a3", "is_disabled": 0, "is_reserved": 0, "lat": 38.909399, "name": "abaab873bb758c3c8d0305fc53b9f5a3", "rental_uris": {"ios": "https://dc.lft.to/lastmile_qr_scan", "android": "https://dc.lft.to/lastmile_qr_scan"}, "type": "electric_scooter", "fusion_lat": 0.0, "lon": -76.93595566666667}, {"fusion_lon": 0.0, "bike_id": "10311cd983aa88238a758df628a79eca", "is_disabled": 0, "is_reserved": 0, "lat": 38.92715, "name": "10311cd983aa88238a758df628a79eca", "rental_uris": {"ios": "https://dc.lft.to/lastmile_qr_scan", "android": "https://dc.lft.to/lastmile_qr_scan"}, "type": "electric_scooter", "fusion_lat": 0.0, "lon": -77.02075933333333}, {"fusion_lon": 0.0, "bike_id": "8c9f4b28c6f2e1ece0e3b3c4a01eaaa8", "is_disabled": 0, "is_reserved": 0, "lat": 38.9145315, "name": "8c9f4b28c6f2e1ece0e3b3c4a01eaaa8", "rental_uris": {"ios": "https://dc.lft.to/lastmile_qr_scan", "android": "https://dc.lft.to/lastmile_qr_scan"}, "type": "electric_scooter", "fusion_lat": 0.0, "lon": -77.02167033333333}, {"fusion_lon": 0.0, "bike_id": "0b18a8dca18e8dd0779b6b553197efa3", "is_disabled": 0, "is_reserved": 0, "lat": 38.908154833333334, "name": "0b18a8dca18e8dd0779b6b553197efa3", "rental_uris": {"ios": "https://dc.lft.to/lastmile_qr_scan", "android": "https://dc.lft.to/lastmile_qr_scan"}, "type": "electric_scooter", "fusion_lat": 0.0, "lon": -77.0636585}, {"fusion_lon": 0.0, "bike_id": "ec384e24cbc04209e3200d602206c2df", "is_disabled": 0, "is_reserved": 0, "lat": 38.909582, "name": "ec384e24cbc04209e3200d602206c2df", "rental_uris": {"ios": "https://dc.lft.to/lastmile_qr_scan", "android": "https://dc.lft.to/lastmile_qr_scan"}, "type": "electric_scooter", "fusion_lat": 0.0, "lon": -77.02800533333334}, {"fusion_lon": 0.0, "bike_id": "400409f6f33c9db00a18a44b3cec2296", "is_disabled": 0, "is_reserved": 0, "lat": 38.931643, "name": "400409f6f33c9db00a18a44b3cec2296", "rental_uris": {"ios": "https://dc.lft.to/lastmile_qr_scan", "android": "https://dc.lft.to/lastmile_qr_scan"}, "type": "electric_scooter", "fusion_lat": 0.0, "lon": -77.05609283333334}, {"fusion_lon": 0.0, "bike_id": "907214a11fc37aa66b85cd228c81a120", "is_disabled": 0, "is_reserved": 0, "lat": 38.89731, "name": "907214a11fc37aa66b85cd228c81a120", "rental_uris": {"ios": "https://dc.lft.to/lastmile_qr_scan", "android": "https://dc.lft.to/lastmile_qr_scan"}, "type": "electric_scooter", "fusion_lat": 0.0, "lon": -77.04986716666667}, {"fusion_lon": 0.0, "bike_id": "48b47b514bd9a97f0710a6d44b35b6d4", "is_disabled": 0, "is_reserved": 0, "lat": 38.929637, "name": "48b47b514bd9a97f0710a6d44b35b6d4", "rental_uris": {"ios": "https://dc.lft.to/lastmile_qr_scan", "android": "https://dc.lft.to/lastmile_qr_scan"}, "type": "electric_scooter", "fusion_lat": 0.0, "lon": -77.0318715}, {"fusion_lon": 0.0, "bike_id": "aa8448060c9f4b0f7cba3ab3d84a4f8f", "is_disabled": 0, "is_reserved": 0, "lat": 38.862021, "name": "aa8448060c9f4b0f7cba3ab3d84a4f8f", "rental_uris": {"ios": "https://dc.lft.to/lastmile_qr_scan", "android": "https://dc.lft.to/lastmile_qr_scan"}, "type": "electric_scooter", "fusion_lat": 0.0, "lon": -76.99461133333334}, {"fusion_lon": 0.0, "bike_id": "c33d4fa72aa12eadc6f2f06781e33a9b", "is_disabled": 0, "is_reserved": 0, "lat": 38.9100215, "name": "c33d4fa72aa12eadc6f2f06781e33a9b", "rental_uris": {"ios": "https://dc.lft.to/lastmile_qr_scan", "android": "https://dc.lft.to/lastmile_qr_scan"}, "type": "electric_scooter", "fusion_lat": 0.0, "lon": -77.0045895}, {"fusion_lon": 0.0, "bike_id": "b43f2b5947f024ead8157e4556e0cf6c", "is_disabled": 0, "is_reserved": 0, "lat": 38.89230216666667, "name": "b43f2b5947f024ead8157e4556e0cf6c", "rental_uris": {"ios": "https://dc.lft.to/lastmile_qr_scan", "android": "https://dc.lft.to/lastmile_qr_scan"}, "type": "electric_scooter", "fusion_lat": 0.0, "lon": -77.03167933333333}, {"fusion_lon": 0.0, "bike_id": "6b2ffcab67e9db5e246a1165c0a9d9a6", "is_disabled": 0, "is_reserved": 0, "lat": 38.92795566666667, "name": "6b2ffcab67e9db5e246a1165c0a9d9a6", "rental_uris": {"ios": "https://dc.lft.to/lastmile_qr_scan", "android": "https://dc.lft.to/lastmile_qr_scan"}, "type": "electric_bike", "fusion_lat": 0.0, "lon": -77.22935966666667}, {"fusion_lon": 0.0, "bike_id": "0218bc21ab36cecf0a1aabbaeba975b1", "is_disabled": 0, "is_reserved": 0, "lat": 38.925897166666665, "name": "0218bc21ab36cecf0a1aabbaeba975b1", "rental_uris": {"ios": "https://dc.lft.to/lastmile_qr_scan", "android": "https://dc.lft.to/lastmile_qr_scan"}, "type": "electric_scooter", "fusion_lat": 0.0, "lon": -77.024935}, {"fusion_lon": 0.0, "bike_id": "448904cd2f35b927c9de101e06b3ad25", "is_disabled": 0, "is_reserved": 0, "lat": 38.9368735, "name": "448904cd2f35b927c9de101e06b3ad25", "rental_uris": {"ios": "https://dc.lft.to/lastmile_qr_scan", "android": "https://dc.lft.to/lastmile_qr_scan"}, "type": "electric_bike", "fusion_lat": 0.0, "lon": -77.05645333333334}, {"fusion_lon": 0.0, "bike_id": "f00605456a5edb8ffc8f953e1b218608", "is_disabled": 0, "is_reserved": 0, "lat": 38.924271833333336, "name": "f00605456a5edb8ffc8f953e1b218608", "rental_uris": {"ios": "https://dc.lft.to/lastmile_qr_scan", "android": "https://dc.lft.to/lastmile_qr_scan"}, "type": "electric_scooter", "fusion_lat": 0.0, "lon": -77.04490716666666}, {"fusion_lon": 0.0, "bike_id": "8f2232a3e1405d24cc338181e77467be", "is_disabled": 0, "is_reserved": 0, "lat": 38.88393633333333, "name": "8f2232a3e1405d24cc338181e77467be", "rental_uris": {"ios": "https://dc.lft.to/lastmile_qr_scan", "android": "https://dc.lft.to/lastmile_qr_scan"}, "type": "electric_scooter", "fusion_lat": 0.0, "lon": -77.04451233333333}, {"fusion_lon": 0.0, "bike_id": "31dd374609b207f7d8409fe090c8aac2", "is_disabled": 0, "is_reserved": 0, "lat": 38.924134333333335, "name": "31dd374609b207f7d8409fe090c8aac2", "rental_uris": {"ios": "https://dc.lft.to/lastmile_qr_scan", "android": "https://dc.lft.to/lastmile_qr_scan"}, "type": "electric_scooter", "fusion_lat": 0.0, "lon": -77.036359}, {"fusion_lon": 0.0, "bike_id": "742e9201566a2f4fa8bd70300c0af757", "is_disabled": 0, "is_reserved": 0, "lat": 38.91343666666667, "name": "742e9201566a2f4fa8bd70300c0af757", "rental_uris": {"ios": "https://dc.lft.to/lastmile_qr_scan", "android": "https://dc.lft.to/lastmile_qr_scan"}, "type": "electric_scooter", "fusion_lat": 0.0, "lon": -77.0423585}, {"fusion_lon": 0.0, "bike_id": "e48a37841ad995137b938a32c70a4934", "is_disabled": 0, "is_reserved": 0, "lat": 38.9455635, "name": "e48a37841ad995137b938a32c70a4934", "rental_uris": {"ios": "https://dc.lft.to/lastmile_qr_scan", "android": "https://dc.lft.to/lastmile_qr_scan"}, "type": "electric_scooter", "fusion_lat": 0.0, "lon": -77.0641215}, {"fusion_lon": 0.0, "bike_id": "0f064b229248c9815602992946af6528", "is_disabled": 0, "is_reserved": 0, "lat": 38.9075285, "name": "0f064b229248c9815602992946af6528", "rental_uris": {"ios": "https://dc.lft.to/lastmile_qr_scan", "android": "https://dc.lft.to/lastmile_qr_scan"}, "type": "electric_scooter", "fusion_lat": 0.0, "lon": -77.041658}, {"fusion_lon": 0.0, "bike_id": "5a4278470fff4a8ebbd1382d3830ff50", "is_disabled": 0, "is_reserved": 0, "lat": 38.813366333333335, "name": "5a4278470fff4a8ebbd1382d3830ff50", "rental_uris": {"ios": "https://dc.lft.to/lastmile_qr_scan", "android": "https://dc.lft.to/lastmile_qr_scan"}, "type": "electric_bike", "fusion_lat": 0.0, "lon": -77.05118483333334}, {"fusion_lon": 0.0, "bike_id": "80db4781e61096e142c3ccb943edd4b3", "is_disabled": 0, "is_reserved": 0, "lat": 38.924116166666664, "name": "80db4781e61096e142c3ccb943edd4b3", "rental_uris": {"ios": "https://dc.lft.to/lastmile_qr_scan", "android": "https://dc.lft.to/lastmile_qr_scan"}, "type": "electric_scooter", "fusion_lat": 0.0, "lon": -77.0228105}, {"fusion_lon": 0.0, "bike_id": "82488889408bf09c614643fd416f7dcd", "is_disabled": 0, "is_reserved": 0, "lat": 38.900971166666665, "name": "82488889408bf09c614643fd416f7dcd", "rental_uris": {"ios": "https://dc.lft.to/lastmile_qr_scan", "android": "https://dc.lft.to/lastmile_qr_scan"}, "type": "electric_bike", "fusion_lat": 0.0, "lon": -76.98349583333334}, {"fusion_lon": 0.0, "bike_id": "76514b4c1fb1156b6579a336c143fb15", "is_disabled": 0, "is_reserved": 0, "lat": 38.9000135, "name": "76514b4c1fb1156b6579a336c143fb15", "rental_uris": {"ios": "https://dc.lft.to/lastmile_qr_scan", "android": "https://dc.lft.to/lastmile_qr_scan"}, "type": "electric_scooter", "fusion_lat": 0.0, "lon": -76.99855}, {"fusion_lon": 0.0, "bike_id": "900e678f675252f5d972822fbcfb59c5", "is_disabled": 0, "is_reserved": 0, "lat": 38.946339333333334, "name": "900e678f675252f5d972822fbcfb59c5", "rental_uris": {"ios": "https://dc.lft.to/lastmile_qr_scan", "android": "https://dc.lft.to/lastmile_qr_scan"}, "type": "electric_scooter", "fusion_lat": 0.0, "lon": -77.0227335}, {"fusion_lon": 0.0, "bike_id": "1cc88114d8a31692d135970872fef665", "is_disabled": 0, "is_reserved": 0, "lat": 38.896079, "name": "1cc88114d8a31692d135970872fef665", "rental_uris": {"ios": "https://dc.lft.to/lastmile_qr_scan", "android": "https://dc.lft.to/lastmile_qr_scan"}, "type": "electric_scooter", "fusion_lat": 0.0, "lon": -76.99960033333333}, {"fusion_lon": 0.0, "bike_id": "7053629dadf44108a566558f69fadbbb", "is_disabled": 0, "is_reserved": 0, "lat": 38.90396533333333, "name": "7053629dadf44108a566558f69fadbbb", "rental_uris": {"ios": "https://dc.lft.to/lastmile_qr_scan", "android": "https://dc.lft.to/lastmile_qr_scan"}, "type": "electric_scooter", "fusion_lat": 0.0, "lon": -77.0042365}, {"fusion_lon": 0.0, "bike_id": "c82d25f116e97bf2da28016ccda9f29d", "is_disabled": 0, "is_reserved": 0, "lat": 38.8765455, "name": "c82d25f116e97bf2da28016ccda9f29d", "rental_uris": {"ios": "https://dc.lft.to/lastmile_qr_scan", "android": "https://dc.lft.to/lastmile_qr_scan"}, "type": "electric_scooter", "fusion_lat": 0.0, "lon": -77.00710466666666}, {"fusion_lon": 0.0, "bike_id": "3b8165529cbe5d7830bbda9a624ef2b3", "is_disabled": 0, "is_reserved": 0, "lat": 38.9027235, "name": "3b8165529cbe5d7830bbda9a624ef2b3", "rental_uris": {"ios": "https://dc.lft.to/lastmile_qr_scan", "android": "https://dc.lft.to/lastmile_qr_scan"}, "type": "electric_scooter", "fusion_lat": 0.0, "lon": -77.00323016666667}, {"fusion_lon": 0.0, "bike_id": "cf81e2d17c55b44efe3b3509dd18114b", "is_disabled": 0, "is_reserved": 0, "lat": 38.92701066666667, "name": "cf81e2d17c55b44efe3b3509dd18114b", "rental_uris": {"ios": "https://dc.lft.to/lastmile_qr_scan", "android": "https://dc.lft.to/lastmile_qr_scan"}, "type": "electric_scooter", "fusion_lat": 0.0, "lon": -76.99509616666667}, {"fusion_lon": 0.0, "bike_id": "f956aafc919c70f39c471fbdd7832dac", "is_disabled": 0, "is_reserved": 0, "lat": 38.9193135, "name": "f956aafc919c70f39c471fbdd7832dac", "rental_uris": {"ios": "https://dc.lft.to/lastmile_qr_scan", "android": "https://dc.lft.to/lastmile_qr_scan"}, "type": "electric_scooter", "fusion_lat": 0.0, "lon": -77.0248035}, {"fusion_lon": 0.0, "bike_id": "e6b33c5062d8fdf6e6b8a924b3e4a862", "is_disabled": 0, "is_reserved": 0, "lat": 38.92418266666667, "name": "e6b33c5062d8fdf6e6b8a924b3e4a862", "rental_uris": {"ios": "https://dc.lft.to/lastmile_qr_scan", "android": "https://dc.lft.to/lastmile_qr_scan"}, "type": "electric_scooter", "fusion_lat": 0.0, "lon": -77.02130216666667}, {"fusion_lon": 0.0, "bike_id": "cf9b5c32a0d21f149a3a061d5055515f", "is_disabled": 0, "is_reserved": 0, "lat": 38.908317, "name": "cf9b5c32a0d21f149a3a061d5055515f", "rental_uris": {"ios": "https://dc.lft.to/lastmile_qr_scan", "android": "https://dc.lft.to/lastmile_qr_scan"}, "type": "electric_scooter", "fusion_lat": 0.0, "lon": -76.93474}, {"fusion_lon": 0.0, "bike_id": "b27e169202e28e74860554d2a015fb03", "is_disabled": 0, "is_reserved": 0, "lat": 38.88277383333333, "name": "b27e169202e28e74860554d2a015fb03", "rental_uris": {"ios": "https://dc.lft.to/lastmile_qr_scan", "android": "https://dc.lft.to/lastmile_qr_scan"}, "type": "electric_scooter", "fusion_lat": 0.0, "lon": -76.93557433333334}, {"fusion_lon": 0.0, "bike_id": "18f0f1f95e284bfa7be1c38688d3b3e8", "is_disabled": 0, "is_reserved": 0, "lat": 38.907154, "name": "18f0f1f95e284bfa7be1c38688d3b3e8", "rental_uris": {"ios": "https://dc.lft.to/lastmile_qr_scan", "android": "https://dc.lft.to/lastmile_qr_scan"}, "type": "electric_bike", "fusion_lat": 0.0, "lon": -77.02002116666667}, {"fusion_lon": 0.0, "bike_id": "50c1051e3a6dfb7df7c62a9ea59dfc21", "is_disabled": 0, "is_reserved": 0, "lat": 38.852433833333336, "name": "50c1051e3a6dfb7df7c62a9ea59dfc21", "rental_uris": {"ios": "https://dc.lft.to/lastmile_qr_scan", "android": "https://dc.lft.to/lastmile_qr_scan"}, "type": "electric_bike", "fusion_lat": 0.0, "lon": -77.11406716666667}, {"fusion_lon": 0.0, "bike_id": "bf8975b41c1fce86c2f666b9abae8129", "is_disabled": 0, "is_reserved": 0, "lat": 38.90130416666667, "name": "bf8975b41c1fce86c2f666b9abae8129", "rental_uris": {"ios": "https://dc.lft.to/lastmile_qr_scan", "android": "https://dc.lft.to/lastmile_qr_scan"}, "type": "electric_scooter", "fusion_lat": 0.0, "lon": -77.00255933333334}, {"fusion_lon": 0.0, "bike_id": "e40115386c395392f7f2308c513a77a0", "is_disabled": 0, "is_reserved": 0, "lat": 39.0064855, "name": "e40115386c395392f7f2308c513a77a0", "rental_uris": {"ios": "https://dc.lft.to/lastmile_qr_scan", "android": "https://dc.lft.to/lastmile_qr_scan"}, "type": "electric_bike", "fusion_lat": 0.0, "lon": -76.90023716666667}, {"fusion_lon": 0.0, "bike_id": "411fdc0d3148893bd9872a30b7e671e9", "is_disabled": 0, "is_reserved": 0, "lat": 38.90534916666667, "name": "411fdc0d3148893bd9872a30b7e671e9", "rental_uris": {"ios": "https://dc.lft.to/lastmile_qr_scan", "android": "https://dc.lft.to/lastmile_qr_scan"}, "type": "electric_scooter", "fusion_lat": 0.0, "lon": -77.01723866666667}, {"fusion_lon": 0.0, "bike_id": "37304d1334d0483b961e75b443de53eb", "is_disabled": 0, "is_reserved": 0, "lat": 38.880072, "name": "37304d1334d0483b961e75b443de53eb", "rental_uris": {"ios": "https://dc.lft.to/lastmile_qr_scan", "android": "https://dc.lft.to/lastmile_qr_scan"}, "type": "electric_scooter", "fusion_lat": 0.0, "lon": -76.99836}, {"fusion_lon": 0.0, "bike_id": "4ffa48670833fa32794cc37562ee1c77", "is_disabled": 0, "is_reserved": 0, "lat": 38.927181166666664, "name": "4ffa48670833fa32794cc37562ee1c77", "rental_uris": {"ios": "https://dc.lft.to/lastmile_qr_scan", "android": "https://dc.lft.to/lastmile_qr_scan"}, "type": "electric_scooter", "fusion_lat": 0.0, "lon": -77.022872}, {"fusion_lon": 0.0, "bike_id": "0cb26360f8d57e59668096b4d0eb9370", "is_disabled": 0, "is_reserved": 0, "lat": 38.9166085, "name": "0cb26360f8d57e59668096b4d0eb9370", "rental_uris": {"ios": "https://dc.lft.to/lastmile_qr_scan", "android": "https://dc.lft.to/lastmile_qr_scan"}, "type": "electric_scooter", "fusion_lat": 0.0, "lon": -77.0472885}, {"fusion_lon": 0.0, "bike_id": "21f74b6e40ed17d91755926029149f82", "is_disabled": 0, "is_reserved": 0, "lat": 38.906067, "name": "21f74b6e40ed17d91755926029149f82", "rental_uris": {"ios": "https://dc.lft.to/lastmile_qr_scan", "android": "https://dc.lft.to/lastmile_qr_scan"}, "type": "electric_scooter", "fusion_lat": 0.0, "lon": -77.02112916666667}, {"fusion_lon": 0.0, "bike_id": "e97068948a41d436b7acd8ee7442a2cd", "is_disabled": 0, "is_reserved": 0, "lat": 38.91808733333333, "name": "e97068948a41d436b7acd8ee7442a2cd", "rental_uris": {"ios": "https://dc.lft.to/lastmile_qr_scan", "android": "https://dc.lft.to/lastmile_qr_scan"}, "type": "electric_scooter", "fusion_lat": 0.0, "lon": -77.03441116666667}, {"fusion_lon": 0.0, "bike_id": "4c99e567918cbc0453522c076bd3e13c", "is_disabled": 0, "is_reserved": 0, "lat": 38.86124616666667, "name": "4c99e567918cbc0453522c076bd3e13c", "rental_uris": {"ios": "https://dc.lft.to/lastmile_qr_scan", "android": "https://dc.lft.to/lastmile_qr_scan"}, "type": "electric_scooter", "fusion_lat": 0.0, "lon": -77.0032315}, {"fusion_lon": 0.0, "bike_id": "1620506ae7d4419da4bd61f746494827", "is_disabled": 0, "is_reserved": 0, "lat": 38.87835916666667, "name": "1620506ae7d4419da4bd61f746494827", "rental_uris": {"ios": "https://dc.lft.to/lastmile_qr_scan", "android": "https://dc.lft.to/lastmile_qr_scan"}, "type": "electric_scooter", "fusion_lat": 0.0, "lon": -77.00469466666667}, {"fusion_lon": 0.0, "bike_id": "ff693822c94f0a129eb111a1915b9124", "is_disabled": 0, "is_reserved": 0, "lat": 38.886050166666664, "name": "ff693822c94f0a129eb111a1915b9124", "rental_uris": {"ios": "https://dc.lft.to/lastmile_qr_scan", "android": "https://dc.lft.to/lastmile_qr_scan"}, "type": "electric_scooter", "fusion_lat": 0.0, "lon": -76.985419}, {"fusion_lon": 0.0, "bike_id": "14b196a43c9de27275a18c40c9ccdaa6", "is_disabled": 0, "is_reserved": 0, "lat": 38.91562483333333, "name": "14b196a43c9de27275a18c40c9ccdaa6", "rental_uris": {"ios": "https://dc.lft.to/lastmile_qr_scan", "android": "https://dc.lft.to/lastmile_qr_scan"}, "type": "electric_scooter", "fusion_lat": 0.0, "lon": -77.031714}, {"fusion_lon": 0.0, "bike_id": "7c11359884e3c1aede41e276ec1d7a31", "is_disabled": 0, "is_reserved": 0, "lat": 38.8620065, "name": "7c11359884e3c1aede41e276ec1d7a31", "rental_uris": {"ios": "https://dc.lft.to/lastmile_qr_scan", "android": "https://dc.lft.to/lastmile_qr_scan"}, "type": "electric_scooter", "fusion_lat": 0.0, "lon": -76.9946445}, {"fusion_lon": 0.0, "bike_id": "0c2e7e914f351f76e584819b5508d47e", "is_disabled": 0, "is_reserved": 0, "lat": 38.925894166666666, "name": "0c2e7e914f351f76e584819b5508d47e", "rental_uris": {"ios": "https://dc.lft.to/lastmile_qr_scan", "android": "https://dc.lft.to/lastmile_qr_scan"}, "type": "electric_scooter", "fusion_lat": 0.0, "lon": -77.03731083333334}, {"fusion_lon": 0.0, "bike_id": "13e950c6b51c8eccb370631b9797a3cd", "is_disabled": 0, "is_reserved": 0, "lat": 38.9241195, "name": "13e950c6b51c8eccb370631b9797a3cd", "rental_uris": {"ios": "https://dc.lft.to/lastmile_qr_scan", "android": "https://dc.lft.to/lastmile_qr_scan"}, "type": "electric_scooter", "fusion_lat": 0.0, "lon": -77.03547116666667}, {"fusion_lon": 0.0, "bike_id": "57aa18f5c006e59d5521eb552c4d5ee7", "is_disabled": 0, "is_reserved": 0, "lat": 38.84290933333333, "name": "57aa18f5c006e59d5521eb552c4d5ee7", "rental_uris": {"ios": "https://dc.lft.to/lastmile_qr_scan", "android": "https://dc.lft.to/lastmile_qr_scan"}, "type": "electric_bike", "fusion_lat": 0.0, "lon": -77.06360483333333}, {"fusion_lon": 0.0, "bike_id": "cb95b281a35135d1ae3cc8f3c27b7ed4", "is_disabled": 0, "is_reserved": 0, "lat": 38.92116166666667, "name": "cb95b281a35135d1ae3cc8f3c27b7ed4", "rental_uris": {"ios": "https://dc.lft.to/lastmile_qr_scan", "android": "https://dc.lft.to/lastmile_qr_scan"}, "type": "electric_scooter", "fusion_lat": 0.0, "lon": -77.0420175},