{"data": {"bikes": [{"fusion_lat": 0.0, "type": "electric_scooter", "name": "905b8e4adacf5f4112d608fe2995497d", "fusion_lon": 0.0, "bike_id": "905b8e4adacf5f4112d608fe2995497d", "is_reserved": 0, "rental_uris": {"android": "https://dc.lft.to/lastmile_qr_scan", "ios": "https://dc.lft.to/lastmile_qr_scan"}, "lat": 38.90129916666667, "is_disabled": 0, "lon": -77.0160375}, {"fusion_lat": 0.0, "type": "electric_scooter", "name": "95d1981620406f744449e917105d4f3f", "fusion_lon": 0.0, "bike_id": "95d1981620406f744449e917105d4f3f", "is_reserved": 0, "rental_uris": {"android": "https://dc.lft.to/lastmile_qr_scan", "ios": "https://dc.lft.to/lastmile_qr_scan"}, "lat": 38.89790583333333, "is_disabled": 0, "lon": -77.05017783333334}, {"fusion_lat": 0.0, "type": "electric_bike", "name": "4f541b06586ac81cab209268031772e3", "fusion_lon": 0.0, "bike_id": "4f541b06586ac81cab209268031772e3", "is_reserved": 0, "rental_uris": {"android": "https://dc.lft.to/lastmile_qr_scan", "ios": "https://dc.lft.to/lastmile_qr_scan"}, "lat": 38.80756733333333, "is_disabled": 0, "lon": -77.09460516666667}, {"fusion_lat": 0.0, "type": "electric_scooter", "name": "f86a65fb349e4c6014b42bc23e9dc79e", "fusion_lon": 0.0, "bike_id": "f86a65fb349e4c6014b42bc23e9dc79e", "is_reserved": 0, "rental_uris": {"android": "https://dc.lft.to/lastmile_qr_scan", "ios": "https://dc.lft.to/lastmile_qr_scan"}, "lat": 38.866994166666665, "is_disabled": 0, "lon": -76.98593533333333}, {"fusion_lat": 0.0, "type": "electric_scooter", "name": "b9f0e9d8ef66fac8a852de99341dafbb", "fusion_lon": 0.0, "bike_id": "b9f0e9d8ef66fac8a852de99341dafbb", "is_reserved": 0, "rental_uris": {"android": "https://dc.lft.to/lastmile_qr_scan", "ios": "https://dc.lft.to/lastmile_qr_scan"}, "lat": 38.872900333333334, "is_disabled": 0, "lon": -76.97730766666666}, {"fusion_lat": 0.0, "type": "electric_scooter", "name": "ff3b9d95a84dad4cc3a5c8a8bd93385a", "fusion_lon": 0.0, "bike_id": "ff3b9d95a84dad4cc3a5c8a8bd93385a", "is_reserved": 0, "rental_uris": {"android": "https://dc.lft.to/lastmile_qr_scan", "ios": "https://dc.lft.to/lastmile_qr_scan"}, "lat": 38.9217165, "is_disabled": 0, "lon": -77.042488}, {"fusion_lat": 0.0, "type": "electric_scooter", "name": "f19e6c5b9fde9e4d8d62a50fb83dd875", "fusion_lon": 0.0, "bike_id": "f19e6c5b9fde9e4d8d62a50fb83dd875", "is_reserved": 0, "rental_uris": {"android": "https://dc.lft.to/lastmile_qr_scan", "ios": "https://dc.lft.to/lastmile_qr_scan"}, "lat": 38.887326333333334, "is_disabled": 0, "lon": -77.02836133333334}, {"fusion_lat": 0.0, "type": "electric_scooter", "name": "a308b95f2fc32106f5e0d3773da3b64e", "fusion_lon": 0.0, "bike_id": "a308b95f2fc32106f5e0d3773da3b64e", "is_reserved": 0, "rental_uris": {"android": "https://dc.lft.to/lastmile_qr_scan", "ios": "https://dc.lft.to/lastmile_qr_scan"}, "lat": 38.917445, "is_disabled": 0, "lon": -77.03187733333333}, {"fusion_lat": 0.0, "type": "electric_scooter", "name": "50b75f98649d3378f72ba3e9598e1c2d", "fusion_lon": 0.0, "bike_id": "50b75f98649d3378f72ba3e9598e1c2d", "is_reserved": 0, "rental_uris": {"android": "https://dc.lft.to/lastmile_qr_scan", "ios": "https://dc.lft.to/lastmile_qr_scan"}, "lat": 38.868014333333335, "is_disabled": 0, "lon": -77.010634}, {"fusion_lat": 0.0, "type": "electric_bike", "name": "e7402984d9e56500f0152c8b91968546", "fusion_lon": 0.0, "bike_id": "e7402984d9e56500f0152c8b91968546", "is_reserved": 0, "rental_uris": {"android": "https://dc.lft.to/lastmile_qr_scan", "ios": "https://dc.lft.to/lastmile_qr_scan"}, "lat": 38.8532, "is_disabled": 0, "lon": -76.98013433333334}, {"fusion_lat": 0.0, "type": "electric_scooter", "name": "e0bf79e0bdea0202a34758117eaf6072", "fusion_lon": 0.0, "bike_id": "e0bf79e0bdea0202a34758117eaf6072", "is_reserved": 0, "rental_uris": {"android": "https://dc.lft.to/lastmile_qr_scan", "ios": "https://dc.lft.to/lastmile_qr_scan"}, "lat": 38.90518466666666, "is_disabled": 0, "lon": -77.0346675}, {"fusion_lat": 0.0, "type": "electric_scooter", "name": "fbeff7beb7852da005416a91da2bfc7d", "fusion_lon": 0.0, "bike_id": "fbeff7beb7852da005416a91da2bfc7d", "is_reserved": 0, "rental_uris": {"android": "https://dc.lft.to/lastmile_qr_scan", "ios": "https://dc.lft.to/lastmile_qr_scan"}, "lat": 38.908029166666665, "is_disabled": 0, "lon": -77.041789}, {"fusion_lat": 0.0, "type": "electric_scooter", "name": "f8682c261911e24bde868279dfc4e1e0", "fusion_lon": 0.0, "bike_id": "f8682c261911e24bde868279dfc4e1e0", "is_reserved": 0, "rental_uris": {"android": "https://dc.lft.to/lastmile_qr_scan", "ios": "https://dc.lft.to/lastmile_qr_scan"}, "lat": 38.88617333333333, "is_disabled": 0, "lon": -76.95578266666666}, {"fusion_lat": 0.0, "type": "electric_scooter", "name": "90ef988e9f4313b6960e348ff7fa7cdf", "fusion_lon": 0.0, "bike_id": "90ef988e9f4313b6960e348ff7fa7cdf", "is_reserved": 0, "rental_uris": {"android": "https://dc.lft.to/lastmile_qr_scan", "ios": "https://dc.lft.to/lastmile_qr_scan"}, "lat": 38.8775195, "is_disabled": 0, "lon": -77.00740116666667}, {"fusion_lat": 0.0, "type": "electric_scooter", "name": "b37acdccc1f419377568039bd6c805b7", "fusion_lon": 0.0, "bike_id": "b37acdccc1f419377568039bd6c805b7", "is_reserved": 0, "rental_uris": {"android": "https://dc.lft.to/lastmile_qr_scan", "ios": "https://dc.lft.to/lastmile_qr_scan"}, "lat": 38.88839316666667, "is_disabled": 0, "lon": -77.04844116666666}, {"fusion_lat": 0.0, "type": "electric_scooter", "name": "a447b92e473a0a938e458a1776279773", "fusion_lon": 0.0, "bike_id": "a447b92e473a0a938e458a1776279773", "is_reserved": 0, "rental_uris": {"android": "https://dc.lft.to/lastmile_qr_scan", "ios": "https://dc.lft.to/lastmile_qr_scan"}, "lat": 38.9006, "is_disabled": 0, "lon": -77.01309333333333}, {"fusion_lat": 0.0, "type": "electric_scooter", "name": "29e66df83d55c249f5b3ee32c3045343", "fusion_lon": 0.0, "bike_id": "29e66df83d55c249f5b3ee32c3045343", "is_reserved": 0, "rental_uris": {"android": "https://dc.lft.to/lastmile_qr_scan", "ios": "https://dc.lft.to/lastmile_qr_scan"}, "lat": 38.8747255, "is_disabled": 0, "lon": -77.00663183333333}, {"fusion_lat": 0.0, "type": "electric_scooter", "name": "e57aa5c308d3adfe9ac25e193d1c8e82", "fusion_lon": 0.0, "bike_id": "e57aa5c308d3adfe9ac25e193d1c8e82", "is_reserved": 0, "rental_uris": {"android": "https://dc.lft.to/lastmile_qr_scan", "ios": "https://dc.lft.to/lastmile_qr_scan"}, "lat": 38.89606333333333, "is_disabled": 0, "lon": -77.009303}, {"fusion_lat": 0.0, "type": "electric_bike", "name": "0f43882ce3494960ac195ea61c49cba0", "fusion_lon": 0.0, "bike_id": "0f43882ce3494960ac195ea61c49cba0", "is_reserved": 0, "rental_uris": {"android": "https://dc.lft.to/lastmile_qr_scan", "ios": "https://dc.lft.to/lastmile_qr_scan"}, "lat": 38.862041, "is_disabled": 0, "lon": -76.94804716666667}, {"fusion_lat": 0.0, "type": "electric_scooter", "name": "d6e607d8a681358367b944648ffb7d1f", "fusion_lon": 0.0, "bike_id": "d6e607d8a681358367b944648ffb7d1f", "is_reserved": 0, "rental_uris": {"android": "https://dc.lft.to/lastmile_qr_scan", "ios": "https://dc.lft.to/lastmile_qr_scan"}, "lat": 38.89733183333333, "is_disabled": 0, "lon": -77.03056983333333}, {"fusion_lat": 0.0, "type": "electric_scooter", "name": "6a154dba42baa7709bcfe1603090b5d7", "fusion_lon": 0.0, "bike_id": "6a154dba42baa7709bcfe1603090b5d7", "is_reserved": 0, "rental_uris": {"android": "https://dc.lft.to/lastmile_qr_scan", "ios": "https://dc.lft.to/lastmile_qr_scan"}, "lat": 38.878427, "is_disabled": 0, "lon": -76.93151883333333}, {"fusion_lat": 0.0, "type": "electric_scooter", "name": "13a9d7e4ccb55d3e3ecc6d78cb1ad831", "fusion_lon": 0.0, "bike_id": "13a9d7e4ccb55d3e3ecc6d78cb1ad831", "is_reserved": 0, "rental_uris": {"android": "https://dc.lft.to/lastmile_qr_scan", "ios": "https://dc.lft.to/lastmile_qr_scan"}, "lat": 38.936219333333334, "is_disabled": 0, "lon": -77.08181033333334}, {"fusion_lat": 0.0, "type": "electric_scooter", "name": "aa21a2b3b43d6d89eb058201000f6ae5", "fusion_lon": 0.0, "bike_id": "aa21a2b3b43d6d89eb058201000f6ae5", "is_reserved": 0, "rental_uris": {"android": "https://dc.lft.to/lastmile_qr_scan", "ios": "https://dc.lft.to/lastmile_qr_scan"}, "lat": 38.900841166666666, "is_disabled": 0, "lon": -76.93882216666667}, {"fusion_lat": 0.0, "type": "electric_scooter", "name": "4e62c871d2aba7c7cfa3f1caa2e8c8ac", "fusion_lon": 0.0, "bike_id": "4e62c871d2aba7c7cfa3f1caa2e8c8ac", "is_reserved": 0, "rental_uris": {"android": "https://dc.lft.to/lastmile_qr_scan", "ios": "https://dc.lft.to/lastmile_qr_scan"}, "lat": 38.92801083333333, "is_disabled": 0, "lon": -77.03376266666666}, {"fusion_lat": 0.0, "type": "electric_scooter", "name": "fe6cc4f14b4b4be3e078ae70c0da90da", "fusion_lon": 0.0, "bike_id": "fe6cc4f14b4b4be3e078ae70c0da90da", "is_reserved": 0, "rental_uris": {"android": "https://dc.lft.to/lastmile_qr_scan", "ios": "https://dc.lft.to/lastmile_qr_scan"}, "lat": 38.9181235, "is_disabled": 0, "lon": -77.03382}, {"fusion_lat": 0.0, "type": "electric_scooter", "name": "a91dc7f0322fa1babdf23f20115c90da", "fusion_lon": 0.0, "bike_id": "a91dc7f0322fa1babdf23f20115c90da", "is_reserved": 0, "rental_uris": {"android": "https://dc.lft.to/lastmile_qr_scan", "ios": "https://dc.lft.to/lastmile_qr_scan"}, "lat": 38.905548, "is_disabled": 0, "lon": -77.00727983333333}, {"fusion_lat": 0.0, "type": "electric_bike", "name": "6a0d0cb94d56b925cbd7b68d76d7b639", "fusion_lon": 0.0, "bike_id": "6a0d0cb94d56b925cbd7b68d76d7b639", "is_reserved": 0, "rental_uris": {"android": "https://dc.lft.to/lastmile_qr_scan", "ios": "https://dc.lft.to/lastmile_qr_scan"}, "lat": 38.947570166666665, "is_disabled": 0, "lon": -77.0237365}, {"fusion_lat": 0.0, "type": "electric_scooter", "name": "8b6452ffec7be0c2dbdb6f51240f3175", "fusion_lon": 0.0, "bike_id": "8b6452ffec7be0c2dbdb6f51240f3175", "is_reserved": 0, "rental_uris": {"android": "https://dc.lft.to/lastmile_qr_scan", "ios": "https://dc.lft.to/lastmile_qr_scan"}, "lat": 38.914103833333336, "is_disabled": 0, "lon": -77.0454845}, {"fusion_lat": 0.0, "type": "electric_scooter", "name": "424c4c4dcbf6000372daee8ddc8b37fa", "fusion_lon": 0.0, "bike_id": "424c4c4dcbf6000372daee8ddc8b37fa", "is_reserved": 0, "rental_uris": {"android": "https://dc.lft.to/lastmile_qr_scan", "ios": "https://dc.lft.to/lastmile_qr_scan"}, "lat": 38.911057666666665, "is_disabled": 0, "lon": -77.04349983333333}, {"fusion_lat": 0.0, "type": "electric_scooter", "name": "1b2e3641d0bc8c8e4a41bdfbdd6f5fe1", "fusion_lon": 0.0, "bike_id": "1b2e3641d0bc8c8e4a41bdfbdd6f5fe1", "is_reserved": 0, "rental_uris": {"android": "https://dc.lft.to/lastmile_qr_scan", "ios": "https://dc.lft.to/lastmile_qr_scan"}, "lat": 38.9219215, "is_disabled": 0, "lon": -76.98877733333333}, {"fusion_lat": 0.0, "type": "electric_scooter", "name": "41e8650efce80081cfff6a3efc072879", "fusion_lon": 0.0, "bike_id": "41e8650efce80081cfff6a3efc072879", "is_reserved": 0, "rental_uris": {"android": "https://dc.lft.to/lastmile_qr_scan", "ios": "https://dc.lft.to/lastmile_qr_scan"}, "lat": 38.914685666666664, "is_disabled": 0, "lon": -77.0386775}, {"fusion_lat": 0.0, "type": "electric_scooter", "name": "81feed8e165b63b7d09fdec4874fa2ab", "fusion_lon": 0.0, "bike_id": "81feed8e165b63b7d09fdec4874fa2ab", "is_reserved": 0, "rental_uris": {"android": "https://dc.lft.to/lastmile_qr_scan", "ios": "https://dc.lft.to/lastmile_qr_scan"}, "lat": 38.906715166666665, "is_disabled": 0, "lon": -77.0702115}, {"fusion_lat": 0.0, "type": "electric_scooter", "name": "8132c7f2c30f44d72610f5edd7569a6b", "fusion_lon": 0.0, "bike_id": "8132c7f2c30f44d72610f5edd7569a6b", "is_reserved": 0, "rental_uris": {"android": "https://dc.lft.to/lastmile_qr_scan", "ios": "https://dc.lft.to/lastmile_qr_scan"}, "lat": 38.926809, "is_disabled": 0, "lon": -77.02211766666667}, {"fusion_lat": 0.0, "type": "electric_scooter", "name": "676efe26fa6669f515c8aac842548dc9", "fusion_lon": 0.0, "bike_id": "676efe26fa6669f515c8aac842548dc9", "is_reserved": 0, "rental_uris": {"android": "https://dc.lft.to/lastmile_qr_scan", "ios": "https://dc.lft.to/lastmile_qr_scan"}, "lat": 38.9222485, "is_disabled": 0, "lon": -77.0424175}, {"fusion_lat": 0.0, "type": "electric_bike", "name": "54d649fb86a77ebc8ef5ceeed6955774", "fusion_lon": 0.0, "bike_id": "54d649fb86a77ebc8ef5ceeed6955774", "is_reserved": 0, "rental_uris": {"android": "https://dc.lft.to/lastmile_qr_scan", "ios": "https://dc.lft.to/lastmile_qr_scan"}, "lat": 38.91865983333334, "is_disabled": 0, "lon": -76.96089433333333}, {"fusion_lat": 0.0, "type": "electric_scooter", "name": "98cf9a684d04bc77bf3735c201f7476a", "fusion_lon": 0.0, "bike_id": "98cf9a684d04bc77bf3735c201f7476a", "is_reserved": 0, "rental_uris": {"android": "https://dc.lft.to/lastmile_qr_scan", "ios": "https://dc.lft.to/lastmile_qr_scan"}, "lat": 38.874518333333334, "is_disabled": 0, "lon": -77.0091355}, {"fusion_lat": 0.0, "type": "electric_scooter", "name": "7a4d3e20467860364638b6b910c3c9e1", "fusion_lon": 0.0, "bike_id": "7a4d3e20467860364638b6b910c3c9e1", "is_reserved": 0, "rental_uris": {"android": "https://dc.lft.to/lastmile_qr_scan", "ios": "https://dc.lft.to/lastmile_qr_scan"}, "lat": 38.914589, "is_disabled": 0, "lon": -77.0189325}, {"fusion_lat": 0.0, "type": "electric_scooter", "name": "c9a37aff0343644434634991e1ba2e46", "fusion_lon": 0.0, "bike_id": "c9a37aff0343644434634991e1ba2e46", "is_reserved": 0, "rental_uris": {"android": "https://dc.lft.to/lastmile_qr_scan", "ios": "https://dc.lft.to/lastmile_qr_scan"}, "lat": 38.917040166666666, "is_disabled": 0, "lon": -77.03858833333334}, {"fusion_lat": 0.0, "type": "electric_scooter", "name": "b8018bc94ab628e0aeab15e4f33ca9de", "fusion_lon": 0.0, "bike_id": "b8018bc94ab628e0aeab15e4f33ca9de", "is_reserved": 0, "rental_uris": {"android": "https://dc.lft.to/lastmile_qr_scan", "ios": "https://dc.lft.to/lastmile_qr_scan"}, "lat": 38.90945583333333, "is_disabled": 0, "lon": -77.04670016666667}, {"fusion_lat": 0.0, "type": "electric_scooter", "name": "e992c2cdb4427689b8c343db8f393107", "fusion_lon": 0.0, "bike_id": "e992c2cdb4427689b8c343db8f393107", "is_reserved": 0, "rental_uris": {"android": "https://dc.lft.to/lastmile_qr_scan", "ios": "https://dc.lft.to/lastmile_qr_scan"}, "lat": 38.9154985, "is_disabled": 0, "lon": -77.03857833333333}, {"fusion_lat": 0.0, "type": "electric_bike", "name": "7c4b10a26334f59c048852d50746468c", "fusion_lon": 0.0, "bike_id": "7c4b10a26334f59c048852d50746468c", "is_reserved": 0, "rental_uris": {"android": "https://dc.lft.to/lastmile_qr_scan", "ios": "https://dc.lft.to/lastmile_qr_scan"}, "lat": 38.96815683333333, "is_disabled": 0, "lon": -77.07229983333333}, {"fusion_lat": 0.0, "type": "electric_scooter", "name": "3d8c9ec98c77dbb426e4089ad3c3cf38", "fusion_lon": 0.0, "bike_id": "3d8c9ec98c77dbb426e4089ad3c3cf38", "is_reserved": 0, "rental_uris": {"android": "https://dc.lft.to/lastmile_qr_scan", "ios": "https://dc.lft.to/lastmile_qr_scan"}, "lat": 38.897388666666664, "is_disabled": 0, "lon": -77.05560866666667}, {"fusion_lat": 0.0, "type": "electric_scooter", "name": "c4ca4b4d53e05af84789c004b5269b03", "fusion_lon": 0.0, "bike_id": "c4ca4b4d53e05af84789c004b5269b03", "is_reserved": 0, "rental_uris": {"android": "https://dc.lft.to/lastmile_qr_scan", "ios": "https://dc.lft.to/lastmile_qr_scan"}, "lat": 38.90442483333333, "is_disabled": 0, "lon": -76.98497166666667}, {"fusion_lat": 0.0, "type": "electric_bike", "name": "2c30a91a812a04e206c706612a5dc4c0", "fusion_lon": 0.0, "bike_id": "2c30a91a812a04e206c706612a5dc4c0", "is_reserved": 0, "rental_uris": {"android": "https://dc.lft.to/lastmile_qr_scan", "ios": "https://dc.lft.to/lastmile_qr_scan"}, "lat": 38.949223333333336, "is_disabled": 0, "lon": -77.007967}, {"fusion_lat": 0.0, "type": "electric_scooter", "name": "38bb389ec353ceac6376d1f0591a8460", "fusion_lon": 0.0, "bike_id": "38bb389ec353ceac6376d1f0591a8460", "is_reserved": 0, "rental_uris": {"android": "https://dc.lft.to/lastmile_qr_scan", "ios": "https://dc.lft.to/lastmile_qr_scan"}, "lat": 38.922533666666666, "is_disabled": 0, "lon": -77.03525533333334}, {"fusion_lat": 0.0, "type": "electric_scooter", "name": "c761ca15e282d846d677ddead0bb27e1", "fusion_lon": 0.0, "bike_id": "c761ca15e282d846d677ddead0bb27e1", "is_reserved": 0, "rental_uris": {"android": "https://dc.lft.to/lastmile_qr_scan", "ios": "https://dc.lft.to/lastmile_qr_scan"}, "lat": 38.919599166666664, "is_disabled": 0, "lon": -77.032209}, {"fusion_lat": 0.0, "type": "electric_scooter", "name": "b62c3095166958dc8b48354ee3167a0e", "fusion_lon": 0.0, "bike_id": "b62c3095166958dc8b48354ee3167a0e", "is_reserved": 0, "rental_uris": {"android": "https://dc.lft.to/lastmile_qr_scan", "ios": "https://dc.lft.to/lastmile_qr_scan"}, "lat": 38.90784266666667, "is_disabled": 0, "lon": -77.0450685}, {"fusion_lat": 0.0, "type": "electric_scooter", "name": "8f351487c6c83d7b2bda46a69c927ff6", "fusion_lon": 0.0, "bike_id": "8f351487c6c83d7b2bda46a69c927ff6", "is_reserved": 0, "rental_uris": {"android": "https://dc.lft.to/lastmile_qr_scan", "ios": "https://dc.lft.to/lastmile_qr_scan"}, "lat": 38.8972395, "is_disabled": 0, "lon": -77.04362283333333}, {"fusion_lat": 0.0, "type": "electric_scooter", "name": "b4ddc2d281810fd785d472f280f1e355", "fusion_lon": 0.0, "bike_id": "b4ddc2d281810fd785d472f280f1e355", "is_reserved": 0, "rental_uris": {"android": "https://dc.lft.to/lastmile_qr_scan", "ios": "https://dc.lft.to/lastmile_qr_scan"}, "lat": 38.867026833333334, "is_disabled": 0, "lon": -76.9871685}, {"fusion_lat": 0.0, "type": "electric_scooter", "name": "176ccf82610430ed099d6b1643be05f9", "fusion_lon": 0.0, "bike_id": "176ccf82610430ed099d6b1643be05f9", "is_reserved": 0, "rental_uris": {"android": "https://dc.lft.to/lastmile_qr_scan", "ios": "https://dc.lft.to/lastmile_qr_scan"}, "lat": 38.8922395, "is_disabled": 0, "lon": -77.03220416666667}, {"fusion_lat": 0.0, "type": "electric_scooter", "name": "e328bcfd775f35f883b3a2d27e18d84b", "fusion_lon": 0.0, "bike_id": "e328bcfd775f35f883b3a2d27e18d84b", "is_reserved": 0, "rental_uris": {"android": "https://dc.lft.to/lastmile_qr_scan", "ios": "https://dc.lft.to/lastmile_qr_scan"}, "lat": 38.89851733333333, "is_disabled": 0, "lon": -77.02862516666667}, {"fusion_lat": 0.0, "type": "electric_scooter", "name": "0eec53e62d145342b09fd40e745c67c9", "fusion_lon": 0.0, "bike_id": "0eec53e62d145342b09fd40e745c67c9", "is_reserved": 0, "rental_uris": {"android": "https://dc.lft.to/lastmile_qr_scan", "ios": "https://dc.lft.to/lastmile_qr_scan"}, "lat": 38.92350183333333, "is_disabled": 0, "lon": -77.0349925}, {"fusion_lat": 0.0, "type": "electric_scooter", "name": "cfaccf79636e08fd105e3c96785ac11e", "fusion_lon": 0.0, "bike_id": "cfaccf79636e08fd105e3c96785ac11e", "is_reserved": 0, "rental_uris": {"android": "https://dc.lft.to/lastmile_qr_scan", "ios": "https://dc.lft.to/lastmile_qr_scan"}, "lat": 38.909069833333334, "is_disabled": 0, "lon": -77.07276916666666}, {"fusion_lat": 0.0, "type": "electric_bike", "name": "9554ff68a6eb3be4f7dc0cc6ff799784", "fusion_lon": 0.0, "bike_id": "9554ff68a6eb3be4f7dc0cc6ff799784", "is_reserved": 0, "rental_uris": {"android": "https://dc.lft.to/lastmile_qr_scan", "ios": "https://dc.lft.to/lastmile_qr_scan"}, "lat": 38.8190805, "is_disabled": 0, "lon": -76.99908466666666}, {"fusion_lat": 0.0, "type": "electric_scooter", "name": "9814b6544a691b4c07321d080f223693", "fusion_lon": 0.0, "bike_id": "9814b6544a691b4c07321d080f223693", "is_reserved": 0, "rental_uris": {"android": "https://dc.lft.to/lastmile_qr_scan", "ios": "https://dc.lft.to/lastmile_qr_scan"}, "lat": 38.984565833333335, "is_disabled": 0, "lon": -77.02686733333333}, {"fusion_lat": 0.0, "type": "electric_scooter", "name": "e4af6464db09df023e7428f46776085e", "fusion_lon": 0.0, "bike_id": "e4af6464db09df023e7428f46776085e", "is_reserved": 0, "rental_uris": {"android": "https://dc.lft.to/lastmile_qr_scan", "ios": "https://dc.lft.to/lastmile_qr_scan"}, "lat": 38.918202666666666, "is_disabled": 0, "lon": -77.03153716666667}, {"fusion_lat": 0.0, "type": "electric_scooter", "name": "2c8df26a230ee33040edfcf19527a385", "fusion_lon": 0.0, "bike_id": "2c8df26a230ee33040edfcf19527a385", "is_reserved": 0, "rental_uris": {"android": "https://dc.lft.to/lastmile_qr_scan", "ios": "https://dc.lft.to/lastmile_qr_scan"}, "lat": 38.88289483333333, "is_disabled": 0, "lon": -77.00644166666666}, {"fusion_lat": 0.0, "type": "electric_scooter", "name": "1a73dab94125873b2bbd835becc9083b", "fusion_lon": 0.0, "bike_id": "1a73dab94125873b2bbd835becc9083b", "is_reserved": 0, "rental_uris": {"android": "https://dc.lft.to/lastmile_qr_scan", "ios": "https://dc.lft.to/lastmile_qr_scan"}, "lat": 38.892353666666665, "is_disabled": 0, "lon": -77.03209583333333}, {"fusion_lat": 0.0, "type": "electric_scooter", "name": "c85370d039b30bae49322b282b904a5a", "fusion_lon": 0.0, "bike_id": "c85370d039b30bae49322b282b904a5a", "is_reserved": 0, "rental_uris": {"android": "https://dc.lft.to/lastmile_qr_scan", "ios": "https://dc.lft.to/lastmile_qr_scan"}, "lat": 38.924082, "is_disabled": 0, "lon": -77.03552383333333}, {"fusion_lat": 0.0, "type": "electric_scooter", "name": "03fd10a39c2b0316ce2d2da4910281ee", "fusion_lon": 0.0, "bike_id": "03fd10a39c2b0316ce2d2da4910281ee", "is_reserved": 0, "rental_uris": {"android": "https://dc.lft.to/lastmile_qr_scan", "ios": "https://dc.lft.to/lastmile_qr_scan"}, "lat": 38.92352366666667, "is_disabled": 0, "lon": -77.03291966666667}, {"fusion_lat": 0.0, "type": "electric_scooter", "name": "6d0b3013a3bf025067fae41f806ba7a5", "fusion_lon": 0.0, "bike_id": "6d0b3013a3bf025067fae41f806ba7a5", "is_reserved": 0, "rental_uris": {"android": "https://dc.lft.to/lastmile_qr_scan", "ios": "https://dc.lft.to/lastmile_qr_scan"}, "lat": 38.922593666666664, "is_disabled": 0, "lon": -77.0305985}, {"fusion_lat": 0.0, "type": "electric_scooter", "name": "0f6e44c6e72fb418eba14980aa6b9dc9", "fusion_lon": 0.0, "bike_id": "0f6e44c6e72fb418eba14980aa6b9dc9", "is_reserved": 0, "rental_uris": {"android": "https://dc.lft.to/lastmile_qr_scan", "ios": "https://dc.lft.to/lastmile_qr_scan"}, "lat": 38.89410816666667, "is_disabled": 0, "lon": -77.0441725}, {"fusion_lat": 0.0, "type": "electric_scooter", "name": "3be596c104fe055819504a6d0080a4b8", "fusion_lon": 0.0, "bike_id": "3be596c104fe055819504a6d0080a4b8", "is_reserved": 0, "rental_uris": {"android": "https://dc.lft.to/lastmile_qr_scan", "ios": "https://dc.lft.to/lastmile_qr_scan"}, "lat": 38.893653, "is_disabled": 0, "lon": -77.02217566666667}, {"fusion_lat": 0.0, "type": "electric_scooter", "name": "e50020fa02a9fd0593aeb4f78954a3e0", "fusion_lon": 0.0, "bike_id": "e50020fa02a9fd0593aeb4f78954a3e0", "is_reserved": 0, "rental_uris": {"android": "https://dc.lft.to/lastmile_qr_scan", "ios": "https://dc.lft.to/lastmile_qr_scan"}, "lat": 38.91500766666667, "is_disabled": 0, "lon": -77.0122465}, {"fusion_lat": 0.0, "type": "electric_scooter", "name": "8c2c7212eb413d874845ea3bfb2a92ed", "fusion_lon": 0.0, "bike_id": "8c2c7212eb413d874845ea3bfb2a92ed", "is_reserved": 0, "rental_uris": {"android": "https://dc.lft.to/lastmile_qr_scan", "ios": "https://dc.lft.to/lastmile_qr_scan"}, "lat": 38.87189716666666, "is_disabled": 0, "lon": -77.00588666666667}, {"fusion_lat": 0.0, "type": "electric_scooter", "name": "efccb09b25914d6b01b820c6a9c89420", "fusion_lon": 0.0, "bike_id": "efccb09b25914d6b01b820c6a9c89420", "is_reserved": 0, "rental_uris": {"android": "https://dc.lft.to/lastmile_qr_scan", "ios": "https://dc.lft.to/lastmile_qr_scan"}, "lat": 38.909103, "is_disabled": 0, "lon": -77.027187}, {"fusion_lat": 0.0, "type": "electric_scooter", "name": "4227d37715fba7978619023791f2d53e", "fusion_lon": 0.0, "bike_id": "4227d37715fba7978619023791f2d53e", "is_reserved": 0, "rental_uris": {"android": "https://dc.lft.to/lastmile_qr_scan", "ios": "https://dc.lft.to/lastmile_qr_scan"}, "lat": 38.918262666666664, "is_disabled": 0, "lon": -77.0344195}, {"fusion_lat": 0.0, "type": "electric_scooter", "name": "4f900e4794575872c15a3c81f91f1fc6", "fusion_lon": 0.0, "bike_id": "4f900e4794575872c15a3c81f91f1fc6", "is_reserved": 0, "rental_uris": {"android": "https://dc.lft.to/lastmile_qr_scan", "ios": "https://dc.lft.to/lastmile_qr_scan"}, "lat": 38.93705966666667, "is_disabled": 0, "lon": -77.060989}, {"fusion_lat": 0.0, "type": "electric_scooter", "name": "c2248d89abc6bb1cda6ee489aa57436d", "fusion_lon": 0.0, "bike_id": "c2248d89abc6bb1cda6ee489aa57436d", "is_reserved": 0, "rental_uris": {"android": "https://dc.lft.to/lastmile_qr_scan", "ios": "https://dc.lft.to/lastmile_qr_scan"}, "lat": 38.8973535, "is_disabled": 0, "lon": -77.01311566666666}, {"fusion_lat": 0.0, "type": "electric_scooter", "name": "69eecf0b5c8fa4111bc042b35695d4d6", "fusion_lon": 0.0, "bike_id": "69eecf0b5c8fa4111bc042b35695d4d6", "is_reserved": 0, "rental_uris": {"android": "https://dc.lft.to/lastmile_qr_scan", "ios": "https://dc.lft.to/lastmile_qr_scan"}, "lat": 38.88829966666667, "is_disabled": 0, "lon": -76.99367966666667}, {"fusion_lat": 0.0, "type": "electric_scooter", "name": "6d72a57bfde4b30767092a61daf9dab0", "fusion_lon": 0.0, "bike_id": "6d72a57bfde4b30767092a61daf9dab0", "is_reserved": 0, "rental_uris": {"android": "https://dc.lft.to/lastmile_qr_scan", "ios": "https://dc.lft.to/lastmile_qr_scan"}, "lat": 38.86686133333333, "is_disabled": 0, "lon": -76.985922}, {"fusion_lat": 0.0, "type": "electric_bike", "name": "b1cfa8fc630848607060c1d64f91c234", "fusion_lon": 0.0, "bike_id": "b1cfa8fc630848607060c1d64f91c234", "is_reserved": 0, "rental_uris": {"android": "https://dc.lft.to/lastmile_qr_scan", "ios": "https://dc.lft.to/lastmile_qr_scan"}, "lat": 38.96227316666667, "is_disabled": 0, "lon": -77.0263365}, {"fusion_lat": 0.0, "type": "electric_scooter", "name": "e79d14ed1cb9dc3cec12d44848b8885b", "fusion_lon": 0.0, "bike_id": "e79d14ed1cb9dc3cec12d44848b8885b", "is_reserved": 0, "rental_uris": {"android": "https://dc.lft.to/lastmile_qr_scan", "ios": "https://dc.lft.to/lastmile_qr_scan"}, "lat": 38.9086325, "is_disabled": 0, "lon": -77.04269083333334}, {"fusion_lat": 0.0, "type": "electric_scooter", "name": "ef691c0976eee4f95fe6df5588bde197", "fusion_lon": 0.0, "bike_id": "ef691c0976eee4f95fe6df5588bde197", "is_reserved": 0, "rental_uris": {"android": "https://dc.lft.to/lastmile_qr_scan", "ios": "https://dc.lft.to/lastmile_qr_scan"}, "lat": 38.9274935, "is_disabled": 0, "lon": -77.02535583333334}, {"fusion_lat": 0.0, "type": "electric_scooter", "name": "7ccfab87412499e55c26106fbe20c9ce", "fusion_lon": 0.0, "bike_id": "7ccfab87412499e55c26106fbe20c9ce", "is_reserved": 0, "rental_uris": {"android": "https://dc.lft.to/lastmile_qr_scan", "ios": "https://dc.lft.to/lastmile_qr_scan"}, "lat": 38.923771, "is_disabled": 0, "lon": -77.0280085}, {"fusion_lat": 0.0, "type": "electric_scooter", "name": "f9e9b8a33ba9eacd5771afaa3d507472", "fusion_lon": 0.0, "bike_id": "f9e9b8a33ba9eacd5771afaa3d507472", "is_reserved": 0, "rental_uris": {"android": "https://dc.lft.to/lastmile_qr_scan", "ios": "https://dc.lft.to/lastmile_qr_scan"}, "lat": 38.9001735, "is_disabled": 0, "lon": -76.99304883333333}, {"fusion_lat": 0.0, "type": "electric_scooter", "name": "94f2325d96e1af9442acd51608f67957", "fusion_lon": 0.0, "bike_id": "94f2325d96e1af9442acd51608f67957", "is_reserved": 0, "rental_uris": {"android": "https://dc.lft.to/lastmile_qr_scan", "ios": "https://dc.lft.to/lastmile_qr_scan"}, "lat": 38.94132366666667, "is_disabled": 0, "lon": -77.0154035}, {"fusion_lat": 0.0, "type": "electric_scooter", "name": "9cc07007f346657b4e7ece97394f6186", "fusion_lon": 0.0, "bike_id": "9cc07007f346657b4e7ece97394f6186", "is_reserved": 0, "rental_uris": {"android": "https://dc.lft.to/lastmile_qr_scan", "ios": "https://dc.lft.to/lastmile_qr_scan"}, "lat": 38.92643733333333, "is_disabled": 0, "lon": -77.0346985}, {"fusion_lat": 0.0, "type": "electric_bike", "name": "572906e1ba380955d2da7dcf6e80fbcf", "fusion_lon": 0.0, "bike_id": "572906e1ba380955d2da7dcf6e80fbcf", "is_reserved": 0, "rental_uris": {"android": "https://dc.lft.to/lastmile_qr_scan", "ios": "https://dc.lft.to/lastmile_qr_scan"}, "lat": 38.85440883333333, "is_disabled": 0, "lon": -77.0833435}, {"fusion_lat": 0.0, "type": "electric_scooter", "name": "c4e2d77ae261aa18014bf7d50459b3c5", "fusion_lon": 0.0, "bike_id": "c4e2d77ae261aa18014bf7d50459b3c5", "is_reserved": 0, "rental_uris": {"android": "https://dc.lft.to/lastmile_qr_scan", "ios": "https://dc.lft.to/lastmile_qr_scan"}, "lat": 38.892531166666664, "is_disabled": 0, "lon": -77.04661133333333}, {"fusion_lat": 0.0, "type": "electric_scooter", "name": "237005a654c29a499fb25ac8cf8b73bb", "fusion_lon": 0.0, "bike_id": "237005a654c29a499fb25ac8cf8b73bb", "is_reserved": 0, "rental_uris": {"android": "https://dc.lft.to/lastmile_qr_scan", "ios": "https://dc.lft.to/lastmile_qr_scan"}, "lat": 38.9188995, "is_disabled": 0, "lon": -77.04821683333333}, {"fusion_lat": 0.0, "type": "electric_bike", "name": "323123e51705392656b3408866add653", "fusion_lon": 0.0, "bike_id": "323123e51705392656b3408866add653", "is_reserved": 0, "rental_uris": {"android": "https://dc.lft.to/lastmile_qr_scan", "ios": "https://dc.lft.to/lastmile_qr_scan"}, "lat": 38.8577415, "is_disabled": 0, "lon": -76.98770683333333}, {"fusion_lat": 0.0, "type": "electric_scooter", "name": "c6e981c7f890e807d7413b4b6bb4cbeb", "fusion_lon": 0.0, "bike_id": "c6e981c7f890e807d7413b4b6bb4cbeb", "is_reserved": 0, "rental_uris": {"android": "https://dc.lft.to/lastmile_qr_scan", "ios": "https://dc.lft.to/lastmile_qr_scan"}, "lat": 38.91959633333333, "is_disabled": 0, "lon": -77.02391716666666}, {"fusion_lat": 0.0, "type": "electric_scooter", "name": "fc96327382bf7e664819ec1bfb7598b1", "fusion_lon": 0.0, "bike_id": "fc96327382bf7e664819ec1bfb7598b1", "is_reserved": 0, "rental_uris": {"android": "https://dc.lft.to/lastmile_qr_scan", "ios": "https://dc.lft.to/lastmile_qr_scan"}, "lat": 38.905845, "is_disabled": 0, "lon": -77.02590816666667}, {"fusion_lat": 0.0, "type": "electric_scooter", "name": "3c83b694f3dbac4b14cc11c9928c6def", "fusion_lon": 0.0, "bike_id": "3c83b694f3dbac4b14cc11c9928c6def", "is_reserved": 0, "rental_uris": {"android": "https://dc.lft.to/lastmile_qr_scan", "ios": "https://dc.lft.to/lastmile_qr_scan"}, "lat": 38.96625016666667, "is_disabled": 0, "lon": -77.03502583333334}, {"fusion_lat": 0.0, "type": "electric_scooter", "name": "693ad1eee8f6d83a289bf745c9d2ece2", "fusion_lon": 0.0, "bike_id": "693ad1eee8f6d83a289bf745c9d2ece2", "is_reserved": 0, "rental_uris": {"android": "https://dc.lft.to/lastmile_qr_scan", "ios": "https://dc.lft.to/lastmile_qr_scan"}, "lat": 38.92795516666666, "is_disabled": 0, "lon": -77.02122633333333}, {"fusion_lat": 0.0, "type": "electric_scooter", "name": "376946162b1946a582892394e4e4a7a1", "fusion_lon": 0.0, "bike_id": "376946162b1946a582892394e4e4a7a1", "is_reserved": 0, "rental_uris": {"android": "https://dc.lft.to/lastmile_qr_scan", "ios": "https://dc.lft.to/lastmile_qr_scan"}, "lat": 38.92161633333333, "is_disabled": 0, "lon": -77.03381883333333}, {"fusion_lat": 0.0, "type": "electric_scooter", "name": "218d0c4b75d534679890a1d09f1cd15e", "fusion_lon": 0.0, "bike_id": "218d0c4b75d534679890a1d09f1cd15e", "is_reserved": 0, "rental_uris": {"android": "https://dc.lft.to/lastmile_qr_scan", "ios": "https://dc.lft.to/lastmile_qr_scan"}, "lat": 38.93876, "is_disabled": 0, "lon": -77.02374633333334}, {"fusion_lat": 0.0, "type": "electric_scooter", "name": "67b2050a49f16226425b28abe69546c1", "fusion_lon": 0.0, "bike_id": "67b2050a49f16226425b28abe69546c1", "is_reserved": 0, "rental_uris": {"android": "https://dc.lft.to/lastmile_qr_scan", "ios": "https://dc.lft.to/lastmile_qr_scan"}, "lat": 38.8923435, "is_disabled": 0, "lon": -77.03188283333333}, {"fusion_lat": 0.0, "type": "electric_scooter", "name": "88d99a05f5111045b07027b8724677fb", "fusion_lon": 0.0, "bike_id": "88d99a05f5111045b07027b8724677fb", "is_reserved": 0, "rental_uris": {"android": "https://dc.lft.to/lastmile_qr_scan", "ios": "https://dc.lft.to/lastmile_qr_scan"}, "lat": 38.933793, "is_disabled": 0, "lon": -77.03559716666666}, {"fusion_lat": 0.0, "type": "electric_scooter", "name": "b61954ac615c1b7f39ffd4c730b7ec41", "fusion_lon": 0.0, "bike_id": "b61954ac615c1b7f39ffd4c730b7ec41", "is_reserved": 0, "rental_uris": {"android": "https://dc.lft.to/lastmile_qr_scan", "ios": "https://dc.lft.to/lastmile_qr_scan"}, "lat": 38.895633833333335, "is_disabled": 0, "lon": -77.04677333333333}, {"fusion_lat": 0.0, "type": "electric_scooter", "name": "a6ba98ef8a4baee08ef02943821096e7", "fusion_lon": 0.0, "bike_id": "a6ba98ef8a4baee08ef02943821096e7", "is_reserved": 0, "rental_uris": {"android": "https://dc.lft.to/lastmile_qr_scan", "ios": "https://dc.lft.to/lastmile_qr_scan"}, "lat": 38.927876833333336, "is_disabled": 0, "lon": -77.05266416666667}, {"fusion_lat": 0.0, "type": "electric_scooter", "name": "5364a21d6b1c4184b08f3fd4e96b14cd", "fusion_lon": 0.0, "bike_id": "5364a21d6b1c4184b08f3fd4e96b14cd", "is_reserved": 0, "rental_uris": {"android": "https://dc.lft.to/lastmile_qr_scan", "ios": "https://dc.lft.to/lastmile_qr_scan"}, "lat": 38.907347333333334, "is_disabled": 0, "lon": -77.02691866666666}, {"fusion_lat": 0.0, "type": "electric_scooter", "name": "4ff99b63f5abf3469be987c30d8432c8", "fusion_lon": 0.0, "bike_id": "4ff99b63f5abf3469be987c30d8432c8", "is_reserved": 0, "rental_uris": {"android": "https://dc.lft.to/lastmile_qr_scan", "ios": "https://dc.lft.to/lastmile_qr_scan"}, "lat": 38.91875316666667, "is_disabled": 0, "lon": -77.0347765}, {"fusion_lat": 0.0, "type": "electric_scooter", "name": "480eb98a12bbd6c3726f0375220f2789", "fusion_lon": 0.0, "bike_id": "480eb98a12bbd6c3726f0375220f2789", "is_reserved": 0, "rental_uris": {"android": "https://dc.lft.to/lastmile_qr_scan", "ios": "https://dc.lft.to/lastmile_qr_scan"}, "lat": 38.90395616666667, "is_disabled": 0, "lon": -77.02949283333334}, {"fusion_lat": 0.0, "type": "electric_scooter", "name": "3c3ff4d2c7735a9e1b03828bbf1b10be", "fusion_lon": 0.0, "bike_id": "3c3ff4d2c7735a9e1b03828bbf1b10be", "is_reserved": 0, "rental_uris": {"android": "https://dc.lft.to/lastmile_qr_scan", "ios": "https://dc.lft.to/lastmile_qr_scan"}, "lat": 38.929035166666665, "is_disabled": 0, "lon": -77.0545855}, {"fusion_lat": 0.0, "type": "electric_scooter", "name": "e29abe805f5d69c6785d11a53e25a9fb", "fusion_lon": 0.0, "bike_id": "e29abe805f5d69c6785d11a53e25a9fb", "is_reserved": 0, "rental_uris": {"android": "https://dc.lft.to/lastmile_qr_scan", "ios": "https://dc.lft.to/lastmile_qr_scan"}, "lat": 38.9291555, "is_disabled": 0, "lon": -77.02090383333334}, {"fusion_lat": 0.0, "type": "electric_scooter", "name": "3c12e3e65037448937e507fe432d6699", "fusion_lon": 0.0, "bike_id": "3c12e3e65037448937e507fe432d6699", "is_reserved": 0, "rental_uris": {"android": "https://dc.lft.to/lastmile_qr_scan", "ios": "https://dc.lft.to/lastmile_qr_scan"}, "lat": 38.911261833333334, "is_disabled": 0, "lon": -77.0653205}, {"fusion_lat": 0.0, "type": "electric_scooter", "name": "b39581e2802b48dd26cedf5a0c257360", "fusion_lon": 0.0, "bike_id": "b39581e2802b48dd26cedf5a0c257360", "is_reserved": 0, "rental_uris": {"android": "https://dc.lft.to/lastmile_qr_scan", "ios": "https://dc.lft.to/lastmile_qr_scan"}, "lat": 38.8808995, "is_disabled": 0, "lon": -76.93010416666667}, {"fusion_lat": 0.0, "type": "electric_scooter", "name": "fbe9b12688123456a43ae64d79ebd243", "fusion_lon": 0.0, "bike_id": "fbe9b12688123456a43ae64d79ebd243", "is_reserved": 0, "rental_uris": {"android": "https://dc.lft.to/lastmile_qr_scan", "ios": "https://dc.lft.to/lastmile_qr_scan"}, "lat": 38.918209833333336, "is_disabled": 0, "lon": -77.03174666666666}, {"fusion_lat": 0.0, "type": "electric_scooter", "name": "c776f57df9642e1928bc0a8a0f537808", "fusion_lon": 0.0, "bike_id": "c776f57df9642e1928bc0a8a0f537808", "is_reserved": 0, "rental_uris": {"android": "https://dc.lft.to/lastmile_qr_scan", "ios": "https://dc.lft.to/lastmile_qr_scan"}, "lat": 38.85201083333333, "is_disabled": 0, "lon": -76.9707295}, {"fusion_lat": 0.0, "type": "electric_bike", "name": "e1fb0fa8b53d96ad0d792aa575c6139c", "fusion_lon": 0.0, "bike_id": "e1fb0fa8b53d96ad0d792aa575c6139c", "is_reserved": 0, "rental_uris": {"android": "https://dc.lft.to/lastmile_qr_scan", "ios": "https://dc.lft.to/lastmile_qr_scan"}, "lat": 38.898127, "is_disabled": 0, "lon": -76.990731}, {"fusion_lat": 0.0, "type": "electric_scooter", "name": "365f3abc3202019cb2d1586e563d0ab4", "fusion_lon": 0.0, "bike_id": "365f3abc3202019cb2d1586e563d0ab4", "is_reserved": 0, "rental_uris": {"android": "https://dc.lft.to/lastmile_qr_scan", "ios": "https://dc.lft.to/lastmile_qr_scan"}, "lat": 38.887465166666665, "is_disabled": 0, "lon": -77.02737266666666}, {"fusion_lat": 0.0, "type": "electric_scooter", "name": "a027853805d2a0765a72feda0d933722", "fusion_lon": 0.0, "bike_id": "a027853805d2a0765a72feda0d933722", "is_reserved": 0, "rental_uris": {"android": "https://dc.lft.to/lastmile_qr_scan", "ios": "https://dc.lft.to/lastmile_qr_scan"}, "lat": 38.8778345, "is_disabled": 0, "lon": -76.99356283333333}, {"fusion_lat": 0.0, "type": "electric_scooter", "name": "ea97c34c4184b2da3a0bf5a50c361d9d", "fusion_lon": 0.0, "bike_id": "ea97c34c4184b2da3a0bf5a50c361d9d", "is_reserved": 0, "rental_uris": {"android": "https://dc.lft.to/lastmile_qr_scan", "ios": "https://dc.lft.to/lastmile_qr_scan"}, "lat": 38.907683, "is_disabled": 0, "lon": -76.9930285}, {"fusion_lat": 0.0, "type": "electric_scooter", "name": "3b719a3775dd2d11cfa85a9fab82e8dd", "fusion_lon": 0.0, "bike_id": "3b719a3775dd2d11cfa85a9fab82e8dd", "is_reserved": 0, "rental_uris": {"android": "https://dc.lft.to/lastmile_qr_scan", "ios": "https://dc.lft.to/lastmile_qr_scan"}, "lat": 38.9229065, "is_disabled": 0, "lon": -77.03890316666667}, {"fusion_lat": 0.0, "type": "electric_scooter", "name": "3e41ffbbb84a32ae71834a0ac3b8f8c1", "fusion_lon": 0.0, "bike_id": "3e41ffbbb84a32ae71834a0ac3b8f8c1", "is_reserved": 0, "rental_uris": {"android": "https://dc.lft.to/lastmile_qr_scan", "ios": "https://dc.lft.to/lastmile_qr_scan"}, "lat": 38.87468166666667, "is_disabled": 0, "lon": -77.01131416666666}, {"fusion_lat": 0.0, "type": "electric_scooter", "name": "15a7481204a95c081c30110a6ca62c68", "fusion_lon": 0.0, "bike_id": "15a7481204a95c081c30110a6ca62c68", "is_reserved": 0, "rental_uris": {"android": "https://dc.lft.to/lastmile_qr_scan", "ios": "https://dc.lft.to/lastmile_qr_scan"}, "lat": 38.8766105, "is_disabled": 0, "lon": -76.99451716666667}, {"fusion_lat": 0.0, "type": "electric_scooter", "name": "0736ebecdc4dfc0b1720d289bb901794", "fusion_lon": 0.0, "bike_id": "0736ebecdc4dfc0b1720d289bb901794", "is_reserved": 0, "rental_uris": {"android": "https://dc.lft.to/lastmile_qr_scan", "ios": "https://dc.lft.to/lastmile_qr_scan"}, "lat": 38.90021333333333, "is_disabled": 0, "lon": -77.01858183333333}, {"fusion_lat": 0.0, "type": "electric_bike", "name": "34c778ca6efb92b4e932af26a4d47df3", "fusion_lon": 0.0, "bike_id": "34c778ca6efb92b4e932af26a4d47df3", "is_reserved": 0, "rental_uris": {"android": "https://dc.lft.to/lastmile_qr_scan", "ios": "https://dc.lft.to/lastmile_qr_scan"}, "lat": 38.9221565, "is_disabled": 0, "lon": -77.08190016666667}, {"fusion_lat": 0.0, "type": "electric_scooter", "name": "80806343fc8c3b04d2a20f4082bcb380", "fusion_lon": 0.0, "bike_id": "80806343fc8c3b04d2a20f4082bcb380", "is_reserved": 0, "rental_uris": {"android": "https://dc.lft.to/lastmile_qr_scan", "ios": "https://dc.lft.to/lastmile_qr_scan"}, "lat": 38.949047, "is_disabled": 0, "lon": -77.0064145}, {"fusion_lat": 0.0, "type": "electric_scooter", "name": "74fa79fe75ebf9e0231be6e92f69e7f7", "fusion_lon": 0.0, "bike_id": "74fa79fe75ebf9e0231be6e92f69e7f7", "is_reserved": 0, "rental_uris": {"android": "https://dc.lft.to/lastmile_qr_scan", "ios": "https://dc.lft.to/lastmile_qr_scan"}, "lat": 38.904743, "is_disabled": 0, "lon": -77.00731283333333}, {"fusion_lat": 0.0, "type": "electric_scooter", "name": "b5a5dbdfb0c708ce22f020bda0071936", "fusion_lon": 0.0, "bike_id": "b5a5dbdfb0c708ce22f020bda0071936", "is_reserved": 0, "rental_uris": {"android": "https://dc.lft.to/lastmile_qr_scan", "ios": "https://dc.lft.to/lastmile_qr_scan"}, "lat": 38.91119166666667, "is_disabled": 0, "lon": -77.04366616666667}, {"fusion_lat": 0.0, "type": "electric_scooter", "name": "0f10daeaea680540ce846cfa08e6250c", "fusion_lon": 0.0, "bike_id": "0f10daeaea680540ce846cfa08e6250c", "is_reserved": 0, "rental_uris": {"android": "https://dc.lft.to/lastmile_qr_scan", "ios": "https://dc.lft.to/lastmile_qr_scan"}, "lat": 38.8922185, "is_disabled": 0, "lon": -77.02346333333334}, {"fusion_lat": 0.0, "type": "electric_scooter", "name": "16cc4111a06389187c6a258adeaec96a", "fusion_lon": 0.0, "bike_id": "16cc4111a06389187c6a258adeaec96a", "is_reserved": 0, "rental_uris": {"android": "https://dc.lft.to/lastmile_qr_scan", "ios": "https://dc.lft.to/lastmile_qr_scan"}, "lat": 38.918881666666664, "is_disabled": 0, "lon": -77.03773166666667}, {"fusion_lat": 0.0, "type": "electric_scooter", "name": "b657cca99fa3078f55cebdba67165e91", "fusion_lon": 0.0, "bike_id": "b657cca99fa3078f55cebdba67165e91", "is_reserved": 0, "rental_uris": {"android": "https://dc.lft.to/lastmile_qr_scan", "ios": "https://dc.lft.to/lastmile_qr_scan"}, "lat": 38.91988216666667, "is_disabled": 0, "lon": -77.0240125}, {"fusion_lat": 0.0, "type": "electric_scooter", "name": "a41e1e96701e274068d43df1e6eb7b91", "fusion_lon": 0.0, "bike_id": "a41e1e96701e274068d43df1e6eb7b91", "is_reserved": 0, "rental_uris": {"android": "https://dc.lft.to/lastmile_qr_scan", "ios": "https://dc.lft.to/lastmile_qr_scan"}, "lat": 38.89820316666667, "is_disabled": 0, "lon": -77.03303033333333}, {"fusion_lat": 0.0, "type": "electric_scooter", "name": "16f963441cccc39f1c2beba88d891cd1", "fusion_lon": 0.0, "bike_id": "16f963441cccc39f1c2beba88d891cd1", "is_reserved": 0, "rental_uris": {"android": "https://dc.lft.to/lastmile_qr_scan", "ios": "https://dc.lft.to/lastmile_qr_scan"}, "lat": 38.857280833333334, "is_disabled": 0, "lon": -76.98936266666666}, {"fusion_lat": 0.0, "type": "electric_scooter", "name": "c859deae7dc9121f51a2972f79606289", "fusion_lon": 0.0, "bike_id": "c859deae7dc9121f51a2972f79606289", "is_reserved": 0, "rental_uris": {"android": "https://dc.lft.to/lastmile_qr_scan", "ios": "https://dc.lft.to/lastmile_qr_scan"}, "lat": 38.927154, "is_disabled": 0, "lon": -77.0413245}, {"fusion_lat": 0.0, "type": "electric_scooter", "name": "ea41691fd01312d2aa1beb5bc5398f76", "fusion_lon": 0.0, "bike_id": "ea41691fd01312d2aa1beb5bc5398f76", "is_reserved": 0, "rental_uris": {"android": "https://dc.lft.to/lastmile_qr_scan", "ios": "https://dc.lft.to/lastmile_qr_scan"}, "lat": 38.9001435, "is_disabled": 0, "lon": -77.044958}, {"fusion_lat": 0.0, "type": "electric_scooter", "name": "94ecd1f12e5158b3bc67581a3454530e", "fusion_lon": 0.0, "bike_id": "94ecd1f12e5158b3bc67581a3454530e", "is_reserved": 0, "rental_uris": {"android": "https://dc.lft.to/lastmile_qr_scan", "ios": "https://dc.lft.to/lastmile_qr_scan"}, "lat": 38.952321166666664, "is_disabled": 0, "lon": -77.0142925}, {"fusion_lat": 0.0, "type": "electric_scooter", "name": "79ed59db5ba41c92586d5fafcf841ed2", "fusion_lon": 0.0, "bike_id": "79ed59db5ba41c92586d5fafcf841ed2", "is_reserved": 0, "rental_uris": {"android": "https://dc.lft.to/lastmile_qr_scan", "ios": "https://dc.lft.to/lastmile_qr_scan"}, "lat": 38.93089766666667, "is_disabled": 0, "lon": -77.004083}, {"fusion_lat": 0.0, "type": "electric_scooter", "name": "347e9ba9d3aaa1fa04561c74f7aab5ba", "fusion_lon": 0.0, "bike_id": "347e9ba9d3aaa1fa04561c74f7aab5ba", "is_reserved": 0, "rental_uris": {"android": "https://dc.lft.to/lastmile_qr_scan", "ios": "https://dc.lft.to/lastmile_qr_scan"}, "lat": 38.9298885, "is_disabled": 0, "lon": -77.034735}, {"fusion_lat": 0.0, "type": "electric_bike", "name": "5f1c3e4d68829dc5a1b628a2462eb87f", "fusion_lon": 0.0, "bike_id": "5f1c3e4d68829dc5a1b628a2462eb87f", "is_reserved": 0, "rental_uris": {"android": "https://dc.lft.to/lastmile_qr_scan", "ios": "https://dc.lft.to/lastmile_qr_scan"}, "lat": 38.87992533333333, "is_disabled": 0, "lon": -76.98476833333334}, {"fusion_lat": 0.0, "type": "electric_scooter", "name": "9d6e6515fbeb6fcd9f89db081eae3556", "fusion_lon": 0.0, "bike_id": "9d6e6515fbeb6fcd9f89db081eae3556", "is_reserved": 0, "rental_uris": {"android": "https://dc.lft.to/lastmile_qr_scan", "ios": "https://dc.lft.to/lastmile_qr_scan"}, "lat": 38.88991683333333, "is_disabled": 0, "lon": -76.98332983333333}, {"fusion_lat": 0.0, "type": "electric_scooter", "name": "25f4843ccb74425b121e4c9fffd50fa8", "fusion_lon": 0.0, "bike_id": "25f4843ccb74425b121e4c9fffd50fa8", "is_reserved": 0, "rental_uris": {"android": "https://dc.lft.to/lastmile_qr_scan", "ios": "https://dc.lft.to/lastmile_qr_scan"}, "lat": 38.9206575, "is_disabled": 0, "lon": -77.00493933333334}, {"fusion_lat": 0.0, "type": "electric_scooter", "name": "f40bf1d95c3d9e0dc7ea1061f4b7544a", "fusion_lon": 0.0, "bike_id": "f40bf1d95c3d9e0dc7ea1061f4b7544a", "is_reserved": 0, "rental_uris": {"android": "https://dc.lft.to/lastmile_qr_scan", "ios": "https://dc.lft.to/lastmile_qr_scan"}, "lat": 38.913295833333336, "is_disabled": 0, "lon": -77.04533883333333}, {"fusion_lat": 0.0, "type": "electric_scooter", "name": "922ab80fd5b45b078dcc9491fde4aff6", "fusion_lon": 0.0, "bike_id": "922ab80fd5b45b078dcc9491fde4aff6", "is_reserved": 0, "rental_uris": {"android": "https://dc.lft.to/lastmile_qr_scan", "ios": "https://dc.lft.to/lastmile_qr_scan"}, "lat": 38.928137, "is_disabled": 0, "lon": -77.05531016666667}, {"fusion_lat": 0.0, "type": "electric_scooter", "name": "e020e407851eac865279d47c04305f9f", "fusion_lon": 0.0, "bike_id": "e020e407851eac865279d47c04305f9f", "is_reserved": 0, "rental_uris": {"android": "https://dc.lft.to/lastmile_qr_scan", "ios": "https://dc.lft.to/lastmile_qr_scan"}, "lat": 38.91634216666667, "is_disabled": 0, "lon": -77.01077016666666}, {"fusion_lat": 0.0, "type": "electric_scooter", "name": "1949e88c2d71992ceab62f2a82392407", "fusion_lon": 0.0, "bike_id": "1949e88c2d71992ceab62f2a82392407", "is_reserved": 0, "rental_uris": {"android": "https://dc.lft.to/lastmile_qr_scan", "ios": "https://dc.lft.to/lastmile_qr_scan"}, "lat": 38.877107333333335, "is_disabled": 0, "lon": -76.99384}, {"fusion_lat": 0.0, "type": "electric_scooter", "name": "661abc1962979b7dab4b4da841181158", "fusion_lon": 0.0, "bike_id": "661abc1962979b7dab4b4da841181158", "is_reserved": 0, "rental_uris": {"android": "https://dc.lft.to/lastmile_qr_scan", "ios": "https://dc.lft.to/lastmile_qr_scan"}, "lat": 38.871626666666664, "is_disabled": 0, "lon": -76.97750433333333}, {"fusion_lat": 0.0, "type": "electric_scooter", "name": "3d1613a847fd9f4447861cea0f263f03", "fusion_lon": 0.0, "bike_id": "3d1613a847fd9f4447861cea0f263f03", "is_reserved": 0, "rental_uris": {"android": "https://dc.lft.to/lastmile_qr_scan", "ios": "https://dc.lft.to/lastmile_qr_scan"}, "lat": 38.91705266666666, "is_disabled": 0, "lon": -77.00872366666667}, {"fusion_lat": 0.0, "type": "electric_scooter", "name": "29e6a0d4df0c1cfe771db413bede4bc9", "fusion_lon": 0.0, "bike_id": "29e6a0d4df0c1cfe771db413bede4bc9", "is_reserved": 0, "rental_uris": {"android": "https://dc.lft.to/lastmile_qr_scan", "ios": "https://dc.lft.to/lastmile_qr_scan"}, "lat": 38.930994, "is_disabled": 0, "lon": -77.02476116666666}, {"fusion_lat": 0.0, "type": "electric_scooter", "name": "742c4c598c95b3998691016211b06272", "fusion_lon": 0.0, "bike_id": "742c4c598c95b3998691016211b06272", "is_reserved": 0, "rental_uris": {"android": "https://dc.lft.to/lastmile_qr_scan", "ios": "https://dc.lft.to/lastmile_qr_scan"}, "lat": 38.91387566666667, "is_disabled": 0, "lon": -77.03319283333333}, {"fusion_lat": 0.0, "type": "electric_scooter", "name": "ff1a599ecf073bc4a164271d1454f26e", "fusion_lon": 0.0, "bike_id": "ff1a599ecf073bc4a164271d1454f26e", "is_reserved": 0, "rental_uris": {"android": "https://dc.lft.to/lastmile_qr_scan", "ios": "https://dc.lft.to/lastmile_qr_scan"}, "lat": 38.955588166666665, "is_disabled": 0, "lon": -77.070016}, {"fusion_lat": 0.0, "type": "electric_scooter", "name": "33c6e988e11e4fb9a91b28a9182c17e4", "fusion_lon": 0.0, "bike_id": "33c6e988e11e4fb9a91b28a9182c17e4", "is_reserved": 0, "rental_uris": {"android": "https://dc.lft.to/lastmile_qr_scan", "ios": "https://dc.lft.to/lastmile_qr_scan"}, "lat": 38.95012366666667, "is_disabled": 0, "lon": -77.06684133333333}, {"fusion_lat": 0.0, "type": "electric_scooter", "name": "843bd945b095b206f8d36ec9dc04a80f", "fusion_lon": 0.0, "bike_id": "843bd945b095b206f8d36ec9dc04a80f", "is_reserved": 0, "rental_uris": {"android": "https://dc.lft.to/lastmile_qr_scan", "ios": "https://dc.lft.to/lastmile_qr_scan"}, "lat": 38.9227115, "is_disabled": 0, "lon": -77.036714}, {"fusion_lat": 0.0, "type": "electric_scooter", "name": "a500db7fbdc408ef3ec682036eaea3ae", "fusion_lon": 0.0, "bike_id": "a500db7fbdc408ef3ec682036eaea3ae", "is_reserved": 0, "rental_uris": {"android": "https://dc.lft.to/lastmile_qr_scan", "ios": "https://dc.lft.to/lastmile_qr_scan"}, "lat": 38.933273166666666, "is_disabled": 0, "lon": -77.04401533333333}, {"fusion_lat": 0.0, "type": "electric_scooter", "name": "d797af0d6ca4a423ba938aae96ee3fa1", "fusion_lon": 0.0, "bike_id": "d797af0d6ca4a423ba938aae96ee3fa1", "is_reserved": 0, "rental_uris": {"android": "https://dc.lft.to/lastmile_qr_scan", "ios": "https://dc.lft.to/lastmile_qr_scan"}, "lat": 38.892232, "is_disabled": 0, "lon": -77.0316265}, {"fusion_lat": 0.0, "type": "electric_scooter", "name": "dae44e19837ad1411ff52c38f55c0d82", "fusion_lon": 0.0, "bike_id": "dae44e19837ad1411ff52c38f55c0d82", "is_reserved": 0, "rental_uris": {"android": "https://dc.lft.to/lastmile_qr_scan", "ios": "https://dc.lft.to/lastmile_qr_scan"}, "lat": 38.88990883333334, "is_disabled": 0, "lon": -76.93111633333334}, {"fusion_lat": 0.0, "type": "electric_scooter", "name": "63ab92a9383f125e39633351255fb79d", "fusion_lon": 0.0, "bike_id": "63ab92a9383f125e39633351255fb79d", "is_reserved": 0, "rental_uris": {"android": "https://dc.lft.to/lastmile_qr_scan", "ios": "https://dc.lft.to/lastmile_qr_scan"}, "lat": 38.9032875, "is_disabled": 0, "lon": -77.03293066666667}, {"fusion_lat": 0.0, "type": "electric_scooter", "name": "8f633072aecb84510b6417bbcdde85be", "fusion_lon": 0.0, "bike_id": "8f633072aecb84510b6417bbcdde85be", "is_reserved": 0, "rental_uris": {"android": "https://dc.lft.to/lastmile_qr_scan", "ios": "https://dc.lft.to/lastmile_qr_scan"}, "lat": 38.901692, "is_disabled": 0, "lon": -76.98075033333333}, {"fusion_lat": 0.0, "type": "electric_scooter", "name": "c2ca79425d7b8411524e898a37588b25", "fusion_lon": 0.0, "bike_id": "c2ca79425d7b8411524e898a37588b25", "is_reserved": 0, "rental_uris": {"android": "https://dc.lft.to/lastmile_qr_scan", "ios": "https://dc.lft.to/lastmile_qr_scan"}, "lat": 38.934977333333336, "is_disabled": 0, "lon": -77.02416033333333}, {"fusion_lat": 0.0, "type": "electric_scooter", "name": "ffe8b3086630151134d5b314822c4022", "fusion_lon": 0.0, "bike_id": "ffe8b3086630151134d5b314822c4022", "is_reserved": 0, "rental_uris": {"android": "https://dc.lft.to/lastmile_qr_scan", "ios": "https://dc.lft.to/lastmile_qr_scan"}, "lat": 38.917665, "is_disabled": 0, "lon": -77.03132833333333}, {"fusion_lat": 0.0, "type": "electric_scooter", "name": "810b6060e865f4eec124903fdd89fd2a", "fusion_lon": 0.0, "bike_id": "810b6060e865f4eec124903fdd89fd2a", "is_reserved": 0, "rental_uris": {"android": "https://dc.lft.to/lastmile_qr_scan", "ios": "https://dc.lft.to/lastmile_qr_scan"}, "lat": 38.89421, "is_disabled": 0, "lon": -77.0208385}, {"fusion_lat": 0.0, "type": "electric_scooter", "name": "19ad3be14ddce07c53ee9726a60a9ccf", "fusion_lon": 0.0, "bike_id": "19ad3be14ddce07c53ee9726a60a9ccf", "is_reserved": 0, "rental_uris": {"android": "https://dc.lft.to/lastmile_qr_scan", "ios": "https://dc.lft.to/lastmile_qr_scan"}, "lat": 38.91411466666667, "is_disabled": 0, "lon": -77.03234183333333}, {"fusion_lat": 0.0, "type": "electric_scooter", "name": "2e5bb28f463e9150f002b54ccad5ac08", "fusion_lon": 0.0, "bike_id": "2e5bb28f463e9150f002b54ccad5ac08", "is_reserved": 0, "rental_uris": {"android": "https://dc.lft.to/lastmile_qr_scan", "ios": "https://dc.lft.to/lastmile_qr_scan"}, "lat": 38.893159833333335, "is_disabled": 0, "lon": -76.95115616666666}, {"fusion_lat": 0.0, "type": "electric_scooter", "name": "50d0464993133dd6f3947d3677547d93", "fusion_lon": 0.0, "bike_id": "50d0464993133dd6f3947d3677547d93", "is_reserved": 0, "rental_uris": {"android": "https://dc.lft.to/lastmile_qr_scan", "ios": "https://dc.lft.to/lastmile_qr_scan"}, "lat": 38.91691933333333, "is_disabled": 0, "lon": -77.022018}, {"fusion_lat": 0.0, "type": "electric_scooter", "name": "ab9c0d4d5d65220b0fcd42c54bda3e5d", "fusion_lon": 0.0, "bike_id": "ab9c0d4d5d65220b0fcd42c54bda3e5d", "is_reserved": 0, "rental_uris": {"android": "https://dc.lft.to/lastmile_qr_scan", "ios": "https://dc.lft.to/lastmile_qr_scan"}, "lat": 38.940709166666664, "is_disabled": 0, "lon": -77.025361}, {"fusion_lat": 0.0, "type": "electric_scooter", "name": "c9d71790368414a46fc5cd6ecdd8082b", "fusion_lon": 0.0, "bike_id": "c9d71790368414a46fc5cd6ecdd8082b", "is_reserved": 0, "rental_uris": {"android": "https://dc.lft.to/lastmile_qr_scan", "ios": "https://dc.lft.to/lastmile_qr_scan"}, "lat": 38.89618133333333, "is_disabled": 0, "lon": -76.99299566666667}, {"fusion_lat": 0.0, "type": "electric_scooter", "name": "762a62734177dca03dbbd733c9dcd976", "fusion_lon": 0.0, "bike_id": "762a62734177dca03dbbd733c9dcd976", "is_reserved": 0, "rental_uris": {"android": "https://dc.lft.to/lastmile_qr_scan", "ios": "https://dc.lft.to/lastmile_qr_scan"}, "lat": 38.94183233333333, "is_disabled": 0, "lon": -77.025339}, {"fusion_lat": 0.0, "type": "electric_scooter", "name": "a061869c47fb9d24fd039afb56d3fc34", "fusion_lon": 0.0, "bike_id": "a061869c47fb9d24fd039afb56d3fc34", "is_reserved": 0, "rental_uris": {"android": "https://dc.lft.to/lastmile_qr_scan", "ios": "https://dc.lft.to/lastmile_qr_scan"}, "lat": 38.884294, "is_disabled": 0, "lon": -77.0304945}, {"fusion_lat": 0.0, "type": "electric_scooter", "name": "f1f29ad32901f2b8ed36c2b223a9421a", "fusion_lon": 0.0, "bike_id": "f1f29ad32901f2b8ed36c2b223a9421a", "is_reserved": 0, "rental_uris": {"android": "https://dc.lft.to/lastmile_qr_scan", "ios": "https://dc.lft.to/lastmile_qr_scan"}, "lat": 38.907290833333334, "is_disabled": 0, "lon": -77.0346795}, {"fusion_lat": 0.0, "type": "electric_scooter", "name": "28f86d82030fa617747191e04d2b088b", "fusion_lon": 0.0, "bike_id": "28f86d82030fa617747191e04d2b088b", "is_reserved": 0, "rental_uris": {"android": "https://dc.lft.to/lastmile_qr_scan", "ios": "https://dc.lft.to/lastmile_qr_scan"}, "lat": 38.918182, "is_disabled": 0, "lon": -77.02528366666667}, {"fusion_lat": 0.0, "type": "electric_scooter", "name": "56473d5be6e478ea1be35f2095a95d3c", "fusion_lon": 0.0, "bike_id": "56473d5be6e478ea1be35f2095a95d3c", "is_reserved": 0, "rental_uris": {"android": "https://dc.lft.to/lastmile_qr_scan", "ios": "https://dc.lft.to/lastmile_qr_scan"}, "lat": 38.91674733333333, "is_disabled": 0, "lon": -77.03691433333333}, {"fusion_lat": 0.0, "type": "electric_scooter", "name": "b108d55456ee0490a92f41ef384bbac8", "fusion_lon": 0.0, "bike_id": "b108d55456ee0490a92f41ef384bbac8", "is_reserved": 0, "rental_uris": {"android": "https://dc.lft.to/lastmile_qr_scan", "ios": "https://dc.lft.to/lastmile_qr_scan"}, "lat": 38.9072685, "is_disabled": 0, "lon": -77.03176966666666}, {"fusion_lat": 0.0, "type": "electric_scooter", "name": "07a3ecb4fea584f2bf1e73aee39c385a", "fusion_lon": 0.0, "bike_id": "07a3ecb4fea584f2bf1e73aee39c385a", "is_reserved": 0, "rental_uris": {"android": "https://dc.lft.to/lastmile_qr_scan", "ios": "https://dc.lft.to/lastmile_qr_scan"}, "lat": 38.907535, "is_disabled": 0, "lon": -77.0420635}, {"fusion_lat": 0.0, "type": "electric_scooter", "name": "e55b852588ba52a5bb1249fbf10ad6d4", "fusion_lon": 0.0, "bike_id": "e55b852588ba52a5bb1249fbf10ad6d4", "is_reserved": 0, "rental_uris": {"android": "https://dc.lft.to/lastmile_qr_scan", "ios": "https://dc.lft.to/lastmile_qr_scan"}, "lat": 38.915876, "is_disabled": 0, "lon": -77.0351705}, {"fusion_lat": 0.0, "type": "electric_scooter", "name": "3134961629dcd9e48fcacf7d0cbd0cb4", "fusion_lon": 0.0, "bike_id": "3134961629dcd9e48fcacf7d0cbd0cb4", "is_reserved": 0, "rental_uris": {"android": "https://dc.lft.to/lastmile_qr_scan", "ios": "https://dc.lft.to/lastmile_qr_scan"}, "lat": 38.91112, "is_disabled": 0, "lon": -77.01905016666667}, {"fusion_lat": 0.0, "type": "electric_scooter", "name": "ea133f58bb261b561b80842026f435dc", "fusion_lon": 0.0, "bike_id": "ea133f58bb261b561b80842026f435dc", "is_reserved": 0, "rental_uris": {"android": "https://dc.lft.to/lastmile_qr_scan", "ios": "https://dc.lft.to/lastmile_qr_scan"}, "lat": 38.900749833333336, "is_disabled": 0, "lon": -77.04537983333333}, {"fusion_lat": 0.0, "type": "electric_bike", "name": "3097ef8ff2ec0773f6ecdbe979dd36c9", "fusion_lon": 0.0, "bike_id": "3097ef8ff2ec0773f6ecdbe979dd36c9", "is_reserved": 0, "rental_uris": {"android": "https://dc.lft.to/lastmile_qr_scan", "ios": "https://dc.lft.to/lastmile_qr_scan"}, "lat": 38.94805433333333, "is_disabled": 0, "lon": -76.95970083333333}, {"fusion_lat": 0.0, "type": "electric_scooter", "name": "5ee52f48ab63c8248228bb3d932a8c3d", "fusion_lon": 0.0, "bike_id": "5ee52f48ab63c8248228bb3d932a8c3d", "is_reserved": 0, "rental_uris": {"android": "https://dc.lft.to/lastmile_qr_scan", "ios": "https://dc.lft.to/lastmile_qr_scan"}, "lat": 38.920457, "is_disabled": 0, "lon": -77.036419}, {"fusion_lat": 0.0, "type": "electric_scooter", "name": "1dbc6da381e5383d3af5dd1a81136eb8", "fusion_lon": 0.0, "bike_id": "1dbc6da381e5383d3af5dd1a81136eb8", "is_reserved": 0, "rental_uris": {"android": "https://dc.lft.to/lastmile_qr_scan", "ios": "https://dc.lft.to/lastmile_qr_scan"}, "lat": 38.93421983333333, "is_disabled": 0, "lon": -77.044078}, {"fusion_lat": 0.0, "type": "electric_scooter", "name": "83d3efb5c27f6ccb0b20f2581bd83e69", "fusion_lon": 0.0, "bike_id": "83d3efb5c27f6ccb0b20f2581bd83e69", "is_reserved": 0, "rental_uris": {"android": "https://dc.lft.to/lastmile_qr_scan", "ios": "https://dc.lft.to/lastmile_qr_scan"}, "lat": 38.943181833333334, "is_disabled": 0, "lon": -77.01729533333334}, {"fusion_lat": 0.0, "type": "electric_scooter", "name": "abeae3279247f9f7c058d99c39e314bb", "fusion_lon": 0.0, "bike_id": "abeae3279247f9f7c058d99c39e314bb", "is_reserved": 0, "rental_uris": {"android": "https://dc.lft.to/lastmile_qr_scan", "ios": "https://dc.lft.to/lastmile_qr_scan"}, "lat": 38.898536, "is_disabled": 0, "lon": -76.99033666666666}, {"fusion_lat": 0.0, "type": "electric_scooter", "name": "2e8b5a1c1ad455161fa736c439cd757c", "fusion_lon": 0.0, "bike_id": "2e8b5a1c1ad455161fa736c439cd757c", "is_reserved": 0, "rental_uris": {"android": "https://dc.lft.to/lastmile_qr_scan", "ios": "https://dc.lft.to/lastmile_qr_scan"}, "lat": 38.906338, "is_disabled": 0, "lon": -77.05154883333333}, {"fusion_lat": 0.0, "type": "electric_scooter", "name": "898be9d477f853e4400fe32f5297028d", "fusion_lon": 0.0, "bike_id": "898be9d477f853e4400fe32f5297028d", "is_reserved": 0, "rental_uris": {"android": "https://dc.lft.to/lastmile_qr_scan", "ios": "https://dc.lft.to/lastmile_qr_scan"}, "lat": 38.9737445, "is_disabled": 0, "lon": -77.01860133333334}, {"fusion_lat": 0.0, "type": "electric_scooter", "name": "154fdf41fd1811f1323a417b135c8f03", "fusion_lon": 0.0, "bike_id": "154fdf41fd1811f1323a417b135c8f03", "is_reserved": 0, "rental_uris": {"android": "https://dc.lft.to/lastmile_qr_scan", "ios": "https://dc.lft.to/lastmile_qr_scan"}, "lat": 38.9010605, "is_disabled": 0, "lon": -77.04346016666666}, {"fusion_lat": 0.0, "type": "electric_bike", "name": "a5e0bfd24a125c34f855bd161b445696", "fusion_lon": 0.0, "bike_id": "a5e0bfd24a125c34f855bd161b445696", "is_reserved": 0, "rental_uris": {"android": "https://dc.lft.to/lastmile_qr_scan", "ios": "https://dc.lft.to/lastmile_qr_scan"}, "lat": 38.93646416666667, "is_disabled": 0, "lon": -77.0366895}, {"fusion_lat": 0.0, "type": "electric_scooter", "name": "ed182f5a5b695a1c2aaf35584dcfa5d9", "fusion_lon": 0.0, "bike_id": "ed182f5a5b695a1c2aaf35584dcfa5d9", "is_reserved": 0, "rental_uris": {"android": "https://dc.lft.to/lastmile_qr_scan", "ios": "https://dc.lft.to/lastmile_qr_scan"}, "lat": 38.933397666666664, "is_disabled": 0, "lon": -77.05713183333333}, {"fusion_lat": 0.0, "type": "electric_scooter", "name": "d21f30b5272ecec67cbe5188f11e4ad5", "fusion_lon": 0.0, "bike_id": "d21f30b5272ecec67cbe5188f11e4ad5", "is_reserved": 0, "rental_uris": {"android": "https://dc.lft.to/lastmile_qr_scan", "ios": "https://dc.lft.to/lastmile_qr_scan"}, "lat": 38.87069566666667, "is_disabled": 0, "lon": -76.98912533333333}, {"fusion_lat": 0.0, "type": "electric_bike", "name": "744acc431ce81edfab25d79291e3954c", "fusion_lon": 0.0, "bike_id": "744acc431ce81edfab25d79291e3954c", "is_reserved": 0, "rental_uris": {"android": "https://dc.lft.to/lastmile_qr_scan", "ios": "https://dc.lft.to/lastmile_qr_scan"}, "lat": 38.878378, "is_disabled": 0, "lon": -76.98376}, {"fusion_lat": 0.0, "type": "electric_scooter", "name": "f535a0eb9170e4d555d657fa4a11a2fa", "fusion_lon": 0.0, "bike_id": "f535a0eb9170e4d555d657fa4a11a2fa", "is_reserved": 0, "rental_uris": {"android": "https://dc.lft.to/lastmile_qr_scan", "ios": "https://dc.lft.to/lastmile_qr_scan"}, "lat": 38.95845883333333, "is_disabled": 0, "lon": -77.06858033333333}, {"fusion_lat": 0.0, "type": "electric_scooter", "name": "a879ec2d15d5879b7f054669df403a9a", "fusion_lon": 0.0, "bike_id": "a879ec2d15d5879b7f054669df403a9a", "is_reserved": 0, "rental_uris": {"android": "https://dc.lft.to/lastmile_qr_scan", "ios": "https://dc.lft.to/lastmile_qr_scan"}, "lat": 38.88583233333333, "is_disabled": 0, "lon": -77.01763683333333}, {"fusion_lat": 0.0, "type": "electric_scooter", "name": "9fc81a765b04c8fd7897e7bb3b69b851", "fusion_lon": 0.0, "bike_id": "9fc81a765b04c8fd7897e7bb3b69b851", "is_reserved": 0, "rental_uris": {"android": "https://dc.lft.to/lastmile_qr_scan", "ios": "https://dc.lft.to/lastmile_qr_scan"}, "lat": 38.9066315, "is_disabled": 0, "lon": -77.00600066666667}, {"fusion_lat": 0.0, "type": "electric_scooter", "name": "f2a3ab79da4753977dd2a39c133387d9", "fusion_lon": 0.0, "bike_id": "f2a3ab79da4753977dd2a39c133387d9", "is_reserved": 0, "rental_uris": {"android": "https://dc.lft.to/lastmile_qr_scan", "ios": "https://dc.lft.to/lastmile_qr_scan"}, "lat": 38.92857133333333, "is_disabled": 0, "lon": -77.03094816666666}, {"fusion_lat": 0.0, "type": "electric_bike", "name": "023c0a0bd566fcf89059272e80798bec", "fusion_lon": 0.0, "bike_id": "023c0a0bd566fcf89059272e80798bec", "is_reserved": 0, "rental_uris": {"android": "https://dc.lft.to/lastmile_qr_scan", "ios": "https://dc.lft.to/lastmile_qr_scan"}, "lat": 38.93411616666667, "is_disabled": 0, "lon": -77.0353855}, {"fusion_lat": 0.0, "type": "electric_scooter", "name": "d0b2cdc7846c292638c36ab5838fcb0c", "fusion_lon": 0.0, "bike_id": "d0b2cdc7846c292638c36ab5838fcb0c", "is_reserved": 0, "rental_uris": {"android": "https://dc.lft.to/lastmile_qr_scan", "ios": "https://dc.lft.to/lastmile_qr_scan"}, "lat": 38.9149295, "is_disabled": 0, "lon": -77.0258495}, {"fusion_lat": 0.0, "type": "electric_scooter", "name": "0e70dcb32debcf941e09c5fd2f0a6af0", "fusion_lon": 0.0, "bike_id": "0e70dcb32debcf941e09c5fd2f0a6af0", "is_reserved": 0, "rental_uris": {"android": "https://dc.lft.to/lastmile_qr_scan", "ios": "https://dc.lft.to/lastmile_qr_scan"}, "lat": 38.92485766666667, "is_disabled": 0, "lon": -77.02144383333334}, {"fusion_lat": 0.0, "type": "electric_scooter", "name": "e46fc6eb8705ef4b268fe914ba9061c4", "fusion_lon": 0.0, "bike_id": "e46fc6eb8705ef4b268fe914ba9061c4", "is_reserved": 0, "rental_uris": {"android": "https://dc.lft.to/lastmile_qr_scan", "ios": "https://dc.lft.to/lastmile_qr_scan"}, "lat": 38.907035666666665, "is_disabled": 0, "lon": -77.00154216666667}, {"fusion_lat": 0.0, "type": "electric_scooter", "name": "9a0f2e30cd1de6c820963d3943dd8a70", "fusion_lon": 0.0, "bike_id": "9a0f2e30cd1de6c820963d3943dd8a70", "is_reserved": 0, "rental_uris": {"android": "https://dc.lft.to/lastmile_qr_scan", "ios": "https://dc.lft.to/lastmile_qr_scan"}, "lat": 38.92030716666667, "is_disabled": 0, "lon": -77.01115416666667}, {"fusion_lat": 0.0, "type": "electric_scooter", "name": "cb6e16fb9aa8d5ca3756513513af8279", "fusion_lon": 0.0, "bike_id": "cb6e16fb9aa8d5ca3756513513af8279", "is_reserved": 0, "rental_uris": {"android": "https://dc.lft.to/lastmile_qr_scan", "ios": "https://dc.lft.to/lastmile_qr_scan"}, "lat": 38.93315416666667, "is_disabled": 0, "lon": -77.03069833333333}, {"fusion_lat": 0.0, "type": "electric_scooter", "name": "93d5ac12d026d4b6ac2b42f06c349da0", "fusion_lon": 0.0, "bike_id": "93d5ac12d026d4b6ac2b42f06c349da0", "is_reserved": 0, "rental_uris": {"android": "https://dc.lft.to/lastmile_qr_scan", "ios": "https://dc.lft.to/lastmile_qr_scan"}, "lat": 38.9280015, "is_disabled": 0, "lon": -77.02479916666667}, {"fusion_lat": 0.0, "type": "electric_scooter", "name": "347f17ce0e1a9cf662bad0bd0eeea283", "fusion_lon": 0.0, "bike_id": "347f17ce0e1a9cf662bad0bd0eeea283", "is_reserved": 0, "rental_uris": {"android": "https://dc.lft.to/lastmile_qr_scan", "ios": "https://dc.lft.to/lastmile_qr_scan"}, "lat": 38.920596, "is_disabled": 0, "lon": -77.03994266666666}, {"fusion_lat": 0.0, "type": "electric_scooter", "name": "3c704ad3800e3612eef6805da93cf844", "fusion_lon": 0.0, "bike_id": "3c704ad3800e3612eef6805da93cf844", "is_reserved": 0, "rental_uris": {"android": "https://dc.lft.to/lastmile_qr_scan", "ios": "https://dc.lft.to/lastmile_qr_scan"}, "lat": 38.9246435, "is_disabled": 0, "lon": -77.07812183333333}, {"fusion_lat": 0.0, "type": "electric_bike", "name": "647a22ef62c8f290b6dd117ff3e67599", "fusion_lon": 0.0, "bike_id": "647a22ef62c8f290b6dd117ff3e67599", "is_reserved": 0, "rental_uris": {"android": "https://dc.lft.to/lastmile_qr_scan", "ios": "https://dc.lft.to/lastmile_qr_scan"}, "lat": 38.8935395, "is_disabled": 0, "lon": -77.18737366666667}, {"fusion_lat": 0.0, "type": "electric_scooter", "name": "a1fb5de3a0ff659b168f81aacc53c5ae", "fusion_lon": 0.0, "bike_id": "a1fb5de3a0ff659b168f81aacc53c5ae", "is_reserved": 0, "rental_uris": {"android": "https://dc.lft.to/lastmile_qr_scan", "ios": "https://dc.lft.to/lastmile_qr_scan"}, "lat": 38.92053516666667, "is_disabled": 0, "lon": -77.03341966666666}, {"fusion_lat": 0.0, "type": "electric_scooter", "name": "bff8568f0400f8562f7925944f971da9", "fusion_lon": 0.0, "bike_id": "bff8568f0400f8562f7925944f971da9", "is_reserved": 0, "rental_uris": {"android": "https://dc.lft.to/lastmile_qr_scan", "ios": "https://dc.lft.to/lastmile_qr_scan"}, "lat": 38.91176316666667, "is_disabled": 0, "lon": -77.04919633333333}, {"fusion_lat": 0.0, "type": "electric_scooter", "name": "62dd10765928407e6b0e3ff594a1d500", "fusion_lon": 0.0, "bike_id": "62dd10765928407e6b0e3ff594a1d500", "is_reserved": 0, "rental_uris": {"android": "https://dc.lft.to/lastmile_qr_scan", "ios": "https://dc.lft.to/lastmile_qr_scan"}, "lat": 38.92365383333333, "is_disabled": 0, "lon": -77.050444}, {"fusion_lat": 0.0, "type": "electric_bike", "name": "c31156e063d871cc0c97b82d40762c57", "fusion_lon": 0.0, "bike_id": "c31156e063d871cc0c97b82d40762c57", "is_reserved": 0, "rental_uris": {"android": "https://dc.lft.to/lastmile_qr_scan", "ios": "https://dc.lft.to/lastmile_qr_scan"}, "lat": 38.85424866666666, "is_disabled": 0, "lon": -77.1207775}, {"fusion_lat": 0.0, "type": "electric_scooter", "name": "b8f2ac9c4d16d0c880361463e7ace749", "fusion_lon": 0.0, "bike_id": "b8f2ac9c4d16d0c880361463e7ace749", "is_reserved": 0, "rental_uris": {"android": "https://dc.lft.to/lastmile_qr_scan", "ios": "https://dc.lft.to/lastmile_qr_scan"}, "lat": 38.90262716666667, "is_disabled": 0, "lon": -77.02645983333333}, {"fusion_lat": 0.0, "type": "electric_scooter", "name": "58a845deddafeebfca03ea8b2a5b7654", "fusion_lon": 0.0, "bike_id": "58a845deddafeebfca03ea8b2a5b7654", "is_reserved": 0, "rental_uris": {"android": "https://dc.lft.to/lastmile_qr_scan", "ios": "https://dc.lft.to/lastmile_qr_scan"}, "lat": 38.92172016666667, "is_disabled": 0, "lon": -77.0384645}, {"fusion_lat": 0.0, "type": "electric_scooter", "name": "18faf4d7056aa89c162ca84d8886a6c1", "fusion_lon": 0.0, "bike_id": "18faf4d7056aa89c162ca84d8886a6c1", "is_reserved": 0, "rental_uris": {"android": "https://dc.lft.to/lastmile_qr_scan", "ios": "https://dc.lft.to/lastmile_qr_scan"}, "lat": 38.912282166666664, "is_disabled": 0, "lon": -77.02274383333334}, {"fusion_lat": 0.0, "type": "electric_scooter", "name": "718d7b79f711694161b69086ca2155f8", "fusion_lon": 0.0, "bike_id": "718d7b79f711694161b69086ca2155f8", "is_reserved": 0, "rental_uris": {"android": "https://dc.lft.to/lastmile_qr_scan", "ios": "https://dc.lft.to/lastmile_qr_scan"}, "lat": 38.89888666666667, "is_disabled": 0, "lon": -76.93170833333333}, {"fusion_lat": 0.0, "type": "electric_scooter", "name": "973bbf55c512d1bdec507c0d8afabd22", "fusion_lon": 0.0, "bike_id": "973bbf55c512d1bdec507c0d8afabd22", "is_reserved": 0, "rental_uris": {"android": "https://dc.lft.to/lastmile_qr_scan", "ios": "https://dc.lft.to/lastmile_qr_scan"}, "lat": 38.93244933333333, "is_disabled": 0, "lon": -77.03414566666666}, {"fusion_lat": 0.0, "type": "electric_scooter", "name": "e60c125cc9b1eb9a87aab6ce75918ef5", "fusion_lon": 0.0, "bike_id": "e60c125cc9b1eb9a87aab6ce75918ef5", "is_reserved": 0, "rental_uris": {"android": "https://dc.lft.to/lastmile_qr_scan", "ios": "https://dc.lft.to/lastmile_qr_scan"}, "lat": 38.8932695, "is_disabled": 0, "lon": -76.94379416666666}, {"fusion_lat": 0.0, "type": "electric_scooter", "name": "06b1c2f0aee231f2108a7aa2707e1062", "fusion_lon": 0.0, "bike_id": "06b1c2f0aee231f2108a7aa2707e1062", "is_reserved": 0, "rental_uris": {"android": "https://dc.lft.to/lastmile_qr_scan", "ios": "https://dc.lft.to/lastmile_qr_scan"}, "lat": 38.90494533333333, "is_disabled": 0, "lon": -76.97923716666666}, {"fusion_lat": 0.0, "type": "electric_scooter", "name": "0c0d75eb5e182b4ae69cd8aca6cee744", "fusion_lon": 0.0, "bike_id": "0c0d75eb5e182b4ae69cd8aca6cee744", "is_reserved": 0, "rental_uris": {"android": "https://dc.lft.to/lastmile_qr_scan", "ios": "https://dc.lft.to/lastmile_qr_scan"}, "lat": 38.8875405, "is_disabled": 0, "lon": -77.0087845}, {"fusion_lat": 0.0, "type": "electric_scooter", "name": "99391c659c63f29e4edf9d80ad507b89", "fusion_lon": 0.0, "bike_id": "99391c659c63f29e4edf9d80ad507b89", "is_reserved": 0, "rental_uris": {"android": "https://dc.lft.to/lastmile_qr_scan", "ios": "https://dc.lft.to/lastmile_qr_scan"}, "lat": 38.89919883333334, "is_disabled": 0, "lon": -76.93379783333333}, {"fusion_lat": 0.0, "type": "electric_scooter", "name": "c9e291186ca1f6034b88512c4786490f", "fusion_lon": 0.0, "bike_id": "c9e291186ca1f6034b88512c4786490f", "is_reserved": 0, "rental_uris": {"android": "https://dc.lft.to/lastmile_qr_scan", "ios": "https://dc.lft.to/lastmile_qr_scan"}, "lat": 38.905622666666666, "is_disabled": 0, "lon": -76.97393083333333}, {"fusion_lat": 0.0, "type": "electric_scooter", "name": "543febb5153d88d42a2d7c0eefe44e55", "fusion_lon": 0.0, "bike_id": "543febb5153d88d42a2d7c0eefe44e55", "is_reserved": 0, "rental_uris": {"android": "https://dc.lft.to/lastmile_qr_scan", "ios": "https://dc.lft.to/lastmile_qr_scan"}, "lat": 38.91119116666667, "is_disabled": 0, "lon": -77.02086283333334}, {"fusion_lat": 0.0, "type": "electric_scooter", "name": "71754cf1cbea2c7f940c22e5161f5833", "fusion_lon": 0.0, "bike_id": "71754cf1cbea2c7f940c22e5161f5833", "is_reserved": 0, "rental_uris": {"android": "https://dc.lft.to/lastmile_qr_scan", "ios": "https://dc.lft.to/lastmile_qr_scan"}, "lat": 38.90721583333333, "is_disabled": 0, "lon": -77.07431216666667}, {"fusion_lat": 0.0, "type": "electric_scooter", "name": "3e5a70fb1a2e8a8a1cc7b1e92bf7f0dc", "fusion_lon": 0.0, "bike_id": "3e5a70fb1a2e8a8a1cc7b1e92bf7f0dc", "is_reserved": 0, "rental_uris": {"android": "https://dc.lft.to/lastmile_qr_scan", "ios": "https://dc.lft.to/lastmile_qr_scan"}, "lat": 38.921534333333334, "is_disabled": 0, "lon": -77.03510366666667}, {"fusion_lat": 0.0, "type": "electric_scooter", "name": "147dce24e1ab66ac37161749e1449bfd", "fusion_lon": 0.0, "bike_id": "147dce24e1ab66ac37161749e1449bfd", "is_reserved": 0, "rental_uris": {"android": "https://dc.lft.to/lastmile_qr_scan", "ios": "https://dc.lft.to/lastmile_qr_scan"}, "lat": 38.957342, "is_disabled": 0, "lon": -77.02401766666667}, {"fusion_lat": 0.0, "type": "electric_scooter", "name": "961ade9634233caec7f1c074d989dc30", "fusion_lon": 0.0, "bike_id": "961ade9634233caec7f1c074d989dc30", "is_reserved": 0, "rental_uris": {"android": "https://dc.lft.to/lastmile_qr_scan", "ios": "https://dc.lft.to/lastmile_qr_scan"}, "lat": 38.90945, "is_disabled": 0, "lon": -77.04492733333333}, {"fusion_lat": 0.0, "type": "electric_scooter", "name": "440ba4d2464ae425c2d5b40f190b52a2", "fusion_lon": 0.0, "bike_id": "440ba4d2464ae425c2d5b40f190b52a2", "is_reserved": 0, "rental_uris": {"android": "https://dc.lft.to/lastmile_qr_scan", "ios": "https://dc.lft.to/lastmile_qr_scan"}, "lat": 38.926183333333334, "is_disabled": 0, "lon": -77.04332483333333}, {"fusion_lat": 0.0, "type": "electric_scooter", "name": "eeda720d3a5e8e10adf98b621d7cbf88", "fusion_lon": 0.0, "bike_id": "eeda720d3a5e8e10adf98b621d7cbf88", "is_reserved": 0, "rental_uris": {"android": "https://dc.lft.to/lastmile_qr_scan", "ios": "https://dc.lft.to/lastmile_qr_scan"}, "lat": 38.903425166666665, "is_disabled": 0, "lon": -76.9827555}, {"fusion_lat": 0.0, "type": "electric_scooter", "name": "98f585d9022535fba7770e6460c12c78", "fusion_lon": 0.0, "bike_id": "98f585d9022535fba7770e6460c12c78", "is_reserved": 0, "rental_uris": {"android": "https://dc.lft.to/lastmile_qr_scan", "ios": "https://dc.lft.to/lastmile_qr_scan"}, "lat": 38.928974, "is_disabled": 0, "lon": -77.032526}, {"fusion_lat": 0.0, "type": "electric_scooter", "name": "276f892f0ef3280e8e2947c753fc8c17", "fusion_lon": 0.0, "bike_id": "276f892f0ef3280e8e2947c753fc8c17", "is_reserved": 0, "rental_uris": {"android": "https://dc.lft.to/lastmile_qr_scan", "ios": "https://dc.lft.to/lastmile_qr_scan"}, "lat": 38.900528333333334, "is_disabled": 0, "lon": -77.048745}, {"fusion_lat": 0.0, "type": "electric_scooter", "name": "7b80bb1d950738f7362f03590acbc4b7", "fusion_lon": 0.0, "bike_id": "7b80bb1d950738f7362f03590acbc4b7", "is_reserved": 0, "rental_uris": {"android": "https://dc.lft.to/lastmile_qr_scan", "ios": "https://dc.lft.to/lastmile_qr_scan"}, "lat": 38.904768, "is_disabled": 0, "lon": -76.9890765}, {"fusion_lat": 0.0, "type": "electric_scooter", "name": "5a3fbd93ac5fca698ddcf2ffb1ddea09", "fusion_lon": 0.0, "bike_id": "5a3fbd93ac5fca698ddcf2ffb1ddea09", "is_reserved": 0, "rental_uris": {"android": "https://dc.lft.to/lastmile_qr_scan", "ios": "https://dc.lft.to/lastmile_qr_scan"}, "lat": 38.915587333333335, "is_disabled": 0, "lon": -77.024303}, {"fusion_lat": 0.0, "type": "electric_scooter", "name": "9598b5600da73b3a57b368c0c2c7ca8b", "fusion_lon": 0.0, "bike_id": "9598b5600da73b3a57b368c0c2c7ca8b", "is_reserved": 0, "rental_uris": {"android": "https://dc.lft.to/lastmile_qr_scan", "ios": "https://dc.lft.to/lastmile_qr_scan"}, "lat": 38.920829499999996, "is_disabled": 0, "lon": -77.02315666666667}, {"fusion_lat": 0.0, "type": "electric_scooter", "name": "ba22e9575e3c3aa3ddc248394cc7b7f6", "fusion_lon": 0.0, "bike_id": "ba22e9575e3c3aa3ddc248394cc7b7f6", "is_reserved": 0, "rental_uris": {"android": "https://dc.lft.to/lastmile_qr_scan", "ios": "https://dc.lft.to/lastmile_qr_scan"}, "lat": 38.8964275, "is_disabled": 0, "lon": -76.99946716666666}, {"fusion_lat": 0.0, "type": "electric_scooter", "name": "4beea5341475d4ed985bdd58881f41b1", "fusion_lon": 0.0, "bike_id": "4beea5341475d4ed985bdd58881f41b1", "is_reserved": 0, "rental_uris": {"android": "https://dc.lft.to/lastmile_qr_scan", "ios": "https://dc.lft.to/lastmile_qr_scan"}, "lat": 38.892324, "is_disabled": 0, "lon": -77.03187566666666}, {"fusion_lat": 0.0, "type": "electric_scooter", "name": "f47be1469092d7d0398043eb5f9632ce", "fusion_lon": 0.0, "bike_id": "f47be1469092d7d0398043eb5f9632ce", "is_reserved": 0, "rental_uris": {"android": "https://dc.lft.to/lastmile_qr_scan", "ios": "https://dc.lft.to/lastmile_qr_scan"}, "lat": 38.9189755, "is_disabled": 0, "lon": -77.03219816666666}, {"fusion_lat": 0.0, "type": "electric_scooter", "name": "ba3011ce8755dd85a57cec98e066426f", "fusion_lon": 0.0, "bike_id": "ba3011ce8755dd85a57cec98e066426f", "is_reserved": 0, "rental_uris": {"android": "https://dc.lft.to/lastmile_qr_scan", "ios": "https://dc.lft.to/lastmile_qr_scan"}, "lat": 38.938667833333334, "is_disabled": 0, "lon": -77.02655966666667}, {"fusion_lat": 0.0, "type": "electric_scooter", "name": "b445b5f317e0c6c333bff873b9c51d88", "fusion_lon": 0.0, "bike_id": "b445b5f317e0c6c333bff873b9c51d88", "is_reserved": 0, "rental_uris": {"android": "https://dc.lft.to/lastmile_qr_scan", "ios": "https://dc.lft.to/lastmile_qr_scan"}, "lat": 38.914966, "is_disabled": 0, "lon": -76.9838135}, {"fusion_lat": 0.0, "type": "electric_scooter", "name": "5c85400a9fc5d912069ae5728a02a8ae", "fusion_lon": 0.0, "bike_id": "5c85400a9fc5d912069ae5728a02a8ae", "is_reserved": 0, "rental_uris": {"android": "https://dc.lft.to/lastmile_qr_scan", "ios": "https://dc.lft.to/lastmile_qr_scan"}, "lat": 38.88683283333334, "is_disabled": 0, "lon": -76.9900645}, {"fusion_lat": 0.0, "type": "electric_bike", "name": "d91fa03854d746be9f8b8cfaac3f262c", "fusion_lon": 0.0, "bike_id": "d91fa03854d746be9f8b8cfaac3f262c", "is_reserved": 0, "rental_uris": {"android": "https://dc.lft.to/lastmile_qr_scan", "ios": "https://dc.lft.to/lastmile_qr_scan"}, "lat": 38.855763833333334, "is_disabled": 0, "lon": -77.1177245}, {"fusion_lat": 0.0, "type": "electric_scooter", "name": "32360fdcf9d412e6eaf5f6a7e2a3a9f1", "fusion_lon": 0.0, "bike_id": "32360fdcf9d412e6eaf5f6a7e2a3a9f1", "is_reserved": 0, "rental_uris": {"android": "https://dc.lft.to/lastmile_qr_scan", "ios": "https://dc.lft.to/lastmile_qr_scan"}, "lat": 38.91425733333333, "is_disabled": 0, "lon": -77.04158833333334}, {"fusion_lat": 0.0, "type": "electric_scooter", "name": "bb2acd476a7f05fe0a8385f9419e0233", "fusion_lon": 0.0, "bike_id": "bb2acd476a7f05fe0a8385f9419e0233", "is_reserved": 0, "rental_uris": {"android": "https://dc.lft.to/lastmile_qr_scan", "ios": "https://dc.lft.to/lastmile_qr_scan"}, "lat": 38.904608333333336, "is_disabled": 0, "lon": -77.0348015}, {"fusion_lat": 0.0, "type": "electric_bike", "name": "5f3f3270d9d5e5e35dee4d17faa96b82", "fusion_lon": 0.0, "bike_id": "5f3f3270d9d5e5e35dee4d17faa96b82", "is_reserved": 0, "rental_uris": {"android": "https://dc.lft.to/lastmile_qr_scan", "ios": "https://dc.lft.to/lastmile_qr_scan"}, "lat": 38.96031416666667, "is_disabled": 0, "lon": -77.0341475}, {"fusion_lat": 0.0, "type": "electric_bike", "name": "6386f6a0e8f4a729fd7c094d8b33efc0", "fusion_lon": 0.0, "bike_id": "6386f6a0e8f4a729fd7c094d8b33efc0", "is_reserved": 0, "rental_uris": {"android": "https://dc.lft.to/lastmile_qr_scan", "ios": "https://dc.lft.to/lastmile_qr_scan"}, "lat": 38.84508833333334, "is_disabled": 0, "lon": -76.99353766666667}, {"fusion_lat": 0.0, "type": "electric_scooter", "name": "29ed260821c855cf750feb68606d68e0", "fusion_lon": 0.0, "bike_id": "29ed260821c855cf750feb68606d68e0", "is_reserved": 0, "rental_uris": {"android": "https://dc.lft.to/lastmile_qr_scan", "ios": "https://dc.lft.to/lastmile_qr_scan"}, "lat": 38.90006016666667, "is_disabled": 0, "lon": -77.02630183333333}, {"fusion_lat": 0.0, "type": "electric_scooter", "name": "40226e58499c45266583c9027c762830", "fusion_lon": 0.0, "bike_id": "40226e58499c45266583c9027c762830", "is_reserved": 0, "rental_uris": {"android": "https://dc.lft.to/lastmile_qr_scan", "ios": "https://dc.lft.to/lastmile_qr_scan"}, "lat": 38.89225666666667, "is_disabled": 0, "lon": -77.0234445}, {"fusion_lat": 0.0, "type": "electric_scooter", "name": "a6efbb15d7b769925526ed38d895c43d", "fusion_lon": 0.0, "bike_id": "a6efbb15d7b769925526ed38d895c43d", "is_reserved": 0, "rental_uris": {"android": "https://dc.lft.to/lastmile_qr_scan", "ios": "https://dc.lft.to/lastmile_qr_scan"}, "lat": 38.90517216666667, "is_disabled": 0, "lon": -77.04819016666667}, {"fusion_lat": 0.0, "type": "electric_scooter", "name": "e46efcc5d75dc2b9cbf0b76c34e0c5c3", "fusion_lon": 0.0, "bike_id": "e46efcc5d75dc2b9cbf0b76c34e0c5c3", "is_reserved": 0, "rental_uris": {"android": "https://dc.lft.to/lastmile_qr_scan", "ios": "https://dc.lft.to/lastmile_qr_scan"}, "lat": 38.885951166666665, "is_disabled": 0, "lon": -77.01229766666667}, {"fusion_lat": 0.0, "type": "electric_scooter", "name": "7e86d2bf720dbe92810989c800fe23f2", "fusion_lon": 0.0, "bike_id": "7e86d2bf720dbe92810989c800fe23f2", "is_reserved": 0, "rental_uris": {"android": "https://dc.lft.to/lastmile_qr_scan", "ios": "https://dc.lft.to/lastmile_qr_scan"}, "lat": 38.892938666666666, "is_disabled": 0, "lon": -77.03213033333333}, {"fusion_lat": 0.0, "type": "electric_scooter", "name": "963c179b0a4d04821c7d992e2823c478", "fusion_lon": 0.0, "bike_id": "963c179b0a4d04821c7d992e2823c478", "is_reserved": 0, "rental_uris": {"android": "https://dc.lft.to/lastmile_qr_scan", "ios": "https://dc.lft.to/lastmile_qr_scan"}, "lat": 38.930953, "is_disabled": 0, "lon": -77.03263066666666}, {"fusion_lat": 0.0, "type": "electric_bike", "name": "8360ebc6450c9aef1ce875526dd601dd", "fusion_lon": 0.0, "bike_id": "8360ebc6450c9aef1ce875526dd601dd", "is_reserved": 0, "rental_uris": {"android": "https://dc.lft.to/lastmile_qr_scan", "ios": "https://dc.lft.to/lastmile_qr_scan"}, "lat": 38.869417, "is_disabled": 0, "lon": -77.0946735}, {"fusion_lat": 0.0, "type": "electric_scooter", "name": "1b72836e8718f872ea9ea510342d7f28", "fusion_lon": 0.0, "bike_id": "1b72836e8718f872ea9ea510342d7f28", "is_reserved": 0, "rental_uris": {"android": "https://dc.lft.to/lastmile_qr_scan", "ios": "https://dc.lft.to/lastmile_qr_scan"}, "lat": 38.90513333333333, "is_disabled": 0, "lon": -77.0685785}, {"fusion_lat": 0.0, "type": "electric_scooter", "name": "4c6a7c012a3643f9d4d6acb0770cc434", "fusion_lon": 0.0, "bike_id": "4c6a7c012a3643f9d4d6acb0770cc434", "is_reserved": 0, "rental_uris": {"android": "https://dc.lft.to/lastmile_qr_scan", "ios": "https://dc.lft.to/lastmile_qr_scan"}, "lat": 38.91966683333333, "is_disabled": 0, "lon": -77.04512866666667}, {"fusion_lat": 0.0, "type": "electric_scooter", "name": "e856768954fed53a0325405468a36792", "fusion_lon": 0.0, "bike_id": "e856768954fed53a0325405468a36792", "is_reserved": 0, "rental_uris": {"android": "https://dc.lft.to/lastmile_qr_scan", "ios": "https://dc.lft.to/lastmile_qr_scan"}, "lat": 38.888525333333334, "is_disabled": 0, "lon": -76.92677416666666}, {"fusion_lat": 0.0, "type": "electric_bike", "name": "426bfe6c3e93053ad74c2e048aa2ee35", "fusion_lon": 0.0, "bike_id": "426bfe6c3e93053ad74c2e048aa2ee35", "is_reserved": 0, "rental_uris": {"android": "https://dc.lft.to/lastmile_qr_scan", "ios": "https://dc.lft.to/lastmile_qr_scan"}, "lat": 38.985496, "is_disabled": 0, "lon": -77.00401866666667}, {"fusion_lat": 0.0, "type": "electric_scooter", "name": "000a3a0739f8a24e96fef25af77ec49f", "fusion_lon": 0.0, "bike_id": "000a3a0739f8a24e96fef25af77ec49f", "is_reserved": 0, "rental_uris": {"android": "https://dc.lft.to/lastmile_qr_scan", "ios": "https://dc.lft.to/lastmile_qr_scan"}, "lat": 38.9182935, "is_disabled": 0, "lon": -77.033603}, {"fusion_lat": 0.0, "type": "electric_scooter", "name": "4e9c0263c85a7445c5ccb23493e80e3f", "fusion_lon": 0.0, "bike_id": "4e9c0263c85a7445c5ccb23493e80e3f", "is_reserved": 0, "rental_uris": {"android": "https://dc.lft.to/lastmile_qr_scan", "ios": "https://dc.lft.to/lastmile_qr_scan"}, "lat": 38.916542666666665, "is_disabled": 0, "lon": -77.03660233333333}, {"fusion_lat": 0.0, "type": "electric_scooter", "name": "f3c6a59f59cf73995f33d71db1d86413", "fusion_lon": 0.0, "bike_id": "f3c6a59f59cf73995f33d71db1d86413", "is_reserved": 0, "rental_uris": {"android": "https://dc.lft.to/lastmile_qr_scan", "ios": "https://dc.lft.to/lastmile_qr_scan"}, "lat": 38.907558333333334, "is_disabled": 0, "lon": -77.00770733333333}, {"fusion_lat": 0.0, "type": "electric_scooter", "name": "ad1f22cf8b013fc49b3cabe0995297ac", "fusion_lon": 0.0, "bike_id": "ad1f22cf8b013fc49b3cabe0995297ac", "is_reserved": 0, "rental_uris": {"android": "https://dc.lft.to/lastmile_qr_scan", "ios": "https://dc.lft.to/lastmile_qr_scan"}, "lat": 38.8720065, "is_disabled": 0, "lon": -77.00573433333334}, {"fusion_lat": 0.0, "type": "electric_scooter", "name": "2cd31e8d13e08407b8ccfba8085f71d1", "fusion_lon": 0.0, "bike_id": "2cd31e8d13e08407b8ccfba8085f71d1", "is_reserved": 0, "rental_uris": {"android": "https://dc.lft.to/lastmile_qr_scan", "ios": "https://dc.lft.to/lastmile_qr_scan"}, "lat": 38.935666166666664, "is_disabled": 0, "lon": -77.08197583333333}, {"fusion_lat": 0.0, "type": "electric_scooter", "name": "30d45e3fbcc4db30a54e467d0a7276b7", "fusion_lon": 0.0, "bike_id": "30d45e3fbcc4db30a54e467d0a7276b7", "is_reserved": 0, "rental_uris": {"android": "https://dc.lft.to/lastmile_qr_scan", "ios": "https://dc.lft.to/lastmile_qr_scan"}, "lat": 38.91110033333333, "is_disabled": 0, "lon": -77.03383766666667}, {"fusion_lat": 0.0, "type": "electric_scooter", "name": "c929e478a91cf7559785eafcae49c784", "fusion_lon": 0.0, "bike_id": "c929e478a91cf7559785eafcae49c784", "is_reserved": 0, "rental_uris": {"android": "https://dc.lft.to/lastmile_qr_scan", "ios": "https://dc.lft.to/lastmile_qr_scan"}, "lat": 38.88367733333333, "is_disabled": 0, "lon": -76.94155}, {"fusion_lat": 0.0, "type": "electric_scooter", "name": "9f9428d1222265a0b7f59689752a1ef1", "fusion_lon": 0.0, "bike_id": "9f9428d1222265a0b7f59689752a1ef1", "is_reserved": 0, "rental_uris": {"android": "https://dc.lft.to/lastmile_qr_scan", "ios": "https://dc.lft.to/lastmile_qr_scan"}, "lat": 38.922486666666664, "is_disabled": 0, "lon": -77.02997283333333}, {"fusion_lat": 0.0, "type": "electric_scooter", "name": "815cbeea3d508910c52fe51ae4e072e3", "fusion_lon": 0.0, "bike_id": "815cbeea3d508910c52fe51ae4e072e3", "is_reserved": 0, "rental_uris": {"android": "https://dc.lft.to/lastmile_qr_scan", "ios": "https://dc.lft.to/lastmile_qr_scan"}, "lat": 38.907208833333335, "is_disabled": 0, "lon": -77.05045933333334}, {"fusion_lat": 0.0, "type": "electric_scooter", "name": "53d1d25cd02fb2c709df941222265607", "fusion_lon": 0.0, "bike_id": "53d1d25cd02fb2c709df941222265607", "is_reserved": 0, "rental_uris": {"android": "https://dc.lft.to/lastmile_qr_scan", "ios": "https://dc.lft.to/lastmile_qr_scan"}, "lat": 38.92577566666667, "is_disabled": 0, "lon": -77.0401325}, {"fusion_lat": 0.0, "type": "electric_scooter", "name": "0a20addd595438410fb9b4c41b705370", "fusion_lon": 0.0, "bike_id": "0a20addd595438410fb9b4c41b705370", "is_reserved": 0, "rental_uris": {"android": "https://dc.lft.to/lastmile_qr_scan", "ios": "https://dc.lft.to/lastmile_qr_scan"}, "lat": 38.893954666666666, "is_disabled": 0, "lon": -77.02245883333333}, {"fusion_lat": 0.0, "type": "electric_scooter", "name": "6cd1a429fbb7879f7e19ecc11a16b9bb", "fusion_lon": 0.0, "bike_id": "6cd1a429fbb7879f7e19ecc11a16b9bb", "is_reserved": 0, "rental_uris": {"android": "https://dc.lft.to/lastmile_qr_scan", "ios": "https://dc.lft.to/lastmile_qr_scan"}, "lat": 38.91356733333333, "is_disabled": 0, "lon": -77.01994383333333}, {"fusion_lat": 0.0, "type": "electric_scooter", "name": "b380e0c605dc0cdcfeac320a9ecdd5a7", "fusion_lon": 0.0, "bike_id": "b380e0c605dc0cdcfeac320a9ecdd5a7", "is_reserved": 0, "rental_uris": {"android": "https://dc.lft.to/lastmile_qr_scan", "ios": "https://dc.lft.to/lastmile_qr_scan"}, "lat": 38.89856283333334, "is_disabled": 0, "lon": -76.9766145}, {"fusion_lat": 0.0, "type": "electric_scooter", "name": "521feb93d254d898db646cd4e020c0dd", "fusion_lon": 0.0, "bike_id": "521feb93d254d898db646cd4e020c0dd", "is_reserved": 0, "rental_uris": {"android": "https://dc.lft.to/lastmile_qr_scan", "ios": "https://dc.lft.to/lastmile_qr_scan"}, "lat": 38.91702333333333, "is_disabled": 0, "lon": -77.03509616666666}, {"fusion_lat": 0.0, "type": "electric_scooter", "name": "f2c0e81bda2061647a8ec476030bf644", "fusion_lon": 0.0, "bike_id": "f2c0e81bda2061647a8ec476030bf644", "is_reserved": 0, "rental_uris": {"android": "https://dc.lft.to/lastmile_qr_scan", "ios": "https://dc.lft.to/lastmile_qr_scan"}, "lat": 38.87885683333333, "is_disabled": 0, "lon": -77.02316516666667}, {"fusion_lat": 0.0, "type": "electric_scooter", "name": "16a66d734cb739f8eef1877ab7c5dea0", "fusion_lon": 0.0, "bike_id": "16a66d734cb739f8eef1877ab7c5dea0", "is_reserved": 0, "rental_uris": {"android": "https://dc.lft.to/lastmile_qr_scan", "ios": "https://dc.lft.to/lastmile_qr_scan"}, "lat": 38.914413, "is_disabled": 0, "lon": -77.00457516666667}, {"fusion_lat": 0.0, "type": "electric_scooter", "name": "0c0713cdf00ef4b9b417e97619f54cb2", "fusion_lon": 0.0, "bike_id": "0c0713cdf00ef4b9b417e97619f54cb2", "is_reserved": 0, "rental_uris": {"android": "https://dc.lft.to/lastmile_qr_scan", "ios": "https://dc.lft.to/lastmile_qr_scan"}, "lat": 38.89225716666667, "is_disabled": 0, "lon": -77.04335683333333}, {"fusion_lat": 0.0, "type": "electric_bike", "name": "81ee2a495c318c379f32ca16b7c1425b", "fusion_lon": 0.0, "bike_id": "81ee2a495c318c379f32ca16b7c1425b", "is_reserved": 0, "rental_uris": {"android": "https://dc.lft.to/lastmile_qr_scan", "ios": "https://dc.lft.to/lastmile_qr_scan"}, "lat": 38.846086166666666, "is_disabled": 0, "lon": -77.08968533333334}, {"fusion_lat": 0.0, "type": "electric_bike", "name": "38cc9b7436aaebbc4d2762b923c00ff9", "fusion_lon": 0.0, "bike_id": "38cc9b7436aaebbc4d2762b923c00ff9", "is_reserved": 0, "rental_uris": {"android": "https://dc.lft.to/lastmile_qr_scan", "ios": "https://dc.lft.to/lastmile_qr_scan"}, "lat": 38.99345816666667, "is_disabled": 0, "lon": -77.11581266666667}, {"fusion_lat": 0.0, "type": "electric_scooter", "name": "a124a0b7b6b7711b8de0b332b9740265", "fusion_lon": 0.0, "bike_id": "a124a0b7b6b7711b8de0b332b9740265", "is_reserved": 0, "rental_uris": {"android": "https://dc.lft.to/lastmile_qr_scan", "ios": "https://dc.lft.to/lastmile_qr_scan"}, "lat": 38.90159, "is_disabled": 0, "lon": -77.04393633333333}, {"fusion_lat": 0.0, "type": "electric_scooter", "name": "99b27a8ac79947b1bc03da9c4d60142a", "fusion_lon": 0.0, "bike_id": "99b27a8ac79947b1bc03da9c4d60142a", "is_reserved": 0, "rental_uris": {"android": "https://dc.lft.to/lastmile_qr_scan", "ios": "https://dc.lft.to/lastmile_qr_scan"}, "lat": 38.907112, "is_disabled": 0, "lon": -77.02691883333334}, {"fusion_lat": 0.0, "type": "electric_scooter", "name": "88473e75058bd37f7bfacee7d335a026", "fusion_lon": 0.0, "bike_id": "88473e75058bd37f7bfacee7d335a026", "is_reserved": 0, "rental_uris": {"android": "https://dc.lft.to/lastmile_qr_scan", "ios": "https://dc.lft.to/lastmile_qr_scan"}, "lat": 38.866584333333336, "is_disabled": 0, "lon": -76.98525133333334}, {"fusion_lat": 0.0, "type": "electric_scooter", "name": "99449c9b9c9bd342935128a5f19ba629", "fusion_lon": 0.0, "bike_id": "99449c9b9c9bd342935128a5f19ba629", "is_reserved": 0, "rental_uris": {"android": "https://dc.lft.to/lastmile_qr_scan", "ios": "https://dc.lft.to/lastmile_qr_scan"}, "lat": 38.930134333333335, "is_disabled": 0, "lon": -77.055139}, {"fusion_lat": 0.0, "type": "electric_scooter", "name": "e471fb701e25b8112d298037ed6dee0c", "fusion_lon": 0.0, "bike_id": "e471fb701e25b8112d298037ed6dee0c", "is_reserved": 0, "rental_uris": {"android": "https://dc.lft.to/lastmile_qr_scan", "ios": "https://dc.lft.to/lastmile_qr_scan"}, "lat": 38.924355166666665, "is_disabled": 0, "lon": -77.04249083333333}, {"fusion_lat": 0.0, "type": "electric_scooter", "name": "ab5299d189cb913c75e443aaace8dbfd", "fusion_lon": 0.0, "bike_id": "ab5299d189cb913c75e443aaace8dbfd", "is_reserved": 0, "rental_uris": {"android": "https://dc.lft.to/lastmile_qr_scan", "ios": "https://dc.lft.to/lastmile_qr_scan"}, "lat": 38.90695316666667, "is_disabled": 0, "lon": -77.03697716666667}, {"fusion_lat": 0.0, "type": "electric_scooter", "name": "4a63f831a3668706bd1cd83676d86f89", "fusion_lon": 0.0, "bike_id": "4a63f831a3668706bd1cd83676d86f89", "is_reserved": 0, "rental_uris": {"android": "https://dc.lft.to/lastmile_qr_scan", "ios": "https://dc.lft.to/lastmile_qr_scan"}, "lat": 38.89295466666667, "is_disabled": 0, "lon": -77.01231516666667}, {"fusion_lat": 0.0, "type": "electric_scooter", "name": "0b0b0be4ea6501a47f1146c8700c089b", "fusion_lon": 0.0, "bike_id": "0b0b0be4ea6501a47f1146c8700c089b", "is_reserved": 0, "rental_uris": {"android": "https://dc.lft.to/lastmile_qr_scan", "ios": "https://dc.lft.to/lastmile_qr_scan"}, "lat": 38.89235866666667, "is_disabled": 0, "lon": -77.01978883333334}, {"fusion_lat": 0.0, "type": "electric_scooter", "name": "f480210aeea416e62a51e3ffbd171758", "fusion_lon": 0.0, "bike_id": "f480210aeea416e62a51e3ffbd171758", "is_reserved": 0, "rental_uris": {"android": "https://dc.lft.to/lastmile_qr_scan", "ios": "https://dc.lft.to/lastmile_qr_scan"}, "lat": 38.932972666666664, "is_disabled": 0, "lon": -77.04623666666667}, {"fusion_lat": 0.0, "type": "electric_scooter", "name": "0c4fa26b98401e492517aab98b567a7b", "fusion_lon": 0.0, "bike_id": "0c4fa26b98401e492517aab98b567a7b", "is_reserved": 0, "rental_uris": {"android": "https://dc.lft.to/lastmile_qr_scan", "ios": "https://dc.lft.to/lastmile_qr_scan"}, "lat": 38.92238566666666, "is_disabled": 0, "lon": -77.04247116666667}, {"fusion_lat": 0.0, "type": "electric_scooter", "name": "5a91d27a4db3514c616e328dce4a7c9c", "fusion_lon": 0.0, "bike_id": "5a91d27a4db3514c616e328dce4a7c9c", "is_reserved": 0, "rental_uris": {"android": "https://dc.lft.to/lastmile_qr_scan", "ios": "https://dc.lft.to/lastmile_qr_scan"}, "lat": 38.93421283333333, "is_disabled": 0, "lon": -77.04413866666667}, {"fusion_lat": 0.0, "type": "electric_scooter", "name": "ee1e5754be806ad680db3926a46b92ea", "fusion_lon": 0.0, "bike_id": "ee1e5754be806ad680db3926a46b92ea", "is_reserved": 0, "rental_uris": {"android": "https://dc.lft.to/lastmile_qr_scan", "ios": "https://dc.lft.to/lastmile_qr_scan"}, "lat": 38.921055833333334, "is_disabled": 0, "lon": -77.07190316666667}, {"fusion_lat": 0.0, "type": "electric_scooter", "name": "0aa4033e2bd1de70e1aa31d91cc6189b", "fusion_lon": 0.0, "bike_id": "0aa4033e2bd1de70e1aa31d91cc6189b", "is_reserved": 0, "rental_uris": {"android": "https://dc.lft.to/lastmile_qr_scan", "ios": "https://dc.lft.to/lastmile_qr_scan"}, "lat": 38.8884115, "is_disabled": 0, "lon": -77.04902183333333}, {"fusion_lat": 0.0, "type": "electric_scooter", "name": "9c2dcdee764bc5aa083ae2eec47dcb73", "fusion_lon": 0.0, "bike_id": "9c2dcdee764bc5aa083ae2eec47dcb73", "is_reserved": 0, "rental_uris": {"android": "https://dc.lft.to/lastmile_qr_scan", "ios": "https://dc.lft.to/lastmile_qr_scan"}, "lat": 38.92530466666667, "is_disabled": 0, "lon": -77.05136933333333}, {"fusion_lat": 0.0, "type": "electric_bike", "name": "7c821a7fff073cee435669f6fe331482", "fusion_lon": 0.0, "bike_id": "7c821a7fff073cee435669f6fe331482", "is_reserved": 0, "rental_uris": {"android": "https://dc.lft.to/lastmile_qr_scan", "ios": "https://dc.lft.to/lastmile_qr_scan"}, "lat": 38.867463, "is_disabled": 0, "lon": -77.1170825}, {"fusion_lat": 0.0, "type": "electric_scooter", "name": "9627f8f1cb4756939da56d34335e2bb6", "fusion_lon": 0.0, "bike_id": "9627f8f1cb4756939da56d34335e2bb6", "is_reserved": 0, "rental_uris": {"android": "https://dc.lft.to/lastmile_qr_scan", "ios": "https://dc.lft.to/lastmile_qr_scan"}, "lat": 38.9062625, "is_disabled": 0, "lon": -77.00581366666667}, {"fusion_lat": 0.0, "type": "electric_scooter", "name": "843a4ced0ac1425e4e1ad89ae89d84c4", "fusion_lon": 0.0, "bike_id": "843a4ced0ac1425e4e1ad89ae89d84c4", "is_reserved": 0, "rental_uris": {"android": "https://dc.lft.to/lastmile_qr_scan", "ios": "https://dc.lft.to/lastmile_qr_scan"}, "lat": 38.89371216666667, "is_disabled": 0, "lon": -76.94998433333333}, {"fusion_lat": 0.0, "type": "electric_scooter", "name": "442de25d29e728712063e92b6a2f3620", "fusion_lon": 0.0, "bike_id": "442de25d29e728712063e92b6a2f3620", "is_reserved": 0, "rental_uris": {"android": "https://dc.lft.to/lastmile_qr_scan", "ios": "https://dc.lft.to/lastmile_qr_scan"}, "lat": 38.898940833333334, "is_disabled": 0, "lon": -77.03936483333334}, {"fusion_lat": 0.0, "type": "electric_scooter", "name": "46659b030ba3ac21585ff58a0dd9c717", "fusion_lon": 0.0, "bike_id": "46659b030ba3ac21585ff58a0dd9c717", "is_reserved": 0, "rental_uris": {"android": "https://dc.lft.to/lastmile_qr_scan", "ios": "https://dc.lft.to/lastmile_qr_scan"}, "lat": 38.917815, "is_disabled": 0, "lon": -77.03230316666667}, {"fusion_lat": 0.0, "type": "electric_scooter", "name": "30435e45d98e59b4d3826de4b0594990", "fusion_lon": 0.0, "bike_id": "30435e45d98e59b4d3826de4b0594990", "is_reserved": 0, "rental_uris": {"android": "https://dc.lft.to/lastmile_qr_scan", "ios": "https://dc.lft.to/lastmile_qr_scan"}, "lat": 38.912811833333336, "is_disabled": 0, "lon": -77.03854616666666}, {"fusion_lat": 0.0, "type": "electric_scooter", "name": "e43675d04ae512267c87a73b2a479ca3", "fusion_lon": 0.0, "bike_id": "e43675d04ae512267c87a73b2a479ca3", "is_reserved": 0, "rental_uris": {"android": "https://dc.lft.to/lastmile_qr_scan", "ios": "https://dc.lft.to/lastmile_qr_scan"}, "lat": 38.927346, "is_disabled": 0, "lon": -77.02263216666667}, {"fusion_lat": 0.0, "type": "electric_scooter", "name": "49f2701dbb111c6c7c67fd76b181a461", "fusion_lon": 0.0, "bike_id": "49f2701dbb111c6c7c67fd76b181a461", "is_reserved": 0, "rental_uris": {"android": "https://dc.lft.to/lastmile_qr_scan", "ios": "https://dc.lft.to/lastmile_qr_scan"}, "lat": 38.91699583333333, "is_disabled": 0, "lon": -77.03353566666667}, {"fusion_lat": 0.0, "type": "electric_scooter", "name": "2b0ee6dac78f29054f8a2b25a204271e", "fusion_lon": 0.0, "bike_id": "2b0ee6dac78f29054f8a2b25a204271e", "is_reserved": 0, "rental_uris": {"android": "https://dc.lft.to/lastmile_qr_scan", "ios": "https://dc.lft.to/lastmile_qr_scan"}, "lat": 38.918170333333336, "is_disabled": 0, "lon": -77.0343275}, {"fusion_lat": 0.0, "type": "electric_scooter", "name": "1c77f2ae2d0739fa5fd360d41f6ed465", "fusion_lon": 0.0, "bike_id": "1c77f2ae2d0739fa5fd360d41f6ed465", "is_reserved": 0, "rental_uris": {"android": "https://dc.lft.to/lastmile_qr_scan", "ios": "https://dc.lft.to/lastmile_qr_scan"}, "lat": 38.93881533333333, "is_disabled": 0, "lon": -77.024812}, {"fusion_lat": 0.0, "type": "electric_bike", "name": "08baabaee1181aaf95845abb566f7a6c", "fusion_lon": 0.0, "bike_id": "08baabaee1181aaf95845abb566f7a6c", "is_reserved": 0, "rental_uris": {"android": "https://dc.lft.to/lastmile_qr_scan", "ios": "https://dc.lft.to/lastmile_qr_scan"}, "lat": 38.829102666666664, "is_disabled": 0, "lon": -76.99778983333333}, {"fusion_lat": 0.0, "type": "electric_scooter", "name": "e13b2aed93e107e42e5396dcaa3493ec", "fusion_lon": 0.0, "bike_id": "e13b2aed93e107e42e5396dcaa3493ec", "is_reserved": 0, "rental_uris": {"android": "https://dc.lft.to/lastmile_qr_scan", "ios": "https://dc.lft.to/lastmile_qr_scan"}, "lat": 38.90204966666667, "is_disabled": 0, "lon": -76.97854266666667}, {"fusion_lat": 0.0, "type": "electric_scooter", "name": "dc319139bdd10dbd3dffe71786d6ff08", "fusion_lon": 0.0, "bike_id": "dc319139bdd10dbd3dffe71786d6ff08", "is_reserved": 0, "rental_uris": {"android": "https://dc.lft.to/lastmile_qr_scan", "ios": "https://dc.lft.to/lastmile_qr_scan"}, "lat": 38.91301833333333, "is_disabled": 0, "lon": -77.04557516666667}, {"fusion_lat": 0.0, "type": "electric_scooter", "name": "3aae4d6d0bce5f865225d6f501b634ea", "fusion_lon": 0.0, "bike_id": "3aae4d6d0bce5f865225d6f501b634ea", "is_reserved": 0, "rental_uris": {"android": "https://dc.lft.to/lastmile_qr_scan", "ios": "https://dc.lft.to/lastmile_qr_scan"}, "lat": 38.93247266666667, "is_disabled": 0, "lon": -77.03279133333334}, {"fusion_lat": 0.0, "type": "electric_scooter", "name": "7bf4255ad8752700b76a2359d2e233d7", "fusion_lon": 0.0, "bike_id": "7bf4255ad8752700b76a2359d2e233d7", "is_reserved": 0, "rental_uris": {"android": "https://dc.lft.to/lastmile_qr_scan", "ios": "https://dc.lft.to/lastmile_qr_scan"}, "lat": 38.87457416666667, "is_disabled": 0, "lon": -77.00293433333333},