{"data": {"bikes": [{"rental_uris": {"ios": "https://dc.lft.to/lastmile_qr_scan", "android": "https://dc.lft.to/lastmile_qr_scan"}, "type": "electric_bike", "name": "763b9d154f735856f567454da7925533", "is_reserved": 0, "lon": -77.02391916666667, "is_disabled": 0, "fusion_lat": 0.0, "lat": 38.915964333333335, "bike_id": "763b9d154f735856f567454da7925533", "fusion_lon": 0.0}, {"rental_uris": {"ios": "https://dc.lft.to/lastmile_qr_scan", "android": "https://dc.lft.to/lastmile_qr_scan"}, "type": "electric_scooter", "name": "442ce00fbc99942ccaa4701789e591ca", "is_reserved": 0, "lon": -77.043349, "is_disabled": 0, "fusion_lat": 0.0, "lat": 38.907635166666665, "bike_id": "442ce00fbc99942ccaa4701789e591ca", "fusion_lon": 0.0}, {"rental_uris": {"ios": "https://dc.lft.to/lastmile_qr_scan", "android": "https://dc.lft.to/lastmile_qr_scan"}, "type": "electric_scooter", "name": "678635889b6eda53f1aec8c2d1684e63", "is_reserved": 0, "lon": -77.03891, "is_disabled": 0, "fusion_lat": 0.0, "lat": 38.90382866666667, "bike_id": "678635889b6eda53f1aec8c2d1684e63", "fusion_lon": 0.0}, {"rental_uris": {"ios": "https://dc.lft.to/lastmile_qr_scan", "android": "https://dc.lft.to/lastmile_qr_scan"}, "type": "electric_scooter", "name": "586a940628282f6607a9ba2fde70e6e2", "is_reserved": 0, "lon": -77.02878133333333, "is_disabled": 0, "fusion_lat": 0.0, "lat": 38.912767, "bike_id": "586a940628282f6607a9ba2fde70e6e2", "fusion_lon": 0.0}, {"rental_uris": {"ios": "https://dc.lft.to/lastmile_qr_scan", "android": "https://dc.lft.to/lastmile_qr_scan"}, "type": "electric_bike", "name": "fb80fd8a51d4633472f06275bfb19c5e", "is_reserved": 0, "lon": -77.07161833333333, "is_disabled": 0, "fusion_lat": 0.0, "lat": 38.9079265, "bike_id": "fb80fd8a51d4633472f06275bfb19c5e", "fusion_lon": 0.0}, {"rental_uris": {"ios": "https://dc.lft.to/lastmile_qr_scan", "android": "https://dc.lft.to/lastmile_qr_scan"}, "type": "electric_scooter", "name": "42e87e20a8d69636a2e05ff2e4a8b22d", "is_reserved": 0, "lon": -77.011019, "is_disabled": 0, "fusion_lat": 0.0, "lat": 38.885397166666664, "bike_id": "42e87e20a8d69636a2e05ff2e4a8b22d", "fusion_lon": 0.0}, {"rental_uris": {"ios": "https://dc.lft.to/lastmile_qr_scan", "android": "https://dc.lft.to/lastmile_qr_scan"}, "type": "electric_scooter", "name": "a44536b371b7b13efb24712354c0962c", "is_reserved": 0, "lon": -77.02703666666666, "is_disabled": 0, "fusion_lat": 0.0, "lat": 38.899897333333335, "bike_id": "a44536b371b7b13efb24712354c0962c", "fusion_lon": 0.0}, {"rental_uris": {"ios": "https://dc.lft.to/lastmile_qr_scan", "android": "https://dc.lft.to/lastmile_qr_scan"}, "type": "electric_scooter", "name": "7014519e9aeb4ea68d65e88e34dc20e0", "is_reserved": 0, "lon": -77.052212, "is_disabled": 0, "fusion_lat": 0.0, "lat": 38.92493066666667, "bike_id": "7014519e9aeb4ea68d65e88e34dc20e0", "fusion_lon": 0.0}, {"rental_uris": {"ios": "https://dc.lft.to/lastmile_qr_scan", "android": "https://dc.lft.to/lastmile_qr_scan"}, "type": "electric_scooter", "name": "67d8e660ba96094160999401eb3653fc", "is_reserved": 0, "lon": -77.040585, "is_disabled": 0, "fusion_lat": 0.0, "lat": 38.917694166666664, "bike_id": "67d8e660ba96094160999401eb3653fc", "fusion_lon": 0.0}, {"rental_uris": {"ios": "https://dc.lft.to/lastmile_qr_scan", "android": "https://dc.lft.to/lastmile_qr_scan"}, "type": "electric_scooter", "name": "6dc2bf9131f7c7b1d0b48b05d44190e2", "is_reserved": 0, "lon": -77.04637233333334, "is_disabled": 0, "fusion_lat": 0.0, "lat": 38.900620333333336, "bike_id": "6dc2bf9131f7c7b1d0b48b05d44190e2", "fusion_lon": 0.0}, {"rental_uris": {"ios": "https://dc.lft.to/lastmile_qr_scan", "android": "https://dc.lft.to/lastmile_qr_scan"}, "type": "electric_bike", "name": "d3c418f9ad495b170b6b1a6b9a7e381e", "is_reserved": 0, "lon": -76.96100866666667, "is_disabled": 0, "fusion_lat": 0.0, "lat": 38.949628, "bike_id": "d3c418f9ad495b170b6b1a6b9a7e381e", "fusion_lon": 0.0}, {"rental_uris": {"ios": "https://dc.lft.to/lastmile_qr_scan", "android": "https://dc.lft.to/lastmile_qr_scan"}, "type": "electric_scooter", "name": "5070e059f9aa7f7fb8ed619c5cde214c", "is_reserved": 0, "lon": -77.059738, "is_disabled": 0, "fusion_lat": 0.0, "lat": 38.905348333333336, "bike_id": "5070e059f9aa7f7fb8ed619c5cde214c", "fusion_lon": 0.0}, {"rental_uris": {"ios": "https://dc.lft.to/lastmile_qr_scan", "android": "https://dc.lft.to/lastmile_qr_scan"}, "type": "electric_scooter", "name": "4be9f8fa0482f24fc3684b506afda246", "is_reserved": 0, "lon": -77.03976116666666, "is_disabled": 0, "fusion_lat": 0.0, "lat": 38.909716333333336, "bike_id": "4be9f8fa0482f24fc3684b506afda246", "fusion_lon": 0.0}, {"rental_uris": {"ios": "https://dc.lft.to/lastmile_qr_scan", "android": "https://dc.lft.to/lastmile_qr_scan"}, "type": "electric_scooter", "name": "327a5b5278d09117396f87bf5e8d57b7", "is_reserved": 0, "lon": -77.02582283333334, "is_disabled": 0, "fusion_lat": 0.0, "lat": 38.8808815, "bike_id": "327a5b5278d09117396f87bf5e8d57b7", "fusion_lon": 0.0}, {"rental_uris": {"ios": "https://dc.lft.to/lastmile_qr_scan", "android": "https://dc.lft.to/lastmile_qr_scan"}, "type": "electric_scooter", "name": "c2f6c74006649b8761546a8df96d1ff4", "is_reserved": 0, "lon": -77.00200366666667, "is_disabled": 0, "fusion_lat": 0.0, "lat": 38.90156416666667, "bike_id": "c2f6c74006649b8761546a8df96d1ff4", "fusion_lon": 0.0}, {"rental_uris": {"ios": "https://dc.lft.to/lastmile_qr_scan", "android": "https://dc.lft.to/lastmile_qr_scan"}, "type": "electric_scooter", "name": "d6abcd7583cdb32615737109f014afca", "is_reserved": 0, "lon": -77.01868816666666, "is_disabled": 0, "fusion_lat": 0.0, "lat": 38.95152016666667, "bike_id": "d6abcd7583cdb32615737109f014afca", "fusion_lon": 0.0}, {"rental_uris": {"ios": "https://dc.lft.to/lastmile_qr_scan", "android": "https://dc.lft.to/lastmile_qr_scan"}, "type": "electric_scooter", "name": "b37d2ba9626f728fcefcdbc89e4bb43a", "is_reserved": 0, "lon": -77.04350216666667, "is_disabled": 0, "fusion_lat": 0.0, "lat": 38.92187883333333, "bike_id": "b37d2ba9626f728fcefcdbc89e4bb43a", "fusion_lon": 0.0}, {"rental_uris": {"ios": "https://dc.lft.to/lastmile_qr_scan", "android": "https://dc.lft.to/lastmile_qr_scan"}, "type": "electric_scooter", "name": "019bf2199fac865c3fd560a2a8dc8871", "is_reserved": 0, "lon": -77.06273316666666, "is_disabled": 0, "fusion_lat": 0.0, "lat": 38.905053833333334, "bike_id": "019bf2199fac865c3fd560a2a8dc8871", "fusion_lon": 0.0}, {"rental_uris": {"ios": "https://dc.lft.to/lastmile_qr_scan", "android": "https://dc.lft.to/lastmile_qr_scan"}, "type": "electric_bike", "name": "07c7f7c4d7f22dc587e8de3510606db4", "is_reserved": 0, "lon": -77.0765865, "is_disabled": 0, "fusion_lat": 0.0, "lat": 38.8885335, "bike_id": "07c7f7c4d7f22dc587e8de3510606db4", "fusion_lon": 0.0}, {"rental_uris": {"ios": "https://dc.lft.to/lastmile_qr_scan", "android": "https://dc.lft.to/lastmile_qr_scan"}, "type": "electric_scooter", "name": "63ab3d8117e031ca7098e272195a8c81", "is_reserved": 0, "lon": -77.03105566666666, "is_disabled": 0, "fusion_lat": 0.0, "lat": 38.9466255, "bike_id": "63ab3d8117e031ca7098e272195a8c81", "fusion_lon": 0.0}, {"rental_uris": {"ios": "https://dc.lft.to/lastmile_qr_scan", "android": "https://dc.lft.to/lastmile_qr_scan"}, "type": "electric_scooter", "name": "583f3434400450e606c6ba1e3315f315", "is_reserved": 0, "lon": -76.98316183333333, "is_disabled": 0, "fusion_lat": 0.0, "lat": 38.925914, "bike_id": "583f3434400450e606c6ba1e3315f315", "fusion_lon": 0.0}, {"rental_uris": {"ios": "https://dc.lft.to/lastmile_qr_scan", "android": "https://dc.lft.to/lastmile_qr_scan"}, "type": "electric_scooter", "name": "4fb65e6ce4428e951bac08564a35cdde", "is_reserved": 0, "lon": -77.08396633333334, "is_disabled": 0, "fusion_lat": 0.0, "lat": 38.908112, "bike_id": "4fb65e6ce4428e951bac08564a35cdde", "fusion_lon": 0.0}, {"rental_uris": {"ios": "https://dc.lft.to/lastmile_qr_scan", "android": "https://dc.lft.to/lastmile_qr_scan"}, "type": "electric_scooter", "name": "da547641973d76db5a7cc20c73e9d7a0", "is_reserved": 0, "lon": -77.04255766666667, "is_disabled": 0, "fusion_lat": 0.0, "lat": 38.92180366666667, "bike_id": "da547641973d76db5a7cc20c73e9d7a0", "fusion_lon": 0.0}, {"rental_uris": {"ios": "https://dc.lft.to/lastmile_qr_scan", "android": "https://dc.lft.to/lastmile_qr_scan"}, "type": "electric_bike", "name": "0b12573e6804b1abc1657b9e10a488f0", "is_reserved": 0, "lon": -76.94558033333334, "is_disabled": 0, "fusion_lat": 0.0, "lat": 38.983058666666665, "bike_id": "0b12573e6804b1abc1657b9e10a488f0", "fusion_lon": 0.0}, {"rental_uris": {"ios": "https://dc.lft.to/lastmile_qr_scan", "android": "https://dc.lft.to/lastmile_qr_scan"}, "type": "electric_scooter", "name": "8e9b718dda3a9269871ca6e01388a5b7", "is_reserved": 0, "lon": -77.0033475, "is_disabled": 0, "fusion_lat": 0.0, "lat": 38.87724166666667, "bike_id": "8e9b718dda3a9269871ca6e01388a5b7", "fusion_lon": 0.0}, {"rental_uris": {"ios": "https://dc.lft.to/lastmile_qr_scan", "android": "https://dc.lft.to/lastmile_qr_scan"}, "type": "electric_bike", "name": "4521156caced8971baaf1b001bbf1eb6", "is_reserved": 0, "lon": -76.95240866666667, "is_disabled": 0, "fusion_lat": 0.0, "lat": 38.884668, "bike_id": "4521156caced8971baaf1b001bbf1eb6", "fusion_lon": 0.0}, {"rental_uris": {"ios": "https://dc.lft.to/lastmile_qr_scan", "android": "https://dc.lft.to/lastmile_qr_scan"}, "type": "electric_scooter", "name": "600e110d0ec6370befb1af6dc66a1269", "is_reserved": 0, "lon": -77.0145, "is_disabled": 0, "fusion_lat": 0.0, "lat": 38.911090333333334, "bike_id": "600e110d0ec6370befb1af6dc66a1269", "fusion_lon": 0.0}, {"rental_uris": {"ios": "https://dc.lft.to/lastmile_qr_scan", "android": "https://dc.lft.to/lastmile_qr_scan"}, "type": "electric_bike", "name": "889d8a3047d28baa3dc7a8f401b19534", "is_reserved": 0, "lon": -76.9958915, "is_disabled": 0, "fusion_lat": 0.0, "lat": 38.92072733333333, "bike_id": "889d8a3047d28baa3dc7a8f401b19534", "fusion_lon": 0.0}, {"rental_uris": {"ios": "https://dc.lft.to/lastmile_qr_scan", "android": "https://dc.lft.to/lastmile_qr_scan"}, "type": "electric_scooter", "name": "e361ce51a2352271c032f29c5e796376", "is_reserved": 0, "lon": -77.04460933333333, "is_disabled": 0, "fusion_lat": 0.0, "lat": 38.92422716666667, "bike_id": "e361ce51a2352271c032f29c5e796376", "fusion_lon": 0.0}, {"rental_uris": {"ios": "https://dc.lft.to/lastmile_qr_scan", "android": "https://dc.lft.to/lastmile_qr_scan"}, "type": "electric_scooter", "name": "579e57dbfdbcc294770d2779ac1cae3a", "is_reserved": 0, "lon": -76.99866016666667, "is_disabled": 0, "fusion_lat": 0.0, "lat": 38.90024433333333, "bike_id": "579e57dbfdbcc294770d2779ac1cae3a", "fusion_lon": 0.0}, {"rental_uris": {"ios": "https://dc.lft.to/lastmile_qr_scan", "android": "https://dc.lft.to/lastmile_qr_scan"}, "type": "electric_scooter", "name": "a77c33b9a0c0dfa01631b082306491d1", "is_reserved": 0, "lon": -77.0307765, "is_disabled": 0, "fusion_lat": 0.0, "lat": 38.93874483333333, "bike_id": "a77c33b9a0c0dfa01631b082306491d1", "fusion_lon": 0.0}, {"rental_uris": {"ios": "https://dc.lft.to/lastmile_qr_scan", "android": "https://dc.lft.to/lastmile_qr_scan"}, "type": "electric_bike", "name": "87d62634b4f24125ab994d93e0defdb9", "is_reserved": 0, "lon": -77.00003316666667, "is_disabled": 0, "fusion_lat": 0.0, "lat": 38.92388283333333, "bike_id": "87d62634b4f24125ab994d93e0defdb9", "fusion_lon": 0.0}, {"rental_uris": {"ios": "https://dc.lft.to/lastmile_qr_scan", "android": "https://dc.lft.to/lastmile_qr_scan"}, "type": "electric_scooter", "name": "55de00f20ddcdee0af608c0af629c525", "is_reserved": 0, "lon": -77.0271355, "is_disabled": 0, "fusion_lat": 0.0, "lat": 38.905984833333335, "bike_id": "55de00f20ddcdee0af608c0af629c525", "fusion_lon": 0.0}, {"rental_uris": {"ios": "https://dc.lft.to/lastmile_qr_scan", "android": "https://dc.lft.to/lastmile_qr_scan"}, "type": "electric_scooter", "name": "d5aac844f562a8eea24483a1cf62d0dd", "is_reserved": 0, "lon": -77.02315483333334, "is_disabled": 0, "fusion_lat": 0.0, "lat": 38.902827333333335, "bike_id": "d5aac844f562a8eea24483a1cf62d0dd", "fusion_lon": 0.0}, {"rental_uris": {"ios": "https://dc.lft.to/lastmile_qr_scan", "android": "https://dc.lft.to/lastmile_qr_scan"}, "type": "electric_scooter", "name": "5acdea9053444fbbc3bb0edf06a5486d", "is_reserved": 0, "lon": -77.02425583333333, "is_disabled": 0, "fusion_lat": 0.0, "lat": 38.915678, "bike_id": "5acdea9053444fbbc3bb0edf06a5486d", "fusion_lon": 0.0}, {"rental_uris": {"ios": "https://dc.lft.to/lastmile_qr_scan", "android": "https://dc.lft.to/lastmile_qr_scan"}, "type": "electric_scooter", "name": "3a79509bdd53b5d2eb32e9c3f27cce5a", "is_reserved": 0, "lon": -77.028366, "is_disabled": 0, "fusion_lat": 0.0, "lat": 38.902275, "bike_id": "3a79509bdd53b5d2eb32e9c3f27cce5a", "fusion_lon": 0.0}, {"rental_uris": {"ios": "https://dc.lft.to/lastmile_qr_scan", "android": "https://dc.lft.to/lastmile_qr_scan"}, "type": "electric_bike", "name": "775a6cf2ea29b562392e0d620e95d8a7", "is_reserved": 0, "lon": -77.0122315, "is_disabled": 0, "fusion_lat": 0.0, "lat": 38.95084033333333, "bike_id": "775a6cf2ea29b562392e0d620e95d8a7", "fusion_lon": 0.0}, {"rental_uris": {"ios": "https://dc.lft.to/lastmile_qr_scan", "android": "https://dc.lft.to/lastmile_qr_scan"}, "type": "electric_scooter", "name": "370260155f2b414977c5223f60f1b67c", "is_reserved": 0, "lon": -77.04126333333333, "is_disabled": 0, "fusion_lat": 0.0, "lat": 38.931003833333335, "bike_id": "370260155f2b414977c5223f60f1b67c", "fusion_lon": 0.0}, {"rental_uris": {"ios": "https://dc.lft.to/lastmile_qr_scan", "android": "https://dc.lft.to/lastmile_qr_scan"}, "type": "electric_scooter", "name": "1666124d43973a0a6f2a36994d45172c", "is_reserved": 0, "lon": -76.98581066666667, "is_disabled": 0, "fusion_lat": 0.0, "lat": 38.8544925, "bike_id": "1666124d43973a0a6f2a36994d45172c", "fusion_lon": 0.0}, {"rental_uris": {"ios": "https://dc.lft.to/lastmile_qr_scan", "android": "https://dc.lft.to/lastmile_qr_scan"}, "type": "electric_scooter", "name": "1065b2ee8119f42f4700d25b8accf67d", "is_reserved": 0, "lon": -77.044863, "is_disabled": 0, "fusion_lat": 0.0, "lat": 38.910966, "bike_id": "1065b2ee8119f42f4700d25b8accf67d", "fusion_lon": 0.0}, {"rental_uris": {"ios": "https://dc.lft.to/lastmile_qr_scan", "android": "https://dc.lft.to/lastmile_qr_scan"}, "type": "electric_scooter", "name": "54968183084060b0dbc103099563076f", "is_reserved": 0, "lon": -76.97614683333333, "is_disabled": 0, "fusion_lat": 0.0, "lat": 38.903884, "bike_id": "54968183084060b0dbc103099563076f", "fusion_lon": 0.0}, {"rental_uris": {"ios": "https://dc.lft.to/lastmile_qr_scan", "android": "https://dc.lft.to/lastmile_qr_scan"}, "type": "electric_bike", "name": "e082b1cb32e5874cf80ddcc9629aa718", "is_reserved": 0, "lon": -76.98018916666666, "is_disabled": 0, "fusion_lat": 0.0, "lat": 38.853102666666665, "bike_id": "e082b1cb32e5874cf80ddcc9629aa718", "fusion_lon": 0.0}, {"rental_uris": {"ios": "https://dc.lft.to/lastmile_qr_scan", "android": "https://dc.lft.to/lastmile_qr_scan"}, "type": "electric_scooter", "name": "4f230437819eaee33e54ab1c643c7487", "is_reserved": 0, "lon": -77.0152785, "is_disabled": 0, "fusion_lat": 0.0, "lat": 38.913346, "bike_id": "4f230437819eaee33e54ab1c643c7487", "fusion_lon": 0.0}, {"rental_uris": {"ios": "https://dc.lft.to/lastmile_qr_scan", "android": "https://dc.lft.to/lastmile_qr_scan"}, "type": "electric_scooter", "name": "4fbb37462a421ac408acb4f781be6293", "is_reserved": 0, "lon": -77.03794616666667, "is_disabled": 0, "fusion_lat": 0.0, "lat": 38.921955833333335, "bike_id": "4fbb37462a421ac408acb4f781be6293", "fusion_lon": 0.0}, {"rental_uris": {"ios": "https://dc.lft.to/lastmile_qr_scan", "android": "https://dc.lft.to/lastmile_qr_scan"}, "type": "electric_scooter", "name": "c67c66c21f38194991f9b37ba74b3667", "is_reserved": 0, "lon": -77.03255216666666, "is_disabled": 0, "fusion_lat": 0.0, "lat": 38.91555433333333, "bike_id": "c67c66c21f38194991f9b37ba74b3667", "fusion_lon": 0.0}, {"rental_uris": {"ios": "https://dc.lft.to/lastmile_qr_scan", "android": "https://dc.lft.to/lastmile_qr_scan"}, "type": "electric_scooter", "name": "20bff258a82698fba5493d61ad01f772", "is_reserved": 0, "lon": -77.00041333333333, "is_disabled": 0, "fusion_lat": 0.0, "lat": 38.87434116666667, "bike_id": "20bff258a82698fba5493d61ad01f772", "fusion_lon": 0.0}, {"rental_uris": {"ios": "https://dc.lft.to/lastmile_qr_scan", "android": "https://dc.lft.to/lastmile_qr_scan"}, "type": "electric_scooter", "name": "375e357f2dd5444907fbf21d1d1cda09", "is_reserved": 0, "lon": -77.052045, "is_disabled": 0, "fusion_lat": 0.0, "lat": 38.902502166666665, "bike_id": "375e357f2dd5444907fbf21d1d1cda09", "fusion_lon": 0.0}, {"rental_uris": {"ios": "https://dc.lft.to/lastmile_qr_scan", "android": "https://dc.lft.to/lastmile_qr_scan"}, "type": "electric_scooter", "name": "4ea86cc205b31640d1adac5d0dc7c424", "is_reserved": 0, "lon": -77.02458216666666, "is_disabled": 0, "fusion_lat": 0.0, "lat": 38.9171035, "bike_id": "4ea86cc205b31640d1adac5d0dc7c424", "fusion_lon": 0.0}, {"rental_uris": {"ios": "https://dc.lft.to/lastmile_qr_scan", "android": "https://dc.lft.to/lastmile_qr_scan"}, "type": "electric_scooter", "name": "0b8b6e488692e69dd30db67d92df87fb", "is_reserved": 0, "lon": -77.03869816666666, "is_disabled": 0, "fusion_lat": 0.0, "lat": 38.90369533333333, "bike_id": "0b8b6e488692e69dd30db67d92df87fb", "fusion_lon": 0.0}, {"rental_uris": {"ios": "https://dc.lft.to/lastmile_qr_scan", "android": "https://dc.lft.to/lastmile_qr_scan"}, "type": "electric_scooter", "name": "c117f8e42dd04c8e90eb7bada8493116", "is_reserved": 0, "lon": -77.019579, "is_disabled": 0, "fusion_lat": 0.0, "lat": 38.9232725, "bike_id": "c117f8e42dd04c8e90eb7bada8493116", "fusion_lon": 0.0}, {"rental_uris": {"ios": "https://dc.lft.to/lastmile_qr_scan", "android": "https://dc.lft.to/lastmile_qr_scan"}, "type": "electric_bike", "name": "f6f3198069975f2ec41dbb86676c078e", "is_reserved": 0, "lon": -76.98250466666667, "is_disabled": 0, "fusion_lat": 0.0, "lat": 38.952461666666665, "bike_id": "f6f3198069975f2ec41dbb86676c078e", "fusion_lon": 0.0}, {"rental_uris": {"ios": "https://dc.lft.to/lastmile_qr_scan", "android": "https://dc.lft.to/lastmile_qr_scan"}, "type": "electric_scooter", "name": "0b031e624731ae5b4b842ab95633dbe4", "is_reserved": 0, "lon": -77.01689133333333, "is_disabled": 0, "fusion_lat": 0.0, "lat": 38.90406433333333, "bike_id": "0b031e624731ae5b4b842ab95633dbe4", "fusion_lon": 0.0}, {"rental_uris": {"ios": "https://dc.lft.to/lastmile_qr_scan", "android": "https://dc.lft.to/lastmile_qr_scan"}, "type": "electric_scooter", "name": "4192ca33af96d8d6740a1c4fa22972fb", "is_reserved": 0, "lon": -77.02196916666666, "is_disabled": 0, "fusion_lat": 0.0, "lat": 38.91448066666667, "bike_id": "4192ca33af96d8d6740a1c4fa22972fb", "fusion_lon": 0.0}, {"rental_uris": {"ios": "https://dc.lft.to/lastmile_qr_scan", "android": "https://dc.lft.to/lastmile_qr_scan"}, "type": "electric_scooter", "name": "74409259f0b80cf0a0a1491db8adda30", "is_reserved": 0, "lon": -77.03186133333334, "is_disabled": 0, "fusion_lat": 0.0, "lat": 38.929783666666665, "bike_id": "74409259f0b80cf0a0a1491db8adda30", "fusion_lon": 0.0}, {"rental_uris": {"ios": "https://dc.lft.to/lastmile_qr_scan", "android": "https://dc.lft.to/lastmile_qr_scan"}, "type": "electric_scooter", "name": "13cd6837ebaf45bddc400efd4fde720d", "is_reserved": 0, "lon": -77.03041933333333, "is_disabled": 0, "fusion_lat": 0.0, "lat": 38.99030533333333, "bike_id": "13cd6837ebaf45bddc400efd4fde720d", "fusion_lon": 0.0}, {"rental_uris": {"ios": "https://dc.lft.to/lastmile_qr_scan", "android": "https://dc.lft.to/lastmile_qr_scan"}, "type": "electric_scooter", "name": "90d4718559c9f7eac29ce3dfcd69d498", "is_reserved": 0, "lon": -77.04493133333334, "is_disabled": 0, "fusion_lat": 0.0, "lat": 38.90816516666667, "bike_id": "90d4718559c9f7eac29ce3dfcd69d498", "fusion_lon": 0.0}, {"rental_uris": {"ios": "https://dc.lft.to/lastmile_qr_scan", "android": "https://dc.lft.to/lastmile_qr_scan"}, "type": "electric_scooter", "name": "01757a8e7dd7b0d1a9f0a21c5d6d6134", "is_reserved": 0, "lon": -77.02551, "is_disabled": 0, "fusion_lat": 0.0, "lat": 38.917115, "bike_id": "01757a8e7dd7b0d1a9f0a21c5d6d6134", "fusion_lon": 0.0}, {"rental_uris": {"ios": "https://dc.lft.to/lastmile_qr_scan", "android": "https://dc.lft.to/lastmile_qr_scan"}, "type": "electric_scooter", "name": "389aeacc3fb1c61c576b2448698836f2", "is_reserved": 0, "lon": -77.03192483333333, "is_disabled": 0, "fusion_lat": 0.0, "lat": 38.918533833333335, "bike_id": "389aeacc3fb1c61c576b2448698836f2", "fusion_lon": 0.0}, {"rental_uris": {"ios": "https://dc.lft.to/lastmile_qr_scan", "android": "https://dc.lft.to/lastmile_qr_scan"}, "type": "electric_scooter", "name": "62663e11f3a6c9a36c2ef0bcb7839d7e", "is_reserved": 0, "lon": -77.03177116666667, "is_disabled": 0, "fusion_lat": 0.0, "lat": 38.91559683333333, "bike_id": "62663e11f3a6c9a36c2ef0bcb7839d7e", "fusion_lon": 0.0}, {"rental_uris": {"ios": "https://dc.lft.to/lastmile_qr_scan", "android": "https://dc.lft.to/lastmile_qr_scan"}, "type": "electric_scooter", "name": "e48361174ffc79e33a46ab21aa171330", "is_reserved": 0, "lon": -76.94154583333334, "is_disabled": 0, "fusion_lat": 0.0, "lat": 38.9017885, "bike_id": "e48361174ffc79e33a46ab21aa171330", "fusion_lon": 0.0}, {"rental_uris": {"ios": "https://dc.lft.to/lastmile_qr_scan", "android": "https://dc.lft.to/lastmile_qr_scan"}, "type": "electric_scooter", "name": "841cc8d42fcffa959605bc9cdf522fd0", "is_reserved": 0, "lon": -77.02819033333333, "is_disabled": 0, "fusion_lat": 0.0, "lat": 38.885157166666666, "bike_id": "841cc8d42fcffa959605bc9cdf522fd0", "fusion_lon": 0.0}, {"rental_uris": {"ios": "https://dc.lft.to/lastmile_qr_scan", "android": "https://dc.lft.to/lastmile_qr_scan"}, "type": "electric_scooter", "name": "01353454b5755c952a7fc2b76d2d8c78", "is_reserved": 0, "lon": -76.97651366666666, "is_disabled": 0, "fusion_lat": 0.0, "lat": 38.9036115, "bike_id": "01353454b5755c952a7fc2b76d2d8c78", "fusion_lon": 0.0}, {"rental_uris": {"ios": "https://dc.lft.to/lastmile_qr_scan", "android": "https://dc.lft.to/lastmile_qr_scan"}, "type": "electric_scooter", "name": "90f786a8f24ba00e5667cc324e3983fc", "is_reserved": 0, "lon": -77.04094133333334, "is_disabled": 0, "fusion_lat": 0.0, "lat": 38.920654666666664, "bike_id": "90f786a8f24ba00e5667cc324e3983fc", "fusion_lon": 0.0}, {"rental_uris": {"ios": "https://dc.lft.to/lastmile_qr_scan", "android": "https://dc.lft.to/lastmile_qr_scan"}, "type": "electric_scooter", "name": "317110489bc3fba29e6f68e30123d060", "is_reserved": 0, "lon": -77.04337133333334, "is_disabled": 0, "fusion_lat": 0.0, "lat": 38.903524, "bike_id": "317110489bc3fba29e6f68e30123d060", "fusion_lon": 0.0}, {"rental_uris": {"ios": "https://dc.lft.to/lastmile_qr_scan", "android": "https://dc.lft.to/lastmile_qr_scan"}, "type": "electric_scooter", "name": "ebc31cec14675a7e8e41f8a03ada52cb", "is_reserved": 0, "lon": -77.02174783333334, "is_disabled": 0, "fusion_lat": 0.0, "lat": 38.89478233333333, "bike_id": "ebc31cec14675a7e8e41f8a03ada52cb", "fusion_lon": 0.0}, {"rental_uris": {"ios": "https://dc.lft.to/lastmile_qr_scan", "android": "https://dc.lft.to/lastmile_qr_scan"}, "type": "electric_scooter", "name": "1dbb44b33ec2b33030b04c0ae4220d7f", "is_reserved": 0, "lon": -77.04245416666667, "is_disabled": 0, "fusion_lat": 0.0, "lat": 38.9223915, "bike_id": "1dbb44b33ec2b33030b04c0ae4220d7f", "fusion_lon": 0.0}, {"rental_uris": {"ios": "https://dc.lft.to/lastmile_qr_scan", "android": "https://dc.lft.to/lastmile_qr_scan"}, "type": "electric_scooter", "name": "20071502deef037394b0827b85b1918c", "is_reserved": 0, "lon": -77.0235265, "is_disabled": 0, "fusion_lat": 0.0, "lat": 38.9307455, "bike_id": "20071502deef037394b0827b85b1918c", "fusion_lon": 0.0}, {"rental_uris": {"ios": "https://dc.lft.to/lastmile_qr_scan", "android": "https://dc.lft.to/lastmile_qr_scan"}, "type": "electric_scooter", "name": "bb5c816ab54274bab05d154bde6e26ec", "is_reserved": 0, "lon": -77.0265905, "is_disabled": 0, "fusion_lat": 0.0, "lat": 38.938614666666666, "bike_id": "bb5c816ab54274bab05d154bde6e26ec", "fusion_lon": 0.0}, {"rental_uris": {"ios": "https://dc.lft.to/lastmile_qr_scan", "android": "https://dc.lft.to/lastmile_qr_scan"}, "type": "electric_scooter", "name": "56a566cffc528274b5e826ccf75462ea", "is_reserved": 0, "lon": -77.0343815, "is_disabled": 0, "fusion_lat": 0.0, "lat": 38.91821066666667, "bike_id": "56a566cffc528274b5e826ccf75462ea", "fusion_lon": 0.0}, {"rental_uris": {"ios": "https://dc.lft.to/lastmile_qr_scan", "android": "https://dc.lft.to/lastmile_qr_scan"}, "type": "electric_scooter", "name": "8241cf88c904db54d7970a467e14ad82", "is_reserved": 0, "lon": -77.02074783333333, "is_disabled": 0, "fusion_lat": 0.0, "lat": 38.92401683333333, "bike_id": "8241cf88c904db54d7970a467e14ad82", "fusion_lon": 0.0}, {"rental_uris": {"ios": "https://dc.lft.to/lastmile_qr_scan", "android": "https://dc.lft.to/lastmile_qr_scan"}, "type": "electric_scooter", "name": "51a9dc9f29069b01bf27403e4982a2b0", "is_reserved": 0, "lon": -76.94851783333333, "is_disabled": 0, "fusion_lat": 0.0, "lat": 38.883044166666664, "bike_id": "51a9dc9f29069b01bf27403e4982a2b0", "fusion_lon": 0.0}, {"rental_uris": {"ios": "https://dc.lft.to/lastmile_qr_scan", "android": "https://dc.lft.to/lastmile_qr_scan"}, "type": "electric_scooter", "name": "78dda9a26b5ca93ff6211e943e0f95af", "is_reserved": 0, "lon": -77.00721933333334, "is_disabled": 0, "fusion_lat": 0.0, "lat": 38.87826966666667, "bike_id": "78dda9a26b5ca93ff6211e943e0f95af", "fusion_lon": 0.0}, {"rental_uris": {"ios": "https://dc.lft.to/lastmile_qr_scan", "android": "https://dc.lft.to/lastmile_qr_scan"}, "type": "electric_scooter", "name": "7262a437fb6acafe8d341e06c14cb5b7", "is_reserved": 0, "lon": -77.02123216666666, "is_disabled": 0, "fusion_lat": 0.0, "lat": 38.923789166666666, "bike_id": "7262a437fb6acafe8d341e06c14cb5b7", "fusion_lon": 0.0}, {"rental_uris": {"ios": "https://dc.lft.to/lastmile_qr_scan", "android": "https://dc.lft.to/lastmile_qr_scan"}, "type": "electric_scooter", "name": "758e50e81feca617ec98b74c54073d01", "is_reserved": 0, "lon": -77.0212545, "is_disabled": 0, "fusion_lat": 0.0, "lat": 38.924024, "bike_id": "758e50e81feca617ec98b74c54073d01", "fusion_lon": 0.0}, {"rental_uris": {"ios": "https://dc.lft.to/lastmile_qr_scan", "android": "https://dc.lft.to/lastmile_qr_scan"}, "type": "electric_scooter", "name": "4150c0c6fa55d0d44731be05e17363af", "is_reserved": 0, "lon": -77.02391183333333, "is_disabled": 0, "fusion_lat": 0.0, "lat": 38.93203616666667, "bike_id": "4150c0c6fa55d0d44731be05e17363af", "fusion_lon": 0.0}, {"rental_uris": {"ios": "https://dc.lft.to/lastmile_qr_scan", "android": "https://dc.lft.to/lastmile_qr_scan"}, "type": "electric_scooter", "name": "0e3c49f16afb3e6ca78e72d936b26732", "is_reserved": 0, "lon": -77.0405985, "is_disabled": 0, "fusion_lat": 0.0, "lat": 38.917454166666666, "bike_id": "0e3c49f16afb3e6ca78e72d936b26732", "fusion_lon": 0.0}, {"rental_uris": {"ios": "https://dc.lft.to/lastmile_qr_scan", "android": "https://dc.lft.to/lastmile_qr_scan"}, "type": "electric_scooter", "name": "e477731b4020ece79766cfb918ae00bb", "is_reserved": 0, "lon": -76.98101883333334, "is_disabled": 0, "fusion_lat": 0.0, "lat": 38.9039695, "bike_id": "e477731b4020ece79766cfb918ae00bb", "fusion_lon": 0.0}, {"rental_uris": {"ios": "https://dc.lft.to/lastmile_qr_scan", "android": "https://dc.lft.to/lastmile_qr_scan"}, "type": "electric_scooter", "name": "58f5d589d276ab2fa5059eb1f99cfcde", "is_reserved": 0, "lon": -77.03870033333334, "is_disabled": 0, "fusion_lat": 0.0, "lat": 38.918816166666666, "bike_id": "58f5d589d276ab2fa5059eb1f99cfcde", "fusion_lon": 0.0}, {"rental_uris": {"ios": "https://dc.lft.to/lastmile_qr_scan", "android": "https://dc.lft.to/lastmile_qr_scan"}, "type": "electric_scooter", "name": "804b6b147db701bb19c0259d301ffec1", "is_reserved": 0, "lon": -77.025722, "is_disabled": 0, "fusion_lat": 0.0, "lat": 38.884223666666664, "bike_id": "804b6b147db701bb19c0259d301ffec1", "fusion_lon": 0.0}, {"rental_uris": {"ios": "https://dc.lft.to/lastmile_qr_scan", "android": "https://dc.lft.to/lastmile_qr_scan"}, "type": "electric_scooter", "name": "fa2e723c9dbf40495792ff9c0e5b4611", "is_reserved": 0, "lon": -77.03184133333333, "is_disabled": 0, "fusion_lat": 0.0, "lat": 38.91673983333333, "bike_id": "fa2e723c9dbf40495792ff9c0e5b4611", "fusion_lon": 0.0}, {"rental_uris": {"ios": "https://dc.lft.to/lastmile_qr_scan", "android": "https://dc.lft.to/lastmile_qr_scan"}, "type": "electric_scooter", "name": "a8fa0c9011c7a081e2120b3163213efe", "is_reserved": 0, "lon": -77.02224266666667, "is_disabled": 0, "fusion_lat": 0.0, "lat": 38.9141495, "bike_id": "a8fa0c9011c7a081e2120b3163213efe", "fusion_lon": 0.0}, {"rental_uris": {"ios": "https://dc.lft.to/lastmile_qr_scan", "android": "https://dc.lft.to/lastmile_qr_scan"}, "type": "electric_scooter", "name": "1f9d0da4e68d7b414f20e2732375f30c", "is_reserved": 0, "lon": -77.01616983333334, "is_disabled": 0, "fusion_lat": 0.0, "lat": 38.885065, "bike_id": "1f9d0da4e68d7b414f20e2732375f30c", "fusion_lon": 0.0}, {"rental_uris": {"ios": "https://dc.lft.to/lastmile_qr_scan", "android": "https://dc.lft.to/lastmile_qr_scan"}, "type": "electric_scooter", "name": "2753a033d1b335c3b9363681e3b7ea3d", "is_reserved": 0, "lon": -77.01642383333333, "is_disabled": 0, "fusion_lat": 0.0, "lat": 38.900395833333334, "bike_id": "2753a033d1b335c3b9363681e3b7ea3d", "fusion_lon": 0.0}, {"rental_uris": {"ios": "https://dc.lft.to/lastmile_qr_scan", "android": "https://dc.lft.to/lastmile_qr_scan"}, "type": "electric_scooter", "name": "b3aee63fa1689cf6da78fdee418b9498", "is_reserved": 0, "lon": -77.03965183333334, "is_disabled": 0, "fusion_lat": 0.0, "lat": 38.8934825, "bike_id": "b3aee63fa1689cf6da78fdee418b9498", "fusion_lon": 0.0}, {"rental_uris": {"ios": "https://dc.lft.to/lastmile_qr_scan", "android": "https://dc.lft.to/lastmile_qr_scan"}, "type": "electric_scooter", "name": "2fe04cd0b38dcd9e5e524d3ceb257c9e", "is_reserved": 0, "lon": -76.983715, "is_disabled": 0, "fusion_lat": 0.0, "lat": 38.8602985, "bike_id": "2fe04cd0b38dcd9e5e524d3ceb257c9e", "fusion_lon": 0.0}, {"rental_uris": {"ios": "https://dc.lft.to/lastmile_qr_scan", "android": "https://dc.lft.to/lastmile_qr_scan"}, "type": "electric_scooter", "name": "86b10ca55d69bbbbf17f8b5fc555550c", "is_reserved": 0, "lon": -77.01769466666667, "is_disabled": 0, "fusion_lat": 0.0, "lat": 38.92108066666667, "bike_id": "86b10ca55d69bbbbf17f8b5fc555550c", "fusion_lon": 0.0}, {"rental_uris": {"ios": "https://dc.lft.to/lastmile_qr_scan", "android": "https://dc.lft.to/lastmile_qr_scan"}, "type": "electric_bike", "name": "b7a62fe47365c9742c720057c175e587", "is_reserved": 0, "lon": -77.02179833333334, "is_disabled": 0, "fusion_lat": 0.0, "lat": 38.89481283333333, "bike_id": "b7a62fe47365c9742c720057c175e587", "fusion_lon": 0.0}, {"rental_uris": {"ios": "https://dc.lft.to/lastmile_qr_scan", "android": "https://dc.lft.to/lastmile_qr_scan"}, "type": "electric_scooter", "name": "c46c896729cccfdb54bd31e3db7bae01", "is_reserved": 0, "lon": -77.0402695, "is_disabled": 0, "fusion_lat": 0.0, "lat": 38.9244925, "bike_id": "c46c896729cccfdb54bd31e3db7bae01", "fusion_lon": 0.0}, {"rental_uris": {"ios": "https://dc.lft.to/lastmile_qr_scan", "android": "https://dc.lft.to/lastmile_qr_scan"}, "type": "electric_scooter", "name": "a15db377ddcefb1cbee738ece752a57f", "is_reserved": 0, "lon": -76.98486383333334, "is_disabled": 0, "fusion_lat": 0.0, "lat": 38.903631, "bike_id": "a15db377ddcefb1cbee738ece752a57f", "fusion_lon": 0.0}, {"rental_uris": {"ios": "https://dc.lft.to/lastmile_qr_scan", "android": "https://dc.lft.to/lastmile_qr_scan"}, "type": "electric_scooter", "name": "4b48a5fa01d0780cc8dd7b96bb12e68d", "is_reserved": 0, "lon": -77.073266, "is_disabled": 0, "fusion_lat": 0.0, "lat": 38.9135935, "bike_id": "4b48a5fa01d0780cc8dd7b96bb12e68d", "fusion_lon": 0.0}, {"rental_uris": {"ios": "https://dc.lft.to/lastmile_qr_scan", "android": "https://dc.lft.to/lastmile_qr_scan"}, "type": "electric_scooter", "name": "19ef3020d8d887a25409d5b660d8bb23", "is_reserved": 0, "lon": -77.03092566666666, "is_disabled": 0, "fusion_lat": 0.0, "lat": 38.92255866666667, "bike_id": "19ef3020d8d887a25409d5b660d8bb23", "fusion_lon": 0.0}, {"rental_uris": {"ios": "https://dc.lft.to/lastmile_qr_scan", "android": "https://dc.lft.to/lastmile_qr_scan"}, "type": "electric_scooter", "name": "feac08445ad88d0d74a9bea2c0304f2e", "is_reserved": 0, "lon": -77.01037333333333, "is_disabled": 0, "fusion_lat": 0.0, "lat": 38.91910216666667, "bike_id": "feac08445ad88d0d74a9bea2c0304f2e", "fusion_lon": 0.0}, {"rental_uris": {"ios": "https://dc.lft.to/lastmile_qr_scan", "android": "https://dc.lft.to/lastmile_qr_scan"}, "type": "electric_scooter", "name": "bf3849265203f349abce762293f85c81", "is_reserved": 0, "lon": -76.92892766666667, "is_disabled": 0, "fusion_lat": 0.0, "lat": 38.87949233333333, "bike_id": "bf3849265203f349abce762293f85c81", "fusion_lon": 0.0}, {"rental_uris": {"ios": "https://dc.lft.to/lastmile_qr_scan", "android": "https://dc.lft.to/lastmile_qr_scan"}, "type": "electric_scooter", "name": "19211764ac96e091457831ff61b0edca", "is_reserved": 0, "lon": -77.0328195, "is_disabled": 0, "fusion_lat": 0.0, "lat": 38.90462016666667, "bike_id": "19211764ac96e091457831ff61b0edca", "fusion_lon": 0.0}, {"rental_uris": {"ios": "https://dc.lft.to/lastmile_qr_scan", "android": "https://dc.lft.to/lastmile_qr_scan"}, "type": "electric_scooter", "name": "cc03a81fa71bbaf88b09ed116a070063", "is_reserved": 0, "lon": -77.0097965, "is_disabled": 0, "fusion_lat": 0.0, "lat": 38.9057575, "bike_id": "cc03a81fa71bbaf88b09ed116a070063", "fusion_lon": 0.0}, {"rental_uris": {"ios": "https://dc.lft.to/lastmile_qr_scan", "android": "https://dc.lft.to/lastmile_qr_scan"}, "type": "electric_scooter", "name": "883a01ffd38e3fc511e4e4c46f28676f", "is_reserved": 0, "lon": -77.00557916666666, "is_disabled": 0, "fusion_lat": 0.0, "lat": 38.874694833333336, "bike_id": "883a01ffd38e3fc511e4e4c46f28676f", "fusion_lon": 0.0}, {"rental_uris": {"ios": "https://dc.lft.to/lastmile_qr_scan", "android": "https://dc.lft.to/lastmile_qr_scan"}, "type": "electric_scooter", "name": "82cea64c55ac3e83a34bdc7eb43f053d", "is_reserved": 0, "lon": -77.02193666666666, "is_disabled": 0, "fusion_lat": 0.0, "lat": 38.90995233333334, "bike_id": "82cea64c55ac3e83a34bdc7eb43f053d", "fusion_lon": 0.0}, {"rental_uris": {"ios": "https://dc.lft.to/lastmile_qr_scan", "android": "https://dc.lft.to/lastmile_qr_scan"}, "type": "electric_scooter", "name": "b357b237522f9c044b3a681ab229d5b0", "is_reserved": 0, "lon": -77.0500075, "is_disabled": 0, "fusion_lat": 0.0, "lat": 38.89232033333333, "bike_id": "b357b237522f9c044b3a681ab229d5b0", "fusion_lon": 0.0}, {"rental_uris": {"ios": "https://dc.lft.to/lastmile_qr_scan", "android": "https://dc.lft.to/lastmile_qr_scan"}, "type": "electric_scooter", "name": "5b7f24afdb090d189b8bdc2464d2d3b1", "is_reserved": 0, "lon": -76.99552216666666, "is_disabled": 0, "fusion_lat": 0.0, "lat": 38.8623245, "bike_id": "5b7f24afdb090d189b8bdc2464d2d3b1", "fusion_lon": 0.0}, {"rental_uris": {"ios": "https://dc.lft.to/lastmile_qr_scan", "android": "https://dc.lft.to/lastmile_qr_scan"}, "type": "electric_scooter", "name": "4c65401164c3bcf2131557ad9896eb04", "is_reserved": 0, "lon": -77.013154, "is_disabled": 0, "fusion_lat": 0.0, "lat": 38.92028966666667, "bike_id": "4c65401164c3bcf2131557ad9896eb04", "fusion_lon": 0.0}, {"rental_uris": {"ios": "https://dc.lft.to/lastmile_qr_scan", "android": "https://dc.lft.to/lastmile_qr_scan"}, "type": "electric_scooter", "name": "0bc176023d51be75aa7b7b3d43c9f373", "is_reserved": 0, "lon": -77.00956133333334, "is_disabled": 0, "fusion_lat": 0.0, "lat": 38.91915766666666, "bike_id": "0bc176023d51be75aa7b7b3d43c9f373", "fusion_lon": 0.0}, {"rental_uris": {"ios": "https://dc.lft.to/lastmile_qr_scan", "android": "https://dc.lft.to/lastmile_qr_scan"}, "type": "electric_scooter", "name": "f6f9928fa7a3cb34440aec2b9b79847f", "is_reserved": 0, "lon": -76.99920616666667, "is_disabled": 0, "fusion_lat": 0.0, "lat": 38.90066483333333, "bike_id": "f6f9928fa7a3cb34440aec2b9b79847f", "fusion_lon": 0.0}, {"rental_uris": {"ios": "https://dc.lft.to/lastmile_qr_scan", "android": "https://dc.lft.to/lastmile_qr_scan"}, "type": "electric_bike", "name": "13c8e948ba781930ea1d397354931096", "is_reserved": 0, "lon": -76.94537316666667, "is_disabled": 0, "fusion_lat": 0.0, "lat": 38.867495166666664, "bike_id": "13c8e948ba781930ea1d397354931096", "fusion_lon": 0.0}, {"rental_uris": {"ios": "https://dc.lft.to/lastmile_qr_scan", "android": "https://dc.lft.to/lastmile_qr_scan"}, "type": "electric_scooter", "name": "8fc245e625563dc900730f8e25c2d3a0", "is_reserved": 0, "lon": -76.98740533333333, "is_disabled": 0, "fusion_lat": 0.0, "lat": 38.878378166666664, "bike_id": "8fc245e625563dc900730f8e25c2d3a0", "fusion_lon": 0.0}, {"rental_uris": {"ios": "https://dc.lft.to/lastmile_qr_scan", "android": "https://dc.lft.to/lastmile_qr_scan"}, "type": "electric_scooter", "name": "4b380c3adfd7c9c9cb491243c0bfe914", "is_reserved": 0, "lon": -77.0702075, "is_disabled": 0, "fusion_lat": 0.0, "lat": 38.89352783333333, "bike_id": "4b380c3adfd7c9c9cb491243c0bfe914", "fusion_lon": 0.0}, {"rental_uris": {"ios": "https://dc.lft.to/lastmile_qr_scan", "android": "https://dc.lft.to/lastmile_qr_scan"}, "type": "electric_scooter", "name": "78256ba8aebed5c2eff7e426425d77db", "is_reserved": 0, "lon": -77.00032283333333, "is_disabled": 0, "fusion_lat": 0.0, "lat": 38.906827, "bike_id": "78256ba8aebed5c2eff7e426425d77db", "fusion_lon": 0.0}, {"rental_uris": {"ios": "https://dc.lft.to/lastmile_qr_scan", "android": "https://dc.lft.to/lastmile_qr_scan"}, "type": "electric_bike", "name": "882b09c90fe1c7572de85c0290436d6d", "is_reserved": 0, "lon": -76.94154633333333, "is_disabled": 0, "fusion_lat": 0.0, "lat": 38.89022533333333, "bike_id": "882b09c90fe1c7572de85c0290436d6d", "fusion_lon": 0.0}, {"rental_uris": {"ios": "https://dc.lft.to/lastmile_qr_scan", "android": "https://dc.lft.to/lastmile_qr_scan"}, "type": "electric_scooter", "name": "f7d6f09a7c6424ab817259f6f925a672", "is_reserved": 0, "lon": -76.93184533333333, "is_disabled": 0, "fusion_lat": 0.0, "lat": 38.8987715, "bike_id": "f7d6f09a7c6424ab817259f6f925a672", "fusion_lon": 0.0}, {"rental_uris": {"ios": "https://dc.lft.to/lastmile_qr_scan", "android": "https://dc.lft.to/lastmile_qr_scan"}, "type": "electric_scooter", "name": "78bc7f54cb0fe503147ea6410cee59ae", "is_reserved": 0, "lon": -77.00038716666667, "is_disabled": 0, "fusion_lat": 0.0, "lat": 38.87436816666667, "bike_id": "78bc7f54cb0fe503147ea6410cee59ae", "fusion_lon": 0.0}, {"rental_uris": {"ios": "https://dc.lft.to/lastmile_qr_scan", "android": "https://dc.lft.to/lastmile_qr_scan"}, "type": "electric_scooter", "name": "9a1ee1f8bbfa30d4074d6cbaf256e6dd", "is_reserved": 0, "lon": -77.01305083333334, "is_disabled": 0, "fusion_lat": 0.0, "lat": 38.91805866666667, "bike_id": "9a1ee1f8bbfa30d4074d6cbaf256e6dd", "fusion_lon": 0.0}, {"rental_uris": {"ios": "https://dc.lft.to/lastmile_qr_scan", "android": "https://dc.lft.to/lastmile_qr_scan"}, "type": "electric_bike", "name": "449d40f9148dd5af442e6e49b4289a5b", "is_reserved": 0, "lon": -77.1293435, "is_disabled": 0, "fusion_lat": 0.0, "lat": 38.86583616666667, "bike_id": "449d40f9148dd5af442e6e49b4289a5b", "fusion_lon": 0.0}, {"rental_uris": {"ios": "https://dc.lft.to/lastmile_qr_scan", "android": "https://dc.lft.to/lastmile_qr_scan"}, "type": "electric_scooter", "name": "b060ad42faa6965534902c88d2b804ce", "is_reserved": 0, "lon": -77.03828583333333, "is_disabled": 0, "fusion_lat": 0.0, "lat": 38.96266383333333, "bike_id": "b060ad42faa6965534902c88d2b804ce", "fusion_lon": 0.0}, {"rental_uris": {"ios": "https://dc.lft.to/lastmile_qr_scan", "android": "https://dc.lft.to/lastmile_qr_scan"}, "type": "electric_scooter", "name": "94a496e7a5fc9cc60300ba17d924fc26", "is_reserved": 0, "lon": -77.04567883333333, "is_disabled": 0, "fusion_lat": 0.0, "lat": 38.909589, "bike_id": "94a496e7a5fc9cc60300ba17d924fc26", "fusion_lon": 0.0}, {"rental_uris": {"ios": "https://dc.lft.to/lastmile_qr_scan", "android": "https://dc.lft.to/lastmile_qr_scan"}, "type": "electric_scooter", "name": "3799df4ad99efd5b15f65638907d5c04", "is_reserved": 0, "lon": -77.03411333333334, "is_disabled": 0, "fusion_lat": 0.0, "lat": 38.923958166666665, "bike_id": "3799df4ad99efd5b15f65638907d5c04", "fusion_lon": 0.0}, {"rental_uris": {"ios": "https://dc.lft.to/lastmile_qr_scan", "android": "https://dc.lft.to/lastmile_qr_scan"}, "type": "electric_scooter", "name": "99957a41110b9543d19236d72d38ecfc", "is_reserved": 0, "lon": -77.0448245, "is_disabled": 0, "fusion_lat": 0.0, "lat": 38.91868483333333, "bike_id": "99957a41110b9543d19236d72d38ecfc", "fusion_lon": 0.0}, {"rental_uris": {"ios": "https://dc.lft.to/lastmile_qr_scan", "android": "https://dc.lft.to/lastmile_qr_scan"}, "type": "electric_scooter", "name": "ffe21c5d4cf9950c8634f7dd13bb375d", "is_reserved": 0, "lon": -77.03157666666667, "is_disabled": 0, "fusion_lat": 0.0, "lat": 38.9296805, "bike_id": "ffe21c5d4cf9950c8634f7dd13bb375d", "fusion_lon": 0.0}, {"rental_uris": {"ios": "https://dc.lft.to/lastmile_qr_scan", "android": "https://dc.lft.to/lastmile_qr_scan"}, "type": "electric_bike", "name": "27a9d640eae3160ed4f89c03659409ef", "is_reserved": 0, "lon": -76.99280216666666, "is_disabled": 0, "fusion_lat": 0.0, "lat": 38.9725905, "bike_id": "27a9d640eae3160ed4f89c03659409ef", "fusion_lon": 0.0}, {"rental_uris": {"ios": "https://dc.lft.to/lastmile_qr_scan", "android": "https://dc.lft.to/lastmile_qr_scan"}, "type": "electric_scooter", "name": "12a7dd361a184f24a457070f7880083b", "is_reserved": 0, "lon": -77.038396, "is_disabled": 0, "fusion_lat": 0.0, "lat": 38.9036255, "bike_id": "12a7dd361a184f24a457070f7880083b", "fusion_lon": 0.0}, {"rental_uris": {"ios": "https://dc.lft.to/lastmile_qr_scan", "android": "https://dc.lft.to/lastmile_qr_scan"}, "type": "electric_scooter", "name": "a33a37391c2eb306c34757baf5eba3de", "is_reserved": 0, "lon": -77.030872, "is_disabled": 0, "fusion_lat": 0.0, "lat": 38.9134005, "bike_id": "a33a37391c2eb306c34757baf5eba3de", "fusion_lon": 0.0}, {"rental_uris": {"ios": "https://dc.lft.to/lastmile_qr_scan", "android": "https://dc.lft.to/lastmile_qr_scan"}, "type": "electric_scooter", "name": "6aadc1de82bc50334993f0a055e463ba", "is_reserved": 0, "lon": -77.05222966666666, "is_disabled": 0, "fusion_lat": 0.0, "lat": 38.924949, "bike_id": "6aadc1de82bc50334993f0a055e463ba", "fusion_lon": 0.0}, {"rental_uris": {"ios": "https://dc.lft.to/lastmile_qr_scan", "android": "https://dc.lft.to/lastmile_qr_scan"}, "type": "electric_scooter", "name": "679ba70bb233a2b96c869f80fc201608", "is_reserved": 0, "lon": -77.02414833333333, "is_disabled": 0, "fusion_lat": 0.0, "lat": 38.93814533333333, "bike_id": "679ba70bb233a2b96c869f80fc201608", "fusion_lon": 0.0}, {"rental_uris": {"ios": "https://dc.lft.to/lastmile_qr_scan", "android": "https://dc.lft.to/lastmile_qr_scan"}, "type": "electric_scooter", "name": "8f88d86b3e03f318255522ae17193816", "is_reserved": 0, "lon": -77.015723, "is_disabled": 0, "fusion_lat": 0.0, "lat": 38.9023415, "bike_id": "8f88d86b3e03f318255522ae17193816", "fusion_lon": 0.0}, {"rental_uris": {"ios": "https://dc.lft.to/lastmile_qr_scan", "android": "https://dc.lft.to/lastmile_qr_scan"}, "type": "electric_bike", "name": "e547369bc01761f56727632a48bd3dc7", "is_reserved": 0, "lon": -76.99698933333333, "is_disabled": 0, "fusion_lat": 0.0, "lat": 38.83867266666667, "bike_id": "e547369bc01761f56727632a48bd3dc7", "fusion_lon": 0.0}, {"rental_uris": {"ios": "https://dc.lft.to/lastmile_qr_scan", "android": "https://dc.lft.to/lastmile_qr_scan"}, "type": "electric_scooter", "name": "90499b9aa6f914af84cfe89d5f79d134", "is_reserved": 0, "lon": -76.98403216666667, "is_disabled": 0, "fusion_lat": 0.0, "lat": 38.92517216666667, "bike_id": "90499b9aa6f914af84cfe89d5f79d134", "fusion_lon": 0.0}, {"rental_uris": {"ios": "https://dc.lft.to/lastmile_qr_scan", "android": "https://dc.lft.to/lastmile_qr_scan"}, "type": "electric_scooter", "name": "815bf3035a640293b8db1fab48a84634", "is_reserved": 0, "lon": -77.04070466666667, "is_disabled": 0, "fusion_lat": 0.0, "lat": 38.91415666666666, "bike_id": "815bf3035a640293b8db1fab48a84634", "fusion_lon": 0.0}, {"rental_uris": {"ios": "https://dc.lft.to/lastmile_qr_scan", "android": "https://dc.lft.to/lastmile_qr_scan"}, "type": "electric_scooter", "name": "6a99ef797f232aa6a09a183794483c88", "is_reserved": 0, "lon": -77.02053166666667, "is_disabled": 0, "fusion_lat": 0.0, "lat": 38.922460666666666, "bike_id": "6a99ef797f232aa6a09a183794483c88", "fusion_lon": 0.0}, {"rental_uris": {"ios": "https://dc.lft.to/lastmile_qr_scan", "android": "https://dc.lft.to/lastmile_qr_scan"}, "type": "electric_scooter", "name": "e06f8ad91e151584a547cb4e6db5f1e5", "is_reserved": 0, "lon": -76.98608333333334, "is_disabled": 0, "fusion_lat": 0.0, "lat": 38.87834566666667, "bike_id": "e06f8ad91e151584a547cb4e6db5f1e5", "fusion_lon": 0.0}, {"rental_uris": {"ios": "https://dc.lft.to/lastmile_qr_scan", "android": "https://dc.lft.to/lastmile_qr_scan"}, "type": "electric_scooter", "name": "6c18cf34895e54e53356f788b595195b", "is_reserved": 0, "lon": -76.9981765, "is_disabled": 0, "fusion_lat": 0.0, "lat": 38.90044233333333, "bike_id": "6c18cf34895e54e53356f788b595195b", "fusion_lon": 0.0}, {"rental_uris": {"ios": "https://dc.lft.to/lastmile_qr_scan", "android": "https://dc.lft.to/lastmile_qr_scan"}, "type": "electric_scooter", "name": "89922814c4f247ab80e9b11084e379a5", "is_reserved": 0, "lon": -77.052052, "is_disabled": 0, "fusion_lat": 0.0, "lat": 38.9242865, "bike_id": "89922814c4f247ab80e9b11084e379a5", "fusion_lon": 0.0}, {"rental_uris": {"ios": "https://dc.lft.to/lastmile_qr_scan", "android": "https://dc.lft.to/lastmile_qr_scan"}, "type": "electric_bike", "name": "5f239900ff608d1d67ad36c1931b9519", "is_reserved": 0, "lon": -76.88979883333333, "is_disabled": 0, "fusion_lat": 0.0, "lat": 39.00780016666667, "bike_id": "5f239900ff608d1d67ad36c1931b9519", "fusion_lon": 0.0}, {"rental_uris": {"ios": "https://dc.lft.to/lastmile_qr_scan", "android": "https://dc.lft.to/lastmile_qr_scan"}, "type": "electric_scooter", "name": "fb5f325555cef8dc7e732748fe5bd543", "is_reserved": 0, "lon": -77.00873633333333, "is_disabled": 0, "fusion_lat": 0.0, "lat": 38.91263133333333, "bike_id": "fb5f325555cef8dc7e732748fe5bd543", "fusion_lon": 0.0}, {"rental_uris": {"ios": "https://dc.lft.to/lastmile_qr_scan", "android": "https://dc.lft.to/lastmile_qr_scan"}, "type": "electric_scooter", "name": "a5e1b2fc22966348492927281b1e39e3", "is_reserved": 0, "lon": -76.99411766666667, "is_disabled": 0, "fusion_lat": 0.0, "lat": 38.87788716666667, "bike_id": "a5e1b2fc22966348492927281b1e39e3", "fusion_lon": 0.0}, {"rental_uris": {"ios": "https://dc.lft.to/lastmile_qr_scan", "android": "https://dc.lft.to/lastmile_qr_scan"}, "type": "electric_scooter", "name": "6523083a4bc5f23ec517d34cf3617d7d", "is_reserved": 0, "lon": -77.03467583333334, "is_disabled": 0, "fusion_lat": 0.0, "lat": 38.930225666666665, "bike_id": "6523083a4bc5f23ec517d34cf3617d7d", "fusion_lon": 0.0}, {"rental_uris": {"ios": "https://dc.lft.to/lastmile_qr_scan", "android": "https://dc.lft.to/lastmile_qr_scan"}, "type": "electric_bike", "name": "3aaa98d4def830320bc45c97a22b1493", "is_reserved": 0, "lon": -77.2166545, "is_disabled": 0, "fusion_lat": 0.0, "lat": 38.895056833333335, "bike_id": "3aaa98d4def830320bc45c97a22b1493", "fusion_lon": 0.0}, {"rental_uris": {"ios": "https://dc.lft.to/lastmile_qr_scan", "android": "https://dc.lft.to/lastmile_qr_scan"}, "type": "electric_scooter", "name": "9ee70516e14a774f8ee17f6ed8fa66ef", "is_reserved": 0, "lon": -76.98803416666667, "is_disabled": 0, "fusion_lat": 0.0, "lat": 38.881632, "bike_id": "9ee70516e14a774f8ee17f6ed8fa66ef", "fusion_lon": 0.0}, {"rental_uris": {"ios": "https://dc.lft.to/lastmile_qr_scan", "android": "https://dc.lft.to/lastmile_qr_scan"}, "type": "electric_scooter", "name": "7cf2a0afca5f82f671444a64eb45c976", "is_reserved": 0, "lon": -77.00599616666666, "is_disabled": 0, "fusion_lat": 0.0, "lat": 38.9057425, "bike_id": "7cf2a0afca5f82f671444a64eb45c976", "fusion_lon": 0.0}, {"rental_uris": {"ios": "https://dc.lft.to/lastmile_qr_scan", "android": "https://dc.lft.to/lastmile_qr_scan"}, "type": "electric_scooter", "name": "ab600f869c064bf4ed635378dc64a602", "is_reserved": 0, "lon": -77.055068, "is_disabled": 0, "fusion_lat": 0.0, "lat": 38.928440333333334, "bike_id": "ab600f869c064bf4ed635378dc64a602", "fusion_lon": 0.0}, {"rental_uris": {"ios": "https://dc.lft.to/lastmile_qr_scan", "android": "https://dc.lft.to/lastmile_qr_scan"}, "type": "electric_scooter", "name": "977f9ce1d57a840457e4dc6a29df556c", "is_reserved": 0, "lon": -77.03238616666667, "is_disabled": 0, "fusion_lat": 0.0, "lat": 38.928890833333334, "bike_id": "977f9ce1d57a840457e4dc6a29df556c", "fusion_lon": 0.0}, {"rental_uris": {"ios": "https://dc.lft.to/lastmile_qr_scan", "android": "https://dc.lft.to/lastmile_qr_scan"}, "type": "electric_scooter", "name": "267a053d9c8e7320acc4a8dfef303525", "is_reserved": 0, "lon": -77.041031, "is_disabled": 0, "fusion_lat": 0.0, "lat": 38.905397, "bike_id": "267a053d9c8e7320acc4a8dfef303525", "fusion_lon": 0.0}, {"rental_uris": {"ios": "https://dc.lft.to/lastmile_qr_scan", "android": "https://dc.lft.to/lastmile_qr_scan"}, "type": "electric_bike", "name": "a1ad1c4fb5323b1714ba1ca751c13fed", "is_reserved": 0, "lon": -77.06530366666667, "is_disabled": 0, "fusion_lat": 0.0, "lat": 38.992352333333336, "bike_id": "a1ad1c4fb5323b1714ba1ca751c13fed", "fusion_lon": 0.0}, {"rental_uris": {"ios": "https://dc.lft.to/lastmile_qr_scan", "android": "https://dc.lft.to/lastmile_qr_scan"}, "type": "electric_bike", "name": "6e07b64ff52722656510e9b7ca63d96b", "is_reserved": 0, "lon": -77.09726466666666, "is_disabled": 0, "fusion_lat": 0.0, "lat": 38.8073845, "bike_id": "6e07b64ff52722656510e9b7ca63d96b", "fusion_lon": 0.0}, {"rental_uris": {"ios": "https://dc.lft.to/lastmile_qr_scan", "android": "https://dc.lft.to/lastmile_qr_scan"}, "type": "electric_scooter", "name": "a483cf707a6ce48613abfa2357100e16", "is_reserved": 0, "lon": -77.05688733333334, "is_disabled": 0, "fusion_lat": 0.0, "lat": 38.9048195, "bike_id": "a483cf707a6ce48613abfa2357100e16", "fusion_lon": 0.0}, {"rental_uris": {"ios": "https://dc.lft.to/lastmile_qr_scan", "android": "https://dc.lft.to/lastmile_qr_scan"}, "type": "electric_bike", "name": "89d91d03879ff6c90f64de0f3713b421", "is_reserved": 0, "lon": -77.00400716666667, "is_disabled": 0, "fusion_lat": 0.0, "lat": 38.9210905, "bike_id": "89d91d03879ff6c90f64de0f3713b421", "fusion_lon": 0.0}, {"rental_uris": {"ios": "https://dc.lft.to/lastmile_qr_scan", "android": "https://dc.lft.to/lastmile_qr_scan"}, "type": "electric_scooter", "name": "ef97b1a1b934698ab8cc67a6fb5b24d9", "is_reserved": 0, "lon": -77.04424883333333, "is_disabled": 0, "fusion_lat": 0.0, "lat": 38.9112765, "bike_id": "ef97b1a1b934698ab8cc67a6fb5b24d9", "fusion_lon": 0.0}, {"rental_uris": {"ios": "https://dc.lft.to/lastmile_qr_scan", "android": "https://dc.lft.to/lastmile_qr_scan"}, "type": "electric_scooter", "name": "059b60c9e233e852c6b2b0c809cae76b", "is_reserved": 0, "lon": -77.005704, "is_disabled": 0, "fusion_lat": 0.0, "lat": 38.90577616666667, "bike_id": "059b60c9e233e852c6b2b0c809cae76b", "fusion_lon": 0.0}, {"rental_uris": {"ios": "https://dc.lft.to/lastmile_qr_scan", "android": "https://dc.lft.to/lastmile_qr_scan"}, "type": "electric_scooter", "name": "9132bc9bd3110698af6dbbe34dc9bf62", "is_reserved": 0, "lon": -77.02407533333333, "is_disabled": 0, "fusion_lat": 0.0, "lat": 38.945093166666666, "bike_id": "9132bc9bd3110698af6dbbe34dc9bf62", "fusion_lon": 0.0}, {"rental_uris": {"ios": "https://dc.lft.to/lastmile_qr_scan", "android": "https://dc.lft.to/lastmile_qr_scan"}, "type": "electric_bike", "name": "a597ddb55787696840c5d875ace86f45", "is_reserved": 0, "lon": -76.98057766666666, "is_disabled": 0, "fusion_lat": 0.0, "lat": 38.97252666666667, "bike_id": "a597ddb55787696840c5d875ace86f45", "fusion_lon": 0.0}, {"rental_uris": {"ios": "https://dc.lft.to/lastmile_qr_scan", "android": "https://dc.lft.to/lastmile_qr_scan"}, "type": "electric_scooter", "name": "1be51cbefd838d40cf56d1a32a1caa77", "is_reserved": 0, "lon": -77.034405, "is_disabled": 0, "fusion_lat": 0.0, "lat": 38.90971416666667, "bike_id": "1be51cbefd838d40cf56d1a32a1caa77", "fusion_lon": 0.0}, {"rental_uris": {"ios": "https://dc.lft.to/lastmile_qr_scan", "android": "https://dc.lft.to/lastmile_qr_scan"}, "type": "electric_scooter", "name": "187f88d3e5253e14b75f471034a2809e", "is_reserved": 0, "lon": -77.02590483333333, "is_disabled": 0, "fusion_lat": 0.0, "lat": 38.90499666666667, "bike_id": "187f88d3e5253e14b75f471034a2809e", "fusion_lon": 0.0}, {"rental_uris": {"ios": "https://dc.lft.to/lastmile_qr_scan", "android": "https://dc.lft.to/lastmile_qr_scan"}, "type": "electric_scooter", "name": "afa1b9bb218d663340e314df25eafed0", "is_reserved": 0, "lon": -77.03841, "is_disabled": 0, "fusion_lat": 0.0, "lat": 38.9066865, "bike_id": "afa1b9bb218d663340e314df25eafed0", "fusion_lon": 0.0}, {"rental_uris": {"ios": "https://dc.lft.to/lastmile_qr_scan", "android": "https://dc.lft.to/lastmile_qr_scan"}, "type": "electric_scooter", "name": "e97bea69d06b4ec9cbbf6f3f04d1ef2e", "is_reserved": 0, "lon": -77.061437, "is_disabled": 0, "fusion_lat": 0.0, "lat": 38.91292883333333, "bike_id": "e97bea69d06b4ec9cbbf6f3f04d1ef2e", "fusion_lon": 0.0}, {"rental_uris": {"ios": "https://dc.lft.to/lastmile_qr_scan", "android": "https://dc.lft.to/lastmile_qr_scan"}, "type": "electric_scooter", "name": "eabefb11309b41acd88de1df04c7b214", "is_reserved": 0, "lon": -76.99209283333333, "is_disabled": 0, "fusion_lat": 0.0, "lat": 38.88968083333334, "bike_id": "eabefb11309b41acd88de1df04c7b214", "fusion_lon": 0.0}, {"rental_uris": {"ios": "https://dc.lft.to/lastmile_qr_scan", "android": "https://dc.lft.to/lastmile_qr_scan"}, "type": "electric_scooter", "name": "83a665121482ef62d61c68be423a8f8e", "is_reserved": 0, "lon": -76.994765, "is_disabled": 0, "fusion_lat": 0.0, "lat": 38.862117, "bike_id": "83a665121482ef62d61c68be423a8f8e", "fusion_lon": 0.0}, {"rental_uris": {"ios": "https://dc.lft.to/lastmile_qr_scan", "android": "https://dc.lft.to/lastmile_qr_scan"}, "type": "electric_scooter", "name": "65f559db2edd3ae30b7e3698f8e8bb30", "is_reserved": 0, "lon": -77.03063683333333, "is_disabled": 0, "fusion_lat": 0.0, "lat": 38.908281333333335, "bike_id": "65f559db2edd3ae30b7e3698f8e8bb30", "fusion_lon": 0.0}, {"rental_uris": {"ios": "https://dc.lft.to/lastmile_qr_scan", "android": "https://dc.lft.to/lastmile_qr_scan"}, "type": "electric_scooter", "name": "46b981066e0ff4bc7ee11b8cbb7e3754", "is_reserved": 0, "lon": -77.00554466666667, "is_disabled": 0, "fusion_lat": 0.0, "lat": 38.875343666666666, "bike_id": "46b981066e0ff4bc7ee11b8cbb7e3754", "fusion_lon": 0.0}, {"rental_uris": {"ios": "https://dc.lft.to/lastmile_qr_scan", "android": "https://dc.lft.to/lastmile_qr_scan"}, "type": "electric_scooter", "name": "5b157240945d09b65999e773429018e3", "is_reserved": 0, "lon": -77.0268695, "is_disabled": 0, "fusion_lat": 0.0, "lat": 38.902476, "bike_id": "5b157240945d09b65999e773429018e3", "fusion_lon": 0.0}, {"rental_uris": {"ios": "https://dc.lft.to/lastmile_qr_scan", "android": "https://dc.lft.to/lastmile_qr_scan"}, "type": "electric_scooter", "name": "3e12b887474ad7ebcba255ab737ebc0b", "is_reserved": 0, "lon": -77.00955783333333, "is_disabled": 0, "fusion_lat": 0.0, "lat": 38.876327833333335, "bike_id": "3e12b887474ad7ebcba255ab737ebc0b", "fusion_lon": 0.0}, {"rental_uris": {"ios": "https://dc.lft.to/lastmile_qr_scan", "android": "https://dc.lft.to/lastmile_qr_scan"}, "type": "electric_scooter", "name": "5bb176435e70d27afce6bd75e5a259f9", "is_reserved": 0, "lon": -76.99717233333334, "is_disabled": 0, "fusion_lat": 0.0, "lat": 38.900331666666666, "bike_id": "5bb176435e70d27afce6bd75e5a259f9", "fusion_lon": 0.0}, {"rental_uris": {"ios": "https://dc.lft.to/lastmile_qr_scan", "android": "https://dc.lft.to/lastmile_qr_scan"}, "type": "electric_scooter", "name": "0c5f39c5c6ba8b0151764d5520a284a9", "is_reserved": 0, "lon": -77.0415305, "is_disabled": 0, "fusion_lat": 0.0, "lat": 38.91043666666667, "bike_id": "0c5f39c5c6ba8b0151764d5520a284a9", "fusion_lon": 0.0}, {"rental_uris": {"ios": "https://dc.lft.to/lastmile_qr_scan", "android": "https://dc.lft.to/lastmile_qr_scan"}, "type": "electric_scooter", "name": "05c6547ac07a2573a6eb5b4f8e3e18d4", "is_reserved": 0, "lon": -77.0229645, "is_disabled": 0, "fusion_lat": 0.0, "lat": 38.925129166666665, "bike_id": "05c6547ac07a2573a6eb5b4f8e3e18d4", "fusion_lon": 0.0}, {"rental_uris": {"ios": "https://dc.lft.to/lastmile_qr_scan", "android": "https://dc.lft.to/lastmile_qr_scan"}, "type": "electric_scooter", "name": "cb5ccfcfcc3a01986eedd3e00caa0a2a", "is_reserved": 0, "lon": -77.04082983333333, "is_disabled": 0, "fusion_lat": 0.0, "lat": 38.905062666666666, "bike_id": "cb5ccfcfcc3a01986eedd3e00caa0a2a", "fusion_lon": 0.0}, {"rental_uris": {"ios": "https://dc.lft.to/lastmile_qr_scan", "android": "https://dc.lft.to/lastmile_qr_scan"}, "type": "electric_scooter", "name": "7df33b31d455058e9f51f0700773b0ab", "is_reserved": 0, "lon": -77.02686266666667, "is_disabled": 0, "fusion_lat": 0.0, "lat": 38.89695433333333, "bike_id": "7df33b31d455058e9f51f0700773b0ab", "fusion_lon": 0.0}, {"rental_uris": {"ios": "https://dc.lft.to/lastmile_qr_scan", "android": "https://dc.lft.to/lastmile_qr_scan"}, "type": "electric_bike", "name": "ec93a7c217ea4097935166d3e52f4c28", "is_reserved": 0, "lon": -76.99255866666667, "is_disabled": 0, "fusion_lat": 0.0, "lat": 38.941729, "bike_id": "ec93a7c217ea4097935166d3e52f4c28", "fusion_lon": 0.0}, {"rental_uris": {"ios": "https://dc.lft.to/lastmile_qr_scan", "android": "https://dc.lft.to/lastmile_qr_scan"}, "type": "electric_scooter", "name": "85dcad4e19af83510a975ecf01eabcf9", "is_reserved": 0, "lon": -77.0018225, "is_disabled": 0, "fusion_lat": 0.0, "lat": 38.90043083333333, "bike_id": "85dcad4e19af83510a975ecf01eabcf9", "fusion_lon": 0.0}, {"rental_uris": {"ios": "https://dc.lft.to/lastmile_qr_scan", "android": "https://dc.lft.to/lastmile_qr_scan"}, "type": "electric_bike", "name": "5fc1ffc0c8a8da7e7b8597a6450ca445", "is_reserved": 0, "lon": -77.12838933333333, "is_disabled": 0, "fusion_lat": 0.0, "lat": 38.8005295, "bike_id": "5fc1ffc0c8a8da7e7b8597a6450ca445", "fusion_lon": 0.0}, {"rental_uris": {"ios": "https://dc.lft.to/lastmile_qr_scan", "android": "https://dc.lft.to/lastmile_qr_scan"}, "type": "electric_scooter", "name": "70b275161d41cb63d1cee8f8a7f1d6c7", "is_reserved": 0, "lon": -77.026921, "is_disabled": 0, "fusion_lat": 0.0, "lat": 38.908427833333334, "bike_id": "70b275161d41cb63d1cee8f8a7f1d6c7", "fusion_lon": 0.0}, {"rental_uris": {"ios": "https://dc.lft.to/lastmile_qr_scan", "android": "https://dc.lft.to/lastmile_qr_scan"}, "type": "electric_scooter", "name": "08c74f2f7db7661cb5a5d3141133deb6", "is_reserved": 0, "lon": -77.04366166666667, "is_disabled": 0, "fusion_lat": 0.0, "lat": 38.922398666666666, "bike_id": "08c74f2f7db7661cb5a5d3141133deb6", "fusion_lon": 0.0}, {"rental_uris": {"ios": "https://dc.lft.to/lastmile_qr_scan", "android": "https://dc.lft.to/lastmile_qr_scan"}, "type": "electric_scooter", "name": "710ffda45b2d9adf17a9d09c43ddf589", "is_reserved": 0, "lon": -77.00403, "is_disabled": 0, "fusion_lat": 0.0, "lat": 38.876767, "bike_id": "710ffda45b2d9adf17a9d09c43ddf589", "fusion_lon": 0.0}, {"rental_uris": {"ios": "https://dc.lft.to/lastmile_qr_scan", "android": "https://dc.lft.to/lastmile_qr_scan"}, "type": "electric_scooter", "name": "6fdd78cf961e89c7889fe00e5fb73fe7", "is_reserved": 0, "lon": -76.93213133333333, "is_disabled": 0, "fusion_lat": 0.0, "lat": 38.896649833333335, "bike_id": "6fdd78cf961e89c7889fe00e5fb73fe7", "fusion_lon": 0.0}, {"rental_uris": {"ios": "https://dc.lft.to/lastmile_qr_scan", "android": "https://dc.lft.to/lastmile_qr_scan"}, "type": "electric_scooter", "name": "140242bf522c84990a7b2faa6ffc1e29", "is_reserved": 0, "lon": -77.03776066666667, "is_disabled": 0, "fusion_lat": 0.0, "lat": 38.901437666666666, "bike_id": "140242bf522c84990a7b2faa6ffc1e29", "fusion_lon": 0.0}, {"rental_uris": {"ios": "https://dc.lft.to/lastmile_qr_scan", "android": "https://dc.lft.to/lastmile_qr_scan"}, "type": "electric_bike", "name": "bcf22fa8819b88696533c9f2d116cc9e", "is_reserved": 0, "lon": -76.91807733333333, "is_disabled": 0, "fusion_lat": 0.0, "lat": 39.000026, "bike_id": "bcf22fa8819b88696533c9f2d116cc9e", "fusion_lon": 0.0}, {"rental_uris": {"ios": "https://dc.lft.to/lastmile_qr_scan", "android": "https://dc.lft.to/lastmile_qr_scan"}, "type": "electric_scooter", "name": "c137e50585ab656d7c1bed35ad47b1bd", "is_reserved": 0, "lon": -77.01798483333333, "is_disabled": 0, "fusion_lat": 0.0, "lat": 38.88596483333333, "bike_id": "c137e50585ab656d7c1bed35ad47b1bd", "fusion_lon": 0.0}, {"rental_uris": {"ios": "https://dc.lft.to/lastmile_qr_scan", "android": "https://dc.lft.to/lastmile_qr_scan"}, "type": "electric_scooter", "name": "4e50c588cce33c6b53e305ea7c877743", "is_reserved": 0, "lon": -77.04191816666666, "is_disabled": 0, "fusion_lat": 0.0, "lat": 38.91669516666666, "bike_id": "4e50c588cce33c6b53e305ea7c877743", "fusion_lon": 0.0}, {"rental_uris": {"ios": "https://dc.lft.to/lastmile_qr_scan", "android": "https://dc.lft.to/lastmile_qr_scan"}, "type": "electric_bike", "name": "5160bf2a4b73ad30914954c306dfeead", "is_reserved": 0, "lon": -76.98346433333333, "is_disabled": 0, "fusion_lat": 0.0, "lat": 38.86271466666667, "bike_id": "5160bf2a4b73ad30914954c306dfeead", "fusion_lon": 0.0}, {"rental_uris": {"ios": "https://dc.lft.to/lastmile_qr_scan", "android": "https://dc.lft.to/lastmile_qr_scan"}, "type": "electric_scooter", "name": "7fc7b3e331495d3411696b7c3047810b", "is_reserved": 0, "lon": -77.0591305, "is_disabled": 0, "fusion_lat": 0.0, "lat": 38.902767, "bike_id": "7fc7b3e331495d3411696b7c3047810b", "fusion_lon": 0.0}, {"rental_uris": {"ios": "https://dc.lft.to/lastmile_qr_scan", "android": "https://dc.lft.to/lastmile_qr_scan"}, "type": "electric_bike", "name": "d1e82c04123304051abdf74df7e075a0", "is_reserved": 0, "lon": -77.12976233333333, "is_disabled": 0, "fusion_lat": 0.0, "lat": 38.79990883333333, "bike_id": "d1e82c04123304051abdf74df7e075a0", "fusion_lon": 0.0}, {"rental_uris": {"ios": "https://dc.lft.to/lastmile_qr_scan", "android": "https://dc.lft.to/lastmile_qr_scan"}, "type": "electric_scooter", "name": "606bdfd0eb1ee86039a3eba58c7bef08", "is_reserved": 0, "lon": -77.02436683333333, "is_disabled": 0, "fusion_lat": 0.0, "lat": 38.93750216666667, "bike_id": "606bdfd0eb1ee86039a3eba58c7bef08", "fusion_lon": 0.0}, {"rental_uris": {"ios": "https://dc.lft.to/lastmile_qr_scan", "android": "https://dc.lft.to/lastmile_qr_scan"}, "type": "electric_scooter", "name": "4ee0d00014c2f31d7373cc9d8848293a", "is_reserved": 0, "lon": -77.02670616666667, "is_disabled": 0, "fusion_lat": 0.0, "lat": 38.927778833333335, "bike_id": "4ee0d00014c2f31d7373cc9d8848293a", "fusion_lon": 0.0}, {"rental_uris": {"ios": "https://dc.lft.to/lastmile_qr_scan", "android": "https://dc.lft.to/lastmile_qr_scan"}, "type": "electric_scooter", "name": "87a468ec986c4f89b5f4318bffe0bd34", "is_reserved": 0, "lon": -76.9907415, "is_disabled": 0, "fusion_lat": 0.0, "lat": 38.9013805, "bike_id": "87a468ec986c4f89b5f4318bffe0bd34", "fusion_lon": 0.0}, {"rental_uris": {"ios": "https://dc.lft.to/lastmile_qr_scan", "android": "https://dc.lft.to/lastmile_qr_scan"}, "type": "electric_scooter", "name": "fbd9ab58ef3565971ded6df43de231e8", "is_reserved": 0, "lon": -77.01867333333334, "is_disabled": 0, "fusion_lat": 0.0, "lat": 38.930506666666666, "bike_id": "fbd9ab58ef3565971ded6df43de231e8", "fusion_lon": 0.0}, {"rental_uris": {"ios": "https://dc.lft.to/lastmile_qr_scan", "android": "https://dc.lft.to/lastmile_qr_scan"}, "type": "electric_scooter", "name": "f712f0bb1c689b3f509fe16295e30228", "is_reserved": 0, "lon": -77.03836833333334, "is_disabled": 0, "fusion_lat": 0.0, "lat": 38.903856833333336, "bike_id": "f712f0bb1c689b3f509fe16295e30228", "fusion_lon": 0.0}, {"rental_uris": {"ios": "https://dc.lft.to/lastmile_qr_scan", "android": "https://dc.lft.to/lastmile_qr_scan"}, "type": "electric_scooter", "name": "39fb2dbafd012acbd0bfcf24f73539e8", "is_reserved": 0, "lon": -76.9704695, "is_disabled": 0, "fusion_lat": 0.0, "lat": 38.873263333333334, "bike_id": "39fb2dbafd012acbd0bfcf24f73539e8", "fusion_lon": 0.0}, {"rental_uris": {"ios": "https://dc.lft.to/lastmile_qr_scan", "android": "https://dc.lft.to/lastmile_qr_scan"}, "type": "electric_scooter", "name": "a05d64335480583a8ae98e736875bbc6", "is_reserved": 0, "lon": -77.02720466666666, "is_disabled": 0, "fusion_lat": 0.0, "lat": 38.91008683333333, "bike_id": "a05d64335480583a8ae98e736875bbc6", "fusion_lon": 0.0}, {"rental_uris": {"ios": "https://dc.lft.to/lastmile_qr_scan", "android": "https://dc.lft.to/lastmile_qr_scan"}, "type": "electric_bike", "name": "594853da7df5eaa0017ad19c14650349", "is_reserved": 0, "lon": -77.066957, "is_disabled": 0, "fusion_lat": 0.0, "lat": 38.831730666666665, "bike_id": "594853da7df5eaa0017ad19c14650349", "fusion_lon": 0.0}, {"rental_uris": {"ios": "https://dc.lft.to/lastmile_qr_scan", "android": "https://dc.lft.to/lastmile_qr_scan"}, "type": "electric_scooter", "name": "84ae9df0be20d23c2dc72ec1602b57b6", "is_reserved": 0, "lon": -77.02236916666666, "is_disabled": 0, "fusion_lat": 0.0, "lat": 38.92401066666667, "bike_id": "84ae9df0be20d23c2dc72ec1602b57b6", "fusion_lon": 0.0}, {"rental_uris": {"ios": "https://dc.lft.to/lastmile_qr_scan", "android": "https://dc.lft.to/lastmile_qr_scan"}, "type": "electric_scooter", "name": "56f5ae7db738b05dddba1f1eb59e7ba8", "is_reserved": 0, "lon": -77.00819666666666, "is_disabled": 0, "fusion_lat": 0.0, "lat": 38.878571666666666, "bike_id": "56f5ae7db738b05dddba1f1eb59e7ba8", "fusion_lon": 0.0}, {"rental_uris": {"ios": "https://dc.lft.to/lastmile_qr_scan", "android": "https://dc.lft.to/lastmile_qr_scan"}, "type": "electric_scooter", "name": "7230256f4377232c510612b44b2a3a44", "is_reserved": 0, "lon": -77.001161, "is_disabled": 0, "fusion_lat": 0.0, "lat": 38.874847333333335, "bike_id": "7230256f4377232c510612b44b2a3a44", "fusion_lon": 0.0}, {"rental_uris": {"ios": "https://dc.lft.to/lastmile_qr_scan", "android": "https://dc.lft.to/lastmile_qr_scan"}, "type": "electric_scooter", "name": "de1aecd4bbbc58ae7b4d445b1de62815", "is_reserved": 0, "lon": -77.02894316666666, "is_disabled": 0, "fusion_lat": 0.0, "lat": 38.94044533333334, "bike_id": "de1aecd4bbbc58ae7b4d445b1de62815", "fusion_lon": 0.0}, {"rental_uris": {"ios": "https://dc.lft.to/lastmile_qr_scan", "android": "https://dc.lft.to/lastmile_qr_scan"}, "type": "electric_scooter", "name": "d62f6193b836158c03af1ec3994fbb82", "is_reserved": 0, "lon": -77.02276216666667, "is_disabled": 0, "fusion_lat": 0.0, "lat": 38.90960916666667, "bike_id": "d62f6193b836158c03af1ec3994fbb82", "fusion_lon": 0.0}, {"rental_uris": {"ios": "https://dc.lft.to/lastmile_qr_scan", "android": "https://dc.lft.to/lastmile_qr_scan"}, "type": "electric_scooter", "name": "a72495732705e265f78b1cb221a8eda1", "is_reserved": 0, "lon": -76.943814, "is_disabled": 0, "fusion_lat": 0.0, "lat": 38.8912025, "bike_id": "a72495732705e265f78b1cb221a8eda1", "fusion_lon": 0.0}, {"rental_uris": {"ios": "https://dc.lft.to/lastmile_qr_scan", "android": "https://dc.lft.to/lastmile_qr_scan"}, "type": "electric_bike", "name": "c5e1c12092fef632843285a0a99bde06", "is_reserved": 0, "lon": -77.07013483333333, "is_disabled": 0, "fusion_lat": 0.0, "lat": 38.841113166666666, "bike_id": "c5e1c12092fef632843285a0a99bde06", "fusion_lon": 0.0}, {"rental_uris": {"ios": "https://dc.lft.to/lastmile_qr_scan", "android": "https://dc.lft.to/lastmile_qr_scan"}, "type": "electric_scooter", "name": "f950a8650d2f7c327716951f55934559", "is_reserved": 0, "lon": -76.946523, "is_disabled": 0, "fusion_lat": 0.0, "lat": 38.89828116666666, "bike_id": "f950a8650d2f7c327716951f55934559", "fusion_lon": 0.0}, {"rental_uris": {"ios": "https://dc.lft.to/lastmile_qr_scan", "android": "https://dc.lft.to/lastmile_qr_scan"}, "type": "electric_scooter", "name": "4c748391dc6384a904cb65e6ccf23333", "is_reserved": 0, "lon": -77.07328483333333, "is_disabled": 0, "fusion_lat": 0.0, "lat": 38.907812166666666, "bike_id": "4c748391dc6384a904cb65e6ccf23333", "fusion_lon": 0.0}, {"rental_uris": {"ios": "https://dc.lft.to/lastmile_qr_scan", "android": "https://dc.lft.to/lastmile_qr_scan"}, "type": "electric_scooter", "name": "944f7d0716ce17f15c441687a1e1544e", "is_reserved": 0, "lon": -77.04406566666667, "is_disabled": 0, "fusion_lat": 0.0, "lat": 38.929518333333334, "bike_id": "944f7d0716ce17f15c441687a1e1544e", "fusion_lon": 0.0}, {"rental_uris": {"ios": "https://dc.lft.to/lastmile_qr_scan", "android": "https://dc.lft.to/lastmile_qr_scan"}, "type": "electric_scooter", "name": "4e9ebdf2a378e303c0edc9e98d140df4", "is_reserved": 0, "lon": -77.028115, "is_disabled": 0, "fusion_lat": 0.0, "lat": 38.8935275, "bike_id": "4e9ebdf2a378e303c0edc9e98d140df4", "fusion_lon": 0.0}, {"rental_uris": {"ios": "https://dc.lft.to/lastmile_qr_scan", "android": "https://dc.lft.to/lastmile_qr_scan"}, "type": "electric_scooter", "name": "c8e314cbd3eabc05a06cccf650377656", "is_reserved": 0, "lon": -77.0366035, "is_disabled": 0, "fusion_lat": 0.0, "lat": 38.91599183333334, "bike_id": "c8e314cbd3eabc05a06cccf650377656", "fusion_lon": 0.0}, {"rental_uris": {"ios": "https://dc.lft.to/lastmile_qr_scan", "android": "https://dc.lft.to/lastmile_qr_scan"}, "type": "electric_scooter", "name": "03b3493c24df4e18a1286d3d9f611e52", "is_reserved": 0, "lon": -77.04159866666667, "is_disabled": 0, "fusion_lat": 0.0, "lat": 38.89266283333333, "bike_id": "03b3493c24df4e18a1286d3d9f611e52", "fusion_lon": 0.0}, {"rental_uris": {"ios": "https://dc.lft.to/lastmile_qr_scan", "android": "https://dc.lft.to/lastmile_qr_scan"}, "type": "electric_scooter", "name": "4b9e244f4f8fb40b1a9f240f6e6e52be", "is_reserved": 0, "lon": -77.04914883333333, "is_disabled": 0, "fusion_lat": 0.0, "lat": 38.910397833333334, "bike_id": "4b9e244f4f8fb40b1a9f240f6e6e52be", "fusion_lon": 0.0}, {"rental_uris": {"ios": "https://dc.lft.to/lastmile_qr_scan", "android": "https://dc.lft.to/lastmile_qr_scan"}, "type": "electric_scooter", "name": "f7b371ee041d98d291d1ec20897c6eb7", "is_reserved": 0, "lon": -77.0216305, "is_disabled": 0, "fusion_lat": 0.0, "lat": 38.89407583333333, "bike_id": "f7b371ee041d98d291d1ec20897c6eb7", "fusion_lon": 0.0}, {"rental_uris": {"ios": "https://dc.lft.to/lastmile_qr_scan", "android": "https://dc.lft.to/lastmile_qr_scan"}, "type": "electric_scooter", "name": "5cab4ff7ac25d1c8cd17869276fa9c6c", "is_reserved": 0, "lon": -77.00622083333333, "is_disabled": 0, "fusion_lat": 0.0, "lat": 38.905848, "bike_id": "5cab4ff7ac25d1c8cd17869276fa9c6c", "fusion_lon": 0.0}, {"rental_uris": {"ios": "https://dc.lft.to/lastmile_qr_scan", "android": "https://dc.lft.to/lastmile_qr_scan"}, "type": "electric_scooter", "name": "3804e7921759313c3e9bf650774ce7a2", "is_reserved": 0, "lon": -77.01797533333334, "is_disabled": 0, "fusion_lat": 0.0, "lat": 38.91979716666667, "bike_id": "3804e7921759313c3e9bf650774ce7a2", "fusion_lon": 0.0}, {"rental_uris": {"ios": "https://dc.lft.to/lastmile_qr_scan", "android": "https://dc.lft.to/lastmile_qr_scan"}, "type": "electric_scooter", "name": "196b91e4c5a3ca611dda7d9e058cf765", "is_reserved": 0, "lon": -77.045069, "is_disabled": 0, "fusion_lat": 0.0, "lat": 38.892254, "bike_id": "196b91e4c5a3ca611dda7d9e058cf765", "fusion_lon": 0.0}, {"rental_uris": {"ios": "https://dc.lft.to/lastmile_qr_scan", "android": "https://dc.lft.to/lastmile_qr_scan"}, "type": "electric_scooter", "name": "85b9181e52ef8f87027e4191de1a7be3", "is_reserved": 0, "lon": -77.05458316666666, "is_disabled": 0, "fusion_lat": 0.0, "lat": 38.92903166666667, "bike_id": "85b9181e52ef8f87027e4191de1a7be3", "fusion_lon": 0.0}, {"rental_uris": {"ios": "https://dc.lft.to/lastmile_qr_scan", "android": "https://dc.lft.to/lastmile_qr_scan"}, "type": "electric_scooter", "name": "29e137318a47f0196e002053c9634384", "is_reserved": 0, "lon": -77.04239683333333, "is_disabled": 0, "fusion_lat": 0.0, "lat": 38.922844833333336, "bike_id": "29e137318a47f0196e002053c9634384", "fusion_lon": 0.0}, {"rental_uris": {"ios": "https://dc.lft.to/lastmile_qr_scan", "android": "https://dc.lft.to/lastmile_qr_scan"}, "type": "electric_bike", "name": "6aad32ee934b5d28983e17ad61f57aa7", "is_reserved": 0, "lon": -77.12886766666666, "is_disabled": 0, "fusion_lat": 0.0, "lat": 38.9060805, "bike_id": "6aad32ee934b5d28983e17ad61f57aa7", "fusion_lon": 0.0}, {"rental_uris": {"ios": "https://dc.lft.to/lastmile_qr_scan", "android": "https://dc.lft.to/lastmile_qr_scan"}, "type": "electric_scooter", "name": "9a9ddf65ba6d254399646b8516755f9f", "is_reserved": 0, "lon": -77.04005383333333, "is_disabled": 0, "fusion_lat": 0.0, "lat": 38.93426433333333, "bike_id": "9a9ddf65ba6d254399646b8516755f9f", "fusion_lon": 0.0}, {"rental_uris": {"ios": "https://dc.lft.to/lastmile_qr_scan", "android": "https://dc.lft.to/lastmile_qr_scan"}, "type": "electric_scooter", "name": "8fb968c6324c98def4e3cb71ff50f5a1", "is_reserved": 0, "lon": -77.063977, "is_disabled": 0, "fusion_lat": 0.0, "lat": 38.90859, "bike_id": "8fb968c6324c98def4e3cb71ff50f5a1", "fusion_lon": 0.0}, {"rental_uris": {"ios": "https://dc.lft.to/lastmile_qr_scan", "android": "https://dc.lft.to/lastmile_qr_scan"}, "type": "electric_scooter", "name": "5afc41a8d9942db508553ed3f7bcbae8", "is_reserved": 0, "lon": -76.99510916666667, "is_disabled": 0, "fusion_lat": 0.0, "lat": 38.883274666666665, "bike_id": "5afc41a8d9942db508553ed3f7bcbae8", "fusion_lon": 0.0}, {"rental_uris": {"ios": "https://dc.lft.to/lastmile_qr_scan", "android": "https://dc.lft.to/lastmile_qr_scan"}, "type": "electric_scooter", "name": "035d2a2bede8fa1ea9592fe28f3b8dbd", "is_reserved": 0, "lon": -76.99140816666667, "is_disabled": 0, "fusion_lat": 0.0, "lat": 38.87343283333333, "bike_id": "035d2a2bede8fa1ea9592fe28f3b8dbd", "fusion_lon": 0.0}, {"rental_uris": {"ios": "https://dc.lft.to/lastmile_qr_scan", "android": "https://dc.lft.to/lastmile_qr_scan"}, "type": "electric_bike", "name": "02d5da766d42da6fbf0eccb4be864e16", "is_reserved": 0, "lon": -76.96886216666667, "is_disabled": 0, "fusion_lat": 0.0, "lat": 38.86983466666667, "bike_id": "02d5da766d42da6fbf0eccb4be864e16", "fusion_lon": 0.0}, {"rental_uris": {"ios": "https://dc.lft.to/lastmile_qr_scan", "android": "https://dc.lft.to/lastmile_qr_scan"}, "type": "electric_scooter", "name": "d133d7cb1d127a595ec1c362d057ae93", "is_reserved": 0, "lon": -77.04483133333333, "is_disabled": 0, "fusion_lat": 0.0, "lat": 38.910851, "bike_id": "d133d7cb1d127a595ec1c362d057ae93", "fusion_lon": 0.0}, {"rental_uris": {"ios": "https://dc.lft.to/lastmile_qr_scan", "android": "https://dc.lft.to/lastmile_qr_scan"}, "type": "electric_scooter", "name": "c36c00a12e8ca795acdc2219ffc59711", "is_reserved": 0, "lon": -77.03908133333333, "is_disabled": 0, "fusion_lat": 0.0, "lat": 38.9040145, "bike_id": "c36c00a12e8ca795acdc2219ffc59711", "fusion_lon": 0.0}, {"rental_uris": {"ios": "https://dc.lft.to/lastmile_qr_scan", "android": "https://dc.lft.to/lastmile_qr_scan"}, "type": "electric_scooter", "name": "6bb69833ccb6bd007dcad381dec1b8ed", "is_reserved": 0, "lon": -77.07155066666667, "is_disabled": 0, "fusion_lat": 0.0, "lat": 38.90778983333333, "bike_id": "6bb69833ccb6bd007dcad381dec1b8ed", "fusion_lon": 0.0}, {"rental_uris": {"ios": "https://dc.lft.to/lastmile_qr_scan", "android": "https://dc.lft.to/lastmile_qr_scan"}, "type": "electric_scooter", "name": "085411f363bcad3e8fa5e2f48408ed32", "is_reserved": 0, "lon": -77.05317233333334, "is_disabled": 0, "fusion_lat": 0.0, "lat": 38.940956, "bike_id": "085411f363bcad3e8fa5e2f48408ed32", "fusion_lon": 0.0}, {"rental_uris": {"ios": "https://dc.lft.to/lastmile_qr_scan", "android": "https://dc.lft.to/lastmile_qr_scan"}, "type": "electric_scooter", "name": "71c9b9767cea144e6513570bf8fb4c17", "is_reserved": 0, "lon": -77.04130166666667, "is_disabled": 0, "fusion_lat": 0.0, "lat": 38.9253665, "bike_id": "71c9b9767cea144e6513570bf8fb4c17", "fusion_lon": 0.0}, {"rental_uris": {"ios": "https://dc.lft.to/lastmile_qr_scan", "android": "https://dc.lft.to/lastmile_qr_scan"}, "type": "electric_scooter", "name": "df99cb5f3bab0d8e96c193b6124d1c72", "is_reserved": 0, "lon": -77.00606533333334, "is_disabled": 0, "fusion_lat": 0.0, "lat": 38.87569233333333, "bike_id": "df99cb5f3bab0d8e96c193b6124d1c72", "fusion_lon": 0.0}, {"rental_uris": {"ios": "https://dc.lft.to/lastmile_qr_scan", "android": "https://dc.lft.to/lastmile_qr_scan"}, "type": "electric_scooter", "name": "b895f99798971ab915ebfb42e4907946", "is_reserved": 0, "lon": -76.92633066666667, "is_disabled": 0, "fusion_lat": 0.0, "lat": 38.883654666666665, "bike_id": "b895f99798971ab915ebfb42e4907946", "fusion_lon": 0.0}, {"rental_uris": {"ios": "https://dc.lft.to/lastmile_qr_scan", "android": "https://dc.lft.to/lastmile_qr_scan"}, "type": "electric_scooter", "name": "57f7fa8d5030c6927cf6c8fe03cc2415", "is_reserved": 0, "lon": -77.02755533333334, "is_disabled": 0, "fusion_lat": 0.0, "lat": 38.95777833333333, "bike_id": "57f7fa8d5030c6927cf6c8fe03cc2415", "fusion_lon": 0.0}, {"rental_uris": {"ios": "https://dc.lft.to/lastmile_qr_scan", "android": "https://dc.lft.to/lastmile_qr_scan"}, "type": "electric_scooter", "name": "cbb6583968d284a85a6481e35bf84842", "is_reserved": 0, "lon": -76.94873183333333, "is_disabled": 0, "fusion_lat": 0.0, "lat": 38.89486016666667, "bike_id": "cbb6583968d284a85a6481e35bf84842", "fusion_lon": 0.0}, {"rental_uris": {"ios": "https://dc.lft.to/lastmile_qr_scan", "android": "https://dc.lft.to/lastmile_qr_scan"}, "type": "electric_scooter", "name": "1fb5d5f33d6e6fdd6ec3b16f70c6c4c0", "is_reserved": 0, "lon": -76.9854095, "is_disabled": 0, "fusion_lat": 0.0, "lat": 38.90953966666667, "bike_id": "1fb5d5f33d6e6fdd6ec3b16f70c6c4c0", "fusion_lon": 0.0}, {"rental_uris": {"ios": "https://dc.lft.to/lastmile_qr_scan", "android": "https://dc.lft.to/lastmile_qr_scan"}, "type": "electric_scooter", "name": "d33f70e8d535c8680ad2ae72a152abbf", "is_reserved": 0, "lon": -77.015953, "is_disabled": 0, "fusion_lat": 0.0, "lat": 38.902369166666666, "bike_id": "d33f70e8d535c8680ad2ae72a152abbf", "fusion_lon": 0.0}, {"rental_uris": {"ios": "https://dc.lft.to/lastmile_qr_scan", "android": "https://dc.lft.to/lastmile_qr_scan"}, "type": "electric_scooter", "name": "797d9844deec33c25add91211d1e452c", "is_reserved": 0, "lon": -76.98887416666666, "is_disabled": 0, "fusion_lat": 0.0, "lat": 38.89952516666666, "bike_id": "797d9844deec33c25add91211d1e452c", "fusion_lon": 0.0}, {"rental_uris": {"ios": "https://dc.lft.to/lastmile_qr_scan", "android": "https://dc.lft.to/lastmile_qr_scan"}, "type": "electric_scooter", "name": "59ec6e3c2e146f751ac963684716e4d7", "is_reserved": 0, "lon": -77.0316205, "is_disabled": 0, "fusion_lat": 0.0, "lat": 38.918580666666664, "bike_id": "59ec6e3c2e146f751ac963684716e4d7", "fusion_lon": 0.0}, {"rental_uris": {"ios": "https://dc.lft.to/lastmile_qr_scan", "android": "https://dc.lft.to/lastmile_qr_scan"}, "type": "electric_scooter", "name": "8e5325efb1557d3f4a9d36e93d87248e", "is_reserved": 0, "lon": -77.03184083333333, "is_disabled": 0, "fusion_lat": 0.0, "lat": 38.92484783333333, "bike_id": "8e5325efb1557d3f4a9d36e93d87248e", "fusion_lon": 0.0}, {"rental_uris": {"ios": "https://dc.lft.to/lastmile_qr_scan", "android": "https://dc.lft.to/lastmile_qr_scan"}, "type": "electric_scooter", "name": "152304d9a63840c4768f87eab8bf977d", "is_reserved": 0, "lon": -77.04178566666667, "is_disabled": 0, "fusion_lat": 0.0, "lat": 38.9014355, "bike_id": "152304d9a63840c4768f87eab8bf977d", "fusion_lon": 0.0}, {"rental_uris": {"ios": "https://dc.lft.to/lastmile_qr_scan", "android": "https://dc.lft.to/lastmile_qr_scan"}, "type": "electric_scooter", "name": "3c4d268ef9ac7aa86d3f2703ad22536d", "is_reserved": 0, "lon": -77.05272883333333, "is_disabled": 0, "fusion_lat": 0.0, "lat": 38.900818666666666, "bike_id": "3c4d268ef9ac7aa86d3f2703ad22536d", "fusion_lon": 0.0}, {"rental_uris": {"ios": "https://dc.lft.to/lastmile_qr_scan", "android": "https://dc.lft.to/lastmile_qr_scan"}, "type": "electric_scooter", "name": "f4c4db9720a13b4403cc6ec08c29ee9e", "is_reserved": 0, "lon": -76.990994, "is_disabled": 0, "fusion_lat": 0.0, "lat": 38.857347, "bike_id": "f4c4db9720a13b4403cc6ec08c29ee9e", "fusion_lon": 0.0}, {"rental_uris": {"ios": "https://dc.lft.to/lastmile_qr_scan", "android": "https://dc.lft.to/lastmile_qr_scan"}, "type": "electric_scooter", "name": "5f3416aab5907762a949b226d6d24176", "is_reserved": 0, "lon": -77.04409716666666, "is_disabled": 0, "fusion_lat": 0.0, "lat": 38.910903833333336, "bike_id": "5f3416aab5907762a949b226d6d24176", "fusion_lon": 0.0}, {"rental_uris": {"ios": "https://dc.lft.to/lastmile_qr_scan", "android": "https://dc.lft.to/lastmile_qr_scan"}, "type": "electric_scooter", "name": "a99c19b518253ac6462615d70e788733", "is_reserved": 0, "lon": -77.01320483333333, "is_disabled": 0, "fusion_lat": 0.0, "lat": 38.9565435, "bike_id": "a99c19b518253ac6462615d70e788733", "fusion_lon": 0.0}, {"rental_uris": {"ios": "https://dc.lft.to/lastmile_qr_scan", "android": "https://dc.lft.to/lastmile_qr_scan"}, "type": "electric_bike", "name": "495eb1ef2d3deb60e5a29597accfc9c2", "is_reserved": 0, "lon": -77.0217695, "is_disabled": 0, "fusion_lat": 0.0, "lat": 38.880094, "bike_id": "495eb1ef2d3deb60e5a29597accfc9c2", "fusion_lon": 0.0}, {"rental_uris": {"ios": "https://dc.lft.to/lastmile_qr_scan", "android": "https://dc.lft.to/lastmile_qr_scan"}, "type": "electric_scooter", "name": "81ebc578fff125eb66bdeaa0445aed8a", "is_reserved": 0, "lon": -77.04134416666666, "is_disabled": 0, "fusion_lat": 0.0, "lat": 38.93470033333333, "bike_id": "81ebc578fff125eb66bdeaa0445aed8a", "fusion_lon": 0.0}, {"rental_uris": {"ios": "https://dc.lft.to/lastmile_qr_scan", "android": "https://dc.lft.to/lastmile_qr_scan"}, "type": "electric_scooter", "name": "f269b08ed9a7f95e906f76a842faab5b", "is_reserved": 0, "lon": -77.0271195, "is_disabled": 0, "fusion_lat": 0.0, "lat": 38.900428166666664, "bike_id": "f269b08ed9a7f95e906f76a842faab5b", "fusion_lon": 0.0}, {"rental_uris": {"ios": "https://dc.lft.to/lastmile_qr_scan", "android": "https://dc.lft.to/lastmile_qr_scan"}, "type": "electric_scooter", "name": "ba9a7295cc6c870fa5b194d48db33f9e", "is_reserved": 0, "lon": -77.00561583333334, "is_disabled": 0, "fusion_lat": 0.0, "lat": 38.9057625, "bike_id": "ba9a7295cc6c870fa5b194d48db33f9e", "fusion_lon": 0.0}, {"rental_uris": {"ios": "https://dc.lft.to/lastmile_qr_scan", "android": "https://dc.lft.to/lastmile_qr_scan"}, "type": "electric_scooter", "name": "604e6776dd57aa0644ddc41b6341e449", "is_reserved": 0, "lon": -77.02297966666667, "is_disabled": 0, "fusion_lat": 0.0, "lat": 38.96131466666667, "bike_id": "604e6776dd57aa0644ddc41b6341e449", "fusion_lon": 0.0}, {"rental_uris": {"ios": "https://dc.lft.to/lastmile_qr_scan", "android": "https://dc.lft.to/lastmile_qr_scan"}, "type": "electric_scooter", "name": "f2c28ad071652842098d6f50e2452638", "is_reserved": 0, "lon": -77.00602133333334, "is_disabled": 0, "fusion_lat": 0.0, "lat": 38.87571366666667, "bike_id": "f2c28ad071652842098d6f50e2452638", "fusion_lon": 0.0}, {"rental_uris": {"ios": "https://dc.lft.to/lastmile_qr_scan", "android": "https://dc.lft.to/lastmile_qr_scan"}, "type": "electric_scooter", "name": "b7b55f2d0c3feabb2f7a831ac94582b4", "is_reserved": 0, "lon": -77.03371316666667, "is_disabled": 0, "fusion_lat": 0.0, "lat": 38.910487833333335, "bike_id": "b7b55f2d0c3feabb2f7a831ac94582b4", "fusion_lon": 0.0}, {"rental_uris": {"ios": "https://dc.lft.to/lastmile_qr_scan", "android": "https://dc.lft.to/lastmile_qr_scan"}, "type": "electric_bike", "name": "b769adb6287135c07e52fa8bf1917882", "is_reserved": 0, "lon": -77.00209866666667, "is_disabled": 0, "fusion_lat": 0.0, "lat": 38.988519833333335, "bike_id": "b769adb6287135c07e52fa8bf1917882", "fusion_lon": 0.0}, {"rental_uris": {"ios": "https://dc.lft.to/lastmile_qr_scan", "android": "https://dc.lft.to/lastmile_qr_scan"}, "type": "electric_scooter", "name": "d8d55410769f5f79f978e4debf0e1471", "is_reserved": 0, "lon": -77.02719983333333, "is_disabled": 0, "fusion_lat": 0.0, "lat": 38.905644333333335, "bike_id": "d8d55410769f5f79f978e4debf0e1471", "fusion_lon": 0.0}, {"rental_uris": {"ios": "https://dc.lft.to/lastmile_qr_scan", "android": "https://dc.lft.to/lastmile_qr_scan"}, "type": "electric_scooter", "name": "bc53a239afaa7b50952719342b5e24d4", "is_reserved": 0, "lon": -77.022849, "is_disabled": 0, "fusion_lat": 0.0, "lat": 38.9079245, "bike_id": "bc53a239afaa7b50952719342b5e24d4", "fusion_lon": 0.0}, {"rental_uris": {"ios": "https://dc.lft.to/lastmile_qr_scan", "android": "https://dc.lft.to/lastmile_qr_scan"}, "type": "electric_scooter", "name": "2f31978a7da67e329c5add2eaf4b0812", "is_reserved": 0, "lon": -77.04057466666667, "is_disabled": 0, "fusion_lat": 0.0, "lat": 38.89639366666667, "bike_id": "2f31978a7da67e329c5add2eaf4b0812", "fusion_lon": 0.0}, {"rental_uris": {"ios": "https://dc.lft.to/lastmile_qr_scan", "android": "https://dc.lft.to/lastmile_qr_scan"}, "type": "electric_scooter", "name": "5c7c2697ea01298d7d65c628c70f081d", "is_reserved": 0, "lon": -77.007531, "is_disabled": 0, "fusion_lat": 0.0, "lat": 38.903395833333335, "bike_id": "5c7c2697ea01298d7d65c628c70f081d", "fusion_lon": 0.0}, {"rental_uris": {"ios": "https://dc.lft.to/lastmile_qr_scan", "android": "https://dc.lft.to/lastmile_qr_scan"}, "type": "electric_scooter", "name": "b1b8072d7135053d30a032a8d0879654", "is_reserved": 0, "lon": -77.0317025, "is_disabled": 0, "fusion_lat": 0.0, "lat": 38.920911333333336, "bike_id": "b1b8072d7135053d30a032a8d0879654", "fusion_lon": 0.0}, {"rental_uris": {"ios": "https://dc.lft.to/lastmile_qr_scan", "android": "https://dc.lft.to/lastmile_qr_scan"}, "type": "electric_scooter", "name": "dbbe9a16c4d3ec5a255d32913c4c879d", "is_reserved": 0, "lon": -77.0513315, "is_disabled": 0, "fusion_lat": 0.0, "lat": 38.923634166666666, "bike_id": "dbbe9a16c4d3ec5a255d32913c4c879d", "fusion_lon": 0.0}, {"rental_uris": {"ios": "https://dc.lft.to/lastmile_qr_scan", "android": "https://dc.lft.to/lastmile_qr_scan"}, "type": "electric_scooter", "name": "09838f5cbcebac89b2aa25cc74e1fbd8", "is_reserved": 0, "lon": -77.01957483333334, "is_disabled": 0, "fusion_lat": 0.0, "lat": 38.922556, "bike_id": "09838f5cbcebac89b2aa25cc74e1fbd8", "fusion_lon": 0.0}, {"rental_uris": {"ios": "https://dc.lft.to/lastmile_qr_scan", "android": "https://dc.lft.to/lastmile_qr_scan"}, "type": "electric_scooter", "name": "c542463ba396ad5a5dff277c3fd9091b", "is_reserved": 0, "lon": -77.00591116666666, "is_disabled": 0, "fusion_lat": 0.0, "lat": 38.905617166666666, "bike_id": "c542463ba396ad5a5dff277c3fd9091b", "fusion_lon": 0.0}, {"rental_uris": {"ios": "https://dc.lft.to/lastmile_qr_scan", "android": "https://dc.lft.to/lastmile_qr_scan"}, "type": "electric_scooter", "name": "14a390459fd3ee0d9ea3445b4679e1d0", "is_reserved": 0, "lon": -77.02695716666666, "is_disabled": 0, "fusion_lat": 0.0, "lat": 38.9114645, "bike_id": "14a390459fd3ee0d9ea3445b4679e1d0", "fusion_lon": 0.0}, {"rental_uris": {"ios": "https://dc.lft.to/lastmile_qr_scan", "android": "https://dc.lft.to/lastmile_qr_scan"}, "type": "electric_scooter", "name": "e368d506fceb4d2abd55571ccda369c9", "is_reserved": 0, "lon": -77.03058516666667, "is_disabled": 0, "fusion_lat": 0.0, "lat": 38.9096735, "bike_id": "e368d506fceb4d2abd55571ccda369c9", "fusion_lon": 0.0}, {"rental_uris": {"ios": "https://dc.lft.to/lastmile_qr_scan", "android": "https://dc.lft.to/lastmile_qr_scan"}, "type": "electric_scooter", "name": "2e5c8f6a705adb42f1366584fa4b19d8", "is_reserved": 0, "lon": -77.021397, "is_disabled": 0, "fusion_lat": 0.0, "lat": 38.913402833333336, "bike_id": "2e5c8f6a705adb42f1366584fa4b19d8", "fusion_lon": 0.0}, {"rental_uris": {"ios": "https://dc.lft.to/lastmile_qr_scan", "android": "https://dc.lft.to/lastmile_qr_scan"}, "type": "electric_scooter", "name": "596252d7b71af6eca0e2f244007bbe60", "is_reserved": 0, "lon": -77.03448466666667, "is_disabled": 0, "fusion_lat": 0.0, "lat": 38.908183, "bike_id": "596252d7b71af6eca0e2f244007bbe60", "fusion_lon": 0.0}, {"rental_uris": {"ios": "https://dc.lft.to/lastmile_qr_scan", "android": "https://dc.lft.to/lastmile_qr_scan"}, "type": "electric_scooter", "name": "705271d095b5c10916f0949917539e74", "is_reserved": 0, "lon": -77.048331, "is_disabled": 0, "fusion_lat": 0.0, "lat": 38.9126855, "bike_id": "705271d095b5c10916f0949917539e74", "fusion_lon": 0.0}, {"rental_uris": {"ios": "https://dc.lft.to/lastmile_qr_scan", "android": "https://dc.lft.to/lastmile_qr_scan"}, "type": "electric_scooter", "name": "e229523c14deba5c9ae2616ecace98c6", "is_reserved": 0, "lon": -77.04479033333334, "is_disabled": 0, "fusion_lat": 0.0, "lat": 38.91235233333333, "bike_id": "e229523c14deba5c9ae2616ecace98c6", "fusion_lon": 0.0}, {"rental_uris": {"ios": "https://dc.lft.to/lastmile_qr_scan", "android": "https://dc.lft.to/lastmile_qr_scan"}, "type": "electric_scooter", "name": "a712c915c1860cf519d1542ca336b514", "is_reserved": 0, "lon": -76.99158216666666, "is_disabled": 0, "fusion_lat": 0.0, "lat": 38.9003835, "bike_id": "a712c915c1860cf519d1542ca336b514", "fusion_lon": 0.0}, {"rental_uris": {"ios": "https://dc.lft.to/lastmile_qr_scan", "android": "https://dc.lft.to/lastmile_qr_scan"}, "type": "electric_scooter", "name": "de2fc7cad383702ce6d53f67531d5553", "is_reserved": 0, "lon": -77.0372405, "is_disabled": 0, "fusion_lat": 0.0, "lat": 38.9283065, "bike_id": "de2fc7cad383702ce6d53f67531d5553", "fusion_lon": 0.0}, {"rental_uris": {"ios": "https://dc.lft.to/lastmile_qr_scan", "android": "https://dc.lft.to/lastmile_qr_scan"}, "type": "electric_scooter", "name": "4cfdd03f8cb2395370ee0613b281011b", "is_reserved": 0, "lon": -77.02012916666666, "is_disabled": 0, "fusion_lat": 0.0, "lat": 38.89820683333333, "bike_id": "4cfdd03f8cb2395370ee0613b281011b", "fusion_lon": 0.0}, {"rental_uris": {"ios": "https://dc.lft.to/lastmile_qr_scan", "android": "https://dc.lft.to/lastmile_qr_scan"}, "type": "electric_scooter", "name": "a2500fe2f8638c5bb1f3a94437d18dfa", "is_reserved": 0, "lon": -77.03290466666667, "is_disabled": 0, "fusion_lat": 0.0, "lat": 38.92457533333334, "bike_id": "a2500fe2f8638c5bb1f3a94437d18dfa", "fusion_lon": 0.0}, {"rental_uris": {"ios": "https://dc.lft.to/lastmile_qr_scan", "android": "https://dc.lft.to/lastmile_qr_scan"}, "type": "electric_scooter", "name": "22f8942876502ba410fe0e09ff77a021", "is_reserved": 0, "lon": -77.03176033333334, "is_disabled": 0, "fusion_lat": 0.0, "lat": 38.929089833333336, "bike_id": "22f8942876502ba410fe0e09ff77a021", "fusion_lon": 0.0}, {"rental_uris": {"ios": "https://dc.lft.to/lastmile_qr_scan", "android": "https://dc.lft.to/lastmile_qr_scan"}, "type": "electric_scooter", "name": "835ac517cb82d6deb349ff783a8126af", "is_reserved": 0, "lon": -77.056001, "is_disabled": 0, "fusion_lat": 0.0, "lat": 38.894247666666665, "bike_id": "835ac517cb82d6deb349ff783a8126af", "fusion_lon": 0.0}, {"rental_uris": {"ios": "https://dc.lft.to/lastmile_qr_scan", "android": "https://dc.lft.to/lastmile_qr_scan"}, "type": "electric_scooter", "name": "ab458fe656bb9c121299b44bc9306f48", "is_reserved": 0, "lon": -77.03638316666667, "is_disabled": 0, "fusion_lat": 0.0, "lat": 38.918553, "bike_id": "ab458fe656bb9c121299b44bc9306f48", "fusion_lon": 0.0}, {"rental_uris": {"ios": "https://dc.lft.to/lastmile_qr_scan", "android": "https://dc.lft.to/lastmile_qr_scan"}, "type": "electric_scooter", "name": "8c8613b41008b076334fdf1ef2e4ee15", "is_reserved": 0, "lon": -77.03375166666666, "is_disabled": 0, "fusion_lat": 0.0, "lat": 38.930677833333334, "bike_id": "8c8613b41008b076334fdf1ef2e4ee15", "fusion_lon": 0.0}, {"rental_uris": {"ios": "https://dc.lft.to/lastmile_qr_scan", "android": "https://dc.lft.to/lastmile_qr_scan"}, "type": "electric_scooter", "name": "5748f0e436b37966ee596936e70877fc", "is_reserved": 0, "lon": -77.01792216666666, "is_disabled": 0, "fusion_lat": 0.0, "lat": 38.921274333333336, "bike_id": "5748f0e436b37966ee596936e70877fc", "fusion_lon": 0.0}, {"rental_uris": {"ios": "https://dc.lft.to/lastmile_qr_scan", "android": "https://dc.lft.to/lastmile_qr_scan"}, "type": "electric_scooter", "name": "d2172525c1bec2a74e804a7a3e2e41c9", "is_reserved": 0, "lon": -77.0005585, "is_disabled": 0, "fusion_lat": 0.0, "lat": 38.87378533333333, "bike_id": "d2172525c1bec2a74e804a7a3e2e41c9", "fusion_lon": 0.0}, {"rental_uris": {"ios": "https://dc.lft.to/lastmile_qr_scan", "android": "https://dc.lft.to/lastmile_qr_scan"}, "type": "electric_scooter", "name": "b2204c7915680eb3280cc2a630dac029", "is_reserved": 0, "lon": -77.02412916666667, "is_disabled": 0, "fusion_lat": 0.0, "lat": 38.9381735, "bike_id": "b2204c7915680eb3280cc2a630dac029", "fusion_lon": 0.0}, {"rental_uris": {"ios": "https://dc.lft.to/lastmile_qr_scan", "android": "https://dc.lft.to/lastmile_qr_scan"}, "type": "electric_scooter", "name": "4a016df1178abd0614f4df24e799f848", "is_reserved": 0, "lon": -77.00561683333333, "is_disabled": 0, "fusion_lat": 0.0, "lat": 38.90234483333333, "bike_id": "4a016df1178abd0614f4df24e799f848", "fusion_lon": 0.0}, {"rental_uris": {"ios": "https://dc.lft.to/lastmile_qr_scan", "android": "https://dc.lft.to/lastmile_qr_scan"}, "type": "electric_scooter", "name": "2cb424b47a9c8ebbcbf25f4a486e0a99", "is_reserved": 0, "lon": -76.98356683333333, "is_disabled": 0, "fusion_lat": 0.0, "lat": 38.88737233333333, "bike_id": "2cb424b47a9c8ebbcbf25f4a486e0a99", "fusion_lon": 0.0}, {"rental_uris": {"ios": "https://dc.lft.to/lastmile_qr_scan", "android": "https://dc.lft.to/lastmile_qr_scan"}, "type": "electric_scooter", "name": "150d56a3992cf1ff3739c450b48a5b72", "is_reserved": 0, "lon": -77.02574283333334, "is_disabled": 0, "fusion_lat": 0.0, "lat": 38.880872833333335, "bike_id": "150d56a3992cf1ff3739c450b48a5b72", "fusion_lon": 0.0}, {"rental_uris": {"ios": "https://dc.lft.to/lastmile_qr_scan", "android": "https://dc.lft.to/lastmile_qr_scan"}, "type": "electric_scooter", "name": "cef0675aff1e351220dfd0fe32448455", "is_reserved": 0, "lon": -76.9986955, "is_disabled": 0, "fusion_lat": 0.0, "lat": 38.90030566666667, "bike_id": "cef0675aff1e351220dfd0fe32448455", "fusion_lon": 0.0}, {"rental_uris": {"ios": "https://dc.lft.to/lastmile_qr_scan", "android": "https://dc.lft.to/lastmile_qr_scan"}, "type": "electric_scooter", "name": "0f597b47d148ede98307adb4922cf069", "is_reserved": 0, "lon": -77.02967016666666, "is_disabled": 0, "fusion_lat": 0.0, "lat": 38.91682316666667, "bike_id": "0f597b47d148ede98307adb4922cf069", "fusion_lon": 0.0}, {"rental_uris": {"ios": "https://dc.lft.to/lastmile_qr_scan", "android": "https://dc.lft.to/lastmile_qr_scan"}, "type": "electric_scooter", "name": "cdd8514678e1d4f8eadff4173890e07e", "is_reserved": 0, "lon": -77.031436, "is_disabled": 0, "fusion_lat": 0.0, "lat": 38.912697333333334, "bike_id": "cdd8514678e1d4f8eadff4173890e07e", "fusion_lon": 0.0}, {"rental_uris": {"ios": "https://dc.lft.to/lastmile_qr_scan", "android": "https://dc.lft.to/lastmile_qr_scan"}, "type": "electric_scooter", "name": "a5cd3042736ee046687b63149e16077f", "is_reserved": 0, "lon": -77.041722, "is_disabled": 0, "fusion_lat": 0.0, "lat": 38.915936, "bike_id": "a5cd3042736ee046687b63149e16077f", "fusion_lon": 0.0}, {"rental_uris": {"ios": "https://dc.lft.to/lastmile_qr_scan", "android": "https://dc.lft.to/lastmile_qr_scan"}, "type": "electric_scooter", "name": "72fe752fbcdc75f8fc196e90f3d75ece", "is_reserved": 0, "lon": -77.0207655, "is_disabled": 0, "fusion_lat": 0.0, "lat": 38.927063, "bike_id": "72fe752fbcdc75f8fc196e90f3d75ece", "fusion_lon": 0.0}, {"rental_uris": {"ios": "https://dc.lft.to/lastmile_qr_scan", "android": "https://dc.lft.to/lastmile_qr_scan"}, "type": "electric_scooter", "name": "831552cda8b2ee3af9b2f3955f41c04d", "is_reserved": 0, "lon": -76.96547716666667, "is_disabled": 0, "fusion_lat": 0.0, "lat": 38.878903, "bike_id": "831552cda8b2ee3af9b2f3955f41c04d", "fusion_lon": 0.0}, {"rental_uris": {"ios": "https://dc.lft.to/lastmile_qr_scan", "android": "https://dc.lft.to/lastmile_qr_scan"}, "type": "electric_scooter", "name": "f5adb2355504e28e092ff3923449b5f6", "is_reserved": 0, "lon": -77.046567, "is_disabled": 0, "fusion_lat": 0.0, "lat": 38.910460666666665, "bike_id": "f5adb2355504e28e092ff3923449b5f6", "fusion_lon": 0.0}, {"rental_uris": {"ios": "https://dc.lft.to/lastmile_qr_scan", "android": "https://dc.lft.to/lastmile_qr_scan"}, "type": "electric_scooter", "name": "0c3b2bb7f8c2f8e6f12c37106636ab62", "is_reserved": 0, "lon": -77.024762, "is_disabled": 0, "fusion_lat": 0.0, "lat": 38.91905216666667, "bike_id": "0c3b2bb7f8c2f8e6f12c37106636ab62", "fusion_lon": 0.0}, {"rental_uris": {"ios": "https://dc.lft.to/lastmile_qr_scan", "android": "https://dc.lft.to/lastmile_qr_scan"}, "type": "electric_bike", "name": "10aba7be84a772ad6ed42a246af6eeac", "is_reserved": 0, "lon": -77.08367883333334, "is_disabled": 0, "fusion_lat": 0.0, "lat": 38.854135, "bike_id": "10aba7be84a772ad6ed42a246af6eeac", "fusion_lon": 0.0}, {"rental_uris": {"ios": "https://dc.lft.to/lastmile_qr_scan", "android": "https://dc.lft.to/lastmile_qr_scan"}, "type": "electric_scooter", "name": "ffa63eeba8ca8b3a9edb29e04a3dcbce", "is_reserved": 0, "lon": -77.0340855, "is_disabled": 0, "fusion_lat": 0.0, "lat": 38.93553766666667, "bike_id": "ffa63eeba8ca8b3a9edb29e04a3dcbce", "fusion_lon": 0.0}, {"rental_uris": {"ios": "https://dc.lft.to/lastmile_qr_scan", "android": "https://dc.lft.to/lastmile_qr_scan"}, "type": "electric_scooter", "name": "e95b9bbcd6d187650f390ae0d735dfa9", "is_reserved": 0, "lon": -76.99743283333333, "is_disabled": 0, "fusion_lat": 0.0, "lat": 38.9204065, "bike_id": "e95b9bbcd6d187650f390ae0d735dfa9", "fusion_lon": 0.0}, {"rental_uris": {"ios": "https://dc.lft.to/lastmile_qr_scan", "android": "https://dc.lft.to/lastmile_qr_scan"}, "type": "electric_scooter", "name": "deaa11857b50fbf78198c4b331ba4ddb", "is_reserved": 0, "lon": -77.0208855, "is_disabled": 0, "fusion_lat": 0.0, "lat": 38.91418183333333, "bike_id": "deaa11857b50fbf78198c4b331ba4ddb", "fusion_lon": 0.0}, {"rental_uris": {"ios": "https://dc.lft.to/lastmile_qr_scan", "android": "https://dc.lft.to/lastmile_qr_scan"}, "type": "electric_scooter", "name": "196b34cb46044880b8a44b96522a96b4", "is_reserved": 0, "lon": -77.031781, "is_disabled": 0, "fusion_lat": 0.0, "lat": 38.91671933333333, "bike_id": "196b34cb46044880b8a44b96522a96b4", "fusion_lon": 0.0}, {"rental_uris": {"ios": "https://dc.lft.to/lastmile_qr_scan", "android": "https://dc.lft.to/lastmile_qr_scan"}, "type": "electric_scooter", "name": "ece6f95a162e5e19a69acc53a1c240d4", "is_reserved": 0, "lon": -77.03458566666667, "is_disabled": 0, "fusion_lat": 0.0, "lat": 38.907217, "bike_id": "ece6f95a162e5e19a69acc53a1c240d4", "fusion_lon": 0.0}, {"rental_uris": {"ios": "https://dc.lft.to/lastmile_qr_scan", "android": "https://dc.lft.to/lastmile_qr_scan"}, "type": "electric_bike", "name": "7b60305728dd08063882573e93cfaebd", "is_reserved": 0, "lon": -76.97699233333333, "is_disabled": 0, "fusion_lat": 0.0, "lat": 38.822097666666664, "bike_id": "7b60305728dd08063882573e93cfaebd", "fusion_lon": 0.0}, {"rental_uris": {"ios": "https://dc.lft.to/lastmile_qr_scan", "android": "https://dc.lft.to/lastmile_qr_scan"}, "type": "electric_scooter", "name": "8ea317a4574bbb43b98edefdede18df0", "is_reserved": 0, "lon": -77.02440416666667, "is_disabled": 0, "fusion_lat": 0.0, "lat": 38.902249833333336, "bike_id": "8ea317a4574bbb43b98edefdede18df0", "fusion_lon": 0.0}, {"rental_uris": {"ios": "https://dc.lft.to/lastmile_qr_scan", "android": "https://dc.lft.to/lastmile_qr_scan"}, "type": "electric_scooter", "name": "673c09a033b6163be3ae1de47200ec60", "is_reserved": 0, "lon": -77.0579965, "is_disabled": 0, "fusion_lat": 0.0, "lat": 38.905113, "bike_id": "673c09a033b6163be3ae1de47200ec60", "fusion_lon": 0.0}, {"rental_uris": {"ios": "https://dc.lft.to/lastmile_qr_scan", "android": "https://dc.lft.to/lastmile_qr_scan"},