{"data": {"bikes": [{"fusion_lat": 0.0, "name": "c6601c5c3e2311bf5f8da085c7ff2cc3", "is_disabled": 0, "rental_uris": {"android": "https://dc.lft.to/lastmile_qr_scan", "ios": "https://dc.lft.to/lastmile_qr_scan"}, "fusion_lon": 0.0, "lat": 38.923456, "bike_id": "c6601c5c3e2311bf5f8da085c7ff2cc3", "type": "electric_scooter", "is_reserved": 0, "lon": -77.033966}, {"fusion_lat": 0.0, "name": "1d0b126a90465b16553f4c4eeb60eab3", "is_disabled": 0, "rental_uris": {"android": "https://dc.lft.to/lastmile_qr_scan", "ios": "https://dc.lft.to/lastmile_qr_scan"}, "fusion_lon": 0.0, "lat": 38.905315333333334, "bike_id": "1d0b126a90465b16553f4c4eeb60eab3", "type": "electric_scooter", "is_reserved": 0, "lon": -77.06139966666667}, {"fusion_lat": 0.0, "name": "324342358ec770649884331ecc642d84", "is_disabled": 0, "rental_uris": {"android": "https://dc.lft.to/lastmile_qr_scan", "ios": "https://dc.lft.to/lastmile_qr_scan"}, "fusion_lon": 0.0, "lat": 38.9139805, "bike_id": "324342358ec770649884331ecc642d84", "type": "electric_scooter", "is_reserved": 0, "lon": -77.0317545}, {"fusion_lat": 0.0, "name": "15ff1a6e4f8b29208986a4a5c853d8c1", "is_disabled": 0, "rental_uris": {"android": "https://dc.lft.to/lastmile_qr_scan", "ios": "https://dc.lft.to/lastmile_qr_scan"}, "fusion_lon": 0.0, "lat": 38.920554, "bike_id": "15ff1a6e4f8b29208986a4a5c853d8c1", "type": "electric_scooter", "is_reserved": 0, "lon": -77.03180666666667}, {"fusion_lat": 0.0, "name": "125f0270ed25bdda4f3910c2abde87c9", "is_disabled": 0, "rental_uris": {"android": "https://dc.lft.to/lastmile_qr_scan", "ios": "https://dc.lft.to/lastmile_qr_scan"}, "fusion_lon": 0.0, "lat": 38.90409233333333, "bike_id": "125f0270ed25bdda4f3910c2abde87c9", "type": "electric_scooter", "is_reserved": 0, "lon": -76.97335433333333}, {"fusion_lat": 0.0, "name": "02b35d0e0d7a7c61224e2a07ce2d5ebe", "is_disabled": 0, "rental_uris": {"android": "https://dc.lft.to/lastmile_qr_scan", "ios": "https://dc.lft.to/lastmile_qr_scan"}, "fusion_lon": 0.0, "lat": 38.941245333333335, "bike_id": "02b35d0e0d7a7c61224e2a07ce2d5ebe", "type": "electric_scooter", "is_reserved": 0, "lon": -77.02641183333333}, {"fusion_lat": 0.0, "name": "fce942332dfa6032eb3d1cb9cf4f468d", "is_disabled": 0, "rental_uris": {"android": "https://dc.lft.to/lastmile_qr_scan", "ios": "https://dc.lft.to/lastmile_qr_scan"}, "fusion_lon": 0.0, "lat": 38.99775533333333, "bike_id": "fce942332dfa6032eb3d1cb9cf4f468d", "type": "electric_bike", "is_reserved": 0, "lon": -77.04720366666666}, {"fusion_lat": 0.0, "name": "5f18bf21ea3181f19d5a1ecc524e3c76", "is_disabled": 0, "rental_uris": {"android": "https://dc.lft.to/lastmile_qr_scan", "ios": "https://dc.lft.to/lastmile_qr_scan"}, "fusion_lon": 0.0, "lat": 38.896196333333336, "bike_id": "5f18bf21ea3181f19d5a1ecc524e3c76", "type": "electric_scooter", "is_reserved": 0, "lon": -76.9941465}, {"fusion_lat": 0.0, "name": "b94a2b1c8bddcab5fe07989b8448410b", "is_disabled": 0, "rental_uris": {"android": "https://dc.lft.to/lastmile_qr_scan", "ios": "https://dc.lft.to/lastmile_qr_scan"}, "fusion_lon": 0.0, "lat": 38.898666666666664, "bike_id": "b94a2b1c8bddcab5fe07989b8448410b", "type": "electric_scooter", "is_reserved": 0, "lon": -77.03946116666667}, {"fusion_lat": 0.0, "name": "7059369a8d7aa11fd741a3068494be75", "is_disabled": 0, "rental_uris": {"android": "https://dc.lft.to/lastmile_qr_scan", "ios": "https://dc.lft.to/lastmile_qr_scan"}, "fusion_lon": 0.0, "lat": 38.88230883333333, "bike_id": "7059369a8d7aa11fd741a3068494be75", "type": "electric_scooter", "is_reserved": 0, "lon": -77.02618383333333}, {"fusion_lat": 0.0, "name": "390341ea0a6ce2803d17f30b32d97d39", "is_disabled": 0, "rental_uris": {"android": "https://dc.lft.to/lastmile_qr_scan", "ios": "https://dc.lft.to/lastmile_qr_scan"}, "fusion_lon": 0.0, "lat": 38.884855333333334, "bike_id": "390341ea0a6ce2803d17f30b32d97d39", "type": "electric_scooter", "is_reserved": 0, "lon": -77.00713016666667}, {"fusion_lat": 0.0, "name": "5ef6eaa70a43fd06e89daba783ae37b0", "is_disabled": 0, "rental_uris": {"android": "https://dc.lft.to/lastmile_qr_scan", "ios": "https://dc.lft.to/lastmile_qr_scan"}, "fusion_lon": 0.0, "lat": 38.92681116666667, "bike_id": "5ef6eaa70a43fd06e89daba783ae37b0", "type": "electric_scooter", "is_reserved": 0, "lon": -77.02276283333333}, {"fusion_lat": 0.0, "name": "1dfbc2776d1759b3659bb329c0a48628", "is_disabled": 0, "rental_uris": {"android": "https://dc.lft.to/lastmile_qr_scan", "ios": "https://dc.lft.to/lastmile_qr_scan"}, "fusion_lon": 0.0, "lat": 38.89993883333333, "bike_id": "1dfbc2776d1759b3659bb329c0a48628", "type": "electric_scooter", "is_reserved": 0, "lon": -76.9901395}, {"fusion_lat": 0.0, "name": "d09b13b49f127bc514e1f302fee562ce", "is_disabled": 0, "rental_uris": {"android": "https://dc.lft.to/lastmile_qr_scan", "ios": "https://dc.lft.to/lastmile_qr_scan"}, "fusion_lon": 0.0, "lat": 38.901455, "bike_id": "d09b13b49f127bc514e1f302fee562ce", "type": "electric_scooter", "is_reserved": 0, "lon": -77.0229615}, {"fusion_lat": 0.0, "name": "c09e843ee89b3eb08b19d1596afb0955", "is_disabled": 0, "rental_uris": {"android": "https://dc.lft.to/lastmile_qr_scan", "ios": "https://dc.lft.to/lastmile_qr_scan"}, "fusion_lon": 0.0, "lat": 38.96483666666666, "bike_id": "c09e843ee89b3eb08b19d1596afb0955", "type": "electric_bike", "is_reserved": 0, "lon": -77.0220645}, {"fusion_lat": 0.0, "name": "849f9150758efc8d0131282f57631067", "is_disabled": 0, "rental_uris": {"android": "https://dc.lft.to/lastmile_qr_scan", "ios": "https://dc.lft.to/lastmile_qr_scan"}, "fusion_lon": 0.0, "lat": 38.92763816666667, "bike_id": "849f9150758efc8d0131282f57631067", "type": "electric_scooter", "is_reserved": 0, "lon": -77.0278145}, {"fusion_lat": 0.0, "name": "843975fd711ba6b959d4d8da599c45ce", "is_disabled": 0, "rental_uris": {"android": "https://dc.lft.to/lastmile_qr_scan", "ios": "https://dc.lft.to/lastmile_qr_scan"}, "fusion_lon": 0.0, "lat": 38.898737, "bike_id": "843975fd711ba6b959d4d8da599c45ce", "type": "electric_scooter", "is_reserved": 0, "lon": -76.93185033333333}, {"fusion_lat": 0.0, "name": "dc61e7496e13d3a97debb675b687597f", "is_disabled": 0, "rental_uris": {"android": "https://dc.lft.to/lastmile_qr_scan", "ios": "https://dc.lft.to/lastmile_qr_scan"}, "fusion_lon": 0.0, "lat": 38.924221833333334, "bike_id": "dc61e7496e13d3a97debb675b687597f", "type": "electric_scooter", "is_reserved": 0, "lon": -77.02717316666667}, {"fusion_lat": 0.0, "name": "b4b574fc0d6be3396f16d58f3f72834e", "is_disabled": 0, "rental_uris": {"android": "https://dc.lft.to/lastmile_qr_scan", "ios": "https://dc.lft.to/lastmile_qr_scan"}, "fusion_lon": 0.0, "lat": 38.918781833333334, "bike_id": "b4b574fc0d6be3396f16d58f3f72834e", "type": "electric_scooter", "is_reserved": 0, "lon": -77.02299766666667}, {"fusion_lat": 0.0, "name": "48f33a5f1635c6783fccbc38a51a9b6e", "is_disabled": 0, "rental_uris": {"android": "https://dc.lft.to/lastmile_qr_scan", "ios": "https://dc.lft.to/lastmile_qr_scan"}, "fusion_lon": 0.0, "lat": 38.92433833333333, "bike_id": "48f33a5f1635c6783fccbc38a51a9b6e", "type": "electric_scooter", "is_reserved": 0, "lon": -77.020225}, {"fusion_lat": 0.0, "name": "200768f042bf76f96db1aa9a7242c719", "is_disabled": 0, "rental_uris": {"android": "https://dc.lft.to/lastmile_qr_scan", "ios": "https://dc.lft.to/lastmile_qr_scan"}, "fusion_lon": 0.0, "lat": 38.878139166666664, "bike_id": "200768f042bf76f96db1aa9a7242c719", "type": "electric_scooter", "is_reserved": 0, "lon": -77.0132555}, {"fusion_lat": 0.0, "name": "09908536995b24fbef5c634d64d4288f", "is_disabled": 0, "rental_uris": {"android": "https://dc.lft.to/lastmile_qr_scan", "ios": "https://dc.lft.to/lastmile_qr_scan"}, "fusion_lon": 0.0, "lat": 38.876962, "bike_id": "09908536995b24fbef5c634d64d4288f", "type": "electric_scooter", "is_reserved": 0, "lon": -77.00737866666667}, {"fusion_lat": 0.0, "name": "5fd9717def3ddc15b25a23644f37d621", "is_disabled": 0, "rental_uris": {"android": "https://dc.lft.to/lastmile_qr_scan", "ios": "https://dc.lft.to/lastmile_qr_scan"}, "fusion_lon": 0.0, "lat": 38.899094, "bike_id": "5fd9717def3ddc15b25a23644f37d621", "type": "electric_scooter", "is_reserved": 0, "lon": -76.94588066666667}, {"fusion_lat": 0.0, "name": "bb188a45dd03003fe7478600a650dc9f", "is_disabled": 0, "rental_uris": {"android": "https://dc.lft.to/lastmile_qr_scan", "ios": "https://dc.lft.to/lastmile_qr_scan"}, "fusion_lon": 0.0, "lat": 38.93903533333334, "bike_id": "bb188a45dd03003fe7478600a650dc9f", "type": "electric_scooter", "is_reserved": 0, "lon": -77.0780295}, {"fusion_lat": 0.0, "name": "96f572b5837bc751f4b50e8414e5a32a", "is_disabled": 0, "rental_uris": {"android": "https://dc.lft.to/lastmile_qr_scan", "ios": "https://dc.lft.to/lastmile_qr_scan"}, "fusion_lon": 0.0, "lat": 38.885219, "bike_id": "96f572b5837bc751f4b50e8414e5a32a", "type": "electric_scooter", "is_reserved": 0, "lon": -76.92920633333334}, {"fusion_lat": 0.0, "name": "3388e9ea1cb73670359622290d57a099", "is_disabled": 0, "rental_uris": {"android": "https://dc.lft.to/lastmile_qr_scan", "ios": "https://dc.lft.to/lastmile_qr_scan"}, "fusion_lon": 0.0, "lat": 38.916181, "bike_id": "3388e9ea1cb73670359622290d57a099", "type": "electric_scooter", "is_reserved": 0, "lon": -77.0033235}, {"fusion_lat": 0.0, "name": "c29f1065b4129ed0c50d81f10e128c54", "is_disabled": 0, "rental_uris": {"android": "https://dc.lft.to/lastmile_qr_scan", "ios": "https://dc.lft.to/lastmile_qr_scan"}, "fusion_lon": 0.0, "lat": 38.90768, "bike_id": "c29f1065b4129ed0c50d81f10e128c54", "type": "electric_scooter", "is_reserved": 0, "lon": -77.04271}, {"fusion_lat": 0.0, "name": "4a327438727bf85398ca01b60e18540d", "is_disabled": 0, "rental_uris": {"android": "https://dc.lft.to/lastmile_qr_scan", "ios": "https://dc.lft.to/lastmile_qr_scan"}, "fusion_lon": 0.0, "lat": 38.8952085, "bike_id": "4a327438727bf85398ca01b60e18540d", "type": "electric_scooter", "is_reserved": 0, "lon": -77.04150416666667}, {"fusion_lat": 0.0, "name": "a53c117bd91aca6b41a8b26ba0f78769", "is_disabled": 0, "rental_uris": {"android": "https://dc.lft.to/lastmile_qr_scan", "ios": "https://dc.lft.to/lastmile_qr_scan"}, "fusion_lon": 0.0, "lat": 38.899057, "bike_id": "a53c117bd91aca6b41a8b26ba0f78769", "type": "electric_scooter", "is_reserved": 0, "lon": -76.9335065}, {"fusion_lat": 0.0, "name": "4c9142d6a1f9a4a8859a4f5a0f55b37b", "is_disabled": 0, "rental_uris": {"android": "https://dc.lft.to/lastmile_qr_scan", "ios": "https://dc.lft.to/lastmile_qr_scan"}, "fusion_lon": 0.0, "lat": 38.92309983333333, "bike_id": "4c9142d6a1f9a4a8859a4f5a0f55b37b", "type": "electric_scooter", "is_reserved": 0, "lon": -77.04207633333333}, {"fusion_lat": 0.0, "name": "05d21757c1976c8201ac08ec1bd75f65", "is_disabled": 0, "rental_uris": {"android": "https://dc.lft.to/lastmile_qr_scan", "ios": "https://dc.lft.to/lastmile_qr_scan"}, "fusion_lon": 0.0, "lat": 38.92840733333333, "bike_id": "05d21757c1976c8201ac08ec1bd75f65", "type": "electric_scooter", "is_reserved": 0, "lon": -77.01586933333333}, {"fusion_lat": 0.0, "name": "051d14b99ba8bdd8bf794424298512fa", "is_disabled": 0, "rental_uris": {"android": "https://dc.lft.to/lastmile_qr_scan", "ios": "https://dc.lft.to/lastmile_qr_scan"}, "fusion_lon": 0.0, "lat": 38.8757805, "bike_id": "051d14b99ba8bdd8bf794424298512fa", "type": "electric_bike", "is_reserved": 0, "lon": -77.23412366666666}, {"fusion_lat": 0.0, "name": "af040e3b8a89f8d68478a79094a38fe7", "is_disabled": 0, "rental_uris": {"android": "https://dc.lft.to/lastmile_qr_scan", "ios": "https://dc.lft.to/lastmile_qr_scan"}, "fusion_lon": 0.0, "lat": 38.91075766666667, "bike_id": "af040e3b8a89f8d68478a79094a38fe7", "type": "electric_scooter", "is_reserved": 0, "lon": -77.00933866666666}, {"fusion_lat": 0.0, "name": "b6b3985ebff1cf2707c8d326dba89dc7", "is_disabled": 0, "rental_uris": {"android": "https://dc.lft.to/lastmile_qr_scan", "ios": "https://dc.lft.to/lastmile_qr_scan"}, "fusion_lon": 0.0, "lat": 38.91771933333333, "bike_id": "b6b3985ebff1cf2707c8d326dba89dc7", "type": "electric_scooter", "is_reserved": 0, "lon": -77.02280033333334}, {"fusion_lat": 0.0, "name": "a2592d493187c9b3f873b91a03bb8d37", "is_disabled": 0, "rental_uris": {"android": "https://dc.lft.to/lastmile_qr_scan", "ios": "https://dc.lft.to/lastmile_qr_scan"}, "fusion_lon": 0.0, "lat": 38.93593533333333, "bike_id": "a2592d493187c9b3f873b91a03bb8d37", "type": "electric_scooter", "is_reserved": 0, "lon": -77.022973}, {"fusion_lat": 0.0, "name": "0248f57172e1c06b04a60d277fcf2761", "is_disabled": 0, "rental_uris": {"android": "https://dc.lft.to/lastmile_qr_scan", "ios": "https://dc.lft.to/lastmile_qr_scan"}, "fusion_lon": 0.0, "lat": 38.944278833333335, "bike_id": "0248f57172e1c06b04a60d277fcf2761", "type": "electric_bike", "is_reserved": 0, "lon": -77.02603666666667}, {"fusion_lat": 0.0, "name": "3b3b763d778cffda6046010e779a9717", "is_disabled": 0, "rental_uris": {"android": "https://dc.lft.to/lastmile_qr_scan", "ios": "https://dc.lft.to/lastmile_qr_scan"}, "fusion_lon": 0.0, "lat": 38.905723, "bike_id": "3b3b763d778cffda6046010e779a9717", "type": "electric_scooter", "is_reserved": 0, "lon": -77.03418133333334}, {"fusion_lat": 0.0, "name": "5f85298cfea70bd1a6840707a3df8aee", "is_disabled": 0, "rental_uris": {"android": "https://dc.lft.to/lastmile_qr_scan", "ios": "https://dc.lft.to/lastmile_qr_scan"}, "fusion_lon": 0.0, "lat": 38.912627, "bike_id": "5f85298cfea70bd1a6840707a3df8aee", "type": "electric_scooter", "is_reserved": 0, "lon": -77.037991}, {"fusion_lat": 0.0, "name": "b7c4594454cadf6ded9dd180d980417c", "is_disabled": 0, "rental_uris": {"android": "https://dc.lft.to/lastmile_qr_scan", "ios": "https://dc.lft.to/lastmile_qr_scan"}, "fusion_lon": 0.0, "lat": 38.92117833333333, "bike_id": "b7c4594454cadf6ded9dd180d980417c", "type": "electric_scooter", "is_reserved": 0, "lon": -77.04683333333334}, {"fusion_lat": 0.0, "name": "0722bef2bb3c3f7ebf466a4abb202c16", "is_disabled": 0, "rental_uris": {"android": "https://dc.lft.to/lastmile_qr_scan", "ios": "https://dc.lft.to/lastmile_qr_scan"}, "fusion_lon": 0.0, "lat": 38.926701333333334, "bike_id": "0722bef2bb3c3f7ebf466a4abb202c16", "type": "electric_scooter", "is_reserved": 0, "lon": -77.0305165}, {"fusion_lat": 0.0, "name": "c790b2b12ed836425f030672a90fbe9b", "is_disabled": 0, "rental_uris": {"android": "https://dc.lft.to/lastmile_qr_scan", "ios": "https://dc.lft.to/lastmile_qr_scan"}, "fusion_lon": 0.0, "lat": 38.8908575, "bike_id": "c790b2b12ed836425f030672a90fbe9b", "type": "electric_scooter", "is_reserved": 0, "lon": -76.91931116666666}, {"fusion_lat": 0.0, "name": "8ca5a602847e9a6e7362df9ef07a7821", "is_disabled": 0, "rental_uris": {"android": "https://dc.lft.to/lastmile_qr_scan", "ios": "https://dc.lft.to/lastmile_qr_scan"}, "fusion_lon": 0.0, "lat": 38.790203166666664, "bike_id": "8ca5a602847e9a6e7362df9ef07a7821", "type": "electric_bike", "is_reserved": 0, "lon": -77.01547983333333}, {"fusion_lat": 0.0, "name": "0a6930da86f03549e68f97382985d0d5", "is_disabled": 0, "rental_uris": {"android": "https://dc.lft.to/lastmile_qr_scan", "ios": "https://dc.lft.to/lastmile_qr_scan"}, "fusion_lon": 0.0, "lat": 38.90033116666667, "bike_id": "0a6930da86f03549e68f97382985d0d5", "type": "electric_scooter", "is_reserved": 0, "lon": -77.01225916666667}, {"fusion_lat": 0.0, "name": "37c135499d61b7feff6e41128c85cd7d", "is_disabled": 0, "rental_uris": {"android": "https://dc.lft.to/lastmile_qr_scan", "ios": "https://dc.lft.to/lastmile_qr_scan"}, "fusion_lon": 0.0, "lat": 38.92471833333333, "bike_id": "37c135499d61b7feff6e41128c85cd7d", "type": "electric_scooter", "is_reserved": 0, "lon": -77.0268205}, {"fusion_lat": 0.0, "name": "a736884742638a049d01e06e0db34a83", "is_disabled": 0, "rental_uris": {"android": "https://dc.lft.to/lastmile_qr_scan", "ios": "https://dc.lft.to/lastmile_qr_scan"}, "fusion_lon": 0.0, "lat": 38.87895533333333, "bike_id": "a736884742638a049d01e06e0db34a83", "type": "electric_scooter", "is_reserved": 0, "lon": -77.01364433333333}, {"fusion_lat": 0.0, "name": "13433ee8109840b15559bb8931db6151", "is_disabled": 0, "rental_uris": {"android": "https://dc.lft.to/lastmile_qr_scan", "ios": "https://dc.lft.to/lastmile_qr_scan"}, "fusion_lon": 0.0, "lat": 38.89522983333333, "bike_id": "13433ee8109840b15559bb8931db6151", "type": "electric_scooter", "is_reserved": 0, "lon": -76.934112}, {"fusion_lat": 0.0, "name": "d5fbde11e2eed6b43bb2af451989804f", "is_disabled": 0, "rental_uris": {"android": "https://dc.lft.to/lastmile_qr_scan", "ios": "https://dc.lft.to/lastmile_qr_scan"}, "fusion_lon": 0.0, "lat": 38.901481833333335, "bike_id": "d5fbde11e2eed6b43bb2af451989804f", "type": "electric_scooter", "is_reserved": 0, "lon": -77.061144}, {"fusion_lat": 0.0, "name": "e9b27c2c977a107abdaf4b721c4da75b", "is_disabled": 0, "rental_uris": {"android": "https://dc.lft.to/lastmile_qr_scan", "ios": "https://dc.lft.to/lastmile_qr_scan"}, "fusion_lon": 0.0, "lat": 38.900800833333335, "bike_id": "e9b27c2c977a107abdaf4b721c4da75b", "type": "electric_scooter", "is_reserved": 0, "lon": -77.050312}, {"fusion_lat": 0.0, "name": "8a64627399f94a2dee2b0e095326827c", "is_disabled": 0, "rental_uris": {"android": "https://dc.lft.to/lastmile_qr_scan", "ios": "https://dc.lft.to/lastmile_qr_scan"}, "fusion_lon": 0.0, "lat": 38.92396633333333, "bike_id": "8a64627399f94a2dee2b0e095326827c", "type": "electric_scooter", "is_reserved": 0, "lon": -77.02556466666667}, {"fusion_lat": 0.0, "name": "ba31442dc76e8a8c0e076aa70b8e7c9a", "is_disabled": 0, "rental_uris": {"android": "https://dc.lft.to/lastmile_qr_scan", "ios": "https://dc.lft.to/lastmile_qr_scan"}, "fusion_lon": 0.0, "lat": 38.921162833333334, "bike_id": "ba31442dc76e8a8c0e076aa70b8e7c9a", "type": "electric_bike", "is_reserved": 0, "lon": -77.012111}, {"fusion_lat": 0.0, "name": "dd36fbf529919c95e34cc4c030f7adc6", "is_disabled": 0, "rental_uris": {"android": "https://dc.lft.to/lastmile_qr_scan", "ios": "https://dc.lft.to/lastmile_qr_scan"}, "fusion_lon": 0.0, "lat": 38.89836666666667, "bike_id": "dd36fbf529919c95e34cc4c030f7adc6", "type": "electric_scooter", "is_reserved": 0, "lon": -77.04058116666667}, {"fusion_lat": 0.0, "name": "e9eded5704fdbecdc88247db80d271b2", "is_disabled": 0, "rental_uris": {"android": "https://dc.lft.to/lastmile_qr_scan", "ios": "https://dc.lft.to/lastmile_qr_scan"}, "fusion_lon": 0.0, "lat": 38.93418283333333, "bike_id": "e9eded5704fdbecdc88247db80d271b2", "type": "electric_scooter", "is_reserved": 0, "lon": -77.04156033333334}, {"fusion_lat": 0.0, "name": "fd805f531293b72344a148d9c4a960b3", "is_disabled": 0, "rental_uris": {"android": "https://dc.lft.to/lastmile_qr_scan", "ios": "https://dc.lft.to/lastmile_qr_scan"}, "fusion_lon": 0.0, "lat": 38.914054666666665, "bike_id": "fd805f531293b72344a148d9c4a960b3", "type": "electric_scooter", "is_reserved": 0, "lon": -77.0317335}, {"fusion_lat": 0.0, "name": "7b4033a9a2508db7e1d5f85054f8d895", "is_disabled": 0, "rental_uris": {"android": "https://dc.lft.to/lastmile_qr_scan", "ios": "https://dc.lft.to/lastmile_qr_scan"}, "fusion_lon": 0.0, "lat": 38.92575333333333, "bike_id": "7b4033a9a2508db7e1d5f85054f8d895", "type": "electric_scooter", "is_reserved": 0, "lon": -77.03743016666667}, {"fusion_lat": 0.0, "name": "c2e9c1478d38cbd69fa664b1bf2c9a5e", "is_disabled": 0, "rental_uris": {"android": "https://dc.lft.to/lastmile_qr_scan", "ios": "https://dc.lft.to/lastmile_qr_scan"}, "fusion_lon": 0.0, "lat": 38.8990865, "bike_id": "c2e9c1478d38cbd69fa664b1bf2c9a5e", "type": "electric_scooter", "is_reserved": 0, "lon": -76.9335505}, {"fusion_lat": 0.0, "name": "9cccdec844fd3ac568aa37837ae2b38b", "is_disabled": 0, "rental_uris": {"android": "https://dc.lft.to/lastmile_qr_scan", "ios": "https://dc.lft.to/lastmile_qr_scan"}, "fusion_lon": 0.0, "lat": 38.92978166666666, "bike_id": "9cccdec844fd3ac568aa37837ae2b38b", "type": "electric_bike", "is_reserved": 0, "lon": -77.03781566666666}, {"fusion_lat": 0.0, "name": "7cf512c081d5f29b10114846a006aa55", "is_disabled": 0, "rental_uris": {"android": "https://dc.lft.to/lastmile_qr_scan", "ios": "https://dc.lft.to/lastmile_qr_scan"}, "fusion_lon": 0.0, "lat": 38.897259166666664, "bike_id": "7cf512c081d5f29b10114846a006aa55", "type": "electric_scooter", "is_reserved": 0, "lon": -77.02161416666667}, {"fusion_lat": 0.0, "name": "5d049e7e64f0e06eb7aa63c230e27fe6", "is_disabled": 0, "rental_uris": {"android": "https://dc.lft.to/lastmile_qr_scan", "ios": "https://dc.lft.to/lastmile_qr_scan"}, "fusion_lon": 0.0, "lat": 38.87901216666667, "bike_id": "5d049e7e64f0e06eb7aa63c230e27fe6", "type": "electric_scooter", "is_reserved": 0, "lon": -77.00809466666666}, {"fusion_lat": 0.0, "name": "e49747613db3cb3870d5da57ec4ecfb4", "is_disabled": 0, "rental_uris": {"android": "https://dc.lft.to/lastmile_qr_scan", "ios": "https://dc.lft.to/lastmile_qr_scan"}, "fusion_lon": 0.0, "lat": 38.928731666666664, "bike_id": "e49747613db3cb3870d5da57ec4ecfb4", "type": "electric_scooter", "is_reserved": 0, "lon": -77.03360283333333}, {"fusion_lat": 0.0, "name": "ec6d7f23c9a6d4acf670f853414dad65", "is_disabled": 0, "rental_uris": {"android": "https://dc.lft.to/lastmile_qr_scan", "ios": "https://dc.lft.to/lastmile_qr_scan"}, "fusion_lon": 0.0, "lat": 38.919639333333336, "bike_id": "ec6d7f23c9a6d4acf670f853414dad65", "type": "electric_scooter", "is_reserved": 0, "lon": -77.0414315}, {"fusion_lat": 0.0, "name": "c5e848dc7635149fcc5152471d8a0886", "is_disabled": 0, "rental_uris": {"android": "https://dc.lft.to/lastmile_qr_scan", "ios": "https://dc.lft.to/lastmile_qr_scan"}, "fusion_lon": 0.0, "lat": 38.917122666666664, "bike_id": "c5e848dc7635149fcc5152471d8a0886", "type": "electric_scooter", "is_reserved": 0, "lon": -77.03477166666667}, {"fusion_lat": 0.0, "name": "0085587a3320252cb01c8d0e364b7973", "is_disabled": 0, "rental_uris": {"android": "https://dc.lft.to/lastmile_qr_scan", "ios": "https://dc.lft.to/lastmile_qr_scan"}, "fusion_lon": 0.0, "lat": 38.8978235, "bike_id": "0085587a3320252cb01c8d0e364b7973", "type": "electric_scooter", "is_reserved": 0, "lon": -77.02585116666667}, {"fusion_lat": 0.0, "name": "d9d65619eb445d14d6605a50d09e6969", "is_disabled": 0, "rental_uris": {"android": "https://dc.lft.to/lastmile_qr_scan", "ios": "https://dc.lft.to/lastmile_qr_scan"}, "fusion_lon": 0.0, "lat": 38.902576, "bike_id": "d9d65619eb445d14d6605a50d09e6969", "type": "electric_scooter", "is_reserved": 0, "lon": -77.04488033333334}, {"fusion_lat": 0.0, "name": "d4e6774932a67e7f5c2f11adf54c4d40", "is_disabled": 0, "rental_uris": {"android": "https://dc.lft.to/lastmile_qr_scan", "ios": "https://dc.lft.to/lastmile_qr_scan"}, "fusion_lon": 0.0, "lat": 38.92975916666666, "bike_id": "d4e6774932a67e7f5c2f11adf54c4d40", "type": "electric_scooter", "is_reserved": 0, "lon": -77.03231516666666}, {"fusion_lat": 0.0, "name": "9a84992c4779c12d9ab67137f345a49d", "is_disabled": 0, "rental_uris": {"android": "https://dc.lft.to/lastmile_qr_scan", "ios": "https://dc.lft.to/lastmile_qr_scan"}, "fusion_lon": 0.0, "lat": 38.887604333333336, "bike_id": "9a84992c4779c12d9ab67137f345a49d", "type": "electric_scooter", "is_reserved": 0, "lon": -76.97748366666667}, {"fusion_lat": 0.0, "name": "ee33d1fed62570fd3f2f3ea8146cffba", "is_disabled": 0, "rental_uris": {"android": "https://dc.lft.to/lastmile_qr_scan", "ios": "https://dc.lft.to/lastmile_qr_scan"}, "fusion_lon": 0.0, "lat": 38.905048666666666, "bike_id": "ee33d1fed62570fd3f2f3ea8146cffba", "type": "electric_scooter", "is_reserved": 0, "lon": -77.0346255}, {"fusion_lat": 0.0, "name": "56772089d389e40f2854aaa40031017d", "is_disabled": 0, "rental_uris": {"android": "https://dc.lft.to/lastmile_qr_scan", "ios": "https://dc.lft.to/lastmile_qr_scan"}, "fusion_lon": 0.0, "lat": 38.8545655, "bike_id": "56772089d389e40f2854aaa40031017d", "type": "electric_scooter", "is_reserved": 0, "lon": -76.97224066666666}, {"fusion_lat": 0.0, "name": "b5e1f5b2c3b0713806b45467efac043e", "is_disabled": 0, "rental_uris": {"android": "https://dc.lft.to/lastmile_qr_scan", "ios": "https://dc.lft.to/lastmile_qr_scan"}, "fusion_lon": 0.0, "lat": 38.926448, "bike_id": "b5e1f5b2c3b0713806b45467efac043e", "type": "electric_scooter", "is_reserved": 0, "lon": -77.02429383333333}, {"fusion_lat": 0.0, "name": "e132ef21a6873765893be4eaf14a07de", "is_disabled": 0, "rental_uris": {"android": "https://dc.lft.to/lastmile_qr_scan", "ios": "https://dc.lft.to/lastmile_qr_scan"}, "fusion_lon": 0.0, "lat": 38.91553666666667, "bike_id": "e132ef21a6873765893be4eaf14a07de", "type": "electric_scooter", "is_reserved": 0, "lon": -77.03173866666667}, {"fusion_lat": 0.0, "name": "0ced5ec9dc7433d67c31bbce1589763f", "is_disabled": 0, "rental_uris": {"android": "https://dc.lft.to/lastmile_qr_scan", "ios": "https://dc.lft.to/lastmile_qr_scan"}, "fusion_lon": 0.0, "lat": 38.92045666666667, "bike_id": "0ced5ec9dc7433d67c31bbce1589763f", "type": "electric_scooter", "is_reserved": 0, "lon": -77.03469766666667}, {"fusion_lat": 0.0, "name": "73be771890d05fa96a2cf92a456930e3", "is_disabled": 0, "rental_uris": {"android": "https://dc.lft.to/lastmile_qr_scan", "ios": "https://dc.lft.to/lastmile_qr_scan"}, "fusion_lon": 0.0, "lat": 38.91304933333333, "bike_id": "73be771890d05fa96a2cf92a456930e3", "type": "electric_scooter", "is_reserved": 0, "lon": -77.02132866666666}, {"fusion_lat": 0.0, "name": "1ea013ab3e7e0a4d5181778072e3b770", "is_disabled": 0, "rental_uris": {"android": "https://dc.lft.to/lastmile_qr_scan", "ios": "https://dc.lft.to/lastmile_qr_scan"}, "fusion_lon": 0.0, "lat": 38.90127066666667, "bike_id": "1ea013ab3e7e0a4d5181778072e3b770", "type": "electric_scooter", "is_reserved": 0, "lon": -77.02051516666667}, {"fusion_lat": 0.0, "name": "594e2987bd2be3983ccc9e24fc62f15c", "is_disabled": 0, "rental_uris": {"android": "https://dc.lft.to/lastmile_qr_scan", "ios": "https://dc.lft.to/lastmile_qr_scan"}, "fusion_lon": 0.0, "lat": 38.879617833333334, "bike_id": "594e2987bd2be3983ccc9e24fc62f15c", "type": "electric_bike", "is_reserved": 0, "lon": -76.91616466666666}, {"fusion_lat": 0.0, "name": "5c45b658d5c49eb5eb2cac251778ad19", "is_disabled": 0, "rental_uris": {"android": "https://dc.lft.to/lastmile_qr_scan", "ios": "https://dc.lft.to/lastmile_qr_scan"}, "fusion_lon": 0.0, "lat": 38.918033, "bike_id": "5c45b658d5c49eb5eb2cac251778ad19", "type": "electric_scooter", "is_reserved": 0, "lon": -77.033015}, {"fusion_lat": 0.0, "name": "ee08db415f81619062117923befea4f3", "is_disabled": 0, "rental_uris": {"android": "https://dc.lft.to/lastmile_qr_scan", "ios": "https://dc.lft.to/lastmile_qr_scan"}, "fusion_lon": 0.0, "lat": 38.924216, "bike_id": "ee08db415f81619062117923befea4f3", "type": "electric_scooter", "is_reserved": 0, "lon": -77.01955883333333}, {"fusion_lat": 0.0, "name": "233be22876e01f9038c025bb0e1e1639", "is_disabled": 0, "rental_uris": {"android": "https://dc.lft.to/lastmile_qr_scan", "ios": "https://dc.lft.to/lastmile_qr_scan"}, "fusion_lon": 0.0, "lat": 38.917914, "bike_id": "233be22876e01f9038c025bb0e1e1639", "type": "electric_scooter", "is_reserved": 0, "lon": -77.04027716666667}, {"fusion_lat": 0.0, "name": "114374af7212a7e7a866b9871f40040e", "is_disabled": 0, "rental_uris": {"android": "https://dc.lft.to/lastmile_qr_scan", "ios": "https://dc.lft.to/lastmile_qr_scan"}, "fusion_lon": 0.0, "lat": 38.900198, "bike_id": "114374af7212a7e7a866b9871f40040e", "type": "electric_scooter", "is_reserved": 0, "lon": -76.99450783333333}, {"fusion_lat": 0.0, "name": "fc645e509d7ed159573359df17a217b8", "is_disabled": 0, "rental_uris": {"android": "https://dc.lft.to/lastmile_qr_scan", "ios": "https://dc.lft.to/lastmile_qr_scan"}, "fusion_lon": 0.0, "lat": 38.938786666666665, "bike_id": "fc645e509d7ed159573359df17a217b8", "type": "electric_scooter", "is_reserved": 0, "lon": -77.03286016666667}, {"fusion_lat": 0.0, "name": "c02be9f6099b786536e8c2199f1f0e98", "is_disabled": 0, "rental_uris": {"android": "https://dc.lft.to/lastmile_qr_scan", "ios": "https://dc.lft.to/lastmile_qr_scan"}, "fusion_lon": 0.0, "lat": 38.901741, "bike_id": "c02be9f6099b786536e8c2199f1f0e98", "type": "electric_scooter", "is_reserved": 0, "lon": -77.04663816666667}, {"fusion_lat": 0.0, "name": "c161d660602c3c20c964b9426584389b", "is_disabled": 0, "rental_uris": {"android": "https://dc.lft.to/lastmile_qr_scan", "ios": "https://dc.lft.to/lastmile_qr_scan"}, "fusion_lon": 0.0, "lat": 38.896696166666665, "bike_id": "c161d660602c3c20c964b9426584389b", "type": "electric_scooter", "is_reserved": 0, "lon": -77.0321355}, {"fusion_lat": 0.0, "name": "873c1a892837515dfd6385ebf19003a9", "is_disabled": 0, "rental_uris": {"android": "https://dc.lft.to/lastmile_qr_scan", "ios": "https://dc.lft.to/lastmile_qr_scan"}, "fusion_lon": 0.0, "lat": 38.9075195, "bike_id": "873c1a892837515dfd6385ebf19003a9", "type": "electric_scooter", "is_reserved": 0, "lon": -77.04257433333333}, {"fusion_lat": 0.0, "name": "ce8915709f31cb75a396520140eada70", "is_disabled": 0, "rental_uris": {"android": "https://dc.lft.to/lastmile_qr_scan", "ios": "https://dc.lft.to/lastmile_qr_scan"}, "fusion_lon": 0.0, "lat": 38.922593666666664, "bike_id": "ce8915709f31cb75a396520140eada70", "type": "electric_scooter", "is_reserved": 0, "lon": -77.07485683333333}, {"fusion_lat": 0.0, "name": "c6cbda337ec24812edb1f4ee563f083c", "is_disabled": 0, "rental_uris": {"android": "https://dc.lft.to/lastmile_qr_scan", "ios": "https://dc.lft.to/lastmile_qr_scan"}, "fusion_lon": 0.0, "lat": 38.879429, "bike_id": "c6cbda337ec24812edb1f4ee563f083c", "type": "electric_bike", "is_reserved": 0, "lon": -77.01011033333333}, {"fusion_lat": 0.0, "name": "eb4bca149ce5b1a584ec6b996036c4cb", "is_disabled": 0, "rental_uris": {"android": "https://dc.lft.to/lastmile_qr_scan", "ios": "https://dc.lft.to/lastmile_qr_scan"}, "fusion_lon": 0.0, "lat": 38.93254316666667, "bike_id": "eb4bca149ce5b1a584ec6b996036c4cb", "type": "electric_scooter", "is_reserved": 0, "lon": -77.04009166666667}, {"fusion_lat": 0.0, "name": "8046a6757dc98a19a025da4cb1c64376", "is_disabled": 0, "rental_uris": {"android": "https://dc.lft.to/lastmile_qr_scan", "ios": "https://dc.lft.to/lastmile_qr_scan"}, "fusion_lon": 0.0, "lat": 38.86618416666666, "bike_id": "8046a6757dc98a19a025da4cb1c64376", "type": "electric_bike", "is_reserved": 0, "lon": -76.945756}, {"fusion_lat": 0.0, "name": "1955a329cbd9baef3dd0ec208fd25002", "is_disabled": 0, "rental_uris": {"android": "https://dc.lft.to/lastmile_qr_scan", "ios": "https://dc.lft.to/lastmile_qr_scan"}, "fusion_lon": 0.0, "lat": 38.86329033333333, "bike_id": "1955a329cbd9baef3dd0ec208fd25002", "type": "electric_bike", "is_reserved": 0, "lon": -76.9872185}, {"fusion_lat": 0.0, "name": "e64bfba4238269886ec880adf6e89048", "is_disabled": 0, "rental_uris": {"android": "https://dc.lft.to/lastmile_qr_scan", "ios": "https://dc.lft.to/lastmile_qr_scan"}, "fusion_lon": 0.0, "lat": 38.956344, "bike_id": "e64bfba4238269886ec880adf6e89048", "type": "electric_scooter", "is_reserved": 0, "lon": -77.03302816666667}, {"fusion_lat": 0.0, "name": "6d8fb114b7cd1ea3975f61e0d0865da1", "is_disabled": 0, "rental_uris": {"android": "https://dc.lft.to/lastmile_qr_scan", "ios": "https://dc.lft.to/lastmile_qr_scan"}, "fusion_lon": 0.0, "lat": 38.9028985, "bike_id": "6d8fb114b7cd1ea3975f61e0d0865da1", "type": "electric_scooter", "is_reserved": 0, "lon": -77.0199945}, {"fusion_lat": 0.0, "name": "c7c4ea65e6e3e533bb7f2c869d0e51f1", "is_disabled": 0, "rental_uris": {"android": "https://dc.lft.to/lastmile_qr_scan", "ios": "https://dc.lft.to/lastmile_qr_scan"}, "fusion_lon": 0.0, "lat": 38.900934, "bike_id": "c7c4ea65e6e3e533bb7f2c869d0e51f1", "type": "electric_scooter", "is_reserved": 0, "lon": -77.0495735}, {"fusion_lat": 0.0, "name": "a08a74ff8385873923c50abc1c2dcaff", "is_disabled": 0, "rental_uris": {"android": "https://dc.lft.to/lastmile_qr_scan", "ios": "https://dc.lft.to/lastmile_qr_scan"}, "fusion_lon": 0.0, "lat": 38.91442466666667, "bike_id": "a08a74ff8385873923c50abc1c2dcaff", "type": "electric_scooter", "is_reserved": 0, "lon": -77.04164033333333}, {"fusion_lat": 0.0, "name": "3febdc72d55fc553255515676a791438", "is_disabled": 0, "rental_uris": {"android": "https://dc.lft.to/lastmile_qr_scan", "ios": "https://dc.lft.to/lastmile_qr_scan"}, "fusion_lon": 0.0, "lat": 38.942006, "bike_id": "3febdc72d55fc553255515676a791438", "type": "electric_scooter", "is_reserved": 0, "lon": -77.0259145}, {"fusion_lat": 0.0, "name": "5be1068e4eb300f988d5c54f8302e828", "is_disabled": 0, "rental_uris": {"android": "https://dc.lft.to/lastmile_qr_scan", "ios": "https://dc.lft.to/lastmile_qr_scan"}, "fusion_lon": 0.0, "lat": 38.91055466666667, "bike_id": "5be1068e4eb300f988d5c54f8302e828", "type": "electric_scooter", "is_reserved": 0, "lon": -77.04576266666666}, {"fusion_lat": 0.0, "name": "3996c95981f5d6b2546da0202b0d4648", "is_disabled": 0, "rental_uris": {"android": "https://dc.lft.to/lastmile_qr_scan", "ios": "https://dc.lft.to/lastmile_qr_scan"}, "fusion_lon": 0.0, "lat": 38.920770166666664, "bike_id": "3996c95981f5d6b2546da0202b0d4648", "type": "electric_scooter", "is_reserved": 0, "lon": -77.023055}, {"fusion_lat": 0.0, "name": "2e962d6327f734a822ace490895ac59a", "is_disabled": 0, "rental_uris": {"android": "https://dc.lft.to/lastmile_qr_scan", "ios": "https://dc.lft.to/lastmile_qr_scan"}, "fusion_lon": 0.0, "lat": 38.8710905, "bike_id": "2e962d6327f734a822ace490895ac59a", "type": "electric_scooter", "is_reserved": 0, "lon": -77.00577466666667}, {"fusion_lat": 0.0, "name": "9ea8c0cbb678f0637fb7d77a0c3e350a", "is_disabled": 0, "rental_uris": {"android": "https://dc.lft.to/lastmile_qr_scan", "ios": "https://dc.lft.to/lastmile_qr_scan"}, "fusion_lon": 0.0, "lat": 38.896156500000004, "bike_id": "9ea8c0cbb678f0637fb7d77a0c3e350a", "type": "electric_scooter", "is_reserved": 0, "lon": -77.0450155}, {"fusion_lat": 0.0, "name": "8ee03b6cf2def94585f6a28c9638b281", "is_disabled": 0, "rental_uris": {"android": "https://dc.lft.to/lastmile_qr_scan", "ios": "https://dc.lft.to/lastmile_qr_scan"}, "fusion_lon": 0.0, "lat": 38.921119166666664, "bike_id": "8ee03b6cf2def94585f6a28c9638b281", "type": "electric_scooter", "is_reserved": 0, "lon": -77.07215733333334}, {"fusion_lat": 0.0, "name": "b28973c7cb1b7afaeb084c6e01b049dd", "is_disabled": 0, "rental_uris": {"android": "https://dc.lft.to/lastmile_qr_scan", "ios": "https://dc.lft.to/lastmile_qr_scan"}, "fusion_lon": 0.0, "lat": 38.907503, "bike_id": "b28973c7cb1b7afaeb084c6e01b049dd", "type": "electric_scooter", "is_reserved": 0, "lon": -77.00092916666667}, {"fusion_lat": 0.0, "name": "437d2b267961fcd97057c4eed400e81c", "is_disabled": 0, "rental_uris": {"android": "https://dc.lft.to/lastmile_qr_scan", "ios": "https://dc.lft.to/lastmile_qr_scan"}, "fusion_lon": 0.0, "lat": 38.93745116666667, "bike_id": "437d2b267961fcd97057c4eed400e81c", "type": "electric_scooter", "is_reserved": 0, "lon": -77.03591616666667}, {"fusion_lat": 0.0, "name": "2beb93fe3e5e001cef8d94c85e73e64b", "is_disabled": 0, "rental_uris": {"android": "https://dc.lft.to/lastmile_qr_scan", "ios": "https://dc.lft.to/lastmile_qr_scan"}, "fusion_lon": 0.0, "lat": 38.806757, "bike_id": "2beb93fe3e5e001cef8d94c85e73e64b", "type": "electric_bike", "is_reserved": 0, "lon": -77.0692065}, {"fusion_lat": 0.0, "name": "b119e7f9f06e7a768afdc3a30cea6158", "is_disabled": 0, "rental_uris": {"android": "https://dc.lft.to/lastmile_qr_scan", "ios": "https://dc.lft.to/lastmile_qr_scan"}, "fusion_lon": 0.0, "lat": 38.913272, "bike_id": "b119e7f9f06e7a768afdc3a30cea6158", "type": "electric_scooter", "is_reserved": 0, "lon": -77.0103155}, {"fusion_lat": 0.0, "name": "366edb52abfdcb71fd34cee0751b0a77", "is_disabled": 0, "rental_uris": {"android": "https://dc.lft.to/lastmile_qr_scan", "ios": "https://dc.lft.to/lastmile_qr_scan"}, "fusion_lon": 0.0, "lat": 38.915350333333336, "bike_id": "366edb52abfdcb71fd34cee0751b0a77", "type": "electric_scooter", "is_reserved": 0, "lon": -77.0185965}, {"fusion_lat": 0.0, "name": "19c2094df374f480bae939aaf9c58376", "is_disabled": 0, "rental_uris": {"android": "https://dc.lft.to/lastmile_qr_scan", "ios": "https://dc.lft.to/lastmile_qr_scan"}, "fusion_lon": 0.0, "lat": 38.907141833333334, "bike_id": "19c2094df374f480bae939aaf9c58376", "type": "electric_scooter", "is_reserved": 0, "lon": -77.0506365}, {"fusion_lat": 0.0, "name": "a8c07e30de7277f212ceb8d436f77a06", "is_disabled": 0, "rental_uris": {"android": "https://dc.lft.to/lastmile_qr_scan", "ios": "https://dc.lft.to/lastmile_qr_scan"}, "fusion_lon": 0.0, "lat": 38.90492833333333, "bike_id": "a8c07e30de7277f212ceb8d436f77a06", "type": "electric_scooter", "is_reserved": 0, "lon": -77.00935733333333}, {"fusion_lat": 0.0, "name": "6297c63bee0ca1f3205def7aabb33046", "is_disabled": 0, "rental_uris": {"android": "https://dc.lft.to/lastmile_qr_scan", "ios": "https://dc.lft.to/lastmile_qr_scan"}, "fusion_lon": 0.0, "lat": 38.901663666666664, "bike_id": "6297c63bee0ca1f3205def7aabb33046", "type": "electric_scooter", "is_reserved": 0, "lon": -76.99262066666667}, {"fusion_lat": 0.0, "name": "50f9d964c02dfd5e31b08df1b5f22450", "is_disabled": 0, "rental_uris": {"android": "https://dc.lft.to/lastmile_qr_scan", "ios": "https://dc.lft.to/lastmile_qr_scan"}, "fusion_lon": 0.0, "lat": 38.884497833333334, "bike_id": "50f9d964c02dfd5e31b08df1b5f22450", "type": "electric_scooter", "is_reserved": 0, "lon": -76.99390383333333}, {"fusion_lat": 0.0, "name": "f3a1020f245189e8ede5a4ff8abe7835", "is_disabled": 0, "rental_uris": {"android": "https://dc.lft.to/lastmile_qr_scan", "ios": "https://dc.lft.to/lastmile_qr_scan"}, "fusion_lon": 0.0, "lat": 38.90755266666667, "bike_id": "f3a1020f245189e8ede5a4ff8abe7835", "type": "electric_scooter", "is_reserved": 0, "lon": -77.042603}, {"fusion_lat": 0.0, "name": "80a67cfea0b72fd81dda3e149ad847a1", "is_disabled": 0, "rental_uris": {"android": "https://dc.lft.to/lastmile_qr_scan", "ios": "https://dc.lft.to/lastmile_qr_scan"}, "fusion_lon": 0.0, "lat": 38.92315516666667, "bike_id": "80a67cfea0b72fd81dda3e149ad847a1", "type": "electric_scooter", "is_reserved": 0, "lon": -77.02041166666666}, {"fusion_lat": 0.0, "name": "70124159a61381940355e4ef3106a4d2", "is_disabled": 0, "rental_uris": {"android": "https://dc.lft.to/lastmile_qr_scan", "ios": "https://dc.lft.to/lastmile_qr_scan"}, "fusion_lon": 0.0, "lat": 38.903911666666666, "bike_id": "70124159a61381940355e4ef3106a4d2", "type": "electric_scooter", "is_reserved": 0, "lon": -76.9901425}, {"fusion_lat": 0.0, "name": "fb5c41da2cd94ca88edf92d094156ac0", "is_disabled": 0, "rental_uris": {"android": "https://dc.lft.to/lastmile_qr_scan", "ios": "https://dc.lft.to/lastmile_qr_scan"}, "fusion_lon": 0.0, "lat": 38.93443766666667, "bike_id": "fb5c41da2cd94ca88edf92d094156ac0", "type": "electric_scooter", "is_reserved": 0, "lon": -77.02982416666667}, {"fusion_lat": 0.0, "name": "dd1c000318a21df86865b71f9e5fb5d1", "is_disabled": 0, "rental_uris": {"android": "https://dc.lft.to/lastmile_qr_scan", "ios": "https://dc.lft.to/lastmile_qr_scan"}, "fusion_lon": 0.0, "lat": 38.9307735, "bike_id": "dd1c000318a21df86865b71f9e5fb5d1", "type": "electric_scooter", "is_reserved": 0, "lon": -77.0776385}, {"fusion_lat": 0.0, "name": "44b2d82035b6cde5db41183aec657de0", "is_disabled": 0, "rental_uris": {"android": "https://dc.lft.to/lastmile_qr_scan", "ios": "https://dc.lft.to/lastmile_qr_scan"}, "fusion_lon": 0.0, "lat": 38.9352195, "bike_id": "44b2d82035b6cde5db41183aec657de0", "type": "electric_scooter", "is_reserved": 0, "lon": -77.03265016666667}, {"fusion_lat": 0.0, "name": "0e74b50d7d10e7ae82bfabb04f71dc0c", "is_disabled": 0, "rental_uris": {"android": "https://dc.lft.to/lastmile_qr_scan", "ios": "https://dc.lft.to/lastmile_qr_scan"}, "fusion_lon": 0.0, "lat": 38.904788333333336, "bike_id": "0e74b50d7d10e7ae82bfabb04f71dc0c", "type": "electric_scooter", "is_reserved": 0, "lon": -77.03223666666666}, {"fusion_lat": 0.0, "name": "31d23720d537cb55f48ce04014a39481", "is_disabled": 0, "rental_uris": {"android": "https://dc.lft.to/lastmile_qr_scan", "ios": "https://dc.lft.to/lastmile_qr_scan"}, "fusion_lon": 0.0, "lat": 38.902563666666666, "bike_id": "31d23720d537cb55f48ce04014a39481", "type": "electric_scooter", "is_reserved": 0, "lon": -76.97455266666667}, {"fusion_lat": 0.0, "name": "4ba3b9f99b763af6335bbde6e5e0ef86", "is_disabled": 0, "rental_uris": {"android": "https://dc.lft.to/lastmile_qr_scan", "ios": "https://dc.lft.to/lastmile_qr_scan"}, "fusion_lon": 0.0, "lat": 38.901493333333335, "bike_id": "4ba3b9f99b763af6335bbde6e5e0ef86", "type": "electric_scooter", "is_reserved": 0, "lon": -77.02296266666667}, {"fusion_lat": 0.0, "name": "07810c8dc8e0941e3f01b5376ccc28f5", "is_disabled": 0, "rental_uris": {"android": "https://dc.lft.to/lastmile_qr_scan", "ios": "https://dc.lft.to/lastmile_qr_scan"}, "fusion_lon": 0.0, "lat": 38.92811583333334, "bike_id": "07810c8dc8e0941e3f01b5376ccc28f5", "type": "electric_scooter", "is_reserved": 0, "lon": -77.04360766666667}, {"fusion_lat": 0.0, "name": "89294a3253e10af0f95c3fef8f4a259f", "is_disabled": 0, "rental_uris": {"android": "https://dc.lft.to/lastmile_qr_scan", "ios": "https://dc.lft.to/lastmile_qr_scan"}, "fusion_lon": 0.0, "lat": 38.90929916666666, "bike_id": "89294a3253e10af0f95c3fef8f4a259f", "type": "electric_scooter", "is_reserved": 0, "lon": -77.018454}, {"fusion_lat": 0.0, "name": "68df004612f868564ba1446ed1d07ae3", "is_disabled": 0, "rental_uris": {"android": "https://dc.lft.to/lastmile_qr_scan", "ios": "https://dc.lft.to/lastmile_qr_scan"}, "fusion_lon": 0.0, "lat": 38.918155666666664, "bike_id": "68df004612f868564ba1446ed1d07ae3", "type": "electric_scooter", "is_reserved": 0, "lon": -77.0253075}, {"fusion_lat": 0.0, "name": "5ca0d8be74aa6c121514cc1b8a698770", "is_disabled": 0, "rental_uris": {"android": "https://dc.lft.to/lastmile_qr_scan", "ios": "https://dc.lft.to/lastmile_qr_scan"}, "fusion_lon": 0.0, "lat": 38.91554166666667, "bike_id": "5ca0d8be74aa6c121514cc1b8a698770", "type": "electric_scooter", "is_reserved": 0, "lon": -77.0317475}, {"fusion_lat": 0.0, "name": "12160fffa83e34ab9d2f9b870bb92e45", "is_disabled": 0, "rental_uris": {"android": "https://dc.lft.to/lastmile_qr_scan", "ios": "https://dc.lft.to/lastmile_qr_scan"}, "fusion_lon": 0.0, "lat": 38.894404, "bike_id": "12160fffa83e34ab9d2f9b870bb92e45", "type": "electric_scooter", "is_reserved": 0, "lon": -76.97994033333333}, {"fusion_lat": 0.0, "name": "fbae435d8990416d30817dbad4632503", "is_disabled": 0, "rental_uris": {"android": "https://dc.lft.to/lastmile_qr_scan", "ios": "https://dc.lft.to/lastmile_qr_scan"}, "fusion_lon": 0.0, "lat": 38.9169915, "bike_id": "fbae435d8990416d30817dbad4632503", "type": "electric_scooter", "is_reserved": 0, "lon": -77.0248765}, {"fusion_lat": 0.0, "name": "385cf50235f890abc07ac8c72309e541", "is_disabled": 0, "rental_uris": {"android": "https://dc.lft.to/lastmile_qr_scan", "ios": "https://dc.lft.to/lastmile_qr_scan"}, "fusion_lon": 0.0, "lat": 38.90682733333333, "bike_id": "385cf50235f890abc07ac8c72309e541", "type": "electric_bike", "is_reserved": 0, "lon": -76.9449445}, {"fusion_lat": 0.0, "name": "1f2d8f3f05e7615919d9bc8d146a2936", "is_disabled": 0, "rental_uris": {"android": "https://dc.lft.to/lastmile_qr_scan", "ios": "https://dc.lft.to/lastmile_qr_scan"}, "fusion_lon": 0.0, "lat": 38.90150883333333, "bike_id": "1f2d8f3f05e7615919d9bc8d146a2936", "type": "electric_scooter", "is_reserved": 0, "lon": -76.93068083333333}, {"fusion_lat": 0.0, "name": "5ffef9b59dbb0fbd27ae0107f4a2f883", "is_disabled": 0, "rental_uris": {"android": "https://dc.lft.to/lastmile_qr_scan", "ios": "https://dc.lft.to/lastmile_qr_scan"}, "fusion_lon": 0.0, "lat": 38.92248816666667, "bike_id": "5ffef9b59dbb0fbd27ae0107f4a2f883", "type": "electric_scooter", "is_reserved": 0, "lon": -77.0338385}, {"fusion_lat": 0.0, "name": "0e14610d761186f69050755d01a9c431", "is_disabled": 0, "rental_uris": {"android": "https://dc.lft.to/lastmile_qr_scan", "ios": "https://dc.lft.to/lastmile_qr_scan"}, "fusion_lon": 0.0, "lat": 38.935773833333336, "bike_id": "0e14610d761186f69050755d01a9c431", "type": "electric_scooter", "is_reserved": 0, "lon": -77.01927383333333}, {"fusion_lat": 0.0, "name": "b4c3d8dc83160648e014a70de156236f", "is_disabled": 0, "rental_uris": {"android": "https://dc.lft.to/lastmile_qr_scan", "ios": "https://dc.lft.to/lastmile_qr_scan"}, "fusion_lon": 0.0, "lat": 38.91472516666666, "bike_id": "b4c3d8dc83160648e014a70de156236f", "type": "electric_scooter", "is_reserved": 0, "lon": -77.0382815}, {"fusion_lat": 0.0, "name": "11110ddad6257e20d455b0ab778954e5", "is_disabled": 0, "rental_uris": {"android": "https://dc.lft.to/lastmile_qr_scan", "ios": "https://dc.lft.to/lastmile_qr_scan"}, "fusion_lon": 0.0, "lat": 38.862177833333334, "bike_id": "11110ddad6257e20d455b0ab778954e5", "type": "electric_bike", "is_reserved": 0, "lon": -76.995597}, {"fusion_lat": 0.0, "name": "685897611fd7aa0c520730e45c7e2e5f", "is_disabled": 0, "rental_uris": {"android": "https://dc.lft.to/lastmile_qr_scan", "ios": "https://dc.lft.to/lastmile_qr_scan"}, "fusion_lon": 0.0, "lat": 38.904046, "bike_id": "685897611fd7aa0c520730e45c7e2e5f", "type": "electric_scooter", "is_reserved": 0, "lon": -76.97332233333333}, {"fusion_lat": 0.0, "name": "fe280bc01f73e0c09c2cab31105c631b", "is_disabled": 0, "rental_uris": {"android": "https://dc.lft.to/lastmile_qr_scan", "ios": "https://dc.lft.to/lastmile_qr_scan"}, "fusion_lon": 0.0, "lat": 38.884385, "bike_id": "fe280bc01f73e0c09c2cab31105c631b", "type": "electric_scooter", "is_reserved": 0, "lon": -77.003502}, {"fusion_lat": 0.0, "name": "eb115526aba86fc63cf99e33938c82ef", "is_disabled": 0, "rental_uris": {"android": "https://dc.lft.to/lastmile_qr_scan", "ios": "https://dc.lft.to/lastmile_qr_scan"}, "fusion_lon": 0.0, "lat": 38.908456666666666, "bike_id": "eb115526aba86fc63cf99e33938c82ef", "type": "electric_scooter", "is_reserved": 0, "lon": -77.06376966666667}, {"fusion_lat": 0.0, "name": "5bfb372da563b62208d778d2f67da3dc", "is_disabled": 0, "rental_uris": {"android": "https://dc.lft.to/lastmile_qr_scan", "ios": "https://dc.lft.to/lastmile_qr_scan"}, "fusion_lon": 0.0, "lat": 38.921375833333336, "bike_id": "5bfb372da563b62208d778d2f67da3dc", "type": "electric_scooter", "is_reserved": 0, "lon": -77.0423325}, {"fusion_lat": 0.0, "name": "99e50d6548361b9a934566bd7dd55ea9", "is_disabled": 0, "rental_uris": {"android": "https://dc.lft.to/lastmile_qr_scan", "ios": "https://dc.lft.to/lastmile_qr_scan"}, "fusion_lon": 0.0, "lat": 38.912314, "bike_id": "99e50d6548361b9a934566bd7dd55ea9", "type": "electric_scooter", "is_reserved": 0, "lon": -77.03863266666667}, {"fusion_lat": 0.0, "name": "5f92529c9131a24304782a12dafd61af", "is_disabled": 0, "rental_uris": {"android": "https://dc.lft.to/lastmile_qr_scan", "ios": "https://dc.lft.to/lastmile_qr_scan"}, "fusion_lon": 0.0, "lat": 38.88151966666667, "bike_id": "5f92529c9131a24304782a12dafd61af", "type": "electric_scooter", "is_reserved": 0, "lon": -77.02676316666667}, {"fusion_lat": 0.0, "name": "19ff8d9c8b13db8711c79dd5901c5c0a", "is_disabled": 0, "rental_uris": {"android": "https://dc.lft.to/lastmile_qr_scan", "ios": "https://dc.lft.to/lastmile_qr_scan"}, "fusion_lon": 0.0, "lat": 39.036081, "bike_id": "19ff8d9c8b13db8711c79dd5901c5c0a", "type": "electric_bike", "is_reserved": 0, "lon": -77.05549783333333}, {"fusion_lat": 0.0, "name": "6cdba24f5867d3beaccbdfc8121e9604", "is_disabled": 0, "rental_uris": {"android": "https://dc.lft.to/lastmile_qr_scan", "ios": "https://dc.lft.to/lastmile_qr_scan"}, "fusion_lon": 0.0, "lat": 38.92142283333333, "bike_id": "6cdba24f5867d3beaccbdfc8121e9604", "type": "electric_scooter", "is_reserved": 0, "lon": -77.0241015}, {"fusion_lat": 0.0, "name": "211473a36356b0256f91603c7304d187", "is_disabled": 0, "rental_uris": {"android": "https://dc.lft.to/lastmile_qr_scan", "ios": "https://dc.lft.to/lastmile_qr_scan"}, "fusion_lon": 0.0, "lat": 38.9208455, "bike_id": "211473a36356b0256f91603c7304d187", "type": "electric_bike", "is_reserved": 0, "lon": -77.07176666666666}, {"fusion_lat": 0.0, "name": "5a632ab35e60580286b7157fecb6423b", "is_disabled": 0, "rental_uris": {"android": "https://dc.lft.to/lastmile_qr_scan", "ios": "https://dc.lft.to/lastmile_qr_scan"}, "fusion_lon": 0.0, "lat": 38.92641966666667, "bike_id": "5a632ab35e60580286b7157fecb6423b", "type": "electric_scooter", "is_reserved": 0, "lon": -77.0385055}, {"fusion_lat": 0.0, "name": "95384ab65448aa387e3ce7038a0ad1d6", "is_disabled": 0, "rental_uris": {"android": "https://dc.lft.to/lastmile_qr_scan", "ios": "https://dc.lft.to/lastmile_qr_scan"}, "fusion_lon": 0.0, "lat": 38.91636366666667, "bike_id": "95384ab65448aa387e3ce7038a0ad1d6", "type": "electric_scooter", "is_reserved": 0, "lon": -77.04796483333334}, {"fusion_lat": 0.0, "name": "090967f1b760479aca90306487ef2531", "is_disabled": 0, "rental_uris": {"android": "https://dc.lft.to/lastmile_qr_scan", "ios": "https://dc.lft.to/lastmile_qr_scan"}, "fusion_lon": 0.0, "lat": 38.88161733333333, "bike_id": "090967f1b760479aca90306487ef2531", "type": "electric_scooter", "is_reserved": 0, "lon": -77.02768383333333}, {"fusion_lat": 0.0, "name": "a4fac3612e4b1f7e974738175cd74304", "is_disabled": 0, "rental_uris": {"android": "https://dc.lft.to/lastmile_qr_scan", "ios": "https://dc.lft.to/lastmile_qr_scan"}, "fusion_lon": 0.0, "lat": 38.894900166666666, "bike_id": "a4fac3612e4b1f7e974738175cd74304", "type": "electric_scooter", "is_reserved": 0, "lon": -77.01083333333334}, {"fusion_lat": 0.0, "name": "729f1f9be105e93d682b26cc99724f2e", "is_disabled": 0, "rental_uris": {"android": "https://dc.lft.to/lastmile_qr_scan", "ios": "https://dc.lft.to/lastmile_qr_scan"}, "fusion_lon": 0.0, "lat": 38.907332333333336, "bike_id": "729f1f9be105e93d682b26cc99724f2e", "type": "electric_scooter", "is_reserved": 0, "lon": -77.03995666666667}, {"fusion_lat": 0.0, "name": "699ecbfc9641e8063433b0710a89e550", "is_disabled": 0, "rental_uris": {"android": "https://dc.lft.to/lastmile_qr_scan", "ios": "https://dc.lft.to/lastmile_qr_scan"}, "fusion_lon": 0.0, "lat": 38.915619166666666, "bike_id": "699ecbfc9641e8063433b0710a89e550", "type": "electric_scooter", "is_reserved": 0, "lon": -77.03186466666666}, {"fusion_lat": 0.0, "name": "088bb322cbb24c1303da3c5d606f1878", "is_disabled": 0, "rental_uris": {"android": "https://dc.lft.to/lastmile_qr_scan", "ios": "https://dc.lft.to/lastmile_qr_scan"}, "fusion_lon": 0.0, "lat": 38.9304465, "bike_id": "088bb322cbb24c1303da3c5d606f1878", "type": "electric_scooter", "is_reserved": 0, "lon": -77.04064883333334}, {"fusion_lat": 0.0, "name": "89d52d7cc04a9885efd41ef2457b415f", "is_disabled": 0, "rental_uris": {"android": "https://dc.lft.to/lastmile_qr_scan", "ios": "https://dc.lft.to/lastmile_qr_scan"}, "fusion_lon": 0.0, "lat": 38.92048066666667, "bike_id": "89d52d7cc04a9885efd41ef2457b415f", "type": "electric_scooter", "is_reserved": 0, "lon": -77.0321065}, {"fusion_lat": 0.0, "name": "cbb2aa0d9946802c12e109721e9e5cc3", "is_disabled": 0, "rental_uris": {"android": "https://dc.lft.to/lastmile_qr_scan", "ios": "https://dc.lft.to/lastmile_qr_scan"}, "fusion_lon": 0.0, "lat": 38.91915483333333, "bike_id": "cbb2aa0d9946802c12e109721e9e5cc3", "type": "electric_scooter", "is_reserved": 0, "lon": -77.01216866666667}, {"fusion_lat": 0.0, "name": "d7e208d0ddd6cbed24ada7e907934de7", "is_disabled": 0, "rental_uris": {"android": "https://dc.lft.to/lastmile_qr_scan", "ios": "https://dc.lft.to/lastmile_qr_scan"}, "fusion_lon": 0.0, "lat": 38.95616583333333, "bike_id": "d7e208d0ddd6cbed24ada7e907934de7", "type": "electric_bike", "is_reserved": 0, "lon": -76.93871333333334}, {"fusion_lat": 0.0, "name": "a82324945cdf10eedc164cdcb1a462d7", "is_disabled": 0, "rental_uris": {"android": "https://dc.lft.to/lastmile_qr_scan", "ios": "https://dc.lft.to/lastmile_qr_scan"}, "fusion_lon": 0.0, "lat": 38.91681283333333, "bike_id": "a82324945cdf10eedc164cdcb1a462d7", "type": "electric_scooter", "is_reserved": 0, "lon": -77.0297215}, {"fusion_lat": 0.0, "name": "d131cf8f2db2efdbbd9b2d5b9dccfa00", "is_disabled": 0, "rental_uris": {"android": "https://dc.lft.to/lastmile_qr_scan", "ios": "https://dc.lft.to/lastmile_qr_scan"}, "fusion_lon": 0.0, "lat": 38.90271166666667, "bike_id": "d131cf8f2db2efdbbd9b2d5b9dccfa00", "type": "electric_scooter", "is_reserved": 0, "lon": -77.03656183333334}, {"fusion_lat": 0.0, "name": "78b40abaaca11e092b3912186e9e2a46", "is_disabled": 0, "rental_uris": {"android": "https://dc.lft.to/lastmile_qr_scan", "ios": "https://dc.lft.to/lastmile_qr_scan"}, "fusion_lon": 0.0, "lat": 38.9300405, "bike_id": "78b40abaaca11e092b3912186e9e2a46", "type": "electric_scooter", "is_reserved": 0, "lon": -77.02114016666667}, {"fusion_lat": 0.0, "name": "fefebd3a9a37983a546ccdfc8bfb1274", "is_disabled": 0, "rental_uris": {"android": "https://dc.lft.to/lastmile_qr_scan", "ios": "https://dc.lft.to/lastmile_qr_scan"}, "fusion_lon": 0.0, "lat": 38.9452475, "bike_id": "fefebd3a9a37983a546ccdfc8bfb1274", "type": "electric_scooter", "is_reserved": 0, "lon": -77.02084666666667}, {"fusion_lat": 0.0, "name": "a57b6130204c0be2b23ebcabd8a8166c", "is_disabled": 0, "rental_uris": {"android": "https://dc.lft.to/lastmile_qr_scan", "ios": "https://dc.lft.to/lastmile_qr_scan"}, "fusion_lon": 0.0, "lat": 39.010725, "bike_id": "a57b6130204c0be2b23ebcabd8a8166c", "type": "electric_bike", "is_reserved": 0, "lon": -76.9106665}, {"fusion_lat": 0.0, "name": "754b59d465ecd94d3341360d33c6d89a", "is_disabled": 0, "rental_uris": {"android": "https://dc.lft.to/lastmile_qr_scan", "ios": "https://dc.lft.to/lastmile_qr_scan"}, "fusion_lon": 0.0, "lat": 38.92077316666666, "bike_id": "754b59d465ecd94d3341360d33c6d89a", "type": "electric_scooter", "is_reserved": 0, "lon": -77.02304433333333}, {"fusion_lat": 0.0, "name": "4b3af5044dfe77fd4055dfd1a4621d4d", "is_disabled": 0, "rental_uris": {"android": "https://dc.lft.to/lastmile_qr_scan", "ios": "https://dc.lft.to/lastmile_qr_scan"}, "fusion_lon": 0.0, "lat": 38.9140385, "bike_id": "4b3af5044dfe77fd4055dfd1a4621d4d", "type": "electric_scooter", "is_reserved": 0, "lon": -77.03228783333333}, {"fusion_lat": 0.0, "name": "700a7db229786af671224289cdb671be", "is_disabled": 0, "rental_uris": {"android": "https://dc.lft.to/lastmile_qr_scan", "ios": "https://dc.lft.to/lastmile_qr_scan"}, "fusion_lon": 0.0, "lat": 38.91076616666667, "bike_id": "700a7db229786af671224289cdb671be", "type": "electric_scooter", "is_reserved": 0, "lon": -77.06726966666666}, {"fusion_lat": 0.0, "name": "4d4203b6fa2e6946d8ea8e8f27e38fcd", "is_disabled": 0, "rental_uris": {"android": "https://dc.lft.to/lastmile_qr_scan", "ios": "https://dc.lft.to/lastmile_qr_scan"}, "fusion_lon": 0.0, "lat": 38.907599833333336, "bike_id": "4d4203b6fa2e6946d8ea8e8f27e38fcd", "type": "electric_scooter", "is_reserved": 0, "lon": -77.0565345}, {"fusion_lat": 0.0, "name": "c4c0bdb68aac4f992158c612afc5a1c2", "is_disabled": 0, "rental_uris": {"android": "https://dc.lft.to/lastmile_qr_scan", "ios": "https://dc.lft.to/lastmile_qr_scan"}, "fusion_lon": 0.0, "lat": 38.88145316666667, "bike_id": "c4c0bdb68aac4f992158c612afc5a1c2", "type": "electric_scooter", "is_reserved": 0, "lon": -76.99505166666667}, {"fusion_lat": 0.0, "name": "5a8420dfee53bb9db9c33b8d7a0f1132", "is_disabled": 0, "rental_uris": {"android": "https://dc.lft.to/lastmile_qr_scan", "ios": "https://dc.lft.to/lastmile_qr_scan"}, "fusion_lon": 0.0, "lat": 38.797567, "bike_id": "5a8420dfee53bb9db9c33b8d7a0f1132", "type": "electric_bike", "is_reserved": 0, "lon": -77.04752066666667}, {"fusion_lat": 0.0, "name": "d78b5c326582f73d6185bd19754c64ba", "is_disabled": 0, "rental_uris": {"android": "https://dc.lft.to/lastmile_qr_scan", "ios": "https://dc.lft.to/lastmile_qr_scan"}, "fusion_lon": 0.0, "lat": 38.88499366666667, "bike_id": "d78b5c326582f73d6185bd19754c64ba", "type": "electric_scooter", "is_reserved": 0, "lon": -77.01728783333333}, {"fusion_lat": 0.0, "name": "520a367f2bbf80508a1b2f5891c651e1", "is_disabled": 0, "rental_uris": {"android": "https://dc.lft.to/lastmile_qr_scan", "ios": "https://dc.lft.to/lastmile_qr_scan"}, "fusion_lon": 0.0, "lat": 38.922291666666666, "bike_id": "520a367f2bbf80508a1b2f5891c651e1", "type": "electric_scooter", "is_reserved": 0, "lon": -77.02367966666667}, {"fusion_lat": 0.0, "name": "43e450db9f1999159bde93f9a36df9f2", "is_disabled": 0, "rental_uris": {"android": "https://dc.lft.to/lastmile_qr_scan", "ios": "https://dc.lft.to/lastmile_qr_scan"}, "fusion_lon": 0.0, "lat": 38.827880666666665, "bike_id": "43e450db9f1999159bde93f9a36df9f2", "type": "electric_bike", "is_reserved": 0, "lon": -77.12491716666666}, {"fusion_lat": 0.0, "name": "fd14ff4b6cf04e1620754110901a916c", "is_disabled": 0, "rental_uris": {"android": "https://dc.lft.to/lastmile_qr_scan", "ios": "https://dc.lft.to/lastmile_qr_scan"}, "fusion_lon": 0.0, "lat": 38.939623166666664, "bike_id": "fd14ff4b6cf04e1620754110901a916c", "type": "electric_scooter", "is_reserved": 0, "lon": -77.03284933333333}, {"fusion_lat": 0.0, "name": "aacc035df1299dad0b7de1137de67117", "is_disabled": 0, "rental_uris": {"android": "https://dc.lft.to/lastmile_qr_scan", "ios": "https://dc.lft.to/lastmile_qr_scan"}, "fusion_lon": 0.0, "lat": 38.88321966666667, "bike_id": "aacc035df1299dad0b7de1137de67117", "type": "electric_bike", "is_reserved": 0, "lon": -76.96059933333333}, {"fusion_lat": 0.0, "name": "400f0007d64004b3c9f0a423097b69a9", "is_disabled": 0, "rental_uris": {"android": "https://dc.lft.to/lastmile_qr_scan", "ios": "https://dc.lft.to/lastmile_qr_scan"}, "fusion_lon": 0.0, "lat": 38.914049166666665, "bike_id": "400f0007d64004b3c9f0a423097b69a9", "type": "electric_scooter", "is_reserved": 0, "lon": -77.03219583333333}, {"fusion_lat": 0.0, "name": "2f1b2c5e102d8656116dbe102d5dff3d", "is_disabled": 0, "rental_uris": {"android": "https://dc.lft.to/lastmile_qr_scan", "ios": "https://dc.lft.to/lastmile_qr_scan"}, "fusion_lon": 0.0, "lat": 38.95585366666667, "bike_id": "2f1b2c5e102d8656116dbe102d5dff3d", "type": "electric_scooter", "is_reserved": 0, "lon": -77.02808966666667}, {"fusion_lat": 0.0, "name": "81360decde862964baadf7e21b1186d1", "is_disabled": 0, "rental_uris": {"android": "https://dc.lft.to/lastmile_qr_scan", "ios": "https://dc.lft.to/lastmile_qr_scan"}, "fusion_lon": 0.0, "lat": 38.874664, "bike_id": "81360decde862964baadf7e21b1186d1", "type": "electric_scooter", "is_reserved": 0, "lon": -77.00469633333333}, {"fusion_lat": 0.0, "name": "d97ec72fb8d79bf957116de2558cbc39", "is_disabled": 0, "rental_uris": {"android": "https://dc.lft.to/lastmile_qr_scan", "ios": "https://dc.lft.to/lastmile_qr_scan"}, "fusion_lon": 0.0, "lat": 38.91577366666667, "bike_id": "d97ec72fb8d79bf957116de2558cbc39", "type": "electric_scooter", "is_reserved": 0, "lon": -77.01234066666666}, {"fusion_lat": 0.0, "name": "b2c24cfb73aa6a343ebae7378d4f5cb5", "is_disabled": 0, "rental_uris": {"android": "https://dc.lft.to/lastmile_qr_scan", "ios": "https://dc.lft.to/lastmile_qr_scan"}, "fusion_lon": 0.0, "lat": 38.87655016666667, "bike_id": "b2c24cfb73aa6a343ebae7378d4f5cb5", "type": "electric_scooter", "is_reserved": 0, "lon": -77.00291916666667}, {"fusion_lat": 0.0, "name": "55a98054f7adb62b8181e1a5fb6e45f1", "is_disabled": 0, "rental_uris": {"android": "https://dc.lft.to/lastmile_qr_scan", "ios": "https://dc.lft.to/lastmile_qr_scan"}, "fusion_lon": 0.0, "lat": 38.90085033333333, "bike_id": "55a98054f7adb62b8181e1a5fb6e45f1", "type": "electric_scooter", "is_reserved": 0, "lon": -77.047493}, {"fusion_lat": 0.0, "name": "a661a5710b115663c886eb0c3271259a", "is_disabled": 0, "rental_uris": {"android": "https://dc.lft.to/lastmile_qr_scan", "ios": "https://dc.lft.to/lastmile_qr_scan"}, "fusion_lon": 0.0, "lat": 38.8947655, "bike_id": "a661a5710b115663c886eb0c3271259a", "type": "electric_scooter", "is_reserved": 0, "lon": -77.010837}, {"fusion_lat": 0.0, "name": "ceae839d56f56bb4dfd4b2fbf2f14da0", "is_disabled": 0, "rental_uris": {"android": "https://dc.lft.to/lastmile_qr_scan", "ios": "https://dc.lft.to/lastmile_qr_scan"}, "fusion_lon": 0.0, "lat": 38.9554785, "bike_id": "ceae839d56f56bb4dfd4b2fbf2f14da0", "type": "electric_bike", "is_reserved": 0, "lon": -77.06932883333333}, {"fusion_lat": 0.0, "name": "13daea98799637a7cde14a56a7ddf765", "is_disabled": 0, "rental_uris": {"android": "https://dc.lft.to/lastmile_qr_scan", "ios": "https://dc.lft.to/lastmile_qr_scan"}, "fusion_lon": 0.0, "lat": 38.88623533333333, "bike_id": "13daea98799637a7cde14a56a7ddf765", "type": "electric_scooter", "is_reserved": 0, "lon": -77.01533733333333}, {"fusion_lat": 0.0, "name": "c7a87a817b746c881f6e5ef500649498", "is_disabled": 0, "rental_uris": {"android": "https://dc.lft.to/lastmile_qr_scan", "ios": "https://dc.lft.to/lastmile_qr_scan"}, "fusion_lon": 0.0, "lat": 38.913998, "bike_id": "c7a87a817b746c881f6e5ef500649498", "type": "electric_scooter", "is_reserved": 0, "lon": -77.03177816666667}, {"fusion_lat": 0.0, "name": "c993db248062c4859a7ac6ef8ffc9e7a", "is_disabled": 0, "rental_uris": {"android": "https://dc.lft.to/lastmile_qr_scan", "ios": "https://dc.lft.to/lastmile_qr_scan"}, "fusion_lon": 0.0, "lat": 38.9047145, "bike_id": "c993db248062c4859a7ac6ef8ffc9e7a", "type": "electric_scooter", "is_reserved": 0, "lon": -76.95199766666667}, {"fusion_lat": 0.0, "name": "ac3985a8190d3f7483cafcd26235c13f", "is_disabled": 0, "rental_uris": {"android": "https://dc.lft.to/lastmile_qr_scan", "ios": "https://dc.lft.to/lastmile_qr_scan"}, "fusion_lon": 0.0, "lat": 38.9161955, "bike_id": "ac3985a8190d3f7483cafcd26235c13f", "type": "electric_scooter", "is_reserved": 0, "lon": -77.03854733333333}, {"fusion_lat": 0.0, "name": "d5ee08b10b36df25350ce731c192c390", "is_disabled": 0, "rental_uris": {"android": "https://dc.lft.to/lastmile_qr_scan", "ios": "https://dc.lft.to/lastmile_qr_scan"}, "fusion_lon": 0.0, "lat": 38.93046, "bike_id": "d5ee08b10b36df25350ce731c192c390", "type": "electric_scooter", "is_reserved": 0, "lon": -77.03357883333334}, {"fusion_lat": 0.0, "name": "e1432581f302da583e4c0d544c3f252e", "is_disabled": 0, "rental_uris": {"android": "https://dc.lft.to/lastmile_qr_scan", "ios": "https://dc.lft.to/lastmile_qr_scan"}, "fusion_lon": 0.0, "lat": 38.949185166666666, "bike_id": "e1432581f302da583e4c0d544c3f252e", "type": "electric_scooter", "is_reserved": 0, "lon": -77.01854233333333}, {"fusion_lat": 0.0, "name": "38d8fb7b3d37d36bbf53e0da37cc87d7", "is_disabled": 0, "rental_uris": {"android": "https://dc.lft.to/lastmile_qr_scan", "ios": "https://dc.lft.to/lastmile_qr_scan"}, "fusion_lon": 0.0, "lat": 38.88119183333333, "bike_id": "38d8fb7b3d37d36bbf53e0da37cc87d7", "type": "electric_scooter", "is_reserved": 0, "lon": -76.99513316666666}, {"fusion_lat": 0.0, "name": "620a27167bd3f80fd0e4a000bd811fec", "is_disabled": 0, "rental_uris": {"android": "https://dc.lft.to/lastmile_qr_scan", "ios": "https://dc.lft.to/lastmile_qr_scan"}, "fusion_lon": 0.0, "lat": 38.893624, "bike_id": "620a27167bd3f80fd0e4a000bd811fec", "type": "electric_scooter", "is_reserved": 0, "lon": -77.000768}, {"fusion_lat": 0.0, "name": "8c2e005b4aec4e1916574c15a6f69910", "is_disabled": 0, "rental_uris": {"android": "https://dc.lft.to/lastmile_qr_scan", "ios": "https://dc.lft.to/lastmile_qr_scan"}, "fusion_lon": 0.0, "lat": 38.91067816666666, "bike_id": "8c2e005b4aec4e1916574c15a6f69910", "type": "electric_scooter", "is_reserved": 0, "lon": -77.03838466666667}, {"fusion_lat": 0.0, "name": "77990571052e47e8a8ab341e1eef0aa6", "is_disabled": 0, "rental_uris": {"android": "https://dc.lft.to/lastmile_qr_scan", "ios": "https://dc.lft.to/lastmile_qr_scan"}, "fusion_lon": 0.0, "lat": 38.92786483333333, "bike_id": "77990571052e47e8a8ab341e1eef0aa6", "type": "electric_scooter", "is_reserved": 0, "lon": -77.032131}, {"fusion_lat": 0.0, "name": "9c04912a482ee4f3f997602071f41903", "is_disabled": 0, "rental_uris": {"android": "https://dc.lft.to/lastmile_qr_scan", "ios": "https://dc.lft.to/lastmile_qr_scan"}, "fusion_lon": 0.0, "lat": 38.92553616666667, "bike_id": "9c04912a482ee4f3f997602071f41903", "type": "electric_scooter", "is_reserved": 0, "lon": -77.077637}, {"fusion_lat": 0.0, "name": "409742b70ef865b045d98807599849d7", "is_disabled": 0, "rental_uris": {"android": "https://dc.lft.to/lastmile_qr_scan", "ios": "https://dc.lft.to/lastmile_qr_scan"}, "fusion_lon": 0.0, "lat": 38.937668333333335, "bike_id": "409742b70ef865b045d98807599849d7", "type": "electric_scooter", "is_reserved": 0, "lon": -77.0325825}, {"fusion_lat": 0.0, "name": "ed4ecb5f8baa806ea0418e4054f2f0fa", "is_disabled": 0, "rental_uris": {"android": "https://dc.lft.to/lastmile_qr_scan", "ios": "https://dc.lft.to/lastmile_qr_scan"}, "fusion_lon": 0.0, "lat": 38.87831666666666, "bike_id": "ed4ecb5f8baa806ea0418e4054f2f0fa", "type": "electric_scooter", "is_reserved": 0, "lon": -76.96320133333333}, {"fusion_lat": 0.0, "name": "c794d9dfc8640e159cff1349bd188b43", "is_disabled": 0, "rental_uris": {"android": "https://dc.lft.to/lastmile_qr_scan", "ios": "https://dc.lft.to/lastmile_qr_scan"}, "fusion_lon": 0.0, "lat": 38.9170195, "bike_id": "c794d9dfc8640e159cff1349bd188b43", "type": "electric_scooter", "is_reserved": 0, "lon": -77.01132133333333}, {"fusion_lat": 0.0, "name": "ce5053875f988e790d6dc8a3f7707762", "is_disabled": 0, "rental_uris": {"android": "https://dc.lft.to/lastmile_qr_scan", "ios": "https://dc.lft.to/lastmile_qr_scan"}, "fusion_lon": 0.0, "lat": 38.91306683333333, "bike_id": "ce5053875f988e790d6dc8a3f7707762", "type": "electric_scooter", "is_reserved": 0, "lon": -77.04882983333333}, {"fusion_lat": 0.0, "name": "9f2600826cf77bab01d816bceeb1017a", "is_disabled": 0, "rental_uris": {"android": "https://dc.lft.to/lastmile_qr_scan", "ios": "https://dc.lft.to/lastmile_qr_scan"}, "fusion_lon": 0.0, "lat": 38.89282866666667, "bike_id": "9f2600826cf77bab01d816bceeb1017a", "type": "electric_scooter", "is_reserved": 0, "lon": -76.98309833333333}, {"fusion_lat": 0.0, "name": "22b91a2f1a13269698acc662a9c4afe7", "is_disabled": 0, "rental_uris": {"android": "https://dc.lft.to/lastmile_qr_scan", "ios": "https://dc.lft.to/lastmile_qr_scan"}, "fusion_lon": 0.0, "lat": 38.804910166666666, "bike_id": "22b91a2f1a13269698acc662a9c4afe7", "type": "electric_bike", "is_reserved": 0, "lon": -77.101649}, {"fusion_lat": 0.0, "name": "0b42650e48c5ff38b463304e75284890", "is_disabled": 0, "rental_uris": {"android": "https://dc.lft.to/lastmile_qr_scan", "ios": "https://dc.lft.to/lastmile_qr_scan"}, "fusion_lon": 0.0, "lat": 38.91085483333333, "bike_id": "0b42650e48c5ff38b463304e75284890", "type": "electric_scooter", "is_reserved": 0, "lon": -77.06503866666667}, {"fusion_lat": 0.0, "name": "bb1fd0ba7034b39b8ac8c9eff283f6f1", "is_disabled": 0, "rental_uris": {"android": "https://dc.lft.to/lastmile_qr_scan", "ios": "https://dc.lft.to/lastmile_qr_scan"}, "fusion_lon": 0.0, "lat": 38.873749833333335, "bike_id": "bb1fd0ba7034b39b8ac8c9eff283f6f1", "type": "electric_scooter", "is_reserved": 0, "lon": -77.00039733333334}, {"fusion_lat": 0.0, "name": "146ad83483e335cf948faeb06b7088da", "is_disabled": 0, "rental_uris": {"android": "https://dc.lft.to/lastmile_qr_scan", "ios": "https://dc.lft.to/lastmile_qr_scan"}, "fusion_lon": 0.0, "lat": 38.905627833333334, "bike_id": "146ad83483e335cf948faeb06b7088da", "type": "electric_scooter", "is_reserved": 0, "lon": -77.06259216666666}, {"fusion_lat": 0.0, "name": "56e01f873b9b059a417f0c94af685c74", "is_disabled": 0, "rental_uris": {"android": "https://dc.lft.to/lastmile_qr_scan", "ios": "https://dc.lft.to/lastmile_qr_scan"}, "fusion_lon": 0.0, "lat": 38.91790066666667, "bike_id": "56e01f873b9b059a417f0c94af685c74", "type": "electric_scooter", "is_reserved": 0, "lon": -77.0228095}, {"fusion_lat": 0.0, "name": "e6b2a602e2e78b3cbfd6186aa4672487", "is_disabled": 0, "rental_uris": {"android": "https://dc.lft.to/lastmile_qr_scan", "ios": "https://dc.lft.to/lastmile_qr_scan"}, "fusion_lon": 0.0, "lat": 38.90983216666667, "bike_id": "e6b2a602e2e78b3cbfd6186aa4672487", "type": "electric_scooter", "is_reserved": 0, "lon": -77.0338735}, {"fusion_lat": 0.0, "name": "bac15c32f1daa2898b12996067638b8a", "is_disabled": 0, "rental_uris": {"android": "https://dc.lft.to/lastmile_qr_scan", "ios": "https://dc.lft.to/lastmile_qr_scan"}, "fusion_lon": 0.0, "lat": 38.90401466666667, "bike_id": "bac15c32f1daa2898b12996067638b8a", "type": "electric_scooter", "is_reserved": 0, "lon": -76.973313}, {"fusion_lat": 0.0, "name": "d1dfc4bd2d9b7fc0d618a5bf0f7f5f18", "is_disabled": 0, "rental_uris": {"android": "https://dc.lft.to/lastmile_qr_scan", "ios": "https://dc.lft.to/lastmile_qr_scan"}, "fusion_lon": 0.0, "lat": 38.841314833333335, "bike_id": "d1dfc4bd2d9b7fc0d618a5bf0f7f5f18", "type": "electric_bike", "is_reserved": 0, "lon": -76.94763166666667}, {"fusion_lat": 0.0, "name": "bff6f8c8de074c1c5a2ee74250e08751", "is_disabled": 0, "rental_uris": {"android": "https://dc.lft.to/lastmile_qr_scan", "ios": "https://dc.lft.to/lastmile_qr_scan"}, "fusion_lon": 0.0, "lat": 38.88131216666667, "bike_id": "bff6f8c8de074c1c5a2ee74250e08751", "type": "electric_scooter", "is_reserved": 0, "lon": -77.01648766666666}, {"fusion_lat": 0.0, "name": "4fc15d143f81806dd3c521fd230c7bd9", "is_disabled": 0, "rental_uris": {"android": "https://dc.lft.to/lastmile_qr_scan", "ios": "https://dc.lft.to/lastmile_qr_scan"}, "fusion_lon": 0.0, "lat": 38.925537166666665, "bike_id": "4fc15d143f81806dd3c521fd230c7bd9", "type": "electric_scooter", "is_reserved": 0, "lon": -77.05295666666666}, {"fusion_lat": 0.0, "name": "35566191698a24fbe804ca11ca9f8bf3", "is_disabled": 0, "rental_uris": {"android": "https://dc.lft.to/lastmile_qr_scan", "ios": "https://dc.lft.to/lastmile_qr_scan"}, "fusion_lon": 0.0, "lat": 38.8844155, "bike_id": "35566191698a24fbe804ca11ca9f8bf3", "type": "electric_scooter", "is_reserved": 0, "lon": -77.0250475}, {"fusion_lat": 0.0, "name": "bce0643ddb85b8fdec831c480c4aae83", "is_disabled": 0, "rental_uris": {"android": "https://dc.lft.to/lastmile_qr_scan", "ios": "https://dc.lft.to/lastmile_qr_scan"}, "fusion_lon": 0.0, "lat": 38.864582666666664, "bike_id": "bce0643ddb85b8fdec831c480c4aae83", "type": "electric_bike", "is_reserved": 0, "lon": -76.94536233333334}, {"fusion_lat": 0.0, "name": "8904e051fd6f9825cc73152c3fe7d27c", "is_disabled": 0, "rental_uris": {"android": "https://dc.lft.to/lastmile_qr_scan", "ios": "https://dc.lft.to/lastmile_qr_scan"}, "fusion_lon": 0.0, "lat": 38.900189166666664, "bike_id": "8904e051fd6f9825cc73152c3fe7d27c", "type": "electric_scooter", "is_reserved": 0, "lon": -77.002186}, {"fusion_lat": 0.0, "name": "0aba611c873a486ffdf9462f89ba4396", "is_disabled": 0, "rental_uris": {"android": "https://dc.lft.to/lastmile_qr_scan", "ios": "https://dc.lft.to/lastmile_qr_scan"}, "fusion_lon": 0.0, "lat": 38.931916333333334, "bike_id": "0aba611c873a486ffdf9462f89ba4396", "type": "electric_scooter", "is_reserved": 0, "lon": -77.0429635}, {"fusion_lat": 0.0, "name": "6d21b9ae3f68f8f8eab533b87bb44606", "is_disabled": 0, "rental_uris": {"android": "https://dc.lft.to/lastmile_qr_scan", "ios": "https://dc.lft.to/lastmile_qr_scan"}, "fusion_lon": 0.0, "lat": 38.88851066666667, "bike_id": "6d21b9ae3f68f8f8eab533b87bb44606", "type": "electric_scooter", "is_reserved": 0, "lon": -76.92680166666666}, {"fusion_lat": 0.0, "name": "45e241ea228e0e845690742577e4e2b5", "is_disabled": 0, "rental_uris": {"android": "https://dc.lft.to/lastmile_qr_scan", "ios": "https://dc.lft.to/lastmile_qr_scan"}, "fusion_lon": 0.0, "lat": 38.89727466666667, "bike_id": "45e241ea228e0e845690742577e4e2b5", "type": "electric_scooter", "is_reserved": 0, "lon": -77.00757633333333}, {"fusion_lat": 0.0, "name": "b3a7f4418a23b3eb87a7a07060615837", "is_disabled": 0, "rental_uris": {"android": "https://dc.lft.to/lastmile_qr_scan", "ios": "https://dc.lft.to/lastmile_qr_scan"}, "fusion_lon": 0.0, "lat": 38.909469, "bike_id": "b3a7f4418a23b3eb87a7a07060615837", "type": "electric_scooter", "is_reserved": 0, "lon": -76.98768416666667}, {"fusion_lat": 0.0, "name": "ef9eaea64810cda73a5b8d90e4e639ba", "is_disabled": 0, "rental_uris": {"android": "https://dc.lft.to/lastmile_qr_scan", "ios": "https://dc.lft.to/lastmile_qr_scan"}, "fusion_lon": 0.0, "lat": 38.903245166666665, "bike_id": "ef9eaea64810cda73a5b8d90e4e639ba", "type": "electric_scooter", "is_reserved": 0, "lon": -77.0289355}, {"fusion_lat": 0.0, "name": "529a15a54ad4e8c47073f0bf8de6e114", "is_disabled": 0, "rental_uris": {"android": "https://dc.lft.to/lastmile_qr_scan", "ios": "https://dc.lft.to/lastmile_qr_scan"}, "fusion_lon": 0.0, "lat": 38.89469533333333, "bike_id": "529a15a54ad4e8c47073f0bf8de6e114", "type": "electric_scooter", "is_reserved": 0, "lon": -77.02122433333334}, {"fusion_lat": 0.0, "name": "6b94b60058324562fb729613615115df", "is_disabled": 0, "rental_uris": {"android": "https://dc.lft.to/lastmile_qr_scan", "ios": "https://dc.lft.to/lastmile_qr_scan"}, "fusion_lon": 0.0, "lat": 38.88488666666667, "bike_id": "6b94b60058324562fb729613615115df", "type": "electric_scooter", "is_reserved": 0, "lon": -77.0108535}, {"fusion_lat": 0.0, "name": "e2da98df8d998ba4f93aeb910c966fda", "is_disabled": 0, "rental_uris": {"android": "https://dc.lft.to/lastmile_qr_scan", "ios": "https://dc.lft.to/lastmile_qr_scan"}, "fusion_lon": 0.0, "lat": 38.922804666666664, "bike_id": "e2da98df8d998ba4f93aeb910c966fda", "type": "electric_scooter", "is_reserved": 0, "lon": -76.99774383333333}, {"fusion_lat": 0.0, "name": "618e51cce1fdbba4f7dc2cbba6ea479b", "is_disabled": 0, "rental_uris": {"android": "https://dc.lft.to/lastmile_qr_scan", "ios": "https://dc.lft.to/lastmile_qr_scan"}, "fusion_lon": 0.0, "lat": 38.908877, "bike_id": "618e51cce1fdbba4f7dc2cbba6ea479b", "type": "electric_scooter", "is_reserved": 0, "lon": -77.03659366666666}, {"fusion_lat": 0.0, "name": "f8115534685fc93c7da0caaa12f9ecfb", "is_disabled": 0, "rental_uris": {"android": "https://dc.lft.to/lastmile_qr_scan", "ios": "https://dc.lft.to/lastmile_qr_scan"}, "fusion_lon": 0.0, "lat": 38.90419583333333, "bike_id": "f8115534685fc93c7da0caaa12f9ecfb", "type": "electric_scooter", "is_reserved": 0, "lon": -77.0513095}, {"fusion_lat": 0.0, "name": "bf6a3d3090bcd3c57971ceddfe3aa23a", "is_disabled": 0, "rental_uris": {"android": "https://dc.lft.to/lastmile_qr_scan", "ios": "https://dc.lft.to/lastmile_qr_scan"}, "fusion_lon": 0.0, "lat": 38.93701633333333, "bike_id": "bf6a3d3090bcd3c57971ceddfe3aa23a", "type": "electric_scooter", "is_reserved": 0, "lon": -77.06101416666667}, {"fusion_lat": 0.0, "name": "524e354bfa5461ec2b0a8d4a515f460f", "is_disabled": 0, "rental_uris": {"android": "https://dc.lft.to/lastmile_qr_scan", "ios": "https://dc.lft.to/lastmile_qr_scan"}, "fusion_lon": 0.0, "lat": 38.84835183333333, "bike_id": "524e354bfa5461ec2b0a8d4a515f460f", "type": "electric_bike", "is_reserved": 0, "lon": -77.07918983333333}, {"fusion_lat": 0.0, "name": "4ad0c52a02e42afafa10e88fdc3b1ca9", "is_disabled": 0, "rental_uris": {"android": "https://dc.lft.to/lastmile_qr_scan", "ios": "https://dc.lft.to/lastmile_qr_scan"}, "fusion_lon": 0.0, "lat": 38.9076785, "bike_id": "4ad0c52a02e42afafa10e88fdc3b1ca9", "type": "electric_scooter", "is_reserved": 0, "lon": -77.0346485}, {"fusion_lat": 0.0, "name": "cb97ae41dc5750220d1db07aed4f7880", "is_disabled": 0, "rental_uris": {"android": "https://dc.lft.to/lastmile_qr_scan", "ios": "https://dc.lft.to/lastmile_qr_scan"}, "fusion_lon": 0.0, "lat": 38.90025116666666, "bike_id": "cb97ae41dc5750220d1db07aed4f7880", "type": "electric_scooter", "is_reserved": 0, "lon": -76.99136483333334}, {"fusion_lat": 0.0, "name": "2a94da7a15c4d49abb47adcd2c8efa7a", "is_disabled": 0, "rental_uris": {"android": "https://dc.lft.to/lastmile_qr_scan", "ios": "https://dc.lft.to/lastmile_qr_scan"}, "fusion_lon": 0.0, "lat": 38.88399616666667, "bike_id": "2a94da7a15c4d49abb47adcd2c8efa7a", "type": "electric_scooter", "is_reserved": 0, "lon": -77.01993166666666}, {"fusion_lat": 0.0, "name": "fc2aa9a4e2e1f6a21215a50a726bbee0", "is_disabled": 0, "rental_uris": {"android": "https://dc.lft.to/lastmile_qr_scan", "ios": "https://dc.lft.to/lastmile_qr_scan"}, "fusion_lon": 0.0, "lat": 38.90664683333333, "bike_id": "fc2aa9a4e2e1f6a21215a50a726bbee0", "type": "electric_scooter", "is_reserved": 0, "lon": -77.02212416666667}, {"fusion_lat": 0.0, "name": "1eb83baeda7dfa77a4e9782cc08fab44", "is_disabled": 0, "rental_uris": {"android": "https://dc.lft.to/lastmile_qr_scan", "ios": "https://dc.lft.to/lastmile_qr_scan"}, "fusion_lon": 0.0, "lat": 38.91026816666667, "bike_id": "1eb83baeda7dfa77a4e9782cc08fab44", "type": "electric_scooter", "is_reserved": 0, "lon": -77.00762966666667}, {"fusion_lat": 0.0, "name": "306efc4cf448fc7ffcf8d7a1af850cbb", "is_disabled": 0, "rental_uris": {"android": "https://dc.lft.to/lastmile_qr_scan", "ios": "https://dc.lft.to/lastmile_qr_scan"}, "fusion_lon": 0.0, "lat": 38.928650166666664, "bike_id": "306efc4cf448fc7ffcf8d7a1af850cbb", "type": "electric_scooter", "is_reserved": 0, "lon": -76.995639}, {"fusion_lat": 0.0, "name": "8ae0d287844a2c81442744cd749cb690", "is_disabled": 0, "rental_uris": {"android": "https://dc.lft.to/lastmile_qr_scan", "ios": "https://dc.lft.to/lastmile_qr_scan"}, "fusion_lon": 0.0, "lat": 38.880139666666665, "bike_id": "8ae0d287844a2c81442744cd749cb690", "type": "electric_bike", "is_reserved": 0, "lon": -77.024705}, {"fusion_lat": 0.0, "name": "ad7400b979a1d2abdb3aed99d9f31206", "is_disabled": 0, "rental_uris": {"android": "https://dc.lft.to/lastmile_qr_scan", "ios": "https://dc.lft.to/lastmile_qr_scan"}, "fusion_lon": 0.0, "lat": 38.917086, "bike_id": "ad7400b979a1d2abdb3aed99d9f31206", "type": "electric_scooter", "is_reserved": 0, "lon": -77.026839}, {"fusion_lat": 0.0, "name": "8eb5e54ae3717c422e744957f3b3a187", "is_disabled": 0, "rental_uris": {"android": "https://dc.lft.to/lastmile_qr_scan", "ios": "https://dc.lft.to/lastmile_qr_scan"}, "fusion_lon": 0.0, "lat": 38.903592333333336, "bike_id": "8eb5e54ae3717c422e744957f3b3a187", "type": "electric_scooter", "is_reserved": 0, "lon": -77.0072545}, {"fusion_lat": 0.0, "name": "856186b10088f05c92cbb316550bd4b3", "is_disabled": 0, "rental_uris": {"android": "https://dc.lft.to/lastmile_qr_scan", "ios": "https://dc.lft.to/lastmile_qr_scan"}, "fusion_lon": 0.0, "lat": 38.915768166666666, "bike_id": "856186b10088f05c92cbb316550bd4b3", "type": "electric_scooter", "is_reserved": 0, "lon": -77.01233016666667}, {"fusion_lat": 0.0, "name": "0550404a03668f97ffd84dc200aa2717", "is_disabled": 0, "rental_uris": {"android": "https://dc.lft.to/lastmile_qr_scan", "ios": "https://dc.lft.to/lastmile_qr_scan"}, "fusion_lon": 0.0, "lat": 38.884358, "bike_id": "0550404a03668f97ffd84dc200aa2717", "type": "electric_scooter", "is_reserved": 0, "lon": -77.02560183333334}, {"fusion_lat": 0.0, "name": "095363218e67ab33491329df6cd6f018", "is_disabled": 0, "rental_uris": {"android": "https://dc.lft.to/lastmile_qr_scan", "ios": "https://dc.lft.to/lastmile_qr_scan"}, "fusion_lon": 0.0, "lat": 38.888713833333334, "bike_id": "095363218e67ab33491329df6cd6f018", "type": "electric_scooter", "is_reserved": 0, "lon": -76.98455716666666}, {"fusion_lat": 0.0, "name": "e1a05f9815556ccd9086dbe051149819", "is_disabled": 0, "rental_uris": {"android": "https://dc.lft.to/lastmile_qr_scan", "ios": "https://dc.lft.to/lastmile_qr_scan"}, "fusion_lon": 0.0, "lat": 38.882547, "bike_id": "e1a05f9815556ccd9086dbe051149819", "type": "electric_scooter", "is_reserved": 0, "lon": -76.99035733333334}, {"fusion_lat": 0.0, "name": "0a264d7e31b5e5fa90813f81c45b10e8", "is_disabled": 0, "rental_uris": {"android": "https://dc.lft.to/lastmile_qr_scan", "ios": "https://dc.lft.to/lastmile_qr_scan"}, "fusion_lon": 0.0, "lat": 38.894774166666664, "bike_id": "0a264d7e31b5e5fa90813f81c45b10e8", "type": "electric_scooter", "is_reserved": 0, "lon": -76.99740683333333}, {"fusion_lat": 0.0, "name": "acdb350cdd296908e974e841a1fc4084", "is_disabled": 0, "rental_uris": {"android": "https://dc.lft.to/lastmile_qr_scan", "ios": "https://dc.lft.to/lastmile_qr_scan"}, "fusion_lon": 0.0, "lat": 38.90512666666667, "bike_id": "acdb350cdd296908e974e841a1fc4084", "type": "electric_scooter", "is_reserved": 0, "lon": -77.01712783333333}, {"fusion_lat": 0.0, "name": "8f97d67deb618a5ee439c961a40e30a2", "is_disabled": 0, "rental_uris": {"android": "https://dc.lft.to/lastmile_qr_scan", "ios": "https://dc.lft.to/lastmile_qr_scan"}, "fusion_lon": 0.0, "lat": 38.91654716666667, "bike_id": "8f97d67deb618a5ee439c961a40e30a2", "type": "electric_scooter", "is_reserved": 0, "lon": -77.038507}, {"fusion_lat": 0.0, "name": "b229273c262d9e5c2c0a13ad873fefed", "is_disabled": 0, "rental_uris": {"android": "https://dc.lft.to/lastmile_qr_scan", "ios": "https://dc.lft.to/lastmile_qr_scan"}, "fusion_lon": 0.0, "lat": 38.927938, "bike_id": "b229273c262d9e5c2c0a13ad873fefed", "type": "electric_scooter", "is_reserved": 0, "lon": -77.03148033333333}, {"fusion_lat": 0.0, "name": "1fdd64f33c8da35dfc6a3b50e2a841fc", "is_disabled": 0, "rental_uris": {"android": "https://dc.lft.to/lastmile_qr_scan", "ios": "https://dc.lft.to/lastmile_qr_scan"}, "fusion_lon": 0.0, "lat": 38.9065235, "bike_id": "1fdd64f33c8da35dfc6a3b50e2a841fc", "type": "electric_bike", "is_reserved": 0, "lon": -77.00891166666666}, {"fusion_lat": 0.0, "name": "867acbe9ddbb06e67d32530f0068840f", "is_disabled": 0, "rental_uris": {"android": "https://dc.lft.to/lastmile_qr_scan", "ios": "https://dc.lft.to/lastmile_qr_scan"}, "fusion_lon": 0.0, "lat": 38.9411875, "bike_id": "867acbe9ddbb06e67d32530f0068840f", "type": "electric_bike", "is_reserved": 0, "lon": -76.99033883333334}, {"fusion_lat": 0.0, "name": "cf21f3545bedf0a78538a31d692ca822", "is_disabled": 0, "rental_uris": {"android": "https://dc.lft.to/lastmile_qr_scan", "ios": "https://dc.lft.to/lastmile_qr_scan"}, "fusion_lon": 0.0, "lat": 38.884448166666665, "bike_id": "cf21f3545bedf0a78538a31d692ca822", "type": "electric_scooter", "is_reserved": 0, "lon": -77.02547966666667}, {"fusion_lat": 0.0, "name": "5fd9e769e2817de36205f9a455adb74b", "is_disabled": 0, "rental_uris": {"android": "https://dc.lft.to/lastmile_qr_scan", "ios": "https://dc.lft.to/lastmile_qr_scan"}, "fusion_lon": 0.0, "lat": 38.933826333333336, "bike_id": "5fd9e769e2817de36205f9a455adb74b", "type": "electric_scooter", "is_reserved": 0, "lon": -77.02416583333333}, {"fusion_lat": 0.0, "name": "4dbef2aa60f9fd4d09da51e8c7b1a822", "is_disabled": 0, "rental_uris": {"android": "https://dc.lft.to/lastmile_qr_scan", "ios": "https://dc.lft.to/lastmile_qr_scan"}, "fusion_lon": 0.0, "lat": 38.90056766666667, "bike_id": "4dbef2aa60f9fd4d09da51e8c7b1a822", "type": "electric_scooter", "is_reserved": 0, "lon": -77.013671}, {"fusion_lat": 0.0, "name": "cc179f6a8645a5b19fb560db0ea81d88", "is_disabled": 0, "rental_uris": {"android": "https://dc.lft.to/lastmile_qr_scan", "ios": "https://dc.lft.to/lastmile_qr_scan"}, "fusion_lon": 0.0, "lat": 38.920214, "bike_id": "cc179f6a8645a5b19fb560db0ea81d88", "type": "electric_scooter", "is_reserved": 0, "lon": -77.00200566666666}, {"fusion_lat": 0.0, "name": "d13b8845a8fdad736255094dbd215237", "is_disabled": 0, "rental_uris": {"android": "https://dc.lft.to/lastmile_qr_scan", "ios": "https://dc.lft.to/lastmile_qr_scan"}, "fusion_lon": 0.0, "lat": 38.9024585, "bike_id": "d13b8845a8fdad736255094dbd215237", "type": "electric_scooter", "is_reserved": 0, "lon": -77.01794533333333}, {"fusion_lat": 0.0, "name": "98fa7776e8cf0fec36baf53a6fa7ac20", "is_disabled": 0, "rental_uris": {"android": "https://dc.lft.to/lastmile_qr_scan", "ios": "https://dc.lft.to/lastmile_qr_scan"}, "fusion_lon": 0.0, "lat": 38.916564666666666, "bike_id": "98fa7776e8cf0fec36baf53a6fa7ac20", "type": "electric_scooter", "is_reserved": 0, "lon": -77.0280925}, {"fusion_lat": 0.0, "name": "42dd80e534ca3bd2ba7a0396a67b496c", "is_disabled": 0, "rental_uris": {"android": "https://dc.lft.to/lastmile_qr_scan", "ios": "https://dc.lft.to/lastmile_qr_scan"}, "fusion_lon": 0.0, "lat": 38.94896133333334, "bike_id": "42dd80e534ca3bd2ba7a0396a67b496c", "type": "electric_bike", "is_reserved": 0, "lon": -76.96367633333334}, {"fusion_lat": 0.0, "name": "ab10d1de7756ff861b9e7e4f90cbb4c4", "is_disabled": 0, "rental_uris": {"android": "https://dc.lft.to/lastmile_qr_scan", "ios": "https://dc.lft.to/lastmile_qr_scan"}, "fusion_lon": 0.0, "lat": 38.923182, "bike_id": "ab10d1de7756ff861b9e7e4f90cbb4c4", "type": "electric_scooter", "is_reserved": 0, "lon": -77.038278}, {"fusion_lat": 0.0, "name": "8681556d90ce74dfcc303815c408fdfe", "is_disabled": 0, "rental_uris": {"android": "https://dc.lft.to/lastmile_qr_scan", "ios": "https://dc.lft.to/lastmile_qr_scan"}, "fusion_lon": 0.0, "lat": 38.922975, "bike_id": "8681556d90ce74dfcc303815c408fdfe", "type": "electric_scooter", "is_reserved": 0, "lon": -77.018231}, {"fusion_lat": 0.0, "name": "4c62c8fe4d335deb5ec9ae97e01fbfa0", "is_disabled": 0, "rental_uris": {"android": "https://dc.lft.to/lastmile_qr_scan", "ios": "https://dc.lft.to/lastmile_qr_scan"}, "fusion_lon": 0.0, "lat": 38.916282333333335, "bike_id": "4c62c8fe4d335deb5ec9ae97e01fbfa0", "type": "electric_scooter", "is_reserved": 0, "lon": -77.031428}, {"fusion_lat": 0.0, "name": "74a2a3234911dcc6d5ffdd63ec9bb547", "is_disabled": 0, "rental_uris": {"android": "https://dc.lft.to/lastmile_qr_scan", "ios": "https://dc.lft.to/lastmile_qr_scan"}, "fusion_lon": 0.0, "lat": 38.916919166666666, "bike_id": "74a2a3234911dcc6d5ffdd63ec9bb547", "type": "electric_bike", "is_reserved": 0, "lon": -77.04194766666667}, {"fusion_lat": 0.0, "name": "b5336a3780d18cfb92ffbff5f56c985e", "is_disabled": 0, "rental_uris": {"android": "https://dc.lft.to/lastmile_qr_scan", "ios": "https://dc.lft.to/lastmile_qr_scan"}, "fusion_lon": 0.0, "lat": 38.921753333333335, "bike_id": "b5336a3780d18cfb92ffbff5f56c985e", "type": "electric_scooter", "is_reserved": 0, "lon": -77.038381}, {"fusion_lat": 0.0, "name": "868ff06f9583a35587a94d52f657d400", "is_disabled": 0, "rental_uris": {"android": "https://dc.lft.to/lastmile_qr_scan", "ios": "https://dc.lft.to/lastmile_qr_scan"}, "fusion_lon": 0.0, "lat": 38.87394333333334, "bike_id": "868ff06f9583a35587a94d52f657d400", "type": "electric_scooter", "is_reserved": 0, "lon": -77.00056383333333}, {"fusion_lat": 0.0, "name": "f55adcbfad5f41f56be83bd0fdbb2fb3", "is_disabled": 0, "rental_uris": {"android": "https://dc.lft.to/lastmile_qr_scan", "ios": "https://dc.lft.to/lastmile_qr_scan"}, "fusion_lon": 0.0, "lat": 38.900232, "bike_id": "f55adcbfad5f41f56be83bd0fdbb2fb3", "type": "electric_scooter", "is_reserved": 0, "lon": -77.0117495}, {"fusion_lat": 0.0, "name": "6d601b394be6e9900136b98857dc666f", "is_disabled": 0, "rental_uris": {"android": "https://dc.lft.to/lastmile_qr_scan", "ios": "https://dc.lft.to/lastmile_qr_scan"}, "fusion_lon": 0.0, "lat": 38.88633566666667, "bike_id": "6d601b394be6e9900136b98857dc666f", "type": "electric_scooter", "is_reserved": 0, "lon": -77.01960366666667}, {"fusion_lat": 0.0, "name": "66d46e49ea29329fad057f4ac032c9be", "is_disabled": 0, "rental_uris": {"android": "https://dc.lft.to/lastmile_qr_scan", "ios": "https://dc.lft.to/lastmile_qr_scan"}, "fusion_lon": 0.0, "lat": 38.928752833333334, "bike_id": "66d46e49ea29329fad057f4ac032c9be", "type": "electric_scooter", "is_reserved": 0, "lon": -77.01359866666667}, {"fusion_lat": 0.0, "name": "cc1beb0b671ef7b85ebb4c7b72629701", "is_disabled": 0, "rental_uris": {"android": "https://dc.lft.to/lastmile_qr_scan", "ios": "https://dc.lft.to/lastmile_qr_scan"}, "fusion_lon": 0.0, "lat": 38.9234465, "bike_id": "cc1beb0b671ef7b85ebb4c7b72629701", "type": "electric_scooter", "is_reserved": 0, "lon": -76.99248083333333}, {"fusion_lat": 0.0, "name": "87f682d5a803bb00b426a80714fcb648", "is_disabled": 0, "rental_uris": {"android": "https://dc.lft.to/lastmile_qr_scan", "ios": "https://dc.lft.to/lastmile_qr_scan"}, "fusion_lon": 0.0, "lat": 38.901634, "bike_id": "87f682d5a803bb00b426a80714fcb648", "type": "electric_scooter", "is_reserved": 0, "lon": -76.99266666666666}, {"fusion_lat": 0.0, "name": "812c42ec4f92f296c34dbb4c299a3cfd", "is_disabled": 0, "rental_uris": {"android": "https://dc.lft.to/lastmile_qr_scan", "ios": "https://dc.lft.to/lastmile_qr_scan"}, "fusion_lon": 0.0, "lat": 38.887514833333334, "bike_id": "812c42ec4f92f296c34dbb4c299a3cfd", "type": "electric_scooter", "is_reserved": 0, "lon": -76.99789033333333}, {"fusion_lat": 0.0, "name": "5f6155979de47d735e1670285324a652", "is_disabled": 0, "rental_uris": {"android": "https://dc.lft.to/lastmile_qr_scan", "ios": "https://dc.lft.to/lastmile_qr_scan"}, "fusion_lon": 0.0, "lat": 38.91710166666667, "bike_id": "5f6155979de47d735e1670285324a652", "type": "electric_scooter", "is_reserved": 0, "lon": -77.0274875}, {"fusion_lat": 0.0, "name": "86045fa4fdc17b8d795a845a39890c60", "is_disabled": 0, "rental_uris": {"android": "https://dc.lft.to/lastmile_qr_scan", "ios": "https://dc.lft.to/lastmile_qr_scan"}, "fusion_lon": 0.0, "lat": 38.94512783333333, "bike_id": "86045fa4fdc17b8d795a845a39890c60", "type": "electric_scooter", "is_reserved": 0, "lon": -77.03891266666666}, {"fusion_lat": 0.0, "name": "25da4dd4ace638f4acd6f25eed57d9ac", "is_disabled": 0, "rental_uris": {"android": "https://dc.lft.to/lastmile_qr_scan", "ios": "https://dc.lft.to/lastmile_qr_scan"}, "fusion_lon": 0.0, "lat": 38.90050883333333, "bike_id": "25da4dd4ace638f4acd6f25eed57d9ac", "type": "electric_scooter", "is_reserved": 0, "lon": -77.04482033333333}, {"fusion_lat": 0.0, "name": "b0a7ca3d0809b6990c0da0e3726664b8", "is_disabled": 0, "rental_uris": {"android": "https://dc.lft.to/lastmile_qr_scan", "ios": "https://dc.lft.to/lastmile_qr_scan"}, "fusion_lon": 0.0, "lat": 38.9362795, "bike_id": "b0a7ca3d0809b6990c0da0e3726664b8", "type": "electric_scooter", "is_reserved": 0, "lon": -77.07308666666667}, {"fusion_lat": 0.0, "name": "b01b8af8fef7399e85fd8bc6db32ede4", "is_disabled": 0, "rental_uris": {"android": "https://dc.lft.to/lastmile_qr_scan", "ios": "https://dc.lft.to/lastmile_qr_scan"}, "fusion_lon": 0.0, "lat": 38.847535666666666, "bike_id": "b01b8af8fef7399e85fd8bc6db32ede4", "type": "electric_scooter", "is_reserved": 0, "lon": -76.9950245}, {"fusion_lat": 0.0, "name": "82bf4a0d7eb41a3e4a5bccca6a699fca", "is_disabled": 0, "rental_uris": {"android": "https://dc.lft.to/lastmile_qr_scan", "ios": "https://dc.lft.to/lastmile_qr_scan"}, "fusion_lon": 0.0, "lat": 38.88822483333333, "bike_id": "82bf4a0d7eb41a3e4a5bccca6a699fca", "type": "electric_scooter", "is_reserved": 0, "lon": -76.98664016666666}, {"fusion_lat": 0.0, "name": "f6e1eb7739442d91c91b91aa2be5b4e1", "is_disabled": 0, "rental_uris": {"android": "https://dc.lft.to/lastmile_qr_scan", "ios": "https://dc.lft.to/lastmile_qr_scan"}, "fusion_lon": 0.0, "lat": 38.922458166666665, "bike_id": "f6e1eb7739442d91c91b91aa2be5b4e1", "type": "electric_scooter", "is_reserved": 0, "lon": -77.07457466666666}, {"fusion_lat": 0.0, "name": "b846dad8545b54d437c9e64b8c0f0d41", "is_disabled": 0, "rental_uris": {"android": "https://dc.lft.to/lastmile_qr_scan", "ios": "https://dc.lft.to/lastmile_qr_scan"}, "fusion_lon": 0.0, "lat": 38.904288666666666, "bike_id": "b846dad8545b54d437c9e64b8c0f0d41", "type": "electric_scooter", "is_reserved": 0, "lon": -76.9828125}, {"fusion_lat": 0.0, "name": "2585fe8a91b39a89592e1ae188c870b3", "is_disabled": 0, "rental_uris": {"android": "https://dc.lft.to/lastmile_qr_scan", "ios": "https://dc.lft.to/lastmile_qr_scan"}, "fusion_lon": 0.0, "lat": 38.91121833333333, "bike_id": "2585fe8a91b39a89592e1ae188c870b3", "type": "electric_scooter", "is_reserved": 0, "lon": -76.99728233333333}, {"fusion_lat": 0.0, "name": "4052a06bc76c3782c445f5c32be907d1", "is_disabled": 0, "rental_uris": {"android": "https://dc.lft.to/lastmile_qr_scan", "ios": "https://dc.lft.to/lastmile_qr_scan"}, "fusion_lon": 0.0, "lat": 38.915002333333334, "bike_id": "4052a06bc76c3782c445f5c32be907d1", "type": "electric_scooter", "is_reserved": 0, "lon": -77.0672125}, {"fusion_lat": 0.0, "name": "c2821aee4a4845a8e134306c719765ed", "is_disabled": 0, "rental_uris": {"android": "https://dc.lft.to/lastmile_qr_scan", "ios": "https://dc.lft.to/lastmile_qr_scan"}, "fusion_lon": 0.0, "lat": 38.9079385, "bike_id": "c2821aee4a4845a8e134306c719765ed", "type": "electric_scooter", "is_reserved": 0, "lon": -76.99425166666667}, {"fusion_lat": 0.0, "name": "629f15f8aa81fcf8e855f170ee5c28ea", "is_disabled": 0, "rental_uris": {"android": "https://dc.lft.to/lastmile_qr_scan", "ios": "https://dc.lft.to/lastmile_qr_scan"}, "fusion_lon": 0.0, "lat": 38.90234266666667, "bike_id": "629f15f8aa81fcf8e855f170ee5c28ea", "type": "electric_scooter", "is_reserved": 0, "lon": -77.053409}, {"fusion_lat": 0.0, "name": "cd64cb41281f2588cac510631caa26b5", "is_disabled": 0, "rental_uris": {"android": "https://dc.lft.to/lastmile_qr_scan", "ios": "https://dc.lft.to/lastmile_qr_scan"}, "fusion_lon": 0.0, "lat": 38.9155175, "bike_id": "cd64cb41281f2588cac510631caa26b5", "type": "electric_scooter", "is_reserved": 0, "lon": -77.03172966666666}, {"fusion_lat": 0.0, "name": "4384b8d01ff188232c8aa9bc6cc77344", "is_disabled": 0, "rental_uris": {"android": "https://dc.lft.to/lastmile_qr_scan", "ios": "https://dc.lft.to/lastmile_qr_scan"}, "fusion_lon": 0.0, "lat": 38.895426666666665, "bike_id": "4384b8d01ff188232c8aa9bc6cc77344", "type": "electric_scooter", "is_reserved": 0, "lon": -77.0109845}, {"fusion_lat": 0.0, "name": "f46e4429271bd3ae1da7f1e10b45f8d8", "is_disabled": 0, "rental_uris": {"android": "https://dc.lft.to/lastmile_qr_scan", "ios": "https://dc.lft.to/lastmile_qr_scan"}, "fusion_lon": 0.0, "lat": 38.9217725, "bike_id": "f46e4429271bd3ae1da7f1e10b45f8d8", "type": "electric_scooter", "is_reserved": 0, "lon": -77.02658666666666}, {"fusion_lat": 0.0, "name": "d443fb5a524fdace27d5ee1491070f5b", "is_disabled": 0, "rental_uris": {"android": "https://dc.lft.to/lastmile_qr_scan", "ios": "https://dc.lft.to/lastmile_qr_scan"}, "fusion_lon": 0.0, "lat": 38.9026575, "bike_id": "d443fb5a524fdace27d5ee1491070f5b", "type": "electric_scooter", "is_reserved": 0, "lon": -77.0167405}, {"fusion_lat": 0.0, "name": "793e3536f2f084e87d5a1798e546d99e", "is_disabled": 0, "rental_uris": {"android": "https://dc.lft.to/lastmile_qr_scan", "ios": "https://dc.lft.to/lastmile_qr_scan"}, "fusion_lon": 0.0, "lat": 38.907887833333334, "bike_id": "793e3536f2f084e87d5a1798e546d99e", "type": "electric_scooter", "is_reserved": 0, "lon": -77.0434}, {"fusion_lat": 0.0, "name": "b0cb7e620a104ac2914b571aa0ba533e", "is_disabled": 0, "rental_uris": {"android": "https://dc.lft.to/lastmile_qr_scan", "ios": "https://dc.lft.to/lastmile_qr_scan"}, "fusion_lon": 0.0, "lat": 38.9003545, "bike_id": "b0cb7e620a104ac2914b571aa0ba533e", "type": "electric_scooter", "is_reserved": 0, "lon": -77.0238415}, {"fusion_lat": 0.0, "name": "40aad597ef81b605cafb123351ee46a3", "is_disabled": 0, "rental_uris": {"android": "https://dc.lft.to/lastmile_qr_scan", "ios": "https://dc.lft.to/lastmile_qr_scan"}, "fusion_lon": 0.0, "lat": 38.92986416666667, "bike_id": "40aad597ef81b605cafb123351ee46a3", "type": "electric_scooter", "is_reserved": 0, "lon": -77.034764}, {"fusion_lat": 0.0, "name": "aeddbb81627486897d67874ad09779e7", "is_disabled": 0, "rental_uris": {"android": "https://dc.lft.to/lastmile_qr_scan", "ios": "https://dc.lft.to/lastmile_qr_scan"}, "fusion_lon": 0.0, "lat": 38.930539833333334, "bike_id": "aeddbb81627486897d67874ad09779e7", "type": "electric_scooter", "is_reserved": 0, "lon": -77.03210483333334}, {"fusion_lat": 0.0, "name": "97dc1d922ac9f39df76ee837864416e9", "is_disabled": 0, "rental_uris": {"android": "https://dc.lft.to/lastmile_qr_scan", "ios": "https://dc.lft.to/lastmile_qr_scan"}, "fusion_lon": 0.0, "lat": 38.856996, "bike_id": "97dc1d922ac9f39df76ee837864416e9", "type": "electric_scooter", "is_reserved": 0, "lon": -76.9959295}, {"fusion_lat": 0.0, "name": "0caa278000acfbc8b22bb1c35e127d92", "is_disabled": 0, "rental_uris": {"android": "https://dc.lft.to/lastmile_qr_scan", "ios": "https://dc.lft.to/lastmile_qr_scan"}, "fusion_lon": 0.0, "lat": 38.887898666666665, "bike_id": "0caa278000acfbc8b22bb1c35e127d92", "type": "electric_bike", "is_reserved": 0, "lon": -76.93000433333333}, {"fusion_lat": 0.0, "name": "96157eb8136d12a67fb478676c17df05", "is_disabled": 0, "rental_uris": {"android": "https://dc.lft.to/lastmile_qr_scan", "ios": "https://dc.lft.to/lastmile_qr_scan"}, "fusion_lon": 0.0, "lat": 38.894641166666666, "bike_id": "96157eb8136d12a67fb478676c17df05", "type": "electric_scooter", "is_reserved": 0, "lon": -77.01825916666667}, {"fusion_lat": 0.0, "name": "bb186bfe0410c09b9b025f20298423d0", "is_disabled": 0, "rental_uris": {"android": "https://dc.lft.to/lastmile_qr_scan", "ios": "https://dc.lft.to/lastmile_qr_scan"}, "fusion_lon": 0.0, "lat": 38.91406166666667, "bike_id": "bb186bfe0410c09b9b025f20298423d0", "type": "electric_scooter", "is_reserved": 0, "lon": -77.03219066666666}, {"fusion_lat": 0.0, "name": "363ab76ac2efadad9d8ddef0a5cbf36c", "is_disabled": 0, "rental_uris": {"android": "https://dc.lft.to/lastmile_qr_scan", "ios": "https://dc.lft.to/lastmile_qr_scan"}, "fusion_lon": 0.0, "lat": 38.92641416666667, "bike_id": "363ab76ac2efadad9d8ddef0a5cbf36c", "type": "electric_scooter", "is_reserved": 0, "lon": -77.04141716666666}, {"fusion_lat": 0.0, "name": "322813a8ecddcc833da73149a4b431c8", "is_disabled": 0, "rental_uris": {"android": "https://dc.lft.to/lastmile_qr_scan", "ios": "https://dc.lft.to/lastmile_qr_scan"}, "fusion_lon": 0.0, "lat": 38.87371266666667, "bike_id": "322813a8ecddcc833da73149a4b431c8", "type": "electric_scooter", "is_reserved": 0, "lon": -77.000664}, {"fusion_lat": 0.0, "name": "e9bde2b6d9e9f7654cab8974be132719", "is_disabled": 0, "rental_uris": {"android": "https://dc.lft.to/lastmile_qr_scan", "ios": "https://dc.lft.to/lastmile_qr_scan"}, "fusion_lon": 0.0, "lat": 38.90564116666667, "bike_id": "e9bde2b6d9e9f7654cab8974be132719", "type": "electric_scooter", "is_reserved": 0, "lon": -77.02223216666667}, {"fusion_lat": 0.0, "name": "24e10da0c7df758d172d462e5938b38f", "is_disabled": 0, "rental_uris": {"android": "https://dc.lft.to/lastmile_qr_scan", "ios": "https://dc.lft.to/lastmile_qr_scan"}, "fusion_lon": 0.0, "lat": 38.90771183333333, "bike_id": "24e10da0c7df758d172d462e5938b38f", "type": "electric_scooter", "is_reserved": 0, "lon": -77.0016575}, {"fusion_lat": 0.0, "name": "0fc69652e34153aa340f8c636410e066", "is_disabled": 0, "rental_uris": {"android": "https://dc.lft.to/lastmile_qr_scan", "ios": "https://dc.lft.to/lastmile_qr_scan"}, "fusion_lon": 0.0, "lat": 38.913377833333335, "bike_id": "0fc69652e34153aa340f8c636410e066", "type": "electric_scooter", "is_reserved": 0, "lon": -77.04874683333334}, {"fusion_lat": 0.0, "name": "d373f6d549aa072d4f1f5d9644097f7a", "is_disabled": 0, "rental_uris": {"android": "https://dc.lft.to/lastmile_qr_scan", "ios": "https://dc.lft.to/lastmile_qr_scan"}, "fusion_lon": 0.0, "lat": 38.924040833333336, "bike_id": "d373f6d549aa072d4f1f5d9644097f7a", "type": "electric_scooter", "is_reserved": 0, "lon": -77.036401}, {"fusion_lat": 0.0, "name": "1b1c0082b611a025e12f333fcad81b85", "is_disabled": 0, "rental_uris": {"android": "https://dc.lft.to/lastmile_qr_scan", "ios": "https://dc.lft.to/lastmile_qr_scan"}, "fusion_lon": 0.0, "lat": 38.9076855, "bike_id": "1b1c0082b611a025e12f333fcad81b85", "type": "electric_scooter", "is_reserved": 0, "lon": -77.03469216666667}, {"fusion_lat": 0.0, "name": "6076f9b4555a80eb306f25138b36e7a9", "is_disabled": 0, "rental_uris": {"android": "https://dc.lft.to/lastmile_qr_scan", "ios": "https://dc.lft.to/lastmile_qr_scan"}, "fusion_lon": 0.0, "lat": 38.912539833333334, "bike_id": "6076f9b4555a80eb306f25138b36e7a9", "type": "electric_scooter", "is_reserved": 0, "lon": -77.04923516666666}, {"fusion_lat": 0.0, "name": "7a7909160e14d04aa25fe257669ce281", "is_disabled": 0, "rental_uris": {"android": "https://dc.lft.to/lastmile_qr_scan", "ios": "https://dc.lft.to/lastmile_qr_scan"}, "fusion_lon": 0.0, "lat": 38.92302566666667, "bike_id": "7a7909160e14d04aa25fe257669ce281", "type": "electric_scooter", "is_reserved": 0, "lon": -77.042596}, {"fusion_lat": 0.0, "name": "9b4632e115f8c75e4fe36f361f1593b1", "is_disabled": 0, "rental_uris": {"android": "https://dc.lft.to/lastmile_qr_scan", "ios": "https://dc.lft.to/lastmile_qr_scan"}, "fusion_lon": 0.0, "lat": 38.973668833333335, "bike_id": "9b4632e115f8c75e4fe36f361f1593b1", "type": "electric_scooter", "is_reserved": 0, "lon": -77.012944},