{"data": {"bikes": [{"name": "b816c4313761255a17ccc4956be54a4a", "fusion_lat": 0.0, "type": "electric_scooter", "lat": 38.92911466666666, "is_reserved": 0, "is_disabled": 0, "fusion_lon": 0.0, "bike_id": "b816c4313761255a17ccc4956be54a4a", "lon": -77.0195775, "rental_uris": {"ios": "https://dc.lft.to/lastmile_qr_scan", "android": "https://dc.lft.to/lastmile_qr_scan"}}, {"name": "75e2a721894a99434f48611b61b80ddc", "fusion_lat": 0.0, "type": "electric_bike", "lat": 38.854432833333334, "is_reserved": 0, "is_disabled": 0, "fusion_lon": 0.0, "bike_id": "75e2a721894a99434f48611b61b80ddc", "lon": -77.1168055, "rental_uris": {"ios": "https://dc.lft.to/lastmile_qr_scan", "android": "https://dc.lft.to/lastmile_qr_scan"}}, {"name": "0b4c13d88cc8889dc875224dde5781fd", "fusion_lat": 0.0, "type": "electric_bike", "lat": 38.85874833333333, "is_reserved": 0, "is_disabled": 0, "fusion_lon": 0.0, "bike_id": "0b4c13d88cc8889dc875224dde5781fd", "lon": -77.09557033333333, "rental_uris": {"ios": "https://dc.lft.to/lastmile_qr_scan", "android": "https://dc.lft.to/lastmile_qr_scan"}}, {"name": "f142bd2ecad7c952383283ebd1ba3f33", "fusion_lat": 0.0, "type": "electric_scooter", "lat": 38.892126, "is_reserved": 0, "is_disabled": 0, "fusion_lon": 0.0, "bike_id": "f142bd2ecad7c952383283ebd1ba3f33", "lon": -76.995675, "rental_uris": {"ios": "https://dc.lft.to/lastmile_qr_scan", "android": "https://dc.lft.to/lastmile_qr_scan"}}, {"name": "6f0b0ac51cc0b403ea62c866af22327b", "fusion_lat": 0.0, "type": "electric_scooter", "lat": 38.90569583333333, "is_reserved": 0, "is_disabled": 0, "fusion_lon": 0.0, "bike_id": "6f0b0ac51cc0b403ea62c866af22327b", "lon": -77.02214833333333, "rental_uris": {"ios": "https://dc.lft.to/lastmile_qr_scan", "android": "https://dc.lft.to/lastmile_qr_scan"}}, {"name": "ec8d0b5c2efd02741a44233430949ced", "fusion_lat": 0.0, "type": "electric_scooter", "lat": 38.923472833333335, "is_reserved": 0, "is_disabled": 0, "fusion_lon": 0.0, "bike_id": "ec8d0b5c2efd02741a44233430949ced", "lon": -77.05099416666667, "rental_uris": {"ios": "https://dc.lft.to/lastmile_qr_scan", "android": "https://dc.lft.to/lastmile_qr_scan"}}, {"name": "c8d4e6b70dfcdd666a4c31d47c310b4e", "fusion_lat": 0.0, "type": "electric_scooter", "lat": 38.91343466666667, "is_reserved": 0, "is_disabled": 0, "fusion_lon": 0.0, "bike_id": "c8d4e6b70dfcdd666a4c31d47c310b4e", "lon": -77.0426645, "rental_uris": {"ios": "https://dc.lft.to/lastmile_qr_scan", "android": "https://dc.lft.to/lastmile_qr_scan"}}, {"name": "3422ac799dde98cf751af5371ca5dc22", "fusion_lat": 0.0, "type": "electric_scooter", "lat": 38.9084415, "is_reserved": 0, "is_disabled": 0, "fusion_lon": 0.0, "bike_id": "3422ac799dde98cf751af5371ca5dc22", "lon": -77.03281733333333, "rental_uris": {"ios": "https://dc.lft.to/lastmile_qr_scan", "android": "https://dc.lft.to/lastmile_qr_scan"}}, {"name": "e8c6f961e0a3cd3352007f7add44563b", "fusion_lat": 0.0, "type": "electric_scooter", "lat": 38.8952635, "is_reserved": 0, "is_disabled": 0, "fusion_lon": 0.0, "bike_id": "e8c6f961e0a3cd3352007f7add44563b", "lon": -77.01609966666666, "rental_uris": {"ios": "https://dc.lft.to/lastmile_qr_scan", "android": "https://dc.lft.to/lastmile_qr_scan"}}, {"name": "4ec702165bfab824aa559b63c594b3b6", "fusion_lat": 0.0, "type": "electric_scooter", "lat": 38.906289, "is_reserved": 0, "is_disabled": 0, "fusion_lon": 0.0, "bike_id": "4ec702165bfab824aa559b63c594b3b6", "lon": -77.00590116666666, "rental_uris": {"ios": "https://dc.lft.to/lastmile_qr_scan", "android": "https://dc.lft.to/lastmile_qr_scan"}}, {"name": "da51d1246cd02f7703bf0db20de9042f", "fusion_lat": 0.0, "type": "electric_scooter", "lat": 38.9038325, "is_reserved": 0, "is_disabled": 0, "fusion_lon": 0.0, "bike_id": "da51d1246cd02f7703bf0db20de9042f", "lon": -77.04191533333334, "rental_uris": {"ios": "https://dc.lft.to/lastmile_qr_scan", "android": "https://dc.lft.to/lastmile_qr_scan"}}, {"name": "cb74f2686470245e73eeda03266b41ad", "fusion_lat": 0.0, "type": "electric_scooter", "lat": 38.91706166666667, "is_reserved": 0, "is_disabled": 0, "fusion_lon": 0.0, "bike_id": "cb74f2686470245e73eeda03266b41ad", "lon": -77.02892, "rental_uris": {"ios": "https://dc.lft.to/lastmile_qr_scan", "android": "https://dc.lft.to/lastmile_qr_scan"}}, {"name": "a4df3ec5822b922951b01cae80670342", "fusion_lat": 0.0, "type": "electric_bike", "lat": 38.94631733333333, "is_reserved": 0, "is_disabled": 0, "fusion_lon": 0.0, "bike_id": "a4df3ec5822b922951b01cae80670342", "lon": -77.0184565, "rental_uris": {"ios": "https://dc.lft.to/lastmile_qr_scan", "android": "https://dc.lft.to/lastmile_qr_scan"}}, {"name": "c177618cb91ed24a34935ddc1aaaeb0b", "fusion_lat": 0.0, "type": "electric_scooter", "lat": 38.91714183333333, "is_reserved": 0, "is_disabled": 0, "fusion_lon": 0.0, "bike_id": "c177618cb91ed24a34935ddc1aaaeb0b", "lon": -77.035515, "rental_uris": {"ios": "https://dc.lft.to/lastmile_qr_scan", "android": "https://dc.lft.to/lastmile_qr_scan"}}, {"name": "c57f7a93793986ec9bab8f9d96159a3e", "fusion_lat": 0.0, "type": "electric_scooter", "lat": 38.932056333333335, "is_reserved": 0, "is_disabled": 0, "fusion_lon": 0.0, "bike_id": "c57f7a93793986ec9bab8f9d96159a3e", "lon": -77.036402, "rental_uris": {"ios": "https://dc.lft.to/lastmile_qr_scan", "android": "https://dc.lft.to/lastmile_qr_scan"}}, {"name": "373283bf2c91ab5e1c70be1e8d08a7e4", "fusion_lat": 0.0, "type": "electric_scooter", "lat": 38.917743333333334, "is_reserved": 0, "is_disabled": 0, "fusion_lon": 0.0, "bike_id": "373283bf2c91ab5e1c70be1e8d08a7e4", "lon": -77.047567, "rental_uris": {"ios": "https://dc.lft.to/lastmile_qr_scan", "android": "https://dc.lft.to/lastmile_qr_scan"}}, {"name": "0ea1e1b609fc7d166f131cf149276506", "fusion_lat": 0.0, "type": "electric_scooter", "lat": 38.897623833333334, "is_reserved": 0, "is_disabled": 0, "fusion_lon": 0.0, "bike_id": "0ea1e1b609fc7d166f131cf149276506", "lon": -76.97722083333333, "rental_uris": {"ios": "https://dc.lft.to/lastmile_qr_scan", "android": "https://dc.lft.to/lastmile_qr_scan"}}, {"name": "5a6e45355e38873a98c164bd3893ac0d", "fusion_lat": 0.0, "type": "electric_scooter", "lat": 38.944359666666664, "is_reserved": 0, "is_disabled": 0, "fusion_lon": 0.0, "bike_id": "5a6e45355e38873a98c164bd3893ac0d", "lon": -77.032782, "rental_uris": {"ios": "https://dc.lft.to/lastmile_qr_scan", "android": "https://dc.lft.to/lastmile_qr_scan"}}, {"name": "81798deb5a6d1f5fd7947470627f2ddd", "fusion_lat": 0.0, "type": "electric_bike", "lat": 38.91756016666667, "is_reserved": 0, "is_disabled": 0, "fusion_lon": 0.0, "bike_id": "81798deb5a6d1f5fd7947470627f2ddd", "lon": -77.01601583333333, "rental_uris": {"ios": "https://dc.lft.to/lastmile_qr_scan", "android": "https://dc.lft.to/lastmile_qr_scan"}}, {"name": "44d41e4d233cd3112058f8ca1cc4f2a0", "fusion_lat": 0.0, "type": "electric_scooter", "lat": 38.937297666666666, "is_reserved": 0, "is_disabled": 0, "fusion_lon": 0.0, "bike_id": "44d41e4d233cd3112058f8ca1cc4f2a0", "lon": -77.03277616666666, "rental_uris": {"ios": "https://dc.lft.to/lastmile_qr_scan", "android": "https://dc.lft.to/lastmile_qr_scan"}}, {"name": "a638e13eac01d2a3fe183d3c859d943d", "fusion_lat": 0.0, "type": "electric_scooter", "lat": 38.915613, "is_reserved": 0, "is_disabled": 0, "fusion_lon": 0.0, "bike_id": "a638e13eac01d2a3fe183d3c859d943d", "lon": -77.014174, "rental_uris": {"ios": "https://dc.lft.to/lastmile_qr_scan", "android": "https://dc.lft.to/lastmile_qr_scan"}}, {"name": "dd071bcc577140fef413d90f829379ce", "fusion_lat": 0.0, "type": "electric_scooter", "lat": 38.92287066666667, "is_reserved": 0, "is_disabled": 0, "fusion_lon": 0.0, "bike_id": "dd071bcc577140fef413d90f829379ce", "lon": -77.03659083333334, "rental_uris": {"ios": "https://dc.lft.to/lastmile_qr_scan", "android": "https://dc.lft.to/lastmile_qr_scan"}}, {"name": "47c045e98577d2236879e58286a9eb74", "fusion_lat": 0.0, "type": "electric_scooter", "lat": 38.926861333333335, "is_reserved": 0, "is_disabled": 0, "fusion_lon": 0.0, "bike_id": "47c045e98577d2236879e58286a9eb74", "lon": -77.06648283333334, "rental_uris": {"ios": "https://dc.lft.to/lastmile_qr_scan", "android": "https://dc.lft.to/lastmile_qr_scan"}}, {"name": "e20c65f8694a5e151b25f9f4e3a6c716", "fusion_lat": 0.0, "type": "electric_scooter", "lat": 38.916543833333336, "is_reserved": 0, "is_disabled": 0, "fusion_lon": 0.0, "bike_id": "e20c65f8694a5e151b25f9f4e3a6c716", "lon": -77.02301183333333, "rental_uris": {"ios": "https://dc.lft.to/lastmile_qr_scan", "android": "https://dc.lft.to/lastmile_qr_scan"}}, {"name": "b6e666d47c31fdca96a4e6ec812a13dd", "fusion_lat": 0.0, "type": "electric_scooter", "lat": 38.90959733333333, "is_reserved": 0, "is_disabled": 0, "fusion_lon": 0.0, "bike_id": "b6e666d47c31fdca96a4e6ec812a13dd", "lon": -77.01137466666667, "rental_uris": {"ios": "https://dc.lft.to/lastmile_qr_scan", "android": "https://dc.lft.to/lastmile_qr_scan"}}, {"name": "e1812f59bc4f75d3f52d36212fc92a90", "fusion_lat": 0.0, "type": "electric_bike", "lat": 38.946018333333335, "is_reserved": 0, "is_disabled": 0, "fusion_lon": 0.0, "bike_id": "e1812f59bc4f75d3f52d36212fc92a90", "lon": -77.02981116666666, "rental_uris": {"ios": "https://dc.lft.to/lastmile_qr_scan", "android": "https://dc.lft.to/lastmile_qr_scan"}}, {"name": "01d6cfafb6d017bbda00ed9a8318976c", "fusion_lat": 0.0, "type": "electric_bike", "lat": 38.85411333333333, "is_reserved": 0, "is_disabled": 0, "fusion_lon": 0.0, "bike_id": "01d6cfafb6d017bbda00ed9a8318976c", "lon": -77.11823766666667, "rental_uris": {"ios": "https://dc.lft.to/lastmile_qr_scan", "android": "https://dc.lft.to/lastmile_qr_scan"}}, {"name": "7cbaba76228f83fb8945ecfdc9abc6a8", "fusion_lat": 0.0, "type": "electric_scooter", "lat": 38.910380333333336, "is_reserved": 0, "is_disabled": 0, "fusion_lon": 0.0, "bike_id": "7cbaba76228f83fb8945ecfdc9abc6a8", "lon": -77.02387916666666, "rental_uris": {"ios": "https://dc.lft.to/lastmile_qr_scan", "android": "https://dc.lft.to/lastmile_qr_scan"}}, {"name": "1275329a4b21038829397ed9c1d0d130", "fusion_lat": 0.0, "type": "electric_scooter", "lat": 38.91476316666667, "is_reserved": 0, "is_disabled": 0, "fusion_lon": 0.0, "bike_id": "1275329a4b21038829397ed9c1d0d130", "lon": -77.02199116666667, "rental_uris": {"ios": "https://dc.lft.to/lastmile_qr_scan", "android": "https://dc.lft.to/lastmile_qr_scan"}}, {"name": "2f3253bd0bbbb72f42bae09f063d9f5e", "fusion_lat": 0.0, "type": "electric_scooter", "lat": 38.889254333333334, "is_reserved": 0, "is_disabled": 0, "fusion_lon": 0.0, "bike_id": "2f3253bd0bbbb72f42bae09f063d9f5e", "lon": -76.9478345, "rental_uris": {"ios": "https://dc.lft.to/lastmile_qr_scan", "android": "https://dc.lft.to/lastmile_qr_scan"}}, {"name": "ca358b48060cca15644e65fe0ab77a02", "fusion_lat": 0.0, "type": "electric_bike", "lat": 38.83855066666667, "is_reserved": 0, "is_disabled": 0, "fusion_lon": 0.0, "bike_id": "ca358b48060cca15644e65fe0ab77a02", "lon": -77.08864733333333, "rental_uris": {"ios": "https://dc.lft.to/lastmile_qr_scan", "android": "https://dc.lft.to/lastmile_qr_scan"}}, {"name": "e9528e4845e2c8c0c6c6c1333ca9913a", "fusion_lat": 0.0, "type": "electric_bike", "lat": 38.973257333333336, "is_reserved": 0, "is_disabled": 0, "fusion_lon": 0.0, "bike_id": "e9528e4845e2c8c0c6c6c1333ca9913a", "lon": -77.02150166666667, "rental_uris": {"ios": "https://dc.lft.to/lastmile_qr_scan", "android": "https://dc.lft.to/lastmile_qr_scan"}}, {"name": "46018b0065d66e9b2d4f7ba849d63ec1", "fusion_lat": 0.0, "type": "electric_scooter", "lat": 38.90331333333334, "is_reserved": 0, "is_disabled": 0, "fusion_lon": 0.0, "bike_id": "46018b0065d66e9b2d4f7ba849d63ec1", "lon": -77.03832316666667, "rental_uris": {"ios": "https://dc.lft.to/lastmile_qr_scan", "android": "https://dc.lft.to/lastmile_qr_scan"}}, {"name": "b9403e5b619b496b997227adb67570b0", "fusion_lat": 0.0, "type": "electric_scooter", "lat": 38.918013333333334, "is_reserved": 0, "is_disabled": 0, "fusion_lon": 0.0, "bike_id": "b9403e5b619b496b997227adb67570b0", "lon": -77.0281305, "rental_uris": {"ios": "https://dc.lft.to/lastmile_qr_scan", "android": "https://dc.lft.to/lastmile_qr_scan"}}, {"name": "e8533fc4160815a8dd81d4cdc1149af7", "fusion_lat": 0.0, "type": "electric_scooter", "lat": 38.922125666666666, "is_reserved": 0, "is_disabled": 0, "fusion_lon": 0.0, "bike_id": "e8533fc4160815a8dd81d4cdc1149af7", "lon": -77.04236683333333, "rental_uris": {"ios": "https://dc.lft.to/lastmile_qr_scan", "android": "https://dc.lft.to/lastmile_qr_scan"}}, {"name": "a3a58cbeb851a2a4e5ea6b8f9f3db361", "fusion_lat": 0.0, "type": "electric_scooter", "lat": 38.93094466666667, "is_reserved": 0, "is_disabled": 0, "fusion_lon": 0.0, "bike_id": "a3a58cbeb851a2a4e5ea6b8f9f3db361", "lon": -77.024133, "rental_uris": {"ios": "https://dc.lft.to/lastmile_qr_scan", "android": "https://dc.lft.to/lastmile_qr_scan"}}, {"name": "7929733fd6ec1266bc2577a948018de1", "fusion_lat": 0.0, "type": "electric_scooter", "lat": 38.9013945, "is_reserved": 0, "is_disabled": 0, "fusion_lon": 0.0, "bike_id": "7929733fd6ec1266bc2577a948018de1", "lon": -76.999688, "rental_uris": {"ios": "https://dc.lft.to/lastmile_qr_scan", "android": "https://dc.lft.to/lastmile_qr_scan"}}, {"name": "a8fc82abfffcc68ce25efe47f4b4f7ce", "fusion_lat": 0.0, "type": "electric_scooter", "lat": 38.93960116666667, "is_reserved": 0, "is_disabled": 0, "fusion_lon": 0.0, "bike_id": "a8fc82abfffcc68ce25efe47f4b4f7ce", "lon": -77.03284066666667, "rental_uris": {"ios": "https://dc.lft.to/lastmile_qr_scan", "android": "https://dc.lft.to/lastmile_qr_scan"}}, {"name": "2985b32886cbb4b7e3a82fa518970cde", "fusion_lat": 0.0, "type": "electric_scooter", "lat": 38.90306866666667, "is_reserved": 0, "is_disabled": 0, "fusion_lon": 0.0, "bike_id": "2985b32886cbb4b7e3a82fa518970cde", "lon": -77.03209166666667, "rental_uris": {"ios": "https://dc.lft.to/lastmile_qr_scan", "android": "https://dc.lft.to/lastmile_qr_scan"}}, {"name": "d85b7cb2f1cdfa6e2ada8a687b3d15ec", "fusion_lat": 0.0, "type": "electric_scooter", "lat": 38.91424816666667, "is_reserved": 0, "is_disabled": 0, "fusion_lon": 0.0, "bike_id": "d85b7cb2f1cdfa6e2ada8a687b3d15ec", "lon": -77.0260985, "rental_uris": {"ios": "https://dc.lft.to/lastmile_qr_scan", "android": "https://dc.lft.to/lastmile_qr_scan"}}, {"name": "1f748d47f6cbd0b3f17516f76defec5e", "fusion_lat": 0.0, "type": "electric_scooter", "lat": 38.927583166666665, "is_reserved": 0, "is_disabled": 0, "fusion_lon": 0.0, "bike_id": "1f748d47f6cbd0b3f17516f76defec5e", "lon": -77.032708, "rental_uris": {"ios": "https://dc.lft.to/lastmile_qr_scan", "android": "https://dc.lft.to/lastmile_qr_scan"}}, {"name": "c5dc797aeeead4a75f8ab025228a4161", "fusion_lat": 0.0, "type": "electric_scooter", "lat": 38.92064583333333, "is_reserved": 0, "is_disabled": 0, "fusion_lon": 0.0, "bike_id": "c5dc797aeeead4a75f8ab025228a4161", "lon": -76.97803533333334, "rental_uris": {"ios": "https://dc.lft.to/lastmile_qr_scan", "android": "https://dc.lft.to/lastmile_qr_scan"}}, {"name": "4ae3ed37fd2decd48a1eb9c8bee868e1", "fusion_lat": 0.0, "type": "electric_scooter", "lat": 38.92632183333333, "is_reserved": 0, "is_disabled": 0, "fusion_lon": 0.0, "bike_id": "4ae3ed37fd2decd48a1eb9c8bee868e1", "lon": -77.03511866666666, "rental_uris": {"ios": "https://dc.lft.to/lastmile_qr_scan", "android": "https://dc.lft.to/lastmile_qr_scan"}}, {"name": "e0de64cba25f93b55282e2c76055513b", "fusion_lat": 0.0, "type": "electric_scooter", "lat": 38.904782, "is_reserved": 0, "is_disabled": 0, "fusion_lon": 0.0, "bike_id": "e0de64cba25f93b55282e2c76055513b", "lon": -77.02722916666667, "rental_uris": {"ios": "https://dc.lft.to/lastmile_qr_scan", "android": "https://dc.lft.to/lastmile_qr_scan"}}, {"name": "e7fbdd5c3ef30ef9b2e8a7db2bc1e099", "fusion_lat": 0.0, "type": "electric_scooter", "lat": 38.91721616666667, "is_reserved": 0, "is_disabled": 0, "fusion_lon": 0.0, "bike_id": "e7fbdd5c3ef30ef9b2e8a7db2bc1e099", "lon": -77.00816583333334, "rental_uris": {"ios": "https://dc.lft.to/lastmile_qr_scan", "android": "https://dc.lft.to/lastmile_qr_scan"}}, {"name": "53599a1bc0774a598d73a059a0e6e4fb", "fusion_lat": 0.0, "type": "electric_scooter", "lat": 38.9078275, "is_reserved": 0, "is_disabled": 0, "fusion_lon": 0.0, "bike_id": "53599a1bc0774a598d73a059a0e6e4fb", "lon": -77.03862433333333, "rental_uris": {"ios": "https://dc.lft.to/lastmile_qr_scan", "android": "https://dc.lft.to/lastmile_qr_scan"}}, {"name": "dc9bd96985fb9d028e717eb5c5f6e183", "fusion_lat": 0.0, "type": "electric_scooter", "lat": 38.9251175, "is_reserved": 0, "is_disabled": 0, "fusion_lon": 0.0, "bike_id": "dc9bd96985fb9d028e717eb5c5f6e183", "lon": -77.02554866666667, "rental_uris": {"ios": "https://dc.lft.to/lastmile_qr_scan", "android": "https://dc.lft.to/lastmile_qr_scan"}}, {"name": "3ea12b84c741e83b39fe0117112cdcb8", "fusion_lat": 0.0, "type": "electric_scooter", "lat": 38.91905283333333, "is_reserved": 0, "is_disabled": 0, "fusion_lon": 0.0, "bike_id": "3ea12b84c741e83b39fe0117112cdcb8", "lon": -77.0242545, "rental_uris": {"ios": "https://dc.lft.to/lastmile_qr_scan", "android": "https://dc.lft.to/lastmile_qr_scan"}}, {"name": "37727ea5af6fd9b326918e3311424817", "fusion_lat": 0.0, "type": "electric_scooter", "lat": 38.9109625, "is_reserved": 0, "is_disabled": 0, "fusion_lon": 0.0, "bike_id": "37727ea5af6fd9b326918e3311424817", "lon": -77.02969183333333, "rental_uris": {"ios": "https://dc.lft.to/lastmile_qr_scan", "android": "https://dc.lft.to/lastmile_qr_scan"}}, {"name": "20d7308e846e8bf7555fc920bd1491a0", "fusion_lat": 0.0, "type": "electric_scooter", "lat": 38.90925816666667, "is_reserved": 0, "is_disabled": 0, "fusion_lon": 0.0, "bike_id": "20d7308e846e8bf7555fc920bd1491a0", "lon": -77.04157133333334, "rental_uris": {"ios": "https://dc.lft.to/lastmile_qr_scan", "android": "https://dc.lft.to/lastmile_qr_scan"}}, {"name": "13137d69b57b7881a75000aa402f2324", "fusion_lat": 0.0, "type": "electric_bike", "lat": 38.96442916666667, "is_reserved": 0, "is_disabled": 0, "fusion_lon": 0.0, "bike_id": "13137d69b57b7881a75000aa402f2324", "lon": -77.03160783333334, "rental_uris": {"ios": "https://dc.lft.to/lastmile_qr_scan", "android": "https://dc.lft.to/lastmile_qr_scan"}}, {"name": "8da281cda10968e6cc0c5d63958907d6", "fusion_lat": 0.0, "type": "electric_scooter", "lat": 38.88345266666666, "is_reserved": 0, "is_disabled": 0, "fusion_lon": 0.0, "bike_id": "8da281cda10968e6cc0c5d63958907d6", "lon": -77.01554783333333, "rental_uris": {"ios": "https://dc.lft.to/lastmile_qr_scan", "android": "https://dc.lft.to/lastmile_qr_scan"}}, {"name": "343a4db33b587dc29f41245a73fdd83d", "fusion_lat": 0.0, "type": "electric_scooter", "lat": 38.86536683333333, "is_reserved": 0, "is_disabled": 0, "fusion_lon": 0.0, "bike_id": "343a4db33b587dc29f41245a73fdd83d", "lon": -76.98711816666666, "rental_uris": {"ios": "https://dc.lft.to/lastmile_qr_scan", "android": "https://dc.lft.to/lastmile_qr_scan"}}, {"name": "b4c247b29534a41899123df039b7d642", "fusion_lat": 0.0, "type": "electric_scooter", "lat": 38.90591233333333, "is_reserved": 0, "is_disabled": 0, "fusion_lon": 0.0, "bike_id": "b4c247b29534a41899123df039b7d642", "lon": -77.00263366666667, "rental_uris": {"ios": "https://dc.lft.to/lastmile_qr_scan", "android": "https://dc.lft.to/lastmile_qr_scan"}}, {"name": "246297ccf742dfc28b3af3eb671726d2", "fusion_lat": 0.0, "type": "electric_bike", "lat": 38.86867983333333, "is_reserved": 0, "is_disabled": 0, "fusion_lon": 0.0, "bike_id": "246297ccf742dfc28b3af3eb671726d2", "lon": -76.916629, "rental_uris": {"ios": "https://dc.lft.to/lastmile_qr_scan", "android": "https://dc.lft.to/lastmile_qr_scan"}}, {"name": "dfe55e53c2fcc7fd3523b13b8312c08b", "fusion_lat": 0.0, "type": "electric_scooter", "lat": 38.918688, "is_reserved": 0, "is_disabled": 0, "fusion_lon": 0.0, "bike_id": "dfe55e53c2fcc7fd3523b13b8312c08b", "lon": -77.0444055, "rental_uris": {"ios": "https://dc.lft.to/lastmile_qr_scan", "android": "https://dc.lft.to/lastmile_qr_scan"}}, {"name": "53ac28700275bb9ffbcec1d04440d841", "fusion_lat": 0.0, "type": "electric_bike", "lat": 38.896479166666666, "is_reserved": 0, "is_disabled": 0, "fusion_lon": 0.0, "bike_id": "53ac28700275bb9ffbcec1d04440d841", "lon": -77.10453916666667, "rental_uris": {"ios": "https://dc.lft.to/lastmile_qr_scan", "android": "https://dc.lft.to/lastmile_qr_scan"}}, {"name": "3e3b7f8ef98a931e2016158abd01cba4", "fusion_lat": 0.0, "type": "electric_scooter", "lat": 38.87888733333333, "is_reserved": 0, "is_disabled": 0, "fusion_lon": 0.0, "bike_id": "3e3b7f8ef98a931e2016158abd01cba4", "lon": -77.0227435, "rental_uris": {"ios": "https://dc.lft.to/lastmile_qr_scan", "android": "https://dc.lft.to/lastmile_qr_scan"}}, {"name": "534115e868de97685afd2f3ca207f0db", "fusion_lat": 0.0, "type": "electric_scooter", "lat": 38.90863066666667, "is_reserved": 0, "is_disabled": 0, "fusion_lon": 0.0, "bike_id": "534115e868de97685afd2f3ca207f0db", "lon": -76.99963, "rental_uris": {"ios": "https://dc.lft.to/lastmile_qr_scan", "android": "https://dc.lft.to/lastmile_qr_scan"}}, {"name": "d7005b0d5e8e980572f9d1f87710afbc", "fusion_lat": 0.0, "type": "electric_scooter", "lat": 38.918211, "is_reserved": 0, "is_disabled": 0, "fusion_lon": 0.0, "bike_id": "d7005b0d5e8e980572f9d1f87710afbc", "lon": -77.03459466666666, "rental_uris": {"ios": "https://dc.lft.to/lastmile_qr_scan", "android": "https://dc.lft.to/lastmile_qr_scan"}}, {"name": "5d8e00f7c25b7fad6961da935002d6f3", "fusion_lat": 0.0, "type": "electric_scooter", "lat": 38.91414783333333, "is_reserved": 0, "is_disabled": 0, "fusion_lon": 0.0, "bike_id": "5d8e00f7c25b7fad6961da935002d6f3", "lon": -77.009771, "rental_uris": {"ios": "https://dc.lft.to/lastmile_qr_scan", "android": "https://dc.lft.to/lastmile_qr_scan"}}, {"name": "ceea22bf61b7643fe9980203243d5a54", "fusion_lat": 0.0, "type": "electric_scooter", "lat": 38.91547883333333, "is_reserved": 0, "is_disabled": 0, "fusion_lon": 0.0, "bike_id": "ceea22bf61b7643fe9980203243d5a54", "lon": -77.03852683333334, "rental_uris": {"ios": "https://dc.lft.to/lastmile_qr_scan", "android": "https://dc.lft.to/lastmile_qr_scan"}}, {"name": "b4773e6f1cb7428d326e97fb2e77c7a8", "fusion_lat": 0.0, "type": "electric_scooter", "lat": 38.89673616666666, "is_reserved": 0, "is_disabled": 0, "fusion_lon": 0.0, "bike_id": "b4773e6f1cb7428d326e97fb2e77c7a8", "lon": -76.94723966666666, "rental_uris": {"ios": "https://dc.lft.to/lastmile_qr_scan", "android": "https://dc.lft.to/lastmile_qr_scan"}}, {"name": "62db9e6161cbb06809998d2ba0ddbe46", "fusion_lat": 0.0, "type": "electric_scooter", "lat": 38.90257733333333, "is_reserved": 0, "is_disabled": 0, "fusion_lon": 0.0, "bike_id": "62db9e6161cbb06809998d2ba0ddbe46", "lon": -77.01772716666666, "rental_uris": {"ios": "https://dc.lft.to/lastmile_qr_scan", "android": "https://dc.lft.to/lastmile_qr_scan"}}, {"name": "58ab82c6215763571bd0c33a929cde65", "fusion_lat": 0.0, "type": "electric_scooter", "lat": 38.9033585, "is_reserved": 0, "is_disabled": 0, "fusion_lon": 0.0, "bike_id": "58ab82c6215763571bd0c33a929cde65", "lon": -76.99849066666667, "rental_uris": {"ios": "https://dc.lft.to/lastmile_qr_scan", "android": "https://dc.lft.to/lastmile_qr_scan"}}, {"name": "803ce8dcbc9483d7c06e15c98517ac50", "fusion_lat": 0.0, "type": "electric_scooter", "lat": 38.9007885, "is_reserved": 0, "is_disabled": 0, "fusion_lon": 0.0, "bike_id": "803ce8dcbc9483d7c06e15c98517ac50", "lon": -77.0501535, "rental_uris": {"ios": "https://dc.lft.to/lastmile_qr_scan", "android": "https://dc.lft.to/lastmile_qr_scan"}}, {"name": "c19b0ff1e421ba04ee68441f0874d4b4", "fusion_lat": 0.0, "type": "electric_scooter", "lat": 38.93884883333333, "is_reserved": 0, "is_disabled": 0, "fusion_lon": 0.0, "bike_id": "c19b0ff1e421ba04ee68441f0874d4b4", "lon": -77.02464066666667, "rental_uris": {"ios": "https://dc.lft.to/lastmile_qr_scan", "android": "https://dc.lft.to/lastmile_qr_scan"}}, {"name": "70112251e6bd352fe9623a5a55e3d033", "fusion_lat": 0.0, "type": "electric_bike", "lat": 38.906856166666664, "is_reserved": 0, "is_disabled": 0, "fusion_lon": 0.0, "bike_id": "70112251e6bd352fe9623a5a55e3d033", "lon": -76.951873, "rental_uris": {"ios": "https://dc.lft.to/lastmile_qr_scan", "android": "https://dc.lft.to/lastmile_qr_scan"}}, {"name": "5042d8d7eff8b51b86a206de1ab86d51", "fusion_lat": 0.0, "type": "electric_scooter", "lat": 38.90044916666667, "is_reserved": 0, "is_disabled": 0, "fusion_lon": 0.0, "bike_id": "5042d8d7eff8b51b86a206de1ab86d51", "lon": -77.0167475, "rental_uris": {"ios": "https://dc.lft.to/lastmile_qr_scan", "android": "https://dc.lft.to/lastmile_qr_scan"}}, {"name": "cd16168ff7532337c1e3b024e753fcbd", "fusion_lat": 0.0, "type": "electric_scooter", "lat": 38.9075605, "is_reserved": 0, "is_disabled": 0, "fusion_lon": 0.0, "bike_id": "cd16168ff7532337c1e3b024e753fcbd", "lon": -77.03189883333333, "rental_uris": {"ios": "https://dc.lft.to/lastmile_qr_scan", "android": "https://dc.lft.to/lastmile_qr_scan"}}, {"name": "2a30eff64606812c71cd9781430c2745", "fusion_lat": 0.0, "type": "electric_scooter", "lat": 38.895285, "is_reserved": 0, "is_disabled": 0, "fusion_lon": 0.0, "bike_id": "2a30eff64606812c71cd9781430c2745", "lon": -77.04289566666667, "rental_uris": {"ios": "https://dc.lft.to/lastmile_qr_scan", "android": "https://dc.lft.to/lastmile_qr_scan"}}, {"name": "e6d5afa6c1a90c22453367360479edf1", "fusion_lat": 0.0, "type": "electric_bike", "lat": 38.80226183333333, "is_reserved": 0, "is_disabled": 0, "fusion_lon": 0.0, "bike_id": "e6d5afa6c1a90c22453367360479edf1", "lon": -77.0791695, "rental_uris": {"ios": "https://dc.lft.to/lastmile_qr_scan", "android": "https://dc.lft.to/lastmile_qr_scan"}}, {"name": "f55b98c2147a387c51a4b98087ffa0ad", "fusion_lat": 0.0, "type": "electric_scooter", "lat": 38.897350833333334, "is_reserved": 0, "is_disabled": 0, "fusion_lon": 0.0, "bike_id": "f55b98c2147a387c51a4b98087ffa0ad", "lon": -77.03104683333333, "rental_uris": {"ios": "https://dc.lft.to/lastmile_qr_scan", "android": "https://dc.lft.to/lastmile_qr_scan"}}, {"name": "c13a04b988461134bf6b8800ac0492b1", "fusion_lat": 0.0, "type": "electric_scooter", "lat": 38.9037885, "is_reserved": 0, "is_disabled": 0, "fusion_lon": 0.0, "bike_id": "c13a04b988461134bf6b8800ac0492b1", "lon": -77.0110185, "rental_uris": {"ios": "https://dc.lft.to/lastmile_qr_scan", "android": "https://dc.lft.to/lastmile_qr_scan"}}, {"name": "4ac84722ef13453223832df47a497359", "fusion_lat": 0.0, "type": "electric_scooter", "lat": 38.906832, "is_reserved": 0, "is_disabled": 0, "fusion_lon": 0.0, "bike_id": "4ac84722ef13453223832df47a497359", "lon": -77.01091883333333, "rental_uris": {"ios": "https://dc.lft.to/lastmile_qr_scan", "android": "https://dc.lft.to/lastmile_qr_scan"}}, {"name": "74e1e9192d49407162739403ec72d8b3", "fusion_lat": 0.0, "type": "electric_scooter", "lat": 38.912489666666666, "is_reserved": 0, "is_disabled": 0, "fusion_lon": 0.0, "bike_id": "74e1e9192d49407162739403ec72d8b3", "lon": -77.0383835, "rental_uris": {"ios": "https://dc.lft.to/lastmile_qr_scan", "android": "https://dc.lft.to/lastmile_qr_scan"}}, {"name": "5af8178d7db23dd9cf82cce61621e46b", "fusion_lat": 0.0, "type": "electric_scooter", "lat": 38.911528833333335, "is_reserved": 0, "is_disabled": 0, "fusion_lon": 0.0, "bike_id": "5af8178d7db23dd9cf82cce61621e46b", "lon": -77.02196966666666, "rental_uris": {"ios": "https://dc.lft.to/lastmile_qr_scan", "android": "https://dc.lft.to/lastmile_qr_scan"}}, {"name": "dabe3e0dda43c736dad0a8a2e497ab97", "fusion_lat": 0.0, "type": "electric_scooter", "lat": 38.89849816666667, "is_reserved": 0, "is_disabled": 0, "fusion_lon": 0.0, "bike_id": "dabe3e0dda43c736dad0a8a2e497ab97", "lon": -76.99036, "rental_uris": {"ios": "https://dc.lft.to/lastmile_qr_scan", "android": "https://dc.lft.to/lastmile_qr_scan"}}, {"name": "461ca36218cabcb15ea6c771f76cc45d", "fusion_lat": 0.0, "type": "electric_scooter", "lat": 38.903761833333334, "is_reserved": 0, "is_disabled": 0, "fusion_lon": 0.0, "bike_id": "461ca36218cabcb15ea6c771f76cc45d", "lon": -77.01782683333333, "rental_uris": {"ios": "https://dc.lft.to/lastmile_qr_scan", "android": "https://dc.lft.to/lastmile_qr_scan"}}, {"name": "4c66a6ac67fb4223b0c3102dd1a79b23", "fusion_lat": 0.0, "type": "electric_scooter", "lat": 38.9272485, "is_reserved": 0, "is_disabled": 0, "fusion_lon": 0.0, "bike_id": "4c66a6ac67fb4223b0c3102dd1a79b23", "lon": -77.07138316666666, "rental_uris": {"ios": "https://dc.lft.to/lastmile_qr_scan", "android": "https://dc.lft.to/lastmile_qr_scan"}}, {"name": "e21523a9723ccaf7a26432b4fc63fa13", "fusion_lat": 0.0, "type": "electric_scooter", "lat": 38.900271833333335, "is_reserved": 0, "is_disabled": 0, "fusion_lon": 0.0, "bike_id": "e21523a9723ccaf7a26432b4fc63fa13", "lon": -76.998319, "rental_uris": {"ios": "https://dc.lft.to/lastmile_qr_scan", "android": "https://dc.lft.to/lastmile_qr_scan"}}, {"name": "39371f3c129f0e227f3b685cb59d3692", "fusion_lat": 0.0, "type": "electric_scooter", "lat": 38.88593866666667, "is_reserved": 0, "is_disabled": 0, "fusion_lon": 0.0, "bike_id": "39371f3c129f0e227f3b685cb59d3692", "lon": -77.021994, "rental_uris": {"ios": "https://dc.lft.to/lastmile_qr_scan", "android": "https://dc.lft.to/lastmile_qr_scan"}}, {"name": "3da1b30fba828fd89d0dd6fbf1e57d98", "fusion_lat": 0.0, "type": "electric_scooter", "lat": 38.934092666666665, "is_reserved": 0, "is_disabled": 0, "fusion_lon": 0.0, "bike_id": "3da1b30fba828fd89d0dd6fbf1e57d98", "lon": -77.041852, "rental_uris": {"ios": "https://dc.lft.to/lastmile_qr_scan", "android": "https://dc.lft.to/lastmile_qr_scan"}}, {"name": "b1a769a91517f72c1c1c561a240206a3", "fusion_lat": 0.0, "type": "electric_bike", "lat": 38.88344716666667, "is_reserved": 0, "is_disabled": 0, "fusion_lon": 0.0, "bike_id": "b1a769a91517f72c1c1c561a240206a3", "lon": -77.18295583333334, "rental_uris": {"ios": "https://dc.lft.to/lastmile_qr_scan", "android": "https://dc.lft.to/lastmile_qr_scan"}}, {"name": "1fd63ce86e56cad72a6df07b48854e1f", "fusion_lat": 0.0, "type": "electric_scooter", "lat": 38.905451, "is_reserved": 0, "is_disabled": 0, "fusion_lon": 0.0, "bike_id": "1fd63ce86e56cad72a6df07b48854e1f", "lon": -77.0628005, "rental_uris": {"ios": "https://dc.lft.to/lastmile_qr_scan", "android": "https://dc.lft.to/lastmile_qr_scan"}}, {"name": "c34481e69b3597fc77cea5e3125569a8", "fusion_lat": 0.0, "type": "electric_scooter", "lat": 38.910448833333334, "is_reserved": 0, "is_disabled": 0, "fusion_lon": 0.0, "bike_id": "c34481e69b3597fc77cea5e3125569a8", "lon": -77.0437255, "rental_uris": {"ios": "https://dc.lft.to/lastmile_qr_scan", "android": "https://dc.lft.to/lastmile_qr_scan"}}, {"name": "1a6eeadb623d4051592f654eaa91824b", "fusion_lat": 0.0, "type": "electric_scooter", "lat": 38.90025966666666, "is_reserved": 0, "is_disabled": 0, "fusion_lon": 0.0, "bike_id": "1a6eeadb623d4051592f654eaa91824b", "lon": -76.998641, "rental_uris": {"ios": "https://dc.lft.to/lastmile_qr_scan", "android": "https://dc.lft.to/lastmile_qr_scan"}}, {"name": "89fe6054037a555e666985fdc6b1047b", "fusion_lat": 0.0, "type": "electric_scooter", "lat": 38.89850366666667, "is_reserved": 0, "is_disabled": 0, "fusion_lon": 0.0, "bike_id": "89fe6054037a555e666985fdc6b1047b", "lon": -77.01612733333333, "rental_uris": {"ios": "https://dc.lft.to/lastmile_qr_scan", "android": "https://dc.lft.to/lastmile_qr_scan"}}, {"name": "55ba1d6d2d35c1d4d10c093383976cdb", "fusion_lat": 0.0, "type": "electric_scooter", "lat": 38.893706333333334, "is_reserved": 0, "is_disabled": 0, "fusion_lon": 0.0, "bike_id": "55ba1d6d2d35c1d4d10c093383976cdb", "lon": -76.9499445, "rental_uris": {"ios": "https://dc.lft.to/lastmile_qr_scan", "android": "https://dc.lft.to/lastmile_qr_scan"}}, {"name": "c04ddcc1219b229c755d0596812d5291", "fusion_lat": 0.0, "type": "electric_scooter", "lat": 38.94280233333333, "is_reserved": 0, "is_disabled": 0, "fusion_lon": 0.0, "bike_id": "c04ddcc1219b229c755d0596812d5291", "lon": -77.02502533333333, "rental_uris": {"ios": "https://dc.lft.to/lastmile_qr_scan", "android": "https://dc.lft.to/lastmile_qr_scan"}}, {"name": "e2e63d37e8c8b2c922b225c767cefee2", "fusion_lat": 0.0, "type": "electric_scooter", "lat": 38.90232366666667, "is_reserved": 0, "is_disabled": 0, "fusion_lon": 0.0, "bike_id": "e2e63d37e8c8b2c922b225c767cefee2", "lon": -77.02687166666666, "rental_uris": {"ios": "https://dc.lft.to/lastmile_qr_scan", "android": "https://dc.lft.to/lastmile_qr_scan"}}, {"name": "be696937e7a8cd684e874c0b253874ca", "fusion_lat": 0.0, "type": "electric_scooter", "lat": 38.90446716666667, "is_reserved": 0, "is_disabled": 0, "fusion_lon": 0.0, "bike_id": "be696937e7a8cd684e874c0b253874ca", "lon": -77.03451, "rental_uris": {"ios": "https://dc.lft.to/lastmile_qr_scan", "android": "https://dc.lft.to/lastmile_qr_scan"}}, {"name": "abc1d197f1703aa6a368b75284a455bc", "fusion_lat": 0.0, "type": "electric_scooter", "lat": 38.923231333333334, "is_reserved": 0, "is_disabled": 0, "fusion_lon": 0.0, "bike_id": "abc1d197f1703aa6a368b75284a455bc", "lon": -77.03980066666666, "rental_uris": {"ios": "https://dc.lft.to/lastmile_qr_scan", "android": "https://dc.lft.to/lastmile_qr_scan"}}, {"name": "1523082c332b0db81b2e62882adfa31b", "fusion_lat": 0.0, "type": "electric_scooter", "lat": 38.90625083333333, "is_reserved": 0, "is_disabled": 0, "fusion_lon": 0.0, "bike_id": "1523082c332b0db81b2e62882adfa31b", "lon": -77.02950016666666, "rental_uris": {"ios": "https://dc.lft.to/lastmile_qr_scan", "android": "https://dc.lft.to/lastmile_qr_scan"}}, {"name": "0642ebb043846fabbdac87feb89bcab8", "fusion_lat": 0.0, "type": "electric_scooter", "lat": 38.92459816666667, "is_reserved": 0, "is_disabled": 0, "fusion_lon": 0.0, "bike_id": "0642ebb043846fabbdac87feb89bcab8", "lon": -77.03636533333334, "rental_uris": {"ios": "https://dc.lft.to/lastmile_qr_scan", "android": "https://dc.lft.to/lastmile_qr_scan"}}, {"name": "023e118a348a8ef3831ef6a57ef13854", "fusion_lat": 0.0, "type": "electric_scooter", "lat": 38.928156333333334, "is_reserved": 0, "is_disabled": 0, "fusion_lon": 0.0, "bike_id": "023e118a348a8ef3831ef6a57ef13854", "lon": -77.036339, "rental_uris": {"ios": "https://dc.lft.to/lastmile_qr_scan", "android": "https://dc.lft.to/lastmile_qr_scan"}}, {"name": "5bfdc731ecaa427db34908f91eb9d3e3", "fusion_lat": 0.0, "type": "electric_scooter", "lat": 38.89516483333333, "is_reserved": 0, "is_disabled": 0, "fusion_lon": 0.0, "bike_id": "5bfdc731ecaa427db34908f91eb9d3e3", "lon": -76.992156, "rental_uris": {"ios": "https://dc.lft.to/lastmile_qr_scan", "android": "https://dc.lft.to/lastmile_qr_scan"}}, {"name": "18e9cc3697e2609d2fea596b5c2e2d3c", "fusion_lat": 0.0, "type": "electric_scooter", "lat": 38.8786585, "is_reserved": 0, "is_disabled": 0, "fusion_lon": 0.0, "bike_id": "18e9cc3697e2609d2fea596b5c2e2d3c", "lon": -76.965293, "rental_uris": {"ios": "https://dc.lft.to/lastmile_qr_scan", "android": "https://dc.lft.to/lastmile_qr_scan"}}, {"name": "52bbc42174c611dd5a2f92ae75fc6772", "fusion_lat": 0.0, "type": "electric_scooter", "lat": 38.90336583333333, "is_reserved": 0, "is_disabled": 0, "fusion_lon": 0.0, "bike_id": "52bbc42174c611dd5a2f92ae75fc6772", "lon": -77.05451416666666, "rental_uris": {"ios": "https://dc.lft.to/lastmile_qr_scan", "android": "https://dc.lft.to/lastmile_qr_scan"}}, {"name": "808bf3b691da5481901f6b10a8ba10d8", "fusion_lat": 0.0, "type": "electric_scooter", "lat": 38.900750333333335, "is_reserved": 0, "is_disabled": 0, "fusion_lon": 0.0, "bike_id": "808bf3b691da5481901f6b10a8ba10d8", "lon": -77.04989833333333, "rental_uris": {"ios": "https://dc.lft.to/lastmile_qr_scan", "android": "https://dc.lft.to/lastmile_qr_scan"}}, {"name": "1abdbca0b64201d33d0bf446a3211737", "fusion_lat": 0.0, "type": "electric_scooter", "lat": 38.91879616666667, "is_reserved": 0, "is_disabled": 0, "fusion_lon": 0.0, "bike_id": "1abdbca0b64201d33d0bf446a3211737", "lon": -77.04312483333334, "rental_uris": {"ios": "https://dc.lft.to/lastmile_qr_scan", "android": "https://dc.lft.to/lastmile_qr_scan"}}, {"name": "81b81b3f51ca1c24c1d235ff1c9f7b83", "fusion_lat": 0.0, "type": "electric_scooter", "lat": 38.92099183333333, "is_reserved": 0, "is_disabled": 0, "fusion_lon": 0.0, "bike_id": "81b81b3f51ca1c24c1d235ff1c9f7b83", "lon": -77.04696433333334, "rental_uris": {"ios": "https://dc.lft.to/lastmile_qr_scan", "android": "https://dc.lft.to/lastmile_qr_scan"}}, {"name": "55e8dd9fc385feb077e2bce9af2bfc10", "fusion_lat": 0.0, "type": "electric_scooter", "lat": 38.912063833333335, "is_reserved": 0, "is_disabled": 0, "fusion_lon": 0.0, "bike_id": "55e8dd9fc385feb077e2bce9af2bfc10", "lon": -77.03645283333333, "rental_uris": {"ios": "https://dc.lft.to/lastmile_qr_scan", "android": "https://dc.lft.to/lastmile_qr_scan"}}, {"name": "67c43d8c17cfaf8a7b57be35d388799b", "fusion_lat": 0.0, "type": "electric_bike", "lat": 38.85849616666667, "is_reserved": 0, "is_disabled": 0, "fusion_lon": 0.0, "bike_id": "67c43d8c17cfaf8a7b57be35d388799b", "lon": -77.09748916666666, "rental_uris": {"ios": "https://dc.lft.to/lastmile_qr_scan", "android": "https://dc.lft.to/lastmile_qr_scan"}}, {"name": "bf767431fbf488323fc34d77bccdcfda", "fusion_lat": 0.0, "type": "electric_scooter", "lat": 38.90171433333333, "is_reserved": 0, "is_disabled": 0, "fusion_lon": 0.0, "bike_id": "bf767431fbf488323fc34d77bccdcfda", "lon": -77.02183683333334, "rental_uris": {"ios": "https://dc.lft.to/lastmile_qr_scan", "android": "https://dc.lft.to/lastmile_qr_scan"}}, {"name": "463cdd69899d061cdb3196e61c941576", "fusion_lat": 0.0, "type": "electric_scooter", "lat": 38.9025595, "is_reserved": 0, "is_disabled": 0, "fusion_lon": 0.0, "bike_id": "463cdd69899d061cdb3196e61c941576", "lon": -77.00587283333333, "rental_uris": {"ios": "https://dc.lft.to/lastmile_qr_scan", "android": "https://dc.lft.to/lastmile_qr_scan"}}, {"name": "54bfa1f4075b7400f250ad784a00c7db", "fusion_lat": 0.0, "type": "electric_scooter", "lat": 38.9047335, "is_reserved": 0, "is_disabled": 0, "fusion_lon": 0.0, "bike_id": "54bfa1f4075b7400f250ad784a00c7db", "lon": -76.988874, "rental_uris": {"ios": "https://dc.lft.to/lastmile_qr_scan", "android": "https://dc.lft.to/lastmile_qr_scan"}}, {"name": "01202a113868b51e7e09a58659e603a1", "fusion_lat": 0.0, "type": "electric_scooter", "lat": 38.921009166666664, "is_reserved": 0, "is_disabled": 0, "fusion_lon": 0.0, "bike_id": "01202a113868b51e7e09a58659e603a1", "lon": -77.0318295, "rental_uris": {"ios": "https://dc.lft.to/lastmile_qr_scan", "android": "https://dc.lft.to/lastmile_qr_scan"}}, {"name": "4003473d5fbe22afb403f678c090fac7", "fusion_lat": 0.0, "type": "electric_scooter", "lat": 38.93122116666667, "is_reserved": 0, "is_disabled": 0, "fusion_lon": 0.0, "bike_id": "4003473d5fbe22afb403f678c090fac7", "lon": -77.0360145, "rental_uris": {"ios": "https://dc.lft.to/lastmile_qr_scan", "android": "https://dc.lft.to/lastmile_qr_scan"}}, {"name": "b4ee5b1edcb16f44b0a7277a677198a8", "fusion_lat": 0.0, "type": "electric_scooter", "lat": 38.89242633333333, "is_reserved": 0, "is_disabled": 0, "fusion_lon": 0.0, "bike_id": "b4ee5b1edcb16f44b0a7277a677198a8", "lon": -77.031833, "rental_uris": {"ios": "https://dc.lft.to/lastmile_qr_scan", "android": "https://dc.lft.to/lastmile_qr_scan"}}, {"name": "6f76bc41b6e9e6497f3cf5445026dbe6", "fusion_lat": 0.0, "type": "electric_scooter", "lat": 38.90006566666667, "is_reserved": 0, "is_disabled": 0, "fusion_lon": 0.0, "bike_id": "6f76bc41b6e9e6497f3cf5445026dbe6", "lon": -77.02609166666667, "rental_uris": {"ios": "https://dc.lft.to/lastmile_qr_scan", "android": "https://dc.lft.to/lastmile_qr_scan"}}, {"name": "5de5f1d1e98302a167e2d286719f3e3b", "fusion_lat": 0.0, "type": "electric_scooter", "lat": 38.910027, "is_reserved": 0, "is_disabled": 0, "fusion_lon": 0.0, "bike_id": "5de5f1d1e98302a167e2d286719f3e3b", "lon": -77.01514916666666, "rental_uris": {"ios": "https://dc.lft.to/lastmile_qr_scan", "android": "https://dc.lft.to/lastmile_qr_scan"}}, {"name": "43ef823d2e08542f235a63476788698c", "fusion_lat": 0.0, "type": "electric_scooter", "lat": 38.92587983333333, "is_reserved": 0, "is_disabled": 0, "fusion_lon": 0.0, "bike_id": "43ef823d2e08542f235a63476788698c", "lon": -77.02606816666666, "rental_uris": {"ios": "https://dc.lft.to/lastmile_qr_scan", "android": "https://dc.lft.to/lastmile_qr_scan"}}, {"name": "390e3c1ef3428cbf1c3cfad674d1b491", "fusion_lat": 0.0, "type": "electric_scooter", "lat": 38.912573333333334, "is_reserved": 0, "is_disabled": 0, "fusion_lon": 0.0, "bike_id": "390e3c1ef3428cbf1c3cfad674d1b491", "lon": -77.03867966666667, "rental_uris": {"ios": "https://dc.lft.to/lastmile_qr_scan", "android": "https://dc.lft.to/lastmile_qr_scan"}}, {"name": "a04603935727f0c34521b61cdf904f9e", "fusion_lat": 0.0, "type": "electric_scooter", "lat": 38.90722733333333, "is_reserved": 0, "is_disabled": 0, "fusion_lon": 0.0, "bike_id": "a04603935727f0c34521b61cdf904f9e", "lon": -77.04486783333333, "rental_uris": {"ios": "https://dc.lft.to/lastmile_qr_scan", "android": "https://dc.lft.to/lastmile_qr_scan"}}, {"name": "eb0846ca8b1141d37241430952260af1", "fusion_lat": 0.0, "type": "electric_scooter", "lat": 38.86658283333333, "is_reserved": 0, "is_disabled": 0, "fusion_lon": 0.0, "bike_id": "eb0846ca8b1141d37241430952260af1", "lon": -76.98886633333333, "rental_uris": {"ios": "https://dc.lft.to/lastmile_qr_scan", "android": "https://dc.lft.to/lastmile_qr_scan"}}, {"name": "ec194cf9ab1089ea24c6dbd740a0dab6", "fusion_lat": 0.0, "type": "electric_scooter", "lat": 38.92266266666667, "is_reserved": 0, "is_disabled": 0, "fusion_lon": 0.0, "bike_id": "ec194cf9ab1089ea24c6dbd740a0dab6", "lon": -77.03407883333334, "rental_uris": {"ios": "https://dc.lft.to/lastmile_qr_scan", "android": "https://dc.lft.to/lastmile_qr_scan"}}, {"name": "96f791b22dc8ef7a9d48d7125ed7ebda", "fusion_lat": 0.0, "type": "electric_bike", "lat": 39.03039916666667, "is_reserved": 0, "is_disabled": 0, "fusion_lon": 0.0, "bike_id": "96f791b22dc8ef7a9d48d7125ed7ebda", "lon": -77.09481216666667, "rental_uris": {"ios": "https://dc.lft.to/lastmile_qr_scan", "android": "https://dc.lft.to/lastmile_qr_scan"}}, {"name": "4760b122c42fb69ee82526741e79b867", "fusion_lat": 0.0, "type": "electric_scooter", "lat": 38.95402583333333, "is_reserved": 0, "is_disabled": 0, "fusion_lon": 0.0, "bike_id": "4760b122c42fb69ee82526741e79b867", "lon": -77.0275075, "rental_uris": {"ios": "https://dc.lft.to/lastmile_qr_scan", "android": "https://dc.lft.to/lastmile_qr_scan"}}, {"name": "ba3ac5f27581c4a90b9efabea3bd6c23", "fusion_lat": 0.0, "type": "electric_scooter", "lat": 38.899634, "is_reserved": 0, "is_disabled": 0, "fusion_lon": 0.0, "bike_id": "ba3ac5f27581c4a90b9efabea3bd6c23", "lon": -77.0408465, "rental_uris": {"ios": "https://dc.lft.to/lastmile_qr_scan", "android": "https://dc.lft.to/lastmile_qr_scan"}}, {"name": "b765a6fef1c11246d35c6319dfba04d2", "fusion_lat": 0.0, "type": "electric_scooter", "lat": 38.91230683333333, "is_reserved": 0, "is_disabled": 0, "fusion_lon": 0.0, "bike_id": "b765a6fef1c11246d35c6319dfba04d2", "lon": -77.051114, "rental_uris": {"ios": "https://dc.lft.to/lastmile_qr_scan", "android": "https://dc.lft.to/lastmile_qr_scan"}}, {"name": "3d5513c3e926865af0d5718ca9b0feb1", "fusion_lat": 0.0, "type": "electric_bike", "lat": 38.97067966666667, "is_reserved": 0, "is_disabled": 0, "fusion_lon": 0.0, "bike_id": "3d5513c3e926865af0d5718ca9b0feb1", "lon": -76.93613616666667, "rental_uris": {"ios": "https://dc.lft.to/lastmile_qr_scan", "android": "https://dc.lft.to/lastmile_qr_scan"}}, {"name": "8662c4b6cf51692dd34000ef5fe142de", "fusion_lat": 0.0, "type": "electric_scooter", "lat": 38.9224435, "is_reserved": 0, "is_disabled": 0, "fusion_lon": 0.0, "bike_id": "8662c4b6cf51692dd34000ef5fe142de", "lon": -77.03663266666666, "rental_uris": {"ios": "https://dc.lft.to/lastmile_qr_scan", "android": "https://dc.lft.to/lastmile_qr_scan"}}, {"name": "6169223e71ec4178517f895e33cabc89", "fusion_lat": 0.0, "type": "electric_scooter", "lat": 38.94296416666667, "is_reserved": 0, "is_disabled": 0, "fusion_lon": 0.0, "bike_id": "6169223e71ec4178517f895e33cabc89", "lon": -77.0680565, "rental_uris": {"ios": "https://dc.lft.to/lastmile_qr_scan", "android": "https://dc.lft.to/lastmile_qr_scan"}}, {"name": "5095841de85297e2b5b92632bf77c4a3", "fusion_lat": 0.0, "type": "electric_scooter", "lat": 38.923166, "is_reserved": 0, "is_disabled": 0, "fusion_lon": 0.0, "bike_id": "5095841de85297e2b5b92632bf77c4a3", "lon": -77.02982183333333, "rental_uris": {"ios": "https://dc.lft.to/lastmile_qr_scan", "android": "https://dc.lft.to/lastmile_qr_scan"}}, {"name": "2d3c6dce4235c3704c5debd05d5285da", "fusion_lat": 0.0, "type": "electric_scooter", "lat": 38.91267, "is_reserved": 0, "is_disabled": 0, "fusion_lon": 0.0, "bike_id": "2d3c6dce4235c3704c5debd05d5285da", "lon": -77.03826233333334, "rental_uris": {"ios": "https://dc.lft.to/lastmile_qr_scan", "android": "https://dc.lft.to/lastmile_qr_scan"}}, {"name": "5393669f4644197c52d0c791fbcb9e68", "fusion_lat": 0.0, "type": "electric_bike", "lat": 38.83984566666667, "is_reserved": 0, "is_disabled": 0, "fusion_lon": 0.0, "bike_id": "5393669f4644197c52d0c791fbcb9e68", "lon": -77.0056585, "rental_uris": {"ios": "https://dc.lft.to/lastmile_qr_scan", "android": "https://dc.lft.to/lastmile_qr_scan"}}, {"name": "c33b90e3f5156d3715d2e1a94f038ebe", "fusion_lat": 0.0, "type": "electric_scooter", "lat": 38.9122475, "is_reserved": 0, "is_disabled": 0, "fusion_lon": 0.0, "bike_id": "c33b90e3f5156d3715d2e1a94f038ebe", "lon": -77.03200916666667, "rental_uris": {"ios": "https://dc.lft.to/lastmile_qr_scan", "android": "https://dc.lft.to/lastmile_qr_scan"}}, {"name": "2989725cb935ddaa86122f1c1b42e0bd", "fusion_lat": 0.0, "type": "electric_scooter", "lat": 38.895920833333335, "is_reserved": 0, "is_disabled": 0, "fusion_lon": 0.0, "bike_id": "2989725cb935ddaa86122f1c1b42e0bd", "lon": -76.99359416666667, "rental_uris": {"ios": "https://dc.lft.to/lastmile_qr_scan", "android": "https://dc.lft.to/lastmile_qr_scan"}}, {"name": "195ea11d818832b597c5f848e9a507e1", "fusion_lat": 0.0, "type": "electric_scooter", "lat": 38.8921955, "is_reserved": 0, "is_disabled": 0, "fusion_lon": 0.0, "bike_id": "195ea11d818832b597c5f848e9a507e1", "lon": -77.02230483333334, "rental_uris": {"ios": "https://dc.lft.to/lastmile_qr_scan", "android": "https://dc.lft.to/lastmile_qr_scan"}}, {"name": "6f6ea2afb4d3310e5d062676905553a3", "fusion_lat": 0.0, "type": "electric_scooter", "lat": 38.943130333333336, "is_reserved": 0, "is_disabled": 0, "fusion_lon": 0.0, "bike_id": "6f6ea2afb4d3310e5d062676905553a3", "lon": -77.02485866666666, "rental_uris": {"ios": "https://dc.lft.to/lastmile_qr_scan", "android": "https://dc.lft.to/lastmile_qr_scan"}}, {"name": "fd82fdd3b67884b0b73afcabd9b33a98", "fusion_lat": 0.0, "type": "electric_scooter", "lat": 38.912460333333335, "is_reserved": 0, "is_disabled": 0, "fusion_lon": 0.0, "bike_id": "fd82fdd3b67884b0b73afcabd9b33a98", "lon": -77.0383955, "rental_uris": {"ios": "https://dc.lft.to/lastmile_qr_scan", "android": "https://dc.lft.to/lastmile_qr_scan"}}, {"name": "3fb3c8800adb1b9ae2755e8dc7b72265", "fusion_lat": 0.0, "type": "electric_scooter", "lat": 38.929789666666665, "is_reserved": 0, "is_disabled": 0, "fusion_lon": 0.0, "bike_id": "3fb3c8800adb1b9ae2755e8dc7b72265", "lon": -77.01450116666666, "rental_uris": {"ios": "https://dc.lft.to/lastmile_qr_scan", "android": "https://dc.lft.to/lastmile_qr_scan"}}, {"name": "19a8535e3503ce59091e322262c1532f", "fusion_lat": 0.0, "type": "electric_scooter", "lat": 38.862472833333335, "is_reserved": 0, "is_disabled": 0, "fusion_lon": 0.0, "bike_id": "19a8535e3503ce59091e322262c1532f", "lon": -76.9952915, "rental_uris": {"ios": "https://dc.lft.to/lastmile_qr_scan", "android": "https://dc.lft.to/lastmile_qr_scan"}}, {"name": "a4a6e41953beee128af0d42518cfaa6e", "fusion_lat": 0.0, "type": "electric_bike", "lat": 38.9169715, "is_reserved": 0, "is_disabled": 0, "fusion_lon": 0.0, "bike_id": "a4a6e41953beee128af0d42518cfaa6e", "lon": -77.042877, "rental_uris": {"ios": "https://dc.lft.to/lastmile_qr_scan", "android": "https://dc.lft.to/lastmile_qr_scan"}}, {"name": "d59d8b7a124754f9a3cc22101da60a04", "fusion_lat": 0.0, "type": "electric_scooter", "lat": 38.888383166666664, "is_reserved": 0, "is_disabled": 0, "fusion_lon": 0.0, "bike_id": "d59d8b7a124754f9a3cc22101da60a04", "lon": -77.049059, "rental_uris": {"ios": "https://dc.lft.to/lastmile_qr_scan", "android": "https://dc.lft.to/lastmile_qr_scan"}}, {"name": "19ec691495a12977b567a7c62c741438", "fusion_lat": 0.0, "type": "electric_scooter", "lat": 38.9006105, "is_reserved": 0, "is_disabled": 0, "fusion_lon": 0.0, "bike_id": "19ec691495a12977b567a7c62c741438", "lon": -77.0507505, "rental_uris": {"ios": "https://dc.lft.to/lastmile_qr_scan", "android": "https://dc.lft.to/lastmile_qr_scan"}}, {"name": "55c46f79f2a01100b5efbbabe24139e8", "fusion_lat": 0.0, "type": "electric_bike", "lat": 38.862765833333334, "is_reserved": 0, "is_disabled": 0, "fusion_lon": 0.0, "bike_id": "55c46f79f2a01100b5efbbabe24139e8", "lon": -77.05977616666667, "rental_uris": {"ios": "https://dc.lft.to/lastmile_qr_scan", "android": "https://dc.lft.to/lastmile_qr_scan"}}, {"name": "0343ae60fdf691235aed990eaa98daff", "fusion_lat": 0.0, "type": "electric_scooter", "lat": 38.903129166666666, "is_reserved": 0, "is_disabled": 0, "fusion_lon": 0.0, "bike_id": "0343ae60fdf691235aed990eaa98daff", "lon": -77.03468766666667, "rental_uris": {"ios": "https://dc.lft.to/lastmile_qr_scan", "android": "https://dc.lft.to/lastmile_qr_scan"}}, {"name": "b05f7c452aa32c65923634b3cce75305", "fusion_lat": 0.0, "type": "electric_bike", "lat": 38.920037, "is_reserved": 0, "is_disabled": 0, "fusion_lon": 0.0, "bike_id": "b05f7c452aa32c65923634b3cce75305", "lon": -76.97492616666666, "rental_uris": {"ios": "https://dc.lft.to/lastmile_qr_scan", "android": "https://dc.lft.to/lastmile_qr_scan"}}, {"name": "7f6ee71ab257cae1e4e86e7f8566226a", "fusion_lat": 0.0, "type": "electric_scooter", "lat": 38.9121095, "is_reserved": 0, "is_disabled": 0, "fusion_lon": 0.0, "bike_id": "7f6ee71ab257cae1e4e86e7f8566226a", "lon": -77.075971, "rental_uris": {"ios": "https://dc.lft.to/lastmile_qr_scan", "android": "https://dc.lft.to/lastmile_qr_scan"}}, {"name": "68316ce325d5d029270b180ff694f5c8", "fusion_lat": 0.0, "type": "electric_scooter", "lat": 38.919182, "is_reserved": 0, "is_disabled": 0, "fusion_lon": 0.0, "bike_id": "68316ce325d5d029270b180ff694f5c8", "lon": -77.01345066666667, "rental_uris": {"ios": "https://dc.lft.to/lastmile_qr_scan", "android": "https://dc.lft.to/lastmile_qr_scan"}}, {"name": "6b0950da1911218a136a4661feb79728", "fusion_lat": 0.0, "type": "electric_scooter", "lat": 38.918091833333335, "is_reserved": 0, "is_disabled": 0, "fusion_lon": 0.0, "bike_id": "6b0950da1911218a136a4661feb79728", "lon": -77.01023883333333, "rental_uris": {"ios": "https://dc.lft.to/lastmile_qr_scan", "android": "https://dc.lft.to/lastmile_qr_scan"}}, {"name": "b437c3aad499d375dbf859be200bd297", "fusion_lat": 0.0, "type": "electric_scooter", "lat": 38.91265633333333, "is_reserved": 0, "is_disabled": 0, "fusion_lon": 0.0, "bike_id": "b437c3aad499d375dbf859be200bd297", "lon": -77.06086333333333, "rental_uris": {"ios": "https://dc.lft.to/lastmile_qr_scan", "android": "https://dc.lft.to/lastmile_qr_scan"}}, {"name": "b189065feb0c1bb99b3cd8a891d10883", "fusion_lat": 0.0, "type": "electric_scooter", "lat": 38.880678333333336, "is_reserved": 0, "is_disabled": 0, "fusion_lon": 0.0, "bike_id": "b189065feb0c1bb99b3cd8a891d10883", "lon": -76.93533383333333, "rental_uris": {"ios": "https://dc.lft.to/lastmile_qr_scan", "android": "https://dc.lft.to/lastmile_qr_scan"}}, {"name": "77674c806f50d6d19cc0fc4110e7573d", "fusion_lat": 0.0, "type": "electric_scooter", "lat": 38.84292033333333, "is_reserved": 0, "is_disabled": 0, "fusion_lon": 0.0, "bike_id": "77674c806f50d6d19cc0fc4110e7573d", "lon": -76.99944933333333, "rental_uris": {"ios": "https://dc.lft.to/lastmile_qr_scan", "android": "https://dc.lft.to/lastmile_qr_scan"}}, {"name": "34a9ee890aa30e40e09cfbff431450d0", "fusion_lat": 0.0, "type": "electric_scooter", "lat": 38.918223, "is_reserved": 0, "is_disabled": 0, "fusion_lon": 0.0, "bike_id": "34a9ee890aa30e40e09cfbff431450d0", "lon": -77.01209716666666, "rental_uris": {"ios": "https://dc.lft.to/lastmile_qr_scan", "android": "https://dc.lft.to/lastmile_qr_scan"}}, {"name": "3e4d5ea9106f2f8393ed96a632fb1e2f", "fusion_lat": 0.0, "type": "electric_scooter", "lat": 38.88499616666667, "is_reserved": 0, "is_disabled": 0, "fusion_lon": 0.0, "bike_id": "3e4d5ea9106f2f8393ed96a632fb1e2f", "lon": -77.02188766666667, "rental_uris": {"ios": "https://dc.lft.to/lastmile_qr_scan", "android": "https://dc.lft.to/lastmile_qr_scan"}}, {"name": "113d14c71453faa076cc436e6f9f5472", "fusion_lat": 0.0, "type": "electric_scooter", "lat": 38.9097355, "is_reserved": 0, "is_disabled": 0, "fusion_lon": 0.0, "bike_id": "113d14c71453faa076cc436e6f9f5472", "lon": -77.04548633333333, "rental_uris": {"ios": "https://dc.lft.to/lastmile_qr_scan", "android": "https://dc.lft.to/lastmile_qr_scan"}}, {"name": "7c24cf609334382db1090ec9552c16a7", "fusion_lat": 0.0, "type": "electric_scooter", "lat": 38.918210333333334, "is_reserved": 0, "is_disabled": 0, "fusion_lon": 0.0, "bike_id": "7c24cf609334382db1090ec9552c16a7", "lon": -77.00261633333334, "rental_uris": {"ios": "https://dc.lft.to/lastmile_qr_scan", "android": "https://dc.lft.to/lastmile_qr_scan"}}, {"name": "f93a5e82e3a6d5cd395433b94eaf80f6", "fusion_lat": 0.0, "type": "electric_scooter", "lat": 38.90447283333334, "is_reserved": 0, "is_disabled": 0, "fusion_lon": 0.0, "bike_id": "f93a5e82e3a6d5cd395433b94eaf80f6", "lon": -76.99627233333334, "rental_uris": {"ios": "https://dc.lft.to/lastmile_qr_scan", "android": "https://dc.lft.to/lastmile_qr_scan"}}, {"name": "527d3a2b7cda9ca3098b2df5add91a6f", "fusion_lat": 0.0, "type": "electric_scooter", "lat": 38.89584833333333, "is_reserved": 0, "is_disabled": 0, "fusion_lon": 0.0, "bike_id": "527d3a2b7cda9ca3098b2df5add91a6f", "lon": -76.937182, "rental_uris": {"ios": "https://dc.lft.to/lastmile_qr_scan", "android": "https://dc.lft.to/lastmile_qr_scan"}}, {"name": "5f5f17820054d834ef746386a443fc7c", "fusion_lat": 0.0, "type": "electric_scooter", "lat": 38.877599333333336, "is_reserved": 0, "is_disabled": 0, "fusion_lon": 0.0, "bike_id": "5f5f17820054d834ef746386a443fc7c", "lon": -76.99430866666667, "rental_uris": {"ios": "https://dc.lft.to/lastmile_qr_scan", "android": "https://dc.lft.to/lastmile_qr_scan"}}, {"name": "88663a3bd2f4e7b4d642b5cabf5ef88b", "fusion_lat": 0.0, "type": "electric_scooter", "lat": 38.85614416666667, "is_reserved": 0, "is_disabled": 0, "fusion_lon": 0.0, "bike_id": "88663a3bd2f4e7b4d642b5cabf5ef88b", "lon": -76.98019866666667, "rental_uris": {"ios": "https://dc.lft.to/lastmile_qr_scan", "android": "https://dc.lft.to/lastmile_qr_scan"}}, {"name": "da11bbd1472f9ae6ca4d3e6a5eaec87b", "fusion_lat": 0.0, "type": "electric_scooter", "lat": 38.911166333333334, "is_reserved": 0, "is_disabled": 0, "fusion_lon": 0.0, "bike_id": "da11bbd1472f9ae6ca4d3e6a5eaec87b", "lon": -77.03734066666667, "rental_uris": {"ios": "https://dc.lft.to/lastmile_qr_scan", "android": "https://dc.lft.to/lastmile_qr_scan"}}, {"name": "0643980b13137e16b7d759d2a905ea45", "fusion_lat": 0.0, "type": "electric_scooter", "lat": 38.906537, "is_reserved": 0, "is_disabled": 0, "fusion_lon": 0.0, "bike_id": "0643980b13137e16b7d759d2a905ea45", "lon": -77.0530645, "rental_uris": {"ios": "https://dc.lft.to/lastmile_qr_scan", "android": "https://dc.lft.to/lastmile_qr_scan"}}, {"name": "23d253a5d3902cb742d8a59383ce9ac3", "fusion_lat": 0.0, "type": "electric_scooter", "lat": 38.903396, "is_reserved": 0, "is_disabled": 0, "fusion_lon": 0.0, "bike_id": "23d253a5d3902cb742d8a59383ce9ac3", "lon": -76.94669666666667, "rental_uris": {"ios": "https://dc.lft.to/lastmile_qr_scan", "android": "https://dc.lft.to/lastmile_qr_scan"}}, {"name": "ec4e26d111d923c2225071cd393d322b", "fusion_lat": 0.0, "type": "electric_bike", "lat": 38.94361116666666, "is_reserved": 0, "is_disabled": 0, "fusion_lon": 0.0, "bike_id": "ec4e26d111d923c2225071cd393d322b", "lon": -77.003427, "rental_uris": {"ios": "https://dc.lft.to/lastmile_qr_scan", "android": "https://dc.lft.to/lastmile_qr_scan"}}, {"name": "5bad47d51895a682945a2a0689eb08b0", "fusion_lat": 0.0, "type": "electric_scooter", "lat": 38.90135083333333, "is_reserved": 0, "is_disabled": 0, "fusion_lon": 0.0, "bike_id": "5bad47d51895a682945a2a0689eb08b0", "lon": -77.03972116666667, "rental_uris": {"ios": "https://dc.lft.to/lastmile_qr_scan", "android": "https://dc.lft.to/lastmile_qr_scan"}}, {"name": "98323ee0697bbb65ff693c8501260a8f", "fusion_lat": 0.0, "type": "electric_scooter", "lat": 38.901446166666666, "is_reserved": 0, "is_disabled": 0, "fusion_lon": 0.0, "bike_id": "98323ee0697bbb65ff693c8501260a8f", "lon": -77.0450055, "rental_uris": {"ios": "https://dc.lft.to/lastmile_qr_scan", "android": "https://dc.lft.to/lastmile_qr_scan"}}, {"name": "64bab472d4eb88bc7e03465fbf05d4b1", "fusion_lat": 0.0, "type": "electric_scooter", "lat": 38.90737683333333, "is_reserved": 0, "is_disabled": 0, "fusion_lon": 0.0, "bike_id": "64bab472d4eb88bc7e03465fbf05d4b1", "lon": -77.03446483333333, "rental_uris": {"ios": "https://dc.lft.to/lastmile_qr_scan", "android": "https://dc.lft.to/lastmile_qr_scan"}}, {"name": "e9e0b4b52ae102327533b7fc0838fa9e", "fusion_lat": 0.0, "type": "electric_bike", "lat": 38.99230516666667, "is_reserved": 0, "is_disabled": 0, "fusion_lon": 0.0, "bike_id": "e9e0b4b52ae102327533b7fc0838fa9e", "lon": -76.87817283333334, "rental_uris": {"ios": "https://dc.lft.to/lastmile_qr_scan", "android": "https://dc.lft.to/lastmile_qr_scan"}}, {"name": "ff551ebccdae0bd540e7a76d9674bd0a", "fusion_lat": 0.0, "type": "electric_scooter", "lat": 38.9084425, "is_reserved": 0, "is_disabled": 0, "fusion_lon": 0.0, "bike_id": "ff551ebccdae0bd540e7a76d9674bd0a", "lon": -77.031829, "rental_uris": {"ios": "https://dc.lft.to/lastmile_qr_scan", "android": "https://dc.lft.to/lastmile_qr_scan"}}, {"name": "00306622c0ac085d807a678467ba9443", "fusion_lat": 0.0, "type": "electric_scooter", "lat": 38.902607833333334, "is_reserved": 0, "is_disabled": 0, "fusion_lon": 0.0, "bike_id": "00306622c0ac085d807a678467ba9443", "lon": -76.99598666666667, "rental_uris": {"ios": "https://dc.lft.to/lastmile_qr_scan", "android": "https://dc.lft.to/lastmile_qr_scan"}}, {"name": "e8829e23e6929faeb3866c4c3e238b45", "fusion_lat": 0.0, "type": "electric_scooter", "lat": 38.93764616666667, "is_reserved": 0, "is_disabled": 0, "fusion_lon": 0.0, "bike_id": "e8829e23e6929faeb3866c4c3e238b45", "lon": -77.03284216666667, "rental_uris": {"ios": "https://dc.lft.to/lastmile_qr_scan", "android": "https://dc.lft.to/lastmile_qr_scan"}}, {"name": "3038e26c5bbf1405a4f567355e08f60b", "fusion_lat": 0.0, "type": "electric_scooter", "lat": 38.92637383333334, "is_reserved": 0, "is_disabled": 0, "fusion_lon": 0.0, "bike_id": "3038e26c5bbf1405a4f567355e08f60b", "lon": -77.0369575, "rental_uris": {"ios": "https://dc.lft.to/lastmile_qr_scan", "android": "https://dc.lft.to/lastmile_qr_scan"}}, {"name": "3e840ceba863ad781a12b84fdf5e441b", "fusion_lat": 0.0, "type": "electric_scooter", "lat": 38.909620833333335, "is_reserved": 0, "is_disabled": 0, "fusion_lon": 0.0, "bike_id": "3e840ceba863ad781a12b84fdf5e441b", "lon": -77.03385433333334, "rental_uris": {"ios": "https://dc.lft.to/lastmile_qr_scan", "android": "https://dc.lft.to/lastmile_qr_scan"}}, {"name": "0d6794ef1d3cab05ed88c7b5ba58a549", "fusion_lat": 0.0, "type": "electric_scooter", "lat": 38.889183, "is_reserved": 0, "is_disabled": 0, "fusion_lon": 0.0, "bike_id": "0d6794ef1d3cab05ed88c7b5ba58a549", "lon": -76.953769, "rental_uris": {"ios": "https://dc.lft.to/lastmile_qr_scan", "android": "https://dc.lft.to/lastmile_qr_scan"}}, {"name": "2c2ea177569d7dc8cb17e061232c3b3e", "fusion_lat": 0.0, "type": "electric_scooter", "lat": 38.911934333333335, "is_reserved": 0, "is_disabled": 0, "fusion_lon": 0.0, "bike_id": "2c2ea177569d7dc8cb17e061232c3b3e", "lon": -77.04458766666667, "rental_uris": {"ios": "https://dc.lft.to/lastmile_qr_scan", "android": "https://dc.lft.to/lastmile_qr_scan"}}, {"name": "3442a85c1bd2714357741b9a152ac609", "fusion_lat": 0.0, "type": "electric_scooter", "lat": 38.92886033333333, "is_reserved": 0, "is_disabled": 0, "fusion_lon": 0.0, "bike_id": "3442a85c1bd2714357741b9a152ac609", "lon": -77.02312516666667, "rental_uris": {"ios": "https://dc.lft.to/lastmile_qr_scan", "android": "https://dc.lft.to/lastmile_qr_scan"}}, {"name": "f88a2ab21d360945158f6fd7245f7ecc", "fusion_lat": 0.0, "type": "electric_scooter", "lat": 38.905683833333335, "is_reserved": 0, "is_disabled": 0, "fusion_lon": 0.0, "bike_id": "f88a2ab21d360945158f6fd7245f7ecc", "lon": -77.02751766666667, "rental_uris": {"ios": "https://dc.lft.to/lastmile_qr_scan", "android": "https://dc.lft.to/lastmile_qr_scan"}}, {"name": "d328bd9abd0dc391610b034d122db820", "fusion_lat": 0.0, "type": "electric_scooter", "lat": 38.89195016666667, "is_reserved": 0, "is_disabled": 0, "fusion_lon": 0.0, "bike_id": "d328bd9abd0dc391610b034d122db820", "lon": -77.002449, "rental_uris": {"ios": "https://dc.lft.to/lastmile_qr_scan", "android": "https://dc.lft.to/lastmile_qr_scan"}}, {"name": "7e00734e55da5ecc07504e14bae7dc15", "fusion_lat": 0.0, "type": "electric_scooter", "lat": 38.93471266666667, "is_reserved": 0, "is_disabled": 0, "fusion_lon": 0.0, "bike_id": "7e00734e55da5ecc07504e14bae7dc15", "lon": -77.028411, "rental_uris": {"ios": "https://dc.lft.to/lastmile_qr_scan", "android": "https://dc.lft.to/lastmile_qr_scan"}}, {"name": "799b502794aedc06bca87455c0ed8aea", "fusion_lat": 0.0, "type": "electric_scooter", "lat": 38.903827166666666, "is_reserved": 0, "is_disabled": 0, "fusion_lon": 0.0, "bike_id": "799b502794aedc06bca87455c0ed8aea", "lon": -77.04512533333333, "rental_uris": {"ios": "https://dc.lft.to/lastmile_qr_scan", "android": "https://dc.lft.to/lastmile_qr_scan"}}, {"name": "7bed1c8d60d7118a8c4547e9207e55ea", "fusion_lat": 0.0, "type": "electric_scooter", "lat": 38.93950666666667, "is_reserved": 0, "is_disabled": 0, "fusion_lon": 0.0, "bike_id": "7bed1c8d60d7118a8c4547e9207e55ea", "lon": -77.03268083333333, "rental_uris": {"ios": "https://dc.lft.to/lastmile_qr_scan", "android": "https://dc.lft.to/lastmile_qr_scan"}}, {"name": "55743aa99633b567bd5e5649f29e862b", "fusion_lat": 0.0, "type": "electric_scooter", "lat": 38.879144, "is_reserved": 0, "is_disabled": 0, "fusion_lon": 0.0, "bike_id": "55743aa99633b567bd5e5649f29e862b", "lon": -77.021561, "rental_uris": {"ios": "https://dc.lft.to/lastmile_qr_scan", "android": "https://dc.lft.to/lastmile_qr_scan"}}, {"name": "b6eee01a5e631663e5172540c176ccf0", "fusion_lat": 0.0, "type": "electric_scooter", "lat": 38.929642666666666, "is_reserved": 0, "is_disabled": 0, "fusion_lon": 0.0, "bike_id": "b6eee01a5e631663e5172540c176ccf0", "lon": -77.01975116666667, "rental_uris": {"ios": "https://dc.lft.to/lastmile_qr_scan", "android": "https://dc.lft.to/lastmile_qr_scan"}}, {"name": "c53409a37cd2cbaa6fa0810389c2d995", "fusion_lat": 0.0, "type": "electric_scooter", "lat": 38.8955405, "is_reserved": 0, "is_disabled": 0, "fusion_lon": 0.0, "bike_id": "c53409a37cd2cbaa6fa0810389c2d995", "lon": -76.98376483333334, "rental_uris": {"ios": "https://dc.lft.to/lastmile_qr_scan", "android": "https://dc.lft.to/lastmile_qr_scan"}}, {"name": "eba3771db71344ba7cbb4732f37c204a", "fusion_lat": 0.0, "type": "electric_scooter", "lat": 38.9395005, "is_reserved": 0, "is_disabled": 0, "fusion_lon": 0.0, "bike_id": "eba3771db71344ba7cbb4732f37c204a", "lon": -77.0326305, "rental_uris": {"ios": "https://dc.lft.to/lastmile_qr_scan", "android": "https://dc.lft.to/lastmile_qr_scan"}}, {"name": "8de8d9843032628f14306ff135496dc7", "fusion_lat": 0.0, "type": "electric_bike", "lat": 38.85220133333333, "is_reserved": 0, "is_disabled": 0, "fusion_lon": 0.0, "bike_id": "8de8d9843032628f14306ff135496dc7", "lon": -77.12960933333333, "rental_uris": {"ios": "https://dc.lft.to/lastmile_qr_scan", "android": "https://dc.lft.to/lastmile_qr_scan"}}, {"name": "7474ed3eea4590af62574bc8cd48b730", "fusion_lat": 0.0, "type": "electric_scooter", "lat": 38.87666316666667, "is_reserved": 0, "is_disabled": 0, "fusion_lon": 0.0, "bike_id": "7474ed3eea4590af62574bc8cd48b730", "lon": -77.00424516666666, "rental_uris": {"ios": "https://dc.lft.to/lastmile_qr_scan", "android": "https://dc.lft.to/lastmile_qr_scan"}}, {"name": "0fbf49a3104e884c1ced4f7cc4279c2b", "fusion_lat": 0.0, "type": "electric_scooter", "lat": 38.91725133333333, "is_reserved": 0, "is_disabled": 0, "fusion_lon": 0.0, "bike_id": "0fbf49a3104e884c1ced4f7cc4279c2b", "lon": -77.03839516666666, "rental_uris": {"ios": "https://dc.lft.to/lastmile_qr_scan", "android": "https://dc.lft.to/lastmile_qr_scan"}}, {"name": "42590520c0392f1851a59d7aae49e237", "fusion_lat": 0.0, "type": "electric_scooter", "lat": 38.900782, "is_reserved": 0, "is_disabled": 0, "fusion_lon": 0.0, "bike_id": "42590520c0392f1851a59d7aae49e237", "lon": -77.04891816666667, "rental_uris": {"ios": "https://dc.lft.to/lastmile_qr_scan", "android": "https://dc.lft.to/lastmile_qr_scan"}}, {"name": "0131f8e16d9ddce8afc7d64f1efc1376", "fusion_lat": 0.0, "type": "electric_scooter", "lat": 38.88047866666667, "is_reserved": 0, "is_disabled": 0, "fusion_lon": 0.0, "bike_id": "0131f8e16d9ddce8afc7d64f1efc1376", "lon": -76.95987766666667, "rental_uris": {"ios": "https://dc.lft.to/lastmile_qr_scan", "android": "https://dc.lft.to/lastmile_qr_scan"}}, {"name": "974139c4f07dc3788aff096eb807a4a5", "fusion_lat": 0.0, "type": "electric_scooter", "lat": 38.91580116666667, "is_reserved": 0, "is_disabled": 0, "fusion_lon": 0.0, "bike_id": "974139c4f07dc3788aff096eb807a4a5", "lon": -77.0319775, "rental_uris": {"ios": "https://dc.lft.to/lastmile_qr_scan", "android": "https://dc.lft.to/lastmile_qr_scan"}}, {"name": "56ea8be65382c3eaa26ecdbc69d09fce", "fusion_lat": 0.0, "type": "electric_bike", "lat": 38.86595366666667, "is_reserved": 0, "is_disabled": 0, "fusion_lon": 0.0, "bike_id": "56ea8be65382c3eaa26ecdbc69d09fce", "lon": -76.9323135, "rental_uris": {"ios": "https://dc.lft.to/lastmile_qr_scan", "android": "https://dc.lft.to/lastmile_qr_scan"}}, {"name": "5a379a94ad10a65a072215ffa91720f2", "fusion_lat": 0.0, "type": "electric_scooter", "lat": 38.9194745, "is_reserved": 0, "is_disabled": 0, "fusion_lon": 0.0, "bike_id": "5a379a94ad10a65a072215ffa91720f2", "lon": -77.0140365, "rental_uris": {"ios": "https://dc.lft.to/lastmile_qr_scan", "android": "https://dc.lft.to/lastmile_qr_scan"}}, {"name": "c526a3bbd624ddf23c8d9ce048f73150", "fusion_lat": 0.0, "type": "electric_bike", "lat": 38.984539, "is_reserved": 0, "is_disabled": 0, "fusion_lon": 0.0, "bike_id": "c526a3bbd624ddf23c8d9ce048f73150", "lon": -76.9552375, "rental_uris": {"ios": "https://dc.lft.to/lastmile_qr_scan", "android": "https://dc.lft.to/lastmile_qr_scan"}}, {"name": "a0c1d43d8d23122eef196894467fa8c1", "fusion_lat": 0.0, "type": "electric_scooter", "lat": 38.91121533333333, "is_reserved": 0, "is_disabled": 0, "fusion_lon": 0.0, "bike_id": "a0c1d43d8d23122eef196894467fa8c1", "lon": -77.02934516666667, "rental_uris": {"ios": "https://dc.lft.to/lastmile_qr_scan", "android": "https://dc.lft.to/lastmile_qr_scan"}}, {"name": "daacb1ddbadaf9bb104af0b749767986", "fusion_lat": 0.0, "type": "electric_scooter", "lat": 38.887441333333335, "is_reserved": 0, "is_disabled": 0, "fusion_lon": 0.0, "bike_id": "daacb1ddbadaf9bb104af0b749767986", "lon": -77.02128166666667, "rental_uris": {"ios": "https://dc.lft.to/lastmile_qr_scan", "android": "https://dc.lft.to/lastmile_qr_scan"}}, {"name": "1127b0bfa0803306767d7d6f152defec", "fusion_lat": 0.0, "type": "electric_scooter", "lat": 38.91625966666667, "is_reserved": 0, "is_disabled": 0, "fusion_lon": 0.0, "bike_id": "1127b0bfa0803306767d7d6f152defec", "lon": -77.03185983333333, "rental_uris": {"ios": "https://dc.lft.to/lastmile_qr_scan", "android": "https://dc.lft.to/lastmile_qr_scan"}}, {"name": "881f9fea59741de68d6e053351bc6ae4", "fusion_lat": 0.0, "type": "electric_scooter", "lat": 38.911733166666664, "is_reserved": 0, "is_disabled": 0, "fusion_lon": 0.0, "bike_id": "881f9fea59741de68d6e053351bc6ae4", "lon": -77.00139, "rental_uris": {"ios": "https://dc.lft.to/lastmile_qr_scan", "android": "https://dc.lft.to/lastmile_qr_scan"}}, {"name": "fdbf6026a7f9354bb3bd7f1ead757ef0", "fusion_lat": 0.0, "type": "electric_scooter", "lat": 38.905115, "is_reserved": 0, "is_disabled": 0, "fusion_lon": 0.0, "bike_id": "fdbf6026a7f9354bb3bd7f1ead757ef0", "lon": -77.02599466666666, "rental_uris": {"ios": "https://dc.lft.to/lastmile_qr_scan", "android": "https://dc.lft.to/lastmile_qr_scan"}}, {"name": "9a7cd35ed378f9d8c97bff9c65e04da0", "fusion_lat": 0.0, "type": "electric_scooter", "lat": 38.92624566666667, "is_reserved": 0, "is_disabled": 0, "fusion_lon": 0.0, "bike_id": "9a7cd35ed378f9d8c97bff9c65e04da0", "lon": -77.04189383333333, "rental_uris": {"ios": "https://dc.lft.to/lastmile_qr_scan", "android": "https://dc.lft.to/lastmile_qr_scan"}}, {"name": "0ab873e9c33ef5bf06cce6dd0247176d", "fusion_lat": 0.0, "type": "electric_scooter", "lat": 38.905319666666664, "is_reserved": 0, "is_disabled": 0, "fusion_lon": 0.0, "bike_id": "0ab873e9c33ef5bf06cce6dd0247176d", "lon": -77.05766283333334, "rental_uris": {"ios": "https://dc.lft.to/lastmile_qr_scan", "android": "https://dc.lft.to/lastmile_qr_scan"}}, {"name": "fa9790b4d888eb52ebe40387ddc61b9d", "fusion_lat": 0.0, "type": "electric_scooter", "lat": 38.89400633333333, "is_reserved": 0, "is_disabled": 0, "fusion_lon": 0.0, "bike_id": "fa9790b4d888eb52ebe40387ddc61b9d", "lon": -76.94801616666666, "rental_uris": {"ios": "https://dc.lft.to/lastmile_qr_scan", "android": "https://dc.lft.to/lastmile_qr_scan"}}, {"name": "0b3995862bc984c5ba633eb795bd2e9c", "fusion_lat": 0.0, "type": "electric_bike", "lat": 38.83809883333333, "is_reserved": 0, "is_disabled": 0, "fusion_lon": 0.0, "bike_id": "0b3995862bc984c5ba633eb795bd2e9c", "lon": -77.09525, "rental_uris": {"ios": "https://dc.lft.to/lastmile_qr_scan", "android": "https://dc.lft.to/lastmile_qr_scan"}}, {"name": "e812f4dda8e09f525bff5f6b9c4be2df", "fusion_lat": 0.0, "type": "electric_scooter", "lat": 38.908012666666664, "is_reserved": 0, "is_disabled": 0, "fusion_lon": 0.0, "bike_id": "e812f4dda8e09f525bff5f6b9c4be2df", "lon": -77.04349733333333, "rental_uris": {"ios": "https://dc.lft.to/lastmile_qr_scan", "android": "https://dc.lft.to/lastmile_qr_scan"}}, {"name": "724d6f92c74f41c79928084ca9c3a0e7", "fusion_lat": 0.0, "type": "electric_scooter", "lat": 38.919300166666666, "is_reserved": 0, "is_disabled": 0, "fusion_lon": 0.0, "bike_id": "724d6f92c74f41c79928084ca9c3a0e7", "lon": -77.03423883333333, "rental_uris": {"ios": "https://dc.lft.to/lastmile_qr_scan", "android": "https://dc.lft.to/lastmile_qr_scan"}}, {"name": "492c46e6004d0e2a6a2811cf1cd7f61f", "fusion_lat": 0.0, "type": "electric_scooter", "lat": 38.93573816666667, "is_reserved": 0, "is_disabled": 0, "fusion_lon": 0.0, "bike_id": "492c46e6004d0e2a6a2811cf1cd7f61f", "lon": -76.9909915, "rental_uris": {"ios": "https://dc.lft.to/lastmile_qr_scan", "android": "https://dc.lft.to/lastmile_qr_scan"}}, {"name": "69f38e8cdc3fa0e0b75b74a252af42ef", "fusion_lat": 0.0, "type": "electric_scooter", "lat": 38.9015635, "is_reserved": 0, "is_disabled": 0, "fusion_lon": 0.0, "bike_id": "69f38e8cdc3fa0e0b75b74a252af42ef", "lon": -76.93062533333334, "rental_uris": {"ios": "https://dc.lft.to/lastmile_qr_scan", "android": "https://dc.lft.to/lastmile_qr_scan"}}, {"name": "fc133a6967e86298fe14cdf5b4c6c015", "fusion_lat": 0.0, "type": "electric_scooter", "lat": 38.85708133333333, "is_reserved": 0, "is_disabled": 0, "fusion_lon": 0.0, "bike_id": "fc133a6967e86298fe14cdf5b4c6c015", "lon": -76.981297, "rental_uris": {"ios": "https://dc.lft.to/lastmile_qr_scan", "android": "https://dc.lft.to/lastmile_qr_scan"}}, {"name": "313a31695027ca3074417813455d4ea8", "fusion_lat": 0.0, "type": "electric_scooter", "lat": 38.925232333333334, "is_reserved": 0, "is_disabled": 0, "fusion_lon": 0.0, "bike_id": "313a31695027ca3074417813455d4ea8", "lon": -77.055399, "rental_uris": {"ios": "https://dc.lft.to/lastmile_qr_scan", "android": "https://dc.lft.to/lastmile_qr_scan"}}, {"name": "fafe00a6823fb3ce5e4ead3d2d337eef", "fusion_lat": 0.0, "type": "electric_scooter", "lat": 38.88426883333333, "is_reserved": 0, "is_disabled": 0, "fusion_lon": 0.0, "bike_id": "fafe00a6823fb3ce5e4ead3d2d337eef", "lon": -76.95748266666666, "rental_uris": {"ios": "https://dc.lft.to/lastmile_qr_scan", "android": "https://dc.lft.to/lastmile_qr_scan"}}, {"name": "8ed9c864feec4925506b8c677947e476", "fusion_lat": 0.0, "type": "electric_scooter", "lat": 38.92343, "is_reserved": 0, "is_disabled": 0, "fusion_lon": 0.0, "bike_id": "8ed9c864feec4925506b8c677947e476", "lon": -77.03519933333334, "rental_uris": {"ios": "https://dc.lft.to/lastmile_qr_scan", "android": "https://dc.lft.to/lastmile_qr_scan"}}, {"name": "fb735f1b41f6c908b36e668f5ab88972", "fusion_lat": 0.0, "type": "electric_bike", "lat": 38.90328566666667, "is_reserved": 0, "is_disabled": 0, "fusion_lon": 0.0, "bike_id": "fb735f1b41f6c908b36e668f5ab88972", "lon": -76.97535383333333, "rental_uris": {"ios": "https://dc.lft.to/lastmile_qr_scan", "android": "https://dc.lft.to/lastmile_qr_scan"}}, {"name": "803b77243d2567847de04703c2084ebd", "fusion_lat": 0.0, "type": "electric_scooter", "lat": 38.9313965, "is_reserved": 0, "is_disabled": 0, "fusion_lon": 0.0, "bike_id": "803b77243d2567847de04703c2084ebd", "lon": -77.04060866666667, "rental_uris": {"ios": "https://dc.lft.to/lastmile_qr_scan", "android": "https://dc.lft.to/lastmile_qr_scan"}}, {"name": "84b16bfa8fdb844f0fa659c8915941f1", "fusion_lat": 0.0, "type": "electric_scooter", "lat": 38.90780083333333, "is_reserved": 0, "is_disabled": 0, "fusion_lon": 0.0, "bike_id": "84b16bfa8fdb844f0fa659c8915941f1", "lon": -77.03862416666666, "rental_uris": {"ios": "https://dc.lft.to/lastmile_qr_scan", "android": "https://dc.lft.to/lastmile_qr_scan"}}, {"name": "a01f17096606396eb4c6c6e4793566fc", "fusion_lat": 0.0, "type": "electric_scooter", "lat": 38.884242, "is_reserved": 0, "is_disabled": 0, "fusion_lon": 0.0, "bike_id": "a01f17096606396eb4c6c6e4793566fc", "lon": -76.98587016666667, "rental_uris": {"ios": "https://dc.lft.to/lastmile_qr_scan", "android": "https://dc.lft.to/lastmile_qr_scan"}}, {"name": "05db90acc7a4d8b59248efa4b50002f0", "fusion_lat": 0.0, "type": "electric_scooter", "lat": 38.923115, "is_reserved": 0, "is_disabled": 0, "fusion_lon": 0.0, "bike_id": "05db90acc7a4d8b59248efa4b50002f0", "lon": -77.03543233333333, "rental_uris": {"ios": "https://dc.lft.to/lastmile_qr_scan", "android": "https://dc.lft.to/lastmile_qr_scan"}}, {"name": "f5262d61c030099c8df7ce1fb5d21322", "fusion_lat": 0.0, "type": "electric_scooter", "lat": 38.924819666666664, "is_reserved": 0, "is_disabled": 0, "fusion_lon": 0.0, "bike_id": "f5262d61c030099c8df7ce1fb5d21322", "lon": -77.03486233333334, "rental_uris": {"ios": "https://dc.lft.to/lastmile_qr_scan", "android": "https://dc.lft.to/lastmile_qr_scan"}}, {"name": "ac0909bc7aaf87e869a95ddb80399120", "fusion_lat": 0.0, "type": "electric_scooter", "lat": 38.920526333333335, "is_reserved": 0, "is_disabled": 0, "fusion_lon": 0.0, "bike_id": "ac0909bc7aaf87e869a95ddb80399120", "lon": -77.0237375, "rental_uris": {"ios": "https://dc.lft.to/lastmile_qr_scan", "android": "https://dc.lft.to/lastmile_qr_scan"}}, {"name": "efd8718b81cc476be97215081fd3177c", "fusion_lat": 0.0, "type": "electric_scooter", "lat": 38.8552605, "is_reserved": 0, "is_disabled": 0, "fusion_lon": 0.0, "bike_id": "efd8718b81cc476be97215081fd3177c", "lon": -76.96918683333334, "rental_uris": {"ios": "https://dc.lft.to/lastmile_qr_scan", "android": "https://dc.lft.to/lastmile_qr_scan"}}, {"name": "07e890066b33f284a45f5d135df94905", "fusion_lat": 0.0, "type": "electric_scooter", "lat": 38.9239085, "is_reserved": 0, "is_disabled": 0, "fusion_lon": 0.0, "bike_id": "07e890066b33f284a45f5d135df94905", "lon": -77.029792, "rental_uris": {"ios": "https://dc.lft.to/lastmile_qr_scan", "android": "https://dc.lft.to/lastmile_qr_scan"}}, {"name": "0a1564421c4a9642f8aeb5c3456ce170", "fusion_lat": 0.0, "type": "electric_bike", "lat": 38.89638733333334, "is_reserved": 0, "is_disabled": 0, "fusion_lon": 0.0, "bike_id": "0a1564421c4a9642f8aeb5c3456ce170", "lon": -77.104591, "rental_uris": {"ios": "https://dc.lft.to/lastmile_qr_scan", "android": "https://dc.lft.to/lastmile_qr_scan"}}, {"name": "66a828c5d8dfbd83e90ef991a20214c0", "fusion_lat": 0.0, "type": "electric_scooter", "lat": 38.952666666666666, "is_reserved": 0, "is_disabled": 0, "fusion_lon": 0.0, "bike_id": "66a828c5d8dfbd83e90ef991a20214c0", "lon": -77.02568516666666, "rental_uris": {"ios": "https://dc.lft.to/lastmile_qr_scan", "android": "https://dc.lft.to/lastmile_qr_scan"}}, {"name": "4c7d7686a483f3e13b7cc55422531f70", "fusion_lat": 0.0, "type": "electric_scooter", "lat": 38.89405516666667, "is_reserved": 0, "is_disabled": 0, "fusion_lon": 0.0, "bike_id": "4c7d7686a483f3e13b7cc55422531f70", "lon": -76.9480355, "rental_uris": {"ios": "https://dc.lft.to/lastmile_qr_scan", "android": "https://dc.lft.to/lastmile_qr_scan"}}, {"name": "617d172b2aa1c0ed4f6421e1f80ad130", "fusion_lat": 0.0, "type": "electric_scooter", "lat": 38.864126166666665, "is_reserved": 0, "is_disabled": 0, "fusion_lon": 0.0, "bike_id": "617d172b2aa1c0ed4f6421e1f80ad130", "lon": -76.9805025, "rental_uris": {"ios": "https://dc.lft.to/lastmile_qr_scan", "android": "https://dc.lft.to/lastmile_qr_scan"}}, {"name": "68fc821d05f84a5fd0eac00487f32f7e", "fusion_lat": 0.0, "type": "electric_scooter", "lat": 38.888973166666666, "is_reserved": 0, "is_disabled": 0, "fusion_lon": 0.0, "bike_id": "68fc821d05f84a5fd0eac00487f32f7e", "lon": -77.0328505, "rental_uris": {"ios": "https://dc.lft.to/lastmile_qr_scan", "android": "https://dc.lft.to/lastmile_qr_scan"}}, {"name": "c68a91ef0a7c6c097460799b29708d0f", "fusion_lat": 0.0, "type": "electric_scooter", "lat": 38.90979016666667, "is_reserved": 0, "is_disabled": 0, "fusion_lon": 0.0, "bike_id": "c68a91ef0a7c6c097460799b29708d0f", "lon": -77.0671445, "rental_uris": {"ios": "https://dc.lft.to/lastmile_qr_scan", "android": "https://dc.lft.to/lastmile_qr_scan"}}, {"name": "ed0df68a1e005324ea8bfee0cde244ac", "fusion_lat": 0.0, "type": "electric_scooter", "lat": 38.911181, "is_reserved": 0, "is_disabled": 0, "fusion_lon": 0.0, "bike_id": "ed0df68a1e005324ea8bfee0cde244ac", "lon": -77.03831033333333, "rental_uris": {"ios": "https://dc.lft.to/lastmile_qr_scan", "android": "https://dc.lft.to/lastmile_qr_scan"}}, {"name": "8400af34866f74ed2ba5c772728c1ce8", "fusion_lat": 0.0, "type": "electric_scooter", "lat": 38.874169, "is_reserved": 0, "is_disabled": 0, "fusion_lon": 0.0, "bike_id": "8400af34866f74ed2ba5c772728c1ce8", "lon": -76.96088666666667, "rental_uris": {"ios": "https://dc.lft.to/lastmile_qr_scan", "android": "https://dc.lft.to/lastmile_qr_scan"}}, {"name": "309106dadca3cde7026eafcfb4ded27c", "fusion_lat": 0.0, "type": "electric_scooter", "lat": 38.896544666666664, "is_reserved": 0, "is_disabled": 0, "fusion_lon": 0.0, "bike_id": "309106dadca3cde7026eafcfb4ded27c", "lon": -76.94852366666667, "rental_uris": {"ios": "https://dc.lft.to/lastmile_qr_scan", "android": "https://dc.lft.to/lastmile_qr_scan"}}, {"name": "354e070319b972b89144be1cb5f6a90c", "fusion_lat": 0.0, "type": "electric_scooter", "lat": 38.90925083333333, "is_reserved": 0, "is_disabled": 0, "fusion_lon": 0.0, "bike_id": "354e070319b972b89144be1cb5f6a90c", "lon": -77.03840033333333, "rental_uris": {"ios": "https://dc.lft.to/lastmile_qr_scan", "android": "https://dc.lft.to/lastmile_qr_scan"}}, {"name": "4e2f583b5e8015afab70aca4d33e5281", "fusion_lat": 0.0, "type": "electric_scooter", "lat": 38.91833916666667, "is_reserved": 0, "is_disabled": 0, "fusion_lon": 0.0, "bike_id": "4e2f583b5e8015afab70aca4d33e5281", "lon": -77.02301283333334, "rental_uris": {"ios": "https://dc.lft.to/lastmile_qr_scan", "android": "https://dc.lft.to/lastmile_qr_scan"}}, {"name": "81d8a76cab1d47bd91c42e0cb52afb25", "fusion_lat": 0.0, "type": "electric_scooter", "lat": 38.903155, "is_reserved": 0, "is_disabled": 0, "fusion_lon": 0.0, "bike_id": "81d8a76cab1d47bd91c42e0cb52afb25", "lon": -76.99159666666667, "rental_uris": {"ios": "https://dc.lft.to/lastmile_qr_scan", "android": "https://dc.lft.to/lastmile_qr_scan"}}, {"name": "e8e680905cbd32890e982163e060650b", "fusion_lat": 0.0, "type": "electric_scooter", "lat": 38.942906666666666, "is_reserved": 0, "is_disabled": 0, "fusion_lon": 0.0, "bike_id": "e8e680905cbd32890e982163e060650b", "lon": -77.02171383333334, "rental_uris": {"ios": "https://dc.lft.to/lastmile_qr_scan", "android": "https://dc.lft.to/lastmile_qr_scan"}}, {"name": "9adecb5efd86311d5f0414954c3665ab", "fusion_lat": 0.0, "type": "electric_scooter", "lat": 38.918706666666665, "is_reserved": 0, "is_disabled": 0, "fusion_lon": 0.0, "bike_id": "9adecb5efd86311d5f0414954c3665ab", "lon": -77.0230095, "rental_uris": {"ios": "https://dc.lft.to/lastmile_qr_scan", "android": "https://dc.lft.to/lastmile_qr_scan"}}, {"name": "f1149f6c0a0c966ea1ebf4a03befef2f", "fusion_lat": 0.0, "type": "electric_scooter", "lat": 38.91260166666667, "is_reserved": 0, "is_disabled": 0, "fusion_lon": 0.0, "bike_id": "f1149f6c0a0c966ea1ebf4a03befef2f", "lon": -77.03872266666667, "rental_uris": {"ios": "https://dc.lft.to/lastmile_qr_scan", "android": "https://dc.lft.to/lastmile_qr_scan"}}, {"name": "203c8b8d8d258063ec4bffd9c810c1bb", "fusion_lat": 0.0, "type": "electric_scooter", "lat": 38.916984, "is_reserved": 0, "is_disabled": 0, "fusion_lon": 0.0, "bike_id": "203c8b8d8d258063ec4bffd9c810c1bb", "lon": -77.02465283333333, "rental_uris": {"ios": "https://dc.lft.to/lastmile_qr_scan", "android": "https://dc.lft.to/lastmile_qr_scan"}}, {"name": "928a22b3219392b3180c9209dc400eeb", "fusion_lat": 0.0, "type": "electric_scooter", "lat": 38.913227666666664, "is_reserved": 0, "is_disabled": 0, "fusion_lon": 0.0, "bike_id": "928a22b3219392b3180c9209dc400eeb", "lon": -77.01776783333334, "rental_uris": {"ios": "https://dc.lft.to/lastmile_qr_scan", "android": "https://dc.lft.to/lastmile_qr_scan"}}, {"name": "70fd640b56c0630202dd634eb7ffab36", "fusion_lat": 0.0, "type": "electric_scooter", "lat": 38.89088533333333, "is_reserved": 0, "is_disabled": 0, "fusion_lon": 0.0, "bike_id": "70fd640b56c0630202dd634eb7ffab36", "lon": -76.98732383333333, "rental_uris": {"ios": "https://dc.lft.to/lastmile_qr_scan", "android": "https://dc.lft.to/lastmile_qr_scan"}}, {"name": "718cea892cd876d01832cf1d98969025", "fusion_lat": 0.0, "type": "electric_scooter", "lat": 38.918259, "is_reserved": 0, "is_disabled": 0, "fusion_lon": 0.0, "bike_id": "718cea892cd876d01832cf1d98969025", "lon": -77.02709466666667, "rental_uris": {"ios": "https://dc.lft.to/lastmile_qr_scan", "android": "https://dc.lft.to/lastmile_qr_scan"}}, {"name": "966149e61b3b29096ea8e92a1be6be6c", "fusion_lat": 0.0, "type": "electric_scooter", "lat": 38.907007666666665, "is_reserved": 0, "is_disabled": 0, "fusion_lon": 0.0, "bike_id": "966149e61b3b29096ea8e92a1be6be6c", "lon": -76.98852, "rental_uris": {"ios": "https://dc.lft.to/lastmile_qr_scan", "android": "https://dc.lft.to/lastmile_qr_scan"}}, {"name": "08307c4edacfc64fbc8d33cb9e13fc79", "fusion_lat": 0.0, "type": "electric_scooter", "lat": 38.932542833333336, "is_reserved": 0, "is_disabled": 0, "fusion_lon": 0.0, "bike_id": "08307c4edacfc64fbc8d33cb9e13fc79", "lon": -77.04001533333333, "rental_uris": {"ios": "https://dc.lft.to/lastmile_qr_scan", "android": "https://dc.lft.to/lastmile_qr_scan"}}, {"name": "ebfaf6f7d7338dd1ce1754f891a8c123", "fusion_lat": 0.0, "type": "electric_scooter", "lat": 38.92687466666667, "is_reserved": 0, "is_disabled": 0, "fusion_lon": 0.0, "bike_id": "ebfaf6f7d7338dd1ce1754f891a8c123", "lon": -77.03777283333334, "rental_uris": {"ios": "https://dc.lft.to/lastmile_qr_scan", "android": "https://dc.lft.to/lastmile_qr_scan"}}, {"name": "cb3a95f58b964503f81c0e1030741e31", "fusion_lat": 0.0, "type": "electric_scooter", "lat": 38.905103833333335, "is_reserved": 0, "is_disabled": 0, "fusion_lon": 0.0, "bike_id": "cb3a95f58b964503f81c0e1030741e31", "lon": -77.0450235, "rental_uris": {"ios": "https://dc.lft.to/lastmile_qr_scan", "android": "https://dc.lft.to/lastmile_qr_scan"}}, {"name": "fff0431dcdeefe2cee2a7c7600e1575b", "fusion_lat": 0.0, "type": "electric_scooter", "lat": 38.9110945, "is_reserved": 0, "is_disabled": 0, "fusion_lon": 0.0, "bike_id": "fff0431dcdeefe2cee2a7c7600e1575b", "lon": -77.04927433333333, "rental_uris": {"ios": "https://dc.lft.to/lastmile_qr_scan", "android": "https://dc.lft.to/lastmile_qr_scan"}}, {"name": "7aa180efffe9eaf2cf1ee00588a10d20", "fusion_lat": 0.0, "type": "electric_scooter", "lat": 38.908658333333335, "is_reserved": 0, "is_disabled": 0, "fusion_lon": 0.0, "bike_id": "7aa180efffe9eaf2cf1ee00588a10d20", "lon": -76.99954066666666, "rental_uris": {"ios": "https://dc.lft.to/lastmile_qr_scan", "android": "https://dc.lft.to/lastmile_qr_scan"}}, {"name": "1dfc4b9dd8f7d115540d72896c41b6e3", "fusion_lat": 0.0, "type": "electric_scooter", "lat": 38.91914466666667, "is_reserved": 0, "is_disabled": 0, "fusion_lon": 0.0, "bike_id": "1dfc4b9dd8f7d115540d72896c41b6e3", "lon": -77.03431766666667, "rental_uris": {"ios": "https://dc.lft.to/lastmile_qr_scan", "android": "https://dc.lft.to/lastmile_qr_scan"}}, {"name": "eef35412d401d116e5a8234b500b5af4", "fusion_lat": 0.0, "type": "electric_scooter", "lat": 38.90474483333333, "is_reserved": 0, "is_disabled": 0, "fusion_lon": 0.0, "bike_id": "eef35412d401d116e5a8234b500b5af4", "lon": -77.03864333333334, "rental_uris": {"ios": "https://dc.lft.to/lastmile_qr_scan", "android": "https://dc.lft.to/lastmile_qr_scan"}}, {"name": "96da7f0eba6c83a4949a36a07b4a7ab4", "fusion_lat": 0.0, "type": "electric_scooter", "lat": 38.921779, "is_reserved": 0, "is_disabled": 0, "fusion_lon": 0.0, "bike_id": "96da7f0eba6c83a4949a36a07b4a7ab4", "lon": -77.0424375, "rental_uris": {"ios": "https://dc.lft.to/lastmile_qr_scan", "android": "https://dc.lft.to/lastmile_qr_scan"}}, {"name": "8d4161518e1e471ab93e8fdff0f43051", "fusion_lat": 0.0, "type": "electric_scooter", "lat": 38.9159945, "is_reserved": 0, "is_disabled": 0, "fusion_lon": 0.0, "bike_id": "8d4161518e1e471ab93e8fdff0f43051", "lon": -77.04160016666667, "rental_uris": {"ios": "https://dc.lft.to/lastmile_qr_scan", "android": "https://dc.lft.to/lastmile_qr_scan"}}, {"name": "8cb8447cd045cb589814c646b407f6d6", "fusion_lat": 0.0, "type": "electric_scooter", "lat": 38.9359185, "is_reserved": 0, "is_disabled": 0, "fusion_lon": 0.0, "bike_id": "8cb8447cd045cb589814c646b407f6d6", "lon": -77.03651883333333, "rental_uris": {"ios": "https://dc.lft.to/lastmile_qr_scan", "android": "https://dc.lft.to/lastmile_qr_scan"}}, {"name": "82b1c3078f54f32c4a45094407f4cb4c", "fusion_lat": 0.0, "type": "electric_scooter", "lat": 38.9015845, "is_reserved": 0, "is_disabled": 0, "fusion_lon": 0.0, "bike_id": "82b1c3078f54f32c4a45094407f4cb4c", "lon": -77.0592605, "rental_uris": {"ios": "https://dc.lft.to/lastmile_qr_scan", "android": "https://dc.lft.to/lastmile_qr_scan"}}, {"name": "37e40edeb43e10243a12879e787f46f5", "fusion_lat": 0.0, "type": "electric_bike", "lat": 38.815148666666666, "is_reserved": 0, "is_disabled": 0, "fusion_lon": 0.0, "bike_id": "37e40edeb43e10243a12879e787f46f5", "lon": -77.12652333333334, "rental_uris": {"ios": "https://dc.lft.to/lastmile_qr_scan", "android": "https://dc.lft.to/lastmile_qr_scan"}}, {"name": "1b36c2e2016d8dda5eb96781576203b6", "fusion_lat": 0.0, "type": "electric_bike", "lat": 38.8918845, "is_reserved": 0, "is_disabled": 0, "fusion_lon": 0.0, "bike_id": "1b36c2e2016d8dda5eb96781576203b6", "lon": -77.12261533333333, "rental_uris": {"ios": "https://dc.lft.to/lastmile_qr_scan", "android": "https://dc.lft.to/lastmile_qr_scan"}}, {"name": "0d4fada04294cc16eca06b56dc7fb45c", "fusion_lat": 0.0, "type": "electric_scooter", "lat": 38.896104333333334, "is_reserved": 0, "is_disabled": 0, "fusion_lon": 0.0, "bike_id": "0d4fada04294cc16eca06b56dc7fb45c", "lon": -77.046912, "rental_uris": {"ios": "https://dc.lft.to/lastmile_qr_scan", "android": "https://dc.lft.to/lastmile_qr_scan"}}, {"name": "8a47e906f626a3abd249fa7c2bee8746", "fusion_lat": 0.0, "type": "electric_scooter", "lat": 38.91230566666667, "is_reserved": 0, "is_disabled": 0, "fusion_lon": 0.0, "bike_id": "8a47e906f626a3abd249fa7c2bee8746", "lon": -77.0383795, "rental_uris": {"ios": "https://dc.lft.to/lastmile_qr_scan", "android": "https://dc.lft.to/lastmile_qr_scan"}}, {"name": "228595d2d0dd52e8aa1abd73825203b7", "fusion_lat": 0.0, "type": "electric_scooter", "lat": 38.933595, "is_reserved": 0, "is_disabled": 0, "fusion_lon": 0.0, "bike_id": "228595d2d0dd52e8aa1abd73825203b7", "lon": -77.0372555, "rental_uris": {"ios": "https://dc.lft.to/lastmile_qr_scan", "android": "https://dc.lft.to/lastmile_qr_scan"}}, {"name": "de46fe8efe78c8807633d399353dc5d0", "fusion_lat": 0.0, "type": "electric_scooter", "lat": 38.906731666666666, "is_reserved": 0, "is_disabled": 0, "fusion_lon": 0.0, "bike_id": "de46fe8efe78c8807633d399353dc5d0", "lon": -76.9781495, "rental_uris": {"ios": "https://dc.lft.to/lastmile_qr_scan", "android": "https://dc.lft.to/lastmile_qr_scan"}}, {"name": "a8df8d24379363b8b19f6789f7a588ba", "fusion_lat": 0.0, "type": "electric_scooter", "lat": 38.91692033333333, "is_reserved": 0, "is_disabled": 0, "fusion_lon": 0.0, "bike_id": "a8df8d24379363b8b19f6789f7a588ba", "lon": -77.02894483333333, "rental_uris": {"ios": "https://dc.lft.to/lastmile_qr_scan", "android": "https://dc.lft.to/lastmile_qr_scan"}}, {"name": "239e2b45bd62e2150175e21233a1baf8", "fusion_lat": 0.0, "type": "electric_scooter", "lat": 38.905185833333334, "is_reserved": 0, "is_disabled": 0, "fusion_lon": 0.0, "bike_id": "239e2b45bd62e2150175e21233a1baf8", "lon": -77.04742, "rental_uris": {"ios": "https://dc.lft.to/lastmile_qr_scan", "android": "https://dc.lft.to/lastmile_qr_scan"}}, {"name": "72ecdc1bf2df1d7729d5f026356eb1dc", "fusion_lat": 0.0, "type": "electric_bike", "lat": 38.83192916666667, "is_reserved": 0, "is_disabled": 0, "fusion_lon": 0.0, "bike_id": "72ecdc1bf2df1d7729d5f026356eb1dc", "lon": -77.07687166666666, "rental_uris": {"ios": "https://dc.lft.to/lastmile_qr_scan", "android": "https://dc.lft.to/lastmile_qr_scan"}}, {"name": "a72275c845b428bec7ea3e384f6e6ebe", "fusion_lat": 0.0, "type": "electric_scooter", "lat": 38.905392, "is_reserved": 0, "is_disabled": 0, "fusion_lon": 0.0, "bike_id": "a72275c845b428bec7ea3e384f6e6ebe", "lon": -77.05038683333333, "rental_uris": {"ios": "https://dc.lft.to/lastmile_qr_scan", "android": "https://dc.lft.to/lastmile_qr_scan"}}, {"name": "d88d6d02539b1d0253e33637da4cb1ea", "fusion_lat": 0.0, "type": "electric_bike", "lat": 38.95548766666667, "is_reserved": 0, "is_disabled": 0, "fusion_lon": 0.0, "bike_id": "d88d6d02539b1d0253e33637da4cb1ea", "lon": -76.93541583333334, "rental_uris": {"ios": "https://dc.lft.to/lastmile_qr_scan", "android": "https://dc.lft.to/lastmile_qr_scan"}}, {"name": "fef7f8a53f45f75897ab51648634bdcd", "fusion_lat": 0.0, "type": "electric_scooter", "lat": 38.93381883333333, "is_reserved": 0, "is_disabled": 0, "fusion_lon": 0.0, "bike_id": "fef7f8a53f45f75897ab51648634bdcd", "lon": -77.05763916666666, "rental_uris": {"ios": "https://dc.lft.to/lastmile_qr_scan", "android": "https://dc.lft.to/lastmile_qr_scan"}}, {"name": "d33ff2b9629ac1cb000c21e20f4aa3f0", "fusion_lat": 0.0, "type": "electric_scooter", "lat": 38.908483833333335, "is_reserved": 0, "is_disabled": 0, "fusion_lon": 0.0, "bike_id": "d33ff2b9629ac1cb000c21e20f4aa3f0", "lon": -77.02046, "rental_uris": {"ios": "https://dc.lft.to/lastmile_qr_scan", "android": "https://dc.lft.to/lastmile_qr_scan"}}, {"name": "8d3425abfa00fdb37ec303be0917d0e2", "fusion_lat": 0.0, "type": "electric_scooter", "lat": 38.901632, "is_reserved": 0, "is_disabled": 0, "fusion_lon": 0.0, "bike_id": "8d3425abfa00fdb37ec303be0917d0e2", "lon": -77.02185583333333, "rental_uris": {"ios": "https://dc.lft.to/lastmile_qr_scan", "android": "https://dc.lft.to/lastmile_qr_scan"}}, {"name": "327b7226bad7fe1fc221303e548cda7c", "fusion_lat": 0.0, "type": "electric_scooter", "lat": 38.942897333333335, "is_reserved": 0, "is_disabled": 0, "fusion_lon": 0.0, "bike_id": "327b7226bad7fe1fc221303e548cda7c", "lon": -77.02174316666667, "rental_uris": {"ios": "https://dc.lft.to/lastmile_qr_scan", "android": "https://dc.lft.to/lastmile_qr_scan"}}, {"name": "19656967bb52ed4189a724adc36e01ca", "fusion_lat": 0.0, "type": "electric_scooter", "lat": 38.912522333333335, "is_reserved": 0, "is_disabled": 0, "fusion_lon": 0.0, "bike_id": "19656967bb52ed4189a724adc36e01ca", "lon": -77.022271, "rental_uris": {"ios": "https://dc.lft.to/lastmile_qr_scan", "android": "https://dc.lft.to/lastmile_qr_scan"}}, {"name": "c563eea2e696ee8500191e4e490dcedc", "fusion_lat": 0.0, "type": "electric_scooter", "lat": 38.92998383333333, "is_reserved": 0, "is_disabled": 0, "fusion_lon": 0.0, "bike_id": "c563eea2e696ee8500191e4e490dcedc", "lon": -77.02306983333334, "rental_uris": {"ios": "https://dc.lft.to/lastmile_qr_scan", "android": "https://dc.lft.to/lastmile_qr_scan"}}, {"name": "b440d2adf67a545d73cbfa647162d4e9", "fusion_lat": 0.0, "type": "electric_scooter", "lat": 38.89731366666667, "is_reserved": 0, "is_disabled": 0, "fusion_lon": 0.0, "bike_id": "b440d2adf67a545d73cbfa647162d4e9", "lon": -76.942507, "rental_uris": {"ios": "https://dc.lft.to/lastmile_qr_scan", "android": "https://dc.lft.to/lastmile_qr_scan"}}, {"name": "1f162731588e74b3c73a6a32addbf5d6", "fusion_lat": 0.0, "type": "electric_scooter", "lat": 38.9141555, "is_reserved": 0, "is_disabled": 0, "fusion_lon": 0.0, "bike_id": "1f162731588e74b3c73a6a32addbf5d6", "lon": -77.03170816666666, "rental_uris": {"ios": "https://dc.lft.to/lastmile_qr_scan", "android": "https://dc.lft.to/lastmile_qr_scan"}}, {"name": "4e063af68af23029cd5eae1b6b0cae46", "fusion_lat": 0.0, "type": "electric_scooter", "lat": 38.900113833333336, "is_reserved": 0, "is_disabled": 0, "fusion_lon": 0.0, "bike_id": "4e063af68af23029cd5eae1b6b0cae46", "lon": -77.03319216666667, "rental_uris": {"ios": "https://dc.lft.to/lastmile_qr_scan", "android": "https://dc.lft.to/lastmile_qr_scan"}}, {"name": "efad31fec02a1c0bf7de41e44b9e85b7", "fusion_lat": 0.0, "type": "electric_scooter", "lat": 38.9079705, "is_reserved": 0, "is_disabled": 0, "fusion_lon": 0.0, "bike_id": "efad31fec02a1c0bf7de41e44b9e85b7", "lon": -77.048213, "rental_uris": {"ios": "https://dc.lft.to/lastmile_qr_scan", "android": "https://dc.lft.to/lastmile_qr_scan"}}, {"name": "dfb247a8193ee8d3d7c581970a88af30", "fusion_lat": 0.0, "type": "electric_scooter", "lat": 38.90865316666667, "is_reserved": 0, "is_disabled": 0, "fusion_lon": 0.0, "bike_id": "dfb247a8193ee8d3d7c581970a88af30", "lon": -77.02715816666667, "rental_uris": {"ios": "https://dc.lft.to/lastmile_qr_scan", "android": "https://dc.lft.to/lastmile_qr_scan"}}, {"name": "2d5e5ea87c51addfc8c26f4063632547", "fusion_lat": 0.0, "type": "electric_bike", "lat": 38.935986666666665, "is_reserved": 0, "is_disabled": 0, "fusion_lon": 0.0, "bike_id": "2d5e5ea87c51addfc8c26f4063632547", "lon": -77.02116, "rental_uris": {"ios": "https://dc.lft.to/lastmile_qr_scan", "android": "https://dc.lft.to/lastmile_qr_scan"}}, {"name": "f7bd7cb4d67b8cea99c0ab55225bc303", "fusion_lat": 0.0, "type": "electric_bike", "lat": 38.84610683333333, "is_reserved": 0, "is_disabled": 0, "fusion_lon": 0.0, "bike_id": "f7bd7cb4d67b8cea99c0ab55225bc303", "lon": -76.97830733333333, "rental_uris": {"ios": "https://dc.lft.to/lastmile_qr_scan", "android": "https://dc.lft.to/lastmile_qr_scan"}}, {"name": "63947f4a884ac2d9b0c3d80883c80f9b", "fusion_lat": 0.0, "type": "electric_scooter", "lat": 38.908975, "is_reserved": 0, "is_disabled": 0, "fusion_lon": 0.0, "bike_id": "63947f4a884ac2d9b0c3d80883c80f9b", "lon": -77.02815866666667, "rental_uris": {"ios": "https://dc.lft.to/lastmile_qr_scan", "android": "https://dc.lft.to/lastmile_qr_scan"}}, {"name": "954accab8f2c6cdf6b1a552f2e4e8425", "fusion_lat": 0.0, "type": "electric_scooter", "lat": 38.903418, "is_reserved": 0, "is_disabled": 0, "fusion_lon": 0.0, "bike_id": "954accab8f2c6cdf6b1a552f2e4e8425", "lon": -77.05287616666666, "rental_uris": {"ios": "https://dc.lft.to/lastmile_qr_scan", "android": "https://dc.lft.to/lastmile_qr_scan"}}, {"name": "e725ef0d0b1a4dc86c9beefc5ff3c453", "fusion_lat": 0.0, "type": "electric_scooter", "lat": 38.919594333333336, "is_reserved": 0, "is_disabled": 0, "fusion_lon": 0.0, "bike_id": "e725ef0d0b1a4dc86c9beefc5ff3c453", "lon": -77.038546, "rental_uris": {"ios": "https://dc.lft.to/lastmile_qr_scan", "android": "https://dc.lft.to/lastmile_qr_scan"}}, {"name": "1e569695bf8662f663001a200b5f56fd", "fusion_lat": 0.0, "type": "electric_bike", "lat": 39.058113166666665, "is_reserved": 0, "is_disabled": 0, "fusion_lon": 0.0, "bike_id": "1e569695bf8662f663001a200b5f56fd", "lon": -77.12625783333333, "rental_uris": {"ios": "https://dc.lft.to/lastmile_qr_scan", "android": "https://dc.lft.to/lastmile_qr_scan"}}, {"name": "167113494c57127d45cb665bc05e81a3", "fusion_lat": 0.0, "type": "electric_scooter", "lat": 38.913333333333334, "is_reserved": 0, "is_disabled": 0, "fusion_lon": 0.0, "bike_id": "167113494c57127d45cb665bc05e81a3", "lon": -77.04581083333333, "rental_uris": {"ios": "https://dc.lft.to/lastmile_qr_scan", "android": "https://dc.lft.to/lastmile_qr_scan"}}, {"name": "30ddc7a70adc5ad095b745f966861a28", "fusion_lat": 0.0, "type": "electric_scooter", "lat": 38.9418165, "is_reserved": 0, "is_disabled": 0, "fusion_lon": 0.0, "bike_id": "30ddc7a70adc5ad095b745f966861a28", "lon": -77.03029266666667, "rental_uris": {"ios": "https://dc.lft.to/lastmile_qr_scan", "android": "https://dc.lft.to/lastmile_qr_scan"}}, {"name": "f81b3be4f4a64047494781848efff464", "fusion_lat": 0.0, "type": "electric_scooter", "lat": 38.919138333333336, "is_reserved": 0, "is_disabled": 0, "fusion_lon": 0.0, "bike_id": "f81b3be4f4a64047494781848efff464", "lon": -77.02620683333333, "rental_uris": {"ios": "https://dc.lft.to/lastmile_qr_scan", "android": "https://dc.lft.to/lastmile_qr_scan"}}, {"name": "ada2d44917f40d56d487d30bd485b1b0", "fusion_lat": 0.0, "type": "electric_bike", "lat": 39.089004333333335, "is_reserved": 0, "is_disabled": 0, "fusion_lon": 0.0, "bike_id": "ada2d44917f40d56d487d30bd485b1b0", "lon": -77.1784705, "rental_uris": {"ios": "https://dc.lft.to/lastmile_qr_scan", "android": "https://dc.lft.to/lastmile_qr_scan"}}, {"name": "2529a9f49ab6d2f6e616ddfc18397dec", "fusion_lat": 0.0, "type": "electric_scooter", "lat": 38.8972965, "is_reserved": 0, "is_disabled": 0, "fusion_lon": 0.0, "bike_id": "2529a9f49ab6d2f6e616ddfc18397dec", "lon": -77.00932633333333, "rental_uris": {"ios": "https://dc.lft.to/lastmile_qr_scan", "android": "https://dc.lft.to/lastmile_qr_scan"}}, {"name": "70dc2582ac0a61f7de6a711275f7811a", "fusion_lat": 0.0, "type": "electric_bike", "lat": 38.949663666666666, "is_reserved": 0, "is_disabled": 0, "fusion_lon": 0.0, "bike_id": "70dc2582ac0a61f7de6a711275f7811a", "lon": -76.96102266666666, "rental_uris": {"ios": "https://dc.lft.to/lastmile_qr_scan", "android": "https://dc.lft.to/lastmile_qr_scan"}}, {"name": "73f3055cd6702913f66976a966380b47", "fusion_lat": 0.0, "type": "electric_scooter", "lat": 38.92151483333333, "is_reserved": 0, "is_disabled": 0, "fusion_lon": 0.0, "bike_id": "73f3055cd6702913f66976a966380b47", "lon": -77.033859, "rental_uris": {"ios": "https://dc.lft.to/lastmile_qr_scan", "android": "https://dc.lft.to/lastmile_qr_scan"}}, {"name": "ee287c424e39d2cffb98811be06e7602", "fusion_lat": 0.0, "type": "electric_scooter", "lat": 38.90830283333333, "is_reserved": 0, "is_disabled": 0, "fusion_lon": 0.0, "bike_id": "ee287c424e39d2cffb98811be06e7602", "lon": -77.00107533333333, "rental_uris": {"ios": "https://dc.lft.to/lastmile_qr_scan", "android": "https://dc.lft.to/lastmile_qr_scan"}}, {"name": "e069d8ddfc4bb592cfd0ef7cabc64ba5", "fusion_lat": 0.0, "type": "electric_scooter", "lat": 38.90673316666667, "is_reserved": 0, "is_disabled": 0, "fusion_lon": 0.0, "bike_id": "e069d8ddfc4bb592cfd0ef7cabc64ba5", "lon": -77.02716416666667, "rental_uris": {"ios": "https://dc.lft.to/lastmile_qr_scan", "android": "https://dc.lft.to/lastmile_qr_scan"}},