{"data": {"bikes": [{"is_disabled": 0, "fusion_lon": 0.0, "fusion_lat": 0.0, "lat": 38.91805316666667, "type": "electric_scooter", "lon": -77.03441783333334, "bike_id": "5f1d0d42e99c2ffc589ef6b1bc48fc06", "rental_uris": {"android": "https://dc.lft.to/lastmile_qr_scan", "ios": "https://dc.lft.to/lastmile_qr_scan"}, "name": "5f1d0d42e99c2ffc589ef6b1bc48fc06", "is_reserved": 0}, {"is_disabled": 0, "fusion_lon": 0.0, "fusion_lat": 0.0, "lat": 38.842921, "type": "electric_scooter", "lon": -76.99941033333333, "bike_id": "89d7eaee40419c8e12faf25ffdc6cda0", "rental_uris": {"android": "https://dc.lft.to/lastmile_qr_scan", "ios": "https://dc.lft.to/lastmile_qr_scan"}, "name": "89d7eaee40419c8e12faf25ffdc6cda0", "is_reserved": 0}, {"is_disabled": 0, "fusion_lon": 0.0, "fusion_lat": 0.0, "lat": 38.90836383333333, "type": "electric_scooter", "lon": -76.9969965, "bike_id": "1f8cd3d83f2e9e756a2e8b41e5c92760", "rental_uris": {"android": "https://dc.lft.to/lastmile_qr_scan", "ios": "https://dc.lft.to/lastmile_qr_scan"}, "name": "1f8cd3d83f2e9e756a2e8b41e5c92760", "is_reserved": 0}, {"is_disabled": 0, "fusion_lon": 0.0, "fusion_lat": 0.0, "lat": 38.887016333333335, "type": "electric_scooter", "lon": -76.95360733333334, "bike_id": "76258fc80d660986ec64d7a00bb2319f", "rental_uris": {"android": "https://dc.lft.to/lastmile_qr_scan", "ios": "https://dc.lft.to/lastmile_qr_scan"}, "name": "76258fc80d660986ec64d7a00bb2319f", "is_reserved": 0}, {"is_disabled": 0, "fusion_lon": 0.0, "fusion_lat": 0.0, "lat": 38.897368166666666, "type": "electric_scooter", "lon": -77.007545, "bike_id": "72daab9b4139df0a0151bd401ae9ffee", "rental_uris": {"android": "https://dc.lft.to/lastmile_qr_scan", "ios": "https://dc.lft.to/lastmile_qr_scan"}, "name": "72daab9b4139df0a0151bd401ae9ffee", "is_reserved": 0}, {"is_disabled": 0, "fusion_lon": 0.0, "fusion_lat": 0.0, "lat": 38.917420166666666, "type": "electric_scooter", "lon": -77.02292866666667, "bike_id": "d7fd0fe902f0e1fbf6ff6e02d9e8f164", "rental_uris": {"android": "https://dc.lft.to/lastmile_qr_scan", "ios": "https://dc.lft.to/lastmile_qr_scan"}, "name": "d7fd0fe902f0e1fbf6ff6e02d9e8f164", "is_reserved": 0}, {"is_disabled": 0, "fusion_lon": 0.0, "fusion_lat": 0.0, "lat": 38.899684666666666, "type": "electric_scooter", "lon": -76.93978066666666, "bike_id": "2c98d89a8958b008911b8ecc6bd45b1b", "rental_uris": {"android": "https://dc.lft.to/lastmile_qr_scan", "ios": "https://dc.lft.to/lastmile_qr_scan"}, "name": "2c98d89a8958b008911b8ecc6bd45b1b", "is_reserved": 0}, {"is_disabled": 0, "fusion_lon": 0.0, "fusion_lat": 0.0, "lat": 38.91601566666667, "type": "electric_scooter", "lon": -77.02297716666666, "bike_id": "00b9e518dacd8fc5b2a7b09f73fa38c2", "rental_uris": {"android": "https://dc.lft.to/lastmile_qr_scan", "ios": "https://dc.lft.to/lastmile_qr_scan"}, "name": "00b9e518dacd8fc5b2a7b09f73fa38c2", "is_reserved": 0}, {"is_disabled": 0, "fusion_lon": 0.0, "fusion_lat": 0.0, "lat": 38.922801166666666, "type": "electric_scooter", "lon": -77.04470016666667, "bike_id": "c2531be608dae0191ac198b25a7262f3", "rental_uris": {"android": "https://dc.lft.to/lastmile_qr_scan", "ios": "https://dc.lft.to/lastmile_qr_scan"}, "name": "c2531be608dae0191ac198b25a7262f3", "is_reserved": 0}, {"is_disabled": 0, "fusion_lon": 0.0, "fusion_lat": 0.0, "lat": 38.922574833333336, "type": "electric_scooter", "lon": -77.04229833333333, "bike_id": "cb458c0d804a1a4a92103468c6393a3e", "rental_uris": {"android": "https://dc.lft.to/lastmile_qr_scan", "ios": "https://dc.lft.to/lastmile_qr_scan"}, "name": "cb458c0d804a1a4a92103468c6393a3e", "is_reserved": 0}, {"is_disabled": 0, "fusion_lon": 0.0, "fusion_lat": 0.0, "lat": 38.903707833333335, "type": "electric_scooter", "lon": -77.04385666666667, "bike_id": "b18486e4188d2ab759f6dad457e057d9", "rental_uris": {"android": "https://dc.lft.to/lastmile_qr_scan", "ios": "https://dc.lft.to/lastmile_qr_scan"}, "name": "b18486e4188d2ab759f6dad457e057d9", "is_reserved": 0}, {"is_disabled": 0, "fusion_lon": 0.0, "fusion_lat": 0.0, "lat": 38.92000083333333, "type": "electric_scooter", "lon": -77.02523116666667, "bike_id": "802f7a672870e6bc732c094ad5a7b979", "rental_uris": {"android": "https://dc.lft.to/lastmile_qr_scan", "ios": "https://dc.lft.to/lastmile_qr_scan"}, "name": "802f7a672870e6bc732c094ad5a7b979", "is_reserved": 0}, {"is_disabled": 0, "fusion_lon": 0.0, "fusion_lat": 0.0, "lat": 38.82781516666667, "type": "electric_bike", "lon": -77.11079383333333, "bike_id": "1e2b6a6a72a2a671a00504b1a59371cf", "rental_uris": {"android": "https://dc.lft.to/lastmile_qr_scan", "ios": "https://dc.lft.to/lastmile_qr_scan"}, "name": "1e2b6a6a72a2a671a00504b1a59371cf", "is_reserved": 0}, {"is_disabled": 0, "fusion_lon": 0.0, "fusion_lat": 0.0, "lat": 38.9142785, "type": "electric_scooter", "lon": -77.032145, "bike_id": "7f01e25134a1ffee482fb959ec71eee3", "rental_uris": {"android": "https://dc.lft.to/lastmile_qr_scan", "ios": "https://dc.lft.to/lastmile_qr_scan"}, "name": "7f01e25134a1ffee482fb959ec71eee3", "is_reserved": 0}, {"is_disabled": 0, "fusion_lon": 0.0, "fusion_lat": 0.0, "lat": 38.96264266666667, "type": "electric_scooter", "lon": -77.0289395, "bike_id": "7a9238a2cb3b4f5b8a25bb047a5e94a7", "rental_uris": {"android": "https://dc.lft.to/lastmile_qr_scan", "ios": "https://dc.lft.to/lastmile_qr_scan"}, "name": "7a9238a2cb3b4f5b8a25bb047a5e94a7", "is_reserved": 0}, {"is_disabled": 0, "fusion_lon": 0.0, "fusion_lat": 0.0, "lat": 38.905047, "type": "electric_scooter", "lon": -77.0651545, "bike_id": "d9914de56eeed2aec8f29e8f141b534a", "rental_uris": {"android": "https://dc.lft.to/lastmile_qr_scan", "ios": "https://dc.lft.to/lastmile_qr_scan"}, "name": "d9914de56eeed2aec8f29e8f141b534a", "is_reserved": 0}, {"is_disabled": 0, "fusion_lon": 0.0, "fusion_lat": 0.0, "lat": 38.952136333333335, "type": "electric_scooter", "lon": -77.036326, "bike_id": "84294a78b1b435ca3aebc28a589d3164", "rental_uris": {"android": "https://dc.lft.to/lastmile_qr_scan", "ios": "https://dc.lft.to/lastmile_qr_scan"}, "name": "84294a78b1b435ca3aebc28a589d3164", "is_reserved": 0}, {"is_disabled": 0, "fusion_lon": 0.0, "fusion_lat": 0.0, "lat": 38.92035633333333, "type": "electric_scooter", "lon": -77.02583033333333, "bike_id": "9fca97c5c1799f6abf67837b1df8b3ad", "rental_uris": {"android": "https://dc.lft.to/lastmile_qr_scan", "ios": "https://dc.lft.to/lastmile_qr_scan"}, "name": "9fca97c5c1799f6abf67837b1df8b3ad", "is_reserved": 0}, {"is_disabled": 0, "fusion_lon": 0.0, "fusion_lat": 0.0, "lat": 38.896199833333334, "type": "electric_scooter", "lon": -77.02160016666667, "bike_id": "11a245fa36fe8700ca634892664c969e", "rental_uris": {"android": "https://dc.lft.to/lastmile_qr_scan", "ios": "https://dc.lft.to/lastmile_qr_scan"}, "name": "11a245fa36fe8700ca634892664c969e", "is_reserved": 0}, {"is_disabled": 0, "fusion_lon": 0.0, "fusion_lat": 0.0, "lat": 38.895253, "type": "electric_scooter", "lon": -77.028367, "bike_id": "ab93ae4824330365292728a07c63f2fe", "rental_uris": {"android": "https://dc.lft.to/lastmile_qr_scan", "ios": "https://dc.lft.to/lastmile_qr_scan"}, "name": "ab93ae4824330365292728a07c63f2fe", "is_reserved": 0}, {"is_disabled": 0, "fusion_lon": 0.0, "fusion_lat": 0.0, "lat": 38.88725383333333, "type": "electric_scooter", "lon": -76.99631633333334, "bike_id": "9caff053371e9f84e234718799229260", "rental_uris": {"android": "https://dc.lft.to/lastmile_qr_scan", "ios": "https://dc.lft.to/lastmile_qr_scan"}, "name": "9caff053371e9f84e234718799229260", "is_reserved": 0}, {"is_disabled": 0, "fusion_lon": 0.0, "fusion_lat": 0.0, "lat": 38.8851635, "type": "electric_scooter", "lon": -76.99847083333333, "bike_id": "5eb7078176282e8501d62043b3ad5f6b", "rental_uris": {"android": "https://dc.lft.to/lastmile_qr_scan", "ios": "https://dc.lft.to/lastmile_qr_scan"}, "name": "5eb7078176282e8501d62043b3ad5f6b", "is_reserved": 0}, {"is_disabled": 0, "fusion_lon": 0.0, "fusion_lat": 0.0, "lat": 38.988250666666666, "type": "electric_bike", "lon": -76.9875885, "bike_id": "0c9ddc50765182f037deeeacd92d1603", "rental_uris": {"android": "https://dc.lft.to/lastmile_qr_scan", "ios": "https://dc.lft.to/lastmile_qr_scan"}, "name": "0c9ddc50765182f037deeeacd92d1603", "is_reserved": 0}, {"is_disabled": 0, "fusion_lon": 0.0, "fusion_lat": 0.0, "lat": 38.915408166666666, "type": "electric_scooter", "lon": -77.03209716666667, "bike_id": "0ee768fa3f09cc2fdab2fd255bee9e67", "rental_uris": {"android": "https://dc.lft.to/lastmile_qr_scan", "ios": "https://dc.lft.to/lastmile_qr_scan"}, "name": "0ee768fa3f09cc2fdab2fd255bee9e67", "is_reserved": 0}, {"is_disabled": 0, "fusion_lon": 0.0, "fusion_lat": 0.0, "lat": 38.905607333333336, "type": "electric_scooter", "lon": -77.04577266666666, "bike_id": "84f8291f095c807d788b65eb0b5d662a", "rental_uris": {"android": "https://dc.lft.to/lastmile_qr_scan", "ios": "https://dc.lft.to/lastmile_qr_scan"}, "name": "84f8291f095c807d788b65eb0b5d662a", "is_reserved": 0}, {"is_disabled": 0, "fusion_lon": 0.0, "fusion_lat": 0.0, "lat": 38.839379, "type": "electric_bike", "lon": -77.07898266666666, "bike_id": "439632b102482e73b5763c5088828392", "rental_uris": {"android": "https://dc.lft.to/lastmile_qr_scan", "ios": "https://dc.lft.to/lastmile_qr_scan"}, "name": "439632b102482e73b5763c5088828392", "is_reserved": 0}, {"is_disabled": 0, "fusion_lon": 0.0, "fusion_lat": 0.0, "lat": 38.81274783333333, "type": "electric_bike", "lon": -77.06170116666667, "bike_id": "1d74fbb8c209dbe78698cf1c99b85cd4", "rental_uris": {"android": "https://dc.lft.to/lastmile_qr_scan", "ios": "https://dc.lft.to/lastmile_qr_scan"}, "name": "1d74fbb8c209dbe78698cf1c99b85cd4", "is_reserved": 0}, {"is_disabled": 0, "fusion_lon": 0.0, "fusion_lat": 0.0, "lat": 38.9347305, "type": "electric_scooter", "lon": -77.06877016666667, "bike_id": "2589f39ed613a5439e28ac937b199c2a", "rental_uris": {"android": "https://dc.lft.to/lastmile_qr_scan", "ios": "https://dc.lft.to/lastmile_qr_scan"}, "name": "2589f39ed613a5439e28ac937b199c2a", "is_reserved": 0}, {"is_disabled": 0, "fusion_lon": 0.0, "fusion_lat": 0.0, "lat": 38.972628, "type": "electric_bike", "lon": -76.9916815, "bike_id": "8191fb6c65f6046d92d5011c8760decf", "rental_uris": {"android": "https://dc.lft.to/lastmile_qr_scan", "ios": "https://dc.lft.to/lastmile_qr_scan"}, "name": "8191fb6c65f6046d92d5011c8760decf", "is_reserved": 0}, {"is_disabled": 0, "fusion_lon": 0.0, "fusion_lat": 0.0, "lat": 38.918007, "type": "electric_scooter", "lon": -77.03442833333334, "bike_id": "c9a75ab9ea7062547944e3ba60c3e05e", "rental_uris": {"android": "https://dc.lft.to/lastmile_qr_scan", "ios": "https://dc.lft.to/lastmile_qr_scan"}, "name": "c9a75ab9ea7062547944e3ba60c3e05e", "is_reserved": 0}, {"is_disabled": 0, "fusion_lon": 0.0, "fusion_lat": 0.0, "lat": 38.89729783333333, "type": "electric_scooter", "lon": -77.01011133333333, "bike_id": "e33dd276ac95cb8c8dbf9a40f3c2ed33", "rental_uris": {"android": "https://dc.lft.to/lastmile_qr_scan", "ios": "https://dc.lft.to/lastmile_qr_scan"}, "name": "e33dd276ac95cb8c8dbf9a40f3c2ed33", "is_reserved": 0}, {"is_disabled": 0, "fusion_lon": 0.0, "fusion_lat": 0.0, "lat": 38.9322565, "type": "electric_scooter", "lon": -76.99479866666667, "bike_id": "16e4c2fc96f547ac86b307a4d73a9c96", "rental_uris": {"android": "https://dc.lft.to/lastmile_qr_scan", "ios": "https://dc.lft.to/lastmile_qr_scan"}, "name": "16e4c2fc96f547ac86b307a4d73a9c96", "is_reserved": 0}, {"is_disabled": 0, "fusion_lon": 0.0, "fusion_lat": 0.0, "lat": 38.91766066666667, "type": "electric_scooter", "lon": -77.02798616666666, "bike_id": "6c91fdc23a1cf68815171b241004989d", "rental_uris": {"android": "https://dc.lft.to/lastmile_qr_scan", "ios": "https://dc.lft.to/lastmile_qr_scan"}, "name": "6c91fdc23a1cf68815171b241004989d", "is_reserved": 0}, {"is_disabled": 0, "fusion_lon": 0.0, "fusion_lat": 0.0, "lat": 38.911879666666664, "type": "electric_scooter", "lon": -77.04180166666667, "bike_id": "80db39156dfd324e4296ac829e39358f", "rental_uris": {"android": "https://dc.lft.to/lastmile_qr_scan", "ios": "https://dc.lft.to/lastmile_qr_scan"}, "name": "80db39156dfd324e4296ac829e39358f", "is_reserved": 0}, {"is_disabled": 0, "fusion_lon": 0.0, "fusion_lat": 0.0, "lat": 38.90466633333333, "type": "electric_scooter", "lon": -76.99207066666666, "bike_id": "6a35464f3cc3d807ac18336e3818a0fb", "rental_uris": {"android": "https://dc.lft.to/lastmile_qr_scan", "ios": "https://dc.lft.to/lastmile_qr_scan"}, "name": "6a35464f3cc3d807ac18336e3818a0fb", "is_reserved": 0}, {"is_disabled": 0, "fusion_lon": 0.0, "fusion_lat": 0.0, "lat": 38.91691466666666, "type": "electric_scooter", "lon": -77.03719816666667, "bike_id": "f77c79470a9cd0dc6228b26b786eac56", "rental_uris": {"android": "https://dc.lft.to/lastmile_qr_scan", "ios": "https://dc.lft.to/lastmile_qr_scan"}, "name": "f77c79470a9cd0dc6228b26b786eac56", "is_reserved": 0}, {"is_disabled": 0, "fusion_lon": 0.0, "fusion_lat": 0.0, "lat": 38.91066466666667, "type": "electric_scooter", "lon": -77.04595783333333, "bike_id": "b7a4cafc423c69fd4c9fa4dba1745b70", "rental_uris": {"android": "https://dc.lft.to/lastmile_qr_scan", "ios": "https://dc.lft.to/lastmile_qr_scan"}, "name": "b7a4cafc423c69fd4c9fa4dba1745b70", "is_reserved": 0}, {"is_disabled": 0, "fusion_lon": 0.0, "fusion_lat": 0.0, "lat": 38.911534333333336, "type": "electric_scooter", "lon": -76.98499933333333, "bike_id": "0e69c50201f33f9253d57f06ad2fdee2", "rental_uris": {"android": "https://dc.lft.to/lastmile_qr_scan", "ios": "https://dc.lft.to/lastmile_qr_scan"}, "name": "0e69c50201f33f9253d57f06ad2fdee2", "is_reserved": 0}, {"is_disabled": 0, "fusion_lon": 0.0, "fusion_lat": 0.0, "lat": 38.905384, "type": "electric_scooter", "lon": -77.02981933333334, "bike_id": "261429ce572a725a067d97d07470b19e", "rental_uris": {"android": "https://dc.lft.to/lastmile_qr_scan", "ios": "https://dc.lft.to/lastmile_qr_scan"}, "name": "261429ce572a725a067d97d07470b19e", "is_reserved": 0}, {"is_disabled": 0, "fusion_lon": 0.0, "fusion_lat": 0.0, "lat": 38.9003495, "type": "electric_scooter", "lon": -77.00197516666667, "bike_id": "138a647244e8c667a5020e54ec1ddf61", "rental_uris": {"android": "https://dc.lft.to/lastmile_qr_scan", "ios": "https://dc.lft.to/lastmile_qr_scan"}, "name": "138a647244e8c667a5020e54ec1ddf61", "is_reserved": 0}, {"is_disabled": 0, "fusion_lon": 0.0, "fusion_lat": 0.0, "lat": 38.89475383333333, "type": "electric_scooter", "lon": -77.02276933333333, "bike_id": "c769e5398fd5ed2ce409308d0c0f4be4", "rental_uris": {"android": "https://dc.lft.to/lastmile_qr_scan", "ios": "https://dc.lft.to/lastmile_qr_scan"}, "name": "c769e5398fd5ed2ce409308d0c0f4be4", "is_reserved": 0}, {"is_disabled": 0, "fusion_lon": 0.0, "fusion_lat": 0.0, "lat": 38.918597, "type": "electric_scooter", "lon": -77.041667, "bike_id": "a1b6dd87c4e06ee14557121de0968321", "rental_uris": {"android": "https://dc.lft.to/lastmile_qr_scan", "ios": "https://dc.lft.to/lastmile_qr_scan"}, "name": "a1b6dd87c4e06ee14557121de0968321", "is_reserved": 0}, {"is_disabled": 0, "fusion_lon": 0.0, "fusion_lat": 0.0, "lat": 38.84517783333333, "type": "electric_bike", "lon": -77.07792983333333, "bike_id": "45f5b08a604f6010e5858bd9b1eacdf5", "rental_uris": {"android": "https://dc.lft.to/lastmile_qr_scan", "ios": "https://dc.lft.to/lastmile_qr_scan"}, "name": "45f5b08a604f6010e5858bd9b1eacdf5", "is_reserved": 0}, {"is_disabled": 0, "fusion_lon": 0.0, "fusion_lat": 0.0, "lat": 38.91433716666667, "type": "electric_scooter", "lon": -77.01993316666666, "bike_id": "e6f4b784cc51d4244616de1057997a80", "rental_uris": {"android": "https://dc.lft.to/lastmile_qr_scan", "ios": "https://dc.lft.to/lastmile_qr_scan"}, "name": "e6f4b784cc51d4244616de1057997a80", "is_reserved": 0}, {"is_disabled": 0, "fusion_lon": 0.0, "fusion_lat": 0.0, "lat": 38.89225416666667, "type": "electric_scooter", "lon": -77.03338583333333, "bike_id": "3cedf99b988c263874f301db088707cb", "rental_uris": {"android": "https://dc.lft.to/lastmile_qr_scan", "ios": "https://dc.lft.to/lastmile_qr_scan"}, "name": "3cedf99b988c263874f301db088707cb", "is_reserved": 0}, {"is_disabled": 0, "fusion_lon": 0.0, "fusion_lat": 0.0, "lat": 38.90685, "type": "electric_scooter", "lon": -77.026913, "bike_id": "afc46386f1744ad9cf22dd00e1f9476a", "rental_uris": {"android": "https://dc.lft.to/lastmile_qr_scan", "ios": "https://dc.lft.to/lastmile_qr_scan"}, "name": "afc46386f1744ad9cf22dd00e1f9476a", "is_reserved": 0}, {"is_disabled": 0, "fusion_lon": 0.0, "fusion_lat": 0.0, "lat": 38.92052833333333, "type": "electric_scooter", "lon": -77.02611533333334, "bike_id": "30d5d378940fe898db937107378c30cf", "rental_uris": {"android": "https://dc.lft.to/lastmile_qr_scan", "ios": "https://dc.lft.to/lastmile_qr_scan"}, "name": "30d5d378940fe898db937107378c30cf", "is_reserved": 0}, {"is_disabled": 0, "fusion_lon": 0.0, "fusion_lat": 0.0, "lat": 38.9056815, "type": "electric_scooter", "lon": -77.0334985, "bike_id": "f7a7365ad5864b03f5d0c4e28ca1245c", "rental_uris": {"android": "https://dc.lft.to/lastmile_qr_scan", "ios": "https://dc.lft.to/lastmile_qr_scan"}, "name": "f7a7365ad5864b03f5d0c4e28ca1245c", "is_reserved": 0}, {"is_disabled": 0, "fusion_lon": 0.0, "fusion_lat": 0.0, "lat": 38.90191933333333, "type": "electric_scooter", "lon": -77.03934016666666, "bike_id": "720e23c57e099cae5dbef8f4d731e9d9", "rental_uris": {"android": "https://dc.lft.to/lastmile_qr_scan", "ios": "https://dc.lft.to/lastmile_qr_scan"}, "name": "720e23c57e099cae5dbef8f4d731e9d9", "is_reserved": 0}, {"is_disabled": 0, "fusion_lon": 0.0, "fusion_lat": 0.0, "lat": 38.91098366666667, "type": "electric_scooter", "lon": -77.03176983333333, "bike_id": "71747f073127462e9cba583dde92bea7", "rental_uris": {"android": "https://dc.lft.to/lastmile_qr_scan", "ios": "https://dc.lft.to/lastmile_qr_scan"}, "name": "71747f073127462e9cba583dde92bea7", "is_reserved": 0}, {"is_disabled": 0, "fusion_lon": 0.0, "fusion_lat": 0.0, "lat": 38.9167515, "type": "electric_scooter", "lon": -77.0271645, "bike_id": "ce0d7a6a14f1275ee7dd35d37e2a403d", "rental_uris": {"android": "https://dc.lft.to/lastmile_qr_scan", "ios": "https://dc.lft.to/lastmile_qr_scan"}, "name": "ce0d7a6a14f1275ee7dd35d37e2a403d", "is_reserved": 0}, {"is_disabled": 0, "fusion_lon": 0.0, "fusion_lat": 0.0, "lat": 38.908369666666665, "type": "electric_scooter", "lon": -76.99698116666667, "bike_id": "88c4ab2e1fad443b64d4dd760a54c190", "rental_uris": {"android": "https://dc.lft.to/lastmile_qr_scan", "ios": "https://dc.lft.to/lastmile_qr_scan"}, "name": "88c4ab2e1fad443b64d4dd760a54c190", "is_reserved": 0}, {"is_disabled": 0, "fusion_lon": 0.0, "fusion_lat": 0.0, "lat": 38.839323, "type": "electric_bike", "lon": -77.07890033333334, "bike_id": "a89e8a49c6e1daeb86066a7936e92538", "rental_uris": {"android": "https://dc.lft.to/lastmile_qr_scan", "ios": "https://dc.lft.to/lastmile_qr_scan"}, "name": "a89e8a49c6e1daeb86066a7936e92538", "is_reserved": 0}, {"is_disabled": 0, "fusion_lon": 0.0, "fusion_lat": 0.0, "lat": 38.90572483333333, "type": "electric_scooter", "lon": -77.02468916666666, "bike_id": "49162d2d26a5f3cbd4de41dd95c355dd", "rental_uris": {"android": "https://dc.lft.to/lastmile_qr_scan", "ios": "https://dc.lft.to/lastmile_qr_scan"}, "name": "49162d2d26a5f3cbd4de41dd95c355dd", "is_reserved": 0}, {"is_disabled": 0, "fusion_lon": 0.0, "fusion_lat": 0.0, "lat": 38.92851266666667, "type": "electric_scooter", "lon": -77.05628633333333, "bike_id": "f2d981230f48bd57f4b9adc8429ba066", "rental_uris": {"android": "https://dc.lft.to/lastmile_qr_scan", "ios": "https://dc.lft.to/lastmile_qr_scan"}, "name": "f2d981230f48bd57f4b9adc8429ba066", "is_reserved": 0}, {"is_disabled": 0, "fusion_lon": 0.0, "fusion_lat": 0.0, "lat": 38.911994666666665, "type": "electric_scooter", "lon": -77.03854483333333, "bike_id": "f47acdd692a19fb5674f1c00e7d64e92", "rental_uris": {"android": "https://dc.lft.to/lastmile_qr_scan", "ios": "https://dc.lft.to/lastmile_qr_scan"}, "name": "f47acdd692a19fb5674f1c00e7d64e92", "is_reserved": 0}, {"is_disabled": 0, "fusion_lon": 0.0, "fusion_lat": 0.0, "lat": 38.91497416666667, "type": "electric_scooter", "lon": -76.9837155, "bike_id": "dc74c44446d28e6035fb57579a9a9052", "rental_uris": {"android": "https://dc.lft.to/lastmile_qr_scan", "ios": "https://dc.lft.to/lastmile_qr_scan"}, "name": "dc74c44446d28e6035fb57579a9a9052", "is_reserved": 0}, {"is_disabled": 0, "fusion_lon": 0.0, "fusion_lat": 0.0, "lat": 38.878060166666664, "type": "electric_scooter", "lon": -77.01427783333334, "bike_id": "67b4e55b98e563db36f4d530002f9c6e", "rental_uris": {"android": "https://dc.lft.to/lastmile_qr_scan", "ios": "https://dc.lft.to/lastmile_qr_scan"}, "name": "67b4e55b98e563db36f4d530002f9c6e", "is_reserved": 0}, {"is_disabled": 0, "fusion_lon": 0.0, "fusion_lat": 0.0, "lat": 38.90081133333333, "type": "electric_scooter", "lon": -77.04871233333333, "bike_id": "bbc51dc7b92037e0a851bd0fd765b107", "rental_uris": {"android": "https://dc.lft.to/lastmile_qr_scan", "ios": "https://dc.lft.to/lastmile_qr_scan"}, "name": "bbc51dc7b92037e0a851bd0fd765b107", "is_reserved": 0}, {"is_disabled": 0, "fusion_lon": 0.0, "fusion_lat": 0.0, "lat": 38.929604, "type": "electric_scooter", "lon": -77.02336316666667, "bike_id": "6034d6d76f42b9a634db517b6441df48", "rental_uris": {"android": "https://dc.lft.to/lastmile_qr_scan", "ios": "https://dc.lft.to/lastmile_qr_scan"}, "name": "6034d6d76f42b9a634db517b6441df48", "is_reserved": 0}, {"is_disabled": 0, "fusion_lon": 0.0, "fusion_lat": 0.0, "lat": 38.91750566666666, "type": "electric_scooter", "lon": -77.04152566666667, "bike_id": "d132795dfe14f4972b3b87b2b8da647a", "rental_uris": {"android": "https://dc.lft.to/lastmile_qr_scan", "ios": "https://dc.lft.to/lastmile_qr_scan"}, "name": "d132795dfe14f4972b3b87b2b8da647a", "is_reserved": 0}, {"is_disabled": 0, "fusion_lon": 0.0, "fusion_lat": 0.0, "lat": 38.927475, "type": "electric_scooter", "lon": -77.02536216666667, "bike_id": "819d7a6f4358a85a268e06d95a10a2e2", "rental_uris": {"android": "https://dc.lft.to/lastmile_qr_scan", "ios": "https://dc.lft.to/lastmile_qr_scan"}, "name": "819d7a6f4358a85a268e06d95a10a2e2", "is_reserved": 0}, {"is_disabled": 0, "fusion_lon": 0.0, "fusion_lat": 0.0, "lat": 38.91863383333333, "type": "electric_bike", "lon": -76.96085416666666, "bike_id": "68d74aae8810453f388b6e8c38d859f8", "rental_uris": {"android": "https://dc.lft.to/lastmile_qr_scan", "ios": "https://dc.lft.to/lastmile_qr_scan"}, "name": "68d74aae8810453f388b6e8c38d859f8", "is_reserved": 0}, {"is_disabled": 0, "fusion_lon": 0.0, "fusion_lat": 0.0, "lat": 38.91701833333333, "type": "electric_scooter", "lon": -77.04298966666667, "bike_id": "425ce917d1695308557c75a076df50e9", "rental_uris": {"android": "https://dc.lft.to/lastmile_qr_scan", "ios": "https://dc.lft.to/lastmile_qr_scan"}, "name": "425ce917d1695308557c75a076df50e9", "is_reserved": 0}, {"is_disabled": 0, "fusion_lon": 0.0, "fusion_lat": 0.0, "lat": 38.876771, "type": "electric_scooter", "lon": -76.931925, "bike_id": "aa760931a78539e9edb2bd0ae2b3f08a", "rental_uris": {"android": "https://dc.lft.to/lastmile_qr_scan", "ios": "https://dc.lft.to/lastmile_qr_scan"}, "name": "aa760931a78539e9edb2bd0ae2b3f08a", "is_reserved": 0}, {"is_disabled": 0, "fusion_lon": 0.0, "fusion_lat": 0.0, "lat": 38.90530966666667, "type": "electric_scooter", "lon": -77.06199133333334, "bike_id": "19d7ae9fc5523ff5ff10e374bb3789b6", "rental_uris": {"android": "https://dc.lft.to/lastmile_qr_scan", "ios": "https://dc.lft.to/lastmile_qr_scan"}, "name": "19d7ae9fc5523ff5ff10e374bb3789b6", "is_reserved": 0}, {"is_disabled": 0, "fusion_lon": 0.0, "fusion_lat": 0.0, "lat": 38.894900166666666, "type": "electric_scooter", "lon": -77.02214033333334, "bike_id": "a8261cf35b8d5c6b844d674af913aa5f", "rental_uris": {"android": "https://dc.lft.to/lastmile_qr_scan", "ios": "https://dc.lft.to/lastmile_qr_scan"}, "name": "a8261cf35b8d5c6b844d674af913aa5f", "is_reserved": 0}, {"is_disabled": 0, "fusion_lon": 0.0, "fusion_lat": 0.0, "lat": 38.95005966666667, "type": "electric_bike", "lon": -77.35307166666666, "bike_id": "c34437dc56843406002ad9a7f8ffb43b", "rental_uris": {"android": "https://dc.lft.to/lastmile_qr_scan", "ios": "https://dc.lft.to/lastmile_qr_scan"}, "name": "c34437dc56843406002ad9a7f8ffb43b", "is_reserved": 0}, {"is_disabled": 0, "fusion_lon": 0.0, "fusion_lat": 0.0, "lat": 38.89754333333333, "type": "electric_scooter", "lon": -77.04803583333333, "bike_id": "6b0e01b8aecd3256ab7f0fcf3d516714", "rental_uris": {"android": "https://dc.lft.to/lastmile_qr_scan", "ios": "https://dc.lft.to/lastmile_qr_scan"}, "name": "6b0e01b8aecd3256ab7f0fcf3d516714", "is_reserved": 0}, {"is_disabled": 0, "fusion_lon": 0.0, "fusion_lat": 0.0, "lat": 38.87828, "type": "electric_scooter", "lon": -76.96318966666666, "bike_id": "61a3a0b058909d3a7dd6be52e986ab34", "rental_uris": {"android": "https://dc.lft.to/lastmile_qr_scan", "ios": "https://dc.lft.to/lastmile_qr_scan"}, "name": "61a3a0b058909d3a7dd6be52e986ab34", "is_reserved": 0}, {"is_disabled": 0, "fusion_lon": 0.0, "fusion_lat": 0.0, "lat": 38.90320716666667, "type": "electric_scooter", "lon": -77.03661983333333, "bike_id": "f983213994b286a02bd32589fb2dfc3b", "rental_uris": {"android": "https://dc.lft.to/lastmile_qr_scan", "ios": "https://dc.lft.to/lastmile_qr_scan"}, "name": "f983213994b286a02bd32589fb2dfc3b", "is_reserved": 0}, {"is_disabled": 0, "fusion_lon": 0.0, "fusion_lat": 0.0, "lat": 38.89598983333333, "type": "electric_scooter", "lon": -77.0231155, "bike_id": "6fb7d71e120440d62eb3bd93c75e3cd0", "rental_uris": {"android": "https://dc.lft.to/lastmile_qr_scan", "ios": "https://dc.lft.to/lastmile_qr_scan"}, "name": "6fb7d71e120440d62eb3bd93c75e3cd0", "is_reserved": 0}, {"is_disabled": 0, "fusion_lon": 0.0, "fusion_lat": 0.0, "lat": 38.907761, "type": "electric_scooter", "lon": -77.03207316666666, "bike_id": "6f7e664b422d387136845db7cd64b5ce", "rental_uris": {"android": "https://dc.lft.to/lastmile_qr_scan", "ios": "https://dc.lft.to/lastmile_qr_scan"}, "name": "6f7e664b422d387136845db7cd64b5ce", "is_reserved": 0}, {"is_disabled": 0, "fusion_lon": 0.0, "fusion_lat": 0.0, "lat": 38.9179965, "type": "electric_scooter", "lon": -77.0239385, "bike_id": "4ccdafedcf61c825b122dd08e5719b2f", "rental_uris": {"android": "https://dc.lft.to/lastmile_qr_scan", "ios": "https://dc.lft.to/lastmile_qr_scan"}, "name": "4ccdafedcf61c825b122dd08e5719b2f", "is_reserved": 0}, {"is_disabled": 0, "fusion_lon": 0.0, "fusion_lat": 0.0, "lat": 38.899746666666665, "type": "electric_scooter", "lon": -77.01600433333333, "bike_id": "201b72df3c630e9f3bd081334cb1c348", "rental_uris": {"android": "https://dc.lft.to/lastmile_qr_scan", "ios": "https://dc.lft.to/lastmile_qr_scan"}, "name": "201b72df3c630e9f3bd081334cb1c348", "is_reserved": 0}, {"is_disabled": 0, "fusion_lon": 0.0, "fusion_lat": 0.0, "lat": 38.932565333333336, "type": "electric_scooter", "lon": -77.03867183333334, "bike_id": "726c382502c48dd4609c5ca1d29c2776", "rental_uris": {"android": "https://dc.lft.to/lastmile_qr_scan", "ios": "https://dc.lft.to/lastmile_qr_scan"}, "name": "726c382502c48dd4609c5ca1d29c2776", "is_reserved": 0}, {"is_disabled": 0, "fusion_lon": 0.0, "fusion_lat": 0.0, "lat": 38.9068015, "type": "electric_scooter", "lon": -77.0271755, "bike_id": "52e97e9d57cf4b95cb634496031c6d6e", "rental_uris": {"android": "https://dc.lft.to/lastmile_qr_scan", "ios": "https://dc.lft.to/lastmile_qr_scan"}, "name": "52e97e9d57cf4b95cb634496031c6d6e", "is_reserved": 0}, {"is_disabled": 0, "fusion_lon": 0.0, "fusion_lat": 0.0, "lat": 38.911116166666666, "type": "electric_scooter", "lon": -77.065242, "bike_id": "2a2f263f96fc1dc9651e5ad007468334", "rental_uris": {"android": "https://dc.lft.to/lastmile_qr_scan", "ios": "https://dc.lft.to/lastmile_qr_scan"}, "name": "2a2f263f96fc1dc9651e5ad007468334", "is_reserved": 0}, {"is_disabled": 0, "fusion_lon": 0.0, "fusion_lat": 0.0, "lat": 38.898520833333336, "type": "electric_scooter", "lon": -77.0291445, "bike_id": "dc47ad86b565d9639630d7a60806728c", "rental_uris": {"android": "https://dc.lft.to/lastmile_qr_scan", "ios": "https://dc.lft.to/lastmile_qr_scan"}, "name": "dc47ad86b565d9639630d7a60806728c", "is_reserved": 0}, {"is_disabled": 0, "fusion_lon": 0.0, "fusion_lat": 0.0, "lat": 38.89904216666667, "type": "electric_scooter", "lon": -77.0332935, "bike_id": "203c9a8326150738134d22baddfe1ea3", "rental_uris": {"android": "https://dc.lft.to/lastmile_qr_scan", "ios": "https://dc.lft.to/lastmile_qr_scan"}, "name": "203c9a8326150738134d22baddfe1ea3", "is_reserved": 0}, {"is_disabled": 0, "fusion_lon": 0.0, "fusion_lat": 0.0, "lat": 39.024989166666664, "type": "electric_bike", "lon": -77.125672, "bike_id": "8713c165fc36dd1932cc28b88b8b7d04", "rental_uris": {"android": "https://dc.lft.to/lastmile_qr_scan", "ios": "https://dc.lft.to/lastmile_qr_scan"}, "name": "8713c165fc36dd1932cc28b88b8b7d04", "is_reserved": 0}, {"is_disabled": 0, "fusion_lon": 0.0, "fusion_lat": 0.0, "lat": 38.930565333333334, "type": "electric_scooter", "lon": -77.0296275, "bike_id": "601c3e979354c2c8554581e7b0ed228d", "rental_uris": {"android": "https://dc.lft.to/lastmile_qr_scan", "ios": "https://dc.lft.to/lastmile_qr_scan"}, "name": "601c3e979354c2c8554581e7b0ed228d", "is_reserved": 0}, {"is_disabled": 0, "fusion_lon": 0.0, "fusion_lat": 0.0, "lat": 38.9307975, "type": "electric_scooter", "lon": -77.03630016666666, "bike_id": "3bcfc42502ff86cd5272e3efc272ae0e", "rental_uris": {"android": "https://dc.lft.to/lastmile_qr_scan", "ios": "https://dc.lft.to/lastmile_qr_scan"}, "name": "3bcfc42502ff86cd5272e3efc272ae0e", "is_reserved": 0}, {"is_disabled": 0, "fusion_lon": 0.0, "fusion_lat": 0.0, "lat": 38.9431745, "type": "electric_scooter", "lon": -77.06172683333334, "bike_id": "0e68cecb2d0d3b96225a39bbd118f3e0", "rental_uris": {"android": "https://dc.lft.to/lastmile_qr_scan", "ios": "https://dc.lft.to/lastmile_qr_scan"}, "name": "0e68cecb2d0d3b96225a39bbd118f3e0", "is_reserved": 0}, {"is_disabled": 0, "fusion_lon": 0.0, "fusion_lat": 0.0, "lat": 38.91910633333333, "type": "electric_scooter", "lon": -77.02596466666667, "bike_id": "b72648f810123b698e8678eae12f449b", "rental_uris": {"android": "https://dc.lft.to/lastmile_qr_scan", "ios": "https://dc.lft.to/lastmile_qr_scan"}, "name": "b72648f810123b698e8678eae12f449b", "is_reserved": 0}, {"is_disabled": 0, "fusion_lon": 0.0, "fusion_lat": 0.0, "lat": 38.909628833333336, "type": "electric_scooter", "lon": -77.027407, "bike_id": "166e0c2989e69d08e6a5e7a40c7cd5b2", "rental_uris": {"android": "https://dc.lft.to/lastmile_qr_scan", "ios": "https://dc.lft.to/lastmile_qr_scan"}, "name": "166e0c2989e69d08e6a5e7a40c7cd5b2", "is_reserved": 0}, {"is_disabled": 0, "fusion_lon": 0.0, "fusion_lat": 0.0, "lat": 38.890811166666666, "type": "electric_scooter", "lon": -76.95437733333333, "bike_id": "7dcbb451c8a25ceadeb5e8bcfb5bf59d", "rental_uris": {"android": "https://dc.lft.to/lastmile_qr_scan", "ios": "https://dc.lft.to/lastmile_qr_scan"}, "name": "7dcbb451c8a25ceadeb5e8bcfb5bf59d", "is_reserved": 0}, {"is_disabled": 0, "fusion_lon": 0.0, "fusion_lat": 0.0, "lat": 38.882077833333334, "type": "electric_bike", "lon": -77.107598, "bike_id": "66b6f42ab167ae49cc641347c121495e", "rental_uris": {"android": "https://dc.lft.to/lastmile_qr_scan", "ios": "https://dc.lft.to/lastmile_qr_scan"}, "name": "66b6f42ab167ae49cc641347c121495e", "is_reserved": 0}, {"is_disabled": 0, "fusion_lon": 0.0, "fusion_lat": 0.0, "lat": 38.883398166666666, "type": "electric_scooter", "lon": -76.9419425, "bike_id": "e26e5bb64c405451169a048d4bbe7007", "rental_uris": {"android": "https://dc.lft.to/lastmile_qr_scan", "ios": "https://dc.lft.to/lastmile_qr_scan"}, "name": "e26e5bb64c405451169a048d4bbe7007", "is_reserved": 0}, {"is_disabled": 0, "fusion_lon": 0.0, "fusion_lat": 0.0, "lat": 38.92655516666667, "type": "electric_scooter", "lon": -77.0242615, "bike_id": "9ea8b2677c44d8605680bbf4acb65165", "rental_uris": {"android": "https://dc.lft.to/lastmile_qr_scan", "ios": "https://dc.lft.to/lastmile_qr_scan"}, "name": "9ea8b2677c44d8605680bbf4acb65165", "is_reserved": 0}, {"is_disabled": 0, "fusion_lon": 0.0, "fusion_lat": 0.0, "lat": 38.91693716666666, "type": "electric_scooter", "lon": -77.032154, "bike_id": "a4dec80c09bacb3cddd65480f7d374f4", "rental_uris": {"android": "https://dc.lft.to/lastmile_qr_scan", "ios": "https://dc.lft.to/lastmile_qr_scan"}, "name": "a4dec80c09bacb3cddd65480f7d374f4", "is_reserved": 0}, {"is_disabled": 0, "fusion_lon": 0.0, "fusion_lat": 0.0, "lat": 38.92502666666667, "type": "electric_scooter", "lon": -76.99582533333333, "bike_id": "70c4856850303c334c25ea5ed4f20ed1", "rental_uris": {"android": "https://dc.lft.to/lastmile_qr_scan", "ios": "https://dc.lft.to/lastmile_qr_scan"}, "name": "70c4856850303c334c25ea5ed4f20ed1", "is_reserved": 0}, {"is_disabled": 0, "fusion_lon": 0.0, "fusion_lat": 0.0, "lat": 38.852106, "type": "electric_bike", "lon": -77.1012695, "bike_id": "40d5b9d78cbef3e0f1e243cc75906dba", "rental_uris": {"android": "https://dc.lft.to/lastmile_qr_scan", "ios": "https://dc.lft.to/lastmile_qr_scan"}, "name": "40d5b9d78cbef3e0f1e243cc75906dba", "is_reserved": 0}, {"is_disabled": 0, "fusion_lon": 0.0, "fusion_lat": 0.0, "lat": 38.9117235, "type": "electric_scooter", "lon": -77.03184333333333, "bike_id": "7425a9845fff2b67f48d8b25672a6a66", "rental_uris": {"android": "https://dc.lft.to/lastmile_qr_scan", "ios": "https://dc.lft.to/lastmile_qr_scan"}, "name": "7425a9845fff2b67f48d8b25672a6a66", "is_reserved": 0}, {"is_disabled": 0, "fusion_lon": 0.0, "fusion_lat": 0.0, "lat": 38.911746666666666, "type": "electric_scooter", "lon": -77.0046615, "bike_id": "ace0bcac324f1d08b884e02a8d49d111", "rental_uris": {"android": "https://dc.lft.to/lastmile_qr_scan", "ios": "https://dc.lft.to/lastmile_qr_scan"}, "name": "ace0bcac324f1d08b884e02a8d49d111", "is_reserved": 0}, {"is_disabled": 0, "fusion_lon": 0.0, "fusion_lat": 0.0, "lat": 38.956489833333336, "type": "electric_scooter", "lon": -77.01491416666667, "bike_id": "2c59ec38e9eab51e1e5479640f232eb3", "rental_uris": {"android": "https://dc.lft.to/lastmile_qr_scan", "ios": "https://dc.lft.to/lastmile_qr_scan"}, "name": "2c59ec38e9eab51e1e5479640f232eb3", "is_reserved": 0}, {"is_disabled": 0, "fusion_lon": 0.0, "fusion_lat": 0.0, "lat": 38.901929833333334, "type": "electric_scooter", "lon": -77.04785616666666, "bike_id": "a38838c2a809d92f9dffd7bd279500f7", "rental_uris": {"android": "https://dc.lft.to/lastmile_qr_scan", "ios": "https://dc.lft.to/lastmile_qr_scan"}, "name": "a38838c2a809d92f9dffd7bd279500f7", "is_reserved": 0}, {"is_disabled": 0, "fusion_lon": 0.0, "fusion_lat": 0.0, "lat": 38.921618, "type": "electric_scooter", "lon": -77.03387083333334, "bike_id": "c8909c638f8ed81c07d1d8c129797276", "rental_uris": {"android": "https://dc.lft.to/lastmile_qr_scan", "ios": "https://dc.lft.to/lastmile_qr_scan"}, "name": "c8909c638f8ed81c07d1d8c129797276", "is_reserved": 0}, {"is_disabled": 0, "fusion_lon": 0.0, "fusion_lat": 0.0, "lat": 38.92570533333333, "type": "electric_scooter", "lon": -77.0227055, "bike_id": "c2d0075a6ab5ab371584809bd76336e4", "rental_uris": {"android": "https://dc.lft.to/lastmile_qr_scan", "ios": "https://dc.lft.to/lastmile_qr_scan"}, "name": "c2d0075a6ab5ab371584809bd76336e4", "is_reserved": 0}, {"is_disabled": 0, "fusion_lon": 0.0, "fusion_lat": 0.0, "lat": 38.929078, "type": "electric_scooter", "lon": -77.03189633333334, "bike_id": "a1afe45af64928c872c0d27625a0d3c8", "rental_uris": {"android": "https://dc.lft.to/lastmile_qr_scan", "ios": "https://dc.lft.to/lastmile_qr_scan"}, "name": "a1afe45af64928c872c0d27625a0d3c8", "is_reserved": 0}, {"is_disabled": 0, "fusion_lon": 0.0, "fusion_lat": 0.0, "lat": 38.917792166666665, "type": "electric_scooter", "lon": -77.0403515, "bike_id": "6dc0389e41d239df3162430894a244f8", "rental_uris": {"android": "https://dc.lft.to/lastmile_qr_scan", "ios": "https://dc.lft.to/lastmile_qr_scan"}, "name": "6dc0389e41d239df3162430894a244f8", "is_reserved": 0}, {"is_disabled": 0, "fusion_lon": 0.0, "fusion_lat": 0.0, "lat": 38.92106533333333, "type": "electric_scooter", "lon": -77.03189883333333, "bike_id": "9623ccf8b8b28a4723f19895f9ebea4a", "rental_uris": {"android": "https://dc.lft.to/lastmile_qr_scan", "ios": "https://dc.lft.to/lastmile_qr_scan"}, "name": "9623ccf8b8b28a4723f19895f9ebea4a", "is_reserved": 0}, {"is_disabled": 0, "fusion_lon": 0.0, "fusion_lat": 0.0, "lat": 38.8978805, "type": "electric_scooter", "lon": -77.02486716666667, "bike_id": "466a59f059c5f2b5c7ab6146a2a9946f", "rental_uris": {"android": "https://dc.lft.to/lastmile_qr_scan", "ios": "https://dc.lft.to/lastmile_qr_scan"}, "name": "466a59f059c5f2b5c7ab6146a2a9946f", "is_reserved": 0}, {"is_disabled": 0, "fusion_lon": 0.0, "fusion_lat": 0.0, "lat": 38.941794333333334, "type": "electric_scooter", "lon": -77.036538, "bike_id": "b4e489e45a98a6342b898b11d216debe", "rental_uris": {"android": "https://dc.lft.to/lastmile_qr_scan", "ios": "https://dc.lft.to/lastmile_qr_scan"}, "name": "b4e489e45a98a6342b898b11d216debe", "is_reserved": 0}, {"is_disabled": 0, "fusion_lon": 0.0, "fusion_lat": 0.0, "lat": 38.8661405, "type": "electric_scooter", "lon": -77.01072233333333, "bike_id": "e8b4df9cfaf665bdac10c34f7cc49563", "rental_uris": {"android": "https://dc.lft.to/lastmile_qr_scan", "ios": "https://dc.lft.to/lastmile_qr_scan"}, "name": "e8b4df9cfaf665bdac10c34f7cc49563", "is_reserved": 0}, {"is_disabled": 0, "fusion_lon": 0.0, "fusion_lat": 0.0, "lat": 38.93701333333333, "type": "electric_scooter", "lon": -77.05596533333333, "bike_id": "cb4b8ddb8ef70734b558a843cebe4913", "rental_uris": {"android": "https://dc.lft.to/lastmile_qr_scan", "ios": "https://dc.lft.to/lastmile_qr_scan"}, "name": "cb4b8ddb8ef70734b558a843cebe4913", "is_reserved": 0}, {"is_disabled": 0, "fusion_lon": 0.0, "fusion_lat": 0.0, "lat": 38.902575166666665, "type": "electric_scooter", "lon": -77.01851383333333, "bike_id": "cb3ace7c81332bdb8c52e60f9a3cf388", "rental_uris": {"android": "https://dc.lft.to/lastmile_qr_scan", "ios": "https://dc.lft.to/lastmile_qr_scan"}, "name": "cb3ace7c81332bdb8c52e60f9a3cf388", "is_reserved": 0}, {"is_disabled": 0, "fusion_lon": 0.0, "fusion_lat": 0.0, "lat": 38.914555166666666, "type": "electric_scooter", "lon": -77.03200466666667, "bike_id": "06c6f71500f01db58ea77aad76df0df1", "rental_uris": {"android": "https://dc.lft.to/lastmile_qr_scan", "ios": "https://dc.lft.to/lastmile_qr_scan"}, "name": "06c6f71500f01db58ea77aad76df0df1", "is_reserved": 0}, {"is_disabled": 0, "fusion_lon": 0.0, "fusion_lat": 0.0, "lat": 38.870577833333336, "type": "electric_scooter", "lon": -76.980767, "bike_id": "2412d9ec37e6e6aac74b90505bf9cc02", "rental_uris": {"android": "https://dc.lft.to/lastmile_qr_scan", "ios": "https://dc.lft.to/lastmile_qr_scan"}, "name": "2412d9ec37e6e6aac74b90505bf9cc02", "is_reserved": 0}, {"is_disabled": 0, "fusion_lon": 0.0, "fusion_lat": 0.0, "lat": 38.88694016666667, "type": "electric_scooter", "lon": -76.98788266666666, "bike_id": "457d16dccc98d0ec72277df9ebdcce57", "rental_uris": {"android": "https://dc.lft.to/lastmile_qr_scan", "ios": "https://dc.lft.to/lastmile_qr_scan"}, "name": "457d16dccc98d0ec72277df9ebdcce57", "is_reserved": 0}, {"is_disabled": 0, "fusion_lon": 0.0, "fusion_lat": 0.0, "lat": 38.91698783333333, "type": "electric_scooter", "lon": -77.01167233333334, "bike_id": "91dd474a57e2cdc9ae3cc5ce0d899080", "rental_uris": {"android": "https://dc.lft.to/lastmile_qr_scan", "ios": "https://dc.lft.to/lastmile_qr_scan"}, "name": "91dd474a57e2cdc9ae3cc5ce0d899080", "is_reserved": 0}, {"is_disabled": 0, "fusion_lon": 0.0, "fusion_lat": 0.0, "lat": 38.8565165, "type": "electric_bike", "lon": -77.0852685, "bike_id": "f0186d1c6c782c8901de50a0b2427f2f", "rental_uris": {"android": "https://dc.lft.to/lastmile_qr_scan", "ios": "https://dc.lft.to/lastmile_qr_scan"}, "name": "f0186d1c6c782c8901de50a0b2427f2f", "is_reserved": 0}, {"is_disabled": 0, "fusion_lon": 0.0, "fusion_lat": 0.0, "lat": 38.911981, "type": "electric_scooter", "lon": -77.04167483333333, "bike_id": "8db43e921961bd6005a1c52df0c5ca1d", "rental_uris": {"android": "https://dc.lft.to/lastmile_qr_scan", "ios": "https://dc.lft.to/lastmile_qr_scan"}, "name": "8db43e921961bd6005a1c52df0c5ca1d", "is_reserved": 0}, {"is_disabled": 0, "fusion_lon": 0.0, "fusion_lat": 0.0, "lat": 38.896284, "type": "electric_scooter", "lon": -77.02136183333333, "bike_id": "75a9bad4d97c13ee5c0c0997c9926155", "rental_uris": {"android": "https://dc.lft.to/lastmile_qr_scan", "ios": "https://dc.lft.to/lastmile_qr_scan"}, "name": "75a9bad4d97c13ee5c0c0997c9926155", "is_reserved": 0}, {"is_disabled": 0, "fusion_lon": 0.0, "fusion_lat": 0.0, "lat": 38.95638733333333, "type": "electric_scooter", "lon": -77.09099883333333, "bike_id": "8083ffe11ba74a015dbb4139e3e92696", "rental_uris": {"android": "https://dc.lft.to/lastmile_qr_scan", "ios": "https://dc.lft.to/lastmile_qr_scan"}, "name": "8083ffe11ba74a015dbb4139e3e92696", "is_reserved": 0}, {"is_disabled": 0, "fusion_lon": 0.0, "fusion_lat": 0.0, "lat": 38.92364633333333, "type": "electric_scooter", "lon": -77.050317, "bike_id": "ac21bc1256ca35478db3e2ae00ff6f8e", "rental_uris": {"android": "https://dc.lft.to/lastmile_qr_scan", "ios": "https://dc.lft.to/lastmile_qr_scan"}, "name": "ac21bc1256ca35478db3e2ae00ff6f8e", "is_reserved": 0}, {"is_disabled": 0, "fusion_lon": 0.0, "fusion_lat": 0.0, "lat": 38.849328666666665, "type": "electric_bike", "lon": -77.10006733333333, "bike_id": "462bc9bac03619b6aa31a2ed4a62f737", "rental_uris": {"android": "https://dc.lft.to/lastmile_qr_scan", "ios": "https://dc.lft.to/lastmile_qr_scan"}, "name": "462bc9bac03619b6aa31a2ed4a62f737", "is_reserved": 0}, {"is_disabled": 0, "fusion_lon": 0.0, "fusion_lat": 0.0, "lat": 38.886106166666664, "type": "electric_scooter", "lon": -77.00568916666667, "bike_id": "778c22a477914a393d3df4e943d739d9", "rental_uris": {"android": "https://dc.lft.to/lastmile_qr_scan", "ios": "https://dc.lft.to/lastmile_qr_scan"}, "name": "778c22a477914a393d3df4e943d739d9", "is_reserved": 0}, {"is_disabled": 0, "fusion_lon": 0.0, "fusion_lat": 0.0, "lat": 38.9171845, "type": "electric_scooter", "lon": -77.04152866666666, "bike_id": "cd981d0dfd332a2387496f8ca15441c8", "rental_uris": {"android": "https://dc.lft.to/lastmile_qr_scan", "ios": "https://dc.lft.to/lastmile_qr_scan"}, "name": "cd981d0dfd332a2387496f8ca15441c8", "is_reserved": 0}, {"is_disabled": 0, "fusion_lon": 0.0, "fusion_lat": 0.0, "lat": 38.8450835, "type": "electric_bike", "lon": -76.972135, "bike_id": "4f30cd69268e2aac735f04ca2ffc941e", "rental_uris": {"android": "https://dc.lft.to/lastmile_qr_scan", "ios": "https://dc.lft.to/lastmile_qr_scan"}, "name": "4f30cd69268e2aac735f04ca2ffc941e", "is_reserved": 0}, {"is_disabled": 0, "fusion_lon": 0.0, "fusion_lat": 0.0, "lat": 38.902697, "type": "electric_scooter", "lon": -77.01759083333333, "bike_id": "7ea5ff49a4fbbd220bc868bdd137e8a8", "rental_uris": {"android": "https://dc.lft.to/lastmile_qr_scan", "ios": "https://dc.lft.to/lastmile_qr_scan"}, "name": "7ea5ff49a4fbbd220bc868bdd137e8a8", "is_reserved": 0}, {"is_disabled": 0, "fusion_lon": 0.0, "fusion_lat": 0.0, "lat": 38.907163, "type": "electric_scooter", "lon": -77.02714783333333, "bike_id": "c745c1cb1b0c5c26348cc02d7791c570", "rental_uris": {"android": "https://dc.lft.to/lastmile_qr_scan", "ios": "https://dc.lft.to/lastmile_qr_scan"}, "name": "c745c1cb1b0c5c26348cc02d7791c570", "is_reserved": 0}, {"is_disabled": 0, "fusion_lon": 0.0, "fusion_lat": 0.0, "lat": 38.91301433333334, "type": "electric_scooter", "lon": -77.03211566666667, "bike_id": "b816314a4edecc07ac9359ca285d58fc", "rental_uris": {"android": "https://dc.lft.to/lastmile_qr_scan", "ios": "https://dc.lft.to/lastmile_qr_scan"}, "name": "b816314a4edecc07ac9359ca285d58fc", "is_reserved": 0}, {"is_disabled": 0, "fusion_lon": 0.0, "fusion_lat": 0.0, "lat": 38.91666583333333, "type": "electric_scooter", "lon": -77.02787616666667, "bike_id": "909d88389997ce0ed9c248e2a1e38582", "rental_uris": {"android": "https://dc.lft.to/lastmile_qr_scan", "ios": "https://dc.lft.to/lastmile_qr_scan"}, "name": "909d88389997ce0ed9c248e2a1e38582", "is_reserved": 0}, {"is_disabled": 0, "fusion_lon": 0.0, "fusion_lat": 0.0, "lat": 38.90001133333333, "type": "electric_scooter", "lon": -77.03204366666667, "bike_id": "80d69ef2aa54300b8403899b034348e3", "rental_uris": {"android": "https://dc.lft.to/lastmile_qr_scan", "ios": "https://dc.lft.to/lastmile_qr_scan"}, "name": "80d69ef2aa54300b8403899b034348e3", "is_reserved": 0}, {"is_disabled": 0, "fusion_lon": 0.0, "fusion_lat": 0.0, "lat": 38.951308, "type": "electric_scooter", "lon": -77.01395216666667, "bike_id": "9edb63a4fb869fa2bcb98c63b1020e61", "rental_uris": {"android": "https://dc.lft.to/lastmile_qr_scan", "ios": "https://dc.lft.to/lastmile_qr_scan"}, "name": "9edb63a4fb869fa2bcb98c63b1020e61", "is_reserved": 0}, {"is_disabled": 0, "fusion_lon": 0.0, "fusion_lat": 0.0, "lat": 38.951758166666664, "type": "electric_scooter", "lon": -77.0565355, "bike_id": "4c5bc12929e0da7b567db248fe7b4e62", "rental_uris": {"android": "https://dc.lft.to/lastmile_qr_scan", "ios": "https://dc.lft.to/lastmile_qr_scan"}, "name": "4c5bc12929e0da7b567db248fe7b4e62", "is_reserved": 0}, {"is_disabled": 0, "fusion_lon": 0.0, "fusion_lat": 0.0, "lat": 38.828745833333336, "type": "electric_bike", "lon": -77.11222966666666, "bike_id": "a500ffe87db0f02db2cc5bd3200e6300", "rental_uris": {"android": "https://dc.lft.to/lastmile_qr_scan", "ios": "https://dc.lft.to/lastmile_qr_scan"}, "name": "a500ffe87db0f02db2cc5bd3200e6300", "is_reserved": 0}, {"is_disabled": 0, "fusion_lon": 0.0, "fusion_lat": 0.0, "lat": 38.913405, "type": "electric_scooter", "lon": -77.04863183333333, "bike_id": "9cb44ebb14bf605dc7c438753e140b69", "rental_uris": {"android": "https://dc.lft.to/lastmile_qr_scan", "ios": "https://dc.lft.to/lastmile_qr_scan"}, "name": "9cb44ebb14bf605dc7c438753e140b69", "is_reserved": 0}, {"is_disabled": 0, "fusion_lon": 0.0, "fusion_lat": 0.0, "lat": 38.833192333333336, "type": "electric_scooter", "lon": -77.00006483333334, "bike_id": "ecdc2fa07c0973d82b66c55ef78c746e", "rental_uris": {"android": "https://dc.lft.to/lastmile_qr_scan", "ios": "https://dc.lft.to/lastmile_qr_scan"}, "name": "ecdc2fa07c0973d82b66c55ef78c746e", "is_reserved": 0}, {"is_disabled": 0, "fusion_lon": 0.0, "fusion_lat": 0.0, "lat": 38.92827166666667, "type": "electric_scooter", "lon": -77.03701083333333, "bike_id": "d0360b37fe2a55c9df36cf9d7a6144a3", "rental_uris": {"android": "https://dc.lft.to/lastmile_qr_scan", "ios": "https://dc.lft.to/lastmile_qr_scan"}, "name": "d0360b37fe2a55c9df36cf9d7a6144a3", "is_reserved": 0}, {"is_disabled": 0, "fusion_lon": 0.0, "fusion_lat": 0.0, "lat": 38.9555455, "type": "electric_bike", "lon": -76.93540883333333, "bike_id": "71fb77c970bfdaaac1e3277370278e40", "rental_uris": {"android": "https://dc.lft.to/lastmile_qr_scan", "ios": "https://dc.lft.to/lastmile_qr_scan"}, "name": "71fb77c970bfdaaac1e3277370278e40", "is_reserved": 0}, {"is_disabled": 0, "fusion_lon": 0.0, "fusion_lat": 0.0, "lat": 38.9170955, "type": "electric_scooter", "lon": -77.02439666666666, "bike_id": "9743d8b2c9fee205b5579eeb6d738a9b", "rental_uris": {"android": "https://dc.lft.to/lastmile_qr_scan", "ios": "https://dc.lft.to/lastmile_qr_scan"}, "name": "9743d8b2c9fee205b5579eeb6d738a9b", "is_reserved": 0}, {"is_disabled": 0, "fusion_lon": 0.0, "fusion_lat": 0.0, "lat": 38.88684083333333, "type": "electric_scooter", "lon": -77.001946, "bike_id": "76f43d6296f4ef83eb0e98eb2c3a86a1", "rental_uris": {"android": "https://dc.lft.to/lastmile_qr_scan", "ios": "https://dc.lft.to/lastmile_qr_scan"}, "name": "76f43d6296f4ef83eb0e98eb2c3a86a1", "is_reserved": 0}, {"is_disabled": 0, "fusion_lon": 0.0, "fusion_lat": 0.0, "lat": 38.831971, "type": "electric_bike", "lon": -77.07682316666667, "bike_id": "1e717441642f3314c4695ae03502a1c1", "rental_uris": {"android": "https://dc.lft.to/lastmile_qr_scan", "ios": "https://dc.lft.to/lastmile_qr_scan"}, "name": "1e717441642f3314c4695ae03502a1c1", "is_reserved": 0}, {"is_disabled": 0, "fusion_lon": 0.0, "fusion_lat": 0.0, "lat": 38.92588033333333, "type": "electric_scooter", "lon": -77.0552525, "bike_id": "857ec81d6be5dcd5d2831d808b2edc24", "rental_uris": {"android": "https://dc.lft.to/lastmile_qr_scan", "ios": "https://dc.lft.to/lastmile_qr_scan"}, "name": "857ec81d6be5dcd5d2831d808b2edc24", "is_reserved": 0}, {"is_disabled": 0, "fusion_lon": 0.0, "fusion_lat": 0.0, "lat": 38.87480566666667, "type": "electric_scooter", "lon": -77.01067366666666, "bike_id": "1ea2b97560c4c50785877ba0b379afc4", "rental_uris": {"android": "https://dc.lft.to/lastmile_qr_scan", "ios": "https://dc.lft.to/lastmile_qr_scan"}, "name": "1ea2b97560c4c50785877ba0b379afc4", "is_reserved": 0}, {"is_disabled": 0, "fusion_lon": 0.0, "fusion_lat": 0.0, "lat": 38.89920716666666, "type": "electric_scooter", "lon": -77.03974716666667, "bike_id": "d77f94f96fdd4fa5d4f9cafebd7308ee", "rental_uris": {"android": "https://dc.lft.to/lastmile_qr_scan", "ios": "https://dc.lft.to/lastmile_qr_scan"}, "name": "d77f94f96fdd4fa5d4f9cafebd7308ee", "is_reserved": 0}, {"is_disabled": 0, "fusion_lon": 0.0, "fusion_lat": 0.0, "lat": 38.94523616666667, "type": "electric_scooter", "lon": -77.02978966666667, "bike_id": "9e04682dab2358d0c0c1f429535fb933", "rental_uris": {"android": "https://dc.lft.to/lastmile_qr_scan", "ios": "https://dc.lft.to/lastmile_qr_scan"}, "name": "9e04682dab2358d0c0c1f429535fb933", "is_reserved": 0}, {"is_disabled": 0, "fusion_lon": 0.0, "fusion_lat": 0.0, "lat": 38.906856, "type": "electric_scooter", "lon": -77.03115116666666, "bike_id": "cf8529c56ade14b6a9ede74cc5ca7b5a", "rental_uris": {"android": "https://dc.lft.to/lastmile_qr_scan", "ios": "https://dc.lft.to/lastmile_qr_scan"}, "name": "cf8529c56ade14b6a9ede74cc5ca7b5a", "is_reserved": 0}, {"is_disabled": 0, "fusion_lon": 0.0, "fusion_lat": 0.0, "lat": 38.90140133333333, "type": "electric_scooter", "lon": -77.04179083333334, "bike_id": "b695d4b99807f0408cf7742c90b5437f", "rental_uris": {"android": "https://dc.lft.to/lastmile_qr_scan", "ios": "https://dc.lft.to/lastmile_qr_scan"}, "name": "b695d4b99807f0408cf7742c90b5437f", "is_reserved": 0}, {"is_disabled": 0, "fusion_lon": 0.0, "fusion_lat": 0.0, "lat": 38.927871, "type": "electric_scooter", "lon": -77.03257566666667, "bike_id": "590a26c494729d99f75193d38a1538f4", "rental_uris": {"android": "https://dc.lft.to/lastmile_qr_scan", "ios": "https://dc.lft.to/lastmile_qr_scan"}, "name": "590a26c494729d99f75193d38a1538f4", "is_reserved": 0}, {"is_disabled": 0, "fusion_lon": 0.0, "fusion_lat": 0.0, "lat": 38.903014, "type": "electric_scooter", "lon": -77.02250433333333, "bike_id": "25698ad4117e624ab347e3ea03dfed96", "rental_uris": {"android": "https://dc.lft.to/lastmile_qr_scan", "ios": "https://dc.lft.to/lastmile_qr_scan"}, "name": "25698ad4117e624ab347e3ea03dfed96", "is_reserved": 0}, {"is_disabled": 0, "fusion_lon": 0.0, "fusion_lat": 0.0, "lat": 38.905970333333336, "type": "electric_scooter", "lon": -77.06371466666667, "bike_id": "680d7cd0840681fc49d60d04a37a2ad1", "rental_uris": {"android": "https://dc.lft.to/lastmile_qr_scan", "ios": "https://dc.lft.to/lastmile_qr_scan"}, "name": "680d7cd0840681fc49d60d04a37a2ad1", "is_reserved": 0}, {"is_disabled": 0, "fusion_lon": 0.0, "fusion_lat": 0.0, "lat": 38.88375666666666, "type": "electric_scooter", "lon": -76.92375666666666, "bike_id": "2f926d83a09896d4d076a4481e4f87ec", "rental_uris": {"android": "https://dc.lft.to/lastmile_qr_scan", "ios": "https://dc.lft.to/lastmile_qr_scan"}, "name": "2f926d83a09896d4d076a4481e4f87ec", "is_reserved": 0}, {"is_disabled": 0, "fusion_lon": 0.0, "fusion_lat": 0.0, "lat": 38.918065666666664, "type": "electric_scooter", "lon": -77.03442683333333, "bike_id": "cf5aeaf9dbe1001f6a59c432c7f10c21", "rental_uris": {"android": "https://dc.lft.to/lastmile_qr_scan", "ios": "https://dc.lft.to/lastmile_qr_scan"}, "name": "cf5aeaf9dbe1001f6a59c432c7f10c21", "is_reserved": 0}, {"is_disabled": 0, "fusion_lon": 0.0, "fusion_lat": 0.0, "lat": 38.928218, "type": "electric_scooter", "lon": -77.01394383333333, "bike_id": "0bd740e572debda5b4fb763e2874f538", "rental_uris": {"android": "https://dc.lft.to/lastmile_qr_scan", "ios": "https://dc.lft.to/lastmile_qr_scan"}, "name": "0bd740e572debda5b4fb763e2874f538", "is_reserved": 0}, {"is_disabled": 0, "fusion_lon": 0.0, "fusion_lat": 0.0, "lat": 38.9273195, "type": "electric_scooter", "lon": -77.02242866666667, "bike_id": "145b19a5f27796e7b2269ee24425034a", "rental_uris": {"android": "https://dc.lft.to/lastmile_qr_scan", "ios": "https://dc.lft.to/lastmile_qr_scan"}, "name": "145b19a5f27796e7b2269ee24425034a", "is_reserved": 0}, {"is_disabled": 0, "fusion_lon": 0.0, "fusion_lat": 0.0, "lat": 38.900446333333335, "type": "electric_scooter", "lon": -76.9226945, "bike_id": "9cd4d8b00df8f437c9071920c4a383ab", "rental_uris": {"android": "https://dc.lft.to/lastmile_qr_scan", "ios": "https://dc.lft.to/lastmile_qr_scan"}, "name": "9cd4d8b00df8f437c9071920c4a383ab", "is_reserved": 0}, {"is_disabled": 0, "fusion_lon": 0.0, "fusion_lat": 0.0, "lat": 38.900240833333335, "type": "electric_scooter", "lon": -77.0119835, "bike_id": "86d2b314e09ada03ab37bc02167d21dd", "rental_uris": {"android": "https://dc.lft.to/lastmile_qr_scan", "ios": "https://dc.lft.to/lastmile_qr_scan"}, "name": "86d2b314e09ada03ab37bc02167d21dd", "is_reserved": 0}, {"is_disabled": 0, "fusion_lon": 0.0, "fusion_lat": 0.0, "lat": 38.89374316666667, "type": "electric_scooter", "lon": -76.94997366666666, "bike_id": "e384463c2e93b3e7a558d572730a0e9b", "rental_uris": {"android": "https://dc.lft.to/lastmile_qr_scan", "ios": "https://dc.lft.to/lastmile_qr_scan"}, "name": "e384463c2e93b3e7a558d572730a0e9b", "is_reserved": 0}, {"is_disabled": 0, "fusion_lon": 0.0, "fusion_lat": 0.0, "lat": 38.907818, "type": "electric_scooter", "lon": -77.029506, "bike_id": "14b14a3360f732362f64d546c1105fc1", "rental_uris": {"android": "https://dc.lft.to/lastmile_qr_scan", "ios": "https://dc.lft.to/lastmile_qr_scan"}, "name": "14b14a3360f732362f64d546c1105fc1", "is_reserved": 0}, {"is_disabled": 0, "fusion_lon": 0.0, "fusion_lat": 0.0, "lat": 38.911911333333336, "type": "electric_scooter", "lon": -77.03499533333333, "bike_id": "7a5043ba1ab406241e0e3faabfab5491", "rental_uris": {"android": "https://dc.lft.to/lastmile_qr_scan", "ios": "https://dc.lft.to/lastmile_qr_scan"}, "name": "7a5043ba1ab406241e0e3faabfab5491", "is_reserved": 0}, {"is_disabled": 0, "fusion_lon": 0.0, "fusion_lat": 0.0, "lat": 38.8876685, "type": "electric_bike", "lon": -76.90081133333334, "bike_id": "8c0c4a8f56c67da97b829bea37df2883", "rental_uris": {"android": "https://dc.lft.to/lastmile_qr_scan", "ios": "https://dc.lft.to/lastmile_qr_scan"}, "name": "8c0c4a8f56c67da97b829bea37df2883", "is_reserved": 0}, {"is_disabled": 0, "fusion_lon": 0.0, "fusion_lat": 0.0, "lat": 38.927111333333336, "type": "electric_scooter", "lon": -77.023262, "bike_id": "0953e5e1d64dcbd8a08128f6cca220fb", "rental_uris": {"android": "https://dc.lft.to/lastmile_qr_scan", "ios": "https://dc.lft.to/lastmile_qr_scan"}, "name": "0953e5e1d64dcbd8a08128f6cca220fb", "is_reserved": 0}, {"is_disabled": 0, "fusion_lon": 0.0, "fusion_lat": 0.0, "lat": 38.861253, "type": "electric_scooter", "lon": -76.985684, "bike_id": "f745ee411e3de390f4e392e4b549d5f5", "rental_uris": {"android": "https://dc.lft.to/lastmile_qr_scan", "ios": "https://dc.lft.to/lastmile_qr_scan"}, "name": "f745ee411e3de390f4e392e4b549d5f5", "is_reserved": 0}, {"is_disabled": 0, "fusion_lon": 0.0, "fusion_lat": 0.0, "lat": 38.91191466666667, "type": "electric_scooter", "lon": -77.038331, "bike_id": "59a014faf5f8ce8d4c6e50a992a7d5c0", "rental_uris": {"android": "https://dc.lft.to/lastmile_qr_scan", "ios": "https://dc.lft.to/lastmile_qr_scan"}, "name": "59a014faf5f8ce8d4c6e50a992a7d5c0", "is_reserved": 0}, {"is_disabled": 0, "fusion_lon": 0.0, "fusion_lat": 0.0, "lat": 38.937057333333335, "type": "electric_scooter", "lon": -77.06099716666667, "bike_id": "76df0159fe49a0d8661114f3bc1ef025", "rental_uris": {"android": "https://dc.lft.to/lastmile_qr_scan", "ios": "https://dc.lft.to/lastmile_qr_scan"}, "name": "76df0159fe49a0d8661114f3bc1ef025", "is_reserved": 0}, {"is_disabled": 0, "fusion_lon": 0.0, "fusion_lat": 0.0, "lat": 38.902907166666665, "type": "electric_scooter", "lon": -77.02419683333333, "bike_id": "36b43ad4b925e39d75b2ce8df5f6759d", "rental_uris": {"android": "https://dc.lft.to/lastmile_qr_scan", "ios": "https://dc.lft.to/lastmile_qr_scan"}, "name": "36b43ad4b925e39d75b2ce8df5f6759d", "is_reserved": 0}, {"is_disabled": 0, "fusion_lon": 0.0, "fusion_lat": 0.0, "lat": 38.91195466666667, "type": "electric_scooter", "lon": -77.04167466666667, "bike_id": "384dd48a5e0a6cca79f1617cac2c4126", "rental_uris": {"android": "https://dc.lft.to/lastmile_qr_scan", "ios": "https://dc.lft.to/lastmile_qr_scan"}, "name": "384dd48a5e0a6cca79f1617cac2c4126", "is_reserved": 0}, {"is_disabled": 0, "fusion_lon": 0.0, "fusion_lat": 0.0, "lat": 38.8381585, "type": "electric_scooter", "lon": -77.00430683333333, "bike_id": "5491f42efbed6301440e303f840c2383", "rental_uris": {"android": "https://dc.lft.to/lastmile_qr_scan", "ios": "https://dc.lft.to/lastmile_qr_scan"}, "name": "5491f42efbed6301440e303f840c2383", "is_reserved": 0}, {"is_disabled": 0, "fusion_lon": 0.0, "fusion_lat": 0.0, "lat": 38.93710733333333, "type": "electric_scooter", "lon": -77.024093, "bike_id": "0f38f169821f9fcad63b32a3f6f437de", "rental_uris": {"android": "https://dc.lft.to/lastmile_qr_scan", "ios": "https://dc.lft.to/lastmile_qr_scan"}, "name": "0f38f169821f9fcad63b32a3f6f437de", "is_reserved": 0}, {"is_disabled": 0, "fusion_lon": 0.0, "fusion_lat": 0.0, "lat": 38.910979166666664, "type": "electric_scooter", "lon": -77.03858983333333, "bike_id": "955d8a073c66626e772feffbbc14fea4", "rental_uris": {"android": "https://dc.lft.to/lastmile_qr_scan", "ios": "https://dc.lft.to/lastmile_qr_scan"}, "name": "955d8a073c66626e772feffbbc14fea4", "is_reserved": 0}, {"is_disabled": 0, "fusion_lon": 0.0, "fusion_lat": 0.0, "lat": 38.88657633333333, "type": "electric_scooter", "lon": -77.02825633333333, "bike_id": "38578f2cd2895e76150fcb5005ffde9d", "rental_uris": {"android": "https://dc.lft.to/lastmile_qr_scan", "ios": "https://dc.lft.to/lastmile_qr_scan"}, "name": "38578f2cd2895e76150fcb5005ffde9d", "is_reserved": 0}, {"is_disabled": 0, "fusion_lon": 0.0, "fusion_lat": 0.0, "lat": 38.93102783333333, "type": "electric_scooter", "lon": -77.03836633333333, "bike_id": "fdefe787f26a56132bf20a1dd715589c", "rental_uris": {"android": "https://dc.lft.to/lastmile_qr_scan", "ios": "https://dc.lft.to/lastmile_qr_scan"}, "name": "fdefe787f26a56132bf20a1dd715589c", "is_reserved": 0}, {"is_disabled": 0, "fusion_lon": 0.0, "fusion_lat": 0.0, "lat": 38.95312666666667, "type": "electric_scooter", "lon": -77.03602, "bike_id": "88f3ee740ef15dd66be53b0e46aff1aa", "rental_uris": {"android": "https://dc.lft.to/lastmile_qr_scan", "ios": "https://dc.lft.to/lastmile_qr_scan"}, "name": "88f3ee740ef15dd66be53b0e46aff1aa", "is_reserved": 0}, {"is_disabled": 0, "fusion_lon": 0.0, "fusion_lat": 0.0, "lat": 38.903170333333335, "type": "electric_scooter", "lon": -77.019176, "bike_id": "8f8c0681d7f1c35de9ac1bc2006cb517", "rental_uris": {"android": "https://dc.lft.to/lastmile_qr_scan", "ios": "https://dc.lft.to/lastmile_qr_scan"}, "name": "8f8c0681d7f1c35de9ac1bc2006cb517", "is_reserved": 0}, {"is_disabled": 0, "fusion_lon": 0.0, "fusion_lat": 0.0, "lat": 38.9083055, "type": "electric_scooter", "lon": -77.04163216666667, "bike_id": "f47551f0ff71b100765f0d58f01f2c4c", "rental_uris": {"android": "https://dc.lft.to/lastmile_qr_scan", "ios": "https://dc.lft.to/lastmile_qr_scan"}, "name": "f47551f0ff71b100765f0d58f01f2c4c", "is_reserved": 0}, {"is_disabled": 0, "fusion_lon": 0.0, "fusion_lat": 0.0, "lat": 38.921099, "type": "electric_scooter", "lon": -77.03053766666666, "bike_id": "ea1e9a3501f1145909c427aeafaa1a7e", "rental_uris": {"android": "https://dc.lft.to/lastmile_qr_scan", "ios": "https://dc.lft.to/lastmile_qr_scan"}, "name": "ea1e9a3501f1145909c427aeafaa1a7e", "is_reserved": 0}, {"is_disabled": 0, "fusion_lon": 0.0, "fusion_lat": 0.0, "lat": 38.876633, "type": "electric_scooter", "lon": -77.0156615, "bike_id": "bebad3d2b1ac8ab8f22557d18f05017e", "rental_uris": {"android": "https://dc.lft.to/lastmile_qr_scan", "ios": "https://dc.lft.to/lastmile_qr_scan"}, "name": "bebad3d2b1ac8ab8f22557d18f05017e", "is_reserved": 0}, {"is_disabled": 0, "fusion_lon": 0.0, "fusion_lat": 0.0, "lat": 38.93149066666667, "type": "electric_scooter", "lon": -77.03448366666667, "bike_id": "7d6b7d6f7150d96b8af3afbf93561d5c", "rental_uris": {"android": "https://dc.lft.to/lastmile_qr_scan", "ios": "https://dc.lft.to/lastmile_qr_scan"}, "name": "7d6b7d6f7150d96b8af3afbf93561d5c", "is_reserved": 0}, {"is_disabled": 0, "fusion_lon": 0.0, "fusion_lat": 0.0, "lat": 38.882343, "type": "electric_bike", "lon": -77.11276933333333, "bike_id": "a905a663defdb8e1e709a00769fc5a2d", "rental_uris": {"android": "https://dc.lft.to/lastmile_qr_scan", "ios": "https://dc.lft.to/lastmile_qr_scan"}, "name": "a905a663defdb8e1e709a00769fc5a2d", "is_reserved": 0}, {"is_disabled": 0, "fusion_lon": 0.0, "fusion_lat": 0.0, "lat": 38.90971166666667, "type": "electric_scooter", "lon": -77.0807265, "bike_id": "6fb5f6c87634ae92babfad3191012dac", "rental_uris": {"android": "https://dc.lft.to/lastmile_qr_scan", "ios": "https://dc.lft.to/lastmile_qr_scan"}, "name": "6fb5f6c87634ae92babfad3191012dac", "is_reserved": 0}, {"is_disabled": 0, "fusion_lon": 0.0, "fusion_lat": 0.0, "lat": 38.90454616666667, "type": "electric_scooter", "lon": -77.0288395, "bike_id": "943ab43e38fb6848e08478a7a85e8c30", "rental_uris": {"android": "https://dc.lft.to/lastmile_qr_scan", "ios": "https://dc.lft.to/lastmile_qr_scan"}, "name": "943ab43e38fb6848e08478a7a85e8c30", "is_reserved": 0}, {"is_disabled": 0, "fusion_lon": 0.0, "fusion_lat": 0.0, "lat": 38.898243666666666, "type": "electric_scooter", "lon": -76.94652283333333, "bike_id": "aec54a2e79e9b6cd0e10f2e3d72bf1a0", "rental_uris": {"android": "https://dc.lft.to/lastmile_qr_scan", "ios": "https://dc.lft.to/lastmile_qr_scan"}, "name": "aec54a2e79e9b6cd0e10f2e3d72bf1a0", "is_reserved": 0}, {"is_disabled": 0, "fusion_lon": 0.0, "fusion_lat": 0.0, "lat": 38.88737966666667, "type": "electric_scooter", "lon": -77.0151025, "bike_id": "8683d00823ac764e2a7cfc05d181da18", "rental_uris": {"android": "https://dc.lft.to/lastmile_qr_scan", "ios": "https://dc.lft.to/lastmile_qr_scan"}, "name": "8683d00823ac764e2a7cfc05d181da18", "is_reserved": 0}, {"is_disabled": 0, "fusion_lon": 0.0, "fusion_lat": 0.0, "lat": 38.88585283333333, "type": "electric_scooter", "lon": -77.012269, "bike_id": "672933a2a8be3abb40f23b29361ad177", "rental_uris": {"android": "https://dc.lft.to/lastmile_qr_scan", "ios": "https://dc.lft.to/lastmile_qr_scan"}, "name": "672933a2a8be3abb40f23b29361ad177", "is_reserved": 0}, {"is_disabled": 0, "fusion_lon": 0.0, "fusion_lat": 0.0, "lat": 38.86467416666667, "type": "electric_scooter", "lon": -76.99607866666666, "bike_id": "11bc5fc01477629a3c25ef0d96dc679c", "rental_uris": {"android": "https://dc.lft.to/lastmile_qr_scan", "ios": "https://dc.lft.to/lastmile_qr_scan"}, "name": "11bc5fc01477629a3c25ef0d96dc679c", "is_reserved": 0}, {"is_disabled": 0, "fusion_lon": 0.0, "fusion_lat": 0.0, "lat": 38.892358, "type": "electric_scooter", "lon": -77.03177116666667, "bike_id": "5d8702c7835329cb42a5f08233ebe20d", "rental_uris": {"android": "https://dc.lft.to/lastmile_qr_scan", "ios": "https://dc.lft.to/lastmile_qr_scan"}, "name": "5d8702c7835329cb42a5f08233ebe20d", "is_reserved": 0}, {"is_disabled": 0, "fusion_lon": 0.0, "fusion_lat": 0.0, "lat": 38.94079416666667, "type": "electric_scooter", "lon": -77.06147683333333, "bike_id": "7c7010d3bfa2cabb087e4eb38a995937", "rental_uris": {"android": "https://dc.lft.to/lastmile_qr_scan", "ios": "https://dc.lft.to/lastmile_qr_scan"}, "name": "7c7010d3bfa2cabb087e4eb38a995937", "is_reserved": 0}, {"is_disabled": 0, "fusion_lon": 0.0, "fusion_lat": 0.0, "lat": 38.95173716666667, "type": "electric_scooter", "lon": -77.03333633333334, "bike_id": "f8adbd73f2661c38d1ca4bb88dde8111", "rental_uris": {"android": "https://dc.lft.to/lastmile_qr_scan", "ios": "https://dc.lft.to/lastmile_qr_scan"}, "name": "f8adbd73f2661c38d1ca4bb88dde8111", "is_reserved": 0}, {"is_disabled": 0, "fusion_lon": 0.0, "fusion_lat": 0.0, "lat": 38.90182516666667, "type": "electric_scooter", "lon": -77.02209733333333, "bike_id": "9b311552f76316807f54c10510a63201", "rental_uris": {"android": "https://dc.lft.to/lastmile_qr_scan", "ios": "https://dc.lft.to/lastmile_qr_scan"}, "name": "9b311552f76316807f54c10510a63201", "is_reserved": 0}, {"is_disabled": 0, "fusion_lon": 0.0, "fusion_lat": 0.0, "lat": 38.9183045, "type": "electric_scooter", "lon": -77.03657166666666, "bike_id": "41d0f783aa906ef9f4842958a3937d7c", "rental_uris": {"android": "https://dc.lft.to/lastmile_qr_scan", "ios": "https://dc.lft.to/lastmile_qr_scan"}, "name": "41d0f783aa906ef9f4842958a3937d7c", "is_reserved": 0}, {"is_disabled": 0, "fusion_lon": 0.0, "fusion_lat": 0.0, "lat": 38.93071366666667, "type": "electric_scooter", "lon": -77.03800583333333, "bike_id": "a6fb31fd1b7c7b8e739732bd5a7ecc67", "rental_uris": {"android": "https://dc.lft.to/lastmile_qr_scan", "ios": "https://dc.lft.to/lastmile_qr_scan"}, "name": "a6fb31fd1b7c7b8e739732bd5a7ecc67", "is_reserved": 0}, {"is_disabled": 0, "fusion_lon": 0.0, "fusion_lat": 0.0, "lat": 38.9370445, "type": "electric_scooter", "lon": -77.06098883333334, "bike_id": "a612f0d67d8a50002721356148367e4f", "rental_uris": {"android": "https://dc.lft.to/lastmile_qr_scan", "ios": "https://dc.lft.to/lastmile_qr_scan"}, "name": "a612f0d67d8a50002721356148367e4f", "is_reserved": 0}, {"is_disabled": 0, "fusion_lon": 0.0, "fusion_lat": 0.0, "lat": 38.8636075, "type": "electric_scooter", "lon": -76.99066416666666, "bike_id": "6d58aace477185a8aab61c1c101be03b", "rental_uris": {"android": "https://dc.lft.to/lastmile_qr_scan", "ios": "https://dc.lft.to/lastmile_qr_scan"}, "name": "6d58aace477185a8aab61c1c101be03b", "is_reserved": 0}, {"is_disabled": 0, "fusion_lon": 0.0, "fusion_lat": 0.0, "lat": 38.981392, "type": "electric_bike", "lon": -77.00766383333334, "bike_id": "97308ddc14eadfd59607ee740f39ba6e", "rental_uris": {"android": "https://dc.lft.to/lastmile_qr_scan", "ios": "https://dc.lft.to/lastmile_qr_scan"}, "name": "97308ddc14eadfd59607ee740f39ba6e", "is_reserved": 0}, {"is_disabled": 0, "fusion_lon": 0.0, "fusion_lat": 0.0, "lat": 38.848958, "type": "electric_scooter", "lon": -77.00522, "bike_id": "08cd04ff079d0bf270946c47acc4a988", "rental_uris": {"android": "https://dc.lft.to/lastmile_qr_scan", "ios": "https://dc.lft.to/lastmile_qr_scan"}, "name": "08cd04ff079d0bf270946c47acc4a988", "is_reserved": 0}, {"is_disabled": 0, "fusion_lon": 0.0, "fusion_lat": 0.0, "lat": 38.9062695, "type": "electric_scooter", "lon": -77.0241075, "bike_id": "a9be5103289092e7cdf8c84c70a428cd", "rental_uris": {"android": "https://dc.lft.to/lastmile_qr_scan", "ios": "https://dc.lft.to/lastmile_qr_scan"}, "name": "a9be5103289092e7cdf8c84c70a428cd", "is_reserved": 0}, {"is_disabled": 0, "fusion_lon": 0.0, "fusion_lat": 0.0, "lat": 38.9058435, "type": "electric_scooter", "lon": -77.051317, "bike_id": "c1c9484af93cb24feb3d09241f483d6c", "rental_uris": {"android": "https://dc.lft.to/lastmile_qr_scan", "ios": "https://dc.lft.to/lastmile_qr_scan"}, "name": "c1c9484af93cb24feb3d09241f483d6c", "is_reserved": 0}, {"is_disabled": 0, "fusion_lon": 0.0, "fusion_lat": 0.0, "lat": 38.87778816666667, "type": "electric_scooter", "lon": -77.01437383333334, "bike_id": "4cee6997789fb11062527f21a7600372", "rental_uris": {"android": "https://dc.lft.to/lastmile_qr_scan", "ios": "https://dc.lft.to/lastmile_qr_scan"}, "name": "4cee6997789fb11062527f21a7600372", "is_reserved": 0}, {"is_disabled": 0, "fusion_lon": 0.0, "fusion_lat": 0.0, "lat": 38.900563166666664, "type": "electric_scooter", "lon": -77.00752, "bike_id": "71fb7f4795d5eedf0c13181981a9b73c", "rental_uris": {"android": "https://dc.lft.to/lastmile_qr_scan", "ios": "https://dc.lft.to/lastmile_qr_scan"}, "name": "71fb7f4795d5eedf0c13181981a9b73c", "is_reserved": 0}, {"is_disabled": 0, "fusion_lon": 0.0, "fusion_lat": 0.0, "lat": 38.9118815, "type": "electric_scooter", "lon": -77.04177, "bike_id": "0735892faca9e0efb6260c2c8049dd66", "rental_uris": {"android": "https://dc.lft.to/lastmile_qr_scan", "ios": "https://dc.lft.to/lastmile_qr_scan"}, "name": "0735892faca9e0efb6260c2c8049dd66", "is_reserved": 0}, {"is_disabled": 0, "fusion_lon": 0.0, "fusion_lat": 0.0, "lat": 38.91035733333333, "type": "electric_scooter", "lon": -77.04054616666667, "bike_id": "621178a1486429395329c69b0f3f6af8", "rental_uris": {"android": "https://dc.lft.to/lastmile_qr_scan", "ios": "https://dc.lft.to/lastmile_qr_scan"}, "name": "621178a1486429395329c69b0f3f6af8", "is_reserved": 0}, {"is_disabled": 0, "fusion_lon": 0.0, "fusion_lat": 0.0, "lat": 38.8876285, "type": "electric_scooter", "lon": -76.95674333333334, "bike_id": "4eadf774f78412dc9099e461ddf0c17e", "rental_uris": {"android": "https://dc.lft.to/lastmile_qr_scan", "ios": "https://dc.lft.to/lastmile_qr_scan"}, "name": "4eadf774f78412dc9099e461ddf0c17e", "is_reserved": 0}, {"is_disabled": 0, "fusion_lon": 0.0, "fusion_lat": 0.0, "lat": 38.905032, "type": "electric_scooter", "lon": -76.988486, "bike_id": "9d6ed367276be2fc57b1862f673bde77", "rental_uris": {"android": "https://dc.lft.to/lastmile_qr_scan", "ios": "https://dc.lft.to/lastmile_qr_scan"}, "name": "9d6ed367276be2fc57b1862f673bde77", "is_reserved": 0}, {"is_disabled": 0, "fusion_lon": 0.0, "fusion_lat": 0.0, "lat": 38.8989145, "type": "electric_scooter", "lon": -77.02180416666667, "bike_id": "a0ad308793aaf14f867994b81994640b", "rental_uris": {"android": "https://dc.lft.to/lastmile_qr_scan", "ios": "https://dc.lft.to/lastmile_qr_scan"}, "name": "a0ad308793aaf14f867994b81994640b", "is_reserved": 0}, {"is_disabled": 0, "fusion_lon": 0.0, "fusion_lat": 0.0, "lat": 38.89827066666667, "type": "electric_scooter", "lon": -77.031717, "bike_id": "fcdc44ed6789206e54082dd8973aa9d3", "rental_uris": {"android": "https://dc.lft.to/lastmile_qr_scan", "ios": "https://dc.lft.to/lastmile_qr_scan"}, "name": "fcdc44ed6789206e54082dd8973aa9d3", "is_reserved": 0}, {"is_disabled": 0, "fusion_lon": 0.0, "fusion_lat": 0.0, "lat": 38.9262255, "type": "electric_scooter", "lon": -77.05702533333333, "bike_id": "d9515a0bd115f8441be9edfc2de40b80", "rental_uris": {"android": "https://dc.lft.to/lastmile_qr_scan", "ios": "https://dc.lft.to/lastmile_qr_scan"}, "name": "d9515a0bd115f8441be9edfc2de40b80", "is_reserved": 0}, {"is_disabled": 0, "fusion_lon": 0.0, "fusion_lat": 0.0, "lat": 38.936115, "type": "electric_scooter", "lon": -77.0586035, "bike_id": "5e7eea07836d4df89ed2d2171ba125e2", "rental_uris": {"android": "https://dc.lft.to/lastmile_qr_scan", "ios": "https://dc.lft.to/lastmile_qr_scan"}, "name": "5e7eea07836d4df89ed2d2171ba125e2", "is_reserved": 0}, {"is_disabled": 0, "fusion_lon": 0.0, "fusion_lat": 0.0, "lat": 38.9053605, "type": "electric_scooter", "lon": -76.98785633333334, "bike_id": "40fdba12365829462b4ef2f9677d5ce7", "rental_uris": {"android": "https://dc.lft.to/lastmile_qr_scan", "ios": "https://dc.lft.to/lastmile_qr_scan"}, "name": "40fdba12365829462b4ef2f9677d5ce7", "is_reserved": 0}, {"is_disabled": 0, "fusion_lon": 0.0, "fusion_lat": 0.0, "lat": 38.923357, "type": "electric_scooter", "lon": -77.04185316666667, "bike_id": "9570a68cf15482ba78dac7d40e71f988", "rental_uris": {"android": "https://dc.lft.to/lastmile_qr_scan", "ios": "https://dc.lft.to/lastmile_qr_scan"}, "name": "9570a68cf15482ba78dac7d40e71f988", "is_reserved": 0}, {"is_disabled": 0, "fusion_lon": 0.0, "fusion_lat": 0.0, "lat": 38.90500933333333, "type": "electric_scooter", "lon": -77.05144183333333, "bike_id": "4e4f15c1bbc75c560630624fc1a2b5f3", "rental_uris": {"android": "https://dc.lft.to/lastmile_qr_scan", "ios": "https://dc.lft.to/lastmile_qr_scan"}, "name": "4e4f15c1bbc75c560630624fc1a2b5f3", "is_reserved": 0}, {"is_disabled": 0, "fusion_lon": 0.0, "fusion_lat": 0.0, "lat": 38.919372833333334, "type": "electric_bike", "lon": -76.975028, "bike_id": "a93532bb5a364a2baf434b251e8104d4", "rental_uris": {"android": "https://dc.lft.to/lastmile_qr_scan", "ios": "https://dc.lft.to/lastmile_qr_scan"}, "name": "a93532bb5a364a2baf434b251e8104d4", "is_reserved": 0}, {"is_disabled": 0, "fusion_lon": 0.0, "fusion_lat": 0.0, "lat": 38.90237883333333, "type": "electric_scooter", "lon": -77.05995816666666, "bike_id": "4b351f3df117eadc13acd36cfa1c8464", "rental_uris": {"android": "https://dc.lft.to/lastmile_qr_scan", "ios": "https://dc.lft.to/lastmile_qr_scan"}, "name": "4b351f3df117eadc13acd36cfa1c8464", "is_reserved": 0}, {"is_disabled": 0, "fusion_lon": 0.0, "fusion_lat": 0.0, "lat": 38.810271, "type": "electric_bike", "lon": -77.08433116666667, "bike_id": "c3f47ecb532cb27ec5cb147249db861a", "rental_uris": {"android": "https://dc.lft.to/lastmile_qr_scan", "ios": "https://dc.lft.to/lastmile_qr_scan"}, "name": "c3f47ecb532cb27ec5cb147249db861a", "is_reserved": 0}, {"is_disabled": 0, "fusion_lon": 0.0, "fusion_lat": 0.0, "lat": 38.9049475, "type": "electric_scooter", "lon": -77.032305, "bike_id": "3726e47c5c1972c640605e177fa01af6", "rental_uris": {"android": "https://dc.lft.to/lastmile_qr_scan", "ios": "https://dc.lft.to/lastmile_qr_scan"}, "name": "3726e47c5c1972c640605e177fa01af6", "is_reserved": 0}, {"is_disabled": 0, "fusion_lon": 0.0, "fusion_lat": 0.0, "lat": 38.94300716666667, "type": "electric_scooter", "lon": -77.02765016666666, "bike_id": "a535d2439e8d103861218da07d4b5b08", "rental_uris": {"android": "https://dc.lft.to/lastmile_qr_scan", "ios": "https://dc.lft.to/lastmile_qr_scan"}, "name": "a535d2439e8d103861218da07d4b5b08", "is_reserved": 0}, {"is_disabled": 0, "fusion_lon": 0.0, "fusion_lat": 0.0, "lat": 38.908941, "type": "electric_scooter", "lon": -77.04576566666667, "bike_id": "6d51224aedce1d009755c83d15f2c754", "rental_uris": {"android": "https://dc.lft.to/lastmile_qr_scan", "ios": "https://dc.lft.to/lastmile_qr_scan"}, "name": "6d51224aedce1d009755c83d15f2c754", "is_reserved": 0}, {"is_disabled": 0, "fusion_lon": 0.0, "fusion_lat": 0.0, "lat": 38.90002533333333, "type": "electric_scooter", "lon": -77.03349816666666, "bike_id": "fd986691fd5a60f88c4b232993683c07", "rental_uris": {"android": "https://dc.lft.to/lastmile_qr_scan", "ios": "https://dc.lft.to/lastmile_qr_scan"}, "name": "fd986691fd5a60f88c4b232993683c07", "is_reserved": 0}, {"is_disabled": 0, "fusion_lon": 0.0, "fusion_lat": 0.0, "lat": 38.920879, "type": "electric_scooter", "lon": -77.0258785, "bike_id": "fe05a639922b3ce00d48a1acaf6c449f", "rental_uris": {"android": "https://dc.lft.to/lastmile_qr_scan", "ios": "https://dc.lft.to/lastmile_qr_scan"}, "name": "fe05a639922b3ce00d48a1acaf6c449f", "is_reserved": 0}, {"is_disabled": 0, "fusion_lon": 0.0, "fusion_lat": 0.0, "lat": 38.88450516666666, "type": "electric_scooter", "lon": -76.950969, "bike_id": "5d80f4e3d92eee9d40c91aede692a397", "rental_uris": {"android": "https://dc.lft.to/lastmile_qr_scan", "ios": "https://dc.lft.to/lastmile_qr_scan"}, "name": "5d80f4e3d92eee9d40c91aede692a397", "is_reserved": 0}, {"is_disabled": 0, "fusion_lon": 0.0, "fusion_lat": 0.0, "lat": 38.9235385, "type": "electric_scooter", "lon": -77.0390905, "bike_id": "9dcba7203ab749430416b3147ce322b1", "rental_uris": {"android": "https://dc.lft.to/lastmile_qr_scan", "ios": "https://dc.lft.to/lastmile_qr_scan"}, "name": "9dcba7203ab749430416b3147ce322b1", "is_reserved": 0}, {"is_disabled": 0, "fusion_lon": 0.0, "fusion_lat": 0.0, "lat": 38.900718, "type": "electric_scooter", "lon": -77.04765233333333, "bike_id": "a5b5fedda798c2bc514f895430eb333e", "rental_uris": {"android": "https://dc.lft.to/lastmile_qr_scan", "ios": "https://dc.lft.to/lastmile_qr_scan"}, "name": "a5b5fedda798c2bc514f895430eb333e", "is_reserved": 0}, {"is_disabled": 0, "fusion_lon": 0.0, "fusion_lat": 0.0, "lat": 38.934157, "type": "electric_scooter", "lon": -77.04263883333333, "bike_id": "3b3437d06cdf358e89c728ccf395b67d", "rental_uris": {"android": "https://dc.lft.to/lastmile_qr_scan", "ios": "https://dc.lft.to/lastmile_qr_scan"}, "name": "3b3437d06cdf358e89c728ccf395b67d", "is_reserved": 0}, {"is_disabled": 0, "fusion_lon": 0.0, "fusion_lat": 0.0, "lat": 38.89578683333333, "type": "electric_bike", "lon": -76.9761375, "bike_id": "4cc26d16d11b2d00e5fe3524b48ddccd", "rental_uris": {"android": "https://dc.lft.to/lastmile_qr_scan", "ios": "https://dc.lft.to/lastmile_qr_scan"}, "name": "4cc26d16d11b2d00e5fe3524b48ddccd", "is_reserved": 0}, {"is_disabled": 0, "fusion_lon": 0.0, "fusion_lat": 0.0, "lat": 38.89222783333334, "type": "electric_scooter", "lon": -77.02627266666667, "bike_id": "9fc1707b744da9a22c57e40be529814a", "rental_uris": {"android": "https://dc.lft.to/lastmile_qr_scan", "ios": "https://dc.lft.to/lastmile_qr_scan"}, "name": "9fc1707b744da9a22c57e40be529814a", "is_reserved": 0}, {"is_disabled": 0, "fusion_lon": 0.0, "fusion_lat": 0.0, "lat": 38.90886916666667, "type": "electric_scooter", "lon": -77.043003, "bike_id": "7328d94b470a7ea2fc15257f457b5c26", "rental_uris": {"android": "https://dc.lft.to/lastmile_qr_scan", "ios": "https://dc.lft.to/lastmile_qr_scan"}, "name": "7328d94b470a7ea2fc15257f457b5c26", "is_reserved": 0}, {"is_disabled": 0, "fusion_lon": 0.0, "fusion_lat": 0.0, "lat": 38.899421333333336, "type": "electric_scooter", "lon": -77.01975416666667, "bike_id": "6aeb5d5c24b148a59adf6ae6b1fc60ee", "rental_uris": {"android": "https://dc.lft.to/lastmile_qr_scan", "ios": "https://dc.lft.to/lastmile_qr_scan"}, "name": "6aeb5d5c24b148a59adf6ae6b1fc60ee", "is_reserved": 0}, {"is_disabled": 0, "fusion_lon": 0.0, "fusion_lat": 0.0, "lat": 38.9170645, "type": "electric_scooter", "lon": -77.04146066666667, "bike_id": "7011a2b483f6de50e377a88ce1fb2499", "rental_uris": {"android": "https://dc.lft.to/lastmile_qr_scan", "ios": "https://dc.lft.to/lastmile_qr_scan"}, "name": "7011a2b483f6de50e377a88ce1fb2499", "is_reserved": 0}, {"is_disabled": 0, "fusion_lon": 0.0, "fusion_lat": 0.0, "lat": 38.911177333333335, "type": "electric_scooter", "lon": -77.00379416666667, "bike_id": "cc740fa5b6617176d6c8963de73ebef7", "rental_uris": {"android": "https://dc.lft.to/lastmile_qr_scan", "ios": "https://dc.lft.to/lastmile_qr_scan"}, "name": "cc740fa5b6617176d6c8963de73ebef7", "is_reserved": 0}, {"is_disabled": 0, "fusion_lon": 0.0, "fusion_lat": 0.0, "lat": 38.9026475, "type": "electric_scooter", "lon": -77.02717583333333, "bike_id": "8437344050ef1e7582b78661e3ff48f9", "rental_uris": {"android": "https://dc.lft.to/lastmile_qr_scan", "ios": "https://dc.lft.to/lastmile_qr_scan"}, "name": "8437344050ef1e7582b78661e3ff48f9", "is_reserved": 0}, {"is_disabled": 0, "fusion_lon": 0.0, "fusion_lat": 0.0, "lat": 38.911709, "type": "electric_scooter", "lon": -77.02699033333333, "bike_id": "9e6b8d12ef96e99e59ff88aa890d769d", "rental_uris": {"android": "https://dc.lft.to/lastmile_qr_scan", "ios": "https://dc.lft.to/lastmile_qr_scan"}, "name": "9e6b8d12ef96e99e59ff88aa890d769d", "is_reserved": 0}, {"is_disabled": 0, "fusion_lon": 0.0, "fusion_lat": 0.0, "lat": 38.91427916666667, "type": "electric_scooter", "lon": -77.031829, "bike_id": "5af2ec099493109b118854159e5e15bd", "rental_uris": {"android": "https://dc.lft.to/lastmile_qr_scan", "ios": "https://dc.lft.to/lastmile_qr_scan"}, "name": "5af2ec099493109b118854159e5e15bd", "is_reserved": 0}, {"is_disabled": 0, "fusion_lon": 0.0, "fusion_lat": 0.0, "lat": 38.89358983333333, "type": "electric_scooter", "lon": -77.0217985, "bike_id": "0baf51aece1b99573063b41e7e86644e", "rental_uris": {"android": "https://dc.lft.to/lastmile_qr_scan", "ios": "https://dc.lft.to/lastmile_qr_scan"}, "name": "0baf51aece1b99573063b41e7e86644e", "is_reserved": 0}, {"is_disabled": 0, "fusion_lon": 0.0, "fusion_lat": 0.0, "lat": 38.91189216666667, "type": "electric_scooter", "lon": -77.03640083333333, "bike_id": "ef9a08f044e40e09d454d18849b6a458", "rental_uris": {"android": "https://dc.lft.to/lastmile_qr_scan", "ios": "https://dc.lft.to/lastmile_qr_scan"}, "name": "ef9a08f044e40e09d454d18849b6a458", "is_reserved": 0}, {"is_disabled": 0, "fusion_lon": 0.0, "fusion_lat": 0.0, "lat": 38.916482333333335, "type": "electric_scooter", "lon": -77.02241716666667, "bike_id": "2021a80655b0f072b0b1ff3eeacc5863", "rental_uris": {"android": "https://dc.lft.to/lastmile_qr_scan", "ios": "https://dc.lft.to/lastmile_qr_scan"}, "name": "2021a80655b0f072b0b1ff3eeacc5863", "is_reserved": 0}, {"is_disabled": 0, "fusion_lon": 0.0, "fusion_lat": 0.0, "lat": 38.92054066666667, "type": "electric_scooter", "lon": -77.04191466666667, "bike_id": "391e8ea9c8051d15ad9b0075a9fb37b9", "rental_uris": {"android": "https://dc.lft.to/lastmile_qr_scan", "ios": "https://dc.lft.to/lastmile_qr_scan"}, "name": "391e8ea9c8051d15ad9b0075a9fb37b9", "is_reserved": 0}, {"is_disabled": 0, "fusion_lon": 0.0, "fusion_lat": 0.0, "lat": 38.895043333333334, "type": "electric_scooter", "lon": -76.94877616666666, "bike_id": "060687f63ed704f0c5352c54f5cfb12b", "rental_uris": {"android": "https://dc.lft.to/lastmile_qr_scan", "ios": "https://dc.lft.to/lastmile_qr_scan"}, "name": "060687f63ed704f0c5352c54f5cfb12b", "is_reserved": 0}, {"is_disabled": 0, "fusion_lon": 0.0, "fusion_lat": 0.0, "lat": 38.9206855, "type": "electric_scooter", "lon": -77.04195316666667, "bike_id": "adde42c7ddc6cd8f43c9230f5f95a769", "rental_uris": {"android": "https://dc.lft.to/lastmile_qr_scan", "ios": "https://dc.lft.to/lastmile_qr_scan"}, "name": "adde42c7ddc6cd8f43c9230f5f95a769", "is_reserved": 0}, {"is_disabled": 0, "fusion_lon": 0.0, "fusion_lat": 0.0, "lat": 38.9094415, "type": "electric_scooter", "lon": -77.03197416666667, "bike_id": "069a3f3a9a7389afc49cedf8276451db", "rental_uris": {"android": "https://dc.lft.to/lastmile_qr_scan", "ios": "https://dc.lft.to/lastmile_qr_scan"}, "name": "069a3f3a9a7389afc49cedf8276451db", "is_reserved": 0}, {"is_disabled": 0, "fusion_lon": 0.0, "fusion_lat": 0.0, "lat": 38.922591, "type": "electric_scooter", "lon": -77.04129566666667, "bike_id": "0d43bc233f4c118ff30435f0b9c9c14a", "rental_uris": {"android": "https://dc.lft.to/lastmile_qr_scan", "ios": "https://dc.lft.to/lastmile_qr_scan"}, "name": "0d43bc233f4c118ff30435f0b9c9c14a", "is_reserved": 0}, {"is_disabled": 0, "fusion_lon": 0.0, "fusion_lat": 0.0, "lat": 38.915663, "type": "electric_scooter", "lon": -77.0116585, "bike_id": "8a968caecca5ecee6237a9c1cd4d6235", "rental_uris": {"android": "https://dc.lft.to/lastmile_qr_scan", "ios": "https://dc.lft.to/lastmile_qr_scan"}, "name": "8a968caecca5ecee6237a9c1cd4d6235", "is_reserved": 0}, {"is_disabled": 0, "fusion_lon": 0.0, "fusion_lat": 0.0, "lat": 38.919966, "type": "electric_scooter", "lon": -77.02517366666666, "bike_id": "bce34fb091c678c5e6ce83ec944c342b", "rental_uris": {"android": "https://dc.lft.to/lastmile_qr_scan", "ios": "https://dc.lft.to/lastmile_qr_scan"}, "name": "bce34fb091c678c5e6ce83ec944c342b", "is_reserved": 0}, {"is_disabled": 0, "fusion_lon": 0.0, "fusion_lat": 0.0, "lat": 38.922261666666664, "type": "electric_scooter", "lon": -77.0329585, "bike_id": "be0428275db52a99bd591a3754b7e7bf", "rental_uris": {"android": "https://dc.lft.to/lastmile_qr_scan", "ios": "https://dc.lft.to/lastmile_qr_scan"}, "name": "be0428275db52a99bd591a3754b7e7bf", "is_reserved": 0}, {"is_disabled": 0, "fusion_lon": 0.0, "fusion_lat": 0.0, "lat": 38.89569183333333, "type": "electric_bike", "lon": -77.12737116666666, "bike_id": "64bbe3cc405709bdb195367f2a510cbf", "rental_uris": {"android": "https://dc.lft.to/lastmile_qr_scan", "ios": "https://dc.lft.to/lastmile_qr_scan"}, "name": "64bbe3cc405709bdb195367f2a510cbf", "is_reserved": 0}, {"is_disabled": 0, "fusion_lon": 0.0, "fusion_lat": 0.0, "lat": 38.925750666666666, "type": "electric_scooter", "lon": -76.9949395, "bike_id": "6a52056548aa7317dcb589d2d39dcc28", "rental_uris": {"android": "https://dc.lft.to/lastmile_qr_scan", "ios": "https://dc.lft.to/lastmile_qr_scan"}, "name": "6a52056548aa7317dcb589d2d39dcc28", "is_reserved": 0}, {"is_disabled": 0, "fusion_lon": 0.0, "fusion_lat": 0.0, "lat": 38.896519, "type": "electric_scooter", "lon": -77.01177533333333, "bike_id": "d4d0e879ec1b0d981f74e77b88559272", "rental_uris": {"android": "https://dc.lft.to/lastmile_qr_scan", "ios": "https://dc.lft.to/lastmile_qr_scan"}, "name": "d4d0e879ec1b0d981f74e77b88559272", "is_reserved": 0}, {"is_disabled": 0, "fusion_lon": 0.0, "fusion_lat": 0.0, "lat": 38.90878883333333, "type": "electric_scooter", "lon": -77.03473666666666, "bike_id": "d7ff0cb996500fe0910657d9ab32ed29", "rental_uris": {"android": "https://dc.lft.to/lastmile_qr_scan", "ios": "https://dc.lft.to/lastmile_qr_scan"}, "name": "d7ff0cb996500fe0910657d9ab32ed29", "is_reserved": 0}, {"is_disabled": 0, "fusion_lon": 0.0, "fusion_lat": 0.0, "lat": 38.916275666666664, "type": "electric_scooter", "lon": -77.04866833333334, "bike_id": "44bb9f3000bf865a104585fe257102f3", "rental_uris": {"android": "https://dc.lft.to/lastmile_qr_scan", "ios": "https://dc.lft.to/lastmile_qr_scan"}, "name": "44bb9f3000bf865a104585fe257102f3", "is_reserved": 0}, {"is_disabled": 0, "fusion_lon": 0.0, "fusion_lat": 0.0, "lat": 38.937377, "type": "electric_bike", "lon": -77.03618066666667, "bike_id": "42b193cdaf94be1cd64f9967dc22756a", "rental_uris": {"android": "https://dc.lft.to/lastmile_qr_scan", "ios": "https://dc.lft.to/lastmile_qr_scan"}, "name": "42b193cdaf94be1cd64f9967dc22756a", "is_reserved": 0}, {"is_disabled": 0, "fusion_lon": 0.0, "fusion_lat": 0.0, "lat": 38.905596, "type": "electric_scooter", "lon": -77.036393, "bike_id": "3b8d4037a08dec3ebda21eefdd278a1a", "rental_uris": {"android": "https://dc.lft.to/lastmile_qr_scan", "ios": "https://dc.lft.to/lastmile_qr_scan"}, "name": "3b8d4037a08dec3ebda21eefdd278a1a", "is_reserved": 0}, {"is_disabled": 0, "fusion_lon": 0.0, "fusion_lat": 0.0, "lat": 38.9378615, "type": "electric_scooter", "lon": -77.0187855, "bike_id": "fe081f3294f26cbcfae05d7a5cae40c4", "rental_uris": {"android": "https://dc.lft.to/lastmile_qr_scan", "ios": "https://dc.lft.to/lastmile_qr_scan"}, "name": "fe081f3294f26cbcfae05d7a5cae40c4", "is_reserved": 0}, {"is_disabled": 0, "fusion_lon": 0.0, "fusion_lat": 0.0, "lat": 38.8874645, "type": "electric_scooter", "lon": -77.01539183333334, "bike_id": "974d8f14c074bb120e5728c588a0233c", "rental_uris": {"android": "https://dc.lft.to/lastmile_qr_scan", "ios": "https://dc.lft.to/lastmile_qr_scan"}, "name": "974d8f14c074bb120e5728c588a0233c", "is_reserved": 0}, {"is_disabled": 0, "fusion_lon": 0.0, "fusion_lat": 0.0, "lat": 38.89233983333333, "type": "electric_scooter", "lon": -77.0259025, "bike_id": "3ab819a6b28344955cd4ea74f4d5fa9c", "rental_uris": {"android": "https://dc.lft.to/lastmile_qr_scan", "ios": "https://dc.lft.to/lastmile_qr_scan"}, "name": "3ab819a6b28344955cd4ea74f4d5fa9c", "is_reserved": 0}, {"is_disabled": 0, "fusion_lon": 0.0, "fusion_lat": 0.0, "lat": 38.903770333333334, "type": "electric_scooter", "lon": -77.0088695, "bike_id": "4fa5ecac61b6af306cbc1f404418866b", "rental_uris": {"android": "https://dc.lft.to/lastmile_qr_scan", "ios": "https://dc.lft.to/lastmile_qr_scan"}, "name": "4fa5ecac61b6af306cbc1f404418866b", "is_reserved": 0}, {"is_disabled": 0, "fusion_lon": 0.0, "fusion_lat": 0.0, "lat": 38.921534, "type": "electric_scooter", "lon": -77.04339616666667, "bike_id": "efba80f988a55b66c4ac97d06864c414", "rental_uris": {"android": "https://dc.lft.to/lastmile_qr_scan", "ios": "https://dc.lft.to/lastmile_qr_scan"}, "name": "efba80f988a55b66c4ac97d06864c414", "is_reserved": 0}, {"is_disabled": 0, "fusion_lon": 0.0, "fusion_lat": 0.0, "lat": 38.897899333333335, "type": "electric_scooter", "lon": -77.03370316666667, "bike_id": "18a03ff2f58c49e1eba03dc9720d956b", "rental_uris": {"android": "https://dc.lft.to/lastmile_qr_scan", "ios": "https://dc.lft.to/lastmile_qr_scan"}, "name": "18a03ff2f58c49e1eba03dc9720d956b", "is_reserved": 0}, {"is_disabled": 0, "fusion_lon": 0.0, "fusion_lat": 0.0, "lat": 38.83379133333333, "type": "electric_scooter", "lon": -76.993022, "bike_id": "9f3f1eb4226dec8b34a23a568e3993b2", "rental_uris": {"android": "https://dc.lft.to/lastmile_qr_scan", "ios": "https://dc.lft.to/lastmile_qr_scan"}, "name": "9f3f1eb4226dec8b34a23a568e3993b2", "is_reserved": 0}, {"is_disabled": 0, "fusion_lon": 0.0, "fusion_lat": 0.0, "lat": 38.903304, "type": "electric_scooter", "lon": -77.04471516666666, "bike_id": "c8195d6aea413b1500467075252b9133", "rental_uris": {"android": "https://dc.lft.to/lastmile_qr_scan", "ios": "https://dc.lft.to/lastmile_qr_scan"}, "name": "c8195d6aea413b1500467075252b9133", "is_reserved": 0}, {"is_disabled": 0, "fusion_lon": 0.0, "fusion_lat": 0.0, "lat": 38.897402, "type": "electric_scooter", "lon": -77.00772833333333, "bike_id": "bb6fb29a3eefe17a2391385c5fc546fd", "rental_uris": {"android": "https://dc.lft.to/lastmile_qr_scan", "ios": "https://dc.lft.to/lastmile_qr_scan"}, "name": "bb6fb29a3eefe17a2391385c5fc546fd", "is_reserved": 0}, {"is_disabled": 0, "fusion_lon": 0.0, "fusion_lat": 0.0, "lat": 38.9233525, "type": "electric_scooter", "lon": -77.0567425, "bike_id": "baf5639aa36c332a2817ad13ae5cff84", "rental_uris": {"android": "https://dc.lft.to/lastmile_qr_scan", "ios": "https://dc.lft.to/lastmile_qr_scan"}, "name": "baf5639aa36c332a2817ad13ae5cff84", "is_reserved": 0}, {"is_disabled": 0, "fusion_lon": 0.0, "fusion_lat": 0.0, "lat": 38.919324333333336, "type": "electric_scooter", "lon": -77.01746, "bike_id": "1fd69a1fdc30683712fcdd18f9f6bc8b", "rental_uris": {"android": "https://dc.lft.to/lastmile_qr_scan", "ios": "https://dc.lft.to/lastmile_qr_scan"}, "name": "1fd69a1fdc30683712fcdd18f9f6bc8b", "is_reserved": 0}, {"is_disabled": 0, "fusion_lon": 0.0, "fusion_lat": 0.0, "lat": 38.901508666666665, "type": "electric_scooter", "lon": -77.03449416666666, "bike_id": "b845f8681de1d376580e5e1ef6c1268d", "rental_uris": {"android": "https://dc.lft.to/lastmile_qr_scan", "ios": "https://dc.lft.to/lastmile_qr_scan"}, "name": "b845f8681de1d376580e5e1ef6c1268d", "is_reserved": 0}, {"is_disabled": 0, "fusion_lon": 0.0, "fusion_lat": 0.0, "lat": 38.909688, "type": "electric_scooter", "lon": -77.03267783333334, "bike_id": "e3afa069bf46a92bdd42c40f83390576", "rental_uris": {"android": "https://dc.lft.to/lastmile_qr_scan", "ios": "https://dc.lft.to/lastmile_qr_scan"}, "name": "e3afa069bf46a92bdd42c40f83390576", "is_reserved": 0}, {"is_disabled": 0, "fusion_lon": 0.0, "fusion_lat": 0.0, "lat": 38.941838833333335, "type": "electric_scooter", "lon": -77.0238815, "bike_id": "6e133b3486b9766c042b9dece2d30a71", "rental_uris": {"android": "https://dc.lft.to/lastmile_qr_scan", "ios": "https://dc.lft.to/lastmile_qr_scan"}, "name": "6e133b3486b9766c042b9dece2d30a71", "is_reserved": 0}, {"is_disabled": 0, "fusion_lon": 0.0, "fusion_lat": 0.0, "lat": 38.897355166666664, "type": "electric_scooter", "lon": -77.04983566666667, "bike_id": "2f51a10ae626d1f8561d71eb700d2d38", "rental_uris": {"android": "https://dc.lft.to/lastmile_qr_scan", "ios": "https://dc.lft.to/lastmile_qr_scan"}, "name": "2f51a10ae626d1f8561d71eb700d2d38", "is_reserved": 0}, {"is_disabled": 0, "fusion_lon": 0.0, "fusion_lat": 0.0, "lat": 38.92879833333333, "type": "electric_scooter", "lon": -77.02712916666667, "bike_id": "5e1b0039b7bccd3d659fe764bc6aa2da", "rental_uris": {"android": "https://dc.lft.to/lastmile_qr_scan", "ios": "https://dc.lft.to/lastmile_qr_scan"}, "name": "5e1b0039b7bccd3d659fe764bc6aa2da", "is_reserved": 0}, {"is_disabled": 0, "fusion_lon": 0.0, "fusion_lat": 0.0, "lat": 38.916261, "type": "electric_scooter", "lon": -77.04027366666666, "bike_id": "671e1d1848f76a8e6144984330fa2ab4", "rental_uris": {"android": "https://dc.lft.to/lastmile_qr_scan", "ios": "https://dc.lft.to/lastmile_qr_scan"}, "name": "671e1d1848f76a8e6144984330fa2ab4", "is_reserved": 0}, {"is_disabled": 0, "fusion_lon": 0.0, "fusion_lat": 0.0, "lat": 38.89791666666667, "type": "electric_scooter", "lon": -77.03378866666667, "bike_id": "7c290e3cfadf3b209e89ab8b69b8c12f", "rental_uris": {"android": "https://dc.lft.to/lastmile_qr_scan", "ios": "https://dc.lft.to/lastmile_qr_scan"}, "name": "7c290e3cfadf3b209e89ab8b69b8c12f", "is_reserved": 0}, {"is_disabled": 0, "fusion_lon": 0.0, "fusion_lat": 0.0, "lat": 38.9027935, "type": "electric_scooter", "lon": -77.05334883333333, "bike_id": "09e236e3f116d1d0941353227ebfcd77", "rental_uris": {"android": "https://dc.lft.to/lastmile_qr_scan", "ios": "https://dc.lft.to/lastmile_qr_scan"}, "name": "09e236e3f116d1d0941353227ebfcd77", "is_reserved": 0}, {"is_disabled": 0, "fusion_lon": 0.0, "fusion_lat": 0.0, "lat": 38.90777033333333, "type": "electric_scooter", "lon": -77.03209383333333, "bike_id": "4a7cdadc2f1dbd4f55f749abfc8f6001", "rental_uris": {"android": "https://dc.lft.to/lastmile_qr_scan", "ios": "https://dc.lft.to/lastmile_qr_scan"}, "name": "4a7cdadc2f1dbd4f55f749abfc8f6001", "is_reserved": 0}, {"is_disabled": 0, "fusion_lon": 0.0, "fusion_lat": 0.0, "lat": 38.895397333333335, "type": "electric_scooter", "lon": -77.03294833333334, "bike_id": "69b76760c29e3af15e191f1b7b0062e9", "rental_uris": {"android": "https://dc.lft.to/lastmile_qr_scan", "ios": "https://dc.lft.to/lastmile_qr_scan"}, "name": "69b76760c29e3af15e191f1b7b0062e9", "is_reserved": 0}, {"is_disabled": 0, "fusion_lon": 0.0, "fusion_lat": 0.0, "lat": 38.91921466666667, "type": "electric_scooter", "lon": -77.04174633333334, "bike_id": "c94245ed7e0c19a5d22ce56ee95f572e", "rental_uris": {"android": "https://dc.lft.to/lastmile_qr_scan", "ios": "https://dc.lft.to/lastmile_qr_scan"}, "name": "c94245ed7e0c19a5d22ce56ee95f572e", "is_reserved": 0}, {"is_disabled": 0, "fusion_lon": 0.0, "fusion_lat": 0.0, "lat": 38.9112885, "type": "electric_scooter", "lon": -77.059345, "bike_id": "fdcc6bc09ecf06407d8170964a9fc464", "rental_uris": {"android": "https://dc.lft.to/lastmile_qr_scan", "ios": "https://dc.lft.to/lastmile_qr_scan"}, "name": "fdcc6bc09ecf06407d8170964a9fc464", "is_reserved": 0}, {"is_disabled": 0, "fusion_lon": 0.0, "fusion_lat": 0.0, "lat": 38.9252705, "type": "electric_scooter", "lon": -77.04421366666666, "bike_id": "38031038b22c1f6803d9bbeb2e9423c4", "rental_uris": {"android": "https://dc.lft.to/lastmile_qr_scan", "ios": "https://dc.lft.to/lastmile_qr_scan"}, "name": "38031038b22c1f6803d9bbeb2e9423c4", "is_reserved": 0}, {"is_disabled": 0, "fusion_lon": 0.0, "fusion_lat": 0.0, "lat": 38.8847765, "type": "electric_scooter", "lon": -76.92966783333334, "bike_id": "029cbebd71d68213db65d56dc34f8320", "rental_uris": {"android": "https://dc.lft.to/lastmile_qr_scan", "ios": "https://dc.lft.to/lastmile_qr_scan"}, "name": "029cbebd71d68213db65d56dc34f8320", "is_reserved": 0}, {"is_disabled": 0, "fusion_lon": 0.0, "fusion_lat": 0.0, "lat": 38.89724666666667, "type": "electric_scooter", "lon": -77.02163866666666, "bike_id": "dc57a3bbd0f5df846a73d8d071e4ebcb", "rental_uris": {"android": "https://dc.lft.to/lastmile_qr_scan", "ios": "https://dc.lft.to/lastmile_qr_scan"}, "name": "dc57a3bbd0f5df846a73d8d071e4ebcb", "is_reserved": 0}, {"is_disabled": 0, "fusion_lon": 0.0, "fusion_lat": 0.0, "lat": 38.92107566666667, "type": "electric_scooter", "lon": -77.01769633333333, "bike_id": "e1190d991529a4fce36cab81ebd6df6d", "rental_uris": {"android": "https://dc.lft.to/lastmile_qr_scan", "ios": "https://dc.lft.to/lastmile_qr_scan"}, "name": "e1190d991529a4fce36cab81ebd6df6d", "is_reserved": 0}, {"is_disabled": 0, "fusion_lon": 0.0, "fusion_lat": 0.0, "lat": 38.895279, "type": "electric_scooter", "lon": -77.04846516666667, "bike_id": "54934665909f5f4eceba968894548678", "rental_uris": {"android": "https://dc.lft.to/lastmile_qr_scan", "ios": "https://dc.lft.to/lastmile_qr_scan"}, "name": "54934665909f5f4eceba968894548678", "is_reserved": 0}, {"is_disabled": 0, "fusion_lon": 0.0, "fusion_lat": 0.0, "lat": 38.93961266666667, "type": "electric_bike", "lon": -77.36089533333333, "bike_id": "fdf2fbe19d22e3356e294aa430ef4c29", "rental_uris": {"android": "https://dc.lft.to/lastmile_qr_scan", "ios": "https://dc.lft.to/lastmile_qr_scan"}, "name": "fdf2fbe19d22e3356e294aa430ef4c29", "is_reserved": 0}, {"is_disabled": 0, "fusion_lon": 0.0, "fusion_lat": 0.0, "lat": 38.90577866666667, "type": "electric_scooter", "lon": -77.05589016666667, "bike_id": "b647070f75f1493fb96c79023e2bf755", "rental_uris": {"android": "https://dc.lft.to/lastmile_qr_scan", "ios": "https://dc.lft.to/lastmile_qr_scan"}, "name": "b647070f75f1493fb96c79023e2bf755", "is_reserved": 0}, {"is_disabled": 0, "fusion_lon": 0.0, "fusion_lat": 0.0, "lat": 38.929762, "type": "electric_scooter", "lon": -77.0279635, "bike_id": "c681589ccff5ecfb80097356189d03bc", "rental_uris": {"android": "https://dc.lft.to/lastmile_qr_scan", "ios": "https://dc.lft.to/lastmile_qr_scan"}, "name": "c681589ccff5ecfb80097356189d03bc", "is_reserved": 0}, {"is_disabled": 0, "fusion_lon": 0.0, "fusion_lat": 0.0, "lat": 38.924619166666666, "type": "electric_scooter", "lon": -77.07861883333334, "bike_id": "c0f0a38d5b3336c6f694d4198b54e66c", "rental_uris": {"android": "https://dc.lft.to/lastmile_qr_scan", "ios": "https://dc.lft.to/lastmile_qr_scan"}, "name": "c0f0a38d5b3336c6f694d4198b54e66c", "is_reserved": 0}, {"is_disabled": 0, "fusion_lon": 0.0, "fusion_lat": 0.0, "lat": 38.9407495, "type": "electric_scooter", "lon": -77.02905966666667, "bike_id": "5fd6d084e5cb23b4568d73bb8954e8bd", "rental_uris": {"android": "https://dc.lft.to/lastmile_qr_scan", "ios": "https://dc.lft.to/lastmile_qr_scan"}, "name": "5fd6d084e5cb23b4568d73bb8954e8bd", "is_reserved": 0}, {"is_disabled": 0, "fusion_lon": 0.0, "fusion_lat": 0.0, "lat": 38.8984875, "type": "electric_scooter", "lon": -77.03191033333333, "bike_id": "5ac7a163f1c2cb0e6e6f0bdfc02f79b5", "rental_uris": {"android": "https://dc.lft.to/lastmile_qr_scan", "ios": "https://dc.lft.to/lastmile_qr_scan"}, "name": "5ac7a163f1c2cb0e6e6f0bdfc02f79b5", "is_reserved": 0}, {"is_disabled": 0, "fusion_lon": 0.0, "fusion_lat": 0.0, "lat": 38.899350166666665, "type": "electric_scooter", "lon": -77.03914233333333, "bike_id": "fcb7cc590f7fae9b958dbadf95445376", "rental_uris": {"android": "https://dc.lft.to/lastmile_qr_scan", "ios": "https://dc.lft.to/lastmile_qr_scan"}, "name": "fcb7cc590f7fae9b958dbadf95445376", "is_reserved": 0}, {"is_disabled": 0, "fusion_lon": 0.0, "fusion_lat": 0.0, "lat": 38.91466, "type": "electric_scooter", "lon": -76.98449416666666, "bike_id": "ae75753c33179b21de430749a45485d6", "rental_uris": {"android": "https://dc.lft.to/lastmile_qr_scan", "ios": "https://dc.lft.to/lastmile_qr_scan"}, "name": "ae75753c33179b21de430749a45485d6", "is_reserved": 0}, {"is_disabled": 0, "fusion_lon": 0.0, "fusion_lat": 0.0, "lat": 38.925791833333335, "type": "electric_scooter", "lon": -77.08056633333334, "bike_id": "5d5a6a5516759e98031fe2ec4e5aede4", "rental_uris": {"android": "https://dc.lft.to/lastmile_qr_scan", "ios": "https://dc.lft.to/lastmile_qr_scan"}, "name": "5d5a6a5516759e98031fe2ec4e5aede4", "is_reserved": 0}, {"is_disabled": 0, "fusion_lon": 0.0, "fusion_lat": 0.0, "lat": 38.87755166666667, "type": "electric_bike", "lon": -76.979954, "bike_id": "de38444784bd529be53637935009a585", "rental_uris": {"android": "https://dc.lft.to/lastmile_qr_scan", "ios": "https://dc.lft.to/lastmile_qr_scan"}, "name": "de38444784bd529be53637935009a585", "is_reserved": 0}, {"is_disabled": 0, "fusion_lon": 0.0, "fusion_lat": 0.0, "lat": 38.913388, "type": "electric_scooter", "lon": -77.04059816666667, "bike_id": "4dda535fd83ab016d6dac043625c835f", "rental_uris": {"android": "https://dc.lft.to/lastmile_qr_scan", "ios": "https://dc.lft.to/lastmile_qr_scan"}, "name": "4dda535fd83ab016d6dac043625c835f", "is_reserved": 0}, {"is_disabled": 0, "fusion_lon": 0.0, "fusion_lat": 0.0, "lat": 38.945726, "type": "electric_bike", "lon": -76.96026233333333, "bike_id": "1aa353f9b9a7492ced0ff5244fab29ed", "rental_uris": {"android": "https://dc.lft.to/lastmile_qr_scan", "ios": "https://dc.lft.to/lastmile_qr_scan"}, "name": "1aa353f9b9a7492ced0ff5244fab29ed", "is_reserved": 0},