{"data": {"bikes": [{"lat": 38.93088916666667, "lon": -77.0249165, "is_disabled": 0, "fusion_lon": 0.0, "is_reserved": 0, "name": "eaaab2b90035b49435356c113222d469", "type": "electric_scooter", "bike_id": "eaaab2b90035b49435356c113222d469", "rental_uris": {"ios": "https://dc.lft.to/lastmile_qr_scan", "android": "https://dc.lft.to/lastmile_qr_scan"}, "fusion_lat": 0.0}, {"lat": 38.95634233333333, "lon": -77.033004, "is_disabled": 0, "fusion_lon": 0.0, "is_reserved": 0, "name": "0df053ad94a81d3fd7ea3c3066cf5551", "type": "electric_scooter", "bike_id": "0df053ad94a81d3fd7ea3c3066cf5551", "rental_uris": {"ios": "https://dc.lft.to/lastmile_qr_scan", "android": "https://dc.lft.to/lastmile_qr_scan"}, "fusion_lat": 0.0}, {"lat": 38.9201135, "lon": -77.0312415, "is_disabled": 0, "fusion_lon": 0.0, "is_reserved": 0, "name": "da5016d81d3fb2551d4b2acbe000494c", "type": "electric_scooter", "bike_id": "da5016d81d3fb2551d4b2acbe000494c", "rental_uris": {"ios": "https://dc.lft.to/lastmile_qr_scan", "android": "https://dc.lft.to/lastmile_qr_scan"}, "fusion_lat": 0.0}, {"lat": 38.907110833333334, "lon": -77.050466, "is_disabled": 0, "fusion_lon": 0.0, "is_reserved": 0, "name": "99a9e197746ee6da1fdf4054550637bc", "type": "electric_scooter", "bike_id": "99a9e197746ee6da1fdf4054550637bc", "rental_uris": {"ios": "https://dc.lft.to/lastmile_qr_scan", "android": "https://dc.lft.to/lastmile_qr_scan"}, "fusion_lat": 0.0}, {"lat": 38.95691933333333, "lon": -77.02232033333334, "is_disabled": 0, "fusion_lon": 0.0, "is_reserved": 0, "name": "32c5a894be825eb4f67c651dc777d97b", "type": "electric_bike", "bike_id": "32c5a894be825eb4f67c651dc777d97b", "rental_uris": {"ios": "https://dc.lft.to/lastmile_qr_scan", "android": "https://dc.lft.to/lastmile_qr_scan"}, "fusion_lat": 0.0}, {"lat": 38.92174883333333, "lon": -77.04024116666666, "is_disabled": 0, "fusion_lon": 0.0, "is_reserved": 0, "name": "4786c78c5e2939dd33606eec8b503327", "type": "electric_scooter", "bike_id": "4786c78c5e2939dd33606eec8b503327", "rental_uris": {"ios": "https://dc.lft.to/lastmile_qr_scan", "android": "https://dc.lft.to/lastmile_qr_scan"}, "fusion_lat": 0.0}, {"lat": 38.93077066666667, "lon": -77.03410216666667, "is_disabled": 0, "fusion_lon": 0.0, "is_reserved": 0, "name": "17689874e7354c90b82947864d0ec84a", "type": "electric_scooter", "bike_id": "17689874e7354c90b82947864d0ec84a", "rental_uris": {"ios": "https://dc.lft.to/lastmile_qr_scan", "android": "https://dc.lft.to/lastmile_qr_scan"}, "fusion_lat": 0.0}, {"lat": 38.907016, "lon": -77.03451766666667, "is_disabled": 0, "fusion_lon": 0.0, "is_reserved": 0, "name": "c21cfe727ccdf1f1cbf4ce20dd360db4", "type": "electric_scooter", "bike_id": "c21cfe727ccdf1f1cbf4ce20dd360db4", "rental_uris": {"ios": "https://dc.lft.to/lastmile_qr_scan", "android": "https://dc.lft.to/lastmile_qr_scan"}, "fusion_lat": 0.0}, {"lat": 38.93949766666667, "lon": -77.02183416666666, "is_disabled": 0, "fusion_lon": 0.0, "is_reserved": 0, "name": "131162cdea0a61396c8cc71584754938", "type": "electric_scooter", "bike_id": "131162cdea0a61396c8cc71584754938", "rental_uris": {"ios": "https://dc.lft.to/lastmile_qr_scan", "android": "https://dc.lft.to/lastmile_qr_scan"}, "fusion_lat": 0.0}, {"lat": 38.928378, "lon": -77.00604233333334, "is_disabled": 0, "fusion_lon": 0.0, "is_reserved": 0, "name": "3ef857982e239436a34c97773eaf7126", "type": "electric_scooter", "bike_id": "3ef857982e239436a34c97773eaf7126", "rental_uris": {"ios": "https://dc.lft.to/lastmile_qr_scan", "android": "https://dc.lft.to/lastmile_qr_scan"}, "fusion_lat": 0.0}, {"lat": 38.90246166666667, "lon": -77.06274116666667, "is_disabled": 0, "fusion_lon": 0.0, "is_reserved": 0, "name": "9e1cab7796af66fce822bebb004234b3", "type": "electric_scooter", "bike_id": "9e1cab7796af66fce822bebb004234b3", "rental_uris": {"ios": "https://dc.lft.to/lastmile_qr_scan", "android": "https://dc.lft.to/lastmile_qr_scan"}, "fusion_lat": 0.0}, {"lat": 38.92797016666667, "lon": -77.02733, "is_disabled": 0, "fusion_lon": 0.0, "is_reserved": 0, "name": "0e8bddefdf2e2ae0c24d18313a2c8bee", "type": "electric_scooter", "bike_id": "0e8bddefdf2e2ae0c24d18313a2c8bee", "rental_uris": {"ios": "https://dc.lft.to/lastmile_qr_scan", "android": "https://dc.lft.to/lastmile_qr_scan"}, "fusion_lat": 0.0}, {"lat": 38.80667283333333, "lon": -77.069128, "is_disabled": 0, "fusion_lon": 0.0, "is_reserved": 0, "name": "eb14b6f567c31ae71cf60a7cd6e88acb", "type": "electric_bike", "bike_id": "eb14b6f567c31ae71cf60a7cd6e88acb", "rental_uris": {"ios": "https://dc.lft.to/lastmile_qr_scan", "android": "https://dc.lft.to/lastmile_qr_scan"}, "fusion_lat": 0.0}, {"lat": 38.917222, "lon": -77.03662, "is_disabled": 0, "fusion_lon": 0.0, "is_reserved": 0, "name": "616952fa6885ec22ddf8e7f3e4a2d471", "type": "electric_scooter", "bike_id": "616952fa6885ec22ddf8e7f3e4a2d471", "rental_uris": {"ios": "https://dc.lft.to/lastmile_qr_scan", "android": "https://dc.lft.to/lastmile_qr_scan"}, "fusion_lat": 0.0}, {"lat": 38.92027816666667, "lon": -77.01040616666667, "is_disabled": 0, "fusion_lon": 0.0, "is_reserved": 0, "name": "f4cdd29390356bd43a3124d12ca38e58", "type": "electric_scooter", "bike_id": "f4cdd29390356bd43a3124d12ca38e58", "rental_uris": {"ios": "https://dc.lft.to/lastmile_qr_scan", "android": "https://dc.lft.to/lastmile_qr_scan"}, "fusion_lat": 0.0}, {"lat": 38.9172495, "lon": -77.03661133333334, "is_disabled": 0, "fusion_lon": 0.0, "is_reserved": 0, "name": "a1cdba743efce354cc20ce976d8e8cca", "type": "electric_scooter", "bike_id": "a1cdba743efce354cc20ce976d8e8cca", "rental_uris": {"ios": "https://dc.lft.to/lastmile_qr_scan", "android": "https://dc.lft.to/lastmile_qr_scan"}, "fusion_lat": 0.0}, {"lat": 38.939755166666664, "lon": -77.025283, "is_disabled": 0, "fusion_lon": 0.0, "is_reserved": 0, "name": "7f1282bfccb04f0f98a6d7334d8eeaf4", "type": "electric_bike", "bike_id": "7f1282bfccb04f0f98a6d7334d8eeaf4", "rental_uris": {"ios": "https://dc.lft.to/lastmile_qr_scan", "android": "https://dc.lft.to/lastmile_qr_scan"}, "fusion_lat": 0.0}, {"lat": 38.909727, "lon": -77.02183666666667, "is_disabled": 0, "fusion_lon": 0.0, "is_reserved": 0, "name": "cec0e6770a1492a948b13869134ff728", "type": "electric_scooter", "bike_id": "cec0e6770a1492a948b13869134ff728", "rental_uris": {"ios": "https://dc.lft.to/lastmile_qr_scan", "android": "https://dc.lft.to/lastmile_qr_scan"}, "fusion_lat": 0.0}, {"lat": 38.92649316666667, "lon": -77.04144066666667, "is_disabled": 0, "fusion_lon": 0.0, "is_reserved": 0, "name": "e1135aef15ab46768d2a79e1c538c2d4", "type": "electric_scooter", "bike_id": "e1135aef15ab46768d2a79e1c538c2d4", "rental_uris": {"ios": "https://dc.lft.to/lastmile_qr_scan", "android": "https://dc.lft.to/lastmile_qr_scan"}, "fusion_lat": 0.0}, {"lat": 38.905100166666664, "lon": -77.065477, "is_disabled": 0, "fusion_lon": 0.0, "is_reserved": 0, "name": "2d7dc2bd96542f1ef2c6d40aec4ab17b", "type": "electric_scooter", "bike_id": "2d7dc2bd96542f1ef2c6d40aec4ab17b", "rental_uris": {"ios": "https://dc.lft.to/lastmile_qr_scan", "android": "https://dc.lft.to/lastmile_qr_scan"}, "fusion_lat": 0.0}, {"lat": 38.94106566666667, "lon": -77.00045916666667, "is_disabled": 0, "fusion_lon": 0.0, "is_reserved": 0, "name": "83fae6a9f03661f6dff1d80f82b1314e", "type": "electric_scooter", "bike_id": "83fae6a9f03661f6dff1d80f82b1314e", "rental_uris": {"ios": "https://dc.lft.to/lastmile_qr_scan", "android": "https://dc.lft.to/lastmile_qr_scan"}, "fusion_lat": 0.0}, {"lat": 38.94577183333333, "lon": -76.96703916666667, "is_disabled": 0, "fusion_lon": 0.0, "is_reserved": 0, "name": "1178d90c7d37e64d251b1eaad985b337", "type": "electric_bike", "bike_id": "1178d90c7d37e64d251b1eaad985b337", "rental_uris": {"ios": "https://dc.lft.to/lastmile_qr_scan", "android": "https://dc.lft.to/lastmile_qr_scan"}, "fusion_lat": 0.0}, {"lat": 38.907701333333335, "lon": -76.99711583333334, "is_disabled": 0, "fusion_lon": 0.0, "is_reserved": 0, "name": "e1aac3fb17cd23c5d783ae80ae68958b", "type": "electric_scooter", "bike_id": "e1aac3fb17cd23c5d783ae80ae68958b", "rental_uris": {"ios": "https://dc.lft.to/lastmile_qr_scan", "android": "https://dc.lft.to/lastmile_qr_scan"}, "fusion_lat": 0.0}, {"lat": 38.9188715, "lon": -77.02444416666667, "is_disabled": 0, "fusion_lon": 0.0, "is_reserved": 0, "name": "9bf7019ec54392feedc567d582c1061b", "type": "electric_scooter", "bike_id": "9bf7019ec54392feedc567d582c1061b", "rental_uris": {"ios": "https://dc.lft.to/lastmile_qr_scan", "android": "https://dc.lft.to/lastmile_qr_scan"}, "fusion_lat": 0.0}, {"lat": 38.8800695, "lon": -76.99739316666667, "is_disabled": 0, "fusion_lon": 0.0, "is_reserved": 0, "name": "906d9701b5500e2deec5b28c707fbe66", "type": "electric_scooter", "bike_id": "906d9701b5500e2deec5b28c707fbe66", "rental_uris": {"ios": "https://dc.lft.to/lastmile_qr_scan", "android": "https://dc.lft.to/lastmile_qr_scan"}, "fusion_lat": 0.0}, {"lat": 38.906177166666666, "lon": -77.02968466666667, "is_disabled": 0, "fusion_lon": 0.0, "is_reserved": 0, "name": "0ce04d5d3a969c2fcce09a808b7c56ad", "type": "electric_scooter", "bike_id": "0ce04d5d3a969c2fcce09a808b7c56ad", "rental_uris": {"ios": "https://dc.lft.to/lastmile_qr_scan", "android": "https://dc.lft.to/lastmile_qr_scan"}, "fusion_lat": 0.0}, {"lat": 38.90550866666667, "lon": -77.04669833333334, "is_disabled": 0, "fusion_lon": 0.0, "is_reserved": 0, "name": "6407cea75894d1f9184e58bcef35efd2", "type": "electric_scooter", "bike_id": "6407cea75894d1f9184e58bcef35efd2", "rental_uris": {"ios": "https://dc.lft.to/lastmile_qr_scan", "android": "https://dc.lft.to/lastmile_qr_scan"}, "fusion_lat": 0.0}, {"lat": 38.919950166666666, "lon": -77.04761683333334, "is_disabled": 0, "fusion_lon": 0.0, "is_reserved": 0, "name": "c84cf2a8193475dacb961ba4ed289c0a", "type": "electric_scooter", "bike_id": "c84cf2a8193475dacb961ba4ed289c0a", "rental_uris": {"ios": "https://dc.lft.to/lastmile_qr_scan", "android": "https://dc.lft.to/lastmile_qr_scan"}, "fusion_lat": 0.0}, {"lat": 38.883241166666664, "lon": -76.9253975, "is_disabled": 0, "fusion_lon": 0.0, "is_reserved": 0, "name": "f39a870a9ef580adefb567a4e236e80d", "type": "electric_scooter", "bike_id": "f39a870a9ef580adefb567a4e236e80d", "rental_uris": {"ios": "https://dc.lft.to/lastmile_qr_scan", "android": "https://dc.lft.to/lastmile_qr_scan"}, "fusion_lat": 0.0}, {"lat": 38.90734283333333, "lon": -77.0280015, "is_disabled": 0, "fusion_lon": 0.0, "is_reserved": 0, "name": "699189681e7732a2ac791ffe9daaf294", "type": "electric_scooter", "bike_id": "699189681e7732a2ac791ffe9daaf294", "rental_uris": {"ios": "https://dc.lft.to/lastmile_qr_scan", "android": "https://dc.lft.to/lastmile_qr_scan"}, "fusion_lat": 0.0}, {"lat": 38.917035166666665, "lon": -77.02439416666667, "is_disabled": 0, "fusion_lon": 0.0, "is_reserved": 0, "name": "81a801a2379039d7f2c8a11b2793dcb2", "type": "electric_scooter", "bike_id": "81a801a2379039d7f2c8a11b2793dcb2", "rental_uris": {"ios": "https://dc.lft.to/lastmile_qr_scan", "android": "https://dc.lft.to/lastmile_qr_scan"}, "fusion_lat": 0.0}, {"lat": 38.90107416666667, "lon": -77.04985983333333, "is_disabled": 0, "fusion_lon": 0.0, "is_reserved": 0, "name": "30e309e32fc1e60255db3232be83a285", "type": "electric_scooter", "bike_id": "30e309e32fc1e60255db3232be83a285", "rental_uris": {"ios": "https://dc.lft.to/lastmile_qr_scan", "android": "https://dc.lft.to/lastmile_qr_scan"}, "fusion_lat": 0.0}, {"lat": 38.944942166666664, "lon": -77.00678466666666, "is_disabled": 0, "fusion_lon": 0.0, "is_reserved": 0, "name": "a722f2bb2241c942cca01163b4972949", "type": "electric_bike", "bike_id": "a722f2bb2241c942cca01163b4972949", "rental_uris": {"ios": "https://dc.lft.to/lastmile_qr_scan", "android": "https://dc.lft.to/lastmile_qr_scan"}, "fusion_lat": 0.0}, {"lat": 38.86380883333333, "lon": -76.991248, "is_disabled": 0, "fusion_lon": 0.0, "is_reserved": 0, "name": "7373b1ad77601b6490c8b8ea06e3f167", "type": "electric_scooter", "bike_id": "7373b1ad77601b6490c8b8ea06e3f167", "rental_uris": {"ios": "https://dc.lft.to/lastmile_qr_scan", "android": "https://dc.lft.to/lastmile_qr_scan"}, "fusion_lat": 0.0}, {"lat": 38.8833815, "lon": -77.03164666666666, "is_disabled": 0, "fusion_lon": 0.0, "is_reserved": 0, "name": "006c68dd49c5b52db2b4f9d8af79032e", "type": "electric_scooter", "bike_id": "006c68dd49c5b52db2b4f9d8af79032e", "rental_uris": {"ios": "https://dc.lft.to/lastmile_qr_scan", "android": "https://dc.lft.to/lastmile_qr_scan"}, "fusion_lat": 0.0}, {"lat": 38.911966166666666, "lon": -77.03861016666667, "is_disabled": 0, "fusion_lon": 0.0, "is_reserved": 0, "name": "5b17a53383144b11725835a6cdbcf6db", "type": "electric_scooter", "bike_id": "5b17a53383144b11725835a6cdbcf6db", "rental_uris": {"ios": "https://dc.lft.to/lastmile_qr_scan", "android": "https://dc.lft.to/lastmile_qr_scan"}, "fusion_lat": 0.0}, {"lat": 38.907804666666664, "lon": -77.04505716666667, "is_disabled": 0, "fusion_lon": 0.0, "is_reserved": 0, "name": "986ea5bbcff166d6ee4b7728b395154c", "type": "electric_scooter", "bike_id": "986ea5bbcff166d6ee4b7728b395154c", "rental_uris": {"ios": "https://dc.lft.to/lastmile_qr_scan", "android": "https://dc.lft.to/lastmile_qr_scan"}, "fusion_lat": 0.0}, {"lat": 38.9095735, "lon": -77.0241735, "is_disabled": 0, "fusion_lon": 0.0, "is_reserved": 0, "name": "c2eb61f7ed131e250a0ae8719b006ebd", "type": "electric_scooter", "bike_id": "c2eb61f7ed131e250a0ae8719b006ebd", "rental_uris": {"ios": "https://dc.lft.to/lastmile_qr_scan", "android": "https://dc.lft.to/lastmile_qr_scan"}, "fusion_lat": 0.0}, {"lat": 38.923066666666664, "lon": -77.03971916666667, "is_disabled": 0, "fusion_lon": 0.0, "is_reserved": 0, "name": "70cf242c5f88568a06f9dd053e77c7f1", "type": "electric_scooter", "bike_id": "70cf242c5f88568a06f9dd053e77c7f1", "rental_uris": {"ios": "https://dc.lft.to/lastmile_qr_scan", "android": "https://dc.lft.to/lastmile_qr_scan"}, "fusion_lat": 0.0}, {"lat": 38.90713433333333, "lon": -77.07606233333334, "is_disabled": 0, "fusion_lon": 0.0, "is_reserved": 0, "name": "3c7da5d39b72825d0b60b920fd7fd036", "type": "electric_scooter", "bike_id": "3c7da5d39b72825d0b60b920fd7fd036", "rental_uris": {"ios": "https://dc.lft.to/lastmile_qr_scan", "android": "https://dc.lft.to/lastmile_qr_scan"}, "fusion_lat": 0.0}, {"lat": 38.918002333333334, "lon": -77.02487366666666, "is_disabled": 0, "fusion_lon": 0.0, "is_reserved": 0, "name": "4ffc4a36bcbf5c1275b2680232862111", "type": "electric_scooter", "bike_id": "4ffc4a36bcbf5c1275b2680232862111", "rental_uris": {"ios": "https://dc.lft.to/lastmile_qr_scan", "android": "https://dc.lft.to/lastmile_qr_scan"}, "fusion_lat": 0.0}, {"lat": 38.88933683333333, "lon": -76.993718, "is_disabled": 0, "fusion_lon": 0.0, "is_reserved": 0, "name": "20878767066826964265a2635cdade26", "type": "electric_scooter", "bike_id": "20878767066826964265a2635cdade26", "rental_uris": {"ios": "https://dc.lft.to/lastmile_qr_scan", "android": "https://dc.lft.to/lastmile_qr_scan"}, "fusion_lat": 0.0}, {"lat": 38.92370066666667, "lon": -77.02636266666667, "is_disabled": 0, "fusion_lon": 0.0, "is_reserved": 0, "name": "57f92a4ebf671eb35f70cbf8047786a1", "type": "electric_scooter", "bike_id": "57f92a4ebf671eb35f70cbf8047786a1", "rental_uris": {"ios": "https://dc.lft.to/lastmile_qr_scan", "android": "https://dc.lft.to/lastmile_qr_scan"}, "fusion_lat": 0.0}, {"lat": 38.84757, "lon": -76.99500466666667, "is_disabled": 0, "fusion_lon": 0.0, "is_reserved": 0, "name": "976ef5209a95f66b6daae0d94d8ee80b", "type": "electric_scooter", "bike_id": "976ef5209a95f66b6daae0d94d8ee80b", "rental_uris": {"ios": "https://dc.lft.to/lastmile_qr_scan", "android": "https://dc.lft.to/lastmile_qr_scan"}, "fusion_lat": 0.0}, {"lat": 38.887547, "lon": -76.9961005, "is_disabled": 0, "fusion_lon": 0.0, "is_reserved": 0, "name": "a77a1452243a9f1a7bc3415df1dfd87e", "type": "electric_scooter", "bike_id": "a77a1452243a9f1a7bc3415df1dfd87e", "rental_uris": {"ios": "https://dc.lft.to/lastmile_qr_scan", "android": "https://dc.lft.to/lastmile_qr_scan"}, "fusion_lat": 0.0}, {"lat": 38.9064395, "lon": -77.01420616666667, "is_disabled": 0, "fusion_lon": 0.0, "is_reserved": 0, "name": "8da1329a52a652b8d58c32e923f8631b", "type": "electric_scooter", "bike_id": "8da1329a52a652b8d58c32e923f8631b", "rental_uris": {"ios": "https://dc.lft.to/lastmile_qr_scan", "android": "https://dc.lft.to/lastmile_qr_scan"}, "fusion_lat": 0.0}, {"lat": 38.9238715, "lon": -77.03655616666667, "is_disabled": 0, "fusion_lon": 0.0, "is_reserved": 0, "name": "87b42f989eee1024716977a6b0b4bdf7", "type": "electric_scooter", "bike_id": "87b42f989eee1024716977a6b0b4bdf7", "rental_uris": {"ios": "https://dc.lft.to/lastmile_qr_scan", "android": "https://dc.lft.to/lastmile_qr_scan"}, "fusion_lat": 0.0}, {"lat": 38.89728016666667, "lon": -77.04621933333334, "is_disabled": 0, "fusion_lon": 0.0, "is_reserved": 0, "name": "f4486130ef3618effe692729169b88da", "type": "electric_scooter", "bike_id": "f4486130ef3618effe692729169b88da", "rental_uris": {"ios": "https://dc.lft.to/lastmile_qr_scan", "android": "https://dc.lft.to/lastmile_qr_scan"}, "fusion_lat": 0.0}, {"lat": 38.896914333333335, "lon": -76.96306583333333, "is_disabled": 0, "fusion_lon": 0.0, "is_reserved": 0, "name": "14829e4e557e51d36ce2258c9e521399", "type": "electric_bike", "bike_id": "14829e4e557e51d36ce2258c9e521399", "rental_uris": {"ios": "https://dc.lft.to/lastmile_qr_scan", "android": "https://dc.lft.to/lastmile_qr_scan"}, "fusion_lat": 0.0}, {"lat": 38.9134535, "lon": -77.01743233333333, "is_disabled": 0, "fusion_lon": 0.0, "is_reserved": 0, "name": "16f6f69bf255248eeb78bc242c95fc0e", "type": "electric_scooter", "bike_id": "16f6f69bf255248eeb78bc242c95fc0e", "rental_uris": {"ios": "https://dc.lft.to/lastmile_qr_scan", "android": "https://dc.lft.to/lastmile_qr_scan"}, "fusion_lat": 0.0}, {"lat": 38.92443933333333, "lon": -76.98984983333334, "is_disabled": 0, "fusion_lon": 0.0, "is_reserved": 0, "name": "2a80afc6d911fe8050ef63711351e619", "type": "electric_scooter", "bike_id": "2a80afc6d911fe8050ef63711351e619", "rental_uris": {"ios": "https://dc.lft.to/lastmile_qr_scan", "android": "https://dc.lft.to/lastmile_qr_scan"}, "fusion_lat": 0.0}, {"lat": 38.911271666666664, "lon": -77.041898, "is_disabled": 0, "fusion_lon": 0.0, "is_reserved": 0, "name": "254762e455179c7c317e7907f9ac980f", "type": "electric_scooter", "bike_id": "254762e455179c7c317e7907f9ac980f", "rental_uris": {"ios": "https://dc.lft.to/lastmile_qr_scan", "android": "https://dc.lft.to/lastmile_qr_scan"}, "fusion_lat": 0.0}, {"lat": 38.93078716666667, "lon": -77.0279775, "is_disabled": 0, "fusion_lon": 0.0, "is_reserved": 0, "name": "e98682ffff715803d819fc5db24bc8d2", "type": "electric_scooter", "bike_id": "e98682ffff715803d819fc5db24bc8d2", "rental_uris": {"ios": "https://dc.lft.to/lastmile_qr_scan", "android": "https://dc.lft.to/lastmile_qr_scan"}, "fusion_lat": 0.0}, {"lat": 38.9418245, "lon": -77.02616816666666, "is_disabled": 0, "fusion_lon": 0.0, "is_reserved": 0, "name": "7cb389ed430713bd0d0b69683d8cf213", "type": "electric_scooter", "bike_id": "7cb389ed430713bd0d0b69683d8cf213", "rental_uris": {"ios": "https://dc.lft.to/lastmile_qr_scan", "android": "https://dc.lft.to/lastmile_qr_scan"}, "fusion_lat": 0.0}, {"lat": 38.8985215, "lon": -77.01364483333333, "is_disabled": 0, "fusion_lon": 0.0, "is_reserved": 0, "name": "dc128ad11c0d149b31560cdb4a2b0a6c", "type": "electric_scooter", "bike_id": "dc128ad11c0d149b31560cdb4a2b0a6c", "rental_uris": {"ios": "https://dc.lft.to/lastmile_qr_scan", "android": "https://dc.lft.to/lastmile_qr_scan"}, "fusion_lat": 0.0}, {"lat": 38.9048825, "lon": -76.98879283333333, "is_disabled": 0, "fusion_lon": 0.0, "is_reserved": 0, "name": "d588f467341ffefae90414dcd882f143", "type": "electric_scooter", "bike_id": "d588f467341ffefae90414dcd882f143", "rental_uris": {"ios": "https://dc.lft.to/lastmile_qr_scan", "android": "https://dc.lft.to/lastmile_qr_scan"}, "fusion_lat": 0.0}, {"lat": 38.90226583333333, "lon": -77.03778333333334, "is_disabled": 0, "fusion_lon": 0.0, "is_reserved": 0, "name": "2b97da3b193336f6c9fbd7c4f80addfa", "type": "electric_scooter", "bike_id": "2b97da3b193336f6c9fbd7c4f80addfa", "rental_uris": {"ios": "https://dc.lft.to/lastmile_qr_scan", "android": "https://dc.lft.to/lastmile_qr_scan"}, "fusion_lat": 0.0}, {"lat": 38.92728233333333, "lon": -77.02247866666667, "is_disabled": 0, "fusion_lon": 0.0, "is_reserved": 0, "name": "97096b04f8986529de79e4789fa68512", "type": "electric_scooter", "bike_id": "97096b04f8986529de79e4789fa68512", "rental_uris": {"ios": "https://dc.lft.to/lastmile_qr_scan", "android": "https://dc.lft.to/lastmile_qr_scan"}, "fusion_lat": 0.0}, {"lat": 38.916369, "lon": -77.03211583333334, "is_disabled": 0, "fusion_lon": 0.0, "is_reserved": 0, "name": "9ac434220678fea37371ca55bc714fc6", "type": "electric_scooter", "bike_id": "9ac434220678fea37371ca55bc714fc6", "rental_uris": {"ios": "https://dc.lft.to/lastmile_qr_scan", "android": "https://dc.lft.to/lastmile_qr_scan"}, "fusion_lat": 0.0}, {"lat": 38.940768166666665, "lon": -77.0264115, "is_disabled": 0, "fusion_lon": 0.0, "is_reserved": 0, "name": "e80d49a6d2f1d7790d976aea10b985b0", "type": "electric_scooter", "bike_id": "e80d49a6d2f1d7790d976aea10b985b0", "rental_uris": {"ios": "https://dc.lft.to/lastmile_qr_scan", "android": "https://dc.lft.to/lastmile_qr_scan"}, "fusion_lat": 0.0}, {"lat": 38.916991333333335, "lon": -77.03036333333333, "is_disabled": 0, "fusion_lon": 0.0, "is_reserved": 0, "name": "fc9fda5e4861581dce2ab2bd966a1d3b", "type": "electric_scooter", "bike_id": "fc9fda5e4861581dce2ab2bd966a1d3b", "rental_uris": {"ios": "https://dc.lft.to/lastmile_qr_scan", "android": "https://dc.lft.to/lastmile_qr_scan"}, "fusion_lat": 0.0}, {"lat": 38.91542833333333, "lon": -77.03803116666667, "is_disabled": 0, "fusion_lon": 0.0, "is_reserved": 0, "name": "b8aeb6645624f50ed2ae6730e649ea59", "type": "electric_scooter", "bike_id": "b8aeb6645624f50ed2ae6730e649ea59", "rental_uris": {"ios": "https://dc.lft.to/lastmile_qr_scan", "android": "https://dc.lft.to/lastmile_qr_scan"}, "fusion_lat": 0.0}, {"lat": 38.9247115, "lon": -77.02210816666667, "is_disabled": 0, "fusion_lon": 0.0, "is_reserved": 0, "name": "ee5df3f348aed952acd4d12f54bf7e2a", "type": "electric_scooter", "bike_id": "ee5df3f348aed952acd4d12f54bf7e2a", "rental_uris": {"ios": "https://dc.lft.to/lastmile_qr_scan", "android": "https://dc.lft.to/lastmile_qr_scan"}, "fusion_lat": 0.0}, {"lat": 38.91800716666667, "lon": -77.031974, "is_disabled": 0, "fusion_lon": 0.0, "is_reserved": 0, "name": "944e14dfe089b0f6393ebd8e234f956c", "type": "electric_scooter", "bike_id": "944e14dfe089b0f6393ebd8e234f956c", "rental_uris": {"ios": "https://dc.lft.to/lastmile_qr_scan", "android": "https://dc.lft.to/lastmile_qr_scan"}, "fusion_lat": 0.0}, {"lat": 38.9167815, "lon": -77.0228505, "is_disabled": 0, "fusion_lon": 0.0, "is_reserved": 0, "name": "b2892443594ccf92ab4610aae307e7fc", "type": "electric_scooter", "bike_id": "b2892443594ccf92ab4610aae307e7fc", "rental_uris": {"ios": "https://dc.lft.to/lastmile_qr_scan", "android": "https://dc.lft.to/lastmile_qr_scan"}, "fusion_lat": 0.0}, {"lat": 38.90389916666667, "lon": -77.05149883333333, "is_disabled": 0, "fusion_lon": 0.0, "is_reserved": 0, "name": "07fd8bef99993f98f13073c1795e62ff", "type": "electric_scooter", "bike_id": "07fd8bef99993f98f13073c1795e62ff", "rental_uris": {"ios": "https://dc.lft.to/lastmile_qr_scan", "android": "https://dc.lft.to/lastmile_qr_scan"}, "fusion_lat": 0.0}, {"lat": 38.89973916666667, "lon": -77.0164005, "is_disabled": 0, "fusion_lon": 0.0, "is_reserved": 0, "name": "c3bd19d100b5bd2769cf317a03a24c9f", "type": "electric_scooter", "bike_id": "c3bd19d100b5bd2769cf317a03a24c9f", "rental_uris": {"ios": "https://dc.lft.to/lastmile_qr_scan", "android": "https://dc.lft.to/lastmile_qr_scan"}, "fusion_lat": 0.0}, {"lat": 38.90999683333333, "lon": -77.031842, "is_disabled": 0, "fusion_lon": 0.0, "is_reserved": 0, "name": "9c4b22ce53723214212a00fe01e7e9eb", "type": "electric_scooter", "bike_id": "9c4b22ce53723214212a00fe01e7e9eb", "rental_uris": {"ios": "https://dc.lft.to/lastmile_qr_scan", "android": "https://dc.lft.to/lastmile_qr_scan"}, "fusion_lat": 0.0}, {"lat": 38.930930333333336, "lon": -77.02473716666667, "is_disabled": 0, "fusion_lon": 0.0, "is_reserved": 0, "name": "72a0eb12207f1654e5203ff27750c090", "type": "electric_scooter", "bike_id": "72a0eb12207f1654e5203ff27750c090", "rental_uris": {"ios": "https://dc.lft.to/lastmile_qr_scan", "android": "https://dc.lft.to/lastmile_qr_scan"}, "fusion_lat": 0.0}, {"lat": 38.87653733333333, "lon": -77.0158495, "is_disabled": 0, "fusion_lon": 0.0, "is_reserved": 0, "name": "d8907c611adeada716184d976fe59231", "type": "electric_scooter", "bike_id": "d8907c611adeada716184d976fe59231", "rental_uris": {"ios": "https://dc.lft.to/lastmile_qr_scan", "android": "https://dc.lft.to/lastmile_qr_scan"}, "fusion_lat": 0.0}, {"lat": 38.90557333333334, "lon": -77.001905, "is_disabled": 0, "fusion_lon": 0.0, "is_reserved": 0, "name": "251b4b0a68ce813197416e0c7adfc28c", "type": "electric_scooter", "bike_id": "251b4b0a68ce813197416e0c7adfc28c", "rental_uris": {"ios": "https://dc.lft.to/lastmile_qr_scan", "android": "https://dc.lft.to/lastmile_qr_scan"}, "fusion_lat": 0.0}, {"lat": 38.907576666666664, "lon": -77.03580383333333, "is_disabled": 0, "fusion_lon": 0.0, "is_reserved": 0, "name": "da2d5a4c37ad5b4bd3efd46bac126be1", "type": "electric_scooter", "bike_id": "da2d5a4c37ad5b4bd3efd46bac126be1", "rental_uris": {"ios": "https://dc.lft.to/lastmile_qr_scan", "android": "https://dc.lft.to/lastmile_qr_scan"}, "fusion_lat": 0.0}, {"lat": 38.89062633333333, "lon": -76.94453966666667, "is_disabled": 0, "fusion_lon": 0.0, "is_reserved": 0, "name": "2082af34574e6bc9d864652ea02d3d9e", "type": "electric_scooter", "bike_id": "2082af34574e6bc9d864652ea02d3d9e", "rental_uris": {"ios": "https://dc.lft.to/lastmile_qr_scan", "android": "https://dc.lft.to/lastmile_qr_scan"}, "fusion_lat": 0.0}, {"lat": 38.887220666666664, "lon": -76.98357116666666, "is_disabled": 0, "fusion_lon": 0.0, "is_reserved": 0, "name": "6a524c7ec24f438abf526e49c3e20762", "type": "electric_scooter", "bike_id": "6a524c7ec24f438abf526e49c3e20762", "rental_uris": {"ios": "https://dc.lft.to/lastmile_qr_scan", "android": "https://dc.lft.to/lastmile_qr_scan"}, "fusion_lat": 0.0}, {"lat": 38.9036035, "lon": -77.0506555, "is_disabled": 0, "fusion_lon": 0.0, "is_reserved": 0, "name": "a8e477d1c85ee3af7277b4f68b2f63f8", "type": "electric_scooter", "bike_id": "a8e477d1c85ee3af7277b4f68b2f63f8", "rental_uris": {"ios": "https://dc.lft.to/lastmile_qr_scan", "android": "https://dc.lft.to/lastmile_qr_scan"}, "fusion_lat": 0.0}, {"lat": 38.9127415, "lon": -77.03656883333333, "is_disabled": 0, "fusion_lon": 0.0, "is_reserved": 0, "name": "39b3325988ec0fa186581c785e76e767", "type": "electric_scooter", "bike_id": "39b3325988ec0fa186581c785e76e767", "rental_uris": {"ios": "https://dc.lft.to/lastmile_qr_scan", "android": "https://dc.lft.to/lastmile_qr_scan"}, "fusion_lat": 0.0}, {"lat": 38.90394033333333, "lon": -77.02204033333334, "is_disabled": 0, "fusion_lon": 0.0, "is_reserved": 0, "name": "c1161313b2a33898587bf3231ca7c2aa", "type": "electric_scooter", "bike_id": "c1161313b2a33898587bf3231ca7c2aa", "rental_uris": {"ios": "https://dc.lft.to/lastmile_qr_scan", "android": "https://dc.lft.to/lastmile_qr_scan"}, "fusion_lat": 0.0}, {"lat": 38.927038333333336, "lon": -77.02080166666667, "is_disabled": 0, "fusion_lon": 0.0, "is_reserved": 0, "name": "ab65820ff31d75e83a6ebb08b1508df1", "type": "electric_scooter", "bike_id": "ab65820ff31d75e83a6ebb08b1508df1", "rental_uris": {"ios": "https://dc.lft.to/lastmile_qr_scan", "android": "https://dc.lft.to/lastmile_qr_scan"}, "fusion_lat": 0.0}, {"lat": 38.91323666666667, "lon": -77.03713616666667, "is_disabled": 0, "fusion_lon": 0.0, "is_reserved": 0, "name": "8f131ba9fb3f9838746fd451ec4a9ec5", "type": "electric_scooter", "bike_id": "8f131ba9fb3f9838746fd451ec4a9ec5", "rental_uris": {"ios": "https://dc.lft.to/lastmile_qr_scan", "android": "https://dc.lft.to/lastmile_qr_scan"}, "fusion_lat": 0.0}, {"lat": 38.91704933333333, "lon": -77.03505616666666, "is_disabled": 0, "fusion_lon": 0.0, "is_reserved": 0, "name": "7ec3b5497992f13e29379f50c00626ef", "type": "electric_scooter", "bike_id": "7ec3b5497992f13e29379f50c00626ef", "rental_uris": {"ios": "https://dc.lft.to/lastmile_qr_scan", "android": "https://dc.lft.to/lastmile_qr_scan"}, "fusion_lat": 0.0}, {"lat": 38.91033916666667, "lon": -77.04255266666667, "is_disabled": 0, "fusion_lon": 0.0, "is_reserved": 0, "name": "4ed0dc98aeac1e8738fb87caa93a943b", "type": "electric_scooter", "bike_id": "4ed0dc98aeac1e8738fb87caa93a943b", "rental_uris": {"ios": "https://dc.lft.to/lastmile_qr_scan", "android": "https://dc.lft.to/lastmile_qr_scan"}, "fusion_lat": 0.0}, {"lat": 38.91109816666667, "lon": -77.01277316666666, "is_disabled": 0, "fusion_lon": 0.0, "is_reserved": 0, "name": "aa7becabff2a5501c11e3a7ba1e9e928", "type": "electric_scooter", "bike_id": "aa7becabff2a5501c11e3a7ba1e9e928", "rental_uris": {"ios": "https://dc.lft.to/lastmile_qr_scan", "android": "https://dc.lft.to/lastmile_qr_scan"}, "fusion_lat": 0.0}, {"lat": 38.91685833333333, "lon": -77.02485383333334, "is_disabled": 0, "fusion_lon": 0.0, "is_reserved": 0, "name": "208fc2388177dac78f0547e212916842", "type": "electric_scooter", "bike_id": "208fc2388177dac78f0547e212916842", "rental_uris": {"ios": "https://dc.lft.to/lastmile_qr_scan", "android": "https://dc.lft.to/lastmile_qr_scan"}, "fusion_lat": 0.0}, {"lat": 38.92609383333333, "lon": -77.02159516666667, "is_disabled": 0, "fusion_lon": 0.0, "is_reserved": 0, "name": "118cab5a5275029faa577e8073ebce82", "type": "electric_scooter", "bike_id": "118cab5a5275029faa577e8073ebce82", "rental_uris": {"ios": "https://dc.lft.to/lastmile_qr_scan", "android": "https://dc.lft.to/lastmile_qr_scan"}, "fusion_lat": 0.0}, {"lat": 38.87421966666667, "lon": -77.00044866666667, "is_disabled": 0, "fusion_lon": 0.0, "is_reserved": 0, "name": "9f5fcb6ab222da798b296c0ca507d592", "type": "electric_scooter", "bike_id": "9f5fcb6ab222da798b296c0ca507d592", "rental_uris": {"ios": "https://dc.lft.to/lastmile_qr_scan", "android": "https://dc.lft.to/lastmile_qr_scan"}, "fusion_lat": 0.0}, {"lat": 38.91348216666667, "lon": -77.04355816666667, "is_disabled": 0, "fusion_lon": 0.0, "is_reserved": 0, "name": "bbda67a5ee41e5620e5003e1ca7f38dc", "type": "electric_scooter", "bike_id": "bbda67a5ee41e5620e5003e1ca7f38dc", "rental_uris": {"ios": "https://dc.lft.to/lastmile_qr_scan", "android": "https://dc.lft.to/lastmile_qr_scan"}, "fusion_lat": 0.0}, {"lat": 38.95200633333333, "lon": -77.0273765, "is_disabled": 0, "fusion_lon": 0.0, "is_reserved": 0, "name": "3f25535ef0986da60ce1813fadebb0f8", "type": "electric_scooter", "bike_id": "3f25535ef0986da60ce1813fadebb0f8", "rental_uris": {"ios": "https://dc.lft.to/lastmile_qr_scan", "android": "https://dc.lft.to/lastmile_qr_scan"}, "fusion_lat": 0.0}, {"lat": 38.925701, "lon": -77.05270866666666, "is_disabled": 0, "fusion_lon": 0.0, "is_reserved": 0, "name": "36c5a0f8a2d09c5abf377f29c049691a", "type": "electric_scooter", "bike_id": "36c5a0f8a2d09c5abf377f29c049691a", "rental_uris": {"ios": "https://dc.lft.to/lastmile_qr_scan", "android": "https://dc.lft.to/lastmile_qr_scan"}, "fusion_lat": 0.0}, {"lat": 38.916897, "lon": -77.03769933333334, "is_disabled": 0, "fusion_lon": 0.0, "is_reserved": 0, "name": "5179fbe812ba1ba309775ff0d2b97885", "type": "electric_scooter", "bike_id": "5179fbe812ba1ba309775ff0d2b97885", "rental_uris": {"ios": "https://dc.lft.to/lastmile_qr_scan", "android": "https://dc.lft.to/lastmile_qr_scan"}, "fusion_lat": 0.0}, {"lat": 38.89569816666667, "lon": -77.02170633333333, "is_disabled": 0, "fusion_lon": 0.0, "is_reserved": 0, "name": "c670ad07de9c74351c6ec810a0b2a04c", "type": "electric_scooter", "bike_id": "c670ad07de9c74351c6ec810a0b2a04c", "rental_uris": {"ios": "https://dc.lft.to/lastmile_qr_scan", "android": "https://dc.lft.to/lastmile_qr_scan"}, "fusion_lat": 0.0}, {"lat": 38.905813, "lon": -77.00280533333333, "is_disabled": 0, "fusion_lon": 0.0, "is_reserved": 0, "name": "107e6fab700561d2f34c1e995d756b9c", "type": "electric_scooter", "bike_id": "107e6fab700561d2f34c1e995d756b9c", "rental_uris": {"ios": "https://dc.lft.to/lastmile_qr_scan", "android": "https://dc.lft.to/lastmile_qr_scan"}, "fusion_lat": 0.0}, {"lat": 38.933272333333335, "lon": -77.02917266666667, "is_disabled": 0, "fusion_lon": 0.0, "is_reserved": 0, "name": "b52623114e5d65f07c0d228ed6206522", "type": "electric_scooter", "bike_id": "b52623114e5d65f07c0d228ed6206522", "rental_uris": {"ios": "https://dc.lft.to/lastmile_qr_scan", "android": "https://dc.lft.to/lastmile_qr_scan"}, "fusion_lat": 0.0}, {"lat": 38.909076166666665, "lon": -76.99962833333333, "is_disabled": 0, "fusion_lon": 0.0, "is_reserved": 0, "name": "1999ac284955023cec908186f5fe8aa3", "type": "electric_scooter", "bike_id": "1999ac284955023cec908186f5fe8aa3", "rental_uris": {"ios": "https://dc.lft.to/lastmile_qr_scan", "android": "https://dc.lft.to/lastmile_qr_scan"}, "fusion_lat": 0.0}, {"lat": 38.919030166666666, "lon": -77.03191766666667, "is_disabled": 0, "fusion_lon": 0.0, "is_reserved": 0, "name": "0c44b7435135f7808c1b8a81fb838417", "type": "electric_scooter", "bike_id": "0c44b7435135f7808c1b8a81fb838417", "rental_uris": {"ios": "https://dc.lft.to/lastmile_qr_scan", "android": "https://dc.lft.to/lastmile_qr_scan"}, "fusion_lat": 0.0}, {"lat": 38.89603816666666, "lon": -77.01334333333334, "is_disabled": 0, "fusion_lon": 0.0, "is_reserved": 0, "name": "8e2ff66bbdb2dee75d6f7de4687bf5b1", "type": "electric_scooter", "bike_id": "8e2ff66bbdb2dee75d6f7de4687bf5b1", "rental_uris": {"ios": "https://dc.lft.to/lastmile_qr_scan", "android": "https://dc.lft.to/lastmile_qr_scan"}, "fusion_lat": 0.0}, {"lat": 38.893452833333335, "lon": -76.95230083333334, "is_disabled": 0, "fusion_lon": 0.0, "is_reserved": 0, "name": "3515732264d4481ed9980c5edef15715", "type": "electric_scooter", "bike_id": "3515732264d4481ed9980c5edef15715", "rental_uris": {"ios": "https://dc.lft.to/lastmile_qr_scan", "android": "https://dc.lft.to/lastmile_qr_scan"}, "fusion_lat": 0.0}, {"lat": 38.9735115, "lon": -77.02785666666666, "is_disabled": 0, "fusion_lon": 0.0, "is_reserved": 0, "name": "6e6c4b30dd1e33715dfcbb8b0c5d4c14", "type": "electric_scooter", "bike_id": "6e6c4b30dd1e33715dfcbb8b0c5d4c14", "rental_uris": {"ios": "https://dc.lft.to/lastmile_qr_scan", "android": "https://dc.lft.to/lastmile_qr_scan"}, "fusion_lat": 0.0}, {"lat": 38.9001845, "lon": -76.99445366666667, "is_disabled": 0, "fusion_lon": 0.0, "is_reserved": 0, "name": "f93fdf642fbe9bf2497066e9805b4b5d", "type": "electric_scooter", "bike_id": "f93fdf642fbe9bf2497066e9805b4b5d", "rental_uris": {"ios": "https://dc.lft.to/lastmile_qr_scan", "android": "https://dc.lft.to/lastmile_qr_scan"}, "fusion_lat": 0.0}, {"lat": 38.907107333333336, "lon": -77.03299316666667, "is_disabled": 0, "fusion_lon": 0.0, "is_reserved": 0, "name": "7283af69de8da3ed701fb55dd625ba3c", "type": "electric_scooter", "bike_id": "7283af69de8da3ed701fb55dd625ba3c", "rental_uris": {"ios": "https://dc.lft.to/lastmile_qr_scan", "android": "https://dc.lft.to/lastmile_qr_scan"}, "fusion_lat": 0.0}, {"lat": 38.90792733333333, "lon": -77.0296535, "is_disabled": 0, "fusion_lon": 0.0, "is_reserved": 0, "name": "0de3023ef9e448198ddd73e144b86114", "type": "electric_scooter", "bike_id": "0de3023ef9e448198ddd73e144b86114", "rental_uris": {"ios": "https://dc.lft.to/lastmile_qr_scan", "android": "https://dc.lft.to/lastmile_qr_scan"}, "fusion_lat": 0.0}, {"lat": 38.90553716666667, "lon": -77.025027, "is_disabled": 0, "fusion_lon": 0.0, "is_reserved": 0, "name": "c20b9a1fb03c741704697d2dd067bd29", "type": "electric_scooter", "bike_id": "c20b9a1fb03c741704697d2dd067bd29", "rental_uris": {"ios": "https://dc.lft.to/lastmile_qr_scan", "android": "https://dc.lft.to/lastmile_qr_scan"}, "fusion_lat": 0.0}, {"lat": 38.9255005, "lon": -77.00071166666666, "is_disabled": 0, "fusion_lon": 0.0, "is_reserved": 0, "name": "6ca020bdd82c64c0f775b067a275c3a0", "type": "electric_scooter", "bike_id": "6ca020bdd82c64c0f775b067a275c3a0", "rental_uris": {"ios": "https://dc.lft.to/lastmile_qr_scan", "android": "https://dc.lft.to/lastmile_qr_scan"}, "fusion_lat": 0.0}, {"lat": 38.926583666666666, "lon": -77.03717016666667, "is_disabled": 0, "fusion_lon": 0.0, "is_reserved": 0, "name": "a8b6eefdaff9adbd0807f86eac3e30d4", "type": "electric_scooter", "bike_id": "a8b6eefdaff9adbd0807f86eac3e30d4", "rental_uris": {"ios": "https://dc.lft.to/lastmile_qr_scan", "android": "https://dc.lft.to/lastmile_qr_scan"}, "fusion_lat": 0.0}, {"lat": 38.9179925, "lon": -77.0344375, "is_disabled": 0, "fusion_lon": 0.0, "is_reserved": 0, "name": "2f90afe262371d9041604b12102ebf06", "type": "electric_scooter", "bike_id": "2f90afe262371d9041604b12102ebf06", "rental_uris": {"ios": "https://dc.lft.to/lastmile_qr_scan", "android": "https://dc.lft.to/lastmile_qr_scan"}, "fusion_lat": 0.0}, {"lat": 38.9210445, "lon": -77.03265866666666, "is_disabled": 0, "fusion_lon": 0.0, "is_reserved": 0, "name": "69cfabdddd330b3e5eeb3429b1ee63d0", "type": "electric_scooter", "bike_id": "69cfabdddd330b3e5eeb3429b1ee63d0", "rental_uris": {"ios": "https://dc.lft.to/lastmile_qr_scan", "android": "https://dc.lft.to/lastmile_qr_scan"}, "fusion_lat": 0.0}, {"lat": 38.91799783333333, "lon": -77.02486316666666, "is_disabled": 0, "fusion_lon": 0.0, "is_reserved": 0, "name": "ab5c69defb4865102a76e903f3a1917b", "type": "electric_scooter", "bike_id": "ab5c69defb4865102a76e903f3a1917b", "rental_uris": {"ios": "https://dc.lft.to/lastmile_qr_scan", "android": "https://dc.lft.to/lastmile_qr_scan"}, "fusion_lat": 0.0}, {"lat": 38.893503, "lon": -77.00342466666666, "is_disabled": 0, "fusion_lon": 0.0, "is_reserved": 0, "name": "d54d70e034c9f08a1f2e5528173d08b4", "type": "electric_scooter", "bike_id": "d54d70e034c9f08a1f2e5528173d08b4", "rental_uris": {"ios": "https://dc.lft.to/lastmile_qr_scan", "android": "https://dc.lft.to/lastmile_qr_scan"}, "fusion_lat": 0.0}, {"lat": 38.90728716666667, "lon": -77.05715533333333, "is_disabled": 0, "fusion_lon": 0.0, "is_reserved": 0, "name": "33064692dd798c45e03c315c6aa3fe23", "type": "electric_scooter", "bike_id": "33064692dd798c45e03c315c6aa3fe23", "rental_uris": {"ios": "https://dc.lft.to/lastmile_qr_scan", "android": "https://dc.lft.to/lastmile_qr_scan"}, "fusion_lat": 0.0}, {"lat": 38.96594283333334, "lon": -77.01595866666666, "is_disabled": 0, "fusion_lon": 0.0, "is_reserved": 0, "name": "395c496cb05fc8894d6bb86c0c36d757", "type": "electric_scooter", "bike_id": "395c496cb05fc8894d6bb86c0c36d757", "rental_uris": {"ios": "https://dc.lft.to/lastmile_qr_scan", "android": "https://dc.lft.to/lastmile_qr_scan"}, "fusion_lat": 0.0}, {"lat": 38.905475, "lon": -77.04858733333333, "is_disabled": 0, "fusion_lon": 0.0, "is_reserved": 0, "name": "a7bd16954058916c4a08fd172877f300", "type": "electric_scooter", "bike_id": "a7bd16954058916c4a08fd172877f300", "rental_uris": {"ios": "https://dc.lft.to/lastmile_qr_scan", "android": "https://dc.lft.to/lastmile_qr_scan"}, "fusion_lat": 0.0}, {"lat": 38.9237775, "lon": -77.03105916666667, "is_disabled": 0, "fusion_lon": 0.0, "is_reserved": 0, "name": "dd8d20e601f3310a9c6ac40b1285d525", "type": "electric_scooter", "bike_id": "dd8d20e601f3310a9c6ac40b1285d525", "rental_uris": {"ios": "https://dc.lft.to/lastmile_qr_scan", "android": "https://dc.lft.to/lastmile_qr_scan"}, "fusion_lat": 0.0}, {"lat": 38.90235766666667, "lon": -77.02593566666667, "is_disabled": 0, "fusion_lon": 0.0, "is_reserved": 0, "name": "58e919851c4937386adff779fba9daca", "type": "electric_scooter", "bike_id": "58e919851c4937386adff779fba9daca", "rental_uris": {"ios": "https://dc.lft.to/lastmile_qr_scan", "android": "https://dc.lft.to/lastmile_qr_scan"}, "fusion_lat": 0.0}, {"lat": 38.93638216666667, "lon": -77.03674633333334, "is_disabled": 0, "fusion_lon": 0.0, "is_reserved": 0, "name": "06d915d7d397876174b6b02865ff6b59", "type": "electric_bike", "bike_id": "06d915d7d397876174b6b02865ff6b59", "rental_uris": {"ios": "https://dc.lft.to/lastmile_qr_scan", "android": "https://dc.lft.to/lastmile_qr_scan"}, "fusion_lat": 0.0}, {"lat": 38.9138925, "lon": -76.98421516666667, "is_disabled": 0, "fusion_lon": 0.0, "is_reserved": 0, "name": "c8676e79038af8eb9f0d908a528975e8", "type": "electric_scooter", "bike_id": "c8676e79038af8eb9f0d908a528975e8", "rental_uris": {"ios": "https://dc.lft.to/lastmile_qr_scan", "android": "https://dc.lft.to/lastmile_qr_scan"}, "fusion_lat": 0.0}, {"lat": 38.973491333333335, "lon": -77.02787633333334, "is_disabled": 0, "fusion_lon": 0.0, "is_reserved": 0, "name": "3ccd12610b50ce67c4d843831b54a243", "type": "electric_scooter", "bike_id": "3ccd12610b50ce67c4d843831b54a243", "rental_uris": {"ios": "https://dc.lft.to/lastmile_qr_scan", "android": "https://dc.lft.to/lastmile_qr_scan"}, "fusion_lat": 0.0}, {"lat": 38.924335166666665, "lon": -76.997155, "is_disabled": 0, "fusion_lon": 0.0, "is_reserved": 0, "name": "510d07d143995aeeef446a1aaba03824", "type": "electric_scooter", "bike_id": "510d07d143995aeeef446a1aaba03824", "rental_uris": {"ios": "https://dc.lft.to/lastmile_qr_scan", "android": "https://dc.lft.to/lastmile_qr_scan"}, "fusion_lat": 0.0}, {"lat": 38.909700666666666, "lon": -77.051943, "is_disabled": 0, "fusion_lon": 0.0, "is_reserved": 0, "name": "1433eb9bcac12e9b7f93e32c6158383d", "type": "electric_scooter", "bike_id": "1433eb9bcac12e9b7f93e32c6158383d", "rental_uris": {"ios": "https://dc.lft.to/lastmile_qr_scan", "android": "https://dc.lft.to/lastmile_qr_scan"}, "fusion_lat": 0.0}, {"lat": 38.8873945, "lon": -77.02123866666666, "is_disabled": 0, "fusion_lon": 0.0, "is_reserved": 0, "name": "7be1ddc6f028b9412d5d6cbd54d979d8", "type": "electric_scooter", "bike_id": "7be1ddc6f028b9412d5d6cbd54d979d8", "rental_uris": {"ios": "https://dc.lft.to/lastmile_qr_scan", "android": "https://dc.lft.to/lastmile_qr_scan"}, "fusion_lat": 0.0}, {"lat": 38.86387916666666, "lon": -77.201071, "is_disabled": 0, "fusion_lon": 0.0, "is_reserved": 0, "name": "f0b807a969143126d3516c8a4c14e423", "type": "electric_bike", "bike_id": "f0b807a969143126d3516c8a4c14e423", "rental_uris": {"ios": "https://dc.lft.to/lastmile_qr_scan", "android": "https://dc.lft.to/lastmile_qr_scan"}, "fusion_lat": 0.0}, {"lat": 38.8419185, "lon": -77.06756566666667, "is_disabled": 0, "fusion_lon": 0.0, "is_reserved": 0, "name": "701744d6270f421aba67b5ae30eb5f06", "type": "electric_bike", "bike_id": "701744d6270f421aba67b5ae30eb5f06", "rental_uris": {"ios": "https://dc.lft.to/lastmile_qr_scan", "android": "https://dc.lft.to/lastmile_qr_scan"}, "fusion_lat": 0.0}, {"lat": 38.87343533333333, "lon": -77.00081583333333, "is_disabled": 0, "fusion_lon": 0.0, "is_reserved": 0, "name": "fc906c4d660ab136fd761c8212551a87", "type": "electric_scooter", "bike_id": "fc906c4d660ab136fd761c8212551a87", "rental_uris": {"ios": "https://dc.lft.to/lastmile_qr_scan", "android": "https://dc.lft.to/lastmile_qr_scan"}, "fusion_lat": 0.0}, {"lat": 38.894997000000004, "lon": -77.00364883333333, "is_disabled": 0, "fusion_lon": 0.0, "is_reserved": 0, "name": "2444de6d4fc63988da3eb91368a1149e", "type": "electric_scooter", "bike_id": "2444de6d4fc63988da3eb91368a1149e", "rental_uris": {"ios": "https://dc.lft.to/lastmile_qr_scan", "android": "https://dc.lft.to/lastmile_qr_scan"}, "fusion_lat": 0.0}, {"lat": 38.9359785, "lon": -77.02123983333334, "is_disabled": 0, "fusion_lon": 0.0, "is_reserved": 0, "name": "6eb5fce1d57f9903432b7dc118895b22", "type": "electric_bike", "bike_id": "6eb5fce1d57f9903432b7dc118895b22", "rental_uris": {"ios": "https://dc.lft.to/lastmile_qr_scan", "android": "https://dc.lft.to/lastmile_qr_scan"}, "fusion_lat": 0.0}, {"lat": 38.897793666666665, "lon": -77.02718066666667, "is_disabled": 0, "fusion_lon": 0.0, "is_reserved": 0, "name": "4a53ae4162a19df411df96b23bd0312c", "type": "electric_scooter", "bike_id": "4a53ae4162a19df411df96b23bd0312c", "rental_uris": {"ios": "https://dc.lft.to/lastmile_qr_scan", "android": "https://dc.lft.to/lastmile_qr_scan"}, "fusion_lat": 0.0}, {"lat": 38.917147, "lon": -77.02407233333334, "is_disabled": 0, "fusion_lon": 0.0, "is_reserved": 0, "name": "672cd0f5e4f1fd6cda1d73c918fb9a8b", "type": "electric_scooter", "bike_id": "672cd0f5e4f1fd6cda1d73c918fb9a8b", "rental_uris": {"ios": "https://dc.lft.to/lastmile_qr_scan", "android": "https://dc.lft.to/lastmile_qr_scan"}, "fusion_lat": 0.0}, {"lat": 38.900719333333335, "lon": -77.04903933333334, "is_disabled": 0, "fusion_lon": 0.0, "is_reserved": 0, "name": "e4b1b7ab512a337c1980b0fddfffe593", "type": "electric_scooter", "bike_id": "e4b1b7ab512a337c1980b0fddfffe593", "rental_uris": {"ios": "https://dc.lft.to/lastmile_qr_scan", "android": "https://dc.lft.to/lastmile_qr_scan"}, "fusion_lat": 0.0}, {"lat": 38.89238266666667, "lon": -77.04877266666666, "is_disabled": 0, "fusion_lon": 0.0, "is_reserved": 0, "name": "086eb6718174e2cb95c25db980cf7f8b", "type": "electric_scooter", "bike_id": "086eb6718174e2cb95c25db980cf7f8b", "rental_uris": {"ios": "https://dc.lft.to/lastmile_qr_scan", "android": "https://dc.lft.to/lastmile_qr_scan"}, "fusion_lat": 0.0}, {"lat": 38.88256166666667, "lon": -77.005506, "is_disabled": 0, "fusion_lon": 0.0, "is_reserved": 0, "name": "91a967b140398e01931ad904a0bd3f05", "type": "electric_scooter", "bike_id": "91a967b140398e01931ad904a0bd3f05", "rental_uris": {"ios": "https://dc.lft.to/lastmile_qr_scan", "android": "https://dc.lft.to/lastmile_qr_scan"}, "fusion_lat": 0.0}, {"lat": 38.898780333333335, "lon": -77.05003133333334, "is_disabled": 0, "fusion_lon": 0.0, "is_reserved": 0, "name": "3b7b66174571255d06584959a37475c2", "type": "electric_scooter", "bike_id": "3b7b66174571255d06584959a37475c2", "rental_uris": {"ios": "https://dc.lft.to/lastmile_qr_scan", "android": "https://dc.lft.to/lastmile_qr_scan"}, "fusion_lat": 0.0}, {"lat": 38.87268383333333, "lon": -77.0135945, "is_disabled": 0, "fusion_lon": 0.0, "is_reserved": 0, "name": "b00e68e2785ef6add364f0efe68c4547", "type": "electric_scooter", "bike_id": "b00e68e2785ef6add364f0efe68c4547", "rental_uris": {"ios": "https://dc.lft.to/lastmile_qr_scan", "android": "https://dc.lft.to/lastmile_qr_scan"}, "fusion_lat": 0.0}, {"lat": 38.869612833333335, "lon": -76.97854166666667, "is_disabled": 0, "fusion_lon": 0.0, "is_reserved": 0, "name": "36b35ea7834851de056e0bd15f1fad5d", "type": "electric_scooter", "bike_id": "36b35ea7834851de056e0bd15f1fad5d", "rental_uris": {"ios": "https://dc.lft.to/lastmile_qr_scan", "android": "https://dc.lft.to/lastmile_qr_scan"}, "fusion_lat": 0.0}, {"lat": 38.9424955, "lon": -77.0363015, "is_disabled": 0, "fusion_lon": 0.0, "is_reserved": 0, "name": "355fff965533ec7f49841c4e956c9855", "type": "electric_scooter", "bike_id": "355fff965533ec7f49841c4e956c9855", "rental_uris": {"ios": "https://dc.lft.to/lastmile_qr_scan", "android": "https://dc.lft.to/lastmile_qr_scan"}, "fusion_lat": 0.0}, {"lat": 38.9169315, "lon": -77.0376895, "is_disabled": 0, "fusion_lon": 0.0, "is_reserved": 0, "name": "ee59edf9511eba0f4ea82e45252b0fb1", "type": "electric_bike", "bike_id": "ee59edf9511eba0f4ea82e45252b0fb1", "rental_uris": {"ios": "https://dc.lft.to/lastmile_qr_scan", "android": "https://dc.lft.to/lastmile_qr_scan"}, "fusion_lat": 0.0}, {"lat": 38.908853666666666, "lon": -77.04173816666666, "is_disabled": 0, "fusion_lon": 0.0, "is_reserved": 0, "name": "21e3ffa5e2d9f97ed469124c57a83eab", "type": "electric_scooter", "bike_id": "21e3ffa5e2d9f97ed469124c57a83eab", "rental_uris": {"ios": "https://dc.lft.to/lastmile_qr_scan", "android": "https://dc.lft.to/lastmile_qr_scan"}, "fusion_lat": 0.0}, {"lat": 38.90569433333334, "lon": -77.00816483333334, "is_disabled": 0, "fusion_lon": 0.0, "is_reserved": 0, "name": "07347393c4bba4b094db99ef713acb39", "type": "electric_scooter", "bike_id": "07347393c4bba4b094db99ef713acb39", "rental_uris": {"ios": "https://dc.lft.to/lastmile_qr_scan", "android": "https://dc.lft.to/lastmile_qr_scan"}, "fusion_lat": 0.0}, {"lat": 38.996954833333334, "lon": -77.025414, "is_disabled": 0, "fusion_lon": 0.0, "is_reserved": 0, "name": "3fd58b6daa0cd8dde45e8b76b58c2f5d", "type": "electric_bike", "bike_id": "3fd58b6daa0cd8dde45e8b76b58c2f5d", "rental_uris": {"ios": "https://dc.lft.to/lastmile_qr_scan", "android": "https://dc.lft.to/lastmile_qr_scan"}, "fusion_lat": 0.0}, {"lat": 38.89805716666667, "lon": -77.022139, "is_disabled": 0, "fusion_lon": 0.0, "is_reserved": 0, "name": "b627adf4a0168d34c256cc3120712c50", "type": "electric_scooter", "bike_id": "b627adf4a0168d34c256cc3120712c50", "rental_uris": {"ios": "https://dc.lft.to/lastmile_qr_scan", "android": "https://dc.lft.to/lastmile_qr_scan"}, "fusion_lat": 0.0}, {"lat": 38.876869166666665, "lon": -77.00366016666666, "is_disabled": 0, "fusion_lon": 0.0, "is_reserved": 0, "name": "b51fef1c6ae1ffde03b15cb7154f844b", "type": "electric_scooter", "bike_id": "b51fef1c6ae1ffde03b15cb7154f844b", "rental_uris": {"ios": "https://dc.lft.to/lastmile_qr_scan", "android": "https://dc.lft.to/lastmile_qr_scan"}, "fusion_lat": 0.0}, {"lat": 38.91593916666667, "lon": -77.0144735, "is_disabled": 0, "fusion_lon": 0.0, "is_reserved": 0, "name": "137fce9869211fe561e4ac2badca5c2d", "type": "electric_scooter", "bike_id": "137fce9869211fe561e4ac2badca5c2d", "rental_uris": {"ios": "https://dc.lft.to/lastmile_qr_scan", "android": "https://dc.lft.to/lastmile_qr_scan"}, "fusion_lat": 0.0}, {"lat": 38.9417965, "lon": -77.02531716666667, "is_disabled": 0, "fusion_lon": 0.0, "is_reserved": 0, "name": "809a3a537881993c982c29f35234d9f9", "type": "electric_scooter", "bike_id": "809a3a537881993c982c29f35234d9f9", "rental_uris": {"ios": "https://dc.lft.to/lastmile_qr_scan", "android": "https://dc.lft.to/lastmile_qr_scan"}, "fusion_lat": 0.0}, {"lat": 38.8971195, "lon": -77.033005, "is_disabled": 0, "fusion_lon": 0.0, "is_reserved": 0, "name": "b1b48bbb1a8c847d8aa1e930bf9046bc", "type": "electric_scooter", "bike_id": "b1b48bbb1a8c847d8aa1e930bf9046bc", "rental_uris": {"ios": "https://dc.lft.to/lastmile_qr_scan", "android": "https://dc.lft.to/lastmile_qr_scan"}, "fusion_lat": 0.0}, {"lat": 38.9188295, "lon": -77.03495016666666, "is_disabled": 0, "fusion_lon": 0.0, "is_reserved": 0, "name": "66211a9b44b87426542bd8e78cb332d1", "type": "electric_scooter", "bike_id": "66211a9b44b87426542bd8e78cb332d1", "rental_uris": {"ios": "https://dc.lft.to/lastmile_qr_scan", "android": "https://dc.lft.to/lastmile_qr_scan"}, "fusion_lat": 0.0}, {"lat": 38.908735166666666, "lon": -77.0325265, "is_disabled": 0, "fusion_lon": 0.0, "is_reserved": 0, "name": "4d5a7ac3dd006510a16008cc691157a7", "type": "electric_scooter", "bike_id": "4d5a7ac3dd006510a16008cc691157a7", "rental_uris": {"ios": "https://dc.lft.to/lastmile_qr_scan", "android": "https://dc.lft.to/lastmile_qr_scan"}, "fusion_lat": 0.0}, {"lat": 38.916343166666664, "lon": -77.02959383333334, "is_disabled": 0, "fusion_lon": 0.0, "is_reserved": 0, "name": "3f84e728857b2af48ff5ae2ff87f9b01", "type": "electric_scooter", "bike_id": "3f84e728857b2af48ff5ae2ff87f9b01", "rental_uris": {"ios": "https://dc.lft.to/lastmile_qr_scan", "android": "https://dc.lft.to/lastmile_qr_scan"}, "fusion_lat": 0.0}, {"lat": 38.907446, "lon": -77.03577583333333, "is_disabled": 0, "fusion_lon": 0.0, "is_reserved": 0, "name": "b70dac647066c0a5b694e7117ed67ed0", "type": "electric_scooter", "bike_id": "b70dac647066c0a5b694e7117ed67ed0", "rental_uris": {"ios": "https://dc.lft.to/lastmile_qr_scan", "android": "https://dc.lft.to/lastmile_qr_scan"}, "fusion_lat": 0.0}, {"lat": 38.92886983333333, "lon": -77.03243783333333, "is_disabled": 0, "fusion_lon": 0.0, "is_reserved": 0, "name": "67018e5b10997b9f9b6ee87e725a2c60", "type": "electric_scooter", "bike_id": "67018e5b10997b9f9b6ee87e725a2c60", "rental_uris": {"ios": "https://dc.lft.to/lastmile_qr_scan", "android": "https://dc.lft.to/lastmile_qr_scan"}, "fusion_lat": 0.0}, {"lat": 38.908231666666666, "lon": -76.992137, "is_disabled": 0, "fusion_lon": 0.0, "is_reserved": 0, "name": "7c0722414bd59f5aaf31dc7e60b2bd63", "type": "electric_scooter", "bike_id": "7c0722414bd59f5aaf31dc7e60b2bd63", "rental_uris": {"ios": "https://dc.lft.to/lastmile_qr_scan", "android": "https://dc.lft.to/lastmile_qr_scan"}, "fusion_lat": 0.0}, {"lat": 38.91470833333333, "lon": -77.04246316666666, "is_disabled": 0, "fusion_lon": 0.0, "is_reserved": 0, "name": "c6324996940da173bea34a19bed76d7d", "type": "electric_scooter", "bike_id": "c6324996940da173bea34a19bed76d7d", "rental_uris": {"ios": "https://dc.lft.to/lastmile_qr_scan", "android": "https://dc.lft.to/lastmile_qr_scan"}, "fusion_lat": 0.0}, {"lat": 38.912648, "lon": -77.036627, "is_disabled": 0, "fusion_lon": 0.0, "is_reserved": 0, "name": "24d0cce2564e4a732106d966e4855122", "type": "electric_scooter", "bike_id": "24d0cce2564e4a732106d966e4855122", "rental_uris": {"ios": "https://dc.lft.to/lastmile_qr_scan", "android": "https://dc.lft.to/lastmile_qr_scan"}, "fusion_lat": 0.0}, {"lat": 38.9243755, "lon": -77.05205383333333, "is_disabled": 0, "fusion_lon": 0.0, "is_reserved": 0, "name": "9a59af84074234314a1034e399e38e91", "type": "electric_scooter", "bike_id": "9a59af84074234314a1034e399e38e91", "rental_uris": {"ios": "https://dc.lft.to/lastmile_qr_scan", "android": "https://dc.lft.to/lastmile_qr_scan"}, "fusion_lat": 0.0}, {"lat": 38.93402, "lon": -77.03988366666667, "is_disabled": 0, "fusion_lon": 0.0, "is_reserved": 0, "name": "2ec52e20059431500140a0a60c42ec9f", "type": "electric_scooter", "bike_id": "2ec52e20059431500140a0a60c42ec9f", "rental_uris": {"ios": "https://dc.lft.to/lastmile_qr_scan", "android": "https://dc.lft.to/lastmile_qr_scan"}, "fusion_lat": 0.0}, {"lat": 38.90882033333333, "lon": -77.04385233333333, "is_disabled": 0, "fusion_lon": 0.0, "is_reserved": 0, "name": "4b610080ca0d5e74c677298c65130c89", "type": "electric_scooter", "bike_id": "4b610080ca0d5e74c677298c65130c89", "rental_uris": {"ios": "https://dc.lft.to/lastmile_qr_scan", "android": "https://dc.lft.to/lastmile_qr_scan"}, "fusion_lat": 0.0}, {"lat": 38.92472, "lon": -77.03543516666667, "is_disabled": 0, "fusion_lon": 0.0, "is_reserved": 0, "name": "bccae4ad34b1e8bfa779da51c0009119", "type": "electric_scooter", "bike_id": "bccae4ad34b1e8bfa779da51c0009119", "rental_uris": {"ios": "https://dc.lft.to/lastmile_qr_scan", "android": "https://dc.lft.to/lastmile_qr_scan"}, "fusion_lat": 0.0}, {"lat": 38.928865, "lon": -77.03261483333333, "is_disabled": 0, "fusion_lon": 0.0, "is_reserved": 0, "name": "31d4683551c07e236eccfb134ff98482", "type": "electric_scooter", "bike_id": "31d4683551c07e236eccfb134ff98482", "rental_uris": {"ios": "https://dc.lft.to/lastmile_qr_scan", "android": "https://dc.lft.to/lastmile_qr_scan"}, "fusion_lat": 0.0}, {"lat": 38.92079016666667, "lon": -76.99728866666666, "is_disabled": 0, "fusion_lon": 0.0, "is_reserved": 0, "name": "1531901a7cad4ae3f981ef66400c91bb", "type": "electric_scooter", "bike_id": "1531901a7cad4ae3f981ef66400c91bb", "rental_uris": {"ios": "https://dc.lft.to/lastmile_qr_scan", "android": "https://dc.lft.to/lastmile_qr_scan"}, "fusion_lat": 0.0}, {"lat": 39.03608366666667, "lon": -77.05543283333333, "is_disabled": 0, "fusion_lon": 0.0, "is_reserved": 0, "name": "0aeabc6f5dd497a1f6cfac2606d7b3b0", "type": "electric_bike", "bike_id": "0aeabc6f5dd497a1f6cfac2606d7b3b0", "rental_uris": {"ios": "https://dc.lft.to/lastmile_qr_scan", "android": "https://dc.lft.to/lastmile_qr_scan"}, "fusion_lat": 0.0}, {"lat": 38.93112966666666, "lon": -77.02087833333333, "is_disabled": 0, "fusion_lon": 0.0, "is_reserved": 0, "name": "27fa483fc00b845ad867838e65c275a2", "type": "electric_scooter", "bike_id": "27fa483fc00b845ad867838e65c275a2", "rental_uris": {"ios": "https://dc.lft.to/lastmile_qr_scan", "android": "https://dc.lft.to/lastmile_qr_scan"}, "fusion_lat": 0.0}, {"lat": 38.90294883333333, "lon": -77.02005666666666, "is_disabled": 0, "fusion_lon": 0.0, "is_reserved": 0, "name": "7bd46fa6f1543f846615d1acf11b39bb", "type": "electric_scooter", "bike_id": "7bd46fa6f1543f846615d1acf11b39bb", "rental_uris": {"ios": "https://dc.lft.to/lastmile_qr_scan", "android": "https://dc.lft.to/lastmile_qr_scan"}, "fusion_lat": 0.0}, {"lat": 38.9276575, "lon": -77.02069233333333, "is_disabled": 0, "fusion_lon": 0.0, "is_reserved": 0, "name": "130c28b95c626216f7c3526f75ddd358", "type": "electric_scooter", "bike_id": "130c28b95c626216f7c3526f75ddd358", "rental_uris": {"ios": "https://dc.lft.to/lastmile_qr_scan", "android": "https://dc.lft.to/lastmile_qr_scan"}, "fusion_lat": 0.0}, {"lat": 38.89885983333333, "lon": -76.931782, "is_disabled": 0, "fusion_lon": 0.0, "is_reserved": 0, "name": "bf9f34ab61c42374d18217de8f9502cb", "type": "electric_scooter", "bike_id": "bf9f34ab61c42374d18217de8f9502cb", "rental_uris": {"ios": "https://dc.lft.to/lastmile_qr_scan", "android": "https://dc.lft.to/lastmile_qr_scan"}, "fusion_lat": 0.0}, {"lat": 38.92223216666667, "lon": -77.01815433333333, "is_disabled": 0, "fusion_lon": 0.0, "is_reserved": 0, "name": "69ff85f9821870e970e4108fbf5fb6bc", "type": "electric_scooter", "bike_id": "69ff85f9821870e970e4108fbf5fb6bc", "rental_uris": {"ios": "https://dc.lft.to/lastmile_qr_scan", "android": "https://dc.lft.to/lastmile_qr_scan"}, "fusion_lat": 0.0}, {"lat": 38.905439, "lon": -77.048681, "is_disabled": 0, "fusion_lon": 0.0, "is_reserved": 0, "name": "dc09d2501e6c6d6b089b3a8e993b3c44", "type": "electric_scooter", "bike_id": "dc09d2501e6c6d6b089b3a8e993b3c44", "rental_uris": {"ios": "https://dc.lft.to/lastmile_qr_scan", "android": "https://dc.lft.to/lastmile_qr_scan"}, "fusion_lat": 0.0}, {"lat": 38.892154166666664, "lon": -77.02228566666666, "is_disabled": 0, "fusion_lon": 0.0, "is_reserved": 0, "name": "55b32dd569b1a8e8a32f2b429c04d692", "type": "electric_scooter", "bike_id": "55b32dd569b1a8e8a32f2b429c04d692", "rental_uris": {"ios": "https://dc.lft.to/lastmile_qr_scan", "android": "https://dc.lft.to/lastmile_qr_scan"}, "fusion_lat": 0.0}, {"lat": 38.9006875, "lon": -77.0488265, "is_disabled": 0, "fusion_lon": 0.0, "is_reserved": 0, "name": "2e44b7ec4ca7d42010dd1309f2cdf23e", "type": "electric_scooter", "bike_id": "2e44b7ec4ca7d42010dd1309f2cdf23e", "rental_uris": {"ios": "https://dc.lft.to/lastmile_qr_scan", "android": "https://dc.lft.to/lastmile_qr_scan"}, "fusion_lat": 0.0}, {"lat": 38.926098333333336, "lon": -77.02161433333333, "is_disabled": 0, "fusion_lon": 0.0, "is_reserved": 0, "name": "549da9f7b0c6cae122a6cc80890d88d4", "type": "electric_scooter", "bike_id": "549da9f7b0c6cae122a6cc80890d88d4", "rental_uris": {"ios": "https://dc.lft.to/lastmile_qr_scan", "android": "https://dc.lft.to/lastmile_qr_scan"}, "fusion_lat": 0.0}, {"lat": 38.96156916666666, "lon": -77.02782533333334, "is_disabled": 0, "fusion_lon": 0.0, "is_reserved": 0, "name": "8747c524ca20624870e5ec57d3bf8d56", "type": "electric_scooter", "bike_id": "8747c524ca20624870e5ec57d3bf8d56", "rental_uris": {"ios": "https://dc.lft.to/lastmile_qr_scan", "android": "https://dc.lft.to/lastmile_qr_scan"}, "fusion_lat": 0.0}, {"lat": 38.91794616666667, "lon": -77.02486716666667, "is_disabled": 0, "fusion_lon": 0.0, "is_reserved": 0, "name": "138876543ce2d874bcb503d3e9e6e969", "type": "electric_scooter", "bike_id": "138876543ce2d874bcb503d3e9e6e969", "rental_uris": {"ios": "https://dc.lft.to/lastmile_qr_scan", "android": "https://dc.lft.to/lastmile_qr_scan"}, "fusion_lat": 0.0}, {"lat": 38.912318, "lon": -77.015279, "is_disabled": 0, "fusion_lon": 0.0, "is_reserved": 0, "name": "dae6ac7fca3e4edb001007e74b1be5b5", "type": "electric_scooter", "bike_id": "dae6ac7fca3e4edb001007e74b1be5b5", "rental_uris": {"ios": "https://dc.lft.to/lastmile_qr_scan", "android": "https://dc.lft.to/lastmile_qr_scan"}, "fusion_lat": 0.0}, {"lat": 38.923544166666666, "lon": -77.03203883333333, "is_disabled": 0, "fusion_lon": 0.0, "is_reserved": 0, "name": "beaa0b3afff00f7b9f66c3ae349eea3b", "type": "electric_scooter", "bike_id": "beaa0b3afff00f7b9f66c3ae349eea3b", "rental_uris": {"ios": "https://dc.lft.to/lastmile_qr_scan", "android": "https://dc.lft.to/lastmile_qr_scan"}, "fusion_lat": 0.0}, {"lat": 38.917969166666666, "lon": -77.02705166666667, "is_disabled": 0, "fusion_lon": 0.0, "is_reserved": 0, "name": "1503abe9fab133ecac7205e999ed8be1", "type": "electric_scooter", "bike_id": "1503abe9fab133ecac7205e999ed8be1", "rental_uris": {"ios": "https://dc.lft.to/lastmile_qr_scan", "android": "https://dc.lft.to/lastmile_qr_scan"}, "fusion_lat": 0.0}, {"lat": 38.91672466666667, "lon": -77.0238045, "is_disabled": 0, "fusion_lon": 0.0, "is_reserved": 0, "name": "89a092eaaadaf4686f6d867bb20f720e", "type": "electric_scooter", "bike_id": "89a092eaaadaf4686f6d867bb20f720e", "rental_uris": {"ios": "https://dc.lft.to/lastmile_qr_scan", "android": "https://dc.lft.to/lastmile_qr_scan"}, "fusion_lat": 0.0}, {"lat": 38.909536333333335, "lon": -77.04485466666667, "is_disabled": 0, "fusion_lon": 0.0, "is_reserved": 0, "name": "12b0cf5ced1222ad40767224adffa7af", "type": "electric_scooter", "bike_id": "12b0cf5ced1222ad40767224adffa7af", "rental_uris": {"ios": "https://dc.lft.to/lastmile_qr_scan", "android": "https://dc.lft.to/lastmile_qr_scan"}, "fusion_lat": 0.0}, {"lat": 38.88750733333333, "lon": -76.99761916666667, "is_disabled": 0, "fusion_lon": 0.0, "is_reserved": 0, "name": "05178d6fe5af4bedd1ab97c5f2f97088", "type": "electric_scooter", "bike_id": "05178d6fe5af4bedd1ab97c5f2f97088", "rental_uris": {"ios": "https://dc.lft.to/lastmile_qr_scan", "android": "https://dc.lft.to/lastmile_qr_scan"}, "fusion_lat": 0.0}, {"lat": 38.904667833333335, "lon": -77.0484945, "is_disabled": 0, "fusion_lon": 0.0, "is_reserved": 0, "name": "2d614ed5049ab59534622544c230d228", "type": "electric_scooter", "bike_id": "2d614ed5049ab59534622544c230d228", "rental_uris": {"ios": "https://dc.lft.to/lastmile_qr_scan", "android": "https://dc.lft.to/lastmile_qr_scan"}, "fusion_lat": 0.0}, {"lat": 38.89982783333333, "lon": -77.01640016666667, "is_disabled": 0, "fusion_lon": 0.0, "is_reserved": 0, "name": "9950867a43542a47c5c45b52b2c67bf7", "type": "electric_scooter", "bike_id": "9950867a43542a47c5c45b52b2c67bf7", "rental_uris": {"ios": "https://dc.lft.to/lastmile_qr_scan", "android": "https://dc.lft.to/lastmile_qr_scan"}, "fusion_lat": 0.0}, {"lat": 38.887343, "lon": -77.02383533333334, "is_disabled": 0, "fusion_lon": 0.0, "is_reserved": 0, "name": "00a033a6ab3b8d1c1e632983a63359bf", "type": "electric_scooter", "bike_id": "00a033a6ab3b8d1c1e632983a63359bf", "rental_uris": {"ios": "https://dc.lft.to/lastmile_qr_scan", "android": "https://dc.lft.to/lastmile_qr_scan"}, "fusion_lat": 0.0}, {"lat": 38.91666033333333, "lon": -77.0471065, "is_disabled": 0, "fusion_lon": 0.0, "is_reserved": 0, "name": "9e9e2891cac6b2be537669122e2e73a6", "type": "electric_scooter", "bike_id": "9e9e2891cac6b2be537669122e2e73a6", "rental_uris": {"ios": "https://dc.lft.to/lastmile_qr_scan", "android": "https://dc.lft.to/lastmile_qr_scan"}, "fusion_lat": 0.0}, {"lat": 38.92240816666666, "lon": -77.0731445, "is_disabled": 0, "fusion_lon": 0.0, "is_reserved": 0, "name": "012de0af0b070a566f5321ea6afc1c1a", "type": "electric_scooter", "bike_id": "012de0af0b070a566f5321ea6afc1c1a", "rental_uris": {"ios": "https://dc.lft.to/lastmile_qr_scan", "android": "https://dc.lft.to/lastmile_qr_scan"}, "fusion_lat": 0.0}, {"lat": 38.928878833333336, "lon": -77.03260633333333, "is_disabled": 0, "fusion_lon": 0.0, "is_reserved": 0, "name": "00e11e6cc090d3950c43c6791b95ab63", "type": "electric_scooter", "bike_id": "00e11e6cc090d3950c43c6791b95ab63", "rental_uris": {"ios": "https://dc.lft.to/lastmile_qr_scan", "android": "https://dc.lft.to/lastmile_qr_scan"}, "fusion_lat": 0.0}, {"lat": 38.90735, "lon": -77.02389083333334, "is_disabled": 0, "fusion_lon": 0.0, "is_reserved": 0, "name": "269f6e0142023185589761f48de80957", "type": "electric_scooter", "bike_id": "269f6e0142023185589761f48de80957", "rental_uris": {"ios": "https://dc.lft.to/lastmile_qr_scan", "android": "https://dc.lft.to/lastmile_qr_scan"}, "fusion_lat": 0.0}, {"lat": 38.9734905, "lon": -77.02785916666667, "is_disabled": 0, "fusion_lon": 0.0, "is_reserved": 0, "name": "bbfe8955bb4d2d7ef1454787255c3809", "type": "electric_scooter", "bike_id": "bbfe8955bb4d2d7ef1454787255c3809", "rental_uris": {"ios": "https://dc.lft.to/lastmile_qr_scan", "android": "https://dc.lft.to/lastmile_qr_scan"}, "fusion_lat": 0.0}, {"lat": 38.931864, "lon": -77.0310405, "is_disabled": 0, "fusion_lon": 0.0, "is_reserved": 0, "name": "33b7a6bcd2f90756f98f0fa10d533382", "type": "electric_scooter", "bike_id": "33b7a6bcd2f90756f98f0fa10d533382", "rental_uris": {"ios": "https://dc.lft.to/lastmile_qr_scan", "android": "https://dc.lft.to/lastmile_qr_scan"}, "fusion_lat": 0.0}, {"lat": 38.92753533333333, "lon": -77.027761, "is_disabled": 0, "fusion_lon": 0.0, "is_reserved": 0, "name": "1e079f3dc5b7e5a5b4585a588bce973a", "type": "electric_scooter", "bike_id": "1e079f3dc5b7e5a5b4585a588bce973a", "rental_uris": {"ios": "https://dc.lft.to/lastmile_qr_scan", "android": "https://dc.lft.to/lastmile_qr_scan"}, "fusion_lat": 0.0}, {"lat": 38.917863833333335, "lon": -77.03205883333334, "is_disabled": 0, "fusion_lon": 0.0, "is_reserved": 0, "name": "5ef91c0e9dd8f36982c0956e2c525d62", "type": "electric_scooter", "bike_id": "5ef91c0e9dd8f36982c0956e2c525d62", "rental_uris": {"ios": "https://dc.lft.to/lastmile_qr_scan", "android": "https://dc.lft.to/lastmile_qr_scan"}, "fusion_lat": 0.0}, {"lat": 38.88189766666667, "lon": -77.00361816666667, "is_disabled": 0, "fusion_lon": 0.0, "is_reserved": 0, "name": "eb569ee7b77340e9de8a8f1996bbb43e", "type": "electric_scooter", "bike_id": "eb569ee7b77340e9de8a8f1996bbb43e", "rental_uris": {"ios": "https://dc.lft.to/lastmile_qr_scan", "android": "https://dc.lft.to/lastmile_qr_scan"}, "fusion_lat": 0.0}, {"lat": 38.928815666666665, "lon": -77.036203, "is_disabled": 0, "fusion_lon": 0.0, "is_reserved": 0, "name": "2c49c3da4e75a3382e16fe8b3d334ec1", "type": "electric_bike", "bike_id": "2c49c3da4e75a3382e16fe8b3d334ec1", "rental_uris": {"ios": "https://dc.lft.to/lastmile_qr_scan", "android": "https://dc.lft.to/lastmile_qr_scan"}, "fusion_lat": 0.0}, {"lat": 38.93601233333333, "lon": -77.0365325, "is_disabled": 0, "fusion_lon": 0.0, "is_reserved": 0, "name": "53b591238efd6c01c05819dbd0e476d5", "type": "electric_scooter", "bike_id": "53b591238efd6c01c05819dbd0e476d5", "rental_uris": {"ios": "https://dc.lft.to/lastmile_qr_scan", "android": "https://dc.lft.to/lastmile_qr_scan"}, "fusion_lat": 0.0}, {"lat": 38.90229766666667, "lon": -77.02642816666666, "is_disabled": 0, "fusion_lon": 0.0, "is_reserved": 0, "name": "6613920d43ecd65a7c89f3a7e10719e2", "type": "electric_scooter", "bike_id": "6613920d43ecd65a7c89f3a7e10719e2", "rental_uris": {"ios": "https://dc.lft.to/lastmile_qr_scan", "android": "https://dc.lft.to/lastmile_qr_scan"}, "fusion_lat": 0.0}, {"lat": 39.003100333333336, "lon": -76.90330666666667, "is_disabled": 0, "fusion_lon": 0.0, "is_reserved": 0, "name": "b61ff34ff5846b4a1cfe2c096204bd5d", "type": "electric_bike", "bike_id": "b61ff34ff5846b4a1cfe2c096204bd5d", "rental_uris": {"ios": "https://dc.lft.to/lastmile_qr_scan", "android": "https://dc.lft.to/lastmile_qr_scan"}, "fusion_lat": 0.0}, {"lat": 38.9019565, "lon": -77.02375016666667, "is_disabled": 0, "fusion_lon": 0.0, "is_reserved": 0, "name": "2483bb95cbe5583b39da6b0230589eb4", "type": "electric_scooter", "bike_id": "2483bb95cbe5583b39da6b0230589eb4", "rental_uris": {"ios": "https://dc.lft.to/lastmile_qr_scan", "android": "https://dc.lft.to/lastmile_qr_scan"}, "fusion_lat": 0.0}, {"lat": 38.918093999999996, "lon": -77.01419966666667, "is_disabled": 0, "fusion_lon": 0.0, "is_reserved": 0, "name": "e8aac7f57cf2b45554ebf3b8106b0b11", "type": "electric_scooter", "bike_id": "e8aac7f57cf2b45554ebf3b8106b0b11", "rental_uris": {"ios": "https://dc.lft.to/lastmile_qr_scan", "android": "https://dc.lft.to/lastmile_qr_scan"}, "fusion_lat": 0.0}, {"lat": 38.910362166666665, "lon": -77.065006, "is_disabled": 0, "fusion_lon": 0.0, "is_reserved": 0, "name": "bfc84d052242b6ba2cd2692e9bd64ed3", "type": "electric_scooter", "bike_id": "bfc84d052242b6ba2cd2692e9bd64ed3", "rental_uris": {"ios": "https://dc.lft.to/lastmile_qr_scan", "android": "https://dc.lft.to/lastmile_qr_scan"}, "fusion_lat": 0.0}, {"lat": 38.9073415, "lon": -77.02389783333334, "is_disabled": 0, "fusion_lon": 0.0, "is_reserved": 0, "name": "2e36d8893bdac6fa47416b9618f0de56", "type": "electric_scooter", "bike_id": "2e36d8893bdac6fa47416b9618f0de56", "rental_uris": {"ios": "https://dc.lft.to/lastmile_qr_scan", "android": "https://dc.lft.to/lastmile_qr_scan"}, "fusion_lat": 0.0}, {"lat": 38.916850333333336, "lon": -77.01581333333333, "is_disabled": 0, "fusion_lon": 0.0, "is_reserved": 0, "name": "11c2bdcdbfb963e3197a555eaff3cbd3", "type": "electric_scooter", "bike_id": "11c2bdcdbfb963e3197a555eaff3cbd3", "rental_uris": {"ios": "https://dc.lft.to/lastmile_qr_scan", "android": "https://dc.lft.to/lastmile_qr_scan"}, "fusion_lat": 0.0}, {"lat": 38.94501, "lon": -77.03832616666666, "is_disabled": 0, "fusion_lon": 0.0, "is_reserved": 0, "name": "59f2c0a599198814c86404c38b166956", "type": "electric_scooter", "bike_id": "59f2c0a599198814c86404c38b166956", "rental_uris": {"ios": "https://dc.lft.to/lastmile_qr_scan", "android": "https://dc.lft.to/lastmile_qr_scan"}, "fusion_lat": 0.0}, {"lat": 38.926020333333334, "lon": -77.0238975, "is_disabled": 0, "fusion_lon": 0.0, "is_reserved": 0, "name": "828ba29f4cbdb0673c0ac373edd1a5cf", "type": "electric_scooter", "bike_id": "828ba29f4cbdb0673c0ac373edd1a5cf", "rental_uris": {"ios": "https://dc.lft.to/lastmile_qr_scan", "android": "https://dc.lft.to/lastmile_qr_scan"}, "fusion_lat": 0.0}, {"lat": 38.921534333333334, "lon": -77.03384883333334, "is_disabled": 0, "fusion_lon": 0.0, "is_reserved": 0, "name": "43c3faf19e34d88066f2cdeed36dfcda", "type": "electric_scooter", "bike_id": "43c3faf19e34d88066f2cdeed36dfcda", "rental_uris": {"ios": "https://dc.lft.to/lastmile_qr_scan", "android": "https://dc.lft.to/lastmile_qr_scan"}, "fusion_lat": 0.0}, {"lat": 38.9324485, "lon": -77.032795, "is_disabled": 0, "fusion_lon": 0.0, "is_reserved": 0, "name": "c2c950c7ab267126e596f1d144309221", "type": "electric_scooter", "bike_id": "c2c950c7ab267126e596f1d144309221", "rental_uris": {"ios": "https://dc.lft.to/lastmile_qr_scan", "android": "https://dc.lft.to/lastmile_qr_scan"}, "fusion_lat": 0.0}, {"lat": 38.9205245, "lon": -77.046212, "is_disabled": 0, "fusion_lon": 0.0, "is_reserved": 0, "name": "915cc00f9bf790f77a9fd0512e867d02", "type": "electric_scooter", "bike_id": "915cc00f9bf790f77a9fd0512e867d02", "rental_uris": {"ios": "https://dc.lft.to/lastmile_qr_scan", "android": "https://dc.lft.to/lastmile_qr_scan"}, "fusion_lat": 0.0}, {"lat": 38.900870166666664, "lon": -77.0588285, "is_disabled": 0, "fusion_lon": 0.0, "is_reserved": 0, "name": "46bbbe4aff026e670da81ee8f30fd758", "type": "electric_bike", "bike_id": "46bbbe4aff026e670da81ee8f30fd758", "rental_uris": {"ios": "https://dc.lft.to/lastmile_qr_scan", "android": "https://dc.lft.to/lastmile_qr_scan"}, "fusion_lat": 0.0}, {"lat": 38.9055605, "lon": -77.03443583333333, "is_disabled": 0, "fusion_lon": 0.0, "is_reserved": 0, "name": "b7814a5c603120630f33a8da7abf1a0b", "type": "electric_scooter", "bike_id": "b7814a5c603120630f33a8da7abf1a0b", "rental_uris": {"ios": "https://dc.lft.to/lastmile_qr_scan", "android": "https://dc.lft.to/lastmile_qr_scan"}, "fusion_lat": 0.0}, {"lat": 38.90777816666667, "lon": -77.04504966666667, "is_disabled": 0, "fusion_lon": 0.0, "is_reserved": 0, "name": "e2c9e58b5a39201e6896d1d7519f4e53", "type": "electric_scooter", "bike_id": "e2c9e58b5a39201e6896d1d7519f4e53", "rental_uris": {"ios": "https://dc.lft.to/lastmile_qr_scan", "android": "https://dc.lft.to/lastmile_qr_scan"}, "fusion_lat": 0.0}, {"lat": 38.91629233333333, "lon": -77.03198983333333, "is_disabled": 0, "fusion_lon": 0.0, "is_reserved": 0, "name": "1535ad25a97213a10bcc10d411151970", "type": "electric_scooter", "bike_id": "1535ad25a97213a10bcc10d411151970", "rental_uris": {"ios": "https://dc.lft.to/lastmile_qr_scan", "android": "https://dc.lft.to/lastmile_qr_scan"}, "fusion_lat": 0.0}, {"lat": 38.89610416666667, "lon": -76.98567433333334, "is_disabled": 0, "fusion_lon": 0.0, "is_reserved": 0, "name": "893f052f53f92cfa7dfb3a38b0951d0b", "type": "electric_scooter", "bike_id": "893f052f53f92cfa7dfb3a38b0951d0b", "rental_uris": {"ios": "https://dc.lft.to/lastmile_qr_scan", "android": "https://dc.lft.to/lastmile_qr_scan"}, "fusion_lat": 0.0}, {"lat": 38.899309, "lon": -77.04977233333334, "is_disabled": 0, "fusion_lon": 0.0, "is_reserved": 0, "name": "57ff6e2555ef45ed2c0f464159b00853", "type": "electric_scooter", "bike_id": "57ff6e2555ef45ed2c0f464159b00853", "rental_uris": {"ios": "https://dc.lft.to/lastmile_qr_scan", "android": "https://dc.lft.to/lastmile_qr_scan"}, "fusion_lat": 0.0}, {"lat": 38.956399166666664, "lon": -77.00990383333334, "is_disabled": 0, "fusion_lon": 0.0, "is_reserved": 0, "name": "bc4ed8e83403d9ae2a044587de1bfd4b", "type": "electric_scooter", "bike_id": "bc4ed8e83403d9ae2a044587de1bfd4b", "rental_uris": {"ios": "https://dc.lft.to/lastmile_qr_scan", "android": "https://dc.lft.to/lastmile_qr_scan"}, "fusion_lat": 0.0}, {"lat": 38.820452, "lon": -77.05358133333333, "is_disabled": 0, "fusion_lon": 0.0, "is_reserved": 0, "name": "32bc079a396bcead5dc7e594ec50c7c2", "type": "electric_bike", "bike_id": "32bc079a396bcead5dc7e594ec50c7c2", "rental_uris": {"ios": "https://dc.lft.to/lastmile_qr_scan", "android": "https://dc.lft.to/lastmile_qr_scan"}, "fusion_lat": 0.0}, {"lat": 38.9246265, "lon": -77.0225055, "is_disabled": 0, "fusion_lon": 0.0, "is_reserved": 0, "name": "5186954eb180e1a4ead78df602009024", "type": "electric_scooter", "bike_id": "5186954eb180e1a4ead78df602009024", "rental_uris": {"ios": "https://dc.lft.to/lastmile_qr_scan", "android": "https://dc.lft.to/lastmile_qr_scan"}, "fusion_lat": 0.0}, {"lat": 38.916767166666666, "lon": -77.02278083333333, "is_disabled": 0, "fusion_lon": 0.0, "is_reserved": 0, "name": "e64893209fc656128f2c73f5c22fb80e", "type": "electric_scooter", "bike_id": "e64893209fc656128f2c73f5c22fb80e", "rental_uris": {"ios": "https://dc.lft.to/lastmile_qr_scan", "android": "https://dc.lft.to/lastmile_qr_scan"}, "fusion_lat": 0.0}, {"lat": 38.90011533333333, "lon": -77.01758083333333, "is_disabled": 0, "fusion_lon": 0.0, "is_reserved": 0, "name": "a13da6a1862ab537ccfb6440095ec413", "type": "electric_scooter", "bike_id": "a13da6a1862ab537ccfb6440095ec413", "rental_uris": {"ios": "https://dc.lft.to/lastmile_qr_scan", "android": "https://dc.lft.to/lastmile_qr_scan"}, "fusion_lat": 0.0}, {"lat": 38.89005366666667, "lon": -76.93700066666666, "is_disabled": 0, "fusion_lon": 0.0, "is_reserved": 0, "name": "048f1b50b25dbb9379091ab6b253f788", "type": "electric_scooter", "bike_id": "048f1b50b25dbb9379091ab6b253f788", "rental_uris": {"ios": "https://dc.lft.to/lastmile_qr_scan", "android": "https://dc.lft.to/lastmile_qr_scan"}, "fusion_lat": 0.0}, {"lat": 38.9140505, "lon": -77.02985166666667, "is_disabled": 0, "fusion_lon": 0.0, "is_reserved": 0, "name": "9d5e946391d078f1ac5fdedd05e909ec", "type": "electric_scooter", "bike_id": "9d5e946391d078f1ac5fdedd05e909ec", "rental_uris": {"ios": "https://dc.lft.to/lastmile_qr_scan", "android": "https://dc.lft.to/lastmile_qr_scan"}, "fusion_lat": 0.0}, {"lat": 38.83511683333333, "lon": -76.98677483333333, "is_disabled": 0, "fusion_lon": 0.0, "is_reserved": 0, "name": "be610048c4cb44133c4fe9c8d192f0f3", "type": "electric_bike", "bike_id": "be610048c4cb44133c4fe9c8d192f0f3", "rental_uris": {"ios": "https://dc.lft.to/lastmile_qr_scan", "android": "https://dc.lft.to/lastmile_qr_scan"}, "fusion_lat": 0.0}, {"lat": 38.87212566666667, "lon": -77.013885, "is_disabled": 0, "fusion_lon": 0.0, "is_reserved": 0, "name": "421ebf2e42c843eceb8720f27c0cb918", "type": "electric_scooter", "bike_id": "421ebf2e42c843eceb8720f27c0cb918", "rental_uris": {"ios": "https://dc.lft.to/lastmile_qr_scan", "android": "https://dc.lft.to/lastmile_qr_scan"}, "fusion_lat": 0.0}, {"lat": 38.887465166666665, "lon": -77.01779816666667, "is_disabled": 0, "fusion_lon": 0.0, "is_reserved": 0, "name": "6c755a972699480e358573e0d6420749", "type": "electric_scooter", "bike_id": "6c755a972699480e358573e0d6420749", "rental_uris": {"ios": "https://dc.lft.to/lastmile_qr_scan", "android": "https://dc.lft.to/lastmile_qr_scan"}, "fusion_lat": 0.0}, {"lat": 38.8899505, "lon": -76.95434666666667, "is_disabled": 0, "fusion_lon": 0.0, "is_reserved": 0, "name": "e0d0a0ab771ddf2cdcedbdf820218765", "type": "electric_scooter", "bike_id": "e0d0a0ab771ddf2cdcedbdf820218765", "rental_uris": {"ios": "https://dc.lft.to/lastmile_qr_scan", "android": "https://dc.lft.to/lastmile_qr_scan"}, "fusion_lat": 0.0}, {"lat": 38.90091283333334, "lon": -77.04778483333334, "is_disabled": 0, "fusion_lon": 0.0, "is_reserved": 0, "name": "066961611ce97c05dd656f194558a5b9", "type": "electric_scooter", "bike_id": "066961611ce97c05dd656f194558a5b9", "rental_uris": {"ios": "https://dc.lft.to/lastmile_qr_scan", "android": "https://dc.lft.to/lastmile_qr_scan"}, "fusion_lat": 0.0}, {"lat": 38.898376, "lon": -77.027896, "is_disabled": 0, "fusion_lon": 0.0, "is_reserved": 0, "name": "ff1d9f95d33f6e61ffbf6959056a8ab2", "type": "electric_scooter", "bike_id": "ff1d9f95d33f6e61ffbf6959056a8ab2", "rental_uris": {"ios": "https://dc.lft.to/lastmile_qr_scan", "android": "https://dc.lft.to/lastmile_qr_scan"}, "fusion_lat": 0.0}, {"lat": 38.911118, "lon": -77.011538, "is_disabled": 0, "fusion_lon": 0.0, "is_reserved": 0, "name": "52e232fbc224865f717f25e34d94c2db", "type": "electric_scooter", "bike_id": "52e232fbc224865f717f25e34d94c2db", "rental_uris": {"ios": "https://dc.lft.to/lastmile_qr_scan", "android": "https://dc.lft.to/lastmile_qr_scan"}, "fusion_lat": 0.0}, {"lat": 38.91398083333333, "lon": -77.01411116666667, "is_disabled": 0, "fusion_lon": 0.0, "is_reserved": 0, "name": "6e17cbbe8a11e749f0bc784967f54371", "type": "electric_scooter", "bike_id": "6e17cbbe8a11e749f0bc784967f54371", "rental_uris": {"ios": "https://dc.lft.to/lastmile_qr_scan", "android": "https://dc.lft.to/lastmile_qr_scan"}, "fusion_lat": 0.0}, {"lat": 38.9178075, "lon": -77.04341666666667, "is_disabled": 0, "fusion_lon": 0.0, "is_reserved": 0, "name": "af9f6c3d8349c035d2f05b6ea6199910", "type": "electric_scooter", "bike_id": "af9f6c3d8349c035d2f05b6ea6199910", "rental_uris": {"ios": "https://dc.lft.to/lastmile_qr_scan", "android": "https://dc.lft.to/lastmile_qr_scan"}, "fusion_lat": 0.0}, {"lat": 38.912783166666664, "lon": -77.045098, "is_disabled": 0, "fusion_lon": 0.0, "is_reserved": 0, "name": "fa46fd759ab03da406d7893cc3b05cf3", "type": "electric_scooter", "bike_id": "fa46fd759ab03da406d7893cc3b05cf3", "rental_uris": {"ios": "https://dc.lft.to/lastmile_qr_scan", "android": "https://dc.lft.to/lastmile_qr_scan"}, "fusion_lat": 0.0}, {"lat": 38.9054085, "lon": -77.04160233333333, "is_disabled": 0, "fusion_lon": 0.0, "is_reserved": 0, "name": "c16c0cddfbd760b4d8c14d73d198becd", "type": "electric_scooter", "bike_id": "c16c0cddfbd760b4d8c14d73d198becd", "rental_uris": {"ios": "https://dc.lft.to/lastmile_qr_scan", "android": "https://dc.lft.to/lastmile_qr_scan"}, "fusion_lat": 0.0}, {"lat": 38.8871585, "lon": -77.028263, "is_disabled": 0, "fusion_lon": 0.0, "is_reserved": 0, "name": "02b0061ee64f1f252d084a23720d0ba8", "type": "electric_scooter", "bike_id": "02b0061ee64f1f252d084a23720d0ba8", "rental_uris": {"ios": "https://dc.lft.to/lastmile_qr_scan", "android": "https://dc.lft.to/lastmile_qr_scan"}, "fusion_lat": 0.0}, {"lat": 38.88626033333333, "lon": -76.92586033333333, "is_disabled": 0, "fusion_lon": 0.0, "is_reserved": 0, "name": "2dceebdbebd15b898e9b194af6d37e67", "type": "electric_scooter", "bike_id": "2dceebdbebd15b898e9b194af6d37e67", "rental_uris": {"ios": "https://dc.lft.to/lastmile_qr_scan", "android": "https://dc.lft.to/lastmile_qr_scan"}, "fusion_lat": 0.0}, {"lat": 38.91624, "lon": -77.02395533333333, "is_disabled": 0, "fusion_lon": 0.0, "is_reserved": 0, "name": "763377ad01e3c194d310eeccd6c61eba", "type": "electric_scooter", "bike_id": "763377ad01e3c194d310eeccd6c61eba", "rental_uris": {"ios": "https://dc.lft.to/lastmile_qr_scan", "android": "https://dc.lft.to/lastmile_qr_scan"}, "fusion_lat": 0.0}, {"lat": 38.899290666666666, "lon": -77.05003816666667, "is_disabled": 0, "fusion_lon": 0.0, "is_reserved": 0, "name": "9448eb94a6c89a988a56778d4e800a06", "type": "electric_scooter", "bike_id": "9448eb94a6c89a988a56778d4e800a06", "rental_uris": {"ios": "https://dc.lft.to/lastmile_qr_scan", "android": "https://dc.lft.to/lastmile_qr_scan"}, "fusion_lat": 0.0}, {"lat": 38.878674333333336, "lon": -76.96261133333333, "is_disabled": 0, "fusion_lon": 0.0, "is_reserved": 0, "name": "520a7dc0f865f3cf6bf4fdd2a306304b", "type": "electric_scooter", "bike_id": "520a7dc0f865f3cf6bf4fdd2a306304b", "rental_uris": {"ios": "https://dc.lft.to/lastmile_qr_scan", "android": "https://dc.lft.to/lastmile_qr_scan"}, "fusion_lat": 0.0}, {"lat": 38.90036666666666, "lon": -77.01184683333334, "is_disabled": 0, "fusion_lon": 0.0, "is_reserved": 0, "name": "7504364094695adea5b574b348c79ba6", "type": "electric_scooter", "bike_id": "7504364094695adea5b574b348c79ba6", "rental_uris": {"ios": "https://dc.lft.to/lastmile_qr_scan", "android": "https://dc.lft.to/lastmile_qr_scan"}, "fusion_lat": 0.0}, {"lat": 38.926335, "lon": -77.03839783333333, "is_disabled": 0, "fusion_lon": 0.0, "is_reserved": 0, "name": "14ea2766ffe4d10aea5f295ee64c1b9f", "type": "electric_scooter", "bike_id": "14ea2766ffe4d10aea5f295ee64c1b9f", "rental_uris": {"ios": "https://dc.lft.to/lastmile_qr_scan", "android": "https://dc.lft.to/lastmile_qr_scan"}, "fusion_lat": 0.0}, {"lat": 38.909576666666666, "lon": -77.03420466666667, "is_disabled": 0, "fusion_lon": 0.0, "is_reserved": 0, "name": "368b6a14ac787a866c23149d70c76cea", "type": "electric_scooter", "bike_id": "368b6a14ac787a866c23149d70c76cea", "rental_uris": {"ios": "https://dc.lft.to/lastmile_qr_scan", "android": "https://dc.lft.to/lastmile_qr_scan"}, "fusion_lat": 0.0}, {"lat": 38.9244855, "lon": -77.0217065, "is_disabled": 0, "fusion_lon": 0.0, "is_reserved": 0, "name": "afb43b536760383fd6b744d863d8a21d", "type": "electric_scooter", "bike_id": "afb43b536760383fd6b744d863d8a21d", "rental_uris": {"ios": "https://dc.lft.to/lastmile_qr_scan", "android": "https://dc.lft.to/lastmile_qr_scan"}, "fusion_lat": 0.0}, {"lat": 38.90795033333333, "lon": -77.06362366666667, "is_disabled": 0, "fusion_lon": 0.0, "is_reserved": 0, "name": "10aa22ef727cedc672324195149c8bd5", "type": "electric_scooter", "bike_id": "10aa22ef727cedc672324195149c8bd5", "rental_uris": {"ios": "https://dc.lft.to/lastmile_qr_scan", "android": "https://dc.lft.to/lastmile_qr_scan"}, "fusion_lat": 0.0}, {"lat": 38.9170735, "lon": -77.03864783333333, "is_disabled": 0, "fusion_lon": 0.0, "is_reserved": 0, "name": "33ebff2cedb80779de78149b9d303bbc", "type": "electric_scooter", "bike_id": "33ebff2cedb80779de78149b9d303bbc", "rental_uris": {"ios": "https://dc.lft.to/lastmile_qr_scan", "android": "https://dc.lft.to/lastmile_qr_scan"}, "fusion_lat": 0.0}, {"lat": 38.90826233333333, "lon": -77.03539016666667, "is_disabled": 0, "fusion_lon": 0.0, "is_reserved": 0, "name": "990e5f569d9c19928b74e648032b39f6", "type": "electric_scooter", "bike_id": "990e5f569d9c19928b74e648032b39f6", "rental_uris": {"ios": "https://dc.lft.to/lastmile_qr_scan", "android": "https://dc.lft.to/lastmile_qr_scan"}, "fusion_lat": 0.0}, {"lat": 38.9095795, "lon": -77.01648083333333, "is_disabled": 0, "fusion_lon": 0.0, "is_reserved": 0, "name": "fb3408dcca4a74e1113e4315f15b080c", "type": "electric_scooter", "bike_id": "fb3408dcca4a74e1113e4315f15b080c", "rental_uris": {"ios": "https://dc.lft.to/lastmile_qr_scan", "android": "https://dc.lft.to/lastmile_qr_scan"}, "fusion_lat": 0.0}, {"lat": 38.89534966666667, "lon": -77.0284095, "is_disabled": 0, "fusion_lon": 0.0, "is_reserved": 0, "name": "834769a2710dce9913ddbb66a9edc6b9", "type": "electric_scooter", "bike_id": "834769a2710dce9913ddbb66a9edc6b9", "rental_uris": {"ios": "https://dc.lft.to/lastmile_qr_scan", "android": "https://dc.lft.to/lastmile_qr_scan"}, "fusion_lat": 0.0}, {"lat": 38.873981666666666, "lon": -77.0145265, "is_disabled": 0, "fusion_lon": 0.0, "is_reserved": 0, "name": "24ceb104d261a560f7bc4bf6effa35c8", "type": "electric_scooter", "bike_id": "24ceb104d261a560f7bc4bf6effa35c8", "rental_uris": {"ios": "https://dc.lft.to/lastmile_qr_scan", "android": "https://dc.lft.to/lastmile_qr_scan"}, "fusion_lat": 0.0}, {"lat": 38.917785333333335, "lon": -77.04415433333334, "is_disabled": 0, "fusion_lon": 0.0, "is_reserved": 0, "name": "23cc5c7673cd63aaefa88cd35f188622", "type": "electric_scooter", "bike_id": "23cc5c7673cd63aaefa88cd35f188622", "rental_uris": {"ios": "https://dc.lft.to/lastmile_qr_scan", "android": "https://dc.lft.to/lastmile_qr_scan"}, "fusion_lat": 0.0}, {"lat": 38.874680166666664, "lon": -77.00464916666667, "is_disabled": 0, "fusion_lon": 0.0, "is_reserved": 0, "name": "f6105c40eddcaf4ee83994516f24b7cd", "type": "electric_scooter", "bike_id": "f6105c40eddcaf4ee83994516f24b7cd", "rental_uris": {"ios": "https://dc.lft.to/lastmile_qr_scan", "android": "https://dc.lft.to/lastmile_qr_scan"}, "fusion_lat": 0.0}, {"lat": 38.90341866666667, "lon": -77.03548916666666, "is_disabled": 0, "fusion_lon": 0.0, "is_reserved": 0, "name": "85133107941a69d8f7dc789d7b550b01", "type": "electric_scooter", "bike_id": "85133107941a69d8f7dc789d7b550b01", "rental_uris": {"ios": "https://dc.lft.to/lastmile_qr_scan", "android": "https://dc.lft.to/lastmile_qr_scan"}, "fusion_lat": 0.0}, {"lat": 38.88995416666667, "lon": -76.98375116666666, "is_disabled": 0, "fusion_lon": 0.0, "is_reserved": 0, "name": "ce0933d7e0db6b2b1adf53bf3000ed8c", "type": "electric_scooter", "bike_id": "ce0933d7e0db6b2b1adf53bf3000ed8c", "rental_uris": {"ios": "https://dc.lft.to/lastmile_qr_scan", "android": "https://dc.lft.to/lastmile_qr_scan"}, "fusion_lat": 0.0}, {"lat": 38.9026275, "lon": -77.0345395, "is_disabled": 0, "fusion_lon": 0.0, "is_reserved": 0, "name": "381ce5e1fec63df5bf148e3235f7ee05", "type": "electric_scooter", "bike_id": "381ce5e1fec63df5bf148e3235f7ee05", "rental_uris": {"ios": "https://dc.lft.to/lastmile_qr_scan", "android": "https://dc.lft.to/lastmile_qr_scan"}, "fusion_lat": 0.0}, {"lat": 38.876362666666665, "lon": -77.01481466666667, "is_disabled": 0, "fusion_lon": 0.0, "is_reserved": 0, "name": "1ece1b5a95d763eba142ceb840f7dfe1", "type": "electric_scooter", "bike_id": "1ece1b5a95d763eba142ceb840f7dfe1", "rental_uris": {"ios": "https://dc.lft.to/lastmile_qr_scan", "android": "https://dc.lft.to/lastmile_qr_scan"}, "fusion_lat": 0.0}, {"lat": 38.93211083333333, "lon": -77.0326325, "is_disabled": 0, "fusion_lon": 0.0, "is_reserved": 0, "name": "ca3d072ef6d9d49196b9886feca7a09d", "type": "electric_scooter", "bike_id": "ca3d072ef6d9d49196b9886feca7a09d", "rental_uris": {"ios": "https://dc.lft.to/lastmile_qr_scan", "android": "https://dc.lft.to/lastmile_qr_scan"}, "fusion_lat": 0.0}, {"lat": 38.89828833333333, "lon": -76.946364, "is_disabled": 0, "fusion_lon": 0.0, "is_reserved": 0, "name": "0773369814c79d030f252554ed77f5e5", "type": "electric_scooter", "bike_id": "0773369814c79d030f252554ed77f5e5", "rental_uris": {"ios": "https://dc.lft.to/lastmile_qr_scan", "android": "https://dc.lft.to/lastmile_qr_scan"}, "fusion_lat": 0.0}, {"lat": 38.9375525, "lon": -77.0248985, "is_disabled": 0, "fusion_lon": 0.0, "is_reserved": 0, "name": "9e9f1ab8ce799e4bfe2aab17cc2c1d33", "type": "electric_scooter", "bike_id": "9e9f1ab8ce799e4bfe2aab17cc2c1d33", "rental_uris": {"ios": "https://dc.lft.to/lastmile_qr_scan", "android": "https://dc.lft.to/lastmile_qr_scan"}, "fusion_lat": 0.0}, {"lat": 38.92034966666667, "lon": -77.02587116666666, "is_disabled": 0, "fusion_lon": 0.0, "is_reserved": 0, "name": "f921f7bae47562594b320ad789a59e44", "type": "electric_scooter", "bike_id": "f921f7bae47562594b320ad789a59e44", "rental_uris": {"ios": "https://dc.lft.to/lastmile_qr_scan", "android": "https://dc.lft.to/lastmile_qr_scan"}, "fusion_lat": 0.0}, {"lat": 38.989626666666666, "lon": -77.09527, "is_disabled": 0, "fusion_lon": 0.0, "is_reserved": 0, "name": "d54b4fd635e10b9df3fd0da4c835bbd1", "type": "electric_bike", "bike_id": "d54b4fd635e10b9df3fd0da4c835bbd1", "rental_uris": {"ios": "https://dc.lft.to/lastmile_qr_scan", "android": "https://dc.lft.to/lastmile_qr_scan"}, "fusion_lat": 0.0}, {"lat": 38.89563966666667, "lon": -77.12738333333333, "is_disabled": 0, "fusion_lon": 0.0, "is_reserved": 0, "name": "0ef1a40a0a57d7268ef9f117e7531205", "type": "electric_bike", "bike_id": "0ef1a40a0a57d7268ef9f117e7531205", "rental_uris": {"ios": "https://dc.lft.to/lastmile_qr_scan", "android": "https://dc.lft.to/lastmile_qr_scan"}, "fusion_lat": 0.0}, {"lat": 38.92346633333333, "lon": -77.032195, "is_disabled": 0, "fusion_lon": 0.0, "is_reserved": 0, "name": "aae99716b279411b6f27bfe6393aed3d", "type": "electric_scooter", "bike_id": "aae99716b279411b6f27bfe6393aed3d", "rental_uris": {"ios": "https://dc.lft.to/lastmile_qr_scan", "android": "https://dc.lft.to/lastmile_qr_scan"}, "fusion_lat": 0.0}, {"lat": 38.91262583333334, "lon": -77.03057916666667, "is_disabled": 0, "fusion_lon": 0.0, "is_reserved": 0, "name": "99f5f3d381be595ac1ebaa1c2bf59d59", "type": "electric_scooter", "bike_id": "99f5f3d381be595ac1ebaa1c2bf59d59", "rental_uris": {"ios": "https://dc.lft.to/lastmile_qr_scan", "android": "https://dc.lft.to/lastmile_qr_scan"}, "fusion_lat": 0.0}, {"lat": 38.87865866666667, "lon": -77.007448, "is_disabled": 0, "fusion_lon": 0.0, "is_reserved": 0, "name": "07abb389fd919509d0b9851866dfd80d", "type": "electric_scooter", "bike_id": "07abb389fd919509d0b9851866dfd80d", "rental_uris": {"ios": "https://dc.lft.to/lastmile_qr_scan", "android": "https://dc.lft.to/lastmile_qr_scan"}, "fusion_lat": 0.0}, {"lat": 38.87359983333333, "lon": -77.00052716666667, "is_disabled": 0, "fusion_lon": 0.0, "is_reserved": 0, "name": "a3af335f69cc048c4caa5cc668f03ed6", "type": "electric_scooter", "bike_id": "a3af335f69cc048c4caa5cc668f03ed6", "rental_uris": {"ios": "https://dc.lft.to/lastmile_qr_scan", "android": "https://dc.lft.to/lastmile_qr_scan"}, "fusion_lat": 0.0}, {"lat": 38.91869616666666, "lon": -77.02757133333333, "is_disabled": 0, "fusion_lon": 0.0, "is_reserved": 0, "name": "325610bf91372f36ace6eed43cd5470c", "type": "electric_bike", "bike_id": "325610bf91372f36ace6eed43cd5470c", "rental_uris": {"ios": "https://dc.lft.to/lastmile_qr_scan", "android": "https://dc.lft.to/lastmile_qr_scan"}, "fusion_lat": 0.0}, {"lat": 38.875448666666664, "lon": -77.005364, "is_disabled": 0, "fusion_lon": 0.0, "is_reserved": 0, "name": "e93345051170acd240f5ef506e0d2706", "type": "electric_scooter", "bike_id": "e93345051170acd240f5ef506e0d2706", "rental_uris": {"ios": "https://dc.lft.to/lastmile_qr_scan", "android": "https://dc.lft.to/lastmile_qr_scan"}, "fusion_lat": 0.0}, {"lat": 38.915522, "lon": -77.03851383333334, "is_disabled": 0, "fusion_lon": 0.0, "is_reserved": 0, "name": "509853d3ff32b7c83a76dd6cdcf89b81", "type": "electric_scooter", "bike_id": "509853d3ff32b7c83a76dd6cdcf89b81", "rental_uris": {"ios": "https://dc.lft.to/lastmile_qr_scan", "android": "https://dc.lft.to/lastmile_qr_scan"}, "fusion_lat": 0.0}, {"lat": 38.91804283333333, "lon": -77.03440183333333, "is_disabled": 0, "fusion_lon": 0.0, "is_reserved": 0, "name": "efdddb94e017c4b64e0a50d22803db49", "type": "electric_scooter", "bike_id": "efdddb94e017c4b64e0a50d22803db49", "rental_uris": {"ios": "https://dc.lft.to/lastmile_qr_scan", "android": "https://dc.lft.to/lastmile_qr_scan"}, "fusion_lat": 0.0}, {"lat": 38.90500983333333, "lon": -77.06023583333334, "is_disabled": 0, "fusion_lon": 0.0, "is_reserved": 0, "name": "fc446eae4738c12f2f929e86859b07d8", "type": "electric_scooter", "bike_id": "fc446eae4738c12f2f929e86859b07d8", "rental_uris": {"ios": "https://dc.lft.to/lastmile_qr_scan", "android": "https://dc.lft.to/lastmile_qr_scan"}, "fusion_lat": 0.0}, {"lat": 39.01416366666667, "lon": -77.04497616666667, "is_disabled": 0, "fusion_lon": 0.0, "is_reserved": 0, "name": "6f4e025fb65dd1cfe2dda79b522ee3cc", "type": "electric_bike", "bike_id": "6f4e025fb65dd1cfe2dda79b522ee3cc", "rental_uris": {"ios": "https://dc.lft.to/lastmile_qr_scan", "android": "https://dc.lft.to/lastmile_qr_scan"}, "fusion_lat": 0.0}, {"lat": 38.873693333333335, "lon": -77.00162583333334, "is_disabled": 0, "fusion_lon": 0.0, "is_reserved": 0, "name": "2673c89b13a16bbc97b946ff40383706", "type": "electric_scooter", "bike_id": "2673c89b13a16bbc97b946ff40383706", "rental_uris": {"ios": "https://dc.lft.to/lastmile_qr_scan", "android": "https://dc.lft.to/lastmile_qr_scan"}, "fusion_lat": 0.0}, {"lat": 38.92169966666667, "lon": -77.03827283333334, "is_disabled": 0, "fusion_lon": 0.0, "is_reserved": 0, "name": "c3517b86a7cf8eda403223bf318ea519", "type": "electric_scooter", "bike_id": "c3517b86a7cf8eda403223bf318ea519", "rental_uris": {"ios": "https://dc.lft.to/lastmile_qr_scan", "android": "https://dc.lft.to/lastmile_qr_scan"}, "fusion_lat": 0.0}, {"lat": 38.901463166666666, "lon": -77.025951, "is_disabled": 0, "fusion_lon": 0.0, "is_reserved": 0, "name": "0ae748e4508c3ee32aa04d4faf3447bc", "type": "electric_scooter", "bike_id": "0ae748e4508c3ee32aa04d4faf3447bc", "rental_uris": {"ios": "https://dc.lft.to/lastmile_qr_scan", "android": "https://dc.lft.to/lastmile_qr_scan"}, "fusion_lat": 0.0}, {"lat": 38.893515, "lon": -76.98656333333334, "is_disabled": 0, "fusion_lon": 0.0, "is_reserved": 0, "name": "8d5cd0b294ad2420414a5d422c6c2cba", "type": "electric_scooter", "bike_id": "8d5cd0b294ad2420414a5d422c6c2cba", "rental_uris": {"ios": "https://dc.lft.to/lastmile_qr_scan", "android": "https://dc.lft.to/lastmile_qr_scan"}, "fusion_lat": 0.0}, {"lat": 38.95798, "lon": -77.0151495, "is_disabled": 0, "fusion_lon": 0.0, "is_reserved": 0, "name": "20b1ba2cb51589e50633674fc861b00e", "type": "electric_scooter", "bike_id": "20b1ba2cb51589e50633674fc861b00e", "rental_uris": {"ios": "https://dc.lft.to/lastmile_qr_scan", "android": "https://dc.lft.to/lastmile_qr_scan"}, "fusion_lat": 0.0}, {"lat": 38.9050765, "lon": -77.047768, "is_disabled": 0, "fusion_lon": 0.0, "is_reserved": 0, "name": "d5e6859c8ae73dfdc6362ed577ee070a", "type": "electric_scooter", "bike_id": "d5e6859c8ae73dfdc6362ed577ee070a", "rental_uris": {"ios": "https://dc.lft.to/lastmile_qr_scan", "android": "https://dc.lft.to/lastmile_qr_scan"}, "fusion_lat": 0.0}, {"lat": 38.92696766666667, "lon": -77.0207775, "is_disabled": 0, "fusion_lon": 0.0, "is_reserved": 0, "name": "8f332d7f7bd91d58974f45a43ba79848", "type": "electric_scooter", "bike_id": "8f332d7f7bd91d58974f45a43ba79848", "rental_uris": {"ios": "https://dc.lft.to/lastmile_qr_scan", "android": "https://dc.lft.to/lastmile_qr_scan"}, "fusion_lat": 0.0}, {"lat": 38.88932416666667, "lon": -77.01506316666666, "is_disabled": 0, "fusion_lon": 0.0, "is_reserved": 0, "name": "2d5238bc0875a6fdee939445ec250e10", "type": "electric_scooter", "bike_id": "2d5238bc0875a6fdee939445ec250e10", "rental_uris": {"ios": "https://dc.lft.to/lastmile_qr_scan", "android": "https://dc.lft.to/lastmile_qr_scan"}, "fusion_lat": 0.0}, {"lat": 38.919545666666664, "lon": -76.9918105, "is_disabled": 0, "fusion_lon": 0.0, "is_reserved": 0, "name": "936a2b21c8be65a75fee902bba35db42", "type": "electric_bike", "bike_id": "936a2b21c8be65a75fee902bba35db42", "rental_uris": {"ios": "https://dc.lft.to/lastmile_qr_scan", "android": "https://dc.lft.to/lastmile_qr_scan"}, "fusion_lat": 0.0}, {"lat": 38.9088305, "lon": -77.04397883333333, "is_disabled": 0, "fusion_lon": 0.0, "is_reserved": 0, "name": "2864f13b692169e7973406fe2f3079c7", "type": "electric_scooter", "bike_id": "2864f13b692169e7973406fe2f3079c7", "rental_uris": {"ios": "https://dc.lft.to/lastmile_qr_scan", "android": "https://dc.lft.to/lastmile_qr_scan"}, "fusion_lat": 0.0}, {"lat": 38.900098, "lon": -76.998474, "is_disabled": 0, "fusion_lon": 0.0, "is_reserved": 0, "name": "f4cc09fd53f889d58ed24f205fa06c3f", "type": "electric_scooter", "bike_id": "f4cc09fd53f889d58ed24f205fa06c3f", "rental_uris": {"ios": "https://dc.lft.to/lastmile_qr_scan", "android": "https://dc.lft.to/lastmile_qr_scan"}, "fusion_lat": 0.0}, {"lat": 38.919299, "lon": -77.0238695, "is_disabled": 0, "fusion_lon": 0.0, "is_reserved": 0, "name": "06241a58dba3ab5b3d87c8f07af5595d", "type": "electric_scooter", "bike_id": "06241a58dba3ab5b3d87c8f07af5595d", "rental_uris": {"ios": "https://dc.lft.to/lastmile_qr_scan", "android": "https://dc.lft.to/lastmile_qr_scan"}, "fusion_lat": 0.0}, {"lat": 38.92467583333333, "lon": -77.028315, "is_disabled": 0, "fusion_lon": 0.0, "is_reserved": 0, "name": "9e42ed9dca05848ea43bd87bde3f70cb", "type": "electric_scooter", "bike_id": "9e42ed9dca05848ea43bd87bde3f70cb", "rental_uris": {"ios": "https://dc.lft.to/lastmile_qr_scan", "android": "https://dc.lft.to/lastmile_qr_scan"}, "fusion_lat": 0.0}, {"lat": 38.91288483333334, "lon": -77.02387933333333, "is_disabled": 0, "fusion_lon": 0.0, "is_reserved": 0, "name": "c6c91927c72f28d4fbc5bf29967edc5d", "type": "electric_scooter", "bike_id": "c6c91927c72f28d4fbc5bf29967edc5d", "rental_uris": {"ios": "https://dc.lft.to/lastmile_qr_scan", "android": "https://dc.lft.to/lastmile_qr_scan"}, "fusion_lat": 0.0}, {"lat": 38.90005933333333, "lon": -76.993098, "is_disabled": 0, "fusion_lon": 0.0, "is_reserved": 0, "name": "c7a457f77b2a8c31ebfc38bbb8db38c0", "type": "electric_scooter", "bike_id": "c7a457f77b2a8c31ebfc38bbb8db38c0", "rental_uris": {"ios": "https://dc.lft.to/lastmile_qr_scan", "android": "https://dc.lft.to/lastmile_qr_scan"}, "fusion_lat": 0.0}, {"lat": 38.91630933333333, "lon": -77.050693, "is_disabled": 0, "fusion_lon": 0.0, "is_reserved": 0, "name": "808b2a31b2727dc7e6f87e33092eafa6", "type": "electric_scooter", "bike_id": "808b2a31b2727dc7e6f87e33092eafa6", "rental_uris": {"ios": "https://dc.lft.to/lastmile_qr_scan", "android": "https://dc.lft.to/lastmile_qr_scan"}, "fusion_lat": 0.0}, {"lat": 38.918846333333335, "lon": -77.03488166666666, "is_disabled": 0, "fusion_lon": 0.0, "is_reserved": 0, "name": "bfe45ffe7ca84daad81c904e315ed6a6", "type": "electric_scooter", "bike_id": "bfe45ffe7ca84daad81c904e315ed6a6", "rental_uris": {"ios": "https://dc.lft.to/lastmile_qr_scan", "android": "https://dc.lft.to/lastmile_qr_scan"}, "fusion_lat": 0.0}, {"lat": 38.92325833333334, "lon": -77.02695833333334, "is_disabled": 0, "fusion_lon": 0.0, "is_reserved": 0, "name": "3931fb6bfd380d2d93fe638d1bd1fa0a", "type": "electric_scooter", "bike_id": "3931fb6bfd380d2d93fe638d1bd1fa0a", "rental_uris": {"ios": "https://dc.lft.to/lastmile_qr_scan", "android": "https://dc.lft.to/lastmile_qr_scan"}, "fusion_lat": 0.0}, {"lat": 38.905139, "lon": -77.04825616666666, "is_disabled": 0, "fusion_lon": 0.0, "is_reserved": 0, "name": "f49c62305bdae80484f0dc038a06345f", "type": "electric_scooter", "bike_id": "f49c62305bdae80484f0dc038a06345f", "rental_uris": {"ios": "https://dc.lft.to/lastmile_qr_scan", "android": "https://dc.lft.to/lastmile_qr_scan"}, "fusion_lat": 0.0}, {"lat": 38.906605166666665, "lon": -77.02694766666667, "is_disabled": 0, "fusion_lon": 0.0, "is_reserved": 0, "name": "9ff9f9d896b6f7ca3b6139e106e41e02", "type": "electric_scooter", "bike_id": "9ff9f9d896b6f7ca3b6139e106e41e02", "rental_uris": {"ios": "https://dc.lft.to/lastmile_qr_scan", "android": "https://dc.lft.to/lastmile_qr_scan"}, "fusion_lat": 0.0}, {"lat": 38.91412783333333, "lon": -77.02183566666666, "is_disabled": 0, "fusion_lon": 0.0, "is_reserved": 0, "name": "c7ec1283b1fb13b0bb9934c35a9afa25", "type": "electric_scooter", "bike_id": "c7ec1283b1fb13b0bb9934c35a9afa25", "rental_uris": {"ios": "https://dc.lft.to/lastmile_qr_scan", "android": "https://dc.lft.to/lastmile_qr_scan"}, "fusion_lat": 0.0}, {"lat": 38.931415666666666, "lon": -77.04275166666666, "is_disabled": 0, "fusion_lon": 0.0, "is_reserved": 0, "name": "f4fe525ade29ad58abec0fb18992829c", "type": "electric_scooter", "bike_id": "f4fe525ade29ad58abec0fb18992829c", "rental_uris": {"ios": "https://dc.lft.to/lastmile_qr_scan", "android": "https://dc.lft.to/lastmile_qr_scan"}, "fusion_lat": 0.0},