{"data": {"bikes": [{"lat": 38.90469233333334, "is_disabled": 0, "type": "electric_scooter", "lon": -77.0486105, "bike_id": "5afddd03b239205b79c0d4ae8a292436", "fusion_lat": 0.0, "name": "5afddd03b239205b79c0d4ae8a292436", "is_reserved": 0, "rental_uris": {"android": "https://dc.lft.to/lastmile_qr_scan", "ios": "https://dc.lft.to/lastmile_qr_scan"}, "fusion_lon": 0.0}, {"lat": 38.901614, "is_disabled": 0, "type": "electric_scooter", "lon": -77.04837533333334, "bike_id": "c925e0f50a3c1f5ebc973b5170d18984", "fusion_lat": 0.0, "name": "c925e0f50a3c1f5ebc973b5170d18984", "is_reserved": 0, "rental_uris": {"android": "https://dc.lft.to/lastmile_qr_scan", "ios": "https://dc.lft.to/lastmile_qr_scan"}, "fusion_lon": 0.0}, {"lat": 38.93939983333333, "is_disabled": 0, "type": "electric_scooter", "lon": -77.06109816666667, "bike_id": "c0ed690e20f24a7ee04de1f9c3edc609", "fusion_lat": 0.0, "name": "c0ed690e20f24a7ee04de1f9c3edc609", "is_reserved": 0, "rental_uris": {"android": "https://dc.lft.to/lastmile_qr_scan", "ios": "https://dc.lft.to/lastmile_qr_scan"}, "fusion_lon": 0.0}, {"lat": 38.8974625, "is_disabled": 0, "type": "electric_scooter", "lon": -77.00867033333333, "bike_id": "dcd64caaf9537b729b2e7da9015a3cd5", "fusion_lat": 0.0, "name": "dcd64caaf9537b729b2e7da9015a3cd5", "is_reserved": 0, "rental_uris": {"android": "https://dc.lft.to/lastmile_qr_scan", "ios": "https://dc.lft.to/lastmile_qr_scan"}, "fusion_lon": 0.0}, {"lat": 38.86395433333333, "is_disabled": 0, "type": "electric_bike", "lon": -76.9739945, "bike_id": "6f7873c5dfd359ef604e9fd5d9add51e", "fusion_lat": 0.0, "name": "6f7873c5dfd359ef604e9fd5d9add51e", "is_reserved": 0, "rental_uris": {"android": "https://dc.lft.to/lastmile_qr_scan", "ios": "https://dc.lft.to/lastmile_qr_scan"}, "fusion_lon": 0.0}, {"lat": 38.8652365, "is_disabled": 0, "type": "electric_scooter", "lon": -76.99034733333333, "bike_id": "063f11e9a00ddc8507dcca21adead526", "fusion_lat": 0.0, "name": "063f11e9a00ddc8507dcca21adead526", "is_reserved": 0, "rental_uris": {"android": "https://dc.lft.to/lastmile_qr_scan", "ios": "https://dc.lft.to/lastmile_qr_scan"}, "fusion_lon": 0.0}, {"lat": 38.89732133333333, "is_disabled": 0, "type": "electric_scooter", "lon": -77.0499175, "bike_id": "765db373287aa150207c8a358e5b79d2", "fusion_lat": 0.0, "name": "765db373287aa150207c8a358e5b79d2", "is_reserved": 0, "rental_uris": {"android": "https://dc.lft.to/lastmile_qr_scan", "ios": "https://dc.lft.to/lastmile_qr_scan"}, "fusion_lon": 0.0}, {"lat": 38.8924875, "is_disabled": 0, "type": "electric_scooter", "lon": -77.04877166666667, "bike_id": "80fbb006c2035536495c16f2bf45a197", "fusion_lat": 0.0, "name": "80fbb006c2035536495c16f2bf45a197", "is_reserved": 0, "rental_uris": {"android": "https://dc.lft.to/lastmile_qr_scan", "ios": "https://dc.lft.to/lastmile_qr_scan"}, "fusion_lon": 0.0}, {"lat": 38.90365966666667, "is_disabled": 0, "type": "electric_scooter", "lon": -77.026247, "bike_id": "cc19f9b46c0174bb20267ccfa8c5bdef", "fusion_lat": 0.0, "name": "cc19f9b46c0174bb20267ccfa8c5bdef", "is_reserved": 0, "rental_uris": {"android": "https://dc.lft.to/lastmile_qr_scan", "ios": "https://dc.lft.to/lastmile_qr_scan"}, "fusion_lon": 0.0}, {"lat": 38.870639833333335, "is_disabled": 0, "type": "electric_scooter", "lon": -77.00839783333333, "bike_id": "1e85f2ada128dd15012221bec78da569", "fusion_lat": 0.0, "name": "1e85f2ada128dd15012221bec78da569", "is_reserved": 0, "rental_uris": {"android": "https://dc.lft.to/lastmile_qr_scan", "ios": "https://dc.lft.to/lastmile_qr_scan"}, "fusion_lon": 0.0}, {"lat": 38.892204, "is_disabled": 0, "type": "electric_scooter", "lon": -77.0283595, "bike_id": "f53a0c06c35cae04748cd017c720d7a8", "fusion_lat": 0.0, "name": "f53a0c06c35cae04748cd017c720d7a8", "is_reserved": 0, "rental_uris": {"android": "https://dc.lft.to/lastmile_qr_scan", "ios": "https://dc.lft.to/lastmile_qr_scan"}, "fusion_lon": 0.0}, {"lat": 38.93979816666667, "is_disabled": 0, "type": "electric_scooter", "lon": -77.032697, "bike_id": "2e5e127f3d547a17fe06becb037ab364", "fusion_lat": 0.0, "name": "2e5e127f3d547a17fe06becb037ab364", "is_reserved": 0, "rental_uris": {"android": "https://dc.lft.to/lastmile_qr_scan", "ios": "https://dc.lft.to/lastmile_qr_scan"}, "fusion_lon": 0.0}, {"lat": 38.87579733333333, "is_disabled": 0, "type": "electric_scooter", "lon": -77.00607933333333, "bike_id": "565ef9d3eb084afb0a0c03e219c4a3c8", "fusion_lat": 0.0, "name": "565ef9d3eb084afb0a0c03e219c4a3c8", "is_reserved": 0, "rental_uris": {"android": "https://dc.lft.to/lastmile_qr_scan", "ios": "https://dc.lft.to/lastmile_qr_scan"}, "fusion_lon": 0.0}, {"lat": 38.911344166666666, "is_disabled": 0, "type": "electric_scooter", "lon": -77.046709, "bike_id": "8756e5a594f5ed8449a3710ba45e7beb", "fusion_lat": 0.0, "name": "8756e5a594f5ed8449a3710ba45e7beb", "is_reserved": 0, "rental_uris": {"android": "https://dc.lft.to/lastmile_qr_scan", "ios": "https://dc.lft.to/lastmile_qr_scan"}, "fusion_lon": 0.0}, {"lat": 38.892299, "is_disabled": 0, "type": "electric_scooter", "lon": -77.05002816666666, "bike_id": "f5acaedae5eb84fb1219704af85185d8", "fusion_lat": 0.0, "name": "f5acaedae5eb84fb1219704af85185d8", "is_reserved": 0, "rental_uris": {"android": "https://dc.lft.to/lastmile_qr_scan", "ios": "https://dc.lft.to/lastmile_qr_scan"}, "fusion_lon": 0.0}, {"lat": 38.91804416666667, "is_disabled": 0, "type": "electric_scooter", "lon": -77.0330595, "bike_id": "7cfcd326cd7788b4d5cd738e82fc1832", "fusion_lat": 0.0, "name": "7cfcd326cd7788b4d5cd738e82fc1832", "is_reserved": 0, "rental_uris": {"android": "https://dc.lft.to/lastmile_qr_scan", "ios": "https://dc.lft.to/lastmile_qr_scan"}, "fusion_lon": 0.0}, {"lat": 38.92482666666667, "is_disabled": 0, "type": "electric_scooter", "lon": -77.02636833333334, "bike_id": "0c09cd501eadd6bf04a1ad877c70a1de", "fusion_lat": 0.0, "name": "0c09cd501eadd6bf04a1ad877c70a1de", "is_reserved": 0, "rental_uris": {"android": "https://dc.lft.to/lastmile_qr_scan", "ios": "https://dc.lft.to/lastmile_qr_scan"}, "fusion_lon": 0.0}, {"lat": 38.916899666666666, "is_disabled": 0, "type": "electric_scooter", "lon": -77.0460705, "bike_id": "292727789254554721ee2f423f59decf", "fusion_lat": 0.0, "name": "292727789254554721ee2f423f59decf", "is_reserved": 0, "rental_uris": {"android": "https://dc.lft.to/lastmile_qr_scan", "ios": "https://dc.lft.to/lastmile_qr_scan"}, "fusion_lon": 0.0}, {"lat": 38.916702666666666, "is_disabled": 0, "type": "electric_scooter", "lon": -77.03204716666667, "bike_id": "95363c3c2a090956df04d2a63c6191cb", "fusion_lat": 0.0, "name": "95363c3c2a090956df04d2a63c6191cb", "is_reserved": 0, "rental_uris": {"android": "https://dc.lft.to/lastmile_qr_scan", "ios": "https://dc.lft.to/lastmile_qr_scan"}, "fusion_lon": 0.0}, {"lat": 38.898768833333335, "is_disabled": 0, "type": "electric_scooter", "lon": -77.02706916666666, "bike_id": "c18f88355ef627b8b6d53b5e5cbb6a83", "fusion_lat": 0.0, "name": "c18f88355ef627b8b6d53b5e5cbb6a83", "is_reserved": 0, "rental_uris": {"android": "https://dc.lft.to/lastmile_qr_scan", "ios": "https://dc.lft.to/lastmile_qr_scan"}, "fusion_lon": 0.0}, {"lat": 38.89224883333333, "is_disabled": 0, "type": "electric_scooter", "lon": -77.04653766666667, "bike_id": "4ac0df73c2c93e90d26c0c019af1c0f4", "fusion_lat": 0.0, "name": "4ac0df73c2c93e90d26c0c019af1c0f4", "is_reserved": 0, "rental_uris": {"android": "https://dc.lft.to/lastmile_qr_scan", "ios": "https://dc.lft.to/lastmile_qr_scan"}, "fusion_lon": 0.0}, {"lat": 38.93982866666666, "is_disabled": 0, "type": "electric_scooter", "lon": -77.028903, "bike_id": "5a24a4275e1013e565f14161d6fde55a", "fusion_lat": 0.0, "name": "5a24a4275e1013e565f14161d6fde55a", "is_reserved": 0, "rental_uris": {"android": "https://dc.lft.to/lastmile_qr_scan", "ios": "https://dc.lft.to/lastmile_qr_scan"}, "fusion_lon": 0.0}, {"lat": 38.85957766666667, "is_disabled": 0, "type": "electric_scooter", "lon": -76.99107616666667, "bike_id": "68329038df5f00a434331dd349712f82", "fusion_lat": 0.0, "name": "68329038df5f00a434331dd349712f82", "is_reserved": 0, "rental_uris": {"android": "https://dc.lft.to/lastmile_qr_scan", "ios": "https://dc.lft.to/lastmile_qr_scan"}, "fusion_lon": 0.0}, {"lat": 38.93074766666667, "is_disabled": 0, "type": "electric_scooter", "lon": -77.01666316666666, "bike_id": "40a48852172f9f74055c0b60c1107e5f", "fusion_lat": 0.0, "name": "40a48852172f9f74055c0b60c1107e5f", "is_reserved": 0, "rental_uris": {"android": "https://dc.lft.to/lastmile_qr_scan", "ios": "https://dc.lft.to/lastmile_qr_scan"}, "fusion_lon": 0.0}, {"lat": 38.895016, "is_disabled": 0, "type": "electric_scooter", "lon": -77.02290633333334, "bike_id": "c9dabe3cb067d5c93293b9131e687d26", "fusion_lat": 0.0, "name": "c9dabe3cb067d5c93293b9131e687d26", "is_reserved": 0, "rental_uris": {"android": "https://dc.lft.to/lastmile_qr_scan", "ios": "https://dc.lft.to/lastmile_qr_scan"}, "fusion_lon": 0.0}, {"lat": 38.896800166666665, "is_disabled": 0, "type": "electric_scooter", "lon": -76.93610883333334, "bike_id": "45e9c7ffd20b160e096383ab044e809e", "fusion_lat": 0.0, "name": "45e9c7ffd20b160e096383ab044e809e", "is_reserved": 0, "rental_uris": {"android": "https://dc.lft.to/lastmile_qr_scan", "ios": "https://dc.lft.to/lastmile_qr_scan"}, "fusion_lon": 0.0}, {"lat": 38.85327383333333, "is_disabled": 0, "type": "electric_bike", "lon": -76.97990233333333, "bike_id": "545e4a87f95e887ba62b7979419f1acd", "fusion_lat": 0.0, "name": "545e4a87f95e887ba62b7979419f1acd", "is_reserved": 0, "rental_uris": {"android": "https://dc.lft.to/lastmile_qr_scan", "ios": "https://dc.lft.to/lastmile_qr_scan"}, "fusion_lon": 0.0}, {"lat": 38.924736, "is_disabled": 0, "type": "electric_scooter", "lon": -77.0271935, "bike_id": "9a0fe58458a312968f3d775883ffd9b8", "fusion_lat": 0.0, "name": "9a0fe58458a312968f3d775883ffd9b8", "is_reserved": 0, "rental_uris": {"android": "https://dc.lft.to/lastmile_qr_scan", "ios": "https://dc.lft.to/lastmile_qr_scan"}, "fusion_lon": 0.0}, {"lat": 38.89691233333333, "is_disabled": 0, "type": "electric_scooter", "lon": -76.996248, "bike_id": "77cac151ad38893c67aacce498ed167b", "fusion_lat": 0.0, "name": "77cac151ad38893c67aacce498ed167b", "is_reserved": 0, "rental_uris": {"android": "https://dc.lft.to/lastmile_qr_scan", "ios": "https://dc.lft.to/lastmile_qr_scan"}, "fusion_lon": 0.0}, {"lat": 38.91579, "is_disabled": 0, "type": "electric_scooter", "lon": -77.0321455, "bike_id": "c1bb3d1b675ae3ac1f64af1388386f8f", "fusion_lat": 0.0, "name": "c1bb3d1b675ae3ac1f64af1388386f8f", "is_reserved": 0, "rental_uris": {"android": "https://dc.lft.to/lastmile_qr_scan", "ios": "https://dc.lft.to/lastmile_qr_scan"}, "fusion_lon": 0.0}, {"lat": 38.88718883333333, "is_disabled": 0, "type": "electric_scooter", "lon": -76.95470883333333, "bike_id": "bc6d30725a70651057156953d984c277", "fusion_lat": 0.0, "name": "bc6d30725a70651057156953d984c277", "is_reserved": 0, "rental_uris": {"android": "https://dc.lft.to/lastmile_qr_scan", "ios": "https://dc.lft.to/lastmile_qr_scan"}, "fusion_lon": 0.0}, {"lat": 38.91144166666667, "is_disabled": 0, "type": "electric_scooter", "lon": -77.044824, "bike_id": "ff6d6cd947cc2029f66e34625292e3f1", "fusion_lat": 0.0, "name": "ff6d6cd947cc2029f66e34625292e3f1", "is_reserved": 0, "rental_uris": {"android": "https://dc.lft.to/lastmile_qr_scan", "ios": "https://dc.lft.to/lastmile_qr_scan"}, "fusion_lon": 0.0}, {"lat": 38.909552833333336, "is_disabled": 0, "type": "electric_scooter", "lon": -77.046551, "bike_id": "2c356167b59566f19b9c9d991dd44a26", "fusion_lat": 0.0, "name": "2c356167b59566f19b9c9d991dd44a26", "is_reserved": 0, "rental_uris": {"android": "https://dc.lft.to/lastmile_qr_scan", "ios": "https://dc.lft.to/lastmile_qr_scan"}, "fusion_lon": 0.0}, {"lat": 38.89568916666666, "is_disabled": 0, "type": "electric_scooter", "lon": -77.02190016666667, "bike_id": "58e99fc6743f9bc6c276e86a30e0b8e6", "fusion_lat": 0.0, "name": "58e99fc6743f9bc6c276e86a30e0b8e6", "is_reserved": 0, "rental_uris": {"android": "https://dc.lft.to/lastmile_qr_scan", "ios": "https://dc.lft.to/lastmile_qr_scan"}, "fusion_lon": 0.0}, {"lat": 38.8581, "is_disabled": 0, "type": "electric_scooter", "lon": -76.98655533333333, "bike_id": "157f862116e3e4fae5a03f88b7e795df", "fusion_lat": 0.0, "name": "157f862116e3e4fae5a03f88b7e795df", "is_reserved": 0, "rental_uris": {"android": "https://dc.lft.to/lastmile_qr_scan", "ios": "https://dc.lft.to/lastmile_qr_scan"}, "fusion_lon": 0.0}, {"lat": 38.9155865, "is_disabled": 0, "type": "electric_scooter", "lon": -77.03945016666667, "bike_id": "6991f8053e4e2dd0511827aef6fa3fc5", "fusion_lat": 0.0, "name": "6991f8053e4e2dd0511827aef6fa3fc5", "is_reserved": 0, "rental_uris": {"android": "https://dc.lft.to/lastmile_qr_scan", "ios": "https://dc.lft.to/lastmile_qr_scan"}, "fusion_lon": 0.0}, {"lat": 38.93081883333333, "is_disabled": 0, "type": "electric_scooter", "lon": -77.02796733333334, "bike_id": "79da614a777ca5af53e826d8dba20903", "fusion_lat": 0.0, "name": "79da614a777ca5af53e826d8dba20903", "is_reserved": 0, "rental_uris": {"android": "https://dc.lft.to/lastmile_qr_scan", "ios": "https://dc.lft.to/lastmile_qr_scan"}, "fusion_lon": 0.0}, {"lat": 38.90722866666667, "is_disabled": 0, "type": "electric_scooter", "lon": -77.02323416666667, "bike_id": "caf2888c28fd8560cf8958277fb5c1e1", "fusion_lat": 0.0, "name": "caf2888c28fd8560cf8958277fb5c1e1", "is_reserved": 0, "rental_uris": {"android": "https://dc.lft.to/lastmile_qr_scan", "ios": "https://dc.lft.to/lastmile_qr_scan"}, "fusion_lon": 0.0}, {"lat": 38.89062, "is_disabled": 0, "type": "electric_scooter", "lon": -76.94338366666666, "bike_id": "90f8e915aac5d80dece5c148489f318c", "fusion_lat": 0.0, "name": "90f8e915aac5d80dece5c148489f318c", "is_reserved": 0, "rental_uris": {"android": "https://dc.lft.to/lastmile_qr_scan", "ios": "https://dc.lft.to/lastmile_qr_scan"}, "fusion_lon": 0.0}, {"lat": 38.9321185, "is_disabled": 0, "type": "electric_scooter", "lon": -77.03890683333333, "bike_id": "569d840dd4e5aa9d8350cc0788858941", "fusion_lat": 0.0, "name": "569d840dd4e5aa9d8350cc0788858941", "is_reserved": 0, "rental_uris": {"android": "https://dc.lft.to/lastmile_qr_scan", "ios": "https://dc.lft.to/lastmile_qr_scan"}, "fusion_lon": 0.0}, {"lat": 38.9444545, "is_disabled": 0, "type": "electric_scooter", "lon": -77.0327885, "bike_id": "0c017e86c44e5a0b68cebd590c4977c4", "fusion_lat": 0.0, "name": "0c017e86c44e5a0b68cebd590c4977c4", "is_reserved": 0, "rental_uris": {"android": "https://dc.lft.to/lastmile_qr_scan", "ios": "https://dc.lft.to/lastmile_qr_scan"}, "fusion_lon": 0.0}, {"lat": 38.92465766666667, "is_disabled": 0, "type": "electric_bike", "lon": -77.208385, "bike_id": "a7024dc5ec388313c3dad0345e21a15f", "fusion_lat": 0.0, "name": "a7024dc5ec388313c3dad0345e21a15f", "is_reserved": 0, "rental_uris": {"android": "https://dc.lft.to/lastmile_qr_scan", "ios": "https://dc.lft.to/lastmile_qr_scan"}, "fusion_lon": 0.0}, {"lat": 38.963901166666666, "is_disabled": 0, "type": "electric_scooter", "lon": -77.02593266666666, "bike_id": "836c26572a170d26e63af1ab79612a6f", "fusion_lat": 0.0, "name": "836c26572a170d26e63af1ab79612a6f", "is_reserved": 0, "rental_uris": {"android": "https://dc.lft.to/lastmile_qr_scan", "ios": "https://dc.lft.to/lastmile_qr_scan"}, "fusion_lon": 0.0}, {"lat": 38.92098566666667, "is_disabled": 0, "type": "electric_scooter", "lon": -77.01788516666667, "bike_id": "b75b912fb4ad17e7d5fc5d458e0a39cc", "fusion_lat": 0.0, "name": "b75b912fb4ad17e7d5fc5d458e0a39cc", "is_reserved": 0, "rental_uris": {"android": "https://dc.lft.to/lastmile_qr_scan", "ios": "https://dc.lft.to/lastmile_qr_scan"}, "fusion_lon": 0.0}, {"lat": 38.93879066666667, "is_disabled": 0, "type": "electric_scooter", "lon": -77.02834016666667, "bike_id": "bd6949249fbebefe8e05e1f9e379eb58", "fusion_lat": 0.0, "name": "bd6949249fbebefe8e05e1f9e379eb58", "is_reserved": 0, "rental_uris": {"android": "https://dc.lft.to/lastmile_qr_scan", "ios": "https://dc.lft.to/lastmile_qr_scan"}, "fusion_lon": 0.0}, {"lat": 38.900335166666665, "is_disabled": 0, "type": "electric_scooter", "lon": -77.00572233333334, "bike_id": "7b22e164826dec556b7f3dc349b64adf", "fusion_lat": 0.0, "name": "7b22e164826dec556b7f3dc349b64adf", "is_reserved": 0, "rental_uris": {"android": "https://dc.lft.to/lastmile_qr_scan", "ios": "https://dc.lft.to/lastmile_qr_scan"}, "fusion_lon": 0.0}, {"lat": 38.905328, "is_disabled": 0, "type": "electric_scooter", "lon": -77.06786883333334, "bike_id": "3606bc495b3a4e26f1144c9acb184913", "fusion_lat": 0.0, "name": "3606bc495b3a4e26f1144c9acb184913", "is_reserved": 0, "rental_uris": {"android": "https://dc.lft.to/lastmile_qr_scan", "ios": "https://dc.lft.to/lastmile_qr_scan"}, "fusion_lon": 0.0}, {"lat": 38.8936385, "is_disabled": 0, "type": "electric_scooter", "lon": -77.04797416666666, "bike_id": "b75c1c45a8f5867fac0108376e6ca940", "fusion_lat": 0.0, "name": "b75c1c45a8f5867fac0108376e6ca940", "is_reserved": 0, "rental_uris": {"android": "https://dc.lft.to/lastmile_qr_scan", "ios": "https://dc.lft.to/lastmile_qr_scan"}, "fusion_lon": 0.0}, {"lat": 38.917543333333334, "is_disabled": 0, "type": "electric_scooter", "lon": -77.03180216666667, "bike_id": "543b243e0ab06f94f9adf7016945f4da", "fusion_lat": 0.0, "name": "543b243e0ab06f94f9adf7016945f4da", "is_reserved": 0, "rental_uris": {"android": "https://dc.lft.to/lastmile_qr_scan", "ios": "https://dc.lft.to/lastmile_qr_scan"}, "fusion_lon": 0.0}, {"lat": 38.917169666666666, "is_disabled": 0, "type": "electric_scooter", "lon": -77.03839683333334, "bike_id": "5648c849173f91d71e54b2ac89f27e64", "fusion_lat": 0.0, "name": "5648c849173f91d71e54b2ac89f27e64", "is_reserved": 0, "rental_uris": {"android": "https://dc.lft.to/lastmile_qr_scan", "ios": "https://dc.lft.to/lastmile_qr_scan"}, "fusion_lon": 0.0}, {"lat": 38.865599, "is_disabled": 0, "type": "electric_scooter", "lon": -76.98953683333333, "bike_id": "f05db630856263da29d6a37792c4b609", "fusion_lat": 0.0, "name": "f05db630856263da29d6a37792c4b609", "is_reserved": 0, "rental_uris": {"android": "https://dc.lft.to/lastmile_qr_scan", "ios": "https://dc.lft.to/lastmile_qr_scan"}, "fusion_lon": 0.0}, {"lat": 38.887290666666665, "is_disabled": 0, "type": "electric_scooter", "lon": -77.03226083333334, "bike_id": "1299a27d0a41e61a92370c4a4dfc039c", "fusion_lat": 0.0, "name": "1299a27d0a41e61a92370c4a4dfc039c", "is_reserved": 0, "rental_uris": {"android": "https://dc.lft.to/lastmile_qr_scan", "ios": "https://dc.lft.to/lastmile_qr_scan"}, "fusion_lon": 0.0}, {"lat": 38.948296666666664, "is_disabled": 0, "type": "electric_scooter", "lon": -77.02560616666666, "bike_id": "3033465a6dd357ce4771e3469da8385e", "fusion_lat": 0.0, "name": "3033465a6dd357ce4771e3469da8385e", "is_reserved": 0, "rental_uris": {"android": "https://dc.lft.to/lastmile_qr_scan", "ios": "https://dc.lft.to/lastmile_qr_scan"}, "fusion_lon": 0.0}, {"lat": 38.9561625, "is_disabled": 0, "type": "electric_scooter", "lon": -77.02788633333333, "bike_id": "0548fb3be5450ee9f70d6c4cfc9c2ff4", "fusion_lat": 0.0, "name": "0548fb3be5450ee9f70d6c4cfc9c2ff4", "is_reserved": 0, "rental_uris": {"android": "https://dc.lft.to/lastmile_qr_scan", "ios": "https://dc.lft.to/lastmile_qr_scan"}, "fusion_lon": 0.0}, {"lat": 38.886142666666665, "is_disabled": 0, "type": "electric_scooter", "lon": -76.98376366666666, "bike_id": "3f5d44b7adadc235f32e01caa4d832af", "fusion_lat": 0.0, "name": "3f5d44b7adadc235f32e01caa4d832af", "is_reserved": 0, "rental_uris": {"android": "https://dc.lft.to/lastmile_qr_scan", "ios": "https://dc.lft.to/lastmile_qr_scan"}, "fusion_lon": 0.0}, {"lat": 38.9004385, "is_disabled": 0, "type": "electric_scooter", "lon": -77.04333966666667, "bike_id": "fbd9ed6186fdcd0cc395851177da3f2a", "fusion_lat": 0.0, "name": "fbd9ed6186fdcd0cc395851177da3f2a", "is_reserved": 0, "rental_uris": {"android": "https://dc.lft.to/lastmile_qr_scan", "ios": "https://dc.lft.to/lastmile_qr_scan"}, "fusion_lon": 0.0}, {"lat": 38.906875, "is_disabled": 0, "type": "electric_scooter", "lon": -77.0627275, "bike_id": "726cf75cf1061d2186ae7f18e43074ee", "fusion_lat": 0.0, "name": "726cf75cf1061d2186ae7f18e43074ee", "is_reserved": 0, "rental_uris": {"android": "https://dc.lft.to/lastmile_qr_scan", "ios": "https://dc.lft.to/lastmile_qr_scan"}, "fusion_lon": 0.0}, {"lat": 38.93237366666666, "is_disabled": 0, "type": "electric_scooter", "lon": -77.03270466666666, "bike_id": "daa695d996b0c6877d9094ffd3a76c29", "fusion_lat": 0.0, "name": "daa695d996b0c6877d9094ffd3a76c29", "is_reserved": 0, "rental_uris": {"android": "https://dc.lft.to/lastmile_qr_scan", "ios": "https://dc.lft.to/lastmile_qr_scan"}, "fusion_lon": 0.0}, {"lat": 38.90287716666667, "is_disabled": 0, "type": "electric_scooter", "lon": -77.038303, "bike_id": "8b6819af8dd3e54b2f16da0402e449ab", "fusion_lat": 0.0, "name": "8b6819af8dd3e54b2f16da0402e449ab", "is_reserved": 0, "rental_uris": {"android": "https://dc.lft.to/lastmile_qr_scan", "ios": "https://dc.lft.to/lastmile_qr_scan"}, "fusion_lon": 0.0}, {"lat": 38.93599, "is_disabled": 0, "type": "electric_scooter", "lon": -77.03803533333334, "bike_id": "af22f29055f5de05bce572118a500478", "fusion_lat": 0.0, "name": "af22f29055f5de05bce572118a500478", "is_reserved": 0, "rental_uris": {"android": "https://dc.lft.to/lastmile_qr_scan", "ios": "https://dc.lft.to/lastmile_qr_scan"}, "fusion_lon": 0.0}, {"lat": 38.845873, "is_disabled": 0, "type": "electric_scooter", "lon": -76.9816225, "bike_id": "f1720a61d92806e1600e91390be202df", "fusion_lat": 0.0, "name": "f1720a61d92806e1600e91390be202df", "is_reserved": 0, "rental_uris": {"android": "https://dc.lft.to/lastmile_qr_scan", "ios": "https://dc.lft.to/lastmile_qr_scan"}, "fusion_lon": 0.0}, {"lat": 38.922516, "is_disabled": 0, "type": "electric_scooter", "lon": -77.04260666666667, "bike_id": "e560aea1194b96b4015a67a048a54989", "fusion_lat": 0.0, "name": "e560aea1194b96b4015a67a048a54989", "is_reserved": 0, "rental_uris": {"android": "https://dc.lft.to/lastmile_qr_scan", "ios": "https://dc.lft.to/lastmile_qr_scan"}, "fusion_lon": 0.0}, {"lat": 38.921840333333336, "is_disabled": 0, "type": "electric_scooter", "lon": -77.047044, "bike_id": "3eb8b788a5c5ca3373e1e86a27d68832", "fusion_lat": 0.0, "name": "3eb8b788a5c5ca3373e1e86a27d68832", "is_reserved": 0, "rental_uris": {"android": "https://dc.lft.to/lastmile_qr_scan", "ios": "https://dc.lft.to/lastmile_qr_scan"}, "fusion_lon": 0.0}, {"lat": 38.896639, "is_disabled": 0, "type": "electric_scooter", "lon": -77.02598716666667, "bike_id": "dadf95fc6f2d248e679b0907528a1f2c", "fusion_lat": 0.0, "name": "dadf95fc6f2d248e679b0907528a1f2c", "is_reserved": 0, "rental_uris": {"android": "https://dc.lft.to/lastmile_qr_scan", "ios": "https://dc.lft.to/lastmile_qr_scan"}, "fusion_lon": 0.0}, {"lat": 38.907288333333334, "is_disabled": 0, "type": "electric_scooter", "lon": -77.00033, "bike_id": "2d8429ad4fb46b46ffa99543b51ba963", "fusion_lat": 0.0, "name": "2d8429ad4fb46b46ffa99543b51ba963", "is_reserved": 0, "rental_uris": {"android": "https://dc.lft.to/lastmile_qr_scan", "ios": "https://dc.lft.to/lastmile_qr_scan"}, "fusion_lon": 0.0}, {"lat": 38.956333, "is_disabled": 0, "type": "electric_scooter", "lon": -77.03299516666667, "bike_id": "80615596e66b59f9ffe1901d635ddc5a", "fusion_lat": 0.0, "name": "80615596e66b59f9ffe1901d635ddc5a", "is_reserved": 0, "rental_uris": {"android": "https://dc.lft.to/lastmile_qr_scan", "ios": "https://dc.lft.to/lastmile_qr_scan"}, "fusion_lon": 0.0}, {"lat": 38.90092383333333, "is_disabled": 0, "type": "electric_scooter", "lon": -77.01296033333334, "bike_id": "456e04f25752b0f6d7fdb039a2a947af", "fusion_lat": 0.0, "name": "456e04f25752b0f6d7fdb039a2a947af", "is_reserved": 0, "rental_uris": {"android": "https://dc.lft.to/lastmile_qr_scan", "ios": "https://dc.lft.to/lastmile_qr_scan"}, "fusion_lon": 0.0}, {"lat": 38.92417583333334, "is_disabled": 0, "type": "electric_scooter", "lon": -77.05636666666666, "bike_id": "747d45349dd7261e0c06528b437d7748", "fusion_lat": 0.0, "name": "747d45349dd7261e0c06528b437d7748", "is_reserved": 0, "rental_uris": {"android": "https://dc.lft.to/lastmile_qr_scan", "ios": "https://dc.lft.to/lastmile_qr_scan"}, "fusion_lon": 0.0}, {"lat": 38.905372666666665, "is_disabled": 0, "type": "electric_scooter", "lon": -77.00577216666667, "bike_id": "25776c11acf3d821f3cc98ca480a8bca", "fusion_lat": 0.0, "name": "25776c11acf3d821f3cc98ca480a8bca", "is_reserved": 0, "rental_uris": {"android": "https://dc.lft.to/lastmile_qr_scan", "ios": "https://dc.lft.to/lastmile_qr_scan"}, "fusion_lon": 0.0}, {"lat": 38.90895016666666, "is_disabled": 0, "type": "electric_scooter", "lon": -77.0321435, "bike_id": "f729de13311606ea61713d0eafc01805", "fusion_lat": 0.0, "name": "f729de13311606ea61713d0eafc01805", "is_reserved": 0, "rental_uris": {"android": "https://dc.lft.to/lastmile_qr_scan", "ios": "https://dc.lft.to/lastmile_qr_scan"}, "fusion_lon": 0.0}, {"lat": 38.90962066666667, "is_disabled": 0, "type": "electric_scooter", "lon": -77.0347015, "bike_id": "6acc139877c7f484c8455f45e9b430fa", "fusion_lat": 0.0, "name": "6acc139877c7f484c8455f45e9b430fa", "is_reserved": 0, "rental_uris": {"android": "https://dc.lft.to/lastmile_qr_scan", "ios": "https://dc.lft.to/lastmile_qr_scan"}, "fusion_lon": 0.0}, {"lat": 38.9068545, "is_disabled": 0, "type": "electric_scooter", "lon": -77.02390033333333, "bike_id": "0dfda343d855d59ac2f9d197e8a88365", "fusion_lat": 0.0, "name": "0dfda343d855d59ac2f9d197e8a88365", "is_reserved": 0, "rental_uris": {"android": "https://dc.lft.to/lastmile_qr_scan", "ios": "https://dc.lft.to/lastmile_qr_scan"}, "fusion_lon": 0.0}, {"lat": 38.90962, "is_disabled": 0, "type": "electric_scooter", "lon": -77.03398633333333, "bike_id": "e7df392e2c9f44fa2696e40aa0d868e2", "fusion_lat": 0.0, "name": "e7df392e2c9f44fa2696e40aa0d868e2", "is_reserved": 0, "rental_uris": {"android": "https://dc.lft.to/lastmile_qr_scan", "ios": "https://dc.lft.to/lastmile_qr_scan"}, "fusion_lon": 0.0}, {"lat": 38.89711583333333, "is_disabled": 0, "type": "electric_scooter", "lon": -77.03122516666667, "bike_id": "bd211b4f61b8cf2bd93c7df98122fafb", "fusion_lat": 0.0, "name": "bd211b4f61b8cf2bd93c7df98122fafb", "is_reserved": 0, "rental_uris": {"android": "https://dc.lft.to/lastmile_qr_scan", "ios": "https://dc.lft.to/lastmile_qr_scan"}, "fusion_lon": 0.0}, {"lat": 38.89988016666667, "is_disabled": 0, "type": "electric_bike", "lon": -76.9812525, "bike_id": "f26f05a3998b8bdbde1f53c4559dc506", "fusion_lat": 0.0, "name": "f26f05a3998b8bdbde1f53c4559dc506", "is_reserved": 0, "rental_uris": {"android": "https://dc.lft.to/lastmile_qr_scan", "ios": "https://dc.lft.to/lastmile_qr_scan"}, "fusion_lon": 0.0}, {"lat": 38.919835666666664, "is_disabled": 0, "type": "electric_scooter", "lon": -77.04161833333333, "bike_id": "8ede053b0988dc923770b721986800ff", "fusion_lat": 0.0, "name": "8ede053b0988dc923770b721986800ff", "is_reserved": 0, "rental_uris": {"android": "https://dc.lft.to/lastmile_qr_scan", "ios": "https://dc.lft.to/lastmile_qr_scan"}, "fusion_lon": 0.0}, {"lat": 38.9275815, "is_disabled": 0, "type": "electric_scooter", "lon": -77.00599033333333, "bike_id": "ca78af3588ce2ccf7fb0da29d9005d2d", "fusion_lat": 0.0, "name": "ca78af3588ce2ccf7fb0da29d9005d2d", "is_reserved": 0, "rental_uris": {"android": "https://dc.lft.to/lastmile_qr_scan", "ios": "https://dc.lft.to/lastmile_qr_scan"}, "fusion_lon": 0.0}, {"lat": 38.8781435, "is_disabled": 0, "type": "electric_scooter", "lon": -77.0223445, "bike_id": "56aef2741985709f6410cd6648cedf20", "fusion_lat": 0.0, "name": "56aef2741985709f6410cd6648cedf20", "is_reserved": 0, "rental_uris": {"android": "https://dc.lft.to/lastmile_qr_scan", "ios": "https://dc.lft.to/lastmile_qr_scan"}, "fusion_lon": 0.0}, {"lat": 38.924813, "is_disabled": 0, "type": "electric_scooter", "lon": -77.02722116666666, "bike_id": "8286b79453be5227ae10495d2bee5e67", "fusion_lat": 0.0, "name": "8286b79453be5227ae10495d2bee5e67", "is_reserved": 0, "rental_uris": {"android": "https://dc.lft.to/lastmile_qr_scan", "ios": "https://dc.lft.to/lastmile_qr_scan"}, "fusion_lon": 0.0}, {"lat": 38.933106, "is_disabled": 0, "type": "electric_scooter", "lon": -77.029351, "bike_id": "ba93ffa14c168b06e975d91f8572850f", "fusion_lat": 0.0, "name": "ba93ffa14c168b06e975d91f8572850f", "is_reserved": 0, "rental_uris": {"android": "https://dc.lft.to/lastmile_qr_scan", "ios": "https://dc.lft.to/lastmile_qr_scan"}, "fusion_lon": 0.0}, {"lat": 38.898801166666665, "is_disabled": 0, "type": "electric_scooter", "lon": -76.93180533333333, "bike_id": "fef72c51cf2e2b28b3a676a4991a299c", "fusion_lat": 0.0, "name": "fef72c51cf2e2b28b3a676a4991a299c", "is_reserved": 0, "rental_uris": {"android": "https://dc.lft.to/lastmile_qr_scan", "ios": "https://dc.lft.to/lastmile_qr_scan"}, "fusion_lon": 0.0}, {"lat": 38.9316155, "is_disabled": 0, "type": "electric_scooter", "lon": -77.05610633333333, "bike_id": "f5f140d9c663c314156b131dda826dbb", "fusion_lat": 0.0, "name": "f5f140d9c663c314156b131dda826dbb", "is_reserved": 0, "rental_uris": {"android": "https://dc.lft.to/lastmile_qr_scan", "ios": "https://dc.lft.to/lastmile_qr_scan"}, "fusion_lon": 0.0}, {"lat": 38.9340875, "is_disabled": 0, "type": "electric_bike", "lon": -77.02510966666667, "bike_id": "b0602d7974cebaf0603e5741f8189358", "fusion_lat": 0.0, "name": "b0602d7974cebaf0603e5741f8189358", "is_reserved": 0, "rental_uris": {"android": "https://dc.lft.to/lastmile_qr_scan", "ios": "https://dc.lft.to/lastmile_qr_scan"}, "fusion_lon": 0.0}, {"lat": 38.92194383333333, "is_disabled": 0, "type": "electric_scooter", "lon": -77.0380675, "bike_id": "e6eea0b31c16c926d0223b60b3846eb1", "fusion_lat": 0.0, "name": "e6eea0b31c16c926d0223b60b3846eb1", "is_reserved": 0, "rental_uris": {"android": "https://dc.lft.to/lastmile_qr_scan", "ios": "https://dc.lft.to/lastmile_qr_scan"}, "fusion_lon": 0.0}, {"lat": 38.960236, "is_disabled": 0, "type": "electric_scooter", "lon": -77.02836266666667, "bike_id": "1782575967f8c4199c8c69cfef675973", "fusion_lat": 0.0, "name": "1782575967f8c4199c8c69cfef675973", "is_reserved": 0, "rental_uris": {"android": "https://dc.lft.to/lastmile_qr_scan", "ios": "https://dc.lft.to/lastmile_qr_scan"}, "fusion_lon": 0.0}, {"lat": 38.900172166666664, "is_disabled": 0, "type": "electric_scooter", "lon": -76.98641316666667, "bike_id": "4a7ea80e76108334d717e636b516c75a", "fusion_lat": 0.0, "name": "4a7ea80e76108334d717e636b516c75a", "is_reserved": 0, "rental_uris": {"android": "https://dc.lft.to/lastmile_qr_scan", "ios": "https://dc.lft.to/lastmile_qr_scan"}, "fusion_lon": 0.0}, {"lat": 38.90036816666667, "is_disabled": 0, "type": "electric_scooter", "lon": -77.043275, "bike_id": "30b39bc8cff490b13bd46923cd7cb4e7", "fusion_lat": 0.0, "name": "30b39bc8cff490b13bd46923cd7cb4e7", "is_reserved": 0, "rental_uris": {"android": "https://dc.lft.to/lastmile_qr_scan", "ios": "https://dc.lft.to/lastmile_qr_scan"}, "fusion_lon": 0.0}, {"lat": 38.914096666666666, "is_disabled": 0, "type": "electric_scooter", "lon": -77.01284283333334, "bike_id": "99c12c719d6d1f100c5a7d51bd10d30b", "fusion_lat": 0.0, "name": "99c12c719d6d1f100c5a7d51bd10d30b", "is_reserved": 0, "rental_uris": {"android": "https://dc.lft.to/lastmile_qr_scan", "ios": "https://dc.lft.to/lastmile_qr_scan"}, "fusion_lon": 0.0}, {"lat": 38.90416966666667, "is_disabled": 0, "type": "electric_scooter", "lon": -76.990736, "bike_id": "1342a282ae6aaff3342ae0a18a37a799", "fusion_lat": 0.0, "name": "1342a282ae6aaff3342ae0a18a37a799", "is_reserved": 0, "rental_uris": {"android": "https://dc.lft.to/lastmile_qr_scan", "ios": "https://dc.lft.to/lastmile_qr_scan"}, "fusion_lon": 0.0}, {"lat": 38.90226783333333, "is_disabled": 0, "type": "electric_scooter", "lon": -77.0630945, "bike_id": "0ef31f0c00cbd0165361390ac8c71e92", "fusion_lat": 0.0, "name": "0ef31f0c00cbd0165361390ac8c71e92", "is_reserved": 0, "rental_uris": {"android": "https://dc.lft.to/lastmile_qr_scan", "ios": "https://dc.lft.to/lastmile_qr_scan"}, "fusion_lon": 0.0}, {"lat": 38.87466716666667, "is_disabled": 0, "type": "electric_scooter", "lon": -77.00548616666667, "bike_id": "550b8e65495daf451e63d6713e13b69a", "fusion_lat": 0.0, "name": "550b8e65495daf451e63d6713e13b69a", "is_reserved": 0, "rental_uris": {"android": "https://dc.lft.to/lastmile_qr_scan", "ios": "https://dc.lft.to/lastmile_qr_scan"}, "fusion_lon": 0.0}, {"lat": 38.879006833333335, "is_disabled": 0, "type": "electric_scooter", "lon": -77.00562816666667, "bike_id": "728dd5cd4e51630531fd34af22d04213", "fusion_lat": 0.0, "name": "728dd5cd4e51630531fd34af22d04213", "is_reserved": 0, "rental_uris": {"android": "https://dc.lft.to/lastmile_qr_scan", "ios": "https://dc.lft.to/lastmile_qr_scan"}, "fusion_lon": 0.0}, {"lat": 38.89278066666667, "is_disabled": 0, "type": "electric_scooter", "lon": -76.942367, "bike_id": "eb876f9c2e2b7ddd575dac69deada010", "fusion_lat": 0.0, "name": "eb876f9c2e2b7ddd575dac69deada010", "is_reserved": 0, "rental_uris": {"android": "https://dc.lft.to/lastmile_qr_scan", "ios": "https://dc.lft.to/lastmile_qr_scan"}, "fusion_lon": 0.0}, {"lat": 38.930308, "is_disabled": 0, "type": "electric_scooter", "lon": -77.02969833333333, "bike_id": "b0e4519a5cea6dcdda91f67c45d577d8", "fusion_lat": 0.0, "name": "b0e4519a5cea6dcdda91f67c45d577d8", "is_reserved": 0, "rental_uris": {"android": "https://dc.lft.to/lastmile_qr_scan", "ios": "https://dc.lft.to/lastmile_qr_scan"}, "fusion_lon": 0.0}, {"lat": 38.90489933333333, "is_disabled": 0, "type": "electric_scooter", "lon": -77.02955383333334, "bike_id": "97a76814b75282c09f52b5a9718bc4c7", "fusion_lat": 0.0, "name": "97a76814b75282c09f52b5a9718bc4c7", "is_reserved": 0, "rental_uris": {"android": "https://dc.lft.to/lastmile_qr_scan", "ios": "https://dc.lft.to/lastmile_qr_scan"}, "fusion_lon": 0.0}, {"lat": 38.903828833333336, "is_disabled": 0, "type": "electric_scooter", "lon": -77.02820883333334, "bike_id": "bc8a4661087a5ad64de5ea5c83794715", "fusion_lat": 0.0, "name": "bc8a4661087a5ad64de5ea5c83794715", "is_reserved": 0, "rental_uris": {"android": "https://dc.lft.to/lastmile_qr_scan", "ios": "https://dc.lft.to/lastmile_qr_scan"}, "fusion_lon": 0.0}, {"lat": 38.90139633333333, "is_disabled": 0, "type": "electric_scooter", "lon": -76.98059783333333, "bike_id": "2662d9aac38f64359441e29e18b218f9", "fusion_lat": 0.0, "name": "2662d9aac38f64359441e29e18b218f9", "is_reserved": 0, "rental_uris": {"android": "https://dc.lft.to/lastmile_qr_scan", "ios": "https://dc.lft.to/lastmile_qr_scan"}, "fusion_lon": 0.0}, {"lat": 38.90472366666667, "is_disabled": 0, "type": "electric_scooter", "lon": -77.04354166666667, "bike_id": "9140c5b9773e64f6dc8bda9c4b4878a7", "fusion_lat": 0.0, "name": "9140c5b9773e64f6dc8bda9c4b4878a7", "is_reserved": 0, "rental_uris": {"android": "https://dc.lft.to/lastmile_qr_scan", "ios": "https://dc.lft.to/lastmile_qr_scan"}, "fusion_lon": 0.0}, {"lat": 38.89041916666667, "is_disabled": 0, "type": "electric_scooter", "lon": -76.93754183333333, "bike_id": "f14e3db0f45f55ffe05a59c0f0442df6", "fusion_lat": 0.0, "name": "f14e3db0f45f55ffe05a59c0f0442df6", "is_reserved": 0, "rental_uris": {"android": "https://dc.lft.to/lastmile_qr_scan", "ios": "https://dc.lft.to/lastmile_qr_scan"}, "fusion_lon": 0.0}, {"lat": 38.9303655, "is_disabled": 0, "type": "electric_scooter", "lon": -77.03212016666667, "bike_id": "4c73e9c833fa2b03a105e852d870a28b", "fusion_lat": 0.0, "name": "4c73e9c833fa2b03a105e852d870a28b", "is_reserved": 0, "rental_uris": {"android": "https://dc.lft.to/lastmile_qr_scan", "ios": "https://dc.lft.to/lastmile_qr_scan"}, "fusion_lon": 0.0}, {"lat": 38.91733033333333, "is_disabled": 0, "type": "electric_scooter", "lon": -77.0318855, "bike_id": "c25da44619c3ecd972c1321450a4c65d", "fusion_lat": 0.0, "name": "c25da44619c3ecd972c1321450a4c65d", "is_reserved": 0, "rental_uris": {"android": "https://dc.lft.to/lastmile_qr_scan", "ios": "https://dc.lft.to/lastmile_qr_scan"}, "fusion_lon": 0.0}, {"lat": 38.908734333333335, "is_disabled": 0, "type": "electric_scooter", "lon": -77.08595783333334, "bike_id": "589118a89f8108f36fc523873132eb08", "fusion_lat": 0.0, "name": "589118a89f8108f36fc523873132eb08", "is_reserved": 0, "rental_uris": {"android": "https://dc.lft.to/lastmile_qr_scan", "ios": "https://dc.lft.to/lastmile_qr_scan"}, "fusion_lon": 0.0}, {"lat": 38.90961083333333, "is_disabled": 0, "type": "electric_scooter", "lon": -77.03268266666667, "bike_id": "f59026206aa50e8c57c5a82371597895", "fusion_lat": 0.0, "name": "f59026206aa50e8c57c5a82371597895", "is_reserved": 0, "rental_uris": {"android": "https://dc.lft.to/lastmile_qr_scan", "ios": "https://dc.lft.to/lastmile_qr_scan"}, "fusion_lon": 0.0}, {"lat": 38.9304745, "is_disabled": 0, "type": "electric_scooter", "lon": -77.04189216666667, "bike_id": "5c03bd99bc7d682bbf41a78809965e4d", "fusion_lat": 0.0, "name": "5c03bd99bc7d682bbf41a78809965e4d", "is_reserved": 0, "rental_uris": {"android": "https://dc.lft.to/lastmile_qr_scan", "ios": "https://dc.lft.to/lastmile_qr_scan"}, "fusion_lon": 0.0}, {"lat": 38.90093266666667, "is_disabled": 0, "type": "electric_scooter", "lon": -77.01777916666667, "bike_id": "c8f15614076a67b0fad260270546355c", "fusion_lat": 0.0, "name": "c8f15614076a67b0fad260270546355c", "is_reserved": 0, "rental_uris": {"android": "https://dc.lft.to/lastmile_qr_scan", "ios": "https://dc.lft.to/lastmile_qr_scan"}, "fusion_lon": 0.0}, {"lat": 38.92037633333333, "is_disabled": 0, "type": "electric_scooter", "lon": -77.04199183333333, "bike_id": "1541b2219341101ab4d2c009557c5e75", "fusion_lat": 0.0, "name": "1541b2219341101ab4d2c009557c5e75", "is_reserved": 0, "rental_uris": {"android": "https://dc.lft.to/lastmile_qr_scan", "ios": "https://dc.lft.to/lastmile_qr_scan"}, "fusion_lon": 0.0}, {"lat": 38.876385166666665, "is_disabled": 0, "type": "electric_scooter", "lon": -77.00920433333333, "bike_id": "8c695926f75cf0bf7d7c4c072641b1fb", "fusion_lat": 0.0, "name": "8c695926f75cf0bf7d7c4c072641b1fb", "is_reserved": 0, "rental_uris": {"android": "https://dc.lft.to/lastmile_qr_scan", "ios": "https://dc.lft.to/lastmile_qr_scan"}, "fusion_lon": 0.0}, {"lat": 38.8590065, "is_disabled": 0, "type": "electric_scooter", "lon": -76.99143933333333, "bike_id": "c90789a2ad1b8075f1ad646201fd73b3", "fusion_lat": 0.0, "name": "c90789a2ad1b8075f1ad646201fd73b3", "is_reserved": 0, "rental_uris": {"android": "https://dc.lft.to/lastmile_qr_scan", "ios": "https://dc.lft.to/lastmile_qr_scan"}, "fusion_lon": 0.0}, {"lat": 38.874725833333336, "is_disabled": 0, "type": "electric_scooter", "lon": -77.00941, "bike_id": "d93f3b8c5e0b6ee3fae4bc3a0ebcf49b", "fusion_lat": 0.0, "name": "d93f3b8c5e0b6ee3fae4bc3a0ebcf49b", "is_reserved": 0, "rental_uris": {"android": "https://dc.lft.to/lastmile_qr_scan", "ios": "https://dc.lft.to/lastmile_qr_scan"}, "fusion_lon": 0.0}, {"lat": 38.90753683333333, "is_disabled": 0, "type": "electric_scooter", "lon": -77.02296216666667, "bike_id": "ccbc7caca86b65209b7acf3e14da4f4a", "fusion_lat": 0.0, "name": "ccbc7caca86b65209b7acf3e14da4f4a", "is_reserved": 0, "rental_uris": {"android": "https://dc.lft.to/lastmile_qr_scan", "ios": "https://dc.lft.to/lastmile_qr_scan"}, "fusion_lon": 0.0}, {"lat": 38.93631516666667, "is_disabled": 0, "type": "electric_scooter", "lon": -77.05878483333333, "bike_id": "88da607f10abf6ff5e1eaef0358a876e", "fusion_lat": 0.0, "name": "88da607f10abf6ff5e1eaef0358a876e", "is_reserved": 0, "rental_uris": {"android": "https://dc.lft.to/lastmile_qr_scan", "ios": "https://dc.lft.to/lastmile_qr_scan"}, "fusion_lon": 0.0}, {"lat": 38.89917166666667, "is_disabled": 0, "type": "electric_scooter", "lon": -76.933483, "bike_id": "8c940dca38cfacc1cff266461aa61683", "fusion_lat": 0.0, "name": "8c940dca38cfacc1cff266461aa61683", "is_reserved": 0, "rental_uris": {"android": "https://dc.lft.to/lastmile_qr_scan", "ios": "https://dc.lft.to/lastmile_qr_scan"}, "fusion_lon": 0.0}, {"lat": 38.890692333333334, "is_disabled": 0, "type": "electric_scooter", "lon": -76.937889, "bike_id": "0602d5b68823b708db048405a16efa93", "fusion_lat": 0.0, "name": "0602d5b68823b708db048405a16efa93", "is_reserved": 0, "rental_uris": {"android": "https://dc.lft.to/lastmile_qr_scan", "ios": "https://dc.lft.to/lastmile_qr_scan"}, "fusion_lon": 0.0}, {"lat": 38.921318166666666, "is_disabled": 0, "type": "electric_scooter", "lon": -77.01803533333333, "bike_id": "1a24a3c675dca21a19bc4c5e21129ddf", "fusion_lat": 0.0, "name": "1a24a3c675dca21a19bc4c5e21129ddf", "is_reserved": 0, "rental_uris": {"android": "https://dc.lft.to/lastmile_qr_scan", "ios": "https://dc.lft.to/lastmile_qr_scan"}, "fusion_lon": 0.0}, {"lat": 38.931139, "is_disabled": 0, "type": "electric_scooter", "lon": -77.03811933333333, "bike_id": "4ab9dd3ff08e482d32af0ebc85b64973", "fusion_lat": 0.0, "name": "4ab9dd3ff08e482d32af0ebc85b64973", "is_reserved": 0, "rental_uris": {"android": "https://dc.lft.to/lastmile_qr_scan", "ios": "https://dc.lft.to/lastmile_qr_scan"}, "fusion_lon": 0.0}, {"lat": 38.909611, "is_disabled": 0, "type": "electric_scooter", "lon": -76.98442183333333, "bike_id": "201ee926a9460349176b95d88f4b0aba", "fusion_lat": 0.0, "name": "201ee926a9460349176b95d88f4b0aba", "is_reserved": 0, "rental_uris": {"android": "https://dc.lft.to/lastmile_qr_scan", "ios": "https://dc.lft.to/lastmile_qr_scan"}, "fusion_lon": 0.0}, {"lat": 38.8661595, "is_disabled": 0, "type": "electric_scooter", "lon": -76.98696916666667, "bike_id": "f52a9a29e92b502ae742aa0c1b15926f", "fusion_lat": 0.0, "name": "f52a9a29e92b502ae742aa0c1b15926f", "is_reserved": 0, "rental_uris": {"android": "https://dc.lft.to/lastmile_qr_scan", "ios": "https://dc.lft.to/lastmile_qr_scan"}, "fusion_lon": 0.0}, {"lat": 38.918771, "is_disabled": 0, "type": "electric_scooter", "lon": -77.02982966666667, "bike_id": "e0ec7043ea5a823dab5e8ec8ccc7e81b", "fusion_lat": 0.0, "name": "e0ec7043ea5a823dab5e8ec8ccc7e81b", "is_reserved": 0, "rental_uris": {"android": "https://dc.lft.to/lastmile_qr_scan", "ios": "https://dc.lft.to/lastmile_qr_scan"}, "fusion_lon": 0.0}, {"lat": 38.91123916666667, "is_disabled": 0, "type": "electric_scooter", "lon": -77.04457566666666, "bike_id": "3cf326543117352c5b7bb9658844dd62", "fusion_lat": 0.0, "name": "3cf326543117352c5b7bb9658844dd62", "is_reserved": 0, "rental_uris": {"android": "https://dc.lft.to/lastmile_qr_scan", "ios": "https://dc.lft.to/lastmile_qr_scan"}, "fusion_lon": 0.0}, {"lat": 38.842929, "is_disabled": 0, "type": "electric_scooter", "lon": -76.9994835, "bike_id": "d9abff36167924c81582785abc058f07", "fusion_lat": 0.0, "name": "d9abff36167924c81582785abc058f07", "is_reserved": 0, "rental_uris": {"android": "https://dc.lft.to/lastmile_qr_scan", "ios": "https://dc.lft.to/lastmile_qr_scan"}, "fusion_lon": 0.0}, {"lat": 38.9238425, "is_disabled": 0, "type": "electric_scooter", "lon": -77.04084566666667, "bike_id": "79a1f366ffbf61030e423fc0364d4201", "fusion_lat": 0.0, "name": "79a1f366ffbf61030e423fc0364d4201", "is_reserved": 0, "rental_uris": {"android": "https://dc.lft.to/lastmile_qr_scan", "ios": "https://dc.lft.to/lastmile_qr_scan"}, "fusion_lon": 0.0}, {"lat": 38.84934716666667, "is_disabled": 0, "type": "electric_bike", "lon": -77.10018533333333, "bike_id": "13074d88e6f644b4d28879b3c3080d40", "fusion_lat": 0.0, "name": "13074d88e6f644b4d28879b3c3080d40", "is_reserved": 0, "rental_uris": {"android": "https://dc.lft.to/lastmile_qr_scan", "ios": "https://dc.lft.to/lastmile_qr_scan"}, "fusion_lon": 0.0}, {"lat": 38.842735833333336, "is_disabled": 0, "type": "electric_bike", "lon": -76.98848966666667, "bike_id": "bc8d03bf56b370cd8f26af88799b10c5", "fusion_lat": 0.0, "name": "bc8d03bf56b370cd8f26af88799b10c5", "is_reserved": 0, "rental_uris": {"android": "https://dc.lft.to/lastmile_qr_scan", "ios": "https://dc.lft.to/lastmile_qr_scan"}, "fusion_lon": 0.0}, {"lat": 38.88484366666667, "is_disabled": 0, "type": "electric_scooter", "lon": -77.01521116666666, "bike_id": "3b2f4b44839d6af03591577641e18b3c", "fusion_lat": 0.0, "name": "3b2f4b44839d6af03591577641e18b3c", "is_reserved": 0, "rental_uris": {"android": "https://dc.lft.to/lastmile_qr_scan", "ios": "https://dc.lft.to/lastmile_qr_scan"}, "fusion_lon": 0.0}, {"lat": 38.89370383333333, "is_disabled": 0, "type": "electric_scooter", "lon": -76.95001216666667, "bike_id": "1bd55e9ad4764fc27f1d40a3e1aaec67", "fusion_lat": 0.0, "name": "1bd55e9ad4764fc27f1d40a3e1aaec67", "is_reserved": 0, "rental_uris": {"android": "https://dc.lft.to/lastmile_qr_scan", "ios": "https://dc.lft.to/lastmile_qr_scan"}, "fusion_lon": 0.0}, {"lat": 38.92230966666666, "is_disabled": 0, "type": "electric_scooter", "lon": -77.0431555, "bike_id": "3230a469c23a9cf2c607b68185f24e6a", "fusion_lat": 0.0, "name": "3230a469c23a9cf2c607b68185f24e6a", "is_reserved": 0, "rental_uris": {"android": "https://dc.lft.to/lastmile_qr_scan", "ios": "https://dc.lft.to/lastmile_qr_scan"}, "fusion_lon": 0.0}, {"lat": 38.924741833333336, "is_disabled": 0, "type": "electric_scooter", "lon": -77.02890716666667, "bike_id": "48965c3c3fffc292081aa0f02fe4695e", "fusion_lat": 0.0, "name": "48965c3c3fffc292081aa0f02fe4695e", "is_reserved": 0, "rental_uris": {"android": "https://dc.lft.to/lastmile_qr_scan", "ios": "https://dc.lft.to/lastmile_qr_scan"}, "fusion_lon": 0.0}, {"lat": 38.921823, "is_disabled": 0, "type": "electric_scooter", "lon": -77.02413316666667, "bike_id": "194e6941e028e2e10ec77904760f326f", "fusion_lat": 0.0, "name": "194e6941e028e2e10ec77904760f326f", "is_reserved": 0, "rental_uris": {"android": "https://dc.lft.to/lastmile_qr_scan", "ios": "https://dc.lft.to/lastmile_qr_scan"}, "fusion_lon": 0.0}, {"lat": 38.914037666666665, "is_disabled": 0, "type": "electric_scooter", "lon": -77.03219283333334, "bike_id": "70095673f0f2c6a36735d9305c2b1910", "fusion_lat": 0.0, "name": "70095673f0f2c6a36735d9305c2b1910", "is_reserved": 0, "rental_uris": {"android": "https://dc.lft.to/lastmile_qr_scan", "ios": "https://dc.lft.to/lastmile_qr_scan"}, "fusion_lon": 0.0}, {"lat": 38.909693833333336, "is_disabled": 0, "type": "electric_scooter", "lon": -77.04830566666666, "bike_id": "4dfbeaef729e98147b2cf95bc720cc89", "fusion_lat": 0.0, "name": "4dfbeaef729e98147b2cf95bc720cc89", "is_reserved": 0, "rental_uris": {"android": "https://dc.lft.to/lastmile_qr_scan", "ios": "https://dc.lft.to/lastmile_qr_scan"}, "fusion_lon": 0.0}, {"lat": 38.895314166666665, "is_disabled": 0, "type": "electric_bike", "lon": -77.07359833333334, "bike_id": "0a09f3b90f5af1a335aac80eb1a814ab", "fusion_lat": 0.0, "name": "0a09f3b90f5af1a335aac80eb1a814ab", "is_reserved": 0, "rental_uris": {"android": "https://dc.lft.to/lastmile_qr_scan", "ios": "https://dc.lft.to/lastmile_qr_scan"}, "fusion_lon": 0.0}, {"lat": 38.921757666666664, "is_disabled": 0, "type": "electric_scooter", "lon": -77.03233683333333, "bike_id": "f65c6d8c7a1d17b44c75f15077f96ed2", "fusion_lat": 0.0, "name": "f65c6d8c7a1d17b44c75f15077f96ed2", "is_reserved": 0, "rental_uris": {"android": "https://dc.lft.to/lastmile_qr_scan", "ios": "https://dc.lft.to/lastmile_qr_scan"}, "fusion_lon": 0.0}, {"lat": 38.893443, "is_disabled": 0, "type": "electric_scooter", "lon": -76.94936283333334, "bike_id": "ac1760ce213e456584a164cfa8b5b180", "fusion_lat": 0.0, "name": "ac1760ce213e456584a164cfa8b5b180", "is_reserved": 0, "rental_uris": {"android": "https://dc.lft.to/lastmile_qr_scan", "ios": "https://dc.lft.to/lastmile_qr_scan"}, "fusion_lon": 0.0}, {"lat": 38.8818325, "is_disabled": 0, "type": "electric_scooter", "lon": -77.03574866666666, "bike_id": "e9a6af4a843f26dddd979d698b0e7056", "fusion_lat": 0.0, "name": "e9a6af4a843f26dddd979d698b0e7056", "is_reserved": 0, "rental_uris": {"android": "https://dc.lft.to/lastmile_qr_scan", "ios": "https://dc.lft.to/lastmile_qr_scan"}, "fusion_lon": 0.0}, {"lat": 38.9169305, "is_disabled": 0, "type": "electric_scooter", "lon": -77.02953883333333, "bike_id": "f1beea5d756deb45570ee92e6edfccd0", "fusion_lat": 0.0, "name": "f1beea5d756deb45570ee92e6edfccd0", "is_reserved": 0, "rental_uris": {"android": "https://dc.lft.to/lastmile_qr_scan", "ios": "https://dc.lft.to/lastmile_qr_scan"}, "fusion_lon": 0.0}, {"lat": 38.88121983333333, "is_disabled": 0, "type": "electric_scooter", "lon": -77.00099133333333, "bike_id": "35e98db386ed3b32b2303edfa128d65c", "fusion_lat": 0.0, "name": "35e98db386ed3b32b2303edfa128d65c", "is_reserved": 0, "rental_uris": {"android": "https://dc.lft.to/lastmile_qr_scan", "ios": "https://dc.lft.to/lastmile_qr_scan"}, "fusion_lon": 0.0}, {"lat": 38.9170275, "is_disabled": 0, "type": "electric_scooter", "lon": -77.022804, "bike_id": "46a6704bfdcf55727c60abd4b6a02222", "fusion_lat": 0.0, "name": "46a6704bfdcf55727c60abd4b6a02222", "is_reserved": 0, "rental_uris": {"android": "https://dc.lft.to/lastmile_qr_scan", "ios": "https://dc.lft.to/lastmile_qr_scan"}, "fusion_lon": 0.0}, {"lat": 38.9443065, "is_disabled": 0, "type": "electric_scooter", "lon": -76.99219183333334, "bike_id": "a5f912688614b6b9be801a0a989c690d", "fusion_lat": 0.0, "name": "a5f912688614b6b9be801a0a989c690d", "is_reserved": 0, "rental_uris": {"android": "https://dc.lft.to/lastmile_qr_scan", "ios": "https://dc.lft.to/lastmile_qr_scan"}, "fusion_lon": 0.0}, {"lat": 38.9347375, "is_disabled": 0, "type": "electric_scooter", "lon": -77.0192755, "bike_id": "3ff99d1cd7ffc4b3669ba9ee8546199e", "fusion_lat": 0.0, "name": "3ff99d1cd7ffc4b3669ba9ee8546199e", "is_reserved": 0, "rental_uris": {"android": "https://dc.lft.to/lastmile_qr_scan", "ios": "https://dc.lft.to/lastmile_qr_scan"}, "fusion_lon": 0.0}, {"lat": 38.886230833333336, "is_disabled": 0, "type": "electric_scooter", "lon": -77.02175133333333, "bike_id": "d36fcb0577132d6e5fd9923a04b3a214", "fusion_lat": 0.0, "name": "d36fcb0577132d6e5fd9923a04b3a214", "is_reserved": 0, "rental_uris": {"android": "https://dc.lft.to/lastmile_qr_scan", "ios": "https://dc.lft.to/lastmile_qr_scan"}, "fusion_lon": 0.0}, {"lat": 38.89399133333333, "is_disabled": 0, "type": "electric_scooter", "lon": -77.0108615, "bike_id": "f5b371a809910bd355b4c0cdbb47670c", "fusion_lat": 0.0, "name": "f5b371a809910bd355b4c0cdbb47670c", "is_reserved": 0, "rental_uris": {"android": "https://dc.lft.to/lastmile_qr_scan", "ios": "https://dc.lft.to/lastmile_qr_scan"}, "fusion_lon": 0.0}, {"lat": 38.919478833333336, "is_disabled": 0, "type": "electric_scooter", "lon": -77.04148783333333, "bike_id": "cf05c6204a64b2177772c2acce29850d", "fusion_lat": 0.0, "name": "cf05c6204a64b2177772c2acce29850d", "is_reserved": 0, "rental_uris": {"android": "https://dc.lft.to/lastmile_qr_scan", "ios": "https://dc.lft.to/lastmile_qr_scan"}, "fusion_lon": 0.0}, {"lat": 38.905974666666665, "is_disabled": 0, "type": "electric_scooter", "lon": -77.0411255, "bike_id": "7aeeb10e2fec1341cc7170f791c86428", "fusion_lat": 0.0, "name": "7aeeb10e2fec1341cc7170f791c86428", "is_reserved": 0, "rental_uris": {"android": "https://dc.lft.to/lastmile_qr_scan", "ios": "https://dc.lft.to/lastmile_qr_scan"}, "fusion_lon": 0.0}, {"lat": 38.9247025, "is_disabled": 0, "type": "electric_scooter", "lon": -77.02724016666667, "bike_id": "93a069da6a57da1f13b82c3b8eee58af", "fusion_lat": 0.0, "name": "93a069da6a57da1f13b82c3b8eee58af", "is_reserved": 0, "rental_uris": {"android": "https://dc.lft.to/lastmile_qr_scan", "ios": "https://dc.lft.to/lastmile_qr_scan"}, "fusion_lon": 0.0}, {"lat": 38.908680333333336, "is_disabled": 0, "type": "electric_scooter", "lon": -77.04084583333334, "bike_id": "0ae702acae4fb8d7e3ecec19695fd824", "fusion_lat": 0.0, "name": "0ae702acae4fb8d7e3ecec19695fd824", "is_reserved": 0, "rental_uris": {"android": "https://dc.lft.to/lastmile_qr_scan", "ios": "https://dc.lft.to/lastmile_qr_scan"}, "fusion_lon": 0.0}, {"lat": 38.91480933333333, "is_disabled": 0, "type": "electric_scooter", "lon": -77.04097316666666, "bike_id": "b1cda4bd91775ac8d1b9c7c32b95dc4a", "fusion_lat": 0.0, "name": "b1cda4bd91775ac8d1b9c7c32b95dc4a", "is_reserved": 0, "rental_uris": {"android": "https://dc.lft.to/lastmile_qr_scan", "ios": "https://dc.lft.to/lastmile_qr_scan"}, "fusion_lon": 0.0}, {"lat": 38.855131, "is_disabled": 0, "type": "electric_bike", "lon": -76.9840875, "bike_id": "dc03596aa4dae0402643c5bc35e7dd26", "fusion_lat": 0.0, "name": "dc03596aa4dae0402643c5bc35e7dd26", "is_reserved": 0, "rental_uris": {"android": "https://dc.lft.to/lastmile_qr_scan", "ios": "https://dc.lft.to/lastmile_qr_scan"}, "fusion_lon": 0.0}, {"lat": 38.90725066666667, "is_disabled": 0, "type": "electric_scooter", "lon": -77.02378683333333, "bike_id": "75fc87eda278caaaf9c8ddba18c2cdb4", "fusion_lat": 0.0, "name": "75fc87eda278caaaf9c8ddba18c2cdb4", "is_reserved": 0, "rental_uris": {"android": "https://dc.lft.to/lastmile_qr_scan", "ios": "https://dc.lft.to/lastmile_qr_scan"}, "fusion_lon": 0.0}, {"lat": 38.892524333333334, "is_disabled": 0, "type": "electric_scooter", "lon": -77.02822366666666, "bike_id": "5e3dfcde4df80a5d0d254984f9364f53", "fusion_lat": 0.0, "name": "5e3dfcde4df80a5d0d254984f9364f53", "is_reserved": 0, "rental_uris": {"android": "https://dc.lft.to/lastmile_qr_scan", "ios": "https://dc.lft.to/lastmile_qr_scan"}, "fusion_lon": 0.0}, {"lat": 38.903701833333336, "is_disabled": 0, "type": "electric_scooter", "lon": -77.01869133333334, "bike_id": "337076f46568310f60c4c6d052d2504f", "fusion_lat": 0.0, "name": "337076f46568310f60c4c6d052d2504f", "is_reserved": 0, "rental_uris": {"android": "https://dc.lft.to/lastmile_qr_scan", "ios": "https://dc.lft.to/lastmile_qr_scan"}, "fusion_lon": 0.0}, {"lat": 38.884329666666666, "is_disabled": 0, "type": "electric_scooter", "lon": -76.95759066666666, "bike_id": "d5a05d2f7eb04a30ae9ac347a7a87ba2", "fusion_lat": 0.0, "name": "d5a05d2f7eb04a30ae9ac347a7a87ba2", "is_reserved": 0, "rental_uris": {"android": "https://dc.lft.to/lastmile_qr_scan", "ios": "https://dc.lft.to/lastmile_qr_scan"}, "fusion_lon": 0.0}, {"lat": 38.89807233333333, "is_disabled": 0, "type": "electric_scooter", "lon": -77.0320275, "bike_id": "0f62f4cf6f40f28a0a8d24b170137580", "fusion_lat": 0.0, "name": "0f62f4cf6f40f28a0a8d24b170137580", "is_reserved": 0, "rental_uris": {"android": "https://dc.lft.to/lastmile_qr_scan", "ios": "https://dc.lft.to/lastmile_qr_scan"}, "fusion_lon": 0.0}, {"lat": 38.89757133333333, "is_disabled": 0, "type": "electric_scooter", "lon": -76.94188283333334, "bike_id": "f2d7ceffb1ec1ea8eb6f3e5f72ae47ab", "fusion_lat": 0.0, "name": "f2d7ceffb1ec1ea8eb6f3e5f72ae47ab", "is_reserved": 0, "rental_uris": {"android": "https://dc.lft.to/lastmile_qr_scan", "ios": "https://dc.lft.to/lastmile_qr_scan"}, "fusion_lon": 0.0}, {"lat": 38.908560333333334, "is_disabled": 0, "type": "electric_scooter", "lon": -77.0463305, "bike_id": "f2db4cb61f13266653fca76b9a8beb25", "fusion_lat": 0.0, "name": "f2db4cb61f13266653fca76b9a8beb25", "is_reserved": 0, "rental_uris": {"android": "https://dc.lft.to/lastmile_qr_scan", "ios": "https://dc.lft.to/lastmile_qr_scan"}, "fusion_lon": 0.0}, {"lat": 38.89046783333333, "is_disabled": 0, "type": "electric_scooter", "lon": -76.937503, "bike_id": "76a925da42bf623b63e8e44bb72f812d", "fusion_lat": 0.0, "name": "76a925da42bf623b63e8e44bb72f812d", "is_reserved": 0, "rental_uris": {"android": "https://dc.lft.to/lastmile_qr_scan", "ios": "https://dc.lft.to/lastmile_qr_scan"}, "fusion_lon": 0.0}, {"lat": 38.92167833333333, "is_disabled": 0, "type": "electric_scooter", "lon": -77.0382805, "bike_id": "823a1d481eb8d266399d359e293842f6", "fusion_lat": 0.0, "name": "823a1d481eb8d266399d359e293842f6", "is_reserved": 0, "rental_uris": {"android": "https://dc.lft.to/lastmile_qr_scan", "ios": "https://dc.lft.to/lastmile_qr_scan"}, "fusion_lon": 0.0}, {"lat": 38.903379666666666, "is_disabled": 0, "type": "electric_scooter", "lon": -76.9705725, "bike_id": "b5282a1a30cfb87fdfec44219b9bc90b", "fusion_lat": 0.0, "name": "b5282a1a30cfb87fdfec44219b9bc90b", "is_reserved": 0, "rental_uris": {"android": "https://dc.lft.to/lastmile_qr_scan", "ios": "https://dc.lft.to/lastmile_qr_scan"}, "fusion_lon": 0.0}, {"lat": 38.892209666666666, "is_disabled": 0, "type": "electric_scooter", "lon": -77.048016, "bike_id": "711657722f12aae555fb7acd7396fa5f", "fusion_lat": 0.0, "name": "711657722f12aae555fb7acd7396fa5f", "is_reserved": 0, "rental_uris": {"android": "https://dc.lft.to/lastmile_qr_scan", "ios": "https://dc.lft.to/lastmile_qr_scan"}, "fusion_lon": 0.0}, {"lat": 38.8858435, "is_disabled": 0, "type": "electric_scooter", "lon": -77.00070783333334, "bike_id": "6cbfb9ff3ab5a8e5cf5aaa91e206bf75", "fusion_lat": 0.0, "name": "6cbfb9ff3ab5a8e5cf5aaa91e206bf75", "is_reserved": 0, "rental_uris": {"android": "https://dc.lft.to/lastmile_qr_scan", "ios": "https://dc.lft.to/lastmile_qr_scan"}, "fusion_lon": 0.0}, {"lat": 38.9614965, "is_disabled": 0, "type": "electric_bike", "lon": -77.032398, "bike_id": "cfc9923bec6bad25d7e59e8d4e966f62", "fusion_lat": 0.0, "name": "cfc9923bec6bad25d7e59e8d4e966f62", "is_reserved": 0, "rental_uris": {"android": "https://dc.lft.to/lastmile_qr_scan", "ios": "https://dc.lft.to/lastmile_qr_scan"}, "fusion_lon": 0.0}, {"lat": 38.894782, "is_disabled": 0, "type": "electric_scooter", "lon": -76.949605, "bike_id": "4886445a6d514b04cdb6e4f6b6211c70", "fusion_lat": 0.0, "name": "4886445a6d514b04cdb6e4f6b6211c70", "is_reserved": 0, "rental_uris": {"android": "https://dc.lft.to/lastmile_qr_scan", "ios": "https://dc.lft.to/lastmile_qr_scan"}, "fusion_lon": 0.0}, {"lat": 38.91988533333333, "is_disabled": 0, "type": "electric_scooter", "lon": -77.0240405, "bike_id": "baf014666af0f6e9c683affcd8e2d45f", "fusion_lat": 0.0, "name": "baf014666af0f6e9c683affcd8e2d45f", "is_reserved": 0, "rental_uris": {"android": "https://dc.lft.to/lastmile_qr_scan", "ios": "https://dc.lft.to/lastmile_qr_scan"}, "fusion_lon": 0.0}, {"lat": 38.9088275, "is_disabled": 0, "type": "electric_scooter", "lon": -77.0367235, "bike_id": "245c56ef20cc2b3bcf536b834059d5e9", "fusion_lat": 0.0, "name": "245c56ef20cc2b3bcf536b834059d5e9", "is_reserved": 0, "rental_uris": {"android": "https://dc.lft.to/lastmile_qr_scan", "ios": "https://dc.lft.to/lastmile_qr_scan"}, "fusion_lon": 0.0}, {"lat": 38.892166, "is_disabled": 0, "type": "electric_scooter", "lon": -77.0486455, "bike_id": "f3d6aa0acf852e300b23eade39b0c1b9", "fusion_lat": 0.0, "name": "f3d6aa0acf852e300b23eade39b0c1b9", "is_reserved": 0, "rental_uris": {"android": "https://dc.lft.to/lastmile_qr_scan", "ios": "https://dc.lft.to/lastmile_qr_scan"}, "fusion_lon": 0.0}, {"lat": 38.895576166666665, "is_disabled": 0, "type": "electric_scooter", "lon": -77.02937966666667, "bike_id": "b311fef587d928585f2046639287aea5", "fusion_lat": 0.0, "name": "b311fef587d928585f2046639287aea5", "is_reserved": 0, "rental_uris": {"android": "https://dc.lft.to/lastmile_qr_scan", "ios": "https://dc.lft.to/lastmile_qr_scan"}, "fusion_lon": 0.0}, {"lat": 38.92237766666667, "is_disabled": 0, "type": "electric_scooter", "lon": -77.02911433333334, "bike_id": "1f42e859766b625be76a2b49b60716fa", "fusion_lat": 0.0, "name": "1f42e859766b625be76a2b49b60716fa", "is_reserved": 0, "rental_uris": {"android": "https://dc.lft.to/lastmile_qr_scan", "ios": "https://dc.lft.to/lastmile_qr_scan"}, "fusion_lon": 0.0}, {"lat": 38.91256583333333, "is_disabled": 0, "type": "electric_scooter", "lon": -77.035025, "bike_id": "38ea25af6c96e64b5984f706c004a6a7", "fusion_lat": 0.0, "name": "38ea25af6c96e64b5984f706c004a6a7", "is_reserved": 0, "rental_uris": {"android": "https://dc.lft.to/lastmile_qr_scan", "ios": "https://dc.lft.to/lastmile_qr_scan"}, "fusion_lon": 0.0}, {"lat": 38.91813116666667, "is_disabled": 0, "type": "electric_scooter", "lon": -77.027819, "bike_id": "c5b9870b4773688be8f46f888f8dc8dc", "fusion_lat": 0.0, "name": "c5b9870b4773688be8f46f888f8dc8dc", "is_reserved": 0, "rental_uris": {"android": "https://dc.lft.to/lastmile_qr_scan", "ios": "https://dc.lft.to/lastmile_qr_scan"}, "fusion_lon": 0.0}, {"lat": 38.89859883333333, "is_disabled": 0, "type": "electric_scooter", "lon": -77.02948366666666, "bike_id": "a8e7437e841e75c1b731e63d416ea387", "fusion_lat": 0.0, "name": "a8e7437e841e75c1b731e63d416ea387", "is_reserved": 0, "rental_uris": {"android": "https://dc.lft.to/lastmile_qr_scan", "ios": "https://dc.lft.to/lastmile_qr_scan"}, "fusion_lon": 0.0}, {"lat": 38.91013616666667, "is_disabled": 0, "type": "electric_scooter", "lon": -76.99389516666666, "bike_id": "2643625d7820551f4a5c0976b41865cc", "fusion_lat": 0.0, "name": "2643625d7820551f4a5c0976b41865cc", "is_reserved": 0, "rental_uris": {"android": "https://dc.lft.to/lastmile_qr_scan", "ios": "https://dc.lft.to/lastmile_qr_scan"}, "fusion_lon": 0.0}, {"lat": 38.90139033333333, "is_disabled": 0, "type": "electric_scooter", "lon": -76.94153183333333, "bike_id": "12082a81c5731dc0c4cf798fb9eac531", "fusion_lat": 0.0, "name": "12082a81c5731dc0c4cf798fb9eac531", "is_reserved": 0, "rental_uris": {"android": "https://dc.lft.to/lastmile_qr_scan", "ios": "https://dc.lft.to/lastmile_qr_scan"}, "fusion_lon": 0.0}, {"lat": 38.86619866666667, "is_disabled": 0, "type": "electric_scooter", "lon": -76.98665133333333, "bike_id": "17df6b202bbd0729a4d4fbd5643f95f8", "fusion_lat": 0.0, "name": "17df6b202bbd0729a4d4fbd5643f95f8", "is_reserved": 0, "rental_uris": {"android": "https://dc.lft.to/lastmile_qr_scan", "ios": "https://dc.lft.to/lastmile_qr_scan"}, "fusion_lon": 0.0}, {"lat": 38.916764666666666, "is_disabled": 0, "type": "electric_scooter", "lon": -77.02958733333334, "bike_id": "b5b7fbf1edeedbf96bbfda619e4b239c", "fusion_lat": 0.0, "name": "b5b7fbf1edeedbf96bbfda619e4b239c", "is_reserved": 0, "rental_uris": {"android": "https://dc.lft.to/lastmile_qr_scan", "ios": "https://dc.lft.to/lastmile_qr_scan"}, "fusion_lon": 0.0}, {"lat": 38.935710666666665, "is_disabled": 0, "type": "electric_scooter", "lon": -77.03735766666667, "bike_id": "51826ebf3388000e084d2da27253551e", "fusion_lat": 0.0, "name": "51826ebf3388000e084d2da27253551e", "is_reserved": 0, "rental_uris": {"android": "https://dc.lft.to/lastmile_qr_scan", "ios": "https://dc.lft.to/lastmile_qr_scan"}, "fusion_lon": 0.0}, {"lat": 38.911842, "is_disabled": 0, "type": "electric_scooter", "lon": -77.03871183333334, "bike_id": "01b79dafe781dedbdb77ca12a7f8207b", "fusion_lat": 0.0, "name": "01b79dafe781dedbdb77ca12a7f8207b", "is_reserved": 0, "rental_uris": {"android": "https://dc.lft.to/lastmile_qr_scan", "ios": "https://dc.lft.to/lastmile_qr_scan"}, "fusion_lon": 0.0}, {"lat": 38.90960283333333, "is_disabled": 0, "type": "electric_scooter", "lon": -77.0463465, "bike_id": "1abd8093ddc76af71a0149c8c016a8bb", "fusion_lat": 0.0, "name": "1abd8093ddc76af71a0149c8c016a8bb", "is_reserved": 0, "rental_uris": {"android": "https://dc.lft.to/lastmile_qr_scan", "ios": "https://dc.lft.to/lastmile_qr_scan"}, "fusion_lon": 0.0}, {"lat": 38.860578333333336, "is_disabled": 0, "type": "electric_scooter", "lon": -76.9851025, "bike_id": "75328a44e80a129acc1181c4d6e1ac7c", "fusion_lat": 0.0, "name": "75328a44e80a129acc1181c4d6e1ac7c", "is_reserved": 0, "rental_uris": {"android": "https://dc.lft.to/lastmile_qr_scan", "ios": "https://dc.lft.to/lastmile_qr_scan"}, "fusion_lon": 0.0}, {"lat": 38.842919, "is_disabled": 0, "type": "electric_scooter", "lon": -76.999503, "bike_id": "638ead8a8e7dd9530c5a1de1d5068484", "fusion_lat": 0.0, "name": "638ead8a8e7dd9530c5a1de1d5068484", "is_reserved": 0, "rental_uris": {"android": "https://dc.lft.to/lastmile_qr_scan", "ios": "https://dc.lft.to/lastmile_qr_scan"}, "fusion_lon": 0.0}, {"lat": 38.904518833333334, "is_disabled": 0, "type": "electric_scooter", "lon": -77.02724316666666, "bike_id": "a81ff08c1cbc6fc161d646e155afbc6e", "fusion_lat": 0.0, "name": "a81ff08c1cbc6fc161d646e155afbc6e", "is_reserved": 0, "rental_uris": {"android": "https://dc.lft.to/lastmile_qr_scan", "ios": "https://dc.lft.to/lastmile_qr_scan"}, "fusion_lon": 0.0}, {"lat": 38.91867366666666, "is_disabled": 0, "type": "electric_scooter", "lon": -77.02183466666666, "bike_id": "fe7bb860b68d2585274bf7a4165e259c", "fusion_lat": 0.0, "name": "fe7bb860b68d2585274bf7a4165e259c", "is_reserved": 0, "rental_uris": {"android": "https://dc.lft.to/lastmile_qr_scan", "ios": "https://dc.lft.to/lastmile_qr_scan"}, "fusion_lon": 0.0}, {"lat": 38.916972, "is_disabled": 0, "type": "electric_scooter", "lon": -77.02280633333334, "bike_id": "34d0ddba143665068bca7c9f000173dd", "fusion_lat": 0.0, "name": "34d0ddba143665068bca7c9f000173dd", "is_reserved": 0, "rental_uris": {"android": "https://dc.lft.to/lastmile_qr_scan", "ios": "https://dc.lft.to/lastmile_qr_scan"}, "fusion_lon": 0.0}, {"lat": 38.931702, "is_disabled": 0, "type": "electric_scooter", "lon": -77.02818216666667, "bike_id": "de39790442edbb07c61ec58c9973f84c", "fusion_lat": 0.0, "name": "de39790442edbb07c61ec58c9973f84c", "is_reserved": 0, "rental_uris": {"android": "https://dc.lft.to/lastmile_qr_scan", "ios": "https://dc.lft.to/lastmile_qr_scan"}, "fusion_lon": 0.0}, {"lat": 38.916367666666666, "is_disabled": 0, "type": "electric_scooter", "lon": -77.039875, "bike_id": "4c5525b609248327c92957cb06ef2c5e", "fusion_lat": 0.0, "name": "4c5525b609248327c92957cb06ef2c5e", "is_reserved": 0, "rental_uris": {"android": "https://dc.lft.to/lastmile_qr_scan", "ios": "https://dc.lft.to/lastmile_qr_scan"}, "fusion_lon": 0.0}, {"lat": 38.898926, "is_disabled": 0, "type": "electric_scooter", "lon": -77.04065066666666, "bike_id": "c8ef70f580250b2979d832739ea6335d", "fusion_lat": 0.0, "name": "c8ef70f580250b2979d832739ea6335d", "is_reserved": 0, "rental_uris": {"android": "https://dc.lft.to/lastmile_qr_scan", "ios": "https://dc.lft.to/lastmile_qr_scan"}, "fusion_lon": 0.0}, {"lat": 38.87624616666667, "is_disabled": 0, "type": "electric_scooter", "lon": -76.965275, "bike_id": "1ae2425e290766a0914c1c90eabee7db", "fusion_lat": 0.0, "name": "1ae2425e290766a0914c1c90eabee7db", "is_reserved": 0, "rental_uris": {"android": "https://dc.lft.to/lastmile_qr_scan", "ios": "https://dc.lft.to/lastmile_qr_scan"}, "fusion_lon": 0.0}, {"lat": 38.940984666666665, "is_disabled": 0, "type": "electric_scooter", "lon": -77.03280716666667, "bike_id": "d10b45309ea5365c95a9055feea4e85d", "fusion_lat": 0.0, "name": "d10b45309ea5365c95a9055feea4e85d", "is_reserved": 0, "rental_uris": {"android": "https://dc.lft.to/lastmile_qr_scan", "ios": "https://dc.lft.to/lastmile_qr_scan"}, "fusion_lon": 0.0}, {"lat": 38.90720783333333, "is_disabled": 0, "type": "electric_scooter", "lon": -77.0478155, "bike_id": "50a70baf4cb84f89f555f51fae383892", "fusion_lat": 0.0, "name": "50a70baf4cb84f89f555f51fae383892", "is_reserved": 0, "rental_uris": {"android": "https://dc.lft.to/lastmile_qr_scan", "ios": "https://dc.lft.to/lastmile_qr_scan"}, "fusion_lon": 0.0}, {"lat": 38.911345, "is_disabled": 0, "type": "electric_bike", "lon": -77.06570783333333, "bike_id": "e8b4294ab61150946ffd173590e6aec3", "fusion_lat": 0.0, "name": "e8b4294ab61150946ffd173590e6aec3", "is_reserved": 0, "rental_uris": {"android": "https://dc.lft.to/lastmile_qr_scan", "ios": "https://dc.lft.to/lastmile_qr_scan"}, "fusion_lon": 0.0}, {"lat": 38.892314, "is_disabled": 0, "type": "electric_scooter", "lon": -77.05002966666666, "bike_id": "02f5fe04b724cf22f36905a476de8370", "fusion_lat": 0.0, "name": "02f5fe04b724cf22f36905a476de8370", "is_reserved": 0, "rental_uris": {"android": "https://dc.lft.to/lastmile_qr_scan", "ios": "https://dc.lft.to/lastmile_qr_scan"}, "fusion_lon": 0.0}, {"lat": 38.918511333333335, "is_disabled": 0, "type": "electric_scooter", "lon": -77.04503416666667, "bike_id": "92a7970be920cc61e74f935e9c3b1b84", "fusion_lat": 0.0, "name": "92a7970be920cc61e74f935e9c3b1b84", "is_reserved": 0, "rental_uris": {"android": "https://dc.lft.to/lastmile_qr_scan", "ios": "https://dc.lft.to/lastmile_qr_scan"}, "fusion_lon": 0.0}, {"lat": 38.89769183333333, "is_disabled": 0, "type": "electric_scooter", "lon": -77.03204283333334, "bike_id": "1cc9e6268f185a9832efe52cabca37d1", "fusion_lat": 0.0, "name": "1cc9e6268f185a9832efe52cabca37d1", "is_reserved": 0, "rental_uris": {"android": "https://dc.lft.to/lastmile_qr_scan", "ios": "https://dc.lft.to/lastmile_qr_scan"}, "fusion_lon": 0.0}, {"lat": 38.84426583333333, "is_disabled": 0, "type": "electric_scooter", "lon": -76.997754, "bike_id": "fdd1d9752d1f9ef12ac7b6f49dd1ab5b", "fusion_lat": 0.0, "name": "fdd1d9752d1f9ef12ac7b6f49dd1ab5b", "is_reserved": 0, "rental_uris": {"android": "https://dc.lft.to/lastmile_qr_scan", "ios": "https://dc.lft.to/lastmile_qr_scan"}, "fusion_lon": 0.0}, {"lat": 38.90950983333333, "is_disabled": 0, "type": "electric_scooter", "lon": -77.044755, "bike_id": "8eb24b89d9ff2da4a8c1b87a42c99196", "fusion_lat": 0.0, "name": "8eb24b89d9ff2da4a8c1b87a42c99196", "is_reserved": 0, "rental_uris": {"android": "https://dc.lft.to/lastmile_qr_scan", "ios": "https://dc.lft.to/lastmile_qr_scan"}, "fusion_lon": 0.0}, {"lat": 38.9732425, "is_disabled": 0, "type": "electric_bike", "lon": -77.02155533333334, "bike_id": "e8479afa8ab933d16e2b0382eeacec64", "fusion_lat": 0.0, "name": "e8479afa8ab933d16e2b0382eeacec64", "is_reserved": 0, "rental_uris": {"android": "https://dc.lft.to/lastmile_qr_scan", "ios": "https://dc.lft.to/lastmile_qr_scan"}, "fusion_lon": 0.0}, {"lat": 38.945538, "is_disabled": 0, "type": "electric_bike", "lon": -76.89539516666666, "bike_id": "2ef3e1b5bb2b0254b58dfcc733205253", "fusion_lat": 0.0, "name": "2ef3e1b5bb2b0254b58dfcc733205253", "is_reserved": 0, "rental_uris": {"android": "https://dc.lft.to/lastmile_qr_scan", "ios": "https://dc.lft.to/lastmile_qr_scan"}, "fusion_lon": 0.0}, {"lat": 38.93533133333333, "is_disabled": 0, "type": "electric_scooter", "lon": -77.02354183333334, "bike_id": "84019c6fc0532650f1bce64895af33d5", "fusion_lat": 0.0, "name": "84019c6fc0532650f1bce64895af33d5", "is_reserved": 0, "rental_uris": {"android": "https://dc.lft.to/lastmile_qr_scan", "ios": "https://dc.lft.to/lastmile_qr_scan"}, "fusion_lon": 0.0}, {"lat": 38.917084, "is_disabled": 0, "type": "electric_scooter", "lon": -77.02624616666667, "bike_id": "23aaac33abd994e162d2855f85581eda", "fusion_lat": 0.0, "name": "23aaac33abd994e162d2855f85581eda", "is_reserved": 0, "rental_uris": {"android": "https://dc.lft.to/lastmile_qr_scan", "ios": "https://dc.lft.to/lastmile_qr_scan"}, "fusion_lon": 0.0}, {"lat": 38.907040333333335, "is_disabled": 0, "type": "electric_scooter", "lon": -77.03453933333333, "bike_id": "5fbd9d4dd2d205c432dc7172c04476ef", "fusion_lat": 0.0, "name": "5fbd9d4dd2d205c432dc7172c04476ef", "is_reserved": 0, "rental_uris": {"android": "https://dc.lft.to/lastmile_qr_scan", "ios": "https://dc.lft.to/lastmile_qr_scan"}, "fusion_lon": 0.0}, {"lat": 38.8706355, "is_disabled": 0, "type": "electric_scooter", "lon": -77.0083925, "bike_id": "10771bebc3d0a0f3d8723d65b50c7f29", "fusion_lat": 0.0, "name": "10771bebc3d0a0f3d8723d65b50c7f29", "is_reserved": 0, "rental_uris": {"android": "https://dc.lft.to/lastmile_qr_scan", "ios": "https://dc.lft.to/lastmile_qr_scan"}, "fusion_lon": 0.0}, {"lat": 38.908773833333335, "is_disabled": 0, "type": "electric_scooter", "lon": -77.04365933333334, "bike_id": "db58a6304b93bfb14d818a8d49e8e827", "fusion_lat": 0.0, "name": "db58a6304b93bfb14d818a8d49e8e827", "is_reserved": 0, "rental_uris": {"android": "https://dc.lft.to/lastmile_qr_scan", "ios": "https://dc.lft.to/lastmile_qr_scan"}, "fusion_lon": 0.0}, {"lat": 38.911130166666666, "is_disabled": 0, "type": "electric_scooter", "lon": -77.0437075, "bike_id": "8c45feec014a36be9a7a9447e304fc69", "fusion_lat": 0.0, "name": "8c45feec014a36be9a7a9447e304fc69", "is_reserved": 0, "rental_uris": {"android": "https://dc.lft.to/lastmile_qr_scan", "ios": "https://dc.lft.to/lastmile_qr_scan"}, "fusion_lon": 0.0}, {"lat": 38.897162, "is_disabled": 0, "type": "electric_scooter", "lon": -77.03089283333334, "bike_id": "a41953c22fae7da537090228201d5af9", "fusion_lat": 0.0, "name": "a41953c22fae7da537090228201d5af9", "is_reserved": 0, "rental_uris": {"android": "https://dc.lft.to/lastmile_qr_scan", "ios": "https://dc.lft.to/lastmile_qr_scan"}, "fusion_lon": 0.0}, {"lat": 38.90569, "is_disabled": 0, "type": "electric_scooter", "lon": -77.06274216666667, "bike_id": "5787eb991ec17c17a36f43a72e9eceeb", "fusion_lat": 0.0, "name": "5787eb991ec17c17a36f43a72e9eceeb", "is_reserved": 0, "rental_uris": {"android": "https://dc.lft.to/lastmile_qr_scan", "ios": "https://dc.lft.to/lastmile_qr_scan"}, "fusion_lon": 0.0}, {"lat": 38.90954333333333, "is_disabled": 0, "type": "electric_scooter", "lon": -77.02381616666666, "bike_id": "4a6659dd4dbfb64b94006b9b9330661e", "fusion_lat": 0.0, "name": "4a6659dd4dbfb64b94006b9b9330661e", "is_reserved": 0, "rental_uris": {"android": "https://dc.lft.to/lastmile_qr_scan", "ios": "https://dc.lft.to/lastmile_qr_scan"}, "fusion_lon": 0.0}, {"lat": 38.92508983333333, "is_disabled": 0, "type": "electric_scooter", "lon": -77.03880116666667, "bike_id": "b2d37008729ed189c5b593b191fba190", "fusion_lat": 0.0, "name": "b2d37008729ed189c5b593b191fba190", "is_reserved": 0, "rental_uris": {"android": "https://dc.lft.to/lastmile_qr_scan", "ios": "https://dc.lft.to/lastmile_qr_scan"}, "fusion_lon": 0.0}, {"lat": 38.921667666666664, "is_disabled": 0, "type": "electric_scooter", "lon": -77.0323575, "bike_id": "e26369f5d529a0d74ead95f8a13e9fab", "fusion_lat": 0.0, "name": "e26369f5d529a0d74ead95f8a13e9fab", "is_reserved": 0, "rental_uris": {"android": "https://dc.lft.to/lastmile_qr_scan", "ios": "https://dc.lft.to/lastmile_qr_scan"}, "fusion_lon": 0.0}, {"lat": 38.93659866666667, "is_disabled": 0, "type": "electric_bike", "lon": -76.95220066666667, "bike_id": "85941d8e6e40545238682447e36883fc", "fusion_lat": 0.0, "name": "85941d8e6e40545238682447e36883fc", "is_reserved": 0, "rental_uris": {"android": "https://dc.lft.to/lastmile_qr_scan", "ios": "https://dc.lft.to/lastmile_qr_scan"}, "fusion_lon": 0.0}, {"lat": 38.88093283333333, "is_disabled": 0, "type": "electric_scooter", "lon": -76.99252016666667, "bike_id": "d7fcba3e9d899ce2e1c2e69ae9b96360", "fusion_lat": 0.0, "name": "d7fcba3e9d899ce2e1c2e69ae9b96360", "is_reserved": 0, "rental_uris": {"android": "https://dc.lft.to/lastmile_qr_scan", "ios": "https://dc.lft.to/lastmile_qr_scan"}, "fusion_lon": 0.0}, {"lat": 39.02929566666667, "is_disabled": 0, "type": "electric_bike", "lon": -77.0493365, "bike_id": "c09c6c8bcd504c212979475949868fb7", "fusion_lat": 0.0, "name": "c09c6c8bcd504c212979475949868fb7", "is_reserved": 0, "rental_uris": {"android": "https://dc.lft.to/lastmile_qr_scan", "ios": "https://dc.lft.to/lastmile_qr_scan"}, "fusion_lon": 0.0}, {"lat": 38.882085000000004, "is_disabled": 0, "type": "electric_scooter", "lon": -76.989218, "bike_id": "9098be51f163272833612162f03d9ac7", "fusion_lat": 0.0, "name": "9098be51f163272833612162f03d9ac7", "is_reserved": 0, "rental_uris": {"android": "https://dc.lft.to/lastmile_qr_scan", "ios": "https://dc.lft.to/lastmile_qr_scan"}, "fusion_lon": 0.0}, {"lat": 38.91995033333333, "is_disabled": 0, "type": "electric_scooter", "lon": -76.97314066666667, "bike_id": "6a7443e040650f20eb24cb2317b4a2f9", "fusion_lat": 0.0, "name": "6a7443e040650f20eb24cb2317b4a2f9", "is_reserved": 0, "rental_uris": {"android": "https://dc.lft.to/lastmile_qr_scan", "ios": "https://dc.lft.to/lastmile_qr_scan"}, "fusion_lon": 0.0}, {"lat": 38.9149275, "is_disabled": 0, "type": "electric_scooter", "lon": -77.01861433333333, "bike_id": "9d91ca87f6cc0abea03a0dc7c921bd49", "fusion_lat": 0.0, "name": "9d91ca87f6cc0abea03a0dc7c921bd49", "is_reserved": 0, "rental_uris": {"android": "https://dc.lft.to/lastmile_qr_scan", "ios": "https://dc.lft.to/lastmile_qr_scan"}, "fusion_lon": 0.0}, {"lat": 38.956438, "is_disabled": 0, "type": "electric_scooter", "lon": -76.99793366666667, "bike_id": "e5bc6e209f8955fda6a9d2a02eba5c48", "fusion_lat": 0.0, "name": "e5bc6e209f8955fda6a9d2a02eba5c48", "is_reserved": 0, "rental_uris": {"android": "https://dc.lft.to/lastmile_qr_scan", "ios": "https://dc.lft.to/lastmile_qr_scan"}, "fusion_lon": 0.0}, {"lat": 38.917167, "is_disabled": 0, "type": "electric_scooter", "lon": -77.0319385, "bike_id": "903844a7dc96d92cad92b43eb4bcec03", "fusion_lat": 0.0, "name": "903844a7dc96d92cad92b43eb4bcec03", "is_reserved": 0, "rental_uris": {"android": "https://dc.lft.to/lastmile_qr_scan", "ios": "https://dc.lft.to/lastmile_qr_scan"}, "fusion_lon": 0.0}, {"lat": 38.95404583333333, "is_disabled": 0, "type": "electric_scooter", "lon": -77.02753633333333, "bike_id": "3cbe85a0dcce11ac515d48b711624a19", "fusion_lat": 0.0, "name": "3cbe85a0dcce11ac515d48b711624a19", "is_reserved": 0, "rental_uris": {"android": "https://dc.lft.to/lastmile_qr_scan", "ios": "https://dc.lft.to/lastmile_qr_scan"}, "fusion_lon": 0.0}, {"lat": 38.960231666666665, "is_disabled": 0, "type": "electric_bike", "lon": -77.01733333333334, "bike_id": "781620f1467c016a83ea68a665d0459f", "fusion_lat": 0.0, "name": "781620f1467c016a83ea68a665d0459f", "is_reserved": 0, "rental_uris": {"android": "https://dc.lft.to/lastmile_qr_scan", "ios": "https://dc.lft.to/lastmile_qr_scan"}, "fusion_lon": 0.0}, {"lat": 38.91893266666666, "is_disabled": 0, "type": "electric_scooter", "lon": -77.0415615, "bike_id": "ad685e9fae88bc3e8e632dc84a8cfe86", "fusion_lat": 0.0, "name": "ad685e9fae88bc3e8e632dc84a8cfe86", "is_reserved": 0, "rental_uris": {"android": "https://dc.lft.to/lastmile_qr_scan", "ios": "https://dc.lft.to/lastmile_qr_scan"}, "fusion_lon": 0.0}, {"lat": 38.87575783333333, "is_disabled": 0, "type": "electric_scooter", "lon": -77.01332316666667, "bike_id": "1d10c057b2a2d90c82a8efc09c703f02", "fusion_lat": 0.0, "name": "1d10c057b2a2d90c82a8efc09c703f02", "is_reserved": 0, "rental_uris": {"android": "https://dc.lft.to/lastmile_qr_scan", "ios": "https://dc.lft.to/lastmile_qr_scan"}, "fusion_lon": 0.0}, {"lat": 38.90862166666667, "is_disabled": 0, "type": "electric_bike", "lon": -77.08082533333334, "bike_id": "1d1ea454cf4b6017862b581afe1a9182", "fusion_lat": 0.0, "name": "1d1ea454cf4b6017862b581afe1a9182", "is_reserved": 0, "rental_uris": {"android": "https://dc.lft.to/lastmile_qr_scan", "ios": "https://dc.lft.to/lastmile_qr_scan"}, "fusion_lon": 0.0}, {"lat": 38.88471583333333, "is_disabled": 0, "type": "electric_scooter", "lon": -76.99263366666666, "bike_id": "e0527b897bd68c22e9d879daadcfa238", "fusion_lat": 0.0, "name": "e0527b897bd68c22e9d879daadcfa238", "is_reserved": 0, "rental_uris": {"android": "https://dc.lft.to/lastmile_qr_scan", "ios": "https://dc.lft.to/lastmile_qr_scan"}, "fusion_lon": 0.0}, {"lat": 38.950720833333335, "is_disabled": 0, "type": "electric_scooter", "lon": -77.0087255, "bike_id": "32af32277c09c9dffa1ff25929810339", "fusion_lat": 0.0, "name": "32af32277c09c9dffa1ff25929810339", "is_reserved": 0, "rental_uris": {"android": "https://dc.lft.to/lastmile_qr_scan", "ios": "https://dc.lft.to/lastmile_qr_scan"}, "fusion_lon": 0.0}, {"lat": 38.9166425, "is_disabled": 0, "type": "electric_scooter", "lon": -77.02966016666667, "bike_id": "b5e59ef2aea91819a49cd2f3d3eb3123", "fusion_lat": 0.0, "name": "b5e59ef2aea91819a49cd2f3d3eb3123", "is_reserved": 0, "rental_uris": {"android": "https://dc.lft.to/lastmile_qr_scan", "ios": "https://dc.lft.to/lastmile_qr_scan"}, "fusion_lon": 0.0}, {"lat": 38.9111585, "is_disabled": 0, "type": "electric_scooter", "lon": -77.03134116666666, "bike_id": "77652911074b371c1ba06c12c3168a12", "fusion_lat": 0.0, "name": "77652911074b371c1ba06c12c3168a12", "is_reserved": 0, "rental_uris": {"android": "https://dc.lft.to/lastmile_qr_scan", "ios": "https://dc.lft.to/lastmile_qr_scan"}, "fusion_lon": 0.0}, {"lat": 38.892449166666665, "is_disabled": 0, "type": "electric_scooter", "lon": -77.028032, "bike_id": "9e4e2ab3e0a9c2a4f0b2ee977f9fbced", "fusion_lat": 0.0, "name": "9e4e2ab3e0a9c2a4f0b2ee977f9fbced", "is_reserved": 0, "rental_uris": {"android": "https://dc.lft.to/lastmile_qr_scan", "ios": "https://dc.lft.to/lastmile_qr_scan"}, "fusion_lon": 0.0}, {"lat": 38.900376, "is_disabled": 0, "type": "electric_scooter", "lon": -76.98835933333334, "bike_id": "13bfed455a211c225e54e0e15b12af7b", "fusion_lat": 0.0, "name": "13bfed455a211c225e54e0e15b12af7b", "is_reserved": 0, "rental_uris": {"android": "https://dc.lft.to/lastmile_qr_scan", "ios": "https://dc.lft.to/lastmile_qr_scan"}, "fusion_lon": 0.0}, {"lat": 38.921182, "is_disabled": 0, "type": "electric_scooter", "lon": -77.03207783333333, "bike_id": "e77585c5368cfcb8f879bdc25e008434", "fusion_lat": 0.0, "name": "e77585c5368cfcb8f879bdc25e008434", "is_reserved": 0, "rental_uris": {"android": "https://dc.lft.to/lastmile_qr_scan", "ios": "https://dc.lft.to/lastmile_qr_scan"}, "fusion_lon": 0.0}, {"lat": 38.914722, "is_disabled": 0, "type": "electric_scooter", "lon": -77.03184216666666, "bike_id": "2c10435403e72d749f80f43604aaaf8b", "fusion_lat": 0.0, "name": "2c10435403e72d749f80f43604aaaf8b", "is_reserved": 0, "rental_uris": {"android": "https://dc.lft.to/lastmile_qr_scan", "ios": "https://dc.lft.to/lastmile_qr_scan"}, "fusion_lon": 0.0}, {"lat": 38.866276, "is_disabled": 0, "type": "electric_scooter", "lon": -76.98716633333333, "bike_id": "3caa5dbb80e914c1aa6887af4ca89a25", "fusion_lat": 0.0, "name": "3caa5dbb80e914c1aa6887af4ca89a25", "is_reserved": 0, "rental_uris": {"android": "https://dc.lft.to/lastmile_qr_scan", "ios": "https://dc.lft.to/lastmile_qr_scan"}, "fusion_lon": 0.0}, {"lat": 38.885147833333335, "is_disabled": 0, "type": "electric_scooter", "lon": -77.00278416666667, "bike_id": "f68adfa919255820e19c570c10ed1061", "fusion_lat": 0.0, "name": "f68adfa919255820e19c570c10ed1061", "is_reserved": 0, "rental_uris": {"android": "https://dc.lft.to/lastmile_qr_scan", "ios": "https://dc.lft.to/lastmile_qr_scan"}, "fusion_lon": 0.0}, {"lat": 38.899933833333336, "is_disabled": 0, "type": "electric_scooter", "lon": -77.05093216666667, "bike_id": "43c55f417c8384c7db766e41e150bc3e", "fusion_lat": 0.0, "name": "43c55f417c8384c7db766e41e150bc3e", "is_reserved": 0, "rental_uris": {"android": "https://dc.lft.to/lastmile_qr_scan", "ios": "https://dc.lft.to/lastmile_qr_scan"}, "fusion_lon": 0.0}, {"lat": 38.905339166666664, "is_disabled": 0, "type": "electric_scooter", "lon": -77.05677666666666, "bike_id": "83ed96cd3d55acd7a9bbc763d1772e3a", "fusion_lat": 0.0, "name": "83ed96cd3d55acd7a9bbc763d1772e3a", "is_reserved": 0, "rental_uris": {"android": "https://dc.lft.to/lastmile_qr_scan", "ios": "https://dc.lft.to/lastmile_qr_scan"}, "fusion_lon": 0.0}, {"lat": 38.9290895, "is_disabled": 0, "type": "electric_scooter", "lon": -77.0641765, "bike_id": "2c19586a2db361c5151b615b3904577f", "fusion_lat": 0.0, "name": "2c19586a2db361c5151b615b3904577f", "is_reserved": 0, "rental_uris": {"android": "https://dc.lft.to/lastmile_qr_scan", "ios": "https://dc.lft.to/lastmile_qr_scan"}, "fusion_lon": 0.0}, {"lat": 38.805152166666666, "is_disabled": 0, "type": "electric_bike", "lon": -77.03964033333334, "bike_id": "0704f4ae990075c402252d2ef70276b2", "fusion_lat": 0.0, "name": "0704f4ae990075c402252d2ef70276b2", "is_reserved": 0, "rental_uris": {"android": "https://dc.lft.to/lastmile_qr_scan", "ios": "https://dc.lft.to/lastmile_qr_scan"}, "fusion_lon": 0.0}, {"lat": 38.897729, "is_disabled": 0, "type": "electric_bike", "lon": -76.904377, "bike_id": "0f9ba9eb3d4b33508f523ee57276b52d", "fusion_lat": 0.0, "name": "0f9ba9eb3d4b33508f523ee57276b52d", "is_reserved": 0, "rental_uris": {"android": "https://dc.lft.to/lastmile_qr_scan", "ios": "https://dc.lft.to/lastmile_qr_scan"}, "fusion_lon": 0.0}, {"lat": 38.95635566666667, "is_disabled": 0, "type": "electric_bike", "lon": -76.93892733333334, "bike_id": "a7238288052710e1550d87b9a8fbb456", "fusion_lat": 0.0, "name": "a7238288052710e1550d87b9a8fbb456", "is_reserved": 0, "rental_uris": {"android": "https://dc.lft.to/lastmile_qr_scan", "ios": "https://dc.lft.to/lastmile_qr_scan"}, "fusion_lon": 0.0}, {"lat": 38.8427405, "is_disabled": 0, "type": "electric_bike", "lon": -76.98843183333334, "bike_id": "6fbae726301e60977432c6acbfc484c0", "fusion_lat": 0.0, "name": "6fbae726301e60977432c6acbfc484c0", "is_reserved": 0, "rental_uris": {"android": "https://dc.lft.to/lastmile_qr_scan", "ios": "https://dc.lft.to/lastmile_qr_scan"}, "fusion_lon": 0.0}, {"lat": 38.88504366666667, "is_disabled": 0, "type": "electric_scooter", "lon": -77.00568716666666, "bike_id": "3f4b052305dc7bd48fcc3790a4690fec", "fusion_lat": 0.0, "name": "3f4b052305dc7bd48fcc3790a4690fec", "is_reserved": 0, "rental_uris": {"android": "https://dc.lft.to/lastmile_qr_scan", "ios": "https://dc.lft.to/lastmile_qr_scan"}, "fusion_lon": 0.0}, {"lat": 38.90135316666667, "is_disabled": 0, "type": "electric_scooter", "lon": -77.00071866666667, "bike_id": "c111c4de2fbebcf549648ee03298c36d", "fusion_lat": 0.0, "name": "c111c4de2fbebcf549648ee03298c36d", "is_reserved": 0, "rental_uris": {"android": "https://dc.lft.to/lastmile_qr_scan", "ios": "https://dc.lft.to/lastmile_qr_scan"}, "fusion_lon": 0.0}, {"lat": 38.944315333333336, "is_disabled": 0, "type": "electric_scooter", "lon": -77.063053, "bike_id": "2f8625998ffee96be220eddc0391bd17", "fusion_lat": 0.0, "name": "2f8625998ffee96be220eddc0391bd17", "is_reserved": 0, "rental_uris": {"android": "https://dc.lft.to/lastmile_qr_scan", "ios": "https://dc.lft.to/lastmile_qr_scan"}, "fusion_lon": 0.0}, {"lat": 38.905381166666665, "is_disabled": 0, "type": "electric_scooter", "lon": -77.060963, "bike_id": "7d512c3df21022da40f7e65348041416", "fusion_lat": 0.0, "name": "7d512c3df21022da40f7e65348041416", "is_reserved": 0, "rental_uris": {"android": "https://dc.lft.to/lastmile_qr_scan", "ios": "https://dc.lft.to/lastmile_qr_scan"}, "fusion_lon": 0.0}, {"lat": 38.898934, "is_disabled": 0, "type": "electric_scooter", "lon": -77.03350583333334, "bike_id": "70c7c482a52dddfb4de2a29463fd1026", "fusion_lat": 0.0, "name": "70c7c482a52dddfb4de2a29463fd1026", "is_reserved": 0, "rental_uris": {"android": "https://dc.lft.to/lastmile_qr_scan", "ios": "https://dc.lft.to/lastmile_qr_scan"}, "fusion_lon": 0.0}, {"lat": 38.898374, "is_disabled": 0, "type": "electric_scooter", "lon": -76.931042, "bike_id": "3724af6c6d6a85353d352bab9416d96f", "fusion_lat": 0.0, "name": "3724af6c6d6a85353d352bab9416d96f", "is_reserved": 0, "rental_uris": {"android": "https://dc.lft.to/lastmile_qr_scan", "ios": "https://dc.lft.to/lastmile_qr_scan"}, "fusion_lon": 0.0}, {"lat": 38.9311515, "is_disabled": 0, "type": "electric_scooter", "lon": -77.02348216666667, "bike_id": "e08ec8d7ae2c926b3b52ac0f9dbe9449", "fusion_lat": 0.0, "name": "e08ec8d7ae2c926b3b52ac0f9dbe9449", "is_reserved": 0, "rental_uris": {"android": "https://dc.lft.to/lastmile_qr_scan", "ios": "https://dc.lft.to/lastmile_qr_scan"}, "fusion_lon": 0.0}, {"lat": 38.9257185, "is_disabled": 0, "type": "electric_scooter", "lon": -76.97009433333334, "bike_id": "b468a0c284adaa584296abc4402ed693", "fusion_lat": 0.0, "name": "b468a0c284adaa584296abc4402ed693", "is_reserved": 0, "rental_uris": {"android": "https://dc.lft.to/lastmile_qr_scan", "ios": "https://dc.lft.to/lastmile_qr_scan"}, "fusion_lon": 0.0}, {"lat": 38.937333833333334, "is_disabled": 0, "type": "electric_scooter", "lon": -77.03263816666667, "bike_id": "9085598a4b97f4a23763212e6f0767eb", "fusion_lat": 0.0, "name": "9085598a4b97f4a23763212e6f0767eb", "is_reserved": 0, "rental_uris": {"android": "https://dc.lft.to/lastmile_qr_scan", "ios": "https://dc.lft.to/lastmile_qr_scan"}, "fusion_lon": 0.0}, {"lat": 38.96602716666666, "is_disabled": 0, "type": "electric_bike", "lon": -76.98330833333333, "bike_id": "0f07fe5e7fc7fb7870f204f7d5f5b870", "fusion_lat": 0.0, "name": "0f07fe5e7fc7fb7870f204f7d5f5b870", "is_reserved": 0, "rental_uris": {"android": "https://dc.lft.to/lastmile_qr_scan", "ios": "https://dc.lft.to/lastmile_qr_scan"}, "fusion_lon": 0.0}, {"lat": 38.938227166666664, "is_disabled": 0, "type": "electric_scooter", "lon": -77.06046083333334, "bike_id": "b77a7ea51a6e64d6297fe3408193b42f", "fusion_lat": 0.0, "name": "b77a7ea51a6e64d6297fe3408193b42f", "is_reserved": 0, "rental_uris": {"android": "https://dc.lft.to/lastmile_qr_scan", "ios": "https://dc.lft.to/lastmile_qr_scan"}, "fusion_lon": 0.0}, {"lat": 38.8924885, "is_disabled": 0, "type": "electric_scooter", "lon": -77.0487245, "bike_id": "8052e5a67b9e426b42e565b3004104c3", "fusion_lat": 0.0, "name": "8052e5a67b9e426b42e565b3004104c3", "is_reserved": 0, "rental_uris": {"android": "https://dc.lft.to/lastmile_qr_scan", "ios": "https://dc.lft.to/lastmile_qr_scan"}, "fusion_lon": 0.0}, {"lat": 38.90676116666667, "is_disabled": 0, "type": "electric_scooter", "lon": -77.037756, "bike_id": "8c7283821bdf9910248a432e919b9827", "fusion_lat": 0.0, "name": "8c7283821bdf9910248a432e919b9827", "is_reserved": 0, "rental_uris": {"android": "https://dc.lft.to/lastmile_qr_scan", "ios": "https://dc.lft.to/lastmile_qr_scan"}, "fusion_lon": 0.0}, {"lat": 38.92039283333333, "is_disabled": 0, "type": "electric_scooter", "lon": -77.02622516666666, "bike_id": "5e51249b6c327e91fe05de3bd2d1b684", "fusion_lat": 0.0, "name": "5e51249b6c327e91fe05de3bd2d1b684", "is_reserved": 0, "rental_uris": {"android": "https://dc.lft.to/lastmile_qr_scan", "ios": "https://dc.lft.to/lastmile_qr_scan"}, "fusion_lon": 0.0}, {"lat": 38.8923235, "is_disabled": 0, "type": "electric_scooter", "lon": -77.0500355, "bike_id": "7c3892383c8a81d529143a44f7c7d96c", "fusion_lat": 0.0, "name": "7c3892383c8a81d529143a44f7c7d96c", "is_reserved": 0, "rental_uris": {"android": "https://dc.lft.to/lastmile_qr_scan", "ios": "https://dc.lft.to/lastmile_qr_scan"}, "fusion_lon": 0.0}, {"lat": 38.8843825, "is_disabled": 0, "type": "electric_scooter", "lon": -76.95760816666666, "bike_id": "61a808e997721cbbea98adfe0688f04c", "fusion_lat": 0.0, "name": "61a808e997721cbbea98adfe0688f04c", "is_reserved": 0, "rental_uris": {"android": "https://dc.lft.to/lastmile_qr_scan", "ios": "https://dc.lft.to/lastmile_qr_scan"}, "fusion_lon": 0.0}, {"lat": 38.86100233333333, "is_disabled": 0, "type": "electric_scooter", "lon": -76.98343933333334, "bike_id": "d6d3c7d5284f5a15c0702a67cba615a9", "fusion_lat": 0.0, "name": "d6d3c7d5284f5a15c0702a67cba615a9", "is_reserved": 0, "rental_uris": {"android": "https://dc.lft.to/lastmile_qr_scan", "ios": "https://dc.lft.to/lastmile_qr_scan"}, "fusion_lon": 0.0}, {"lat": 38.90060416666667, "is_disabled": 0, "type": "electric_scooter", "lon": -76.933902, "bike_id": "fb70739452fbfc6beea78174dedfbda8", "fusion_lat": 0.0, "name": "fb70739452fbfc6beea78174dedfbda8", "is_reserved": 0, "rental_uris": {"android": "https://dc.lft.to/lastmile_qr_scan", "ios": "https://dc.lft.to/lastmile_qr_scan"}, "fusion_lon": 0.0}, {"lat": 38.911273666666666, "is_disabled": 0, "type": "electric_scooter", "lon": -77.02201016666666, "bike_id": "8a95e2ac3c411652bad2bee8f70ccfa5", "fusion_lat": 0.0, "name": "8a95e2ac3c411652bad2bee8f70ccfa5", "is_reserved": 0, "rental_uris": {"android": "https://dc.lft.to/lastmile_qr_scan", "ios": "https://dc.lft.to/lastmile_qr_scan"}, "fusion_lon": 0.0}, {"lat": 39.01051966666667, "is_disabled": 0, "type": "electric_bike", "lon": -76.91108316666667, "bike_id": "d6033ebbcaf7191cfb2c963ebbac6da1", "fusion_lat": 0.0, "name": "d6033ebbcaf7191cfb2c963ebbac6da1", "is_reserved": 0, "rental_uris": {"android": "https://dc.lft.to/lastmile_qr_scan", "ios": "https://dc.lft.to/lastmile_qr_scan"}, "fusion_lon": 0.0}, {"lat": 38.907414, "is_disabled": 0, "type": "electric_scooter", "lon": -77.0321775, "bike_id": "53259e51e565e76bb2a4bb040275b641", "fusion_lat": 0.0, "name": "53259e51e565e76bb2a4bb040275b641", "is_reserved": 0, "rental_uris": {"android": "https://dc.lft.to/lastmile_qr_scan", "ios": "https://dc.lft.to/lastmile_qr_scan"}, "fusion_lon": 0.0}, {"lat": 38.91682816666667, "is_disabled": 0, "type": "electric_scooter", "lon": -77.029736, "bike_id": "bea17f33bb7bc219dc042a06cdb284c5", "fusion_lat": 0.0, "name": "bea17f33bb7bc219dc042a06cdb284c5", "is_reserved": 0, "rental_uris": {"android": "https://dc.lft.to/lastmile_qr_scan", "ios": "https://dc.lft.to/lastmile_qr_scan"}, "fusion_lon": 0.0}, {"lat": 38.91930033333333, "is_disabled": 0, "type": "electric_scooter", "lon": -77.081359, "bike_id": "a8cb9901732a6cb8094391263b6af10d", "fusion_lat": 0.0, "name": "a8cb9901732a6cb8094391263b6af10d", "is_reserved": 0, "rental_uris": {"android": "https://dc.lft.to/lastmile_qr_scan", "ios": "https://dc.lft.to/lastmile_qr_scan"}, "fusion_lon": 0.0}, {"lat": 38.92869316666667, "is_disabled": 0, "type": "electric_scooter", "lon": -77.027306, "bike_id": "00d28a62395ffde46f0129691cd140d8", "fusion_lat": 0.0, "name": "00d28a62395ffde46f0129691cd140d8", "is_reserved": 0, "rental_uris": {"android": "https://dc.lft.to/lastmile_qr_scan", "ios": "https://dc.lft.to/lastmile_qr_scan"}, "fusion_lon": 0.0}, {"lat": 38.931847, "is_disabled": 0, "type": "electric_scooter", "lon": -77.02839133333333, "bike_id": "b50562d4f7c051551556aea4d3145eb9", "fusion_lat": 0.0, "name": "b50562d4f7c051551556aea4d3145eb9", "is_reserved": 0, "rental_uris": {"android": "https://dc.lft.to/lastmile_qr_scan", "ios": "https://dc.lft.to/lastmile_qr_scan"}, "fusion_lon": 0.0}, {"lat": 38.907241666666664, "is_disabled": 0, "type": "electric_scooter", "lon": -77.02377816666667, "bike_id": "d8293c096dd81938eb9394afc756081f", "fusion_lat": 0.0, "name": "d8293c096dd81938eb9394afc756081f", "is_reserved": 0, "rental_uris": {"android": "https://dc.lft.to/lastmile_qr_scan", "ios": "https://dc.lft.to/lastmile_qr_scan"}, "fusion_lon": 0.0}, {"lat": 38.908624, "is_disabled": 0, "type": "electric_scooter", "lon": -77.00614366666667, "bike_id": "8df198018c697f6925367bb1caff977b", "fusion_lat": 0.0, "name": "8df198018c697f6925367bb1caff977b", "is_reserved": 0, "rental_uris": {"android": "https://dc.lft.to/lastmile_qr_scan", "ios": "https://dc.lft.to/lastmile_qr_scan"}, "fusion_lon": 0.0}, {"lat": 38.895361666666666, "is_disabled": 0, "type": "electric_scooter", "lon": -77.03357333333334, "bike_id": "f01fc7140cd35e9ec6c1853fd46395db", "fusion_lat": 0.0, "name": "f01fc7140cd35e9ec6c1853fd46395db", "is_reserved": 0, "rental_uris": {"android": "https://dc.lft.to/lastmile_qr_scan", "ios": "https://dc.lft.to/lastmile_qr_scan"}, "fusion_lon": 0.0}, {"lat": 38.8718705, "is_disabled": 0, "type": "electric_scooter", "lon": -76.97380466666667, "bike_id": "9af3f3dce2614e39ccd3ea0ec928f628", "fusion_lat": 0.0, "name": "9af3f3dce2614e39ccd3ea0ec928f628", "is_reserved": 0, "rental_uris": {"android": "https://dc.lft.to/lastmile_qr_scan", "ios": "https://dc.lft.to/lastmile_qr_scan"}, "fusion_lon": 0.0}, {"lat": 38.906698166666665, "is_disabled": 0, "type": "electric_scooter", "lon": -76.9878475, "bike_id": "5ba24f22316b730ce07c78eee9558300", "fusion_lat": 0.0, "name": "5ba24f22316b730ce07c78eee9558300", "is_reserved": 0, "rental_uris": {"android": "https://dc.lft.to/lastmile_qr_scan", "ios": "https://dc.lft.to/lastmile_qr_scan"}, "fusion_lon": 0.0}, {"lat": 38.930572833333336, "is_disabled": 0, "type": "electric_scooter", "lon": -77.03231416666667, "bike_id": "8e63e279e67babfd4134814023c94574", "fusion_lat": 0.0, "name": "8e63e279e67babfd4134814023c94574", "is_reserved": 0, "rental_uris": {"android": "https://dc.lft.to/lastmile_qr_scan", "ios": "https://dc.lft.to/lastmile_qr_scan"}, "fusion_lon": 0.0}, {"lat": 38.900092666666666, "is_disabled": 0, "type": "electric_scooter", "lon": -77.05248083333333, "bike_id": "f4e55154623a9fba43d5273d85adccfe", "fusion_lat": 0.0, "name": "f4e55154623a9fba43d5273d85adccfe", "is_reserved": 0, "rental_uris": {"android": "https://dc.lft.to/lastmile_qr_scan", "ios": "https://dc.lft.to/lastmile_qr_scan"}, "fusion_lon": 0.0}, {"lat": 38.892735333333334, "is_disabled": 0, "type": "electric_scooter", "lon": -77.0503635, "bike_id": "f446e3542d32eff0b0d3841fa8ca073a", "fusion_lat": 0.0, "name": "f446e3542d32eff0b0d3841fa8ca073a", "is_reserved": 0, "rental_uris": {"android": "https://dc.lft.to/lastmile_qr_scan", "ios": "https://dc.lft.to/lastmile_qr_scan"}, "fusion_lon": 0.0}, {"lat": 38.92553, "is_disabled": 0, "type": "electric_scooter", "lon": -77.0366145, "bike_id": "b4338065b875bb298dbddff4a6d626e5", "fusion_lat": 0.0, "name": "b4338065b875bb298dbddff4a6d626e5", "is_reserved": 0, "rental_uris": {"android": "https://dc.lft.to/lastmile_qr_scan", "ios": "https://dc.lft.to/lastmile_qr_scan"}, "fusion_lon": 0.0}, {"lat": 38.90643416666666, "is_disabled": 0, "type": "electric_scooter", "lon": -77.04245, "bike_id": "5c6a9f78ee68ef8298b39fb1e28c0c5f", "fusion_lat": 0.0, "name": "5c6a9f78ee68ef8298b39fb1e28c0c5f", "is_reserved": 0, "rental_uris": {"android": "https://dc.lft.to/lastmile_qr_scan", "ios": "https://dc.lft.to/lastmile_qr_scan"}, "fusion_lon": 0.0}, {"lat": 38.895330333333334, "is_disabled": 0, "type": "electric_scooter", "lon": -77.04849466666667, "bike_id": "ce66f40811a197dbe729e3a6bea8fc29", "fusion_lat": 0.0, "name": "ce66f40811a197dbe729e3a6bea8fc29", "is_reserved": 0, "rental_uris": {"android": "https://dc.lft.to/lastmile_qr_scan", "ios": "https://dc.lft.to/lastmile_qr_scan"}, "fusion_lon": 0.0}, {"lat": 38.90481366666667, "is_disabled": 0, "type": "electric_bike", "lon": -77.06844466666666, "bike_id": "91a4996a15c22b140fd9608f97119c9b", "fusion_lat": 0.0, "name": "91a4996a15c22b140fd9608f97119c9b", "is_reserved": 0, "rental_uris": {"android": "https://dc.lft.to/lastmile_qr_scan", "ios": "https://dc.lft.to/lastmile_qr_scan"}, "fusion_lon": 0.0}, {"lat": 38.914136666666664, "is_disabled": 0, "type": "electric_scooter", "lon": -77.02224116666666, "bike_id": "9011507f0c54638c81c91cf65faf3553", "fusion_lat": 0.0, "name": "9011507f0c54638c81c91cf65faf3553", "is_reserved": 0, "rental_uris": {"android": "https://dc.lft.to/lastmile_qr_scan", "ios": "https://dc.lft.to/lastmile_qr_scan"}, "fusion_lon": 0.0}, {"lat": 38.9589195, "is_disabled": 0, "type": "electric_bike", "lon": -76.92488866666666, "bike_id": "36e5d4ad335d3bbe5efbcbd33d556eab", "fusion_lat": 0.0, "name": "36e5d4ad335d3bbe5efbcbd33d556eab", "is_reserved": 0, "rental_uris": {"android": "https://dc.lft.to/lastmile_qr_scan", "ios": "https://dc.lft.to/lastmile_qr_scan"}, "fusion_lon": 0.0}, {"lat": 38.917351333333336, "is_disabled": 0, "type": "electric_scooter", "lon": -77.0319005, "bike_id": "f1bb1043cb64221a1faf97574b2b4628", "fusion_lat": 0.0, "name": "f1bb1043cb64221a1faf97574b2b4628", "is_reserved": 0, "rental_uris": {"android": "https://dc.lft.to/lastmile_qr_scan", "ios": "https://dc.lft.to/lastmile_qr_scan"}, "fusion_lon": 0.0}, {"lat": 38.9166455, "is_disabled": 0, "type": "electric_scooter", "lon": -77.03848433333333, "bike_id": "f296a5489e3058d53be57e6e5b494de4", "fusion_lat": 0.0, "name": "f296a5489e3058d53be57e6e5b494de4", "is_reserved": 0, "rental_uris": {"android": "https://dc.lft.to/lastmile_qr_scan", "ios": "https://dc.lft.to/lastmile_qr_scan"}, "fusion_lon": 0.0}, {"lat": 38.890413333333335, "is_disabled": 0, "type": "electric_scooter", "lon": -76.940818, "bike_id": "7a9bc1f12f78b20551be39d2f68afd9b", "fusion_lat": 0.0, "name": "7a9bc1f12f78b20551be39d2f68afd9b", "is_reserved": 0, "rental_uris": {"android": "https://dc.lft.to/lastmile_qr_scan", "ios": "https://dc.lft.to/lastmile_qr_scan"}, "fusion_lon": 0.0}, {"lat": 38.921046833333335, "is_disabled": 0, "type": "electric_scooter", "lon": -77.04373333333334, "bike_id": "af3a1511cf84ca4854fe20b45c799008", "fusion_lat": 0.0, "name": "af3a1511cf84ca4854fe20b45c799008", "is_reserved": 0, "rental_uris": {"android": "https://dc.lft.to/lastmile_qr_scan", "ios": "https://dc.lft.to/lastmile_qr_scan"}, "fusion_lon": 0.0}, {"lat": 38.90552483333333, "is_disabled": 0, "type": "electric_scooter", "lon": -77.04364733333334, "bike_id": "0dc8338f088be2b2eec334b479b2633a", "fusion_lat": 0.0, "name": "0dc8338f088be2b2eec334b479b2633a", "is_reserved": 0, "rental_uris": {"android": "https://dc.lft.to/lastmile_qr_scan", "ios": "https://dc.lft.to/lastmile_qr_scan"}, "fusion_lon": 0.0}, {"lat": 38.86711616666667, "is_disabled": 0, "type": "electric_bike", "lon": -76.98955116666667, "bike_id": "a519bceb7b2a39a072b4b8e908abc059", "fusion_lat": 0.0, "name": "a519bceb7b2a39a072b4b8e908abc059", "is_reserved": 0, "rental_uris": {"android": "https://dc.lft.to/lastmile_qr_scan", "ios": "https://dc.lft.to/lastmile_qr_scan"}, "fusion_lon": 0.0}, {"lat": 38.913259, "is_disabled": 0, "type": "electric_scooter", "lon": -77.0313155, "bike_id": "f0d24728a4a0ce73a2d04e09df011c98", "fusion_lat": 0.0, "name": "f0d24728a4a0ce73a2d04e09df011c98", "is_reserved": 0, "rental_uris": {"android": "https://dc.lft.to/lastmile_qr_scan", "ios": "https://dc.lft.to/lastmile_qr_scan"}, "fusion_lon": 0.0},