{"data": {"bikes": [{"rental_uris": {"android": "https://dc.lft.to/lastmile_qr_scan", "ios": "https://dc.lft.to/lastmile_qr_scan"}, "lon": -77.00223216666667, "name": "690d40007d4a094d17fbec0bd6f367a6", "fusion_lon": 0.0, "bike_id": "690d40007d4a094d17fbec0bd6f367a6", "is_reserved": 0, "type": "electric_scooter", "lat": 38.885015333333335, "fusion_lat": 0.0, "is_disabled": 0}, {"rental_uris": {"android": "https://dc.lft.to/lastmile_qr_scan", "ios": "https://dc.lft.to/lastmile_qr_scan"}, "lon": -77.03338816666667, "name": "d6a3b0e47dd2269262c0a40155692504", "fusion_lon": 0.0, "bike_id": "d6a3b0e47dd2269262c0a40155692504", "is_reserved": 0, "type": "electric_scooter", "lat": 38.9171595, "fusion_lat": 0.0, "is_disabled": 0}, {"rental_uris": {"android": "https://dc.lft.to/lastmile_qr_scan", "ios": "https://dc.lft.to/lastmile_qr_scan"}, "lon": -77.0378815, "name": "f310a42d0d8f55d316c9795b82d08f38", "fusion_lon": 0.0, "bike_id": "f310a42d0d8f55d316c9795b82d08f38", "is_reserved": 0, "type": "electric_scooter", "lat": 38.925105333333335, "fusion_lat": 0.0, "is_disabled": 0}, {"rental_uris": {"android": "https://dc.lft.to/lastmile_qr_scan", "ios": "https://dc.lft.to/lastmile_qr_scan"}, "lon": -77.0495995, "name": "6500de4794d45b397c8c87b561620479", "fusion_lon": 0.0, "bike_id": "6500de4794d45b397c8c87b561620479", "is_reserved": 0, "type": "electric_bike", "lat": 39.0109325, "fusion_lat": 0.0, "is_disabled": 0}, {"rental_uris": {"android": "https://dc.lft.to/lastmile_qr_scan", "ios": "https://dc.lft.to/lastmile_qr_scan"}, "lon": -76.9875865, "name": "2effa420e2c513cbc6a0569828c24e3e", "fusion_lon": 0.0, "bike_id": "2effa420e2c513cbc6a0569828c24e3e", "is_reserved": 0, "type": "electric_bike", "lat": 38.85790216666667, "fusion_lat": 0.0, "is_disabled": 0}, {"rental_uris": {"android": "https://dc.lft.to/lastmile_qr_scan", "ios": "https://dc.lft.to/lastmile_qr_scan"}, "lon": -77.0638105, "name": "33a2bd5541842016bb7ed4d30e4eb8c6", "fusion_lon": 0.0, "bike_id": "33a2bd5541842016bb7ed4d30e4eb8c6", "is_reserved": 0, "type": "electric_scooter", "lat": 38.90519716666667, "fusion_lat": 0.0, "is_disabled": 0}, {"rental_uris": {"android": "https://dc.lft.to/lastmile_qr_scan", "ios": "https://dc.lft.to/lastmile_qr_scan"}, "lon": -77.0195875, "name": "5dfb23cdc165880422429fffd8e36cdd", "fusion_lon": 0.0, "bike_id": "5dfb23cdc165880422429fffd8e36cdd", "is_reserved": 0, "type": "electric_scooter", "lat": 38.923279, "fusion_lat": 0.0, "is_disabled": 0}, {"rental_uris": {"android": "https://dc.lft.to/lastmile_qr_scan", "ios": "https://dc.lft.to/lastmile_qr_scan"}, "lon": -76.91065816666666, "name": "f29899e7dace8c6940b3c3a0598c5e8e", "fusion_lon": 0.0, "bike_id": "f29899e7dace8c6940b3c3a0598c5e8e", "is_reserved": 0, "type": "electric_bike", "lat": 39.010727333333335, "fusion_lat": 0.0, "is_disabled": 0}, {"rental_uris": {"android": "https://dc.lft.to/lastmile_qr_scan", "ios": "https://dc.lft.to/lastmile_qr_scan"}, "lon": -76.99673416666667, "name": "5276dccdee078a7cf6b3e54dc37e12e6", "fusion_lon": 0.0, "bike_id": "5276dccdee078a7cf6b3e54dc37e12e6", "is_reserved": 0, "type": "electric_scooter", "lat": 38.92440966666667, "fusion_lat": 0.0, "is_disabled": 0}, {"rental_uris": {"android": "https://dc.lft.to/lastmile_qr_scan", "ios": "https://dc.lft.to/lastmile_qr_scan"}, "lon": -77.04347483333333, "name": "3eea0c4ce4e29db2d133452050f8347f", "fusion_lon": 0.0, "bike_id": "3eea0c4ce4e29db2d133452050f8347f", "is_reserved": 0, "type": "electric_scooter", "lat": 38.90042483333333, "fusion_lat": 0.0, "is_disabled": 0}, {"rental_uris": {"android": "https://dc.lft.to/lastmile_qr_scan", "ios": "https://dc.lft.to/lastmile_qr_scan"}, "lon": -77.0366525, "name": "7b67ef00848f5ffe2453f2317897084c", "fusion_lon": 0.0, "bike_id": "7b67ef00848f5ffe2453f2317897084c", "is_reserved": 0, "type": "electric_scooter", "lat": 38.92239383333333, "fusion_lat": 0.0, "is_disabled": 0}, {"rental_uris": {"android": "https://dc.lft.to/lastmile_qr_scan", "ios": "https://dc.lft.to/lastmile_qr_scan"}, "lon": -77.01663166666667, "name": "da83008bb3e7653779d04d91084d8db6", "fusion_lon": 0.0, "bike_id": "da83008bb3e7653779d04d91084d8db6", "is_reserved": 0, "type": "electric_scooter", "lat": 38.913217833333334, "fusion_lat": 0.0, "is_disabled": 0}, {"rental_uris": {"android": "https://dc.lft.to/lastmile_qr_scan", "ios": "https://dc.lft.to/lastmile_qr_scan"}, "lon": -76.94893016666667, "name": "7eddec5f3742750738a6e42bc935775b", "fusion_lon": 0.0, "bike_id": "7eddec5f3742750738a6e42bc935775b", "is_reserved": 0, "type": "electric_scooter", "lat": 38.89535433333333, "fusion_lat": 0.0, "is_disabled": 0}, {"rental_uris": {"android": "https://dc.lft.to/lastmile_qr_scan", "ios": "https://dc.lft.to/lastmile_qr_scan"}, "lon": -77.02713366666667, "name": "8f5a5802b420601e4d46b307ac3f6533", "fusion_lon": 0.0, "bike_id": "8f5a5802b420601e4d46b307ac3f6533", "is_reserved": 0, "type": "electric_scooter", "lat": 38.9067395, "fusion_lat": 0.0, "is_disabled": 0}, {"rental_uris": {"android": "https://dc.lft.to/lastmile_qr_scan", "ios": "https://dc.lft.to/lastmile_qr_scan"}, "lon": -77.053202, "name": "8a4eab3d30e7775189b7d8df04949c32", "fusion_lon": 0.0, "bike_id": "8a4eab3d30e7775189b7d8df04949c32", "is_reserved": 0, "type": "electric_scooter", "lat": 38.9065495, "fusion_lat": 0.0, "is_disabled": 0}, {"rental_uris": {"android": "https://dc.lft.to/lastmile_qr_scan", "ios": "https://dc.lft.to/lastmile_qr_scan"}, "lon": -77.03185333333333, "name": "aa0e94c324a84e5054b74e0a50232bab", "fusion_lon": 0.0, "bike_id": "aa0e94c324a84e5054b74e0a50232bab", "is_reserved": 0, "type": "electric_scooter", "lat": 38.91823183333333, "fusion_lat": 0.0, "is_disabled": 0}, {"rental_uris": {"android": "https://dc.lft.to/lastmile_qr_scan", "ios": "https://dc.lft.to/lastmile_qr_scan"}, "lon": -76.9791525, "name": "2936ca900b0d92635da50f1a1a9c9b9d", "fusion_lon": 0.0, "bike_id": "2936ca900b0d92635da50f1a1a9c9b9d", "is_reserved": 0, "type": "electric_scooter", "lat": 38.866643833333335, "fusion_lat": 0.0, "is_disabled": 0}, {"rental_uris": {"android": "https://dc.lft.to/lastmile_qr_scan", "ios": "https://dc.lft.to/lastmile_qr_scan"}, "lon": -76.93482, "name": "18073d6b1d3fa54e8e5e9593a250217c", "fusion_lon": 0.0, "bike_id": "18073d6b1d3fa54e8e5e9593a250217c", "is_reserved": 0, "type": "electric_scooter", "lat": 38.895088333333334, "fusion_lat": 0.0, "is_disabled": 0}, {"rental_uris": {"android": "https://dc.lft.to/lastmile_qr_scan", "ios": "https://dc.lft.to/lastmile_qr_scan"}, "lon": -76.98819433333334, "name": "9b24212395379170585ada8a940a0621", "fusion_lon": 0.0, "bike_id": "9b24212395379170585ada8a940a0621", "is_reserved": 0, "type": "electric_bike", "lat": 38.803838666666664, "fusion_lat": 0.0, "is_disabled": 0}, {"rental_uris": {"android": "https://dc.lft.to/lastmile_qr_scan", "ios": "https://dc.lft.to/lastmile_qr_scan"}, "lon": -77.04089716666667, "name": "d2c51e2f8d755b0e0e9b9763a84465e2", "fusion_lon": 0.0, "bike_id": "d2c51e2f8d755b0e0e9b9763a84465e2", "is_reserved": 0, "type": "electric_scooter", "lat": 38.892235666666664, "fusion_lat": 0.0, "is_disabled": 0}, {"rental_uris": {"android": "https://dc.lft.to/lastmile_qr_scan", "ios": "https://dc.lft.to/lastmile_qr_scan"}, "lon": -76.93598583333333, "name": "549269b6d6dd7f4147e86f1b122631ad", "fusion_lon": 0.0, "bike_id": "549269b6d6dd7f4147e86f1b122631ad", "is_reserved": 0, "type": "electric_scooter", "lat": 38.8936335, "fusion_lat": 0.0, "is_disabled": 0}, {"rental_uris": {"android": "https://dc.lft.to/lastmile_qr_scan", "ios": "https://dc.lft.to/lastmile_qr_scan"}, "lon": -77.03785483333333, "name": "ada928503c878a508d300aba62f58d83", "fusion_lon": 0.0, "bike_id": "ada928503c878a508d300aba62f58d83", "is_reserved": 0, "type": "electric_scooter", "lat": 38.92966633333333, "fusion_lat": 0.0, "is_disabled": 0}, {"rental_uris": {"android": "https://dc.lft.to/lastmile_qr_scan", "ios": "https://dc.lft.to/lastmile_qr_scan"}, "lon": -76.99569433333333, "name": "7cd5c976ae015ec045ee1b36cd7aa949", "fusion_lon": 0.0, "bike_id": "7cd5c976ae015ec045ee1b36cd7aa949", "is_reserved": 0, "type": "electric_scooter", "lat": 38.92038483333333, "fusion_lat": 0.0, "is_disabled": 0}, {"rental_uris": {"android": "https://dc.lft.to/lastmile_qr_scan", "ios": "https://dc.lft.to/lastmile_qr_scan"}, "lon": -77.016311, "name": "b6c037b9917446d8e213e672ba85e7ef", "fusion_lon": 0.0, "bike_id": "b6c037b9917446d8e213e672ba85e7ef", "is_reserved": 0, "type": "electric_scooter", "lat": 38.896207833333335, "fusion_lat": 0.0, "is_disabled": 0}, {"rental_uris": {"android": "https://dc.lft.to/lastmile_qr_scan", "ios": "https://dc.lft.to/lastmile_qr_scan"}, "lon": -76.9973935, "name": "6cc135981ba3532fb558eb22e90ee65d", "fusion_lon": 0.0, "bike_id": "6cc135981ba3532fb558eb22e90ee65d", "is_reserved": 0, "type": "electric_bike", "lat": 39.042356166666664, "fusion_lat": 0.0, "is_disabled": 0}, {"rental_uris": {"android": "https://dc.lft.to/lastmile_qr_scan", "ios": "https://dc.lft.to/lastmile_qr_scan"}, "lon": -77.03855433333334, "name": "8980ee90fd39d970796a40958e249eb2", "fusion_lon": 0.0, "bike_id": "8980ee90fd39d970796a40958e249eb2", "is_reserved": 0, "type": "electric_scooter", "lat": 38.91208616666667, "fusion_lat": 0.0, "is_disabled": 0}, {"rental_uris": {"android": "https://dc.lft.to/lastmile_qr_scan", "ios": "https://dc.lft.to/lastmile_qr_scan"}, "lon": -76.996012, "name": "69cffb78dd8499fdc19cc86e619ee5cf", "fusion_lon": 0.0, "bike_id": "69cffb78dd8499fdc19cc86e619ee5cf", "is_reserved": 0, "type": "electric_bike", "lat": 38.9734005, "fusion_lat": 0.0, "is_disabled": 0}, {"rental_uris": {"android": "https://dc.lft.to/lastmile_qr_scan", "ios": "https://dc.lft.to/lastmile_qr_scan"}, "lon": -77.06423133333334, "name": "2003a12e4bb62851583eae3e197eaafb", "fusion_lon": 0.0, "bike_id": "2003a12e4bb62851583eae3e197eaafb", "is_reserved": 0, "type": "electric_scooter", "lat": 38.913874166666666, "fusion_lat": 0.0, "is_disabled": 0}, {"rental_uris": {"android": "https://dc.lft.to/lastmile_qr_scan", "ios": "https://dc.lft.to/lastmile_qr_scan"}, "lon": -77.046769, "name": "616f175a281000b6a3bc12a0541f56d4", "fusion_lon": 0.0, "bike_id": "616f175a281000b6a3bc12a0541f56d4", "is_reserved": 0, "type": "electric_scooter", "lat": 38.9015175, "fusion_lat": 0.0, "is_disabled": 0}, {"rental_uris": {"android": "https://dc.lft.to/lastmile_qr_scan", "ios": "https://dc.lft.to/lastmile_qr_scan"}, "lon": -77.036667, "name": "7ad52c32fe9493dcc8538a351a3b08c9", "fusion_lon": 0.0, "bike_id": "7ad52c32fe9493dcc8538a351a3b08c9", "is_reserved": 0, "type": "electric_scooter", "lat": 38.91869116666667, "fusion_lat": 0.0, "is_disabled": 0}, {"rental_uris": {"android": "https://dc.lft.to/lastmile_qr_scan", "ios": "https://dc.lft.to/lastmile_qr_scan"}, "lon": -77.01600683333334, "name": "1118553daf767776835d025463f8e9b9", "fusion_lon": 0.0, "bike_id": "1118553daf767776835d025463f8e9b9", "is_reserved": 0, "type": "electric_scooter", "lat": 38.952132, "fusion_lat": 0.0, "is_disabled": 0}, {"rental_uris": {"android": "https://dc.lft.to/lastmile_qr_scan", "ios": "https://dc.lft.to/lastmile_qr_scan"}, "lon": -76.98431316666667, "name": "11ace065700461b5f065965ae849c836", "fusion_lon": 0.0, "bike_id": "11ace065700461b5f065965ae849c836", "is_reserved": 0, "type": "electric_scooter", "lat": 38.92052983333333, "fusion_lat": 0.0, "is_disabled": 0}, {"rental_uris": {"android": "https://dc.lft.to/lastmile_qr_scan", "ios": "https://dc.lft.to/lastmile_qr_scan"}, "lon": -77.02494783333333, "name": "4f501fe39250fc6d56e79d8ec1cb9ef4", "fusion_lon": 0.0, "bike_id": "4f501fe39250fc6d56e79d8ec1cb9ef4", "is_reserved": 0, "type": "electric_scooter", "lat": 38.89813683333333, "fusion_lat": 0.0, "is_disabled": 0}, {"rental_uris": {"android": "https://dc.lft.to/lastmile_qr_scan", "ios": "https://dc.lft.to/lastmile_qr_scan"}, "lon": -77.0186825, "name": "8c89ee1fc8ba3bed607532a5627d5b18", "fusion_lon": 0.0, "bike_id": "8c89ee1fc8ba3bed607532a5627d5b18", "is_reserved": 0, "type": "electric_scooter", "lat": 38.97368733333333, "fusion_lat": 0.0, "is_disabled": 0}, {"rental_uris": {"android": "https://dc.lft.to/lastmile_qr_scan", "ios": "https://dc.lft.to/lastmile_qr_scan"}, "lon": -77.05226916666666, "name": "7726e04f9a1cf328a03922d8d4df0cf4", "fusion_lon": 0.0, "bike_id": "7726e04f9a1cf328a03922d8d4df0cf4", "is_reserved": 0, "type": "electric_scooter", "lat": 38.924472333333334, "fusion_lat": 0.0, "is_disabled": 0}, {"rental_uris": {"android": "https://dc.lft.to/lastmile_qr_scan", "ios": "https://dc.lft.to/lastmile_qr_scan"}, "lon": -77.08403533333333, "name": "492cdf36c4b822926dd09e5262a48dd6", "fusion_lon": 0.0, "bike_id": "492cdf36c4b822926dd09e5262a48dd6", "is_reserved": 0, "type": "electric_scooter", "lat": 38.90803733333333, "fusion_lat": 0.0, "is_disabled": 0}, {"rental_uris": {"android": "https://dc.lft.to/lastmile_qr_scan", "ios": "https://dc.lft.to/lastmile_qr_scan"}, "lon": -76.9428645, "name": "28722de3da5f39c70c537f431ecc318d", "fusion_lon": 0.0, "bike_id": "28722de3da5f39c70c537f431ecc318d", "is_reserved": 0, "type": "electric_scooter", "lat": 38.883399833333335, "fusion_lat": 0.0, "is_disabled": 0}, {"rental_uris": {"android": "https://dc.lft.to/lastmile_qr_scan", "ios": "https://dc.lft.to/lastmile_qr_scan"}, "lon": -77.0252535, "name": "b5b92679cec7c18d614268ef5f4f84be", "fusion_lon": 0.0, "bike_id": "b5b92679cec7c18d614268ef5f4f84be", "is_reserved": 0, "type": "electric_scooter", "lat": 38.91840933333334, "fusion_lat": 0.0, "is_disabled": 0}, {"rental_uris": {"android": "https://dc.lft.to/lastmile_qr_scan", "ios": "https://dc.lft.to/lastmile_qr_scan"}, "lon": -77.0037895, "name": "37a58ec5f3d72dd5957666154a475f01", "fusion_lon": 0.0, "bike_id": "37a58ec5f3d72dd5957666154a475f01", "is_reserved": 0, "type": "electric_scooter", "lat": 38.87937983333333, "fusion_lat": 0.0, "is_disabled": 0}, {"rental_uris": {"android": "https://dc.lft.to/lastmile_qr_scan", "ios": "https://dc.lft.to/lastmile_qr_scan"}, "lon": -77.0255515, "name": "214a1375c4d6b62482a54a8ba2746ad7", "fusion_lon": 0.0, "bike_id": "214a1375c4d6b62482a54a8ba2746ad7", "is_reserved": 0, "type": "electric_scooter", "lat": 38.88421783333333, "fusion_lat": 0.0, "is_disabled": 0}, {"rental_uris": {"android": "https://dc.lft.to/lastmile_qr_scan", "ios": "https://dc.lft.to/lastmile_qr_scan"}, "lon": -77.110413, "name": "c3aa5de2021eef554bcee69bdd6221da", "fusion_lon": 0.0, "bike_id": "c3aa5de2021eef554bcee69bdd6221da", "is_reserved": 0, "type": "electric_bike", "lat": 38.87077766666667, "fusion_lat": 0.0, "is_disabled": 0}, {"rental_uris": {"android": "https://dc.lft.to/lastmile_qr_scan", "ios": "https://dc.lft.to/lastmile_qr_scan"}, "lon": -77.03661883333334, "name": "bf1b61afbd030d17a74d4cba0f30750b", "fusion_lon": 0.0, "bike_id": "bf1b61afbd030d17a74d4cba0f30750b", "is_reserved": 0, "type": "electric_scooter", "lat": 38.902854166666664, "fusion_lat": 0.0, "is_disabled": 0}, {"rental_uris": {"android": "https://dc.lft.to/lastmile_qr_scan", "ios": "https://dc.lft.to/lastmile_qr_scan"}, "lon": -77.010743, "name": "dcb57f94a99ff7a41e78d581ef026521", "fusion_lon": 0.0, "bike_id": "dcb57f94a99ff7a41e78d581ef026521", "is_reserved": 0, "type": "electric_scooter", "lat": 38.898051833333334, "fusion_lat": 0.0, "is_disabled": 0}, {"rental_uris": {"android": "https://dc.lft.to/lastmile_qr_scan", "ios": "https://dc.lft.to/lastmile_qr_scan"}, "lon": -77.03839033333334, "name": "6e657dc1629dbc5e20bcd697532b9855", "fusion_lon": 0.0, "bike_id": "6e657dc1629dbc5e20bcd697532b9855", "is_reserved": 0, "type": "electric_scooter", "lat": 38.91188433333333, "fusion_lat": 0.0, "is_disabled": 0}, {"rental_uris": {"android": "https://dc.lft.to/lastmile_qr_scan", "ios": "https://dc.lft.to/lastmile_qr_scan"}, "lon": -77.0190725, "name": "f36d5b0475ec83aeb663577bf005c83c", "fusion_lon": 0.0, "bike_id": "f36d5b0475ec83aeb663577bf005c83c", "is_reserved": 0, "type": "electric_scooter", "lat": 38.921222666666665, "fusion_lat": 0.0, "is_disabled": 0}, {"rental_uris": {"android": "https://dc.lft.to/lastmile_qr_scan", "ios": "https://dc.lft.to/lastmile_qr_scan"}, "lon": -77.032091, "name": "9a3664334ff489a616a8f7959faa8391", "fusion_lon": 0.0, "bike_id": "9a3664334ff489a616a8f7959faa8391", "is_reserved": 0, "type": "electric_scooter", "lat": 38.897903666666664, "fusion_lat": 0.0, "is_disabled": 0}, {"rental_uris": {"android": "https://dc.lft.to/lastmile_qr_scan", "ios": "https://dc.lft.to/lastmile_qr_scan"}, "lon": -77.04559566666667, "name": "c09eb0d934663904e54889ce48f50fd0", "fusion_lon": 0.0, "bike_id": "c09eb0d934663904e54889ce48f50fd0", "is_reserved": 0, "type": "electric_scooter", "lat": 38.907137666666664, "fusion_lat": 0.0, "is_disabled": 0}, {"rental_uris": {"android": "https://dc.lft.to/lastmile_qr_scan", "ios": "https://dc.lft.to/lastmile_qr_scan"}, "lon": -77.00810616666666, "name": "f05b661f8cc3f7e9936dbb63c3550ac8", "fusion_lon": 0.0, "bike_id": "f05b661f8cc3f7e9936dbb63c3550ac8", "is_reserved": 0, "type": "electric_scooter", "lat": 38.907208, "fusion_lat": 0.0, "is_disabled": 0}, {"rental_uris": {"android": "https://dc.lft.to/lastmile_qr_scan", "ios": "https://dc.lft.to/lastmile_qr_scan"}, "lon": -77.0059795, "name": "8cfe06e5c1dceae7b96521f9eb99e22b", "fusion_lon": 0.0, "bike_id": "8cfe06e5c1dceae7b96521f9eb99e22b", "is_reserved": 0, "type": "electric_scooter", "lat": 38.905651166666665, "fusion_lat": 0.0, "is_disabled": 0}, {"rental_uris": {"android": "https://dc.lft.to/lastmile_qr_scan", "ios": "https://dc.lft.to/lastmile_qr_scan"}, "lon": -77.0284975, "name": "d9cc1a02e98ed0107c1d6c840f73d57e", "fusion_lon": 0.0, "bike_id": "d9cc1a02e98ed0107c1d6c840f73d57e", "is_reserved": 0, "type": "electric_scooter", "lat": 38.9352945, "fusion_lat": 0.0, "is_disabled": 0}, {"rental_uris": {"android": "https://dc.lft.to/lastmile_qr_scan", "ios": "https://dc.lft.to/lastmile_qr_scan"}, "lon": -77.0232005, "name": "c7b4c496df6d36e86b706daf4b5fff39", "fusion_lon": 0.0, "bike_id": "c7b4c496df6d36e86b706daf4b5fff39", "is_reserved": 0, "type": "electric_scooter", "lat": 38.9206965, "fusion_lat": 0.0, "is_disabled": 0}, {"rental_uris": {"android": "https://dc.lft.to/lastmile_qr_scan", "ios": "https://dc.lft.to/lastmile_qr_scan"}, "lon": -77.04017416666667, "name": "37c2ae81788a3751670f8a353f177797", "fusion_lon": 0.0, "bike_id": "37c2ae81788a3751670f8a353f177797", "is_reserved": 0, "type": "electric_scooter", "lat": 38.917998, "fusion_lat": 0.0, "is_disabled": 0}, {"rental_uris": {"android": "https://dc.lft.to/lastmile_qr_scan", "ios": "https://dc.lft.to/lastmile_qr_scan"}, "lon": -77.03913566666667, "name": "ad2a73ffde4176ae6c50b7fafb4065f1", "fusion_lon": 0.0, "bike_id": "ad2a73ffde4176ae6c50b7fafb4065f1", "is_reserved": 0, "type": "electric_bike", "lat": 39.035622333333336, "fusion_lat": 0.0, "is_disabled": 0}, {"rental_uris": {"android": "https://dc.lft.to/lastmile_qr_scan", "ios": "https://dc.lft.to/lastmile_qr_scan"}, "lon": -77.0337055, "name": "502b158b3a3e76d5c49b1d7de340640c", "fusion_lon": 0.0, "bike_id": "502b158b3a3e76d5c49b1d7de340640c", "is_reserved": 0, "type": "electric_scooter", "lat": 38.900538, "fusion_lat": 0.0, "is_disabled": 0}, {"rental_uris": {"android": "https://dc.lft.to/lastmile_qr_scan", "ios": "https://dc.lft.to/lastmile_qr_scan"}, "lon": -77.0058475, "name": "3c75d72e25d98b1a69bc9a5a91633760", "fusion_lon": 0.0, "bike_id": "3c75d72e25d98b1a69bc9a5a91633760", "is_reserved": 0, "type": "electric_scooter", "lat": 38.87571783333333, "fusion_lat": 0.0, "is_disabled": 0}, {"rental_uris": {"android": "https://dc.lft.to/lastmile_qr_scan", "ios": "https://dc.lft.to/lastmile_qr_scan"}, "lon": -77.03168116666667, "name": "969d7d2314df15cb6dd72a46a32ec995", "fusion_lon": 0.0, "bike_id": "969d7d2314df15cb6dd72a46a32ec995", "is_reserved": 0, "type": "electric_scooter", "lat": 38.89329083333333, "fusion_lat": 0.0, "is_disabled": 0}, {"rental_uris": {"android": "https://dc.lft.to/lastmile_qr_scan", "ios": "https://dc.lft.to/lastmile_qr_scan"}, "lon": -76.985387, "name": "f7e95a4e4d0c616c0782cdd0384b8a3b", "fusion_lon": 0.0, "bike_id": "f7e95a4e4d0c616c0782cdd0384b8a3b", "is_reserved": 0, "type": "electric_scooter", "lat": 38.885289666666665, "fusion_lat": 0.0, "is_disabled": 0}, {"rental_uris": {"android": "https://dc.lft.to/lastmile_qr_scan", "ios": "https://dc.lft.to/lastmile_qr_scan"}, "lon": -77.031836, "name": "d1680530c318e68a260656f0a4faad65", "fusion_lon": 0.0, "bike_id": "d1680530c318e68a260656f0a4faad65", "is_reserved": 0, "type": "electric_scooter", "lat": 38.9001345, "fusion_lat": 0.0, "is_disabled": 0}, {"rental_uris": {"android": "https://dc.lft.to/lastmile_qr_scan", "ios": "https://dc.lft.to/lastmile_qr_scan"}, "lon": -77.02633716666666, "name": "6df92e532223b69a4d65166e07ce1d65", "fusion_lon": 0.0, "bike_id": "6df92e532223b69a4d65166e07ce1d65", "is_reserved": 0, "type": "electric_bike", "lat": 38.96217516666667, "fusion_lat": 0.0, "is_disabled": 0}, {"rental_uris": {"android": "https://dc.lft.to/lastmile_qr_scan", "ios": "https://dc.lft.to/lastmile_qr_scan"}, "lon": -77.06919866666667, "name": "6a97a78179de0f594da9b898c1731428", "fusion_lon": 0.0, "bike_id": "6a97a78179de0f594da9b898c1731428", "is_reserved": 0, "type": "electric_scooter", "lat": 38.907752, "fusion_lat": 0.0, "is_disabled": 0}, {"rental_uris": {"android": "https://dc.lft.to/lastmile_qr_scan", "ios": "https://dc.lft.to/lastmile_qr_scan"}, "lon": -77.04135733333334, "name": "96428cac9547090cfdd98de7a7493ff0", "fusion_lon": 0.0, "bike_id": "96428cac9547090cfdd98de7a7493ff0", "is_reserved": 0, "type": "electric_scooter", "lat": 38.91084133333333, "fusion_lat": 0.0, "is_disabled": 0}, {"rental_uris": {"android": "https://dc.lft.to/lastmile_qr_scan", "ios": "https://dc.lft.to/lastmile_qr_scan"}, "lon": -77.0236185, "name": "18a62f341cabd282e92941056ef1e27e", "fusion_lon": 0.0, "bike_id": "18a62f341cabd282e92941056ef1e27e", "is_reserved": 0, "type": "electric_scooter", "lat": 38.90852783333333, "fusion_lat": 0.0, "is_disabled": 0}, {"rental_uris": {"android": "https://dc.lft.to/lastmile_qr_scan", "ios": "https://dc.lft.to/lastmile_qr_scan"}, "lon": -76.99063516666666, "name": "b771b8679599596b9d072a13a98e572f", "fusion_lon": 0.0, "bike_id": "b771b8679599596b9d072a13a98e572f", "is_reserved": 0, "type": "electric_scooter", "lat": 38.86373916666667, "fusion_lat": 0.0, "is_disabled": 0}, {"rental_uris": {"android": "https://dc.lft.to/lastmile_qr_scan", "ios": "https://dc.lft.to/lastmile_qr_scan"}, "lon": -77.0527195, "name": "a59e8c04e1d4278ea86049b4f2a8d799", "fusion_lon": 0.0, "bike_id": "a59e8c04e1d4278ea86049b4f2a8d799", "is_reserved": 0, "type": "electric_scooter", "lat": 38.927601833333334, "fusion_lat": 0.0, "is_disabled": 0}, {"rental_uris": {"android": "https://dc.lft.to/lastmile_qr_scan", "ios": "https://dc.lft.to/lastmile_qr_scan"}, "lon": -77.02476533333333, "name": "dbe717390f4f6fb7fbf0b5c7e3084341", "fusion_lon": 0.0, "bike_id": "dbe717390f4f6fb7fbf0b5c7e3084341", "is_reserved": 0, "type": "electric_scooter", "lat": 38.9385405, "fusion_lat": 0.0, "is_disabled": 0}, {"rental_uris": {"android": "https://dc.lft.to/lastmile_qr_scan", "ios": "https://dc.lft.to/lastmile_qr_scan"}, "lon": -76.980623, "name": "888a9e72e6fdca99ce917fb9b2dc8d61", "fusion_lon": 0.0, "bike_id": "888a9e72e6fdca99ce917fb9b2dc8d61", "is_reserved": 0, "type": "electric_scooter", "lat": 38.88529533333333, "fusion_lat": 0.0, "is_disabled": 0}, {"rental_uris": {"android": "https://dc.lft.to/lastmile_qr_scan", "ios": "https://dc.lft.to/lastmile_qr_scan"}, "lon": -77.04369016666666, "name": "a207ddd597812eb8760e50a8b717e073", "fusion_lon": 0.0, "bike_id": "a207ddd597812eb8760e50a8b717e073", "is_reserved": 0, "type": "electric_scooter", "lat": 38.9195665, "fusion_lat": 0.0, "is_disabled": 0}, {"rental_uris": {"android": "https://dc.lft.to/lastmile_qr_scan", "ios": "https://dc.lft.to/lastmile_qr_scan"}, "lon": -77.0020165, "name": "bd3cdc5e321327fc7b0f771a4af87d0e", "fusion_lon": 0.0, "bike_id": "bd3cdc5e321327fc7b0f771a4af87d0e", "is_reserved": 0, "type": "electric_scooter", "lat": 38.88667733333333, "fusion_lat": 0.0, "is_disabled": 0}, {"rental_uris": {"android": "https://dc.lft.to/lastmile_qr_scan", "ios": "https://dc.lft.to/lastmile_qr_scan"}, "lon": -77.00604966666667, "name": "82dc15f3c3dc6ddd12dd2b20cfc57c98", "fusion_lon": 0.0, "bike_id": "82dc15f3c3dc6ddd12dd2b20cfc57c98", "is_reserved": 0, "type": "electric_scooter", "lat": 38.87561916666667, "fusion_lat": 0.0, "is_disabled": 0}, {"rental_uris": {"android": "https://dc.lft.to/lastmile_qr_scan", "ios": "https://dc.lft.to/lastmile_qr_scan"}, "lon": -77.0415195, "name": "9b75047f8f508981dd549280f971488d", "fusion_lon": 0.0, "bike_id": "9b75047f8f508981dd549280f971488d", "is_reserved": 0, "type": "electric_scooter", "lat": 38.917193833333336, "fusion_lat": 0.0, "is_disabled": 0}, {"rental_uris": {"android": "https://dc.lft.to/lastmile_qr_scan", "ios": "https://dc.lft.to/lastmile_qr_scan"}, "lon": -77.03644066666666, "name": "da188ae3949412735b7712c86a874dc8", "fusion_lon": 0.0, "bike_id": "da188ae3949412735b7712c86a874dc8", "is_reserved": 0, "type": "electric_scooter", "lat": 38.91815166666667, "fusion_lat": 0.0, "is_disabled": 0}, {"rental_uris": {"android": "https://dc.lft.to/lastmile_qr_scan", "ios": "https://dc.lft.to/lastmile_qr_scan"}, "lon": -76.98075833333333, "name": "1316dd026167e425cc51d0fa32a9c6cc", "fusion_lon": 0.0, "bike_id": "1316dd026167e425cc51d0fa32a9c6cc", "is_reserved": 0, "type": "electric_scooter", "lat": 38.867138, "fusion_lat": 0.0, "is_disabled": 0}, {"rental_uris": {"android": "https://dc.lft.to/lastmile_qr_scan", "ios": "https://dc.lft.to/lastmile_qr_scan"}, "lon": -77.04548966666667, "name": "87e44dc9c5a375832d403d305113fce3", "fusion_lon": 0.0, "bike_id": "87e44dc9c5a375832d403d305113fce3", "is_reserved": 0, "type": "electric_scooter", "lat": 38.8988615, "fusion_lat": 0.0, "is_disabled": 0}, {"rental_uris": {"android": "https://dc.lft.to/lastmile_qr_scan", "ios": "https://dc.lft.to/lastmile_qr_scan"}, "lon": -77.02471283333334, "name": "06a320b56e20419bad36213386ebc3eb", "fusion_lon": 0.0, "bike_id": "06a320b56e20419bad36213386ebc3eb", "is_reserved": 0, "type": "electric_scooter", "lat": 38.91662083333333, "fusion_lat": 0.0, "is_disabled": 0}, {"rental_uris": {"android": "https://dc.lft.to/lastmile_qr_scan", "ios": "https://dc.lft.to/lastmile_qr_scan"}, "lon": -77.02118733333333, "name": "b7a23e7424f6a8d5e67720616a28251f", "fusion_lon": 0.0, "bike_id": "b7a23e7424f6a8d5e67720616a28251f", "is_reserved": 0, "type": "electric_scooter", "lat": 38.90192916666667, "fusion_lat": 0.0, "is_disabled": 0}, {"rental_uris": {"android": "https://dc.lft.to/lastmile_qr_scan", "ios": "https://dc.lft.to/lastmile_qr_scan"}, "lon": -76.988393, "name": "e192f90d2cd69395a7dfcc224cef69b4", "fusion_lon": 0.0, "bike_id": "e192f90d2cd69395a7dfcc224cef69b4", "is_reserved": 0, "type": "electric_scooter", "lat": 38.90042916666667, "fusion_lat": 0.0, "is_disabled": 0}, {"rental_uris": {"android": "https://dc.lft.to/lastmile_qr_scan", "ios": "https://dc.lft.to/lastmile_qr_scan"}, "lon": -77.04016333333334, "name": "95c89be88c7527c09c2215cee1a09596", "fusion_lon": 0.0, "bike_id": "95c89be88c7527c09c2215cee1a09596", "is_reserved": 0, "type": "electric_scooter", "lat": 38.896304, "fusion_lat": 0.0, "is_disabled": 0}, {"rental_uris": {"android": "https://dc.lft.to/lastmile_qr_scan", "ios": "https://dc.lft.to/lastmile_qr_scan"}, "lon": -77.03500566666666, "name": "d5bc04380873a6c038589fd027d05246", "fusion_lon": 0.0, "bike_id": "d5bc04380873a6c038589fd027d05246", "is_reserved": 0, "type": "electric_scooter", "lat": 38.92476, "fusion_lat": 0.0, "is_disabled": 0}, {"rental_uris": {"android": "https://dc.lft.to/lastmile_qr_scan", "ios": "https://dc.lft.to/lastmile_qr_scan"}, "lon": -77.022506, "name": "e6fd005b1ca0ef8300ac36f27bbfc644", "fusion_lon": 0.0, "bike_id": "e6fd005b1ca0ef8300ac36f27bbfc644", "is_reserved": 0, "type": "electric_scooter", "lat": 38.92736033333333, "fusion_lat": 0.0, "is_disabled": 0}, {"rental_uris": {"android": "https://dc.lft.to/lastmile_qr_scan", "ios": "https://dc.lft.to/lastmile_qr_scan"}, "lon": -77.00293283333333, "name": "ea8f772461d1dd8eb816371e014e619b", "fusion_lon": 0.0, "bike_id": "ea8f772461d1dd8eb816371e014e619b", "is_reserved": 0, "type": "electric_scooter", "lat": 38.8919775, "fusion_lat": 0.0, "is_disabled": 0}, {"rental_uris": {"android": "https://dc.lft.to/lastmile_qr_scan", "ios": "https://dc.lft.to/lastmile_qr_scan"}, "lon": -76.99040466666666, "name": "f0ab32823737b14c23c4fab46df06d15", "fusion_lon": 0.0, "bike_id": "f0ab32823737b14c23c4fab46df06d15", "is_reserved": 0, "type": "electric_scooter", "lat": 38.888791499999996, "fusion_lat": 0.0, "is_disabled": 0}, {"rental_uris": {"android": "https://dc.lft.to/lastmile_qr_scan", "ios": "https://dc.lft.to/lastmile_qr_scan"}, "lon": -77.05518416666666, "name": "d6f2677ae1a754c9904c76d8c1b8b49a", "fusion_lon": 0.0, "bike_id": "d6f2677ae1a754c9904c76d8c1b8b49a", "is_reserved": 0, "type": "electric_scooter", "lat": 38.9441955, "fusion_lat": 0.0, "is_disabled": 0}, {"rental_uris": {"android": "https://dc.lft.to/lastmile_qr_scan", "ios": "https://dc.lft.to/lastmile_qr_scan"}, "lon": -77.04660866666667, "name": "b76fbb3e0be217d8b74c7dde3b32b8c1", "fusion_lon": 0.0, "bike_id": "b76fbb3e0be217d8b74c7dde3b32b8c1", "is_reserved": 0, "type": "electric_scooter", "lat": 38.905513, "fusion_lat": 0.0, "is_disabled": 0}, {"rental_uris": {"android": "https://dc.lft.to/lastmile_qr_scan", "ios": "https://dc.lft.to/lastmile_qr_scan"}, "lon": -77.03875816666667, "name": "b4180ae4c5186f3b4cfb9529bff3a67a", "fusion_lon": 0.0, "bike_id": "b4180ae4c5186f3b4cfb9529bff3a67a", "is_reserved": 0, "type": "electric_scooter", "lat": 38.912512666666665, "fusion_lat": 0.0, "is_disabled": 0}, {"rental_uris": {"android": "https://dc.lft.to/lastmile_qr_scan", "ios": "https://dc.lft.to/lastmile_qr_scan"}, "lon": -77.04601366666667, "name": "b36cf9def2feef704a315f3638b7160c", "fusion_lon": 0.0, "bike_id": "b36cf9def2feef704a315f3638b7160c", "is_reserved": 0, "type": "electric_scooter", "lat": 38.89599466666667, "fusion_lat": 0.0, "is_disabled": 0}, {"rental_uris": {"android": "https://dc.lft.to/lastmile_qr_scan", "ios": "https://dc.lft.to/lastmile_qr_scan"}, "lon": -77.0059345, "name": "d522f44fe07b7e405e1be95def0a6166", "fusion_lon": 0.0, "bike_id": "d522f44fe07b7e405e1be95def0a6166", "is_reserved": 0, "type": "electric_scooter", "lat": 38.905629, "fusion_lat": 0.0, "is_disabled": 0}, {"rental_uris": {"android": "https://dc.lft.to/lastmile_qr_scan", "ios": "https://dc.lft.to/lastmile_qr_scan"}, "lon": -77.02566983333334, "name": "d1707649b4602b6df7d832b2aa811db8", "fusion_lon": 0.0, "bike_id": "d1707649b4602b6df7d832b2aa811db8", "is_reserved": 0, "type": "electric_scooter", "lat": 38.920703, "fusion_lat": 0.0, "is_disabled": 0}, {"rental_uris": {"android": "https://dc.lft.to/lastmile_qr_scan", "ios": "https://dc.lft.to/lastmile_qr_scan"}, "lon": -77.030365, "name": "b4dd4458050974e94133c90ea3ed4266", "fusion_lon": 0.0, "bike_id": "b4dd4458050974e94133c90ea3ed4266", "is_reserved": 0, "type": "electric_scooter", "lat": 38.89616083333333, "fusion_lat": 0.0, "is_disabled": 0}, {"rental_uris": {"android": "https://dc.lft.to/lastmile_qr_scan", "ios": "https://dc.lft.to/lastmile_qr_scan"}, "lon": -77.03212466666666, "name": "bc9b2a6b36ab429df314633f213e439d", "fusion_lon": 0.0, "bike_id": "bc9b2a6b36ab429df314633f213e439d", "is_reserved": 0, "type": "electric_scooter", "lat": 38.91797, "fusion_lat": 0.0, "is_disabled": 0}, {"rental_uris": {"android": "https://dc.lft.to/lastmile_qr_scan", "ios": "https://dc.lft.to/lastmile_qr_scan"}, "lon": -77.029245, "name": "53d344c6b93f8d6ab0cc8a53cb954f7c", "fusion_lon": 0.0, "bike_id": "53d344c6b93f8d6ab0cc8a53cb954f7c", "is_reserved": 0, "type": "electric_scooter", "lat": 38.9056275, "fusion_lat": 0.0, "is_disabled": 0}, {"rental_uris": {"android": "https://dc.lft.to/lastmile_qr_scan", "ios": "https://dc.lft.to/lastmile_qr_scan"}, "lon": -77.0021255, "name": "ca88ac5686f46bec328da19d56213b2e", "fusion_lon": 0.0, "bike_id": "ca88ac5686f46bec328da19d56213b2e", "is_reserved": 0, "type": "electric_scooter", "lat": 38.894975333333335, "fusion_lat": 0.0, "is_disabled": 0}, {"rental_uris": {"android": "https://dc.lft.to/lastmile_qr_scan", "ios": "https://dc.lft.to/lastmile_qr_scan"}, "lon": -77.012284, "name": "c65fcc91e858ad584cd668d3983db851", "fusion_lon": 0.0, "bike_id": "c65fcc91e858ad584cd668d3983db851", "is_reserved": 0, "type": "electric_scooter", "lat": 38.91534716666666, "fusion_lat": 0.0, "is_disabled": 0}, {"rental_uris": {"android": "https://dc.lft.to/lastmile_qr_scan", "ios": "https://dc.lft.to/lastmile_qr_scan"}, "lon": -77.02243, "name": "9eddb8d414656108106924e0dd5d37af", "fusion_lon": 0.0, "bike_id": "9eddb8d414656108106924e0dd5d37af", "is_reserved": 0, "type": "electric_scooter", "lat": 38.89983183333333, "fusion_lat": 0.0, "is_disabled": 0}, {"rental_uris": {"android": "https://dc.lft.to/lastmile_qr_scan", "ios": "https://dc.lft.to/lastmile_qr_scan"}, "lon": -77.04132833333334, "name": "2f2d1d47ff0476d46dae7509675ce9f2", "fusion_lon": 0.0, "bike_id": "2f2d1d47ff0476d46dae7509675ce9f2", "is_reserved": 0, "type": "electric_scooter", "lat": 38.90524833333333, "fusion_lat": 0.0, "is_disabled": 0}, {"rental_uris": {"android": "https://dc.lft.to/lastmile_qr_scan", "ios": "https://dc.lft.to/lastmile_qr_scan"}, "lon": -76.93278216666667, "name": "d894c8c6e9f13c57f18c9c63619246af", "fusion_lon": 0.0, "bike_id": "d894c8c6e9f13c57f18c9c63619246af", "is_reserved": 0, "type": "electric_scooter", "lat": 38.88770183333333, "fusion_lat": 0.0, "is_disabled": 0}, {"rental_uris": {"android": "https://dc.lft.to/lastmile_qr_scan", "ios": "https://dc.lft.to/lastmile_qr_scan"}, "lon": -77.03210116666666, "name": "3e258451f2f64272e00ad27d70377a5e", "fusion_lon": 0.0, "bike_id": "3e258451f2f64272e00ad27d70377a5e", "is_reserved": 0, "type": "electric_scooter", "lat": 38.93248066666666, "fusion_lat": 0.0, "is_disabled": 0}, {"rental_uris": {"android": "https://dc.lft.to/lastmile_qr_scan", "ios": "https://dc.lft.to/lastmile_qr_scan"}, "lon": -77.02702883333333, "name": "71298edb2b70831fb8c33e23604e3f92", "fusion_lon": 0.0, "bike_id": "71298edb2b70831fb8c33e23604e3f92", "is_reserved": 0, "type": "electric_scooter", "lat": 38.923968333333335, "fusion_lat": 0.0, "is_disabled": 0}, {"rental_uris": {"android": "https://dc.lft.to/lastmile_qr_scan", "ios": "https://dc.lft.to/lastmile_qr_scan"}, "lon": -77.03285783333334, "name": "40c74612a4d93421cc64640ea0dc9cef", "fusion_lon": 0.0, "bike_id": "40c74612a4d93421cc64640ea0dc9cef", "is_reserved": 0, "type": "electric_scooter", "lat": 38.9396235, "fusion_lat": 0.0, "is_disabled": 0}, {"rental_uris": {"android": "https://dc.lft.to/lastmile_qr_scan", "ios": "https://dc.lft.to/lastmile_qr_scan"}, "lon": -76.95237183333333, "name": "75b9552737752325259b3c6b3c74bba5", "fusion_lon": 0.0, "bike_id": "75b9552737752325259b3c6b3c74bba5", "is_reserved": 0, "type": "electric_bike", "lat": 38.848035333333335, "fusion_lat": 0.0, "is_disabled": 0}, {"rental_uris": {"android": "https://dc.lft.to/lastmile_qr_scan", "ios": "https://dc.lft.to/lastmile_qr_scan"}, "lon": -77.0323395, "name": "1469fc0efc322ef22efa52714a0b55cc", "fusion_lon": 0.0, "bike_id": "1469fc0efc322ef22efa52714a0b55cc", "is_reserved": 0, "type": "electric_scooter", "lat": 38.92689633333333, "fusion_lat": 0.0, "is_disabled": 0}, {"rental_uris": {"android": "https://dc.lft.to/lastmile_qr_scan", "ios": "https://dc.lft.to/lastmile_qr_scan"}, "lon": -77.033727, "name": "87c414d1d014852e41c9dc4d96c16ed3", "fusion_lon": 0.0, "bike_id": "87c414d1d014852e41c9dc4d96c16ed3", "is_reserved": 0, "type": "electric_scooter", "lat": 38.9235795, "fusion_lat": 0.0, "is_disabled": 0}, {"rental_uris": {"android": "https://dc.lft.to/lastmile_qr_scan", "ios": "https://dc.lft.to/lastmile_qr_scan"}, "lon": -77.0375015, "name": "b84cf1258792dc059055fc8e36c650af", "fusion_lon": 0.0, "bike_id": "b84cf1258792dc059055fc8e36c650af", "is_reserved": 0, "type": "electric_scooter", "lat": 38.930838666666666, "fusion_lat": 0.0, "is_disabled": 0}, {"rental_uris": {"android": "https://dc.lft.to/lastmile_qr_scan", "ios": "https://dc.lft.to/lastmile_qr_scan"}, "lon": -76.97476733333333, "name": "0f4d651f9374b984806754c36413742c", "fusion_lon": 0.0, "bike_id": "0f4d651f9374b984806754c36413742c", "is_reserved": 0, "type": "electric_scooter", "lat": 38.8714575, "fusion_lat": 0.0, "is_disabled": 0}, {"rental_uris": {"android": "https://dc.lft.to/lastmile_qr_scan", "ios": "https://dc.lft.to/lastmile_qr_scan"}, "lon": -76.96532083333334, "name": "8ca1ab771a8c1262fa45f2da0cd0d4a9", "fusion_lon": 0.0, "bike_id": "8ca1ab771a8c1262fa45f2da0cd0d4a9", "is_reserved": 0, "type": "electric_bike", "lat": 38.874769, "fusion_lat": 0.0, "is_disabled": 0}, {"rental_uris": {"android": "https://dc.lft.to/lastmile_qr_scan", "ios": "https://dc.lft.to/lastmile_qr_scan"}, "lon": -77.00338133333334, "name": "c994cb36f46cdbb8bf8b258dcbeb16fb", "fusion_lon": 0.0, "bike_id": "c994cb36f46cdbb8bf8b258dcbeb16fb", "is_reserved": 0, "type": "electric_scooter", "lat": 38.88991083333333, "fusion_lat": 0.0, "is_disabled": 0}, {"rental_uris": {"android": "https://dc.lft.to/lastmile_qr_scan", "ios": "https://dc.lft.to/lastmile_qr_scan"}, "lon": -77.0386345, "name": "14499b6c96785e605d0b7fac38e55d26", "fusion_lon": 0.0, "bike_id": "14499b6c96785e605d0b7fac38e55d26", "is_reserved": 0, "type": "electric_scooter", "lat": 38.91706333333333, "fusion_lat": 0.0, "is_disabled": 0}, {"rental_uris": {"android": "https://dc.lft.to/lastmile_qr_scan", "ios": "https://dc.lft.to/lastmile_qr_scan"}, "lon": -77.03639116666666, "name": "e3507a5f124acbdda71ceddd41accf3a", "fusion_lon": 0.0, "bike_id": "e3507a5f124acbdda71ceddd41accf3a", "is_reserved": 0, "type": "electric_scooter", "lat": 38.918199333333334, "fusion_lat": 0.0, "is_disabled": 0}, {"rental_uris": {"android": "https://dc.lft.to/lastmile_qr_scan", "ios": "https://dc.lft.to/lastmile_qr_scan"}, "lon": -77.0350105, "name": "8348070afaf86d2b1b9ec09f4fedb5a5", "fusion_lon": 0.0, "bike_id": "8348070afaf86d2b1b9ec09f4fedb5a5", "is_reserved": 0, "type": "electric_scooter", "lat": 38.9170805, "fusion_lat": 0.0, "is_disabled": 0}, {"rental_uris": {"android": "https://dc.lft.to/lastmile_qr_scan", "ios": "https://dc.lft.to/lastmile_qr_scan"}, "lon": -77.02842266666667, "name": "62748427c9523e97f53302e15a3e6d70", "fusion_lon": 0.0, "bike_id": "62748427c9523e97f53302e15a3e6d70", "is_reserved": 0, "type": "electric_scooter", "lat": 38.9327655, "fusion_lat": 0.0, "is_disabled": 0}, {"rental_uris": {"android": "https://dc.lft.to/lastmile_qr_scan", "ios": "https://dc.lft.to/lastmile_qr_scan"}, "lon": -77.01616616666666, "name": "1176bd0cc162e22484896ea702b75400", "fusion_lon": 0.0, "bike_id": "1176bd0cc162e22484896ea702b75400", "is_reserved": 0, "type": "electric_scooter", "lat": 38.899652, "fusion_lat": 0.0, "is_disabled": 0}, {"rental_uris": {"android": "https://dc.lft.to/lastmile_qr_scan", "ios": "https://dc.lft.to/lastmile_qr_scan"}, "lon": -77.05237083333333, "name": "2b31bd866cfec5d457eb13e7ce0e85d9", "fusion_lon": 0.0, "bike_id": "2b31bd866cfec5d457eb13e7ce0e85d9", "is_reserved": 0, "type": "electric_scooter", "lat": 38.923586666666665, "fusion_lat": 0.0, "is_disabled": 0}, {"rental_uris": {"android": "https://dc.lft.to/lastmile_qr_scan", "ios": "https://dc.lft.to/lastmile_qr_scan"}, "lon": -76.975959, "name": "64d18c5114675d8fa2c086b40fbd719a", "fusion_lon": 0.0, "bike_id": "64d18c5114675d8fa2c086b40fbd719a", "is_reserved": 0, "type": "electric_scooter", "lat": 38.903322, "fusion_lat": 0.0, "is_disabled": 0}, {"rental_uris": {"android": "https://dc.lft.to/lastmile_qr_scan", "ios": "https://dc.lft.to/lastmile_qr_scan"}, "lon": -76.99334783333333, "name": "11e17cc1f68ceb180e3c2f19aceb7de2", "fusion_lon": 0.0, "bike_id": "11e17cc1f68ceb180e3c2f19aceb7de2", "is_reserved": 0, "type": "electric_bike", "lat": 38.946745166666666, "fusion_lat": 0.0, "is_disabled": 0}, {"rental_uris": {"android": "https://dc.lft.to/lastmile_qr_scan", "ios": "https://dc.lft.to/lastmile_qr_scan"}, "lon": -77.03175516666667, "name": "4c025b7749116533eca351168b74e6d4", "fusion_lon": 0.0, "bike_id": "4c025b7749116533eca351168b74e6d4", "is_reserved": 0, "type": "electric_scooter", "lat": 38.91413683333333, "fusion_lat": 0.0, "is_disabled": 0}, {"rental_uris": {"android": "https://dc.lft.to/lastmile_qr_scan", "ios": "https://dc.lft.to/lastmile_qr_scan"}, "lon": -76.908661, "name": "3a3505b1b1d98e85be4e30548e6abfd7", "fusion_lon": 0.0, "bike_id": "3a3505b1b1d98e85be4e30548e6abfd7", "is_reserved": 0, "type": "electric_bike", "lat": 38.99883666666667, "fusion_lat": 0.0, "is_disabled": 0}, {"rental_uris": {"android": "https://dc.lft.to/lastmile_qr_scan", "ios": "https://dc.lft.to/lastmile_qr_scan"}, "lon": -77.04425266666667, "name": "c21d81169ddf7c7b336e69a3cd370423", "fusion_lon": 0.0, "bike_id": "c21d81169ddf7c7b336e69a3cd370423", "is_reserved": 0, "type": "electric_scooter", "lat": 38.911315333333334, "fusion_lat": 0.0, "is_disabled": 0}, {"rental_uris": {"android": "https://dc.lft.to/lastmile_qr_scan", "ios": "https://dc.lft.to/lastmile_qr_scan"}, "lon": -77.0059385, "name": "7ce9ea5df8ea079e1ec09b59bb28e772", "fusion_lon": 0.0, "bike_id": "7ce9ea5df8ea079e1ec09b59bb28e772", "is_reserved": 0, "type": "electric_scooter", "lat": 38.906477333333335, "fusion_lat": 0.0, "is_disabled": 0}, {"rental_uris": {"android": "https://dc.lft.to/lastmile_qr_scan", "ios": "https://dc.lft.to/lastmile_qr_scan"}, "lon": -76.99120133333334, "name": "0321d9a79ecaf3d35b9197b90d18ce41", "fusion_lon": 0.0, "bike_id": "0321d9a79ecaf3d35b9197b90d18ce41", "is_reserved": 0, "type": "electric_scooter", "lat": 38.897105333333336, "fusion_lat": 0.0, "is_disabled": 0}, {"rental_uris": {"android": "https://dc.lft.to/lastmile_qr_scan", "ios": "https://dc.lft.to/lastmile_qr_scan"}, "lon": -77.02039016666667, "name": "0e6187cc48cafaa6a26ed6105f6cf82b", "fusion_lon": 0.0, "bike_id": "0e6187cc48cafaa6a26ed6105f6cf82b", "is_reserved": 0, "type": "electric_scooter", "lat": 38.924292666666666, "fusion_lat": 0.0, "is_disabled": 0}, {"rental_uris": {"android": "https://dc.lft.to/lastmile_qr_scan", "ios": "https://dc.lft.to/lastmile_qr_scan"}, "lon": -77.0196115, "name": "68806e0fa9c272e944a931e3403f9b43", "fusion_lon": 0.0, "bike_id": "68806e0fa9c272e944a931e3403f9b43", "is_reserved": 0, "type": "electric_scooter", "lat": 38.92327683333333, "fusion_lat": 0.0, "is_disabled": 0}, {"rental_uris": {"android": "https://dc.lft.to/lastmile_qr_scan", "ios": "https://dc.lft.to/lastmile_qr_scan"}, "lon": -77.02612083333334, "name": "d35ed31efb7bef0f2ec218c2e1639ba8", "fusion_lon": 0.0, "bike_id": "d35ed31efb7bef0f2ec218c2e1639ba8", "is_reserved": 0, "type": "electric_bike", "lat": 38.98085316666667, "fusion_lat": 0.0, "is_disabled": 0}, {"rental_uris": {"android": "https://dc.lft.to/lastmile_qr_scan", "ios": "https://dc.lft.to/lastmile_qr_scan"}, "lon": -77.0401265, "name": "0abb93d0d845916c95fb1b6c2409dcf6", "fusion_lon": 0.0, "bike_id": "0abb93d0d845916c95fb1b6c2409dcf6", "is_reserved": 0, "type": "electric_scooter", "lat": 38.91803383333333, "fusion_lat": 0.0, "is_disabled": 0}, {"rental_uris": {"android": "https://dc.lft.to/lastmile_qr_scan", "ios": "https://dc.lft.to/lastmile_qr_scan"}, "lon": -77.03274233333333, "name": "11019ab3bea9804026a05776e9338bb3", "fusion_lon": 0.0, "bike_id": "11019ab3bea9804026a05776e9338bb3", "is_reserved": 0, "type": "electric_scooter", "lat": 38.927464, "fusion_lat": 0.0, "is_disabled": 0}, {"rental_uris": {"android": "https://dc.lft.to/lastmile_qr_scan", "ios": "https://dc.lft.to/lastmile_qr_scan"}, "lon": -77.03181616666667, "name": "bc08849183d031572d7e135c697f03d6", "fusion_lon": 0.0, "bike_id": "bc08849183d031572d7e135c697f03d6", "is_reserved": 0, "type": "electric_scooter", "lat": 38.919126, "fusion_lat": 0.0, "is_disabled": 0}, {"rental_uris": {"android": "https://dc.lft.to/lastmile_qr_scan", "ios": "https://dc.lft.to/lastmile_qr_scan"}, "lon": -77.02968483333333, "name": "4ecabf2a6e71125f2565d31efae2312d", "fusion_lon": 0.0, "bike_id": "4ecabf2a6e71125f2565d31efae2312d", "is_reserved": 0, "type": "electric_scooter", "lat": 38.9422205, "fusion_lat": 0.0, "is_disabled": 0}, {"rental_uris": {"android": "https://dc.lft.to/lastmile_qr_scan", "ios": "https://dc.lft.to/lastmile_qr_scan"}, "lon": -77.01234266666667, "name": "a60fa0cfeb52ef23a5ad6574e6a60819", "fusion_lon": 0.0, "bike_id": "a60fa0cfeb52ef23a5ad6574e6a60819", "is_reserved": 0, "type": "electric_scooter", "lat": 38.90109666666667, "fusion_lat": 0.0, "is_disabled": 0}, {"rental_uris": {"android": "https://dc.lft.to/lastmile_qr_scan", "ios": "https://dc.lft.to/lastmile_qr_scan"}, "lon": -77.0832475, "name": "c584a1ca9b898e3dc3e476b870edef56", "fusion_lon": 0.0, "bike_id": "c584a1ca9b898e3dc3e476b870edef56", "is_reserved": 0, "type": "electric_bike", "lat": 38.854320666666666, "fusion_lat": 0.0, "is_disabled": 0}, {"rental_uris": {"android": "https://dc.lft.to/lastmile_qr_scan", "ios": "https://dc.lft.to/lastmile_qr_scan"}, "lon": -77.042134, "name": "8c23e445ba3e007b0bd372c7e14b4584", "fusion_lon": 0.0, "bike_id": "8c23e445ba3e007b0bd372c7e14b4584", "is_reserved": 0, "type": "electric_scooter", "lat": 38.907507833333334, "fusion_lat": 0.0, "is_disabled": 0}, {"rental_uris": {"android": "https://dc.lft.to/lastmile_qr_scan", "ios": "https://dc.lft.to/lastmile_qr_scan"}, "lon": -77.02797483333333, "name": "2e4e96694f92611120e8409396b92ac9", "fusion_lon": 0.0, "bike_id": "2e4e96694f92611120e8409396b92ac9", "is_reserved": 0, "type": "electric_scooter", "lat": 38.896070333333334, "fusion_lat": 0.0, "is_disabled": 0}, {"rental_uris": {"android": "https://dc.lft.to/lastmile_qr_scan", "ios": "https://dc.lft.to/lastmile_qr_scan"}, "lon": -77.09527283333334, "name": "09cb89b6ee2b45e5424a8a34fd9c3bb3", "fusion_lon": 0.0, "bike_id": "09cb89b6ee2b45e5424a8a34fd9c3bb3", "is_reserved": 0, "type": "electric_bike", "lat": 38.8380885, "fusion_lat": 0.0, "is_disabled": 0}, {"rental_uris": {"android": "https://dc.lft.to/lastmile_qr_scan", "ios": "https://dc.lft.to/lastmile_qr_scan"}, "lon": -76.97631616666666, "name": "6cf03e3dcec6491c5e06ba3280dbf75f", "fusion_lon": 0.0, "bike_id": "6cf03e3dcec6491c5e06ba3280dbf75f", "is_reserved": 0, "type": "electric_bike", "lat": 38.84033516666667, "fusion_lat": 0.0, "is_disabled": 0}, {"rental_uris": {"android": "https://dc.lft.to/lastmile_qr_scan", "ios": "https://dc.lft.to/lastmile_qr_scan"}, "lon": -77.0322125, "name": "3effe7ceb892d2341fb96b3ed059559a", "fusion_lon": 0.0, "bike_id": "3effe7ceb892d2341fb96b3ed059559a", "is_reserved": 0, "type": "electric_scooter", "lat": 38.914689333333335, "fusion_lat": 0.0, "is_disabled": 0}, {"rental_uris": {"android": "https://dc.lft.to/lastmile_qr_scan", "ios": "https://dc.lft.to/lastmile_qr_scan"}, "lon": -77.041841, "name": "c33a9a72c866c79f975ac9db7967215e", "fusion_lon": 0.0, "bike_id": "c33a9a72c866c79f975ac9db7967215e", "is_reserved": 0, "type": "electric_scooter", "lat": 38.90538016666667, "fusion_lat": 0.0, "is_disabled": 0}, {"rental_uris": {"android": "https://dc.lft.to/lastmile_qr_scan", "ios": "https://dc.lft.to/lastmile_qr_scan"}, "lon": -77.02007216666667, "name": "1065c96c4a22c2f0bdff2f118605cd75", "fusion_lon": 0.0, "bike_id": "1065c96c4a22c2f0bdff2f118605cd75", "is_reserved": 0, "type": "electric_scooter", "lat": 38.93506383333333, "fusion_lat": 0.0, "is_disabled": 0}, {"rental_uris": {"android": "https://dc.lft.to/lastmile_qr_scan", "ios": "https://dc.lft.to/lastmile_qr_scan"}, "lon": -77.038566, "name": "ba3f4fb1a3d18577b3c10f327b15260b", "fusion_lon": 0.0, "bike_id": "ba3f4fb1a3d18577b3c10f327b15260b", "is_reserved": 0, "type": "electric_scooter", "lat": 38.91658866666667, "fusion_lat": 0.0, "is_disabled": 0}, {"rental_uris": {"android": "https://dc.lft.to/lastmile_qr_scan", "ios": "https://dc.lft.to/lastmile_qr_scan"}, "lon": -77.0256555, "name": "99dc3d323e450888fcd80d7136d05dd2", "fusion_lon": 0.0, "bike_id": "99dc3d323e450888fcd80d7136d05dd2", "is_reserved": 0, "type": "electric_scooter", "lat": 38.933516166666664, "fusion_lat": 0.0, "is_disabled": 0}, {"rental_uris": {"android": "https://dc.lft.to/lastmile_qr_scan", "ios": "https://dc.lft.to/lastmile_qr_scan"}, "lon": -77.02656966666666, "name": "fb20e70e0006d7acb21ddfc018ae1eb5", "fusion_lon": 0.0, "bike_id": "fb20e70e0006d7acb21ddfc018ae1eb5", "is_reserved": 0, "type": "electric_scooter", "lat": 38.894727, "fusion_lat": 0.0, "is_disabled": 0}, {"rental_uris": {"android": "https://dc.lft.to/lastmile_qr_scan", "ios": "https://dc.lft.to/lastmile_qr_scan"}, "lon": -77.0420055, "name": "774b0235c7ea09aac290defe277d0ea0", "fusion_lon": 0.0, "bike_id": "774b0235c7ea09aac290defe277d0ea0", "is_reserved": 0, "type": "electric_scooter", "lat": 38.92052133333333, "fusion_lat": 0.0, "is_disabled": 0}, {"rental_uris": {"android": "https://dc.lft.to/lastmile_qr_scan", "ios": "https://dc.lft.to/lastmile_qr_scan"}, "lon": -77.0226385, "name": "e5d19046e9467f94e2b2db7c1ed0bb4f", "fusion_lon": 0.0, "bike_id": "e5d19046e9467f94e2b2db7c1ed0bb4f", "is_reserved": 0, "type": "electric_scooter", "lat": 38.926834666666664, "fusion_lat": 0.0, "is_disabled": 0}, {"rental_uris": {"android": "https://dc.lft.to/lastmile_qr_scan", "ios": "https://dc.lft.to/lastmile_qr_scan"}, "lon": -77.057039, "name": "73323f55438c8a4bd0ee11b4c14d6974", "fusion_lon": 0.0, "bike_id": "73323f55438c8a4bd0ee11b4c14d6974", "is_reserved": 0, "type": "electric_scooter", "lat": 38.933489333333334, "fusion_lat": 0.0, "is_disabled": 0}, {"rental_uris": {"android": "https://dc.lft.to/lastmile_qr_scan", "ios": "https://dc.lft.to/lastmile_qr_scan"}, "lon": -77.02114416666667, "name": "35dc8b08fef6598ab647d13b67873403", "fusion_lon": 0.0, "bike_id": "35dc8b08fef6598ab647d13b67873403", "is_reserved": 0, "type": "electric_scooter", "lat": 38.930022, "fusion_lat": 0.0, "is_disabled": 0}, {"rental_uris": {"android": "https://dc.lft.to/lastmile_qr_scan", "ios": "https://dc.lft.to/lastmile_qr_scan"}, "lon": -77.00725416666667, "name": "b32e018d5219af10ca054def67a88b74", "fusion_lon": 0.0, "bike_id": "b32e018d5219af10ca054def67a88b74", "is_reserved": 0, "type": "electric_scooter", "lat": 38.911821833333335, "fusion_lat": 0.0, "is_disabled": 0}, {"rental_uris": {"android": "https://dc.lft.to/lastmile_qr_scan", "ios": "https://dc.lft.to/lastmile_qr_scan"}, "lon": -77.037877, "name": "4309cf8cdea863c839560516545bf11e", "fusion_lon": 0.0, "bike_id": "4309cf8cdea863c839560516545bf11e", "is_reserved": 0, "type": "electric_scooter", "lat": 38.9012325, "fusion_lat": 0.0, "is_disabled": 0}, {"rental_uris": {"android": "https://dc.lft.to/lastmile_qr_scan", "ios": "https://dc.lft.to/lastmile_qr_scan"}, "lon": -77.01627766666667, "name": "ea3ca8158268e7e8af264b2629bfc1c5", "fusion_lon": 0.0, "bike_id": "ea3ca8158268e7e8af264b2629bfc1c5", "is_reserved": 0, "type": "electric_scooter", "lat": 38.906861166666665, "fusion_lat": 0.0, "is_disabled": 0}, {"rental_uris": {"android": "https://dc.lft.to/lastmile_qr_scan", "ios": "https://dc.lft.to/lastmile_qr_scan"}, "lon": -77.05211016666667, "name": "3193b2a7855aa56b2c9a611a8a4fc768", "fusion_lon": 0.0, "bike_id": "3193b2a7855aa56b2c9a611a8a4fc768", "is_reserved": 0, "type": "electric_scooter", "lat": 38.92482, "fusion_lat": 0.0, "is_disabled": 0}, {"rental_uris": {"android": "https://dc.lft.to/lastmile_qr_scan", "ios": "https://dc.lft.to/lastmile_qr_scan"}, "lon": -77.02733, "name": "8c0b8e566f1a1944eccacc1225e2798b", "fusion_lon": 0.0, "bike_id": "8c0b8e566f1a1944eccacc1225e2798b", "is_reserved": 0, "type": "electric_scooter", "lat": 38.899337, "fusion_lat": 0.0, "is_disabled": 0}, {"rental_uris": {"android": "https://dc.lft.to/lastmile_qr_scan", "ios": "https://dc.lft.to/lastmile_qr_scan"}, "lon": -77.00803616666667, "name": "1362fff895684d83bb313a3ee137d182", "fusion_lon": 0.0, "bike_id": "1362fff895684d83bb313a3ee137d182", "is_reserved": 0, "type": "electric_scooter", "lat": 38.907222833333336, "fusion_lat": 0.0, "is_disabled": 0}, {"rental_uris": {"android": "https://dc.lft.to/lastmile_qr_scan", "ios": "https://dc.lft.to/lastmile_qr_scan"}, "lon": -77.04572483333334, "name": "4bfea58556b4eaaec0223a343e0b1cd2", "fusion_lon": 0.0, "bike_id": "4bfea58556b4eaaec0223a343e0b1cd2", "is_reserved": 0, "type": "electric_scooter", "lat": 38.92313383333333, "fusion_lat": 0.0, "is_disabled": 0}, {"rental_uris": {"android": "https://dc.lft.to/lastmile_qr_scan", "ios": "https://dc.lft.to/lastmile_qr_scan"}, "lon": -76.9813175, "name": "ccae6f5efa55bbdf0e51c441149488fc", "fusion_lon": 0.0, "bike_id": "ccae6f5efa55bbdf0e51c441149488fc", "is_reserved": 0, "type": "electric_scooter", "lat": 38.903948, "fusion_lat": 0.0, "is_disabled": 0}, {"rental_uris": {"android": "https://dc.lft.to/lastmile_qr_scan", "ios": "https://dc.lft.to/lastmile_qr_scan"}, "lon": -76.9416055, "name": "84b29f83400b300aa577f5e762811df9", "fusion_lon": 0.0, "bike_id": "84b29f83400b300aa577f5e762811df9", "is_reserved": 0, "type": "electric_bike", "lat": 38.90827766666666, "fusion_lat": 0.0, "is_disabled": 0}, {"rental_uris": {"android": "https://dc.lft.to/lastmile_qr_scan", "ios": "https://dc.lft.to/lastmile_qr_scan"}, "lon": -77.0318555, "name": "1825ae0540f0ceef56d1bdfa7848bada", "fusion_lon": 0.0, "bike_id": "1825ae0540f0ceef56d1bdfa7848bada", "is_reserved": 0, "type": "electric_scooter", "lat": 38.9171685, "fusion_lat": 0.0, "is_disabled": 0}, {"rental_uris": {"android": "https://dc.lft.to/lastmile_qr_scan", "ios": "https://dc.lft.to/lastmile_qr_scan"}, "lon": -77.02578783333334, "name": "d22543b9befcf60841cd8fec261de55c", "fusion_lon": 0.0, "bike_id": "d22543b9befcf60841cd8fec261de55c", "is_reserved": 0, "type": "electric_scooter", "lat": 38.91597466666666, "fusion_lat": 0.0, "is_disabled": 0}, {"rental_uris": {"android": "https://dc.lft.to/lastmile_qr_scan", "ios": "https://dc.lft.to/lastmile_qr_scan"}, "lon": -77.0268935, "name": "4e5b507ba67210e61ccdea80ef0e9e1d", "fusion_lon": 0.0, "bike_id": "4e5b507ba67210e61ccdea80ef0e9e1d", "is_reserved": 0, "type": "electric_scooter", "lat": 38.9238015, "fusion_lat": 0.0, "is_disabled": 0}, {"rental_uris": {"android": "https://dc.lft.to/lastmile_qr_scan", "ios": "https://dc.lft.to/lastmile_qr_scan"}, "lon": -77.04904383333333, "name": "96f9b51e4855b2896678b871f9a60fa0", "fusion_lon": 0.0, "bike_id": "96f9b51e4855b2896678b871f9a60fa0", "is_reserved": 0, "type": "electric_scooter", "lat": 38.919365166666665, "fusion_lat": 0.0, "is_disabled": 0}, {"rental_uris": {"android": "https://dc.lft.to/lastmile_qr_scan", "ios": "https://dc.lft.to/lastmile_qr_scan"}, "lon": -76.99429716666667, "name": "ce6fb5ea6df8ee52cf2aef6aa53d696f", "fusion_lon": 0.0, "bike_id": "ce6fb5ea6df8ee52cf2aef6aa53d696f", "is_reserved": 0, "type": "electric_scooter", "lat": 38.85223533333333, "fusion_lat": 0.0, "is_disabled": 0}, {"rental_uris": {"android": "https://dc.lft.to/lastmile_qr_scan", "ios": "https://dc.lft.to/lastmile_qr_scan"}, "lon": -77.03994183333333, "name": "1f90748f9a104a5a34d332d3a91a5778", "fusion_lon": 0.0, "bike_id": "1f90748f9a104a5a34d332d3a91a5778", "is_reserved": 0, "type": "electric_scooter", "lat": 38.892224666666664, "fusion_lat": 0.0, "is_disabled": 0}, {"rental_uris": {"android": "https://dc.lft.to/lastmile_qr_scan", "ios": "https://dc.lft.to/lastmile_qr_scan"}, "lon": -77.00595266666667, "name": "eba7887e962fbc2943671399fb6f6018", "fusion_lon": 0.0, "bike_id": "eba7887e962fbc2943671399fb6f6018", "is_reserved": 0, "type": "electric_scooter", "lat": 38.87881316666667, "fusion_lat": 0.0, "is_disabled": 0}, {"rental_uris": {"android": "https://dc.lft.to/lastmile_qr_scan", "ios": "https://dc.lft.to/lastmile_qr_scan"}, "lon": -76.98582883333333, "name": "b8c1aa250bfc4dd8406c21c357514414", "fusion_lon": 0.0, "bike_id": "b8c1aa250bfc4dd8406c21c357514414", "is_reserved": 0, "type": "electric_scooter", "lat": 38.899077, "fusion_lat": 0.0, "is_disabled": 0}, {"rental_uris": {"android": "https://dc.lft.to/lastmile_qr_scan", "ios": "https://dc.lft.to/lastmile_qr_scan"}, "lon": -77.02982616666667, "name": "c15d751bf5a13ed7f809607c08cd3ac4", "fusion_lon": 0.0, "bike_id": "c15d751bf5a13ed7f809607c08cd3ac4", "is_reserved": 0, "type": "electric_scooter", "lat": 38.92522733333333, "fusion_lat": 0.0, "is_disabled": 0}, {"rental_uris": {"android": "https://dc.lft.to/lastmile_qr_scan", "ios": "https://dc.lft.to/lastmile_qr_scan"}, "lon": -77.01946366666667, "name": "f66406dcbdd842f9bb7e878b4b0ce143", "fusion_lon": 0.0, "bike_id": "f66406dcbdd842f9bb7e878b4b0ce143", "is_reserved": 0, "type": "electric_scooter", "lat": 38.924205666666666, "fusion_lat": 0.0, "is_disabled": 0}, {"rental_uris": {"android": "https://dc.lft.to/lastmile_qr_scan", "ios": "https://dc.lft.to/lastmile_qr_scan"}, "lon": -77.02172866666666, "name": "10c3449da3d0779a26e30f13a6512c60", "fusion_lon": 0.0, "bike_id": "10c3449da3d0779a26e30f13a6512c60", "is_reserved": 0, "type": "electric_scooter", "lat": 38.914159166666664, "fusion_lat": 0.0, "is_disabled": 0}, {"rental_uris": {"android": "https://dc.lft.to/lastmile_qr_scan", "ios": "https://dc.lft.to/lastmile_qr_scan"}, "lon": -77.0321855, "name": "de2086590449043e2c446863070461f1", "fusion_lon": 0.0, "bike_id": "de2086590449043e2c446863070461f1", "is_reserved": 0, "type": "electric_scooter", "lat": 38.936153, "fusion_lat": 0.0, "is_disabled": 0}, {"rental_uris": {"android": "https://dc.lft.to/lastmile_qr_scan", "ios": "https://dc.lft.to/lastmile_qr_scan"}, "lon": -77.05223416666666, "name": "f58daa1a481dfe7b9dab2961e70f173b", "fusion_lon": 0.0, "bike_id": "f58daa1a481dfe7b9dab2961e70f173b", "is_reserved": 0, "type": "electric_scooter", "lat": 38.92476933333333, "fusion_lat": 0.0, "is_disabled": 0}, {"rental_uris": {"android": "https://dc.lft.to/lastmile_qr_scan", "ios": "https://dc.lft.to/lastmile_qr_scan"}, "lon": -77.06477733333334, "name": "789649fd84650844e0f63829eccbbd90", "fusion_lon": 0.0, "bike_id": "789649fd84650844e0f63829eccbbd90", "is_reserved": 0, "type": "electric_scooter", "lat": 38.9363295, "fusion_lat": 0.0, "is_disabled": 0}, {"rental_uris": {"android": "https://dc.lft.to/lastmile_qr_scan", "ios": "https://dc.lft.to/lastmile_qr_scan"}, "lon": -77.04471983333333, "name": "3454734c660074bff393140b35b17a10", "fusion_lon": 0.0, "bike_id": "3454734c660074bff393140b35b17a10", "is_reserved": 0, "type": "electric_scooter", "lat": 38.90071283333333, "fusion_lat": 0.0, "is_disabled": 0}, {"rental_uris": {"android": "https://dc.lft.to/lastmile_qr_scan", "ios": "https://dc.lft.to/lastmile_qr_scan"}, "lon": -76.981332, "name": "673081fbf5b6abb617e016f7099ff21c", "fusion_lon": 0.0, "bike_id": "673081fbf5b6abb617e016f7099ff21c", "is_reserved": 0, "type": "electric_scooter", "lat": 38.9031085, "fusion_lat": 0.0, "is_disabled": 0}, {"rental_uris": {"android": "https://dc.lft.to/lastmile_qr_scan", "ios": "https://dc.lft.to/lastmile_qr_scan"}, "lon": -77.01708983333333, "name": "d61b74eee43dd559de7afb313829b48f", "fusion_lon": 0.0, "bike_id": "d61b74eee43dd559de7afb313829b48f", "is_reserved": 0, "type": "electric_scooter", "lat": 38.974985333333336, "fusion_lat": 0.0, "is_disabled": 0}, {"rental_uris": {"android": "https://dc.lft.to/lastmile_qr_scan", "ios": "https://dc.lft.to/lastmile_qr_scan"}, "lon": -77.03163983333333, "name": "b0a9e5766836f9b3eb1d507485ae24a0", "fusion_lon": 0.0, "bike_id": "b0a9e5766836f9b3eb1d507485ae24a0", "is_reserved": 0, "type": "electric_scooter", "lat": 38.900261, "fusion_lat": 0.0, "is_disabled": 0}, {"rental_uris": {"android": "https://dc.lft.to/lastmile_qr_scan", "ios": "https://dc.lft.to/lastmile_qr_scan"}, "lon": -77.03219116666666, "name": "ae8414419d9997d5abad5caf99f017e1", "fusion_lon": 0.0, "bike_id": "ae8414419d9997d5abad5caf99f017e1", "is_reserved": 0, "type": "electric_scooter", "lat": 38.90834366666667, "fusion_lat": 0.0, "is_disabled": 0}, {"rental_uris": {"android": "https://dc.lft.to/lastmile_qr_scan", "ios": "https://dc.lft.to/lastmile_qr_scan"}, "lon": -77.02408933333334, "name": "1dcb782639a1e38d14174bf36c3b1385", "fusion_lon": 0.0, "bike_id": "1dcb782639a1e38d14174bf36c3b1385", "is_reserved": 0, "type": "electric_scooter", "lat": 38.9336215, "fusion_lat": 0.0, "is_disabled": 0}, {"rental_uris": {"android": "https://dc.lft.to/lastmile_qr_scan", "ios": "https://dc.lft.to/lastmile_qr_scan"}, "lon": -77.034673, "name": "a87f746b2297755fd3ed36fb810a260a", "fusion_lon": 0.0, "bike_id": "a87f746b2297755fd3ed36fb810a260a", "is_reserved": 0, "type": "electric_scooter", "lat": 38.902721, "fusion_lat": 0.0, "is_disabled": 0}, {"rental_uris": {"android": "https://dc.lft.to/lastmile_qr_scan", "ios": "https://dc.lft.to/lastmile_qr_scan"}, "lon": -76.97716316666667, "name": "0fd409df2949b01993fd45f77db2d17d", "fusion_lon": 0.0, "bike_id": "0fd409df2949b01993fd45f77db2d17d", "is_reserved": 0, "type": "electric_scooter", "lat": 38.8879275, "fusion_lat": 0.0, "is_disabled": 0}, {"rental_uris": {"android": "https://dc.lft.to/lastmile_qr_scan", "ios": "https://dc.lft.to/lastmile_qr_scan"}, "lon": -77.00334383333333, "name": "4d309dacfdb8bad6b6d55f7d39982cb6", "fusion_lon": 0.0, "bike_id": "4d309dacfdb8bad6b6d55f7d39982cb6", "is_reserved": 0, "type": "electric_scooter", "lat": 38.893537333333335, "fusion_lat": 0.0, "is_disabled": 0}, {"rental_uris": {"android": "https://dc.lft.to/lastmile_qr_scan", "ios": "https://dc.lft.to/lastmile_qr_scan"}, "lon": -77.01118883333334, "name": "c72724edd3ad77781b486c1336851db2", "fusion_lon": 0.0, "bike_id": "c72724edd3ad77781b486c1336851db2", "is_reserved": 0, "type": "electric_scooter", "lat": 38.895409666666666, "fusion_lat": 0.0, "is_disabled": 0}, {"rental_uris": {"android": "https://dc.lft.to/lastmile_qr_scan", "ios": "https://dc.lft.to/lastmile_qr_scan"}, "lon": -77.01758433333333, "name": "ff7dbc422e80ff670e5605622c06cdb7", "fusion_lon": 0.0, "bike_id": "ff7dbc422e80ff670e5605622c06cdb7", "is_reserved": 0, "type": "electric_scooter", "lat": 38.87718266666667, "fusion_lat": 0.0, "is_disabled": 0}, {"rental_uris": {"android": "https://dc.lft.to/lastmile_qr_scan", "ios": "https://dc.lft.to/lastmile_qr_scan"}, "lon": -77.03175083333333, "name": "7adfb064aa3628f83a40bec873c39ed7", "fusion_lon": 0.0, "bike_id": "7adfb064aa3628f83a40bec873c39ed7", "is_reserved": 0, "type": "electric_scooter", "lat": 38.91417383333334, "fusion_lat": 0.0, "is_disabled": 0}, {"rental_uris": {"android": "https://dc.lft.to/lastmile_qr_scan", "ios": "https://dc.lft.to/lastmile_qr_scan"}, "lon": -76.99698033333334, "name": "72b6798439de21694500e8b5d2cb2541", "fusion_lon": 0.0, "bike_id": "72b6798439de21694500e8b5d2cb2541", "is_reserved": 0, "type": "electric_bike", "lat": 38.838664333333334, "fusion_lat": 0.0, "is_disabled": 0}, {"rental_uris": {"android": "https://dc.lft.to/lastmile_qr_scan", "ios": "https://dc.lft.to/lastmile_qr_scan"}, "lon": -77.01360783333334, "name": "a0939b55e4e0bb9a87090e5209dd1cfa", "fusion_lon": 0.0, "bike_id": "a0939b55e4e0bb9a87090e5209dd1cfa", "is_reserved": 0, "type": "electric_bike", "lat": 38.89780666666667, "fusion_lat": 0.0, "is_disabled": 0}, {"rental_uris": {"android": "https://dc.lft.to/lastmile_qr_scan", "ios": "https://dc.lft.to/lastmile_qr_scan"}, "lon": -77.01615833333334, "name": "99ecc4b35441a4e68cd530598c6447a0", "fusion_lon": 0.0, "bike_id": "99ecc4b35441a4e68cd530598c6447a0", "is_reserved": 0, "type": "electric_scooter", "lat": 38.90588133333333, "fusion_lat": 0.0, "is_disabled": 0}, {"rental_uris": {"android": "https://dc.lft.to/lastmile_qr_scan", "ios": "https://dc.lft.to/lastmile_qr_scan"}, "lon": -77.0385255, "name": "4196d107f53701d99780826d4ac96e3f", "fusion_lon": 0.0, "bike_id": "4196d107f53701d99780826d4ac96e3f", "is_reserved": 0, "type": "electric_scooter", "lat": 38.91664633333333, "fusion_lat": 0.0, "is_disabled": 0}, {"rental_uris": {"android": "https://dc.lft.to/lastmile_qr_scan", "ios": "https://dc.lft.to/lastmile_qr_scan"}, "lon": -76.98698683333333, "name": "baeeb1721ec691f0821a7385f8e849aa", "fusion_lon": 0.0, "bike_id": "baeeb1721ec691f0821a7385f8e849aa", "is_reserved": 0, "type": "electric_bike", "lat": 38.94470833333333, "fusion_lat": 0.0, "is_disabled": 0}, {"rental_uris": {"android": "https://dc.lft.to/lastmile_qr_scan", "ios": "https://dc.lft.to/lastmile_qr_scan"}, "lon": -77.02405883333333, "name": "a990a77805cc5070cc2319def462d0bb", "fusion_lon": 0.0, "bike_id": "a990a77805cc5070cc2319def462d0bb", "is_reserved": 0, "type": "electric_scooter", "lat": 38.92495733333333, "fusion_lat": 0.0, "is_disabled": 0}, {"rental_uris": {"android": "https://dc.lft.to/lastmile_qr_scan", "ios": "https://dc.lft.to/lastmile_qr_scan"}, "lon": -76.99489316666667, "name": "6af644b4d581162c07356fbb41d6c768", "fusion_lon": 0.0, "bike_id": "6af644b4d581162c07356fbb41d6c768", "is_reserved": 0, "type": "electric_scooter", "lat": 38.89480833333333, "fusion_lat": 0.0, "is_disabled": 0}, {"rental_uris": {"android": "https://dc.lft.to/lastmile_qr_scan", "ios": "https://dc.lft.to/lastmile_qr_scan"}, "lon": -77.06476, "name": "08a1f7c92c5381bc6e3f37ac7be3effb", "fusion_lon": 0.0, "bike_id": "08a1f7c92c5381bc6e3f37ac7be3effb", "is_reserved": 0, "type": "electric_scooter", "lat": 38.9464905, "fusion_lat": 0.0, "is_disabled": 0}, {"rental_uris": {"android": "https://dc.lft.to/lastmile_qr_scan", "ios": "https://dc.lft.to/lastmile_qr_scan"}, "lon": -77.02906033333333, "name": "1bdb5681b46669758e8d9f8a96d367e2", "fusion_lon": 0.0, "bike_id": "1bdb5681b46669758e8d9f8a96d367e2", "is_reserved": 0, "type": "electric_scooter", "lat": 38.9404225, "fusion_lat": 0.0, "is_disabled": 0}, {"rental_uris": {"android": "https://dc.lft.to/lastmile_qr_scan", "ios": "https://dc.lft.to/lastmile_qr_scan"}, "lon": -77.01803783333334, "name": "589c143dddcf4632c5f34bafe5356df6", "fusion_lon": 0.0, "bike_id": "589c143dddcf4632c5f34bafe5356df6", "is_reserved": 0, "type": "electric_bike", "lat": 38.99413033333333, "fusion_lat": 0.0, "is_disabled": 0}, {"rental_uris": {"android": "https://dc.lft.to/lastmile_qr_scan", "ios": "https://dc.lft.to/lastmile_qr_scan"}, "lon": -77.02233783333334, "name": "fd691174d687316441d42590d0138a74", "fusion_lon": 0.0, "bike_id": "fd691174d687316441d42590d0138a74", "is_reserved": 0, "type": "electric_scooter", "lat": 38.899774666666666, "fusion_lat": 0.0, "is_disabled": 0}, {"rental_uris": {"android": "https://dc.lft.to/lastmile_qr_scan", "ios": "https://dc.lft.to/lastmile_qr_scan"}, "lon": -77.013065, "name": "636f60e9384afcc2240465a443023349", "fusion_lon": 0.0, "bike_id": "636f60e9384afcc2240465a443023349", "is_reserved": 0, "type": "electric_scooter", "lat": 38.8970165, "fusion_lat": 0.0, "is_disabled": 0}, {"rental_uris": {"android": "https://dc.lft.to/lastmile_qr_scan", "ios": "https://dc.lft.to/lastmile_qr_scan"}, "lon": -77.02166516666666, "name": "26cba2212062d013ad99d9d1da0d0aa9", "fusion_lon": 0.0, "bike_id": "26cba2212062d013ad99d9d1da0d0aa9", "is_reserved": 0, "type": "electric_scooter", "lat": 38.92451466666667, "fusion_lat": 0.0, "is_disabled": 0}, {"rental_uris": {"android": "https://dc.lft.to/lastmile_qr_scan", "ios": "https://dc.lft.to/lastmile_qr_scan"}, "lon": -77.0271675, "name": "2b48d4385a0b2ed4ba937e25b1a6ba24", "fusion_lon": 0.0, "bike_id": "2b48d4385a0b2ed4ba937e25b1a6ba24", "is_reserved": 0, "type": "electric_scooter", "lat": 38.92482233333333, "fusion_lat": 0.0, "is_disabled": 0}, {"rental_uris": {"android": "https://dc.lft.to/lastmile_qr_scan", "ios": "https://dc.lft.to/lastmile_qr_scan"}, "lon": -77.03206983333334, "name": "50fe63e4e596b017a27575da360e0eb3", "fusion_lon": 0.0, "bike_id": "50fe63e4e596b017a27575da360e0eb3", "is_reserved": 0, "type": "electric_scooter", "lat": 38.88722633333333, "fusion_lat": 0.0, "is_disabled": 0}, {"rental_uris": {"android": "https://dc.lft.to/lastmile_qr_scan", "ios": "https://dc.lft.to/lastmile_qr_scan"}, "lon": -77.04158466666667, "name": "e31f8619000bc9753429873f7aaa3b32", "fusion_lon": 0.0, "bike_id": "e31f8619000bc9753429873f7aaa3b32", "is_reserved": 0, "type": "electric_scooter", "lat": 38.91749516666667, "fusion_lat": 0.0, "is_disabled": 0}, {"rental_uris": {"android": "https://dc.lft.to/lastmile_qr_scan", "ios": "https://dc.lft.to/lastmile_qr_scan"}, "lon": -77.021171, "name": "4d68680281b9c6f7094a05634449b365", "fusion_lon": 0.0, "bike_id": "4d68680281b9c6f7094a05634449b365", "is_reserved": 0, "type": "electric_scooter", "lat": 38.922306, "fusion_lat": 0.0, "is_disabled": 0}, {"rental_uris": {"android": "https://dc.lft.to/lastmile_qr_scan", "ios": "https://dc.lft.to/lastmile_qr_scan"}, "lon": -77.0402525, "name": "58bfe9b55512343a451825d0cd01884e", "fusion_lon": 0.0, "bike_id": "58bfe9b55512343a451825d0cd01884e", "is_reserved": 0, "type": "electric_scooter", "lat": 38.905251666666665, "fusion_lat": 0.0, "is_disabled": 0}, {"rental_uris": {"android": "https://dc.lft.to/lastmile_qr_scan", "ios": "https://dc.lft.to/lastmile_qr_scan"}, "lon": -77.34461516666667, "name": "691d3f3b8108129772a37f81453731ec", "fusion_lon": 0.0, "bike_id": "691d3f3b8108129772a37f81453731ec", "is_reserved": 0, "type": "electric_bike", "lat": 38.94537366666667, "fusion_lat": 0.0, "is_disabled": 0}, {"rental_uris": {"android": "https://dc.lft.to/lastmile_qr_scan", "ios": "https://dc.lft.to/lastmile_qr_scan"}, "lon": -77.00335916666667, "name": "36217e73dcb4dafa50ab5d153003890b", "fusion_lon": 0.0, "bike_id": "36217e73dcb4dafa50ab5d153003890b", "is_reserved": 0, "type": "electric_scooter", "lat": 38.89357016666666, "fusion_lat": 0.0, "is_disabled": 0}, {"rental_uris": {"android": "https://dc.lft.to/lastmile_qr_scan", "ios": "https://dc.lft.to/lastmile_qr_scan"}, "lon": -77.0280025, "name": "c82f9496c992941b1270a9a21924936d", "fusion_lon": 0.0, "bike_id": "c82f9496c992941b1270a9a21924936d", "is_reserved": 0, "type": "electric_scooter", "lat": 38.929700833333335, "fusion_lat": 0.0, "is_disabled": 0}, {"rental_uris": {"android": "https://dc.lft.to/lastmile_qr_scan", "ios": "https://dc.lft.to/lastmile_qr_scan"}, "lon": -76.98069783333334, "name": "44a551a7d99647ecd0e505376bdee05b", "fusion_lon": 0.0, "bike_id": "44a551a7d99647ecd0e505376bdee05b", "is_reserved": 0, "type": "electric_scooter", "lat": 38.86490716666667, "fusion_lat": 0.0, "is_disabled": 0}, {"rental_uris": {"android": "https://dc.lft.to/lastmile_qr_scan", "ios": "https://dc.lft.to/lastmile_qr_scan"}, "lon": -77.07172416666667, "name": "b081cf80f4f41dd6c693e49300ac3b88", "fusion_lon": 0.0, "bike_id": "b081cf80f4f41dd6c693e49300ac3b88", "is_reserved": 0, "type": "electric_bike", "lat": 38.908678333333334, "fusion_lat": 0.0, "is_disabled": 0}, {"rental_uris": {"android": "https://dc.lft.to/lastmile_qr_scan", "ios": "https://dc.lft.to/lastmile_qr_scan"}, "lon": -76.9367645, "name": "d6a6f0277f4b007507048654a3d515d1", "fusion_lon": 0.0, "bike_id": "d6a6f0277f4b007507048654a3d515d1", "is_reserved": 0, "type": "electric_scooter", "lat": 38.886622833333334, "fusion_lat": 0.0, "is_disabled": 0}, {"rental_uris": {"android": "https://dc.lft.to/lastmile_qr_scan", "ios": "https://dc.lft.to/lastmile_qr_scan"}, "lon": -76.95150266666667, "name": "16b1c5056ff1a652d742bcc56e69ac70", "fusion_lon": 0.0, "bike_id": "16b1c5056ff1a652d742bcc56e69ac70", "is_reserved": 0, "type": "electric_bike", "lat": 39.084307, "fusion_lat": 0.0, "is_disabled": 0}, {"rental_uris": {"android": "https://dc.lft.to/lastmile_qr_scan", "ios": "https://dc.lft.to/lastmile_qr_scan"}, "lon": -77.02406016666667, "name": "ecc3e1618b8fd469189a4081473a38ed", "fusion_lon": 0.0, "bike_id": "ecc3e1618b8fd469189a4081473a38ed", "is_reserved": 0, "type": "electric_scooter", "lat": 38.90988933333333, "fusion_lat": 0.0, "is_disabled": 0}, {"rental_uris": {"android": "https://dc.lft.to/lastmile_qr_scan", "ios": "https://dc.lft.to/lastmile_qr_scan"}, "lon": -77.01671683333333, "name": "76b5d790131934a11a544154040b256b", "fusion_lon": 0.0, "bike_id": "76b5d790131934a11a544154040b256b", "is_reserved": 0, "type": "electric_scooter", "lat": 38.9132935, "fusion_lat": 0.0, "is_disabled": 0}, {"rental_uris": {"android": "https://dc.lft.to/lastmile_qr_scan", "ios": "https://dc.lft.to/lastmile_qr_scan"}, "lon": -77.044911, "name": "249119fa5e465a50448314349d3a45b7", "fusion_lon": 0.0, "bike_id": "249119fa5e465a50448314349d3a45b7", "is_reserved": 0, "type": "electric_scooter", "lat": 38.900277833333334, "fusion_lat": 0.0, "is_disabled": 0}, {"rental_uris": {"android": "https://dc.lft.to/lastmile_qr_scan", "ios": "https://dc.lft.to/lastmile_qr_scan"}, "lon": -77.0190435, "name": "27e4e8ccc34d55e2dba1752d839e694b", "fusion_lon": 0.0, "bike_id": "27e4e8ccc34d55e2dba1752d839e694b", "is_reserved": 0, "type": "electric_scooter", "lat": 38.897979666666664, "fusion_lat": 0.0, "is_disabled": 0}, {"rental_uris": {"android": "https://dc.lft.to/lastmile_qr_scan", "ios": "https://dc.lft.to/lastmile_qr_scan"}, "lon": -77.02603166666667, "name": "ce0f256432933d21384291cd3330eb3e", "fusion_lon": 0.0, "bike_id": "ce0f256432933d21384291cd3330eb3e", "is_reserved": 0, "type": "electric_scooter", "lat": 38.92791233333333, "fusion_lat": 0.0, "is_disabled": 0}, {"rental_uris": {"android": "https://dc.lft.to/lastmile_qr_scan", "ios": "https://dc.lft.to/lastmile_qr_scan"}, "lon": -77.02349216666667, "name": "2398059039f6ac8b3e443ec41eed5467", "fusion_lon": 0.0, "bike_id": "2398059039f6ac8b3e443ec41eed5467", "is_reserved": 0, "type": "electric_scooter", "lat": 38.93536566666667, "fusion_lat": 0.0, "is_disabled": 0}, {"rental_uris": {"android": "https://dc.lft.to/lastmile_qr_scan", "ios": "https://dc.lft.to/lastmile_qr_scan"}, "lon": -77.0095965, "name": "97ca94f27aa4e551c5c92ebedecbc476", "fusion_lon": 0.0, "bike_id": "97ca94f27aa4e551c5c92ebedecbc476", "is_reserved": 0, "type": "electric_scooter", "lat": 38.88325233333333, "fusion_lat": 0.0, "is_disabled": 0}, {"rental_uris": {"android": "https://dc.lft.to/lastmile_qr_scan", "ios": "https://dc.lft.to/lastmile_qr_scan"}, "lon": -77.01866683333333, "name": "b7437191f1fb74af2ee3374db90ec552", "fusion_lon": 0.0, "bike_id": "b7437191f1fb74af2ee3374db90ec552", "is_reserved": 0, "type": "electric_scooter", "lat": 38.9006985, "fusion_lat": 0.0, "is_disabled": 0}, {"rental_uris": {"android": "https://dc.lft.to/lastmile_qr_scan", "ios": "https://dc.lft.to/lastmile_qr_scan"}, "lon": -77.1207765, "name": "d9a6833379f8846d8a3e5effb470218f", "fusion_lon": 0.0, "bike_id": "d9a6833379f8846d8a3e5effb470218f", "is_reserved": 0, "type": "electric_bike", "lat": 38.78397016666667, "fusion_lat": 0.0, "is_disabled": 0}, {"rental_uris": {"android": "https://dc.lft.to/lastmile_qr_scan", "ios": "https://dc.lft.to/lastmile_qr_scan"}, "lon": -77.0342235, "name": "b429e3b37a033df035d5d15633b60857", "fusion_lon": 0.0, "bike_id": "b429e3b37a033df035d5d15633b60857", "is_reserved": 0, "type": "electric_scooter", "lat": 38.919194833333336, "fusion_lat": 0.0, "is_disabled": 0}, {"rental_uris": {"android": "https://dc.lft.to/lastmile_qr_scan", "ios": "https://dc.lft.to/lastmile_qr_scan"}, "lon": -77.03154216666667, "name": "3f93ac9ed3d20d1546b4d24c0353a32c", "fusion_lon": 0.0, "bike_id": "3f93ac9ed3d20d1546b4d24c0353a32c", "is_reserved": 0, "type": "electric_scooter", "lat": 38.927884, "fusion_lat": 0.0, "is_disabled": 0}, {"rental_uris": {"android": "https://dc.lft.to/lastmile_qr_scan", "ios": "https://dc.lft.to/lastmile_qr_scan"}, "lon": -77.02394166666667, "name": "ea683af6105a106956f4d97d3752021c", "fusion_lon": 0.0, "bike_id": "ea683af6105a106956f4d97d3752021c", "is_reserved": 0, "type": "electric_scooter", "lat": 38.906996, "fusion_lat": 0.0, "is_disabled": 0}, {"rental_uris": {"android": "https://dc.lft.to/lastmile_qr_scan", "ios": "https://dc.lft.to/lastmile_qr_scan"}, "lon": -76.983994, "name": "bab604f57f20018ae46b364204246fc5", "fusion_lon": 0.0, "bike_id": "bab604f57f20018ae46b364204246fc5", "is_reserved": 0, "type": "electric_scooter", "lat": 38.908991666666665, "fusion_lat": 0.0, "is_disabled": 0}, {"rental_uris": {"android": "https://dc.lft.to/lastmile_qr_scan", "ios": "https://dc.lft.to/lastmile_qr_scan"}, "lon": -77.03164133333334, "name": "d47fbf7709c655dccf95f4fd287acd04", "fusion_lon": 0.0, "bike_id": "d47fbf7709c655dccf95f4fd287acd04", "is_reserved": 0, "type": "electric_scooter", "lat": 38.8862425, "fusion_lat": 0.0, "is_disabled": 0}, {"rental_uris": {"android": "https://dc.lft.to/lastmile_qr_scan", "ios": "https://dc.lft.to/lastmile_qr_scan"}, "lon": -77.05912216666667, "name": "ddcbac8f317e01964e8333926affcdbe", "fusion_lon": 0.0, "bike_id": "ddcbac8f317e01964e8333926affcdbe", "is_reserved": 0, "type": "electric_scooter", "lat": 38.936241833333334, "fusion_lat": 0.0, "is_disabled": 0}, {"rental_uris": {"android": "https://dc.lft.to/lastmile_qr_scan", "ios": "https://dc.lft.to/lastmile_qr_scan"}, "lon": -76.95664433333333, "name": "f348cb9be3da7ed05f343557b9b716eb", "fusion_lon": 0.0, "bike_id": "f348cb9be3da7ed05f343557b9b716eb", "is_reserved": 0, "type": "electric_bike", "lat": 38.88487333333333, "fusion_lat": 0.0, "is_disabled": 0}, {"rental_uris": {"android": "https://dc.lft.to/lastmile_qr_scan", "ios": "https://dc.lft.to/lastmile_qr_scan"}, "lon": -77.00676733333333, "name": "1855ebcb385e68410e6842ca4a0eafd4", "fusion_lon": 0.0, "bike_id": "1855ebcb385e68410e6842ca4a0eafd4", "is_reserved": 0, "type": "electric_scooter", "lat": 38.900056166666666, "fusion_lat": 0.0, "is_disabled": 0}, {"rental_uris": {"android": "https://dc.lft.to/lastmile_qr_scan", "ios": "https://dc.lft.to/lastmile_qr_scan"}, "lon": -77.0185345, "name": "9a496e6888e87425761503e2af84051a", "fusion_lon": 0.0, "bike_id": "9a496e6888e87425761503e2af84051a", "is_reserved": 0, "type": "electric_scooter", "lat": 38.90073616666667, "fusion_lat": 0.0, "is_disabled": 0}, {"rental_uris": {"android": "https://dc.lft.to/lastmile_qr_scan", "ios": "https://dc.lft.to/lastmile_qr_scan"}, "lon": -77.03342233333333, "name": "cada300bc9046e6eab61ab5cb350d92f", "fusion_lon": 0.0, "bike_id": "cada300bc9046e6eab61ab5cb350d92f", "is_reserved": 0, "type": "electric_scooter", "lat": 38.902406666666664, "fusion_lat": 0.0, "is_disabled": 0}, {"rental_uris": {"android": "https://dc.lft.to/lastmile_qr_scan", "ios": "https://dc.lft.to/lastmile_qr_scan"}, "lon": -77.0484225, "name": "b6d6eaf3768c6acf380349e5e2eda3e0", "fusion_lon": 0.0, "bike_id": "b6d6eaf3768c6acf380349e5e2eda3e0", "is_reserved": 0, "type": "electric_scooter", "lat": 38.918609000000004, "fusion_lat": 0.0, "is_disabled": 0}, {"rental_uris": {"android": "https://dc.lft.to/lastmile_qr_scan", "ios": "https://dc.lft.to/lastmile_qr_scan"}, "lon": -76.92128033333333, "name": "ecc6155637635f5621fd37c847d66d9d", "fusion_lon": 0.0, "bike_id": "ecc6155637635f5621fd37c847d66d9d", "is_reserved": 0, "type": "electric_scooter", "lat": 38.893046, "fusion_lat": 0.0, "is_disabled": 0}, {"rental_uris": {"android": "https://dc.lft.to/lastmile_qr_scan", "ios": "https://dc.lft.to/lastmile_qr_scan"}, "lon": -77.0244055, "name": "aceec336551da575f82d52f9c7c03023", "fusion_lon": 0.0, "bike_id": "aceec336551da575f82d52f9c7c03023", "is_reserved": 0, "type": "electric_scooter", "lat": 38.90220166666667, "fusion_lat": 0.0, "is_disabled": 0}, {"rental_uris": {"android": "https://dc.lft.to/lastmile_qr_scan", "ios": "https://dc.lft.to/lastmile_qr_scan"}, "lon": -77.0357195, "name": "9106a0e44000161bf272f174f48c34fa", "fusion_lon": 0.0, "bike_id": "9106a0e44000161bf272f174f48c34fa", "is_reserved": 0, "type": "electric_scooter", "lat": 38.9397795, "fusion_lat": 0.0, "is_disabled": 0}, {"rental_uris": {"android": "https://dc.lft.to/lastmile_qr_scan", "ios": "https://dc.lft.to/lastmile_qr_scan"}, "lon": -77.000548, "name": "39282dd3b68f531596890ce09f3a6ef7", "fusion_lon": 0.0, "bike_id": "39282dd3b68f531596890ce09f3a6ef7", "is_reserved": 0, "type": "electric_bike", "lat": 38.793319, "fusion_lat": 0.0, "is_disabled": 0}, {"rental_uris": {"android": "https://dc.lft.to/lastmile_qr_scan", "ios": "https://dc.lft.to/lastmile_qr_scan"}, "lon": -76.99046916666667, "name": "96c7976561116d9902b0c5bfd99749c2", "fusion_lon": 0.0, "bike_id": "96c7976561116d9902b0c5bfd99749c2", "is_reserved": 0, "type": "electric_scooter", "lat": 38.905839666666665, "fusion_lat": 0.0, "is_disabled": 0}, {"rental_uris": {"android": "https://dc.lft.to/lastmile_qr_scan", "ios": "https://dc.lft.to/lastmile_qr_scan"}, "lon": -77.03765783333333, "name": "8340c4b9dc88d4ad4e97a5257d95626d", "fusion_lon": 0.0, "bike_id": "8340c4b9dc88d4ad4e97a5257d95626d", "is_reserved": 0, "type": "electric_scooter", "lat": 38.906768666666665, "fusion_lat": 0.0, "is_disabled": 0}, {"rental_uris": {"android": "https://dc.lft.to/lastmile_qr_scan", "ios": "https://dc.lft.to/lastmile_qr_scan"}, "lon": -77.028356, "name": "6d661962a28e9fd90e15a2e6658cb7dd", "fusion_lon": 0.0, "bike_id": "6d661962a28e9fd90e15a2e6658cb7dd", "is_reserved": 0, "type": "electric_scooter", "lat": 38.894879, "fusion_lat": 0.0, "is_disabled": 0}, {"rental_uris": {"android": "https://dc.lft.to/lastmile_qr_scan", "ios": "https://dc.lft.to/lastmile_qr_scan"}, "lon": -77.00615883333333, "name": "356b28aeb9aa49a95704abfecf6d3160", "fusion_lon": 0.0, "bike_id": "356b28aeb9aa49a95704abfecf6d3160", "is_reserved": 0, "type": "electric_scooter", "lat": 38.87181116666667, "fusion_lat": 0.0, "is_disabled": 0}, {"rental_uris": {"android": "https://dc.lft.to/lastmile_qr_scan", "ios": "https://dc.lft.to/lastmile_qr_scan"}, "lon": -77.03926966666667, "name": "5639779225f15b0ab30230f3204c3d3e", "fusion_lon": 0.0, "bike_id": "5639779225f15b0ab30230f3204c3d3e", "is_reserved": 0, "type": "electric_scooter", "lat": 38.90620533333333, "fusion_lat": 0.0, "is_disabled": 0}, {"rental_uris": {"android": "https://dc.lft.to/lastmile_qr_scan", "ios": "https://dc.lft.to/lastmile_qr_scan"}, "lon": -77.03764566666666, "name": "5c9b0091210f44aaca4fab1003300a0b", "fusion_lon": 0.0, "bike_id": "5c9b0091210f44aaca4fab1003300a0b", "is_reserved": 0, "type": "electric_scooter", "lat": 38.90770333333333, "fusion_lat": 0.0, "is_disabled": 0}, {"rental_uris": {"android": "https://dc.lft.to/lastmile_qr_scan", "ios": "https://dc.lft.to/lastmile_qr_scan"}, "lon": -77.02228716666667, "name": "fcc14917e769cad6503e95214f2a0857", "fusion_lon": 0.0, "bike_id": "fcc14917e769cad6503e95214f2a0857", "is_reserved": 0, "type": "electric_scooter", "lat": 38.924808666666664, "fusion_lat": 0.0, "is_disabled": 0}, {"rental_uris": {"android": "https://dc.lft.to/lastmile_qr_scan", "ios": "https://dc.lft.to/lastmile_qr_scan"}, "lon": -76.9854505, "name": "a04724485f60b437862cecf2af84a890", "fusion_lon": 0.0, "bike_id": "a04724485f60b437862cecf2af84a890", "is_reserved": 0, "type": "electric_scooter", "lat": 38.91293066666667, "fusion_lat": 0.0, "is_disabled": 0}, {"rental_uris": {"android": "https://dc.lft.to/lastmile_qr_scan", "ios": "https://dc.lft.to/lastmile_qr_scan"}, "lon": -77.00332766666666, "name": "ab87b06cc29866f20992e64b5a119880", "fusion_lon": 0.0, "bike_id": "ab87b06cc29866f20992e64b5a119880", "is_reserved": 0, "type": "electric_scooter", "lat": 38.8936295, "fusion_lat": 0.0, "is_disabled": 0}, {"rental_uris": {"android": "https://dc.lft.to/lastmile_qr_scan", "ios": "https://dc.lft.to/lastmile_qr_scan"}, "lon": -77.06967816666666, "name": "e5def9f48c16f9643225cad910f4039e", "fusion_lon": 0.0, "bike_id": "e5def9f48c16f9643225cad910f4039e", "is_reserved": 0, "type": "electric_scooter", "lat": 38.95214433333334, "fusion_lat": 0.0, "is_disabled": 0}, {"rental_uris": {"android": "https://dc.lft.to/lastmile_qr_scan", "ios": "https://dc.lft.to/lastmile_qr_scan"}, "lon": -77.02305566666666, "name": "10a20b33e3dd4f3558a285d7e142db38", "fusion_lon": 0.0, "bike_id": "10a20b33e3dd4f3558a285d7e142db38", "is_reserved": 0, "type": "electric_scooter", "lat": 38.9208185, "fusion_lat": 0.0, "is_disabled": 0}, {"rental_uris": {"android": "https://dc.lft.to/lastmile_qr_scan", "ios": "https://dc.lft.to/lastmile_qr_scan"}, "lon": -77.03046166666667, "name": "87ff4994e55007a9eff8ea726295b220", "fusion_lon": 0.0, "bike_id": "87ff4994e55007a9eff8ea726295b220", "is_reserved": 0, "type": "electric_scooter", "lat": 38.924739833333334, "fusion_lat": 0.0, "is_disabled": 0}, {"rental_uris": {"android": "https://dc.lft.to/lastmile_qr_scan", "ios": "https://dc.lft.to/lastmile_qr_scan"}, "lon": -77.06887433333333, "name": "2a4280ba0d877c236b3cffc46a2503d5", "fusion_lon": 0.0, "bike_id": "2a4280ba0d877c236b3cffc46a2503d5", "is_reserved": 0, "type": "electric_scooter", "lat": 38.92760333333333, "fusion_lat": 0.0, "is_disabled": 0}, {"rental_uris": {"android": "https://dc.lft.to/lastmile_qr_scan", "ios": "https://dc.lft.to/lastmile_qr_scan"}, "lon": -77.04198216666667, "name": "77f7c5896125128c347377c8648cbb53", "fusion_lon": 0.0, "bike_id": "77f7c5896125128c347377c8648cbb53", "is_reserved": 0, "type": "electric_scooter", "lat": 38.920543, "fusion_lat": 0.0, "is_disabled": 0}, {"rental_uris": {"android": "https://dc.lft.to/lastmile_qr_scan", "ios": "https://dc.lft.to/lastmile_qr_scan"}, "lon": -77.01496566666667, "name": "7d874085d84d97892fef5d43ea642b59", "fusion_lon": 0.0, "bike_id": "7d874085d84d97892fef5d43ea642b59", "is_reserved": 0, "type": "electric_scooter", "lat": 38.9576205, "fusion_lat": 0.0, "is_disabled": 0}, {"rental_uris": {"android": "https://dc.lft.to/lastmile_qr_scan", "ios": "https://dc.lft.to/lastmile_qr_scan"}, "lon": -77.03985366666667, "name": "211811539d6a7428e4a0ab215c595e72", "fusion_lon": 0.0, "bike_id": "211811539d6a7428e4a0ab215c595e72", "is_reserved": 0, "type": "electric_scooter", "lat": 38.8922025, "fusion_lat": 0.0, "is_disabled": 0}, {"rental_uris": {"android": "https://dc.lft.to/lastmile_qr_scan", "ios": "https://dc.lft.to/lastmile_qr_scan"}, "lon": -76.98415333333334, "name": "9a2e30e6804ac525fd730ca59fa73a35", "fusion_lon": 0.0, "bike_id": "9a2e30e6804ac525fd730ca59fa73a35", "is_reserved": 0, "type": "electric_scooter", "lat": 38.905822666666666, "fusion_lat": 0.0, "is_disabled": 0}, {"rental_uris": {"android": "https://dc.lft.to/lastmile_qr_scan", "ios": "https://dc.lft.to/lastmile_qr_scan"}, "lon": -76.86844666666667, "name": "1a1c5c290b6f85f80f3e56d5cc54d400", "fusion_lon": 0.0, "bike_id": "1a1c5c290b6f85f80f3e56d5cc54d400", "is_reserved": 0, "type": "electric_bike", "lat": 38.893862166666665, "fusion_lat": 0.0, "is_disabled": 0}, {"rental_uris": {"android": "https://dc.lft.to/lastmile_qr_scan", "ios": "https://dc.lft.to/lastmile_qr_scan"}, "lon": -77.01097133333333, "name": "db01fcc1e9cb985b938165979e467b95", "fusion_lon": 0.0, "bike_id": "db01fcc1e9cb985b938165979e467b95", "is_reserved": 0, "type": "electric_scooter", "lat": 38.8946535, "fusion_lat": 0.0, "is_disabled": 0}, {"rental_uris": {"android": "https://dc.lft.to/lastmile_qr_scan", "ios": "https://dc.lft.to/lastmile_qr_scan"}, "lon": -77.05012166666667, "name": "47beb1878ef1ae5ed1a5f3c7e9bcf6c4", "fusion_lon": 0.0, "bike_id": "47beb1878ef1ae5ed1a5f3c7e9bcf6c4", "is_reserved": 0, "type": "electric_scooter", "lat": 38.90678883333333, "fusion_lat": 0.0, "is_disabled": 0}, {"rental_uris": {"android": "https://dc.lft.to/lastmile_qr_scan", "ios": "https://dc.lft.to/lastmile_qr_scan"}, "lon": -77.04796333333333, "name": "b7bd7949a2577eedefb1f45e396c1b5f", "fusion_lon": 0.0, "bike_id": "b7bd7949a2577eedefb1f45e396c1b5f", "is_reserved": 0, "type": "electric_scooter", "lat": 38.897710000000004, "fusion_lat": 0.0, "is_disabled": 0}, {"rental_uris": {"android": "https://dc.lft.to/lastmile_qr_scan", "ios": "https://dc.lft.to/lastmile_qr_scan"}, "lon": -76.99816916666667, "name": "61a898a369bc7bcb931822cd0839ff93", "fusion_lon": 0.0, "bike_id": "61a898a369bc7bcb931822cd0839ff93", "is_reserved": 0, "type": "electric_scooter", "lat": 38.929141, "fusion_lat": 0.0, "is_disabled": 0}, {"rental_uris": {"android": "https://dc.lft.to/lastmile_qr_scan", "ios": "https://dc.lft.to/lastmile_qr_scan"}, "lon": -77.0316325, "name": "bfadd011b0b7dfe863aa0e37b4c2fe61", "fusion_lon": 0.0, "bike_id": "bfadd011b0b7dfe863aa0e37b4c2fe61", "is_reserved": 0, "type": "electric_scooter", "lat": 38.918209833333336, "fusion_lat": 0.0, "is_disabled": 0}, {"rental_uris": {"android": "https://dc.lft.to/lastmile_qr_scan", "ios": "https://dc.lft.to/lastmile_qr_scan"}, "lon": -77.02703983333333, "name": "2ad956ec1f97f21beec2cd706b9a3ebd", "fusion_lon": 0.0, "bike_id": "2ad956ec1f97f21beec2cd706b9a3ebd", "is_reserved": 0, "type": "electric_scooter", "lat": 38.9069965, "fusion_lat": 0.0, "is_disabled": 0}, {"rental_uris": {"android": "https://dc.lft.to/lastmile_qr_scan", "ios": "https://dc.lft.to/lastmile_qr_scan"}, "lon": -77.042192, "name": "09a589e21c9a8905a99c7037bdd77a46", "fusion_lon": 0.0, "bike_id": "09a589e21c9a8905a99c7037bdd77a46", "is_reserved": 0, "type": "electric_scooter", "lat": 38.91917766666667, "fusion_lat": 0.0, "is_disabled": 0}, {"rental_uris": {"android": "https://dc.lft.to/lastmile_qr_scan", "ios": "https://dc.lft.to/lastmile_qr_scan"}, "lon": -77.032137, "name": "2aef19a6ab35df0973911a143b2deb62", "fusion_lon": 0.0, "bike_id": "2aef19a6ab35df0973911a143b2deb62", "is_reserved": 0, "type": "electric_scooter", "lat": 38.914200666666666, "fusion_lat": 0.0, "is_disabled": 0}, {"rental_uris": {"android": "https://dc.lft.to/lastmile_qr_scan", "ios": "https://dc.lft.to/lastmile_qr_scan"}, "lon": -77.0233175, "name": "1e9babc46863708ba920471b0b79ca5b", "fusion_lon": 0.0, "bike_id": "1e9babc46863708ba920471b0b79ca5b", "is_reserved": 0, "type": "electric_scooter", "lat": 38.922280666666666, "fusion_lat": 0.0, "is_disabled": 0}, {"rental_uris": {"android": "https://dc.lft.to/lastmile_qr_scan", "ios": "https://dc.lft.to/lastmile_qr_scan"}, "lon": -77.00610533333334, "name": "229bca9a4a226c0171d61c7c3caed755", "fusion_lon": 0.0, "bike_id": "229bca9a4a226c0171d61c7c3caed755", "is_reserved": 0, "type": "electric_scooter", "lat": 38.87180133333333, "fusion_lat": 0.0, "is_disabled": 0}, {"rental_uris": {"android": "https://dc.lft.to/lastmile_qr_scan", "ios": "https://dc.lft.to/lastmile_qr_scan"}, "lon": -76.937375, "name": "a3e026b16ee32904bf486a37728e66ad", "fusion_lon": 0.0, "bike_id": "a3e026b16ee32904bf486a37728e66ad", "is_reserved": 0, "type": "electric_scooter", "lat": 38.89010416666667, "fusion_lat": 0.0, "is_disabled": 0}, {"rental_uris": {"android": "https://dc.lft.to/lastmile_qr_scan", "ios": "https://dc.lft.to/lastmile_qr_scan"}, "lon": -76.99668616666666, "name": "28a5591158504a78c4d480a9aca7d7bd", "fusion_lon": 0.0, "bike_id": "28a5591158504a78c4d480a9aca7d7bd", "is_reserved": 0, "type": "electric_bike", "lat": 38.838327166666666, "fusion_lat": 0.0, "is_disabled": 0}, {"rental_uris": {"android": "https://dc.lft.to/lastmile_qr_scan", "ios": "https://dc.lft.to/lastmile_qr_scan"}, "lon": -77.07350716666667, "name": "2df774d82fd74d2eed47852765e2457c", "fusion_lon": 0.0, "bike_id": "2df774d82fd74d2eed47852765e2457c", "is_reserved": 0, "type": "electric_scooter", "lat": 38.910995666666665, "fusion_lat": 0.0, "is_disabled": 0}, {"rental_uris": {"android": "https://dc.lft.to/lastmile_qr_scan", "ios": "https://dc.lft.to/lastmile_qr_scan"}, "lon": -77.04352066666667, "name": "551680703b6e486fa25ca296186365b2", "fusion_lon": 0.0, "bike_id": "551680703b6e486fa25ca296186365b2", "is_reserved": 0, "type": "electric_scooter", "lat": 38.90719816666667, "fusion_lat": 0.0, "is_disabled": 0}, {"rental_uris": {"android": "https://dc.lft.to/lastmile_qr_scan", "ios": "https://dc.lft.to/lastmile_qr_scan"}, "lon": -77.04613383333333, "name": "ea9844fa524771ad8d89d2dd87c6622d", "fusion_lon": 0.0, "bike_id": "ea9844fa524771ad8d89d2dd87c6622d", "is_reserved": 0, "type": "electric_scooter", "lat": 38.8980255, "fusion_lat": 0.0, "is_disabled": 0}, {"rental_uris": {"android": "https://dc.lft.to/lastmile_qr_scan", "ios": "https://dc.lft.to/lastmile_qr_scan"}, "lon": -77.04135583333333, "name": "ed5c10c6ef77542af834431829fe03c8", "fusion_lon": 0.0, "bike_id": "ed5c10c6ef77542af834431829fe03c8", "is_reserved": 0, "type": "electric_scooter", "lat": 38.93465783333333, "fusion_lat": 0.0, "is_disabled": 0}, {"rental_uris": {"android": "https://dc.lft.to/lastmile_qr_scan", "ios": "https://dc.lft.to/lastmile_qr_scan"}, "lon": -76.980137, "name": "a1586097c377588e879acd2648ebb97d", "fusion_lon": 0.0, "bike_id": "a1586097c377588e879acd2648ebb97d", "is_reserved": 0, "type": "electric_scooter", "lat": 38.9010105, "fusion_lat": 0.0, "is_disabled": 0}, {"rental_uris": {"android": "https://dc.lft.to/lastmile_qr_scan", "ios": "https://dc.lft.to/lastmile_qr_scan"}, "lon": -77.07232333333333, "name": "a4c283f50e4365aec6af36d258bd1be1", "fusion_lon": 0.0, "bike_id": "a4c283f50e4365aec6af36d258bd1be1", "is_reserved": 0, "type": "electric_scooter", "lat": 38.939526666666666, "fusion_lat": 0.0, "is_disabled": 0}, {"rental_uris": {"android": "https://dc.lft.to/lastmile_qr_scan", "ios": "https://dc.lft.to/lastmile_qr_scan"}, "lon": -77.0512605, "name": "83b4bbdcd7daf7d4e83c05e67f2f7ee1", "fusion_lon": 0.0, "bike_id": "83b4bbdcd7daf7d4e83c05e67f2f7ee1", "is_reserved": 0, "type": "electric_scooter", "lat": 38.896548833333334, "fusion_lat": 0.0, "is_disabled": 0}, {"rental_uris": {"android": "https://dc.lft.to/lastmile_qr_scan", "ios": "https://dc.lft.to/lastmile_qr_scan"}, "lon": -77.0219795, "name": "1334bcdbad6191d6df1fad5b9561034a", "fusion_lon": 0.0, "bike_id": "1334bcdbad6191d6df1fad5b9561034a", "is_reserved": 0, "type": "electric_scooter", "lat": 38.914793833333334, "fusion_lat": 0.0, "is_disabled": 0}, {"rental_uris": {"android": "https://dc.lft.to/lastmile_qr_scan", "ios": "https://dc.lft.to/lastmile_qr_scan"}, "lon": -77.03762983333333, "name": "f2d9458fd29538f63c68894e90b12812", "fusion_lon": 0.0, "bike_id": "f2d9458fd29538f63c68894e90b12812", "is_reserved": 0, "type": "electric_scooter", "lat": 38.907754833333335, "fusion_lat": 0.0, "is_disabled": 0}, {"rental_uris": {"android": "https://dc.lft.to/lastmile_qr_scan", "ios": "https://dc.lft.to/lastmile_qr_scan"}, "lon": -77.02186166666667, "name": "1a6f6f47cdf8fc52c0070c3b603728c3", "fusion_lon": 0.0, "bike_id": "1a6f6f47cdf8fc52c0070c3b603728c3", "is_reserved": 0, "type": "electric_scooter", "lat": 38.91049616666667, "fusion_lat": 0.0, "is_disabled": 0}, {"rental_uris": {"android": "https://dc.lft.to/lastmile_qr_scan", "ios": "https://dc.lft.to/lastmile_qr_scan"}, "lon": -77.02964533333333, "name": "4396a1ff74ab6fbd02b00847793b0fba", "fusion_lon": 0.0, "bike_id": "4396a1ff74ab6fbd02b00847793b0fba", "is_reserved": 0, "type": "electric_scooter", "lat": 38.91147083333333, "fusion_lat": 0.0, "is_disabled": 0}, {"rental_uris": {"android": "https://dc.lft.to/lastmile_qr_scan", "ios": "https://dc.lft.to/lastmile_qr_scan"}, "lon": -77.041963, "name": "9b760bc247b625608e755b2bdbdf6983", "fusion_lon": 0.0, "bike_id": "9b760bc247b625608e755b2bdbdf6983", "is_reserved": 0, "type": "electric_scooter", "lat": 38.908050333333335, "fusion_lat": 0.0, "is_disabled": 0}, {"rental_uris": {"android": "https://dc.lft.to/lastmile_qr_scan", "ios": "https://dc.lft.to/lastmile_qr_scan"}, "lon": -77.02608316666667, "name": "369f4469ca7f314061384d1c83904785", "fusion_lon": 0.0, "bike_id": "369f4469ca7f314061384d1c83904785", "is_reserved": 0, "type": "electric_scooter", "lat": 38.896306833333334, "fusion_lat": 0.0, "is_disabled": 0}, {"rental_uris": {"android": "https://dc.lft.to/lastmile_qr_scan", "ios": "https://dc.lft.to/lastmile_qr_scan"}, "lon": -77.03772033333334, "name": "39efe2b8f8e6aaadb81480a0efc10161", "fusion_lon": 0.0, "bike_id": "39efe2b8f8e6aaadb81480a0efc10161", "is_reserved": 0, "type": "electric_scooter", "lat": 38.930861166666666, "fusion_lat": 0.0, "is_disabled": 0}, {"rental_uris": {"android": "https://dc.lft.to/lastmile_qr_scan", "ios": "https://dc.lft.to/lastmile_qr_scan"}, "lon": -77.01239083333333, "name": "1e1897fb1d6967e295c99801a1720484", "fusion_lon": 0.0, "bike_id": "1e1897fb1d6967e295c99801a1720484", "is_reserved": 0, "type": "electric_scooter", "lat": 38.91576116666667, "fusion_lat": 0.0, "is_disabled": 0}, {"rental_uris": {"android": "https://dc.lft.to/lastmile_qr_scan", "ios": "https://dc.lft.to/lastmile_qr_scan"}, "lon": -77.0625665, "name": "713251a731f24abc20854b53fe052c13", "fusion_lon": 0.0, "bike_id": "713251a731f24abc20854b53fe052c13", "is_reserved": 0, "type": "electric_bike", "lat": 38.8063415, "fusion_lat": 0.0, "is_disabled": 0}, {"rental_uris": {"android": "https://dc.lft.to/lastmile_qr_scan", "ios": "https://dc.lft.to/lastmile_qr_scan"}, "lon": -77.035617, "name": "d1938a48e420299cd28d9c00ca76be01", "fusion_lon": 0.0, "bike_id": "d1938a48e420299cd28d9c00ca76be01", "is_reserved": 0, "type": "electric_scooter", "lat": 38.918901, "fusion_lat": 0.0, "is_disabled": 0}, {"rental_uris": {"android": "https://dc.lft.to/lastmile_qr_scan", "ios": "https://dc.lft.to/lastmile_qr_scan"}, "lon": -77.02713166666666, "name": "a541f2001a5e76474c2002923f5c15ec", "fusion_lon": 0.0, "bike_id": "a541f2001a5e76474c2002923f5c15ec", "is_reserved": 0, "type": "electric_scooter", "lat": 38.92868516666667, "fusion_lat": 0.0, "is_disabled": 0}, {"rental_uris": {"android": "https://dc.lft.to/lastmile_qr_scan", "ios": "https://dc.lft.to/lastmile_qr_scan"}, "lon": -77.024749, "name": "a2a3374fb7fcda96c33fd25da21d843e", "fusion_lon": 0.0, "bike_id": "a2a3374fb7fcda96c33fd25da21d843e", "is_reserved": 0, "type": "electric_scooter", "lat": 38.938556166666665, "fusion_lat": 0.0, "is_disabled": 0}, {"rental_uris": {"android": "https://dc.lft.to/lastmile_qr_scan", "ios": "https://dc.lft.to/lastmile_qr_scan"}, "lon": -76.9921465, "name": "8a53c84eb706b599709b53bc4b2da327", "fusion_lon": 0.0, "bike_id": "8a53c84eb706b599709b53bc4b2da327", "is_reserved": 0, "type": "electric_scooter", "lat": 38.91941383333333, "fusion_lat": 0.0, "is_disabled": 0}, {"rental_uris": {"android": "https://dc.lft.to/lastmile_qr_scan", "ios": "https://dc.lft.to/lastmile_qr_scan"}, "lon": -77.08927066666666, "name": "78e3918b8a1667caa31a01118f890a1f", "fusion_lon": 0.0, "bike_id": "78e3918b8a1667caa31a01118f890a1f", "is_reserved": 0, "type": "electric_bike", "lat": 38.887513166666665, "fusion_lat": 0.0, "is_disabled": 0}, {"rental_uris": {"android": "https://dc.lft.to/lastmile_qr_scan", "ios": "https://dc.lft.to/lastmile_qr_scan"}, "lon": -77.04405183333333, "name": "583d9bcb7875aeadfbdb557fc653be90", "fusion_lon": 0.0, "bike_id": "583d9bcb7875aeadfbdb557fc653be90", "is_reserved": 0, "type": "electric_scooter", "lat": 38.90900283333333, "fusion_lat": 0.0, "is_disabled": 0}, {"rental_uris": {"android": "https://dc.lft.to/lastmile_qr_scan", "ios": "https://dc.lft.to/lastmile_qr_scan"}, "lon": -76.99770883333333, "name": "571cef3a970df868dc498315e66a51b8", "fusion_lon": 0.0, "bike_id": "571cef3a970df868dc498315e66a51b8", "is_reserved": 0, "type": "electric_scooter", "lat": 38.8942125, "fusion_lat": 0.0, "is_disabled": 0}, {"rental_uris": {"android": "https://dc.lft.to/lastmile_qr_scan", "ios": "https://dc.lft.to/lastmile_qr_scan"}, "lon": -77.05171483333334, "name": "9a26e6e3c2d3ac6e95453eedac5a103d", "fusion_lon": 0.0, "bike_id": "9a26e6e3c2d3ac6e95453eedac5a103d", "is_reserved": 0, "type": "electric_scooter", "lat": 38.92401383333333, "fusion_lat": 0.0, "is_disabled": 0}, {"rental_uris": {"android": "https://dc.lft.to/lastmile_qr_scan", "ios": "https://dc.lft.to/lastmile_qr_scan"}, "lon": -77.0230695, "name": "c29040b7894fbc11b2807aa88bfd4170", "fusion_lon": 0.0, "bike_id": "c29040b7894fbc11b2807aa88bfd4170", "is_reserved": 0, "type": "electric_scooter", "lat": 38.92080216666667, "fusion_lat": 0.0, "is_disabled": 0}, {"rental_uris": {"android": "https://dc.lft.to/lastmile_qr_scan", "ios": "https://dc.lft.to/lastmile_qr_scan"}, "lon": -77.0210105, "name": "e00437712d47c5993a5cdae67a3d79f3", "fusion_lon": 0.0, "bike_id": "e00437712d47c5993a5cdae67a3d79f3", "is_reserved": 0, "type": "electric_scooter", "lat": 38.916380333333336, "fusion_lat": 0.0, "is_disabled": 0}, {"rental_uris": {"android": "https://dc.lft.to/lastmile_qr_scan", "ios": "https://dc.lft.to/lastmile_qr_scan"}, "lon": -77.01383066666666, "name": "e91ae49181f1d11d847d580581667e15", "fusion_lon": 0.0, "bike_id": "e91ae49181f1d11d847d580581667e15", "is_reserved": 0, "type": "electric_scooter", "lat": 38.928473833333335, "fusion_lat": 0.0, "is_disabled": 0}, {"rental_uris": {"android": "https://dc.lft.to/lastmile_qr_scan", "ios": "https://dc.lft.to/lastmile_qr_scan"},