{"data": {"bikes": [{"lat": 38.9184055, "is_disabled": 0, "type": "electric_scooter", "lon": -77.035323, "bike_id": "ad2dd6707afcc94f9e0ec16fe1d74d79", "fusion_lat": 0.0, "name": "ad2dd6707afcc94f9e0ec16fe1d74d79", "is_reserved": 0, "rental_uris": {"android": "https://dc.lft.to/lastmile_qr_scan", "ios": "https://dc.lft.to/lastmile_qr_scan"}, "fusion_lon": 0.0}, {"lat": 38.99997716666667, "is_disabled": 0, "type": "electric_bike", "lon": -76.92499416666666, "bike_id": "5f0e11a84d0ae85f483936aec5429493", "fusion_lat": 0.0, "name": "5f0e11a84d0ae85f483936aec5429493", "is_reserved": 0, "rental_uris": {"android": "https://dc.lft.to/lastmile_qr_scan", "ios": "https://dc.lft.to/lastmile_qr_scan"}, "fusion_lon": 0.0}, {"lat": 38.919229333333334, "is_disabled": 0, "type": "electric_scooter", "lon": -77.0319255, "bike_id": "9eb09e1cd8243379a3e0a58f95ffdeb6", "fusion_lat": 0.0, "name": "9eb09e1cd8243379a3e0a58f95ffdeb6", "is_reserved": 0, "rental_uris": {"android": "https://dc.lft.to/lastmile_qr_scan", "ios": "https://dc.lft.to/lastmile_qr_scan"}, "fusion_lon": 0.0}, {"lat": 38.9521415, "is_disabled": 0, "type": "electric_scooter", "lon": -77.08599383333333, "bike_id": "e2cf3fd45769116016e220be85c0bb40", "fusion_lat": 0.0, "name": "e2cf3fd45769116016e220be85c0bb40", "is_reserved": 0, "rental_uris": {"android": "https://dc.lft.to/lastmile_qr_scan", "ios": "https://dc.lft.to/lastmile_qr_scan"}, "fusion_lon": 0.0}, {"lat": 38.92270366666666, "is_disabled": 0, "type": "electric_scooter", "lon": -77.04235966666667, "bike_id": "f04fd9d4a72312920cf8c7275aae9857", "fusion_lat": 0.0, "name": "f04fd9d4a72312920cf8c7275aae9857", "is_reserved": 0, "rental_uris": {"android": "https://dc.lft.to/lastmile_qr_scan", "ios": "https://dc.lft.to/lastmile_qr_scan"}, "fusion_lon": 0.0}, {"lat": 38.91335933333333, "is_disabled": 0, "type": "electric_scooter", "lon": -77.03045083333333, "bike_id": "3b2a638f2ffe4992509179ef446b8eb6", "fusion_lat": 0.0, "name": "3b2a638f2ffe4992509179ef446b8eb6", "is_reserved": 0, "rental_uris": {"android": "https://dc.lft.to/lastmile_qr_scan", "ios": "https://dc.lft.to/lastmile_qr_scan"}, "fusion_lon": 0.0}, {"lat": 38.9047315, "is_disabled": 0, "type": "electric_scooter", "lon": -77.02960783333333, "bike_id": "51a51ed08773cf7891b95a0f9a60bcbf", "fusion_lat": 0.0, "name": "51a51ed08773cf7891b95a0f9a60bcbf", "is_reserved": 0, "rental_uris": {"android": "https://dc.lft.to/lastmile_qr_scan", "ios": "https://dc.lft.to/lastmile_qr_scan"}, "fusion_lon": 0.0}, {"lat": 38.890918166666665, "is_disabled": 0, "type": "electric_scooter", "lon": -76.95269416666666, "bike_id": "70d530b6ca03b12912502bcd4bcd502a", "fusion_lat": 0.0, "name": "70d530b6ca03b12912502bcd4bcd502a", "is_reserved": 0, "rental_uris": {"android": "https://dc.lft.to/lastmile_qr_scan", "ios": "https://dc.lft.to/lastmile_qr_scan"}, "fusion_lon": 0.0}, {"lat": 38.90732466666667, "is_disabled": 0, "type": "electric_scooter", "lon": -77.0294875, "bike_id": "5297c5a2151b2ae5628ae9c2c6a57db4", "fusion_lat": 0.0, "name": "5297c5a2151b2ae5628ae9c2c6a57db4", "is_reserved": 0, "rental_uris": {"android": "https://dc.lft.to/lastmile_qr_scan", "ios": "https://dc.lft.to/lastmile_qr_scan"}, "fusion_lon": 0.0}, {"lat": 38.92068616666667, "is_disabled": 0, "type": "electric_scooter", "lon": -77.04237466666666, "bike_id": "cb5ba6a85a3567640f93e242d7da31ed", "fusion_lat": 0.0, "name": "cb5ba6a85a3567640f93e242d7da31ed", "is_reserved": 0, "rental_uris": {"android": "https://dc.lft.to/lastmile_qr_scan", "ios": "https://dc.lft.to/lastmile_qr_scan"}, "fusion_lon": 0.0}, {"lat": 38.91686766666667, "is_disabled": 0, "type": "electric_scooter", "lon": -77.03057533333333, "bike_id": "c9297b000401327fff9f4b1bbea40d69", "fusion_lat": 0.0, "name": "c9297b000401327fff9f4b1bbea40d69", "is_reserved": 0, "rental_uris": {"android": "https://dc.lft.to/lastmile_qr_scan", "ios": "https://dc.lft.to/lastmile_qr_scan"}, "fusion_lon": 0.0}, {"lat": 38.9016725, "is_disabled": 0, "type": "electric_scooter", "lon": -77.0248025, "bike_id": "e0bbfde6d7d9cad84684e2d23028d82d", "fusion_lat": 0.0, "name": "e0bbfde6d7d9cad84684e2d23028d82d", "is_reserved": 0, "rental_uris": {"android": "https://dc.lft.to/lastmile_qr_scan", "ios": "https://dc.lft.to/lastmile_qr_scan"}, "fusion_lon": 0.0}, {"lat": 38.90134716666667, "is_disabled": 0, "type": "electric_scooter", "lon": -77.04131916666667, "bike_id": "9ae52ce911921728efd70775586aa1fd", "fusion_lat": 0.0, "name": "9ae52ce911921728efd70775586aa1fd", "is_reserved": 0, "rental_uris": {"android": "https://dc.lft.to/lastmile_qr_scan", "ios": "https://dc.lft.to/lastmile_qr_scan"}, "fusion_lon": 0.0}, {"lat": 38.908533, "is_disabled": 0, "type": "electric_bike", "lon": -77.00170916666667, "bike_id": "d8425472a56affb77e3609eabf36c047", "fusion_lat": 0.0, "name": "d8425472a56affb77e3609eabf36c047", "is_reserved": 0, "rental_uris": {"android": "https://dc.lft.to/lastmile_qr_scan", "ios": "https://dc.lft.to/lastmile_qr_scan"}, "fusion_lon": 0.0}, {"lat": 38.857328333333335, "is_disabled": 0, "type": "electric_scooter", "lon": -76.99434433333333, "bike_id": "9757ad2ed252d7fac87db27894e338bd", "fusion_lat": 0.0, "name": "9757ad2ed252d7fac87db27894e338bd", "is_reserved": 0, "rental_uris": {"android": "https://dc.lft.to/lastmile_qr_scan", "ios": "https://dc.lft.to/lastmile_qr_scan"}, "fusion_lon": 0.0}, {"lat": 38.9095845, "is_disabled": 0, "type": "electric_scooter", "lon": -77.03422983333333, "bike_id": "86f199491bb0a6de1d218593ccb901ed", "fusion_lat": 0.0, "name": "86f199491bb0a6de1d218593ccb901ed", "is_reserved": 0, "rental_uris": {"android": "https://dc.lft.to/lastmile_qr_scan", "ios": "https://dc.lft.to/lastmile_qr_scan"}, "fusion_lon": 0.0}, {"lat": 38.944366, "is_disabled": 0, "type": "electric_scooter", "lon": -77.02339516666666, "bike_id": "affdba651f93e1a0ffb4b7ab4a6e40ed", "fusion_lat": 0.0, "name": "affdba651f93e1a0ffb4b7ab4a6e40ed", "is_reserved": 0, "rental_uris": {"android": "https://dc.lft.to/lastmile_qr_scan", "ios": "https://dc.lft.to/lastmile_qr_scan"}, "fusion_lon": 0.0}, {"lat": 38.86365933333333, "is_disabled": 0, "type": "electric_scooter", "lon": -76.99030133333333, "bike_id": "9b0c7041385cc222a66f3c1cffa1d71f", "fusion_lat": 0.0, "name": "9b0c7041385cc222a66f3c1cffa1d71f", "is_reserved": 0, "rental_uris": {"android": "https://dc.lft.to/lastmile_qr_scan", "ios": "https://dc.lft.to/lastmile_qr_scan"}, "fusion_lon": 0.0}, {"lat": 38.9662555, "is_disabled": 0, "type": "electric_bike", "lon": -76.976683, "bike_id": "f6dbf690a1929f9dcfa070e8e95b5121", "fusion_lat": 0.0, "name": "f6dbf690a1929f9dcfa070e8e95b5121", "is_reserved": 0, "rental_uris": {"android": "https://dc.lft.to/lastmile_qr_scan", "ios": "https://dc.lft.to/lastmile_qr_scan"}, "fusion_lon": 0.0}, {"lat": 38.929142166666665, "is_disabled": 0, "type": "electric_scooter", "lon": -77.03739583333333, "bike_id": "3af69b54815506ac1bef8749566a00ab", "fusion_lat": 0.0, "name": "3af69b54815506ac1bef8749566a00ab", "is_reserved": 0, "rental_uris": {"android": "https://dc.lft.to/lastmile_qr_scan", "ios": "https://dc.lft.to/lastmile_qr_scan"}, "fusion_lon": 0.0}, {"lat": 38.908585, "is_disabled": 0, "type": "electric_scooter", "lon": -77.03835333333333, "bike_id": "2b80f09e0c4e68ca4ba9dd482641c577", "fusion_lat": 0.0, "name": "2b80f09e0c4e68ca4ba9dd482641c577", "is_reserved": 0, "rental_uris": {"android": "https://dc.lft.to/lastmile_qr_scan", "ios": "https://dc.lft.to/lastmile_qr_scan"}, "fusion_lon": 0.0}, {"lat": 38.910001666666666, "is_disabled": 0, "type": "electric_scooter", "lon": -77.04007033333333, "bike_id": "6114fe27b52a96e03044bbdc723506c4", "fusion_lat": 0.0, "name": "6114fe27b52a96e03044bbdc723506c4", "is_reserved": 0, "rental_uris": {"android": "https://dc.lft.to/lastmile_qr_scan", "ios": "https://dc.lft.to/lastmile_qr_scan"}, "fusion_lon": 0.0}, {"lat": 38.871489, "is_disabled": 0, "type": "electric_bike", "lon": -76.93678416666667, "bike_id": "e120c01598b981c1b733ff82661b52b5", "fusion_lat": 0.0, "name": "e120c01598b981c1b733ff82661b52b5", "is_reserved": 0, "rental_uris": {"android": "https://dc.lft.to/lastmile_qr_scan", "ios": "https://dc.lft.to/lastmile_qr_scan"}, "fusion_lon": 0.0}, {"lat": 38.90550616666667, "is_disabled": 0, "type": "electric_scooter", "lon": -77.04328483333333, "bike_id": "6f27de4fba37bb3c95dc67fc97cc47c1", "fusion_lat": 0.0, "name": "6f27de4fba37bb3c95dc67fc97cc47c1", "is_reserved": 0, "rental_uris": {"android": "https://dc.lft.to/lastmile_qr_scan", "ios": "https://dc.lft.to/lastmile_qr_scan"}, "fusion_lon": 0.0}, {"lat": 38.92343133333333, "is_disabled": 0, "type": "electric_scooter", "lon": -77.034987, "bike_id": "57e35ac9204dc634ea2843ba758ee4ce", "fusion_lat": 0.0, "name": "57e35ac9204dc634ea2843ba758ee4ce", "is_reserved": 0, "rental_uris": {"android": "https://dc.lft.to/lastmile_qr_scan", "ios": "https://dc.lft.to/lastmile_qr_scan"}, "fusion_lon": 0.0}, {"lat": 38.9037625, "is_disabled": 0, "type": "electric_scooter", "lon": -77.00879816666666, "bike_id": "0928b438cbd9ed0fad5216ccded5dc0c", "fusion_lat": 0.0, "name": "0928b438cbd9ed0fad5216ccded5dc0c", "is_reserved": 0, "rental_uris": {"android": "https://dc.lft.to/lastmile_qr_scan", "ios": "https://dc.lft.to/lastmile_qr_scan"}, "fusion_lon": 0.0}, {"lat": 38.9358105, "is_disabled": 0, "type": "electric_bike", "lon": -77.10684916666666, "bike_id": "734237c9bb7cc0fd46a25dac5cb4f0a4", "fusion_lat": 0.0, "name": "734237c9bb7cc0fd46a25dac5cb4f0a4", "is_reserved": 0, "rental_uris": {"android": "https://dc.lft.to/lastmile_qr_scan", "ios": "https://dc.lft.to/lastmile_qr_scan"}, "fusion_lon": 0.0}, {"lat": 38.941350666666665, "is_disabled": 0, "type": "electric_scooter", "lon": -77.0761355, "bike_id": "5edb6caba4f1a388c8b0ba1d241f5dce", "fusion_lat": 0.0, "name": "5edb6caba4f1a388c8b0ba1d241f5dce", "is_reserved": 0, "rental_uris": {"android": "https://dc.lft.to/lastmile_qr_scan", "ios": "https://dc.lft.to/lastmile_qr_scan"}, "fusion_lon": 0.0}, {"lat": 38.90005566666667, "is_disabled": 0, "type": "electric_scooter", "lon": -77.03319933333333, "bike_id": "4760380e777d349b3babfd4fe357b538", "fusion_lat": 0.0, "name": "4760380e777d349b3babfd4fe357b538", "is_reserved": 0, "rental_uris": {"android": "https://dc.lft.to/lastmile_qr_scan", "ios": "https://dc.lft.to/lastmile_qr_scan"}, "fusion_lon": 0.0}, {"lat": 38.90948616666667, "is_disabled": 0, "type": "electric_scooter", "lon": -77.04656233333333, "bike_id": "2ff1620377ee14a5b2671e51f65494ca", "fusion_lat": 0.0, "name": "2ff1620377ee14a5b2671e51f65494ca", "is_reserved": 0, "rental_uris": {"android": "https://dc.lft.to/lastmile_qr_scan", "ios": "https://dc.lft.to/lastmile_qr_scan"}, "fusion_lon": 0.0}, {"lat": 38.916352833333335, "is_disabled": 0, "type": "electric_scooter", "lon": -77.02697516666667, "bike_id": "0ddc912e0008ed083b4e63a3e38f88fd", "fusion_lat": 0.0, "name": "0ddc912e0008ed083b4e63a3e38f88fd", "is_reserved": 0, "rental_uris": {"android": "https://dc.lft.to/lastmile_qr_scan", "ios": "https://dc.lft.to/lastmile_qr_scan"}, "fusion_lon": 0.0}, {"lat": 38.90021466666666, "is_disabled": 0, "type": "electric_scooter", "lon": -77.03347633333334, "bike_id": "a92a0e2402a003dd4ce00452ae7711db", "fusion_lat": 0.0, "name": "a92a0e2402a003dd4ce00452ae7711db", "is_reserved": 0, "rental_uris": {"android": "https://dc.lft.to/lastmile_qr_scan", "ios": "https://dc.lft.to/lastmile_qr_scan"}, "fusion_lon": 0.0}, {"lat": 38.895299333333334, "is_disabled": 0, "type": "electric_scooter", "lon": -77.00064333333333, "bike_id": "9f32caf620abca73c208fab5a0dc390a", "fusion_lat": 0.0, "name": "9f32caf620abca73c208fab5a0dc390a", "is_reserved": 0, "rental_uris": {"android": "https://dc.lft.to/lastmile_qr_scan", "ios": "https://dc.lft.to/lastmile_qr_scan"}, "fusion_lon": 0.0}, {"lat": 38.919237, "is_disabled": 0, "type": "electric_scooter", "lon": -77.04157083333334, "bike_id": "7827d413afb1ff6400a06e68596c24e8", "fusion_lat": 0.0, "name": "7827d413afb1ff6400a06e68596c24e8", "is_reserved": 0, "rental_uris": {"android": "https://dc.lft.to/lastmile_qr_scan", "ios": "https://dc.lft.to/lastmile_qr_scan"}, "fusion_lon": 0.0}, {"lat": 38.9505695, "is_disabled": 0, "type": "electric_scooter", "lon": -77.007207, "bike_id": "abb922a2aa319097c63c5e6fe5bc849b", "fusion_lat": 0.0, "name": "abb922a2aa319097c63c5e6fe5bc849b", "is_reserved": 0, "rental_uris": {"android": "https://dc.lft.to/lastmile_qr_scan", "ios": "https://dc.lft.to/lastmile_qr_scan"}, "fusion_lon": 0.0}, {"lat": 38.948326, "is_disabled": 0, "type": "electric_scooter", "lon": -77.0258015, "bike_id": "ca12c381ea23ac1feddc73eef0f35c90", "fusion_lat": 0.0, "name": "ca12c381ea23ac1feddc73eef0f35c90", "is_reserved": 0, "rental_uris": {"android": "https://dc.lft.to/lastmile_qr_scan", "ios": "https://dc.lft.to/lastmile_qr_scan"}, "fusion_lon": 0.0}, {"lat": 38.902727, "is_disabled": 0, "type": "electric_scooter", "lon": -77.011688, "bike_id": "c81346f2a3f20c7c116abed3023aff69", "fusion_lat": 0.0, "name": "c81346f2a3f20c7c116abed3023aff69", "is_reserved": 0, "rental_uris": {"android": "https://dc.lft.to/lastmile_qr_scan", "ios": "https://dc.lft.to/lastmile_qr_scan"}, "fusion_lon": 0.0}, {"lat": 38.944960333333334, "is_disabled": 0, "type": "electric_bike", "lon": -77.0068205, "bike_id": "b8d949dabe667f21587f1d5033b23680", "fusion_lat": 0.0, "name": "b8d949dabe667f21587f1d5033b23680", "is_reserved": 0, "rental_uris": {"android": "https://dc.lft.to/lastmile_qr_scan", "ios": "https://dc.lft.to/lastmile_qr_scan"}, "fusion_lon": 0.0}, {"lat": 38.8973215, "is_disabled": 0, "type": "electric_scooter", "lon": -76.947224, "bike_id": "871b90d7cb600e96dd91c80989f0ea51", "fusion_lat": 0.0, "name": "871b90d7cb600e96dd91c80989f0ea51", "is_reserved": 0, "rental_uris": {"android": "https://dc.lft.to/lastmile_qr_scan", "ios": "https://dc.lft.to/lastmile_qr_scan"}, "fusion_lon": 0.0}, {"lat": 38.911977666666665, "is_disabled": 0, "type": "electric_scooter", "lon": -77.0046, "bike_id": "547d566a657aca1e4f9e10d671190c69", "fusion_lat": 0.0, "name": "547d566a657aca1e4f9e10d671190c69", "is_reserved": 0, "rental_uris": {"android": "https://dc.lft.to/lastmile_qr_scan", "ios": "https://dc.lft.to/lastmile_qr_scan"}, "fusion_lon": 0.0}, {"lat": 38.865091666666665, "is_disabled": 0, "type": "electric_scooter", "lon": -76.99005966666667, "bike_id": "da8ff1c7a1c26e279bc4f8f1b69786e1", "fusion_lat": 0.0, "name": "da8ff1c7a1c26e279bc4f8f1b69786e1", "is_reserved": 0, "rental_uris": {"android": "https://dc.lft.to/lastmile_qr_scan", "ios": "https://dc.lft.to/lastmile_qr_scan"}, "fusion_lon": 0.0}, {"lat": 38.93236366666667, "is_disabled": 0, "type": "electric_bike", "lon": -76.9742755, "bike_id": "3b52af9cb55cd45a4de2bed29bba3b20", "fusion_lat": 0.0, "name": "3b52af9cb55cd45a4de2bed29bba3b20", "is_reserved": 0, "rental_uris": {"android": "https://dc.lft.to/lastmile_qr_scan", "ios": "https://dc.lft.to/lastmile_qr_scan"}, "fusion_lon": 0.0}, {"lat": 38.91328333333333, "is_disabled": 0, "type": "electric_scooter", "lon": -77.03186033333333, "bike_id": "37ee52934d16fe4d55e205c9372cd9a3", "fusion_lat": 0.0, "name": "37ee52934d16fe4d55e205c9372cd9a3", "is_reserved": 0, "rental_uris": {"android": "https://dc.lft.to/lastmile_qr_scan", "ios": "https://dc.lft.to/lastmile_qr_scan"}, "fusion_lon": 0.0}, {"lat": 38.962193166666665, "is_disabled": 0, "type": "electric_bike", "lon": -77.02625683333333, "bike_id": "2e602938525ccf0af1ef49c3ef6b36b5", "fusion_lat": 0.0, "name": "2e602938525ccf0af1ef49c3ef6b36b5", "is_reserved": 0, "rental_uris": {"android": "https://dc.lft.to/lastmile_qr_scan", "ios": "https://dc.lft.to/lastmile_qr_scan"}, "fusion_lon": 0.0}, {"lat": 38.916919166666666, "is_disabled": 0, "type": "electric_scooter", "lon": -77.03217766666667, "bike_id": "9b46d0e1d288908ff15d4ec63b6a43ce", "fusion_lat": 0.0, "name": "9b46d0e1d288908ff15d4ec63b6a43ce", "is_reserved": 0, "rental_uris": {"android": "https://dc.lft.to/lastmile_qr_scan", "ios": "https://dc.lft.to/lastmile_qr_scan"}, "fusion_lon": 0.0}, {"lat": 38.876378333333335, "is_disabled": 0, "type": "electric_scooter", "lon": -77.00557766666667, "bike_id": "5156cdba5ddedee1453b242dbaeed9c4", "fusion_lat": 0.0, "name": "5156cdba5ddedee1453b242dbaeed9c4", "is_reserved": 0, "rental_uris": {"android": "https://dc.lft.to/lastmile_qr_scan", "ios": "https://dc.lft.to/lastmile_qr_scan"}, "fusion_lon": 0.0}, {"lat": 38.916189, "is_disabled": 0, "type": "electric_scooter", "lon": -77.03740466666666, "bike_id": "61be617dedea45f41d1ab6f87105a66d", "fusion_lat": 0.0, "name": "61be617dedea45f41d1ab6f87105a66d", "is_reserved": 0, "rental_uris": {"android": "https://dc.lft.to/lastmile_qr_scan", "ios": "https://dc.lft.to/lastmile_qr_scan"}, "fusion_lon": 0.0}, {"lat": 38.8967375, "is_disabled": 0, "type": "electric_scooter", "lon": -77.00513616666667, "bike_id": "b6c4ae5f7dc7f5bacd93ea1c7c2364d8", "fusion_lat": 0.0, "name": "b6c4ae5f7dc7f5bacd93ea1c7c2364d8", "is_reserved": 0, "rental_uris": {"android": "https://dc.lft.to/lastmile_qr_scan", "ios": "https://dc.lft.to/lastmile_qr_scan"}, "fusion_lon": 0.0}, {"lat": 38.9208865, "is_disabled": 0, "type": "electric_scooter", "lon": -77.0253315, "bike_id": "566463a583bf52ed2dfddcc3cd694673", "fusion_lat": 0.0, "name": "566463a583bf52ed2dfddcc3cd694673", "is_reserved": 0, "rental_uris": {"android": "https://dc.lft.to/lastmile_qr_scan", "ios": "https://dc.lft.to/lastmile_qr_scan"}, "fusion_lon": 0.0}, {"lat": 38.948209166666665, "is_disabled": 0, "type": "electric_scooter", "lon": -76.99903433333333, "bike_id": "4daf4bde37014c569941f2cc31c7bf81", "fusion_lat": 0.0, "name": "4daf4bde37014c569941f2cc31c7bf81", "is_reserved": 0, "rental_uris": {"android": "https://dc.lft.to/lastmile_qr_scan", "ios": "https://dc.lft.to/lastmile_qr_scan"}, "fusion_lon": 0.0}, {"lat": 38.878594, "is_disabled": 0, "type": "electric_bike", "lon": -77.017652, "bike_id": "9dacf707db16d6fefe406e85e2ff4887", "fusion_lat": 0.0, "name": "9dacf707db16d6fefe406e85e2ff4887", "is_reserved": 0, "rental_uris": {"android": "https://dc.lft.to/lastmile_qr_scan", "ios": "https://dc.lft.to/lastmile_qr_scan"}, "fusion_lon": 0.0}, {"lat": 38.94152283333333, "is_disabled": 0, "type": "electric_scooter", "lon": -77.03280783333334, "bike_id": "6edd07df40c62cdb09a82930a8f853a8", "fusion_lat": 0.0, "name": "6edd07df40c62cdb09a82930a8f853a8", "is_reserved": 0, "rental_uris": {"android": "https://dc.lft.to/lastmile_qr_scan", "ios": "https://dc.lft.to/lastmile_qr_scan"}, "fusion_lon": 0.0}, {"lat": 38.919538333333335, "is_disabled": 0, "type": "electric_scooter", "lon": -77.04883566666666, "bike_id": "d6c042bb76d6328b3f4d1b07bd76b00b", "fusion_lat": 0.0, "name": "d6c042bb76d6328b3f4d1b07bd76b00b", "is_reserved": 0, "rental_uris": {"android": "https://dc.lft.to/lastmile_qr_scan", "ios": "https://dc.lft.to/lastmile_qr_scan"}, "fusion_lon": 0.0}, {"lat": 38.87340966666667, "is_disabled": 0, "type": "electric_scooter", "lon": -76.99158583333333, "bike_id": "6cfd048e4ce041a64b647775d6ebeffe", "fusion_lat": 0.0, "name": "6cfd048e4ce041a64b647775d6ebeffe", "is_reserved": 0, "rental_uris": {"android": "https://dc.lft.to/lastmile_qr_scan", "ios": "https://dc.lft.to/lastmile_qr_scan"}, "fusion_lon": 0.0}, {"lat": 38.902434666666664, "is_disabled": 0, "type": "electric_scooter", "lon": -77.02602666666667, "bike_id": "b7b37ff63ec59695fb54dce3c84a7b3f", "fusion_lat": 0.0, "name": "b7b37ff63ec59695fb54dce3c84a7b3f", "is_reserved": 0, "rental_uris": {"android": "https://dc.lft.to/lastmile_qr_scan", "ios": "https://dc.lft.to/lastmile_qr_scan"}, "fusion_lon": 0.0}, {"lat": 38.90125833333333, "is_disabled": 0, "type": "electric_scooter", "lon": -77.03316183333334, "bike_id": "04ee9022220598214c71ff8a72101f8a", "fusion_lat": 0.0, "name": "04ee9022220598214c71ff8a72101f8a", "is_reserved": 0, "rental_uris": {"android": "https://dc.lft.to/lastmile_qr_scan", "ios": "https://dc.lft.to/lastmile_qr_scan"}, "fusion_lon": 0.0}, {"lat": 38.8763035, "is_disabled": 0, "type": "electric_scooter", "lon": -76.96522566666667, "bike_id": "744abefab8e43d22ace9424e88cdc51a", "fusion_lat": 0.0, "name": "744abefab8e43d22ace9424e88cdc51a", "is_reserved": 0, "rental_uris": {"android": "https://dc.lft.to/lastmile_qr_scan", "ios": "https://dc.lft.to/lastmile_qr_scan"}, "fusion_lon": 0.0}, {"lat": 38.95071166666666, "is_disabled": 0, "type": "electric_scooter", "lon": -77.0665795, "bike_id": "1a9dab64ace94355ab81a13accbe1964", "fusion_lat": 0.0, "name": "1a9dab64ace94355ab81a13accbe1964", "is_reserved": 0, "rental_uris": {"android": "https://dc.lft.to/lastmile_qr_scan", "ios": "https://dc.lft.to/lastmile_qr_scan"}, "fusion_lon": 0.0}, {"lat": 38.90377983333333, "is_disabled": 0, "type": "electric_scooter", "lon": -77.043441, "bike_id": "3dc45a8547eaa87e890d248c60e1c014", "fusion_lat": 0.0, "name": "3dc45a8547eaa87e890d248c60e1c014", "is_reserved": 0, "rental_uris": {"android": "https://dc.lft.to/lastmile_qr_scan", "ios": "https://dc.lft.to/lastmile_qr_scan"}, "fusion_lon": 0.0}, {"lat": 38.900081166666666, "is_disabled": 0, "type": "electric_scooter", "lon": -77.04422466666666, "bike_id": "4b03ff417120dba9d3f6654267670166", "fusion_lat": 0.0, "name": "4b03ff417120dba9d3f6654267670166", "is_reserved": 0, "rental_uris": {"android": "https://dc.lft.to/lastmile_qr_scan", "ios": "https://dc.lft.to/lastmile_qr_scan"}, "fusion_lon": 0.0}, {"lat": 38.907364, "is_disabled": 0, "type": "electric_scooter", "lon": -77.04783833333333, "bike_id": "1cc9ef14da9e85aa4ef1e7fc6a4fe3a0", "fusion_lat": 0.0, "name": "1cc9ef14da9e85aa4ef1e7fc6a4fe3a0", "is_reserved": 0, "rental_uris": {"android": "https://dc.lft.to/lastmile_qr_scan", "ios": "https://dc.lft.to/lastmile_qr_scan"}, "fusion_lon": 0.0}, {"lat": 38.9112055, "is_disabled": 0, "type": "electric_scooter", "lon": -77.04218516666667, "bike_id": "fba2e34a9039e2bab82d50cbdff6c04f", "fusion_lat": 0.0, "name": "fba2e34a9039e2bab82d50cbdff6c04f", "is_reserved": 0, "rental_uris": {"android": "https://dc.lft.to/lastmile_qr_scan", "ios": "https://dc.lft.to/lastmile_qr_scan"}, "fusion_lon": 0.0}, {"lat": 38.922532333333336, "is_disabled": 0, "type": "electric_scooter", "lon": -77.030832, "bike_id": "0e9f87d7aaf977bbad8405932b00d983", "fusion_lat": 0.0, "name": "0e9f87d7aaf977bbad8405932b00d983", "is_reserved": 0, "rental_uris": {"android": "https://dc.lft.to/lastmile_qr_scan", "ios": "https://dc.lft.to/lastmile_qr_scan"}, "fusion_lon": 0.0}, {"lat": 38.94171933333333, "is_disabled": 0, "type": "electric_scooter", "lon": -77.03283233333333, "bike_id": "bc9a6bb7455f6bf353334066890fba04", "fusion_lat": 0.0, "name": "bc9a6bb7455f6bf353334066890fba04", "is_reserved": 0, "rental_uris": {"android": "https://dc.lft.to/lastmile_qr_scan", "ios": "https://dc.lft.to/lastmile_qr_scan"}, "fusion_lon": 0.0}, {"lat": 38.8976925, "is_disabled": 0, "type": "electric_scooter", "lon": -77.043564, "bike_id": "d26eb9b17db9ffc3c4b178ab34511e84", "fusion_lat": 0.0, "name": "d26eb9b17db9ffc3c4b178ab34511e84", "is_reserved": 0, "rental_uris": {"android": "https://dc.lft.to/lastmile_qr_scan", "ios": "https://dc.lft.to/lastmile_qr_scan"}, "fusion_lon": 0.0}, {"lat": 38.922489166666665, "is_disabled": 0, "type": "electric_scooter", "lon": -77.03071166666666, "bike_id": "7c581feb5e9f9489e8dc201c9adb827e", "fusion_lat": 0.0, "name": "7c581feb5e9f9489e8dc201c9adb827e", "is_reserved": 0, "rental_uris": {"android": "https://dc.lft.to/lastmile_qr_scan", "ios": "https://dc.lft.to/lastmile_qr_scan"}, "fusion_lon": 0.0}, {"lat": 38.919626666666666, "is_disabled": 0, "type": "electric_bike", "lon": -76.97265583333333, "bike_id": "0ee95d6de0f422cc398098b316dcd07e", "fusion_lat": 0.0, "name": "0ee95d6de0f422cc398098b316dcd07e", "is_reserved": 0, "rental_uris": {"android": "https://dc.lft.to/lastmile_qr_scan", "ios": "https://dc.lft.to/lastmile_qr_scan"}, "fusion_lon": 0.0}, {"lat": 38.96274716666667, "is_disabled": 0, "type": "electric_bike", "lon": -77.03252766666667, "bike_id": "a167751774839e6557641bc9f1233caf", "fusion_lat": 0.0, "name": "a167751774839e6557641bc9f1233caf", "is_reserved": 0, "rental_uris": {"android": "https://dc.lft.to/lastmile_qr_scan", "ios": "https://dc.lft.to/lastmile_qr_scan"}, "fusion_lon": 0.0}, {"lat": 38.919514166666666, "is_disabled": 0, "type": "electric_scooter", "lon": -77.04881433333334, "bike_id": "c0ae043b110553a3c16e94d08467ef7f", "fusion_lat": 0.0, "name": "c0ae043b110553a3c16e94d08467ef7f", "is_reserved": 0, "rental_uris": {"android": "https://dc.lft.to/lastmile_qr_scan", "ios": "https://dc.lft.to/lastmile_qr_scan"}, "fusion_lon": 0.0}, {"lat": 38.93375266666666, "is_disabled": 0, "type": "electric_scooter", "lon": -77.03796233333334, "bike_id": "704663e55f03419f1413ad25b947edf6", "fusion_lat": 0.0, "name": "704663e55f03419f1413ad25b947edf6", "is_reserved": 0, "rental_uris": {"android": "https://dc.lft.to/lastmile_qr_scan", "ios": "https://dc.lft.to/lastmile_qr_scan"}, "fusion_lon": 0.0}, {"lat": 38.901536, "is_disabled": 0, "type": "electric_bike", "lon": -76.9865645, "bike_id": "10bdbc07fa1b364fcbbf35e99d3cbaa3", "fusion_lat": 0.0, "name": "10bdbc07fa1b364fcbbf35e99d3cbaa3", "is_reserved": 0, "rental_uris": {"android": "https://dc.lft.to/lastmile_qr_scan", "ios": "https://dc.lft.to/lastmile_qr_scan"}, "fusion_lon": 0.0}, {"lat": 38.930073, "is_disabled": 0, "type": "electric_bike", "lon": -77.21645783333334, "bike_id": "f0b3e78dd412eea9ad04dd3a826a8d72", "fusion_lat": 0.0, "name": "f0b3e78dd412eea9ad04dd3a826a8d72", "is_reserved": 0, "rental_uris": {"android": "https://dc.lft.to/lastmile_qr_scan", "ios": "https://dc.lft.to/lastmile_qr_scan"}, "fusion_lon": 0.0}, {"lat": 38.90217966666667, "is_disabled": 0, "type": "electric_scooter", "lon": -76.94577833333334, "bike_id": "4f650272cb9b248ae842a74dbd9e97dc", "fusion_lat": 0.0, "name": "4f650272cb9b248ae842a74dbd9e97dc", "is_reserved": 0, "rental_uris": {"android": "https://dc.lft.to/lastmile_qr_scan", "ios": "https://dc.lft.to/lastmile_qr_scan"}, "fusion_lon": 0.0}, {"lat": 39.004748, "is_disabled": 0, "type": "electric_bike", "lon": -76.90129283333333, "bike_id": "4a3eb9b53f6fd79a40c26fe8745d6cbc", "fusion_lat": 0.0, "name": "4a3eb9b53f6fd79a40c26fe8745d6cbc", "is_reserved": 0, "rental_uris": {"android": "https://dc.lft.to/lastmile_qr_scan", "ios": "https://dc.lft.to/lastmile_qr_scan"}, "fusion_lon": 0.0}, {"lat": 38.900764333333335, "is_disabled": 0, "type": "electric_scooter", "lon": -77.00200916666667, "bike_id": "efb99315f94c1f12371bc68890340714", "fusion_lat": 0.0, "name": "efb99315f94c1f12371bc68890340714", "is_reserved": 0, "rental_uris": {"android": "https://dc.lft.to/lastmile_qr_scan", "ios": "https://dc.lft.to/lastmile_qr_scan"}, "fusion_lon": 0.0}, {"lat": 38.92761816666667, "is_disabled": 0, "type": "electric_scooter", "lon": -77.03249033333333, "bike_id": "610d3910781a7370a037eadc9513089c", "fusion_lat": 0.0, "name": "610d3910781a7370a037eadc9513089c", "is_reserved": 0, "rental_uris": {"android": "https://dc.lft.to/lastmile_qr_scan", "ios": "https://dc.lft.to/lastmile_qr_scan"}, "fusion_lon": 0.0}, {"lat": 38.88291733333333, "is_disabled": 0, "type": "electric_scooter", "lon": -77.01746266666666, "bike_id": "6993c58f95326d9b0848014f92eaf7d5", "fusion_lat": 0.0, "name": "6993c58f95326d9b0848014f92eaf7d5", "is_reserved": 0, "rental_uris": {"android": "https://dc.lft.to/lastmile_qr_scan", "ios": "https://dc.lft.to/lastmile_qr_scan"}, "fusion_lon": 0.0}, {"lat": 38.917094666666664, "is_disabled": 0, "type": "electric_scooter", "lon": -77.03859933333334, "bike_id": "1260e40cc48d81f8b3c1d03b12e9ca4a", "fusion_lat": 0.0, "name": "1260e40cc48d81f8b3c1d03b12e9ca4a", "is_reserved": 0, "rental_uris": {"android": "https://dc.lft.to/lastmile_qr_scan", "ios": "https://dc.lft.to/lastmile_qr_scan"}, "fusion_lon": 0.0}, {"lat": 38.917769, "is_disabled": 0, "type": "electric_scooter", "lon": -77.03663316666666, "bike_id": "75a3be83b7fa8f6307efebdb7992c965", "fusion_lat": 0.0, "name": "75a3be83b7fa8f6307efebdb7992c965", "is_reserved": 0, "rental_uris": {"android": "https://dc.lft.to/lastmile_qr_scan", "ios": "https://dc.lft.to/lastmile_qr_scan"}, "fusion_lon": 0.0}, {"lat": 38.90504283333333, "is_disabled": 0, "type": "electric_scooter", "lon": -77.00685433333334, "bike_id": "3706fb67b23aa464204bc1da40c31c57", "fusion_lat": 0.0, "name": "3706fb67b23aa464204bc1da40c31c57", "is_reserved": 0, "rental_uris": {"android": "https://dc.lft.to/lastmile_qr_scan", "ios": "https://dc.lft.to/lastmile_qr_scan"}, "fusion_lon": 0.0}, {"lat": 38.82871433333333, "is_disabled": 0, "type": "electric_bike", "lon": -77.11219633333333, "bike_id": "efb08716db1aaf0e9954959b187fa853", "fusion_lat": 0.0, "name": "efb08716db1aaf0e9954959b187fa853", "is_reserved": 0, "rental_uris": {"android": "https://dc.lft.to/lastmile_qr_scan", "ios": "https://dc.lft.to/lastmile_qr_scan"}, "fusion_lon": 0.0}, {"lat": 38.932463, "is_disabled": 0, "type": "electric_scooter", "lon": -77.029396, "bike_id": "a3e8bc763bfcda154f2c467e7e37995e", "fusion_lat": 0.0, "name": "a3e8bc763bfcda154f2c467e7e37995e", "is_reserved": 0, "rental_uris": {"android": "https://dc.lft.to/lastmile_qr_scan", "ios": "https://dc.lft.to/lastmile_qr_scan"}, "fusion_lon": 0.0}, {"lat": 38.9225115, "is_disabled": 0, "type": "electric_scooter", "lon": -77.04258466666667, "bike_id": "cb35c4a300e4473d073a27a177c0890b", "fusion_lat": 0.0, "name": "cb35c4a300e4473d073a27a177c0890b", "is_reserved": 0, "rental_uris": {"android": "https://dc.lft.to/lastmile_qr_scan", "ios": "https://dc.lft.to/lastmile_qr_scan"}, "fusion_lon": 0.0}, {"lat": 38.90989666666667, "is_disabled": 0, "type": "electric_scooter", "lon": -76.99737233333333, "bike_id": "1cf110290492833e63a60868995a7202", "fusion_lat": 0.0, "name": "1cf110290492833e63a60868995a7202", "is_reserved": 0, "rental_uris": {"android": "https://dc.lft.to/lastmile_qr_scan", "ios": "https://dc.lft.to/lastmile_qr_scan"}, "fusion_lon": 0.0}, {"lat": 38.89394883333333, "is_disabled": 0, "type": "electric_scooter", "lon": -77.04995933333333, "bike_id": "c33947965e88800e6c12b4b2922c1f94", "fusion_lat": 0.0, "name": "c33947965e88800e6c12b4b2922c1f94", "is_reserved": 0, "rental_uris": {"android": "https://dc.lft.to/lastmile_qr_scan", "ios": "https://dc.lft.to/lastmile_qr_scan"}, "fusion_lon": 0.0}, {"lat": 38.9056405, "is_disabled": 0, "type": "electric_scooter", "lon": -77.04167266666667, "bike_id": "268b233e8a2ab3f04a8569437c94c6d9", "fusion_lat": 0.0, "name": "268b233e8a2ab3f04a8569437c94c6d9", "is_reserved": 0, "rental_uris": {"android": "https://dc.lft.to/lastmile_qr_scan", "ios": "https://dc.lft.to/lastmile_qr_scan"}, "fusion_lon": 0.0}, {"lat": 38.923213, "is_disabled": 0, "type": "electric_scooter", "lon": -77.02794983333334, "bike_id": "f6c8155ba73faca2405a27bd49464118", "fusion_lat": 0.0, "name": "f6c8155ba73faca2405a27bd49464118", "is_reserved": 0, "rental_uris": {"android": "https://dc.lft.to/lastmile_qr_scan", "ios": "https://dc.lft.to/lastmile_qr_scan"}, "fusion_lon": 0.0}, {"lat": 38.89624933333333, "is_disabled": 0, "type": "electric_scooter", "lon": -77.0213825, "bike_id": "66d2164ccc8e59e00b5b932deb6805b1", "fusion_lat": 0.0, "name": "66d2164ccc8e59e00b5b932deb6805b1", "is_reserved": 0, "rental_uris": {"android": "https://dc.lft.to/lastmile_qr_scan", "ios": "https://dc.lft.to/lastmile_qr_scan"}, "fusion_lon": 0.0}, {"lat": 38.92252166666667, "is_disabled": 0, "type": "electric_scooter", "lon": -77.04251233333333, "bike_id": "aa28d42fc35927fc1cb62d3e95545fc7", "fusion_lat": 0.0, "name": "aa28d42fc35927fc1cb62d3e95545fc7", "is_reserved": 0, "rental_uris": {"android": "https://dc.lft.to/lastmile_qr_scan", "ios": "https://dc.lft.to/lastmile_qr_scan"}, "fusion_lon": 0.0}, {"lat": 38.9165275, "is_disabled": 0, "type": "electric_scooter", "lon": -77.04716016666667, "bike_id": "76bb7fd0652db91ac521244d5bdd7b13", "fusion_lat": 0.0, "name": "76bb7fd0652db91ac521244d5bdd7b13", "is_reserved": 0, "rental_uris": {"android": "https://dc.lft.to/lastmile_qr_scan", "ios": "https://dc.lft.to/lastmile_qr_scan"}, "fusion_lon": 0.0}, {"lat": 38.934095, "is_disabled": 0, "type": "electric_scooter", "lon": -77.02457466666667, "bike_id": "52e0e20cc19b0b347556d5baf09e9dc2", "fusion_lat": 0.0, "name": "52e0e20cc19b0b347556d5baf09e9dc2", "is_reserved": 0, "rental_uris": {"android": "https://dc.lft.to/lastmile_qr_scan", "ios": "https://dc.lft.to/lastmile_qr_scan"}, "fusion_lon": 0.0}, {"lat": 38.85657716666667, "is_disabled": 0, "type": "electric_scooter", "lon": -76.98176833333333, "bike_id": "d431513957017f30105b06eeb925eeeb", "fusion_lat": 0.0, "name": "d431513957017f30105b06eeb925eeeb", "is_reserved": 0, "rental_uris": {"android": "https://dc.lft.to/lastmile_qr_scan", "ios": "https://dc.lft.to/lastmile_qr_scan"}, "fusion_lon": 0.0}, {"lat": 38.89543033333333, "is_disabled": 0, "type": "electric_scooter", "lon": -77.0043785, "bike_id": "f9bd098a54417225c65dee169f425b77", "fusion_lat": 0.0, "name": "f9bd098a54417225c65dee169f425b77", "is_reserved": 0, "rental_uris": {"android": "https://dc.lft.to/lastmile_qr_scan", "ios": "https://dc.lft.to/lastmile_qr_scan"}, "fusion_lon": 0.0}, {"lat": 38.84273866666667, "is_disabled": 0, "type": "electric_bike", "lon": -76.98839916666667, "bike_id": "a60c7a27c2d18fff3f83af3d9693f8b7", "fusion_lat": 0.0, "name": "a60c7a27c2d18fff3f83af3d9693f8b7", "is_reserved": 0, "rental_uris": {"android": "https://dc.lft.to/lastmile_qr_scan", "ios": "https://dc.lft.to/lastmile_qr_scan"}, "fusion_lon": 0.0}, {"lat": 38.98279133333333, "is_disabled": 0, "type": "electric_bike", "lon": -77.02538883333334, "bike_id": "58c6c17191c17e51b049fbd3e744c4c7", "fusion_lat": 0.0, "name": "58c6c17191c17e51b049fbd3e744c4c7", "is_reserved": 0, "rental_uris": {"android": "https://dc.lft.to/lastmile_qr_scan", "ios": "https://dc.lft.to/lastmile_qr_scan"}, "fusion_lon": 0.0}, {"lat": 38.901273333333336, "is_disabled": 0, "type": "electric_scooter", "lon": -77.02936583333333, "bike_id": "25e981d7a267939af373093e17149e74", "fusion_lat": 0.0, "name": "25e981d7a267939af373093e17149e74", "is_reserved": 0, "rental_uris": {"android": "https://dc.lft.to/lastmile_qr_scan", "ios": "https://dc.lft.to/lastmile_qr_scan"}, "fusion_lon": 0.0}, {"lat": 38.884857, "is_disabled": 0, "type": "electric_scooter", "lon": -77.03469783333334, "bike_id": "fbffbee74391969be6990cc6ce54363a", "fusion_lat": 0.0, "name": "fbffbee74391969be6990cc6ce54363a", "is_reserved": 0, "rental_uris": {"android": "https://dc.lft.to/lastmile_qr_scan", "ios": "https://dc.lft.to/lastmile_qr_scan"}, "fusion_lon": 0.0}, {"lat": 38.837329833333335, "is_disabled": 0, "type": "electric_bike", "lon": -76.99757616666666, "bike_id": "65763cf2fc3c986d3f522a0278494b04", "fusion_lat": 0.0, "name": "65763cf2fc3c986d3f522a0278494b04", "is_reserved": 0, "rental_uris": {"android": "https://dc.lft.to/lastmile_qr_scan", "ios": "https://dc.lft.to/lastmile_qr_scan"}, "fusion_lon": 0.0}, {"lat": 38.9265295, "is_disabled": 0, "type": "electric_scooter", "lon": -76.99752883333333, "bike_id": "d7becce75c81061a01f20e27d5612352", "fusion_lat": 0.0, "name": "d7becce75c81061a01f20e27d5612352", "is_reserved": 0, "rental_uris": {"android": "https://dc.lft.to/lastmile_qr_scan", "ios": "https://dc.lft.to/lastmile_qr_scan"}, "fusion_lon": 0.0}, {"lat": 38.86508166666667, "is_disabled": 0, "type": "electric_scooter", "lon": -76.99004333333333, "bike_id": "f24977cea267ef422d2da1b499492d64", "fusion_lat": 0.0, "name": "f24977cea267ef422d2da1b499492d64", "is_reserved": 0, "rental_uris": {"android": "https://dc.lft.to/lastmile_qr_scan", "ios": "https://dc.lft.to/lastmile_qr_scan"}, "fusion_lon": 0.0}, {"lat": 38.83420783333333, "is_disabled": 0, "type": "electric_bike", "lon": -77.10375083333334, "bike_id": "48cac4cef4a8dfdafb0aa101bdf64e09", "fusion_lat": 0.0, "name": "48cac4cef4a8dfdafb0aa101bdf64e09", "is_reserved": 0, "rental_uris": {"android": "https://dc.lft.to/lastmile_qr_scan", "ios": "https://dc.lft.to/lastmile_qr_scan"}, "fusion_lon": 0.0}, {"lat": 38.903853166666664, "is_disabled": 0, "type": "electric_scooter", "lon": -77.0424695, "bike_id": "b452718c36306aba0dbfb65263b61ecf", "fusion_lat": 0.0, "name": "b452718c36306aba0dbfb65263b61ecf", "is_reserved": 0, "rental_uris": {"android": "https://dc.lft.to/lastmile_qr_scan", "ios": "https://dc.lft.to/lastmile_qr_scan"}, "fusion_lon": 0.0}, {"lat": 38.93445716666667, "is_disabled": 0, "type": "electric_scooter", "lon": -77.03092333333333, "bike_id": "b8a9a8957447b1a37a7e6d51e991f84c", "fusion_lat": 0.0, "name": "b8a9a8957447b1a37a7e6d51e991f84c", "is_reserved": 0, "rental_uris": {"android": "https://dc.lft.to/lastmile_qr_scan", "ios": "https://dc.lft.to/lastmile_qr_scan"}, "fusion_lon": 0.0}, {"lat": 38.844648, "is_disabled": 0, "type": "electric_bike", "lon": -76.98749616666667, "bike_id": "7ec56d3acffd7c898d3924fa133dcede", "fusion_lat": 0.0, "name": "7ec56d3acffd7c898d3924fa133dcede", "is_reserved": 0, "rental_uris": {"android": "https://dc.lft.to/lastmile_qr_scan", "ios": "https://dc.lft.to/lastmile_qr_scan"}, "fusion_lon": 0.0}, {"lat": 38.90029333333333, "is_disabled": 0, "type": "electric_scooter", "lon": -76.98375083333333, "bike_id": "241aa277dcf77084a59d605fa49d5f55", "fusion_lat": 0.0, "name": "241aa277dcf77084a59d605fa49d5f55", "is_reserved": 0, "rental_uris": {"android": "https://dc.lft.to/lastmile_qr_scan", "ios": "https://dc.lft.to/lastmile_qr_scan"}, "fusion_lon": 0.0}, {"lat": 38.85926466666667, "is_disabled": 0, "type": "electric_scooter", "lon": -76.99716166666667, "bike_id": "679e0a63af973afe149c28509b31bbbd", "fusion_lat": 0.0, "name": "679e0a63af973afe149c28509b31bbbd", "is_reserved": 0, "rental_uris": {"android": "https://dc.lft.to/lastmile_qr_scan", "ios": "https://dc.lft.to/lastmile_qr_scan"}, "fusion_lon": 0.0}, {"lat": 38.86520866666667, "is_disabled": 0, "type": "electric_scooter", "lon": -76.99029, "bike_id": "ec8ee8c203383ca5f94cae1bf72fbc1f", "fusion_lat": 0.0, "name": "ec8ee8c203383ca5f94cae1bf72fbc1f", "is_reserved": 0, "rental_uris": {"android": "https://dc.lft.to/lastmile_qr_scan", "ios": "https://dc.lft.to/lastmile_qr_scan"}, "fusion_lon": 0.0}, {"lat": 38.90473333333333, "is_disabled": 0, "type": "electric_scooter", "lon": -77.02962633333334, "bike_id": "a12a0c40c806fa74d1f4eeae4856d1c1", "fusion_lat": 0.0, "name": "a12a0c40c806fa74d1f4eeae4856d1c1", "is_reserved": 0, "rental_uris": {"android": "https://dc.lft.to/lastmile_qr_scan", "ios": "https://dc.lft.to/lastmile_qr_scan"}, "fusion_lon": 0.0}, {"lat": 38.92403766666666, "is_disabled": 0, "type": "electric_scooter", "lon": -77.02745066666667, "bike_id": "5627a0bb5ae1a1fedab01bcb19ad4f4b", "fusion_lat": 0.0, "name": "5627a0bb5ae1a1fedab01bcb19ad4f4b", "is_reserved": 0, "rental_uris": {"android": "https://dc.lft.to/lastmile_qr_scan", "ios": "https://dc.lft.to/lastmile_qr_scan"}, "fusion_lon": 0.0}, {"lat": 38.8699845, "is_disabled": 0, "type": "electric_bike", "lon": -77.065692, "bike_id": "b0a86c189673df7892d4592e92e2e450", "fusion_lat": 0.0, "name": "b0a86c189673df7892d4592e92e2e450", "is_reserved": 0, "rental_uris": {"android": "https://dc.lft.to/lastmile_qr_scan", "ios": "https://dc.lft.to/lastmile_qr_scan"}, "fusion_lon": 0.0}, {"lat": 38.87631066666667, "is_disabled": 0, "type": "electric_scooter", "lon": -76.96526466666667, "bike_id": "68b52de054f2524220f05857685e5fba", "fusion_lat": 0.0, "name": "68b52de054f2524220f05857685e5fba", "is_reserved": 0, "rental_uris": {"android": "https://dc.lft.to/lastmile_qr_scan", "ios": "https://dc.lft.to/lastmile_qr_scan"}, "fusion_lon": 0.0}, {"lat": 38.898516, "is_disabled": 0, "type": "electric_scooter", "lon": -76.99032216666667, "bike_id": "3a0b1c5cef0f47f182686c29b71bedd8", "fusion_lat": 0.0, "name": "3a0b1c5cef0f47f182686c29b71bedd8", "is_reserved": 0, "rental_uris": {"android": "https://dc.lft.to/lastmile_qr_scan", "ios": "https://dc.lft.to/lastmile_qr_scan"}, "fusion_lon": 0.0}, {"lat": 38.90606066666667, "is_disabled": 0, "type": "electric_scooter", "lon": -76.98984083333333, "bike_id": "c82b73daa6194b60c9bf8a6d4f7176fd", "fusion_lat": 0.0, "name": "c82b73daa6194b60c9bf8a6d4f7176fd", "is_reserved": 0, "rental_uris": {"android": "https://dc.lft.to/lastmile_qr_scan", "ios": "https://dc.lft.to/lastmile_qr_scan"}, "fusion_lon": 0.0}, {"lat": 39.00007133333333, "is_disabled": 0, "type": "electric_bike", "lon": -76.91080883333333, "bike_id": "6395cd0b2f7b32d89ba2732c28a8ba08", "fusion_lat": 0.0, "name": "6395cd0b2f7b32d89ba2732c28a8ba08", "is_reserved": 0, "rental_uris": {"android": "https://dc.lft.to/lastmile_qr_scan", "ios": "https://dc.lft.to/lastmile_qr_scan"}, "fusion_lon": 0.0}, {"lat": 38.902854166666664, "is_disabled": 0, "type": "electric_scooter", "lon": -77.033349, "bike_id": "995f9be0a57c82e1d1c06fe62401d6a3", "fusion_lat": 0.0, "name": "995f9be0a57c82e1d1c06fe62401d6a3", "is_reserved": 0, "rental_uris": {"android": "https://dc.lft.to/lastmile_qr_scan", "ios": "https://dc.lft.to/lastmile_qr_scan"}, "fusion_lon": 0.0}, {"lat": 38.95336666666667, "is_disabled": 0, "type": "electric_bike", "lon": -76.97362666666666, "bike_id": "09840cec284754e99579ff0cf8e9bb63", "fusion_lat": 0.0, "name": "09840cec284754e99579ff0cf8e9bb63", "is_reserved": 0, "rental_uris": {"android": "https://dc.lft.to/lastmile_qr_scan", "ios": "https://dc.lft.to/lastmile_qr_scan"}, "fusion_lon": 0.0}, {"lat": 38.92584433333333, "is_disabled": 0, "type": "electric_scooter", "lon": -77.02832633333334, "bike_id": "15a22857c963dfa560908a807576545c", "fusion_lat": 0.0, "name": "15a22857c963dfa560908a807576545c", "is_reserved": 0, "rental_uris": {"android": "https://dc.lft.to/lastmile_qr_scan", "ios": "https://dc.lft.to/lastmile_qr_scan"}, "fusion_lon": 0.0}, {"lat": 38.863870666666664, "is_disabled": 0, "type": "electric_bike", "lon": -76.989882, "bike_id": "c15e07a836e1ebb5c649e9908492d61f", "fusion_lat": 0.0, "name": "c15e07a836e1ebb5c649e9908492d61f", "is_reserved": 0, "rental_uris": {"android": "https://dc.lft.to/lastmile_qr_scan", "ios": "https://dc.lft.to/lastmile_qr_scan"}, "fusion_lon": 0.0}, {"lat": 38.85319616666666, "is_disabled": 0, "type": "electric_bike", "lon": -76.98004333333333, "bike_id": "edf536f1060b40f58cbe3e4344f9fd15", "fusion_lat": 0.0, "name": "edf536f1060b40f58cbe3e4344f9fd15", "is_reserved": 0, "rental_uris": {"android": "https://dc.lft.to/lastmile_qr_scan", "ios": "https://dc.lft.to/lastmile_qr_scan"}, "fusion_lon": 0.0}, {"lat": 38.865541666666665, "is_disabled": 0, "type": "electric_scooter", "lon": -76.97420916666667, "bike_id": "3aa99a38e2d60ae3d8d3ddffbad04a2c", "fusion_lat": 0.0, "name": "3aa99a38e2d60ae3d8d3ddffbad04a2c", "is_reserved": 0, "rental_uris": {"android": "https://dc.lft.to/lastmile_qr_scan", "ios": "https://dc.lft.to/lastmile_qr_scan"}, "fusion_lon": 0.0}, {"lat": 38.906266, "is_disabled": 0, "type": "electric_scooter", "lon": -77.04158816666667, "bike_id": "dd8945649688ceaf7b65539eaa67685b", "fusion_lat": 0.0, "name": "dd8945649688ceaf7b65539eaa67685b", "is_reserved": 0, "rental_uris": {"android": "https://dc.lft.to/lastmile_qr_scan", "ios": "https://dc.lft.to/lastmile_qr_scan"}, "fusion_lon": 0.0}, {"lat": 38.90086566666667, "is_disabled": 0, "type": "electric_scooter", "lon": -77.049101, "bike_id": "2784b343519f94b5fd4efa720d4a6616", "fusion_lat": 0.0, "name": "2784b343519f94b5fd4efa720d4a6616", "is_reserved": 0, "rental_uris": {"android": "https://dc.lft.to/lastmile_qr_scan", "ios": "https://dc.lft.to/lastmile_qr_scan"}, "fusion_lon": 0.0}, {"lat": 38.917084833333334, "is_disabled": 0, "type": "electric_scooter", "lon": -77.01433766666666, "bike_id": "a334f8c722f247910fd0560ff3a8acc3", "fusion_lat": 0.0, "name": "a334f8c722f247910fd0560ff3a8acc3", "is_reserved": 0, "rental_uris": {"android": "https://dc.lft.to/lastmile_qr_scan", "ios": "https://dc.lft.to/lastmile_qr_scan"}, "fusion_lon": 0.0}, {"lat": 38.927925, "is_disabled": 0, "type": "electric_scooter", "lon": -77.05525783333333, "bike_id": "cf70a8969043e355dceb120297ba2133", "fusion_lat": 0.0, "name": "cf70a8969043e355dceb120297ba2133", "is_reserved": 0, "rental_uris": {"android": "https://dc.lft.to/lastmile_qr_scan", "ios": "https://dc.lft.to/lastmile_qr_scan"}, "fusion_lon": 0.0}, {"lat": 38.933034166666665, "is_disabled": 0, "type": "electric_scooter", "lon": -77.028455, "bike_id": "9eb893eac39465f0b4971f6ee9f2b5d4", "fusion_lat": 0.0, "name": "9eb893eac39465f0b4971f6ee9f2b5d4", "is_reserved": 0, "rental_uris": {"android": "https://dc.lft.to/lastmile_qr_scan", "ios": "https://dc.lft.to/lastmile_qr_scan"}, "fusion_lon": 0.0}, {"lat": 38.839847166666665, "is_disabled": 0, "type": "electric_bike", "lon": -77.00563516666666, "bike_id": "0afff3e3ffc87c6a4aa60cfd9ab6ccac", "fusion_lat": 0.0, "name": "0afff3e3ffc87c6a4aa60cfd9ab6ccac", "is_reserved": 0, "rental_uris": {"android": "https://dc.lft.to/lastmile_qr_scan", "ios": "https://dc.lft.to/lastmile_qr_scan"}, "fusion_lon": 0.0}, {"lat": 38.9097965, "is_disabled": 0, "type": "electric_scooter", "lon": -76.98470566666667, "bike_id": "c6f2260c7d77cd9c6e31f9aca3a94ad5", "fusion_lat": 0.0, "name": "c6f2260c7d77cd9c6e31f9aca3a94ad5", "is_reserved": 0, "rental_uris": {"android": "https://dc.lft.to/lastmile_qr_scan", "ios": "https://dc.lft.to/lastmile_qr_scan"}, "fusion_lon": 0.0}, {"lat": 38.929135333333335, "is_disabled": 0, "type": "electric_scooter", "lon": -77.036299, "bike_id": "0b33961aca34a56a8fb083475164fcb8", "fusion_lat": 0.0, "name": "0b33961aca34a56a8fb083475164fcb8", "is_reserved": 0, "rental_uris": {"android": "https://dc.lft.to/lastmile_qr_scan", "ios": "https://dc.lft.to/lastmile_qr_scan"}, "fusion_lon": 0.0}, {"lat": 38.9003795, "is_disabled": 0, "type": "electric_scooter", "lon": -76.99493816666667, "bike_id": "99028aaf418997ff4bcb59374a7ebd82", "fusion_lat": 0.0, "name": "99028aaf418997ff4bcb59374a7ebd82", "is_reserved": 0, "rental_uris": {"android": "https://dc.lft.to/lastmile_qr_scan", "ios": "https://dc.lft.to/lastmile_qr_scan"}, "fusion_lon": 0.0}, {"lat": 38.92397233333333, "is_disabled": 0, "type": "electric_scooter", "lon": -77.0255245, "bike_id": "fdc12d065b1da2f8916693a8d85f987b", "fusion_lat": 0.0, "name": "fdc12d065b1da2f8916693a8d85f987b", "is_reserved": 0, "rental_uris": {"android": "https://dc.lft.to/lastmile_qr_scan", "ios": "https://dc.lft.to/lastmile_qr_scan"}, "fusion_lon": 0.0}, {"lat": 38.908281, "is_disabled": 0, "type": "electric_scooter", "lon": -76.9414535, "bike_id": "cbc5a4b8b21cac52f8dde3d4295cbdae", "fusion_lat": 0.0, "name": "cbc5a4b8b21cac52f8dde3d4295cbdae", "is_reserved": 0, "rental_uris": {"android": "https://dc.lft.to/lastmile_qr_scan", "ios": "https://dc.lft.to/lastmile_qr_scan"}, "fusion_lon": 0.0}, {"lat": 38.936340666666666, "is_disabled": 0, "type": "electric_scooter", "lon": -77.03656566666666, "bike_id": "1ad1f67092993bc47599531489cccf67", "fusion_lat": 0.0, "name": "1ad1f67092993bc47599531489cccf67", "is_reserved": 0, "rental_uris": {"android": "https://dc.lft.to/lastmile_qr_scan", "ios": "https://dc.lft.to/lastmile_qr_scan"}, "fusion_lon": 0.0}, {"lat": 38.88403183333333, "is_disabled": 0, "type": "electric_bike", "lon": -76.960588, "bike_id": "743fc53e75370b19ee8b211d5ade4a45", "fusion_lat": 0.0, "name": "743fc53e75370b19ee8b211d5ade4a45", "is_reserved": 0, "rental_uris": {"android": "https://dc.lft.to/lastmile_qr_scan", "ios": "https://dc.lft.to/lastmile_qr_scan"}, "fusion_lon": 0.0}, {"lat": 38.929370666666664, "is_disabled": 0, "type": "electric_scooter", "lon": -77.01981983333333, "bike_id": "fb3ba22d126b64125bf65bdb71e063dd", "fusion_lat": 0.0, "name": "fb3ba22d126b64125bf65bdb71e063dd", "is_reserved": 0, "rental_uris": {"android": "https://dc.lft.to/lastmile_qr_scan", "ios": "https://dc.lft.to/lastmile_qr_scan"}, "fusion_lon": 0.0}, {"lat": 38.90406733333333, "is_disabled": 0, "type": "electric_scooter", "lon": -77.02484, "bike_id": "f90359fe301a98f655492842a851ce73", "fusion_lat": 0.0, "name": "f90359fe301a98f655492842a851ce73", "is_reserved": 0, "rental_uris": {"android": "https://dc.lft.to/lastmile_qr_scan", "ios": "https://dc.lft.to/lastmile_qr_scan"}, "fusion_lon": 0.0}, {"lat": 38.924033, "is_disabled": 0, "type": "electric_scooter", "lon": -77.05252383333334, "bike_id": "fb3ed71b43538ce932fe3c6264eed5da", "fusion_lat": 0.0, "name": "fb3ed71b43538ce932fe3c6264eed5da", "is_reserved": 0, "rental_uris": {"android": "https://dc.lft.to/lastmile_qr_scan", "ios": "https://dc.lft.to/lastmile_qr_scan"}, "fusion_lon": 0.0}, {"lat": 38.881298666666666, "is_disabled": 0, "type": "electric_scooter", "lon": -77.01644766666666, "bike_id": "1c25d1192c85bbee9fb03109015541d5", "fusion_lat": 0.0, "name": "1c25d1192c85bbee9fb03109015541d5", "is_reserved": 0, "rental_uris": {"android": "https://dc.lft.to/lastmile_qr_scan", "ios": "https://dc.lft.to/lastmile_qr_scan"}, "fusion_lon": 0.0}, {"lat": 38.912606833333335, "is_disabled": 0, "type": "electric_scooter", "lon": -77.03856666666667, "bike_id": "977917c7e547a149707ee4755789833d", "fusion_lat": 0.0, "name": "977917c7e547a149707ee4755789833d", "is_reserved": 0, "rental_uris": {"android": "https://dc.lft.to/lastmile_qr_scan", "ios": "https://dc.lft.to/lastmile_qr_scan"}, "fusion_lon": 0.0}, {"lat": 38.92911266666667, "is_disabled": 0, "type": "electric_scooter", "lon": -77.031835, "bike_id": "da68450f4307dc028e2dea2e0c0e4b94", "fusion_lat": 0.0, "name": "da68450f4307dc028e2dea2e0c0e4b94", "is_reserved": 0, "rental_uris": {"android": "https://dc.lft.to/lastmile_qr_scan", "ios": "https://dc.lft.to/lastmile_qr_scan"}, "fusion_lon": 0.0}, {"lat": 38.9178905, "is_disabled": 0, "type": "electric_scooter", "lon": -77.04445166666666, "bike_id": "667efa536aca9a17c167d9d9a51b285b", "fusion_lat": 0.0, "name": "667efa536aca9a17c167d9d9a51b285b", "is_reserved": 0, "rental_uris": {"android": "https://dc.lft.to/lastmile_qr_scan", "ios": "https://dc.lft.to/lastmile_qr_scan"}, "fusion_lon": 0.0}, {"lat": 38.90241783333333, "is_disabled": 0, "type": "electric_scooter", "lon": -77.03196233333334, "bike_id": "528dd2e784bf2bf587a8319c1c9f4adc", "fusion_lat": 0.0, "name": "528dd2e784bf2bf587a8319c1c9f4adc", "is_reserved": 0, "rental_uris": {"android": "https://dc.lft.to/lastmile_qr_scan", "ios": "https://dc.lft.to/lastmile_qr_scan"}, "fusion_lon": 0.0}, {"lat": 38.9309545, "is_disabled": 0, "type": "electric_scooter", "lon": -77.02495016666667, "bike_id": "b00e5413062411cc1fd1f712aa3beacb", "fusion_lat": 0.0, "name": "b00e5413062411cc1fd1f712aa3beacb", "is_reserved": 0, "rental_uris": {"android": "https://dc.lft.to/lastmile_qr_scan", "ios": "https://dc.lft.to/lastmile_qr_scan"}, "fusion_lon": 0.0}, {"lat": 38.940418666666666, "is_disabled": 0, "type": "electric_bike", "lon": -77.05161616666666, "bike_id": "dec32326e191f59d739627acf8b973dc", "fusion_lat": 0.0, "name": "dec32326e191f59d739627acf8b973dc", "is_reserved": 0, "rental_uris": {"android": "https://dc.lft.to/lastmile_qr_scan", "ios": "https://dc.lft.to/lastmile_qr_scan"}, "fusion_lon": 0.0}, {"lat": 38.928613166666665, "is_disabled": 0, "type": "electric_scooter", "lon": -77.0315265, "bike_id": "261ea2e6888ccd0a2886f6d8cf710e3b", "fusion_lat": 0.0, "name": "261ea2e6888ccd0a2886f6d8cf710e3b", "is_reserved": 0, "rental_uris": {"android": "https://dc.lft.to/lastmile_qr_scan", "ios": "https://dc.lft.to/lastmile_qr_scan"}, "fusion_lon": 0.0}, {"lat": 38.9207225, "is_disabled": 0, "type": "electric_scooter", "lon": -77.01431183333334, "bike_id": "1b25430d78e82ffe02153f42e040fb88", "fusion_lat": 0.0, "name": "1b25430d78e82ffe02153f42e040fb88", "is_reserved": 0, "rental_uris": {"android": "https://dc.lft.to/lastmile_qr_scan", "ios": "https://dc.lft.to/lastmile_qr_scan"}, "fusion_lon": 0.0}, {"lat": 38.91384033333333, "is_disabled": 0, "type": "electric_scooter", "lon": -77.01903533333333, "bike_id": "88221ea53bef1e8aa6f2af4074567ef2", "fusion_lat": 0.0, "name": "88221ea53bef1e8aa6f2af4074567ef2", "is_reserved": 0, "rental_uris": {"android": "https://dc.lft.to/lastmile_qr_scan", "ios": "https://dc.lft.to/lastmile_qr_scan"}, "fusion_lon": 0.0}, {"lat": 38.9509305, "is_disabled": 0, "type": "electric_scooter", "lon": -77.02804083333334, "bike_id": "7ce86b137faecb99e54d900332c957c3", "fusion_lat": 0.0, "name": "7ce86b137faecb99e54d900332c957c3", "is_reserved": 0, "rental_uris": {"android": "https://dc.lft.to/lastmile_qr_scan", "ios": "https://dc.lft.to/lastmile_qr_scan"}, "fusion_lon": 0.0}, {"lat": 38.90293466666667, "is_disabled": 0, "type": "electric_scooter", "lon": -77.06340816666666, "bike_id": "b70cc9f5e68701786036bfcf50031827", "fusion_lat": 0.0, "name": "b70cc9f5e68701786036bfcf50031827", "is_reserved": 0, "rental_uris": {"android": "https://dc.lft.to/lastmile_qr_scan", "ios": "https://dc.lft.to/lastmile_qr_scan"}, "fusion_lon": 0.0}, {"lat": 38.905711333333336, "is_disabled": 0, "type": "electric_scooter", "lon": -77.0222005, "bike_id": "e734922296fb3b6e6452ade39dd7f4df", "fusion_lat": 0.0, "name": "e734922296fb3b6e6452ade39dd7f4df", "is_reserved": 0, "rental_uris": {"android": "https://dc.lft.to/lastmile_qr_scan", "ios": "https://dc.lft.to/lastmile_qr_scan"}, "fusion_lon": 0.0}, {"lat": 38.858517666666664, "is_disabled": 0, "type": "electric_bike", "lon": -77.097493, "bike_id": "d1d5a7ed15ac57af29ff172735e5eadf", "fusion_lat": 0.0, "name": "d1d5a7ed15ac57af29ff172735e5eadf", "is_reserved": 0, "rental_uris": {"android": "https://dc.lft.to/lastmile_qr_scan", "ios": "https://dc.lft.to/lastmile_qr_scan"}, "fusion_lon": 0.0}, {"lat": 38.907326833333336, "is_disabled": 0, "type": "electric_scooter", "lon": -77.042164, "bike_id": "72dd053968b608ade3206fc02795cde0", "fusion_lat": 0.0, "name": "72dd053968b608ade3206fc02795cde0", "is_reserved": 0, "rental_uris": {"android": "https://dc.lft.to/lastmile_qr_scan", "ios": "https://dc.lft.to/lastmile_qr_scan"}, "fusion_lon": 0.0}, {"lat": 38.958789, "is_disabled": 0, "type": "electric_bike", "lon": -76.92485966666666, "bike_id": "c0f6429479b17a6a61b292da3508594c", "fusion_lat": 0.0, "name": "c0f6429479b17a6a61b292da3508594c", "is_reserved": 0, "rental_uris": {"android": "https://dc.lft.to/lastmile_qr_scan", "ios": "https://dc.lft.to/lastmile_qr_scan"}, "fusion_lon": 0.0}, {"lat": 38.911678333333334, "is_disabled": 0, "type": "electric_scooter", "lon": -77.03845483333333, "bike_id": "5c7cc532350454da863cbbd308116b01", "fusion_lat": 0.0, "name": "5c7cc532350454da863cbbd308116b01", "is_reserved": 0, "rental_uris": {"android": "https://dc.lft.to/lastmile_qr_scan", "ios": "https://dc.lft.to/lastmile_qr_scan"}, "fusion_lon": 0.0}, {"lat": 38.890404333333336, "is_disabled": 0, "type": "electric_scooter", "lon": -76.94078, "bike_id": "b97b1f3e3af5516d9000aec2f40cd3eb", "fusion_lat": 0.0, "name": "b97b1f3e3af5516d9000aec2f40cd3eb", "is_reserved": 0, "rental_uris": {"android": "https://dc.lft.to/lastmile_qr_scan", "ios": "https://dc.lft.to/lastmile_qr_scan"}, "fusion_lon": 0.0}, {"lat": 38.921131333333335, "is_disabled": 0, "type": "electric_bike", "lon": -76.9857665, "bike_id": "c28f9fc76a980d813045bd649e04091d", "fusion_lat": 0.0, "name": "c28f9fc76a980d813045bd649e04091d", "is_reserved": 0, "rental_uris": {"android": "https://dc.lft.to/lastmile_qr_scan", "ios": "https://dc.lft.to/lastmile_qr_scan"}, "fusion_lon": 0.0}, {"lat": 38.93194666666667, "is_disabled": 0, "type": "electric_scooter", "lon": -77.023537, "bike_id": "735ddb197955c55a25018c0779c3b579", "fusion_lat": 0.0, "name": "735ddb197955c55a25018c0779c3b579", "is_reserved": 0, "rental_uris": {"android": "https://dc.lft.to/lastmile_qr_scan", "ios": "https://dc.lft.to/lastmile_qr_scan"}, "fusion_lon": 0.0}, {"lat": 38.93356083333333, "is_disabled": 0, "type": "electric_scooter", "lon": -77.02489533333333, "bike_id": "d592193733142353c3d61c40e40388ee", "fusion_lat": 0.0, "name": "d592193733142353c3d61c40e40388ee", "is_reserved": 0, "rental_uris": {"android": "https://dc.lft.to/lastmile_qr_scan", "ios": "https://dc.lft.to/lastmile_qr_scan"}, "fusion_lon": 0.0}, {"lat": 38.95401533333333, "is_disabled": 0, "type": "electric_scooter", "lon": -77.02744283333334, "bike_id": "2250315c7a2c824fc3a5bd94f00800a9", "fusion_lat": 0.0, "name": "2250315c7a2c824fc3a5bd94f00800a9", "is_reserved": 0, "rental_uris": {"android": "https://dc.lft.to/lastmile_qr_scan", "ios": "https://dc.lft.to/lastmile_qr_scan"}, "fusion_lon": 0.0}, {"lat": 38.8026745, "is_disabled": 0, "type": "electric_bike", "lon": -77.08112716666666, "bike_id": "e89113d08962bc3059d99158b8af1f98", "fusion_lat": 0.0, "name": "e89113d08962bc3059d99158b8af1f98", "is_reserved": 0, "rental_uris": {"android": "https://dc.lft.to/lastmile_qr_scan", "ios": "https://dc.lft.to/lastmile_qr_scan"}, "fusion_lon": 0.0}, {"lat": 38.892379166666665, "is_disabled": 0, "type": "electric_scooter", "lon": -77.05031216666667, "bike_id": "5b467b68ee502d59d9117a7d0284414a", "fusion_lat": 0.0, "name": "5b467b68ee502d59d9117a7d0284414a", "is_reserved": 0, "rental_uris": {"android": "https://dc.lft.to/lastmile_qr_scan", "ios": "https://dc.lft.to/lastmile_qr_scan"}, "fusion_lon": 0.0}, {"lat": 38.862550166666665, "is_disabled": 0, "type": "electric_scooter", "lon": -76.99514316666667, "bike_id": "1a3d4d0f5346806cf09456cad0e6e70d", "fusion_lat": 0.0, "name": "1a3d4d0f5346806cf09456cad0e6e70d", "is_reserved": 0, "rental_uris": {"android": "https://dc.lft.to/lastmile_qr_scan", "ios": "https://dc.lft.to/lastmile_qr_scan"}, "fusion_lon": 0.0}, {"lat": 38.92040083333333, "is_disabled": 0, "type": "electric_scooter", "lon": -77.0236545, "bike_id": "4422df2b97adba8a4ab1e33298107580", "fusion_lat": 0.0, "name": "4422df2b97adba8a4ab1e33298107580", "is_reserved": 0, "rental_uris": {"android": "https://dc.lft.to/lastmile_qr_scan", "ios": "https://dc.lft.to/lastmile_qr_scan"}, "fusion_lon": 0.0}, {"lat": 38.93859283333333, "is_disabled": 0, "type": "electric_scooter", "lon": -77.02323116666666, "bike_id": "feb856d91c6b37f2c1a218b411e9b27f", "fusion_lat": 0.0, "name": "feb856d91c6b37f2c1a218b411e9b27f", "is_reserved": 0, "rental_uris": {"android": "https://dc.lft.to/lastmile_qr_scan", "ios": "https://dc.lft.to/lastmile_qr_scan"}, "fusion_lon": 0.0}, {"lat": 38.91939, "is_disabled": 0, "type": "electric_scooter", "lon": -77.07066166666667, "bike_id": "fe535529f9d88f92a9ccb2718059710f", "fusion_lat": 0.0, "name": "fe535529f9d88f92a9ccb2718059710f", "is_reserved": 0, "rental_uris": {"android": "https://dc.lft.to/lastmile_qr_scan", "ios": "https://dc.lft.to/lastmile_qr_scan"}, "fusion_lon": 0.0}, {"lat": 38.910101166666664, "is_disabled": 0, "type": "electric_scooter", "lon": -77.0889665, "bike_id": "d49f1fe624febbb5b80ab2c01bbcc8e8", "fusion_lat": 0.0, "name": "d49f1fe624febbb5b80ab2c01bbcc8e8", "is_reserved": 0, "rental_uris": {"android": "https://dc.lft.to/lastmile_qr_scan", "ios": "https://dc.lft.to/lastmile_qr_scan"}, "fusion_lon": 0.0}, {"lat": 38.8670045, "is_disabled": 0, "type": "electric_scooter", "lon": -76.98709483333333, "bike_id": "2ff3ba4fe992e684dc5d89ccd2319e51", "fusion_lat": 0.0, "name": "2ff3ba4fe992e684dc5d89ccd2319e51", "is_reserved": 0, "rental_uris": {"android": "https://dc.lft.to/lastmile_qr_scan", "ios": "https://dc.lft.to/lastmile_qr_scan"}, "fusion_lon": 0.0}, {"lat": 38.917857833333336, "is_disabled": 0, "type": "electric_bike", "lon": -76.97186116666667, "bike_id": "e0702b7a7f03d0a0bbe488632df59cb4", "fusion_lat": 0.0, "name": "e0702b7a7f03d0a0bbe488632df59cb4", "is_reserved": 0, "rental_uris": {"android": "https://dc.lft.to/lastmile_qr_scan", "ios": "https://dc.lft.to/lastmile_qr_scan"}, "fusion_lon": 0.0}, {"lat": 38.907181333333334, "is_disabled": 0, "type": "electric_scooter", "lon": -76.9981765, "bike_id": "8560b4272582353da6e66e90784cf91b", "fusion_lat": 0.0, "name": "8560b4272582353da6e66e90784cf91b", "is_reserved": 0, "rental_uris": {"android": "https://dc.lft.to/lastmile_qr_scan", "ios": "https://dc.lft.to/lastmile_qr_scan"}, "fusion_lon": 0.0}, {"lat": 38.86170633333333, "is_disabled": 0, "type": "electric_bike", "lon": -77.131433, "bike_id": "005c990290a0967f5044ca932de40ed8", "fusion_lat": 0.0, "name": "005c990290a0967f5044ca932de40ed8", "is_reserved": 0, "rental_uris": {"android": "https://dc.lft.to/lastmile_qr_scan", "ios": "https://dc.lft.to/lastmile_qr_scan"}, "fusion_lon": 0.0}, {"lat": 38.905695, "is_disabled": 0, "type": "electric_scooter", "lon": -77.04871933333334, "bike_id": "d326597410224345f05ab29d9d5dca7a", "fusion_lat": 0.0, "name": "d326597410224345f05ab29d9d5dca7a", "is_reserved": 0, "rental_uris": {"android": "https://dc.lft.to/lastmile_qr_scan", "ios": "https://dc.lft.to/lastmile_qr_scan"}, "fusion_lon": 0.0}, {"lat": 38.900845333333336, "is_disabled": 0, "type": "electric_scooter", "lon": -77.00356383333333, "bike_id": "d59150aaff623586736488d11090d69f", "fusion_lat": 0.0, "name": "d59150aaff623586736488d11090d69f", "is_reserved": 0, "rental_uris": {"android": "https://dc.lft.to/lastmile_qr_scan", "ios": "https://dc.lft.to/lastmile_qr_scan"}, "fusion_lon": 0.0}, {"lat": 38.92860666666667, "is_disabled": 0, "type": "electric_bike", "lon": -76.98934716666666, "bike_id": "cb7363b76f6e76575faf94e75cd9ef9e", "fusion_lat": 0.0, "name": "cb7363b76f6e76575faf94e75cd9ef9e", "is_reserved": 0, "rental_uris": {"android": "https://dc.lft.to/lastmile_qr_scan", "ios": "https://dc.lft.to/lastmile_qr_scan"}, "fusion_lon": 0.0}, {"lat": 38.92154133333333, "is_disabled": 0, "type": "electric_scooter", "lon": -77.03374916666667, "bike_id": "b2159c42f06916a52c77a2982fa10745", "fusion_lat": 0.0, "name": "b2159c42f06916a52c77a2982fa10745", "is_reserved": 0, "rental_uris": {"android": "https://dc.lft.to/lastmile_qr_scan", "ios": "https://dc.lft.to/lastmile_qr_scan"}, "fusion_lon": 0.0}, {"lat": 38.906461, "is_disabled": 0, "type": "electric_scooter", "lon": -76.990208, "bike_id": "e1c5e5440ed975d900322cc42a5bb06c", "fusion_lat": 0.0, "name": "e1c5e5440ed975d900322cc42a5bb06c", "is_reserved": 0, "rental_uris": {"android": "https://dc.lft.to/lastmile_qr_scan", "ios": "https://dc.lft.to/lastmile_qr_scan"}, "fusion_lon": 0.0}, {"lat": 38.85211816666666, "is_disabled": 0, "type": "electric_bike", "lon": -76.99583916666667, "bike_id": "64000210a985b8b80edfebaf62c0adce", "fusion_lat": 0.0, "name": "64000210a985b8b80edfebaf62c0adce", "is_reserved": 0, "rental_uris": {"android": "https://dc.lft.to/lastmile_qr_scan", "ios": "https://dc.lft.to/lastmile_qr_scan"}, "fusion_lon": 0.0}, {"lat": 38.844242333333334, "is_disabled": 0, "type": "electric_scooter", "lon": -76.99779116666667, "bike_id": "efd2177c013ac3027db5eb3f14b9d70b", "fusion_lat": 0.0, "name": "efd2177c013ac3027db5eb3f14b9d70b", "is_reserved": 0, "rental_uris": {"android": "https://dc.lft.to/lastmile_qr_scan", "ios": "https://dc.lft.to/lastmile_qr_scan"}, "fusion_lon": 0.0}, {"lat": 38.956052666666665, "is_disabled": 0, "type": "electric_scooter", "lon": -77.01022683333333, "bike_id": "f60931f142dfd59032a07bf9dbaf9ab8", "fusion_lat": 0.0, "name": "f60931f142dfd59032a07bf9dbaf9ab8", "is_reserved": 0, "rental_uris": {"android": "https://dc.lft.to/lastmile_qr_scan", "ios": "https://dc.lft.to/lastmile_qr_scan"}, "fusion_lon": 0.0}, {"lat": 38.80503233333334, "is_disabled": 0, "type": "electric_bike", "lon": -77.0412975, "bike_id": "76af714f65178f5505da2d13b033bcd5", "fusion_lat": 0.0, "name": "76af714f65178f5505da2d13b033bcd5", "is_reserved": 0, "rental_uris": {"android": "https://dc.lft.to/lastmile_qr_scan", "ios": "https://dc.lft.to/lastmile_qr_scan"}, "fusion_lon": 0.0}, {"lat": 38.921134, "is_disabled": 0, "type": "electric_scooter", "lon": -77.0392975, "bike_id": "b027ab5e07b72e4c85c87ad72020c352", "fusion_lat": 0.0, "name": "b027ab5e07b72e4c85c87ad72020c352", "is_reserved": 0, "rental_uris": {"android": "https://dc.lft.to/lastmile_qr_scan", "ios": "https://dc.lft.to/lastmile_qr_scan"}, "fusion_lon": 0.0}, {"lat": 38.918284666666665, "is_disabled": 0, "type": "electric_scooter", "lon": -77.02305066666666, "bike_id": "6943f2e3e28d281521ed8d9634c54736", "fusion_lat": 0.0, "name": "6943f2e3e28d281521ed8d9634c54736", "is_reserved": 0, "rental_uris": {"android": "https://dc.lft.to/lastmile_qr_scan", "ios": "https://dc.lft.to/lastmile_qr_scan"}, "fusion_lon": 0.0}, {"lat": 38.876878833333336, "is_disabled": 0, "type": "electric_scooter", "lon": -77.00402016666666, "bike_id": "e589e5b4300756959c252bed824812ec", "fusion_lat": 0.0, "name": "e589e5b4300756959c252bed824812ec", "is_reserved": 0, "rental_uris": {"android": "https://dc.lft.to/lastmile_qr_scan", "ios": "https://dc.lft.to/lastmile_qr_scan"}, "fusion_lon": 0.0}, {"lat": 38.907875, "is_disabled": 0, "type": "electric_scooter", "lon": -77.0019755, "bike_id": "b435c97a659d52b63e1372b0ef33010a", "fusion_lat": 0.0, "name": "b435c97a659d52b63e1372b0ef33010a", "is_reserved": 0, "rental_uris": {"android": "https://dc.lft.to/lastmile_qr_scan", "ios": "https://dc.lft.to/lastmile_qr_scan"}, "fusion_lon": 0.0}, {"lat": 38.921245666666664, "is_disabled": 0, "type": "electric_scooter", "lon": -77.04113666666667, "bike_id": "9482b6c38a828216414d40a3ff2b5b67", "fusion_lat": 0.0, "name": "9482b6c38a828216414d40a3ff2b5b67", "is_reserved": 0, "rental_uris": {"android": "https://dc.lft.to/lastmile_qr_scan", "ios": "https://dc.lft.to/lastmile_qr_scan"}, "fusion_lon": 0.0}, {"lat": 38.952922, "is_disabled": 0, "type": "electric_bike", "lon": -76.98209133333333, "bike_id": "4716b9af5c93edc30f2bc49d37d5c92e", "fusion_lat": 0.0, "name": "4716b9af5c93edc30f2bc49d37d5c92e", "is_reserved": 0, "rental_uris": {"android": "https://dc.lft.to/lastmile_qr_scan", "ios": "https://dc.lft.to/lastmile_qr_scan"}, "fusion_lon": 0.0}, {"lat": 38.93340583333333, "is_disabled": 0, "type": "electric_scooter", "lon": -76.99305016666666, "bike_id": "79899543f7c0d4bc3483cd0d5a1a3e77", "fusion_lat": 0.0, "name": "79899543f7c0d4bc3483cd0d5a1a3e77", "is_reserved": 0, "rental_uris": {"android": "https://dc.lft.to/lastmile_qr_scan", "ios": "https://dc.lft.to/lastmile_qr_scan"}, "fusion_lon": 0.0}, {"lat": 38.866201833333335, "is_disabled": 0, "type": "electric_scooter", "lon": -76.98638, "bike_id": "6541b9ef5f8b24d7e5b7aaada90a9a0f", "fusion_lat": 0.0, "name": "6541b9ef5f8b24d7e5b7aaada90a9a0f", "is_reserved": 0, "rental_uris": {"android": "https://dc.lft.to/lastmile_qr_scan", "ios": "https://dc.lft.to/lastmile_qr_scan"}, "fusion_lon": 0.0}, {"lat": 38.90795766666667, "is_disabled": 0, "type": "electric_scooter", "lon": -77.03130316666666, "bike_id": "cb2c05fe53171cbf7fd5631b49e9e0f0", "fusion_lat": 0.0, "name": "cb2c05fe53171cbf7fd5631b49e9e0f0", "is_reserved": 0, "rental_uris": {"android": "https://dc.lft.to/lastmile_qr_scan", "ios": "https://dc.lft.to/lastmile_qr_scan"}, "fusion_lon": 0.0}, {"lat": 38.937477333333334, "is_disabled": 0, "type": "electric_scooter", "lon": -77.034537, "bike_id": "e21bd35d4a0f326c222e2d31b5ece9ed", "fusion_lat": 0.0, "name": "e21bd35d4a0f326c222e2d31b5ece9ed", "is_reserved": 0, "rental_uris": {"android": "https://dc.lft.to/lastmile_qr_scan", "ios": "https://dc.lft.to/lastmile_qr_scan"}, "fusion_lon": 0.0}, {"lat": 38.90243866666667, "is_disabled": 0, "type": "electric_scooter", "lon": -77.01750666666666, "bike_id": "79befa5a81e05f10b3040b79c5b6625b", "fusion_lat": 0.0, "name": "79befa5a81e05f10b3040b79c5b6625b", "is_reserved": 0, "rental_uris": {"android": "https://dc.lft.to/lastmile_qr_scan", "ios": "https://dc.lft.to/lastmile_qr_scan"}, "fusion_lon": 0.0}, {"lat": 38.90841233333333, "is_disabled": 0, "type": "electric_scooter", "lon": -77.0401255, "bike_id": "24c30b16f10cd484ad562d21f3f0b717", "fusion_lat": 0.0, "name": "24c30b16f10cd484ad562d21f3f0b717", "is_reserved": 0, "rental_uris": {"android": "https://dc.lft.to/lastmile_qr_scan", "ios": "https://dc.lft.to/lastmile_qr_scan"}, "fusion_lon": 0.0}, {"lat": 38.936566166666665, "is_disabled": 0, "type": "electric_bike", "lon": -76.95219216666666, "bike_id": "e419451594bac20bfe57d67e52b42941", "fusion_lat": 0.0, "name": "e419451594bac20bfe57d67e52b42941", "is_reserved": 0, "rental_uris": {"android": "https://dc.lft.to/lastmile_qr_scan", "ios": "https://dc.lft.to/lastmile_qr_scan"}, "fusion_lon": 0.0}, {"lat": 38.916549, "is_disabled": 0, "type": "electric_scooter", "lon": -76.9822655, "bike_id": "405568bf85ed7cbbf74f1f73a448ac83", "fusion_lat": 0.0, "name": "405568bf85ed7cbbf74f1f73a448ac83", "is_reserved": 0, "rental_uris": {"android": "https://dc.lft.to/lastmile_qr_scan", "ios": "https://dc.lft.to/lastmile_qr_scan"}, "fusion_lon": 0.0}, {"lat": 38.917609166666665, "is_disabled": 0, "type": "electric_scooter", "lon": -77.01473883333334, "bike_id": "3b0270b5d02c5330d5fd964816fcdc9c", "fusion_lat": 0.0, "name": "3b0270b5d02c5330d5fd964816fcdc9c", "is_reserved": 0, "rental_uris": {"android": "https://dc.lft.to/lastmile_qr_scan", "ios": "https://dc.lft.to/lastmile_qr_scan"}, "fusion_lon": 0.0}, {"lat": 38.908198, "is_disabled": 0, "type": "electric_scooter", "lon": -77.04340183333333, "bike_id": "42394f37e662f9bf0635f35cd88aa184", "fusion_lat": 0.0, "name": "42394f37e662f9bf0635f35cd88aa184", "is_reserved": 0, "rental_uris": {"android": "https://dc.lft.to/lastmile_qr_scan", "ios": "https://dc.lft.to/lastmile_qr_scan"}, "fusion_lon": 0.0}, {"lat": 39.034305, "is_disabled": 0, "type": "electric_bike", "lon": -77.043067, "bike_id": "6eb535b0add1c310ab5419b49bcbeee0", "fusion_lat": 0.0, "name": "6eb535b0add1c310ab5419b49bcbeee0", "is_reserved": 0, "rental_uris": {"android": "https://dc.lft.to/lastmile_qr_scan", "ios": "https://dc.lft.to/lastmile_qr_scan"}, "fusion_lon": 0.0}, {"lat": 38.920335, "is_disabled": 0, "type": "electric_scooter", "lon": -77.04181016666666, "bike_id": "64c24058827d06fe6a3519bb78dad3bb", "fusion_lat": 0.0, "name": "64c24058827d06fe6a3519bb78dad3bb", "is_reserved": 0, "rental_uris": {"android": "https://dc.lft.to/lastmile_qr_scan", "ios": "https://dc.lft.to/lastmile_qr_scan"}, "fusion_lon": 0.0}, {"lat": 38.90913483333333, "is_disabled": 0, "type": "electric_scooter", "lon": -77.04464283333333, "bike_id": "9c6eb1711743fa00fe4158a157dc10d2", "fusion_lat": 0.0, "name": "9c6eb1711743fa00fe4158a157dc10d2", "is_reserved": 0, "rental_uris": {"android": "https://dc.lft.to/lastmile_qr_scan", "ios": "https://dc.lft.to/lastmile_qr_scan"}, "fusion_lon": 0.0}, {"lat": 38.84428783333333, "is_disabled": 0, "type": "electric_scooter", "lon": -76.99662866666667, "bike_id": "2afa39d6ec33b61dfaa6a01ba11a9cf7", "fusion_lat": 0.0, "name": "2afa39d6ec33b61dfaa6a01ba11a9cf7", "is_reserved": 0, "rental_uris": {"android": "https://dc.lft.to/lastmile_qr_scan", "ios": "https://dc.lft.to/lastmile_qr_scan"}, "fusion_lon": 0.0}, {"lat": 38.937351166666666, "is_disabled": 0, "type": "electric_scooter", "lon": -77.03618383333334, "bike_id": "23a4043d0848fac18f0e194f5d2b3eb6", "fusion_lat": 0.0, "name": "23a4043d0848fac18f0e194f5d2b3eb6", "is_reserved": 0, "rental_uris": {"android": "https://dc.lft.to/lastmile_qr_scan", "ios": "https://dc.lft.to/lastmile_qr_scan"}, "fusion_lon": 0.0}, {"lat": 38.8518755, "is_disabled": 0, "type": "electric_scooter", "lon": -76.97620933333333, "bike_id": "5b0c77daf9c72fa122eaeab34fa707d2", "fusion_lat": 0.0, "name": "5b0c77daf9c72fa122eaeab34fa707d2", "is_reserved": 0, "rental_uris": {"android": "https://dc.lft.to/lastmile_qr_scan", "ios": "https://dc.lft.to/lastmile_qr_scan"}, "fusion_lon": 0.0}, {"lat": 38.892458833333336, "is_disabled": 0, "type": "electric_scooter", "lon": -77.03349983333334, "bike_id": "d6ef607fad44d5ec2001dda3075874dc", "fusion_lat": 0.0, "name": "d6ef607fad44d5ec2001dda3075874dc", "is_reserved": 0, "rental_uris": {"android": "https://dc.lft.to/lastmile_qr_scan", "ios": "https://dc.lft.to/lastmile_qr_scan"}, "fusion_lon": 0.0}, {"lat": 38.92595516666667, "is_disabled": 0, "type": "electric_scooter", "lon": -77.04397033333333, "bike_id": "a381f6015d6e740779f90ff89259a964", "fusion_lat": 0.0, "name": "a381f6015d6e740779f90ff89259a964", "is_reserved": 0, "rental_uris": {"android": "https://dc.lft.to/lastmile_qr_scan", "ios": "https://dc.lft.to/lastmile_qr_scan"}, "fusion_lon": 0.0}, {"lat": 38.862579333333336, "is_disabled": 0, "type": "electric_scooter", "lon": -76.99515416666667, "bike_id": "eae4518c919a0267f7e3557e71e66bbf", "fusion_lat": 0.0, "name": "eae4518c919a0267f7e3557e71e66bbf", "is_reserved": 0, "rental_uris": {"android": "https://dc.lft.to/lastmile_qr_scan", "ios": "https://dc.lft.to/lastmile_qr_scan"}, "fusion_lon": 0.0}, {"lat": 38.96433433333333, "is_disabled": 0, "type": "electric_bike", "lon": -77.02152383333333, "bike_id": "83291b2f2994085659f733130666528f", "fusion_lat": 0.0, "name": "83291b2f2994085659f733130666528f", "is_reserved": 0, "rental_uris": {"android": "https://dc.lft.to/lastmile_qr_scan", "ios": "https://dc.lft.to/lastmile_qr_scan"}, "fusion_lon": 0.0}, {"lat": 38.898509833333335, "is_disabled": 0, "type": "electric_scooter", "lon": -76.99032966666667, "bike_id": "88c1ef7cd63af9da491df32abb4a0a28", "fusion_lat": 0.0, "name": "88c1ef7cd63af9da491df32abb4a0a28", "is_reserved": 0, "rental_uris": {"android": "https://dc.lft.to/lastmile_qr_scan", "ios": "https://dc.lft.to/lastmile_qr_scan"}, "fusion_lon": 0.0}, {"lat": 38.897291833333334, "is_disabled": 0, "type": "electric_scooter", "lon": -77.04988166666666, "bike_id": "aa2cdb8a63bf61321de74e63f074fac7", "fusion_lat": 0.0, "name": "aa2cdb8a63bf61321de74e63f074fac7", "is_reserved": 0, "rental_uris": {"android": "https://dc.lft.to/lastmile_qr_scan", "ios": "https://dc.lft.to/lastmile_qr_scan"}, "fusion_lon": 0.0}, {"lat": 38.90024583333334, "is_disabled": 0, "type": "electric_scooter", "lon": -76.99620416666667, "bike_id": "46a4e31fce008f1a84a91f38d4d7adea", "fusion_lat": 0.0, "name": "46a4e31fce008f1a84a91f38d4d7adea", "is_reserved": 0, "rental_uris": {"android": "https://dc.lft.to/lastmile_qr_scan", "ios": "https://dc.lft.to/lastmile_qr_scan"}, "fusion_lon": 0.0}, {"lat": 38.9353195, "is_disabled": 0, "type": "electric_scooter", "lon": -77.02346816666666, "bike_id": "16bae347d8e6ec31db460dad904991c8", "fusion_lat": 0.0, "name": "16bae347d8e6ec31db460dad904991c8", "is_reserved": 0, "rental_uris": {"android": "https://dc.lft.to/lastmile_qr_scan", "ios": "https://dc.lft.to/lastmile_qr_scan"}, "fusion_lon": 0.0}, {"lat": 38.945518, "is_disabled": 0, "type": "electric_bike", "lon": -76.895351, "bike_id": "901bc6e315742dbb56f8317af7fa4a50", "fusion_lat": 0.0, "name": "901bc6e315742dbb56f8317af7fa4a50", "is_reserved": 0, "rental_uris": {"android": "https://dc.lft.to/lastmile_qr_scan", "ios": "https://dc.lft.to/lastmile_qr_scan"}, "fusion_lon": 0.0}, {"lat": 38.9189475, "is_disabled": 0, "type": "electric_scooter", "lon": -77.0391205, "bike_id": "4d42144afde1d357a142f8ce88950f46", "fusion_lat": 0.0, "name": "4d42144afde1d357a142f8ce88950f46", "is_reserved": 0, "rental_uris": {"android": "https://dc.lft.to/lastmile_qr_scan", "ios": "https://dc.lft.to/lastmile_qr_scan"}, "fusion_lon": 0.0}, {"lat": 38.90408983333333, "is_disabled": 0, "type": "electric_scooter", "lon": -77.06895016666667, "bike_id": "bf97e5b198f4e2418d9461f38ebeacfb", "fusion_lat": 0.0, "name": "bf97e5b198f4e2418d9461f38ebeacfb", "is_reserved": 0, "rental_uris": {"android": "https://dc.lft.to/lastmile_qr_scan", "ios": "https://dc.lft.to/lastmile_qr_scan"}, "fusion_lon": 0.0}, {"lat": 38.93009966666666, "is_disabled": 0, "type": "electric_scooter", "lon": -77.0211065, "bike_id": "9854e4fde8f6b0d55e2dd52e0713be6a", "fusion_lat": 0.0, "name": "9854e4fde8f6b0d55e2dd52e0713be6a", "is_reserved": 0, "rental_uris": {"android": "https://dc.lft.to/lastmile_qr_scan", "ios": "https://dc.lft.to/lastmile_qr_scan"}, "fusion_lon": 0.0}, {"lat": 38.89561, "is_disabled": 0, "type": "electric_bike", "lon": -77.12731183333334, "bike_id": "31f07e3c77fe01d63e17ecb2a9951c15", "fusion_lat": 0.0, "name": "31f07e3c77fe01d63e17ecb2a9951c15", "is_reserved": 0, "rental_uris": {"android": "https://dc.lft.to/lastmile_qr_scan", "ios": "https://dc.lft.to/lastmile_qr_scan"}, "fusion_lon": 0.0}, {"lat": 38.90064783333333, "is_disabled": 0, "type": "electric_scooter", "lon": -77.00207716666667, "bike_id": "8cc0b72cdd8dbdc4c97e75538c327e01", "fusion_lat": 0.0, "name": "8cc0b72cdd8dbdc4c97e75538c327e01", "is_reserved": 0, "rental_uris": {"android": "https://dc.lft.to/lastmile_qr_scan", "ios": "https://dc.lft.to/lastmile_qr_scan"}, "fusion_lon": 0.0}, {"lat": 38.8965675, "is_disabled": 0, "type": "electric_scooter", "lon": -77.03972766666666, "bike_id": "5af75a9c1c415e0aa6ef73f5f7f6826e", "fusion_lat": 0.0, "name": "5af75a9c1c415e0aa6ef73f5f7f6826e", "is_reserved": 0, "rental_uris": {"android": "https://dc.lft.to/lastmile_qr_scan", "ios": "https://dc.lft.to/lastmile_qr_scan"}, "fusion_lon": 0.0}, {"lat": 38.905742333333336, "is_disabled": 0, "type": "electric_scooter", "lon": -77.00888816666667, "bike_id": "0dbe71b12f8076810e1b9e46360a8760", "fusion_lat": 0.0, "name": "0dbe71b12f8076810e1b9e46360a8760", "is_reserved": 0, "rental_uris": {"android": "https://dc.lft.to/lastmile_qr_scan", "ios": "https://dc.lft.to/lastmile_qr_scan"}, "fusion_lon": 0.0}, {"lat": 38.907288, "is_disabled": 0, "type": "electric_scooter", "lon": -77.03208983333333, "bike_id": "14caaf38b39ab3517d8140287a975040", "fusion_lat": 0.0, "name": "14caaf38b39ab3517d8140287a975040", "is_reserved": 0, "rental_uris": {"android": "https://dc.lft.to/lastmile_qr_scan", "ios": "https://dc.lft.to/lastmile_qr_scan"}, "fusion_lon": 0.0}, {"lat": 38.9205025, "is_disabled": 0, "type": "electric_scooter", "lon": -77.03470633333333, "bike_id": "394a5cbc5718f4e793584e8f62384819", "fusion_lat": 0.0, "name": "394a5cbc5718f4e793584e8f62384819", "is_reserved": 0, "rental_uris": {"android": "https://dc.lft.to/lastmile_qr_scan", "ios": "https://dc.lft.to/lastmile_qr_scan"}, "fusion_lon": 0.0}, {"lat": 38.904522, "is_disabled": 0, "type": "electric_scooter", "lon": -76.99458783333333, "bike_id": "0e03c139dffcf6b6b91fd6fd8f36ef3a", "fusion_lat": 0.0, "name": "0e03c139dffcf6b6b91fd6fd8f36ef3a", "is_reserved": 0, "rental_uris": {"android": "https://dc.lft.to/lastmile_qr_scan", "ios": "https://dc.lft.to/lastmile_qr_scan"}, "fusion_lon": 0.0}, {"lat": 38.921313, "is_disabled": 0, "type": "electric_scooter", "lon": -77.0412785, "bike_id": "54f9e0f2cac5939d008b7acc55958021", "fusion_lat": 0.0, "name": "54f9e0f2cac5939d008b7acc55958021", "is_reserved": 0, "rental_uris": {"android": "https://dc.lft.to/lastmile_qr_scan", "ios": "https://dc.lft.to/lastmile_qr_scan"}, "fusion_lon": 0.0}, {"lat": 38.87674416666667, "is_disabled": 0, "type": "electric_bike", "lon": -77.01456916666666, "bike_id": "2a9fe8d978fe1d24d623e2d1ebf10f69", "fusion_lat": 0.0, "name": "2a9fe8d978fe1d24d623e2d1ebf10f69", "is_reserved": 0, "rental_uris": {"android": "https://dc.lft.to/lastmile_qr_scan", "ios": "https://dc.lft.to/lastmile_qr_scan"}, "fusion_lon": 0.0}, {"lat": 38.87062683333333, "is_disabled": 0, "type": "electric_scooter", "lon": -77.00838366666666, "bike_id": "f7886a675b8ace7f7c7b0eea7c34b7e6", "fusion_lat": 0.0, "name": "f7886a675b8ace7f7c7b0eea7c34b7e6", "is_reserved": 0, "rental_uris": {"android": "https://dc.lft.to/lastmile_qr_scan", "ios": "https://dc.lft.to/lastmile_qr_scan"}, "fusion_lon": 0.0}, {"lat": 38.8620945, "is_disabled": 0, "type": "electric_bike", "lon": -76.99777233333333, "bike_id": "7e81862a3ccb14e87c8f20987675604b", "fusion_lat": 0.0, "name": "7e81862a3ccb14e87c8f20987675604b", "is_reserved": 0, "rental_uris": {"android": "https://dc.lft.to/lastmile_qr_scan", "ios": "https://dc.lft.to/lastmile_qr_scan"}, "fusion_lon": 0.0}, {"lat": 38.9343215, "is_disabled": 0, "type": "electric_scooter", "lon": -77.034725, "bike_id": "8918a6791cd238fa3470859248949054", "fusion_lat": 0.0, "name": "8918a6791cd238fa3470859248949054", "is_reserved": 0, "rental_uris": {"android": "https://dc.lft.to/lastmile_qr_scan", "ios": "https://dc.lft.to/lastmile_qr_scan"}, "fusion_lon": 0.0}, {"lat": 38.86674083333333, "is_disabled": 0, "type": "electric_scooter", "lon": -76.985382, "bike_id": "fcc843efae701470cc2d70139432a768", "fusion_lat": 0.0, "name": "fcc843efae701470cc2d70139432a768", "is_reserved": 0, "rental_uris": {"android": "https://dc.lft.to/lastmile_qr_scan", "ios": "https://dc.lft.to/lastmile_qr_scan"}, "fusion_lon": 0.0}, {"lat": 38.9170155, "is_disabled": 0, "type": "electric_scooter", "lon": -77.00111933333334, "bike_id": "75eed5866dc4ab834e02e3fe9bd52815", "fusion_lat": 0.0, "name": "75eed5866dc4ab834e02e3fe9bd52815", "is_reserved": 0, "rental_uris": {"android": "https://dc.lft.to/lastmile_qr_scan", "ios": "https://dc.lft.to/lastmile_qr_scan"}, "fusion_lon": 0.0}, {"lat": 38.87071266666667, "is_disabled": 0, "type": "electric_bike", "lon": -76.97842316666667, "bike_id": "99ba432ae0930b221bdda25630d32ff0", "fusion_lat": 0.0, "name": "99ba432ae0930b221bdda25630d32ff0", "is_reserved": 0, "rental_uris": {"android": "https://dc.lft.to/lastmile_qr_scan", "ios": "https://dc.lft.to/lastmile_qr_scan"}, "fusion_lon": 0.0}, {"lat": 38.887974, "is_disabled": 0, "type": "electric_scooter", "lon": -76.93359783333334, "bike_id": "abc83b429839892d8aca4a4ff14f8d64", "fusion_lat": 0.0, "name": "abc83b429839892d8aca4a4ff14f8d64", "is_reserved": 0, "rental_uris": {"android": "https://dc.lft.to/lastmile_qr_scan", "ios": "https://dc.lft.to/lastmile_qr_scan"}, "fusion_lon": 0.0}, {"lat": 38.92358383333333, "is_disabled": 0, "type": "electric_scooter", "lon": -77.054277, "bike_id": "731b25ba123587138e68d00059ace605", "fusion_lat": 0.0, "name": "731b25ba123587138e68d00059ace605", "is_reserved": 0, "rental_uris": {"android": "https://dc.lft.to/lastmile_qr_scan", "ios": "https://dc.lft.to/lastmile_qr_scan"}, "fusion_lon": 0.0}, {"lat": 38.8278835, "is_disabled": 0, "type": "electric_bike", "lon": -77.00917, "bike_id": "70bad5603458adb2483bd5ffbec5c1c6", "fusion_lat": 0.0, "name": "70bad5603458adb2483bd5ffbec5c1c6", "is_reserved": 0, "rental_uris": {"android": "https://dc.lft.to/lastmile_qr_scan", "ios": "https://dc.lft.to/lastmile_qr_scan"}, "fusion_lon": 0.0}, {"lat": 38.909717, "is_disabled": 0, "type": "electric_bike", "lon": -77.08824233333333, "bike_id": "ddf4dcae135f5231d3b1eb927fd55246", "fusion_lat": 0.0, "name": "ddf4dcae135f5231d3b1eb927fd55246", "is_reserved": 0, "rental_uris": {"android": "https://dc.lft.to/lastmile_qr_scan", "ios": "https://dc.lft.to/lastmile_qr_scan"}, "fusion_lon": 0.0}, {"lat": 38.91563816666667, "is_disabled": 0, "type": "electric_scooter", "lon": -77.01043616666666, "bike_id": "210cdcb934e76b6a3833b027fa169121", "fusion_lat": 0.0, "name": "210cdcb934e76b6a3833b027fa169121", "is_reserved": 0, "rental_uris": {"android": "https://dc.lft.to/lastmile_qr_scan", "ios": "https://dc.lft.to/lastmile_qr_scan"}, "fusion_lon": 0.0}, {"lat": 38.924705333333335, "is_disabled": 0, "type": "electric_bike", "lon": -77.03751033333333, "bike_id": "fa1377efd4027984c77611b919e8bdb7", "fusion_lat": 0.0, "name": "fa1377efd4027984c77611b919e8bdb7", "is_reserved": 0, "rental_uris": {"android": "https://dc.lft.to/lastmile_qr_scan", "ios": "https://dc.lft.to/lastmile_qr_scan"}, "fusion_lon": 0.0}, {"lat": 38.932946, "is_disabled": 0, "type": "electric_scooter", "lon": -77.045352, "bike_id": "df353b3b16c8e5c5d92832fc359b63e7", "fusion_lat": 0.0, "name": "df353b3b16c8e5c5d92832fc359b63e7", "is_reserved": 0, "rental_uris": {"android": "https://dc.lft.to/lastmile_qr_scan", "ios": "https://dc.lft.to/lastmile_qr_scan"}, "fusion_lon": 0.0}, {"lat": 38.98429816666667, "is_disabled": 0, "type": "electric_scooter", "lon": -77.026721, "bike_id": "4c7b5ef0b1c2e908eb6176919dea6a22", "fusion_lat": 0.0, "name": "4c7b5ef0b1c2e908eb6176919dea6a22", "is_reserved": 0, "rental_uris": {"android": "https://dc.lft.to/lastmile_qr_scan", "ios": "https://dc.lft.to/lastmile_qr_scan"}, "fusion_lon": 0.0}, {"lat": 38.91461566666667, "is_disabled": 0, "type": "electric_scooter", "lon": -77.01435083333334, "bike_id": "957bc5096d9d7420ec930d2a7d64ff69", "fusion_lat": 0.0, "name": "957bc5096d9d7420ec930d2a7d64ff69", "is_reserved": 0, "rental_uris": {"android": "https://dc.lft.to/lastmile_qr_scan", "ios": "https://dc.lft.to/lastmile_qr_scan"}, "fusion_lon": 0.0}, {"lat": 38.87727566666667, "is_disabled": 0, "type": "electric_scooter", "lon": -77.003324, "bike_id": "5926ed71ecebebf0d3c3a9740388dab0", "fusion_lat": 0.0, "name": "5926ed71ecebebf0d3c3a9740388dab0", "is_reserved": 0, "rental_uris": {"android": "https://dc.lft.to/lastmile_qr_scan", "ios": "https://dc.lft.to/lastmile_qr_scan"}, "fusion_lon": 0.0}, {"lat": 38.85809166666667, "is_disabled": 0, "type": "electric_scooter", "lon": -76.986544, "bike_id": "6780f6be81f53430bf5e22408d8bf776", "fusion_lat": 0.0, "name": "6780f6be81f53430bf5e22408d8bf776", "is_reserved": 0, "rental_uris": {"android": "https://dc.lft.to/lastmile_qr_scan", "ios": "https://dc.lft.to/lastmile_qr_scan"}, "fusion_lon": 0.0}, {"lat": 38.911186666666666, "is_disabled": 0, "type": "electric_scooter", "lon": -77.003221, "bike_id": "0670fdc52bbaf3dda5e8b631e62b5af8", "fusion_lat": 0.0, "name": "0670fdc52bbaf3dda5e8b631e62b5af8", "is_reserved": 0, "rental_uris": {"android": "https://dc.lft.to/lastmile_qr_scan", "ios": "https://dc.lft.to/lastmile_qr_scan"}, "fusion_lon": 0.0}, {"lat": 38.874220333333334, "is_disabled": 0, "type": "electric_bike", "lon": -77.08575133333333, "bike_id": "ac4e201b62db159f240c252c23b2ed8a", "fusion_lat": 0.0, "name": "ac4e201b62db159f240c252c23b2ed8a", "is_reserved": 0, "rental_uris": {"android": "https://dc.lft.to/lastmile_qr_scan", "ios": "https://dc.lft.to/lastmile_qr_scan"}, "fusion_lon": 0.0}, {"lat": 38.92381916666667, "is_disabled": 0, "type": "electric_scooter", "lon": -77.03659066666667, "bike_id": "b9cb4d9af04d9c329a093ace775c91dc", "fusion_lat": 0.0, "name": "b9cb4d9af04d9c329a093ace775c91dc", "is_reserved": 0, "rental_uris": {"android": "https://dc.lft.to/lastmile_qr_scan", "ios": "https://dc.lft.to/lastmile_qr_scan"}, "fusion_lon": 0.0}, {"lat": 38.92464, "is_disabled": 0, "type": "electric_bike", "lon": -77.208388, "bike_id": "1b4758d2cb2b7991a008dbb34e5b957e", "fusion_lat": 0.0, "name": "1b4758d2cb2b7991a008dbb34e5b957e", "is_reserved": 0, "rental_uris": {"android": "https://dc.lft.to/lastmile_qr_scan", "ios": "https://dc.lft.to/lastmile_qr_scan"}, "fusion_lon": 0.0}, {"lat": 38.916925, "is_disabled": 0, "type": "electric_scooter", "lon": -77.04267333333334, "bike_id": "82a4f91a237fde07b2b215cea6faa18d", "fusion_lat": 0.0, "name": "82a4f91a237fde07b2b215cea6faa18d", "is_reserved": 0, "rental_uris": {"android": "https://dc.lft.to/lastmile_qr_scan", "ios": "https://dc.lft.to/lastmile_qr_scan"}, "fusion_lon": 0.0}, {"lat": 38.87966466666666, "is_disabled": 0, "type": "electric_scooter", "lon": -77.01746883333334, "bike_id": "1ff9e6dc124cafc27a00baa552631cc4", "fusion_lat": 0.0, "name": "1ff9e6dc124cafc27a00baa552631cc4", "is_reserved": 0, "rental_uris": {"android": "https://dc.lft.to/lastmile_qr_scan", "ios": "https://dc.lft.to/lastmile_qr_scan"}, "fusion_lon": 0.0}, {"lat": 38.90034333333333, "is_disabled": 0, "type": "electric_scooter", "lon": -77.005914, "bike_id": "8b5c8fe5efd77492547cd7e01c84a288", "fusion_lat": 0.0, "name": "8b5c8fe5efd77492547cd7e01c84a288", "is_reserved": 0, "rental_uris": {"android": "https://dc.lft.to/lastmile_qr_scan", "ios": "https://dc.lft.to/lastmile_qr_scan"}, "fusion_lon": 0.0}, {"lat": 38.914093333333334, "is_disabled": 0, "type": "electric_scooter", "lon": -76.9892465, "bike_id": "d71dae1ed0026d808bb6e6b49c7fb4b7", "fusion_lat": 0.0, "name": "d71dae1ed0026d808bb6e6b49c7fb4b7", "is_reserved": 0, "rental_uris": {"android": "https://dc.lft.to/lastmile_qr_scan", "ios": "https://dc.lft.to/lastmile_qr_scan"}, "fusion_lon": 0.0}, {"lat": 38.925703166666665, "is_disabled": 0, "type": "electric_scooter", "lon": -77.02562716666667, "bike_id": "00100126bf96cfce1ec747ea966034b9", "fusion_lat": 0.0, "name": "00100126bf96cfce1ec747ea966034b9", "is_reserved": 0, "rental_uris": {"android": "https://dc.lft.to/lastmile_qr_scan", "ios": "https://dc.lft.to/lastmile_qr_scan"}, "fusion_lon": 0.0}, {"lat": 38.904089, "is_disabled": 0, "type": "electric_bike", "lon": -77.06522916666667, "bike_id": "d91a62c8ef6abe7f47851756fdee8796", "fusion_lat": 0.0, "name": "d91a62c8ef6abe7f47851756fdee8796", "is_reserved": 0, "rental_uris": {"android": "https://dc.lft.to/lastmile_qr_scan", "ios": "https://dc.lft.to/lastmile_qr_scan"}, "fusion_lon": 0.0}, {"lat": 38.924381, "is_disabled": 0, "type": "electric_scooter", "lon": -76.99330883333333, "bike_id": "14de8d46417f5e29b9ded1080320634a", "fusion_lat": 0.0, "name": "14de8d46417f5e29b9ded1080320634a", "is_reserved": 0, "rental_uris": {"android": "https://dc.lft.to/lastmile_qr_scan", "ios": "https://dc.lft.to/lastmile_qr_scan"}, "fusion_lon": 0.0}, {"lat": 38.935958666666664, "is_disabled": 0, "type": "electric_scooter", "lon": -77.0355105, "bike_id": "81074ee22141a05f2999e67e210002c2", "fusion_lat": 0.0, "name": "81074ee22141a05f2999e67e210002c2", "is_reserved": 0, "rental_uris": {"android": "https://dc.lft.to/lastmile_qr_scan", "ios": "https://dc.lft.to/lastmile_qr_scan"}, "fusion_lon": 0.0}, {"lat": 38.944602, "is_disabled": 0, "type": "electric_scooter", "lon": -77.06031333333334, "bike_id": "40aa252b3ccc0c9c9086f09ef4d8dfdc", "fusion_lat": 0.0, "name": "40aa252b3ccc0c9c9086f09ef4d8dfdc", "is_reserved": 0, "rental_uris": {"android": "https://dc.lft.to/lastmile_qr_scan", "ios": "https://dc.lft.to/lastmile_qr_scan"}, "fusion_lon": 0.0}, {"lat": 38.90961466666667, "is_disabled": 0, "type": "electric_scooter", "lon": -77.0373865, "bike_id": "8590488f706bf1349aab0a82a9fbe628", "fusion_lat": 0.0, "name": "8590488f706bf1349aab0a82a9fbe628", "is_reserved": 0, "rental_uris": {"android": "https://dc.lft.to/lastmile_qr_scan", "ios": "https://dc.lft.to/lastmile_qr_scan"}, "fusion_lon": 0.0}, {"lat": 38.89736333333333, "is_disabled": 0, "type": "electric_scooter", "lon": -77.04789566666666, "bike_id": "98911f94d8922d716bdb546c19b0b9fb", "fusion_lat": 0.0, "name": "98911f94d8922d716bdb546c19b0b9fb", "is_reserved": 0, "rental_uris": {"android": "https://dc.lft.to/lastmile_qr_scan", "ios": "https://dc.lft.to/lastmile_qr_scan"}, "fusion_lon": 0.0}, {"lat": 38.897469, "is_disabled": 0, "type": "electric_scooter", "lon": -77.04672416666666, "bike_id": "1f2e377021250a3a286500feee0cb87e", "fusion_lat": 0.0, "name": "1f2e377021250a3a286500feee0cb87e", "is_reserved": 0, "rental_uris": {"android": "https://dc.lft.to/lastmile_qr_scan", "ios": "https://dc.lft.to/lastmile_qr_scan"}, "fusion_lon": 0.0}, {"lat": 38.90122816666667, "is_disabled": 0, "type": "electric_scooter", "lon": -76.9872345, "bike_id": "26e4f8d410aba538233b59ce250de23f", "fusion_lat": 0.0, "name": "26e4f8d410aba538233b59ce250de23f", "is_reserved": 0, "rental_uris": {"android": "https://dc.lft.to/lastmile_qr_scan", "ios": "https://dc.lft.to/lastmile_qr_scan"}, "fusion_lon": 0.0}, {"lat": 38.901451333333334, "is_disabled": 0, "type": "electric_scooter", "lon": -77.00068716666667, "bike_id": "6b7df97e0c74433417a722f1685dbf8f", "fusion_lat": 0.0, "name": "6b7df97e0c74433417a722f1685dbf8f", "is_reserved": 0, "rental_uris": {"android": "https://dc.lft.to/lastmile_qr_scan", "ios": "https://dc.lft.to/lastmile_qr_scan"}, "fusion_lon": 0.0}, {"lat": 38.9229655, "is_disabled": 0, "type": "electric_scooter", "lon": -77.04265883333333, "bike_id": "35802cfe920fe0d167c69c6f535309ea", "fusion_lat": 0.0, "name": "35802cfe920fe0d167c69c6f535309ea", "is_reserved": 0, "rental_uris": {"android": "https://dc.lft.to/lastmile_qr_scan", "ios": "https://dc.lft.to/lastmile_qr_scan"}, "fusion_lon": 0.0}, {"lat": 38.927432333333336, "is_disabled": 0, "type": "electric_scooter", "lon": -77.02418833333333, "bike_id": "4f3bd9decfed22c54badf379b576a4d0", "fusion_lat": 0.0, "name": "4f3bd9decfed22c54badf379b576a4d0", "is_reserved": 0, "rental_uris": {"android": "https://dc.lft.to/lastmile_qr_scan", "ios": "https://dc.lft.to/lastmile_qr_scan"}, "fusion_lon": 0.0}, {"lat": 38.927277333333336, "is_disabled": 0, "type": "electric_bike", "lon": -77.0342415, "bike_id": "2a2ceb10098919d4b2c59f3f67fded7f", "fusion_lat": 0.0, "name": "2a2ceb10098919d4b2c59f3f67fded7f", "is_reserved": 0, "rental_uris": {"android": "https://dc.lft.to/lastmile_qr_scan", "ios": "https://dc.lft.to/lastmile_qr_scan"}, "fusion_lon": 0.0}, {"lat": 38.95730983333333, "is_disabled": 0, "type": "electric_scooter", "lon": -77.0240365, "bike_id": "e5d50c2449f60764e4695359b4bfa647", "fusion_lat": 0.0, "name": "e5d50c2449f60764e4695359b4bfa647", "is_reserved": 0, "rental_uris": {"android": "https://dc.lft.to/lastmile_qr_scan", "ios": "https://dc.lft.to/lastmile_qr_scan"}, "fusion_lon": 0.0}, {"lat": 38.88179816666667, "is_disabled": 0, "type": "electric_scooter", "lon": -77.03570833333333, "bike_id": "c2c3315656afb1cfe9d3ce0a0c7b5f42", "fusion_lat": 0.0, "name": "c2c3315656afb1cfe9d3ce0a0c7b5f42", "is_reserved": 0, "rental_uris": {"android": "https://dc.lft.to/lastmile_qr_scan", "ios": "https://dc.lft.to/lastmile_qr_scan"}, "fusion_lon": 0.0}, {"lat": 38.9235415, "is_disabled": 0, "type": "electric_scooter", "lon": -77.041467, "bike_id": "f78368749dc35945ced6f02e81d51a44", "fusion_lat": 0.0, "name": "f78368749dc35945ced6f02e81d51a44", "is_reserved": 0, "rental_uris": {"android": "https://dc.lft.to/lastmile_qr_scan", "ios": "https://dc.lft.to/lastmile_qr_scan"}, "fusion_lon": 0.0}, {"lat": 38.9463045, "is_disabled": 0, "type": "electric_scooter", "lon": -77.02521183333333, "bike_id": "fcdc7929a395b9fa48462cc4f8839fd5", "fusion_lat": 0.0, "name": "fcdc7929a395b9fa48462cc4f8839fd5", "is_reserved": 0, "rental_uris": {"android": "https://dc.lft.to/lastmile_qr_scan", "ios": "https://dc.lft.to/lastmile_qr_scan"}, "fusion_lon": 0.0}, {"lat": 38.93507833333334, "is_disabled": 0, "type": "electric_scooter", "lon": -77.03678683333334, "bike_id": "53aef6a60f26fe5f0fce06f9c83424fa", "fusion_lat": 0.0, "name": "53aef6a60f26fe5f0fce06f9c83424fa", "is_reserved": 0, "rental_uris": {"android": "https://dc.lft.to/lastmile_qr_scan", "ios": "https://dc.lft.to/lastmile_qr_scan"}, "fusion_lon": 0.0}, {"lat": 38.861580333333336, "is_disabled": 0, "type": "electric_bike", "lon": -77.1309345, "bike_id": "99317b06a9b8558d9db208ece523e2b1", "fusion_lat": 0.0, "name": "99317b06a9b8558d9db208ece523e2b1", "is_reserved": 0, "rental_uris": {"android": "https://dc.lft.to/lastmile_qr_scan", "ios": "https://dc.lft.to/lastmile_qr_scan"}, "fusion_lon": 0.0}, {"lat": 38.90943683333333, "is_disabled": 0, "type": "electric_scooter", "lon": -77.03851816666666, "bike_id": "ad6ea782d9e6127e49573c1f5d7ede82", "fusion_lat": 0.0, "name": "ad6ea782d9e6127e49573c1f5d7ede82", "is_reserved": 0, "rental_uris": {"android": "https://dc.lft.to/lastmile_qr_scan", "ios": "https://dc.lft.to/lastmile_qr_scan"}, "fusion_lon": 0.0}, {"lat": 38.862551833333335, "is_disabled": 0, "type": "electric_scooter", "lon": -76.99509816666666, "bike_id": "301816dc668cc389ff3629494d2d395d", "fusion_lat": 0.0, "name": "301816dc668cc389ff3629494d2d395d", "is_reserved": 0, "rental_uris": {"android": "https://dc.lft.to/lastmile_qr_scan", "ios": "https://dc.lft.to/lastmile_qr_scan"}, "fusion_lon": 0.0}, {"lat": 38.90636516666667, "is_disabled": 0, "type": "electric_scooter", "lon": -77.06287483333334, "bike_id": "32271474ae95c35323bcd026676d197e", "fusion_lat": 0.0, "name": "32271474ae95c35323bcd026676d197e", "is_reserved": 0, "rental_uris": {"android": "https://dc.lft.to/lastmile_qr_scan", "ios": "https://dc.lft.to/lastmile_qr_scan"}, "fusion_lon": 0.0}, {"lat": 38.89715233333333, "is_disabled": 0, "type": "electric_scooter", "lon": -77.02405366666666, "bike_id": "7ce48245fc650cee85a1926d5a20a7af", "fusion_lat": 0.0, "name": "7ce48245fc650cee85a1926d5a20a7af", "is_reserved": 0, "rental_uris": {"android": "https://dc.lft.to/lastmile_qr_scan", "ios": "https://dc.lft.to/lastmile_qr_scan"}, "fusion_lon": 0.0}, {"lat": 38.925707333333335, "is_disabled": 0, "type": "electric_scooter", "lon": -77.0288875, "bike_id": "cae00413102f528b039479aad7649b62", "fusion_lat": 0.0, "name": "cae00413102f528b039479aad7649b62", "is_reserved": 0, "rental_uris": {"android": "https://dc.lft.to/lastmile_qr_scan", "ios": "https://dc.lft.to/lastmile_qr_scan"}, "fusion_lon": 0.0}, {"lat": 38.87981416666667, "is_disabled": 0, "type": "electric_bike", "lon": -76.915985, "bike_id": "d91c51070ef34a9ba3e2e9d197f0c451", "fusion_lat": 0.0, "name": "d91c51070ef34a9ba3e2e9d197f0c451", "is_reserved": 0, "rental_uris": {"android": "https://dc.lft.to/lastmile_qr_scan", "ios": "https://dc.lft.to/lastmile_qr_scan"}, "fusion_lon": 0.0}, {"lat": 38.940917166666665, "is_disabled": 0, "type": "electric_scooter", "lon": -77.02303716666667, "bike_id": "dbacbaeab7c460eb2e7d0517574f9786", "fusion_lat": 0.0, "name": "dbacbaeab7c460eb2e7d0517574f9786", "is_reserved": 0, "rental_uris": {"android": "https://dc.lft.to/lastmile_qr_scan", "ios": "https://dc.lft.to/lastmile_qr_scan"}, "fusion_lon": 0.0}, {"lat": 38.90854083333333, "is_disabled": 0, "type": "electric_scooter", "lon": -77.04761, "bike_id": "65fc912ab897b7c2caccb6834e5ca422", "fusion_lat": 0.0, "name": "65fc912ab897b7c2caccb6834e5ca422", "is_reserved": 0, "rental_uris": {"android": "https://dc.lft.to/lastmile_qr_scan", "ios": "https://dc.lft.to/lastmile_qr_scan"}, "fusion_lon": 0.0}, {"lat": 38.902271166666665, "is_disabled": 0, "type": "electric_scooter", "lon": -77.04588883333334, "bike_id": "964fa45e57ffec520b88e79e37a7fd3c", "fusion_lat": 0.0, "name": "964fa45e57ffec520b88e79e37a7fd3c", "is_reserved": 0, "rental_uris": {"android": "https://dc.lft.to/lastmile_qr_scan", "ios": "https://dc.lft.to/lastmile_qr_scan"}, "fusion_lon": 0.0}, {"lat": 38.88925966666667, "is_disabled": 0, "type": "electric_scooter", "lon": -76.97373433333334, "bike_id": "4bc0b2280e48280ac2346087a9abb813", "fusion_lat": 0.0, "name": "4bc0b2280e48280ac2346087a9abb813", "is_reserved": 0, "rental_uris": {"android": "https://dc.lft.to/lastmile_qr_scan", "ios": "https://dc.lft.to/lastmile_qr_scan"}, "fusion_lon": 0.0}, {"lat": 38.900572333333336, "is_disabled": 0, "type": "electric_scooter", "lon": -77.05078633333333, "bike_id": "5208d5fd00a015501a49efd7d1e0ec49", "fusion_lat": 0.0, "name": "5208d5fd00a015501a49efd7d1e0ec49", "is_reserved": 0, "rental_uris": {"android": "https://dc.lft.to/lastmile_qr_scan", "ios": "https://dc.lft.to/lastmile_qr_scan"}, "fusion_lon": 0.0}, {"lat": 38.87147216666666, "is_disabled": 0, "type": "electric_bike", "lon": -76.9370925, "bike_id": "a8d50eaf6ea713e3b461025dfe737da0", "fusion_lat": 0.0, "name": "a8d50eaf6ea713e3b461025dfe737da0", "is_reserved": 0, "rental_uris": {"android": "https://dc.lft.to/lastmile_qr_scan", "ios": "https://dc.lft.to/lastmile_qr_scan"}, "fusion_lon": 0.0}, {"lat": 38.836925666666666, "is_disabled": 0, "type": "electric_scooter", "lon": -77.10306316666667, "bike_id": "c229f787afcf6b7725707e611ce3d68b", "fusion_lat": 0.0, "name": "c229f787afcf6b7725707e611ce3d68b", "is_reserved": 0, "rental_uris": {"android": "https://dc.lft.to/lastmile_qr_scan", "ios": "https://dc.lft.to/lastmile_qr_scan"}, "fusion_lon": 0.0}, {"lat": 38.881116166666665, "is_disabled": 0, "type": "electric_scooter", "lon": -76.983365, "bike_id": "0b0db9a6b2230eaee7159dc80456af11", "fusion_lat": 0.0, "name": "0b0db9a6b2230eaee7159dc80456af11", "is_reserved": 0, "rental_uris": {"android": "https://dc.lft.to/lastmile_qr_scan", "ios": "https://dc.lft.to/lastmile_qr_scan"}, "fusion_lon": 0.0}, {"lat": 38.916222, "is_disabled": 0, "type": "electric_scooter", "lon": -77.03270316666666, "bike_id": "56f825f607501c86d26e502c7bfcd121", "fusion_lat": 0.0, "name": "56f825f607501c86d26e502c7bfcd121", "is_reserved": 0, "rental_uris": {"android": "https://dc.lft.to/lastmile_qr_scan", "ios": "https://dc.lft.to/lastmile_qr_scan"}, "fusion_lon": 0.0}, {"lat": 38.93665716666667, "is_disabled": 0, "type": "electric_scooter", "lon": -77.05930783333334, "bike_id": "42c5f7bd2c9a7f57101967178d830878", "fusion_lat": 0.0, "name": "42c5f7bd2c9a7f57101967178d830878", "is_reserved": 0, "rental_uris": {"android": "https://dc.lft.to/lastmile_qr_scan", "ios": "https://dc.lft.to/lastmile_qr_scan"}, "fusion_lon": 0.0}, {"lat": 38.905573833333335, "is_disabled": 0, "type": "electric_scooter", "lon": -77.0433635, "bike_id": "9b29fbae28441d7fc8462d4f1bda97dd", "fusion_lat": 0.0, "name": "9b29fbae28441d7fc8462d4f1bda97dd", "is_reserved": 0, "rental_uris": {"android": "https://dc.lft.to/lastmile_qr_scan", "ios": "https://dc.lft.to/lastmile_qr_scan"}, "fusion_lon": 0.0},