{"data": {"bikes": [{"type": "electric_scooter", "name": "bf85f8e40c614ab3c1cfc9f62697871f", "fusion_lon": 0.0, "is_reserved": 0, "lon": -77.018703, "fusion_lat": 0.0, "is_disabled": 0, "bike_id": "bf85f8e40c614ab3c1cfc9f62697871f", "lat": 38.9515205, "rental_uris": {"ios": "https://dc.lft.to/lastmile_qr_scan", "android": "https://dc.lft.to/lastmile_qr_scan"}}, {"type": "electric_bike", "name": "eac6a9560c6bc64da1278bf000823c40", "fusion_lon": 0.0, "is_reserved": 0, "lon": -76.89542216666666, "fusion_lat": 0.0, "is_disabled": 0, "bike_id": "eac6a9560c6bc64da1278bf000823c40", "lat": 38.9455455, "rental_uris": {"ios": "https://dc.lft.to/lastmile_qr_scan", "android": "https://dc.lft.to/lastmile_qr_scan"}}, {"type": "electric_scooter", "name": "f5e9151bd54ddd823059646e2fe5e5e5", "fusion_lon": 0.0, "is_reserved": 0, "lon": -77.0191725, "fusion_lat": 0.0, "is_disabled": 0, "bike_id": "f5e9151bd54ddd823059646e2fe5e5e5", "lat": 38.92173, "rental_uris": {"ios": "https://dc.lft.to/lastmile_qr_scan", "android": "https://dc.lft.to/lastmile_qr_scan"}}, {"type": "electric_scooter", "name": "cf071cb35eab196f2509b86b16da81e3", "fusion_lon": 0.0, "is_reserved": 0, "lon": -77.028407, "fusion_lat": 0.0, "is_disabled": 0, "bike_id": "cf071cb35eab196f2509b86b16da81e3", "lat": 38.942590833333334, "rental_uris": {"ios": "https://dc.lft.to/lastmile_qr_scan", "android": "https://dc.lft.to/lastmile_qr_scan"}}, {"type": "electric_scooter", "name": "a5a57f6ebe57ce1428a253b06fd1f598", "fusion_lon": 0.0, "is_reserved": 0, "lon": -77.04657766666666, "fusion_lat": 0.0, "is_disabled": 0, "bike_id": "a5a57f6ebe57ce1428a253b06fd1f598", "lat": 38.9056425, "rental_uris": {"ios": "https://dc.lft.to/lastmile_qr_scan", "android": "https://dc.lft.to/lastmile_qr_scan"}}, {"type": "electric_scooter", "name": "bf1b8b1625127bd4c99d29775c0a94ba", "fusion_lon": 0.0, "is_reserved": 0, "lon": -77.04227283333333, "fusion_lat": 0.0, "is_disabled": 0, "bike_id": "bf1b8b1625127bd4c99d29775c0a94ba", "lat": 38.9209285, "rental_uris": {"ios": "https://dc.lft.to/lastmile_qr_scan", "android": "https://dc.lft.to/lastmile_qr_scan"}}, {"type": "electric_scooter", "name": "08714259b078f6f6f433dfce2709149e", "fusion_lon": 0.0, "is_reserved": 0, "lon": -77.02557516666667, "fusion_lat": 0.0, "is_disabled": 0, "bike_id": "08714259b078f6f6f433dfce2709149e", "lat": 38.91859983333333, "rental_uris": {"ios": "https://dc.lft.to/lastmile_qr_scan", "android": "https://dc.lft.to/lastmile_qr_scan"}}, {"type": "electric_scooter", "name": "dbf6dafaa21b4d302c85b5df654613f0", "fusion_lon": 0.0, "is_reserved": 0, "lon": -76.98781133333334, "fusion_lat": 0.0, "is_disabled": 0, "bike_id": "dbf6dafaa21b4d302c85b5df654613f0", "lat": 38.882781, "rental_uris": {"ios": "https://dc.lft.to/lastmile_qr_scan", "android": "https://dc.lft.to/lastmile_qr_scan"}}, {"type": "electric_scooter", "name": "cb4aecc7fa5d5740bbbb389b622c8528", "fusion_lon": 0.0, "is_reserved": 0, "lon": -77.04347933333334, "fusion_lat": 0.0, "is_disabled": 0, "bike_id": "cb4aecc7fa5d5740bbbb389b622c8528", "lat": 38.92317583333333, "rental_uris": {"ios": "https://dc.lft.to/lastmile_qr_scan", "android": "https://dc.lft.to/lastmile_qr_scan"}}, {"type": "electric_scooter", "name": "a64c7ea698ba4b052fb7bd099ed71258", "fusion_lon": 0.0, "is_reserved": 0, "lon": -77.02079083333334, "fusion_lat": 0.0, "is_disabled": 0, "bike_id": "a64c7ea698ba4b052fb7bd099ed71258", "lat": 38.92148483333333, "rental_uris": {"ios": "https://dc.lft.to/lastmile_qr_scan", "android": "https://dc.lft.to/lastmile_qr_scan"}}, {"type": "electric_scooter", "name": "4caf548de04e16449394ab565cbac409", "fusion_lon": 0.0, "is_reserved": 0, "lon": -77.062948, "fusion_lat": 0.0, "is_disabled": 0, "bike_id": "4caf548de04e16449394ab565cbac409", "lat": 38.903991500000004, "rental_uris": {"ios": "https://dc.lft.to/lastmile_qr_scan", "android": "https://dc.lft.to/lastmile_qr_scan"}}, {"type": "electric_scooter", "name": "e5f12eab7aa471d176397ddf0669ef17", "fusion_lon": 0.0, "is_reserved": 0, "lon": -76.99853983333334, "fusion_lat": 0.0, "is_disabled": 0, "bike_id": "e5f12eab7aa471d176397ddf0669ef17", "lat": 38.89620816666667, "rental_uris": {"ios": "https://dc.lft.to/lastmile_qr_scan", "android": "https://dc.lft.to/lastmile_qr_scan"}}, {"type": "electric_scooter", "name": "c8161cb2b5e51c2f83ad85e29b3fcba4", "fusion_lon": 0.0, "is_reserved": 0, "lon": -77.04546483333333, "fusion_lat": 0.0, "is_disabled": 0, "bike_id": "c8161cb2b5e51c2f83ad85e29b3fcba4", "lat": 38.934095, "rental_uris": {"ios": "https://dc.lft.to/lastmile_qr_scan", "android": "https://dc.lft.to/lastmile_qr_scan"}}, {"type": "electric_bike", "name": "2cf7d0989c0fb0d24e44bbcbf5999244", "fusion_lon": 0.0, "is_reserved": 0, "lon": -77.01281216666666, "fusion_lat": 0.0, "is_disabled": 0, "bike_id": "2cf7d0989c0fb0d24e44bbcbf5999244", "lat": 38.951268666666664, "rental_uris": {"ios": "https://dc.lft.to/lastmile_qr_scan", "android": "https://dc.lft.to/lastmile_qr_scan"}}, {"type": "electric_scooter", "name": "2629b424ff6f5de167a99fc8782b2da9", "fusion_lon": 0.0, "is_reserved": 0, "lon": -77.00336416666667, "fusion_lat": 0.0, "is_disabled": 0, "bike_id": "2629b424ff6f5de167a99fc8782b2da9", "lat": 38.89352566666667, "rental_uris": {"ios": "https://dc.lft.to/lastmile_qr_scan", "android": "https://dc.lft.to/lastmile_qr_scan"}}, {"type": "electric_scooter", "name": "27f17159877b6f3f16d3a0b80cf66224", "fusion_lon": 0.0, "is_reserved": 0, "lon": -77.05416783333334, "fusion_lat": 0.0, "is_disabled": 0, "bike_id": "27f17159877b6f3f16d3a0b80cf66224", "lat": 38.9281545, "rental_uris": {"ios": "https://dc.lft.to/lastmile_qr_scan", "android": "https://dc.lft.to/lastmile_qr_scan"}}, {"type": "electric_scooter", "name": "ad64f6cb7fa8c4896f383e939958da60", "fusion_lon": 0.0, "is_reserved": 0, "lon": -77.03461483333334, "fusion_lat": 0.0, "is_disabled": 0, "bike_id": "ad64f6cb7fa8c4896f383e939958da60", "lat": 38.904584, "rental_uris": {"ios": "https://dc.lft.to/lastmile_qr_scan", "android": "https://dc.lft.to/lastmile_qr_scan"}}, {"type": "electric_scooter", "name": "1e9b2997619cef544f94e08617b8b1be", "fusion_lon": 0.0, "is_reserved": 0, "lon": -77.04340833333333, "fusion_lat": 0.0, "is_disabled": 0, "bike_id": "1e9b2997619cef544f94e08617b8b1be", "lat": 38.901297166666666, "rental_uris": {"ios": "https://dc.lft.to/lastmile_qr_scan", "android": "https://dc.lft.to/lastmile_qr_scan"}}, {"type": "electric_scooter", "name": "5bad3181146aebc76c2f41d5edd44300", "fusion_lon": 0.0, "is_reserved": 0, "lon": -77.01912916666667, "fusion_lat": 0.0, "is_disabled": 0, "bike_id": "5bad3181146aebc76c2f41d5edd44300", "lat": 38.920372666666665, "rental_uris": {"ios": "https://dc.lft.to/lastmile_qr_scan", "android": "https://dc.lft.to/lastmile_qr_scan"}}, {"type": "electric_scooter", "name": "a43284aa28a8ebfabf48f2ed4d1d1231", "fusion_lon": 0.0, "is_reserved": 0, "lon": -76.98709583333333, "fusion_lat": 0.0, "is_disabled": 0, "bike_id": "a43284aa28a8ebfabf48f2ed4d1d1231", "lat": 38.90062866666667, "rental_uris": {"ios": "https://dc.lft.to/lastmile_qr_scan", "android": "https://dc.lft.to/lastmile_qr_scan"}}, {"type": "electric_scooter", "name": "43bece9912d820b86872959af3576d6b", "fusion_lon": 0.0, "is_reserved": 0, "lon": -76.99612783333333, "fusion_lat": 0.0, "is_disabled": 0, "bike_id": "43bece9912d820b86872959af3576d6b", "lat": 38.93084966666667, "rental_uris": {"ios": "https://dc.lft.to/lastmile_qr_scan", "android": "https://dc.lft.to/lastmile_qr_scan"}}, {"type": "electric_scooter", "name": "3d783ff467564463a985730516187133", "fusion_lon": 0.0, "is_reserved": 0, "lon": -77.02485466666667, "fusion_lat": 0.0, "is_disabled": 0, "bike_id": "3d783ff467564463a985730516187133", "lat": 38.88010966666667, "rental_uris": {"ios": "https://dc.lft.to/lastmile_qr_scan", "android": "https://dc.lft.to/lastmile_qr_scan"}}, {"type": "electric_scooter", "name": "87b43e6a5a69aa8ed712815cdec17bc0", "fusion_lon": 0.0, "is_reserved": 0, "lon": -77.03819083333333, "fusion_lat": 0.0, "is_disabled": 0, "bike_id": "87b43e6a5a69aa8ed712815cdec17bc0", "lat": 38.93066433333333, "rental_uris": {"ios": "https://dc.lft.to/lastmile_qr_scan", "android": "https://dc.lft.to/lastmile_qr_scan"}}, {"type": "electric_bike", "name": "866939a2c6470c18731332ef8a6fd610", "fusion_lon": 0.0, "is_reserved": 0, "lon": -77.0685565, "fusion_lat": 0.0, "is_disabled": 0, "bike_id": "866939a2c6470c18731332ef8a6fd610", "lat": 38.938151, "rental_uris": {"ios": "https://dc.lft.to/lastmile_qr_scan", "android": "https://dc.lft.to/lastmile_qr_scan"}}, {"type": "electric_scooter", "name": "56b2922c1e740a679ca1bb57f3be2c64", "fusion_lon": 0.0, "is_reserved": 0, "lon": -77.02652566666667, "fusion_lat": 0.0, "is_disabled": 0, "bike_id": "56b2922c1e740a679ca1bb57f3be2c64", "lat": 38.9217525, "rental_uris": {"ios": "https://dc.lft.to/lastmile_qr_scan", "android": "https://dc.lft.to/lastmile_qr_scan"}}, {"type": "electric_scooter", "name": "cf49651e1c96b4afb9147f4c69676dce", "fusion_lon": 0.0, "is_reserved": 0, "lon": -77.0319955, "fusion_lat": 0.0, "is_disabled": 0, "bike_id": "cf49651e1c96b4afb9147f4c69676dce", "lat": 38.915816166666666, "rental_uris": {"ios": "https://dc.lft.to/lastmile_qr_scan", "android": "https://dc.lft.to/lastmile_qr_scan"}}, {"type": "electric_scooter", "name": "8c05e75f33546a9f20b383eb69c55829", "fusion_lon": 0.0, "is_reserved": 0, "lon": -77.02193033333333, "fusion_lat": 0.0, "is_disabled": 0, "bike_id": "8c05e75f33546a9f20b383eb69c55829", "lat": 38.910524833333334, "rental_uris": {"ios": "https://dc.lft.to/lastmile_qr_scan", "android": "https://dc.lft.to/lastmile_qr_scan"}}, {"type": "electric_scooter", "name": "85e0a19a9daacfee2ae13ea5a4d6b9e1", "fusion_lon": 0.0, "is_reserved": 0, "lon": -77.02803283333333, "fusion_lat": 0.0, "is_disabled": 0, "bike_id": "85e0a19a9daacfee2ae13ea5a4d6b9e1", "lat": 38.909958333333336, "rental_uris": {"ios": "https://dc.lft.to/lastmile_qr_scan", "android": "https://dc.lft.to/lastmile_qr_scan"}}, {"type": "electric_bike", "name": "74e12d9da831aa06f82c90280fcadca6", "fusion_lon": 0.0, "is_reserved": 0, "lon": -76.95748333333333, "fusion_lat": 0.0, "is_disabled": 0, "bike_id": "74e12d9da831aa06f82c90280fcadca6", "lat": 38.9696, "rental_uris": {"ios": "https://dc.lft.to/lastmile_qr_scan", "android": "https://dc.lft.to/lastmile_qr_scan"}}, {"type": "electric_scooter", "name": "11bc1b7ed274a04793ca4b3ce1c76991", "fusion_lon": 0.0, "is_reserved": 0, "lon": -77.03390916666666, "fusion_lat": 0.0, "is_disabled": 0, "bike_id": "11bc1b7ed274a04793ca4b3ce1c76991", "lat": 38.923511, "rental_uris": {"ios": "https://dc.lft.to/lastmile_qr_scan", "android": "https://dc.lft.to/lastmile_qr_scan"}}, {"type": "electric_scooter", "name": "258a7e2c56b98cedfc775a94a2668fce", "fusion_lon": 0.0, "is_reserved": 0, "lon": -77.02722283333334, "fusion_lat": 0.0, "is_disabled": 0, "bike_id": "258a7e2c56b98cedfc775a94a2668fce", "lat": 38.92485583333333, "rental_uris": {"ios": "https://dc.lft.to/lastmile_qr_scan", "android": "https://dc.lft.to/lastmile_qr_scan"}}, {"type": "electric_scooter", "name": "54c0335c6256cac7f4a16f2e7c4e3365", "fusion_lon": 0.0, "is_reserved": 0, "lon": -76.99896916666667, "fusion_lat": 0.0, "is_disabled": 0, "bike_id": "54c0335c6256cac7f4a16f2e7c4e3365", "lat": 38.92324466666667, "rental_uris": {"ios": "https://dc.lft.to/lastmile_qr_scan", "android": "https://dc.lft.to/lastmile_qr_scan"}}, {"type": "electric_scooter", "name": "cfd594dd79282190de7b1a62eb5e889d", "fusion_lon": 0.0, "is_reserved": 0, "lon": -77.043371, "fusion_lat": 0.0, "is_disabled": 0, "bike_id": "cfd594dd79282190de7b1a62eb5e889d", "lat": 38.906954, "rental_uris": {"ios": "https://dc.lft.to/lastmile_qr_scan", "android": "https://dc.lft.to/lastmile_qr_scan"}}, {"type": "electric_scooter", "name": "e576d36871f5aca4b877e136c1a088dd", "fusion_lon": 0.0, "is_reserved": 0, "lon": -77.0046005, "fusion_lat": 0.0, "is_disabled": 0, "bike_id": "e576d36871f5aca4b877e136c1a088dd", "lat": 38.911452, "rental_uris": {"ios": "https://dc.lft.to/lastmile_qr_scan", "android": "https://dc.lft.to/lastmile_qr_scan"}}, {"type": "electric_scooter", "name": "26e98ab0c8c450117bf844f2387012e6", "fusion_lon": 0.0, "is_reserved": 0, "lon": -77.04834566666666, "fusion_lat": 0.0, "is_disabled": 0, "bike_id": "26e98ab0c8c450117bf844f2387012e6", "lat": 38.900695999999996, "rental_uris": {"ios": "https://dc.lft.to/lastmile_qr_scan", "android": "https://dc.lft.to/lastmile_qr_scan"}}, {"type": "electric_scooter", "name": "3e2233868b850d4afc01031f88c9a217", "fusion_lon": 0.0, "is_reserved": 0, "lon": -77.00883266666666, "fusion_lat": 0.0, "is_disabled": 0, "bike_id": "3e2233868b850d4afc01031f88c9a217", "lat": 38.905808, "rental_uris": {"ios": "https://dc.lft.to/lastmile_qr_scan", "android": "https://dc.lft.to/lastmile_qr_scan"}}, {"type": "electric_scooter", "name": "8bc87652316e99dd54f289e1260300d9", "fusion_lon": 0.0, "is_reserved": 0, "lon": -77.02197083333333, "fusion_lat": 0.0, "is_disabled": 0, "bike_id": "8bc87652316e99dd54f289e1260300d9", "lat": 38.910006833333334, "rental_uris": {"ios": "https://dc.lft.to/lastmile_qr_scan", "android": "https://dc.lft.to/lastmile_qr_scan"}}, {"type": "electric_scooter", "name": "a479f56befb7f98c3679006f884f14ce", "fusion_lon": 0.0, "is_reserved": 0, "lon": -77.04049116666667, "fusion_lat": 0.0, "is_disabled": 0, "bike_id": "a479f56befb7f98c3679006f884f14ce", "lat": 38.908449833333336, "rental_uris": {"ios": "https://dc.lft.to/lastmile_qr_scan", "android": "https://dc.lft.to/lastmile_qr_scan"}}, {"type": "electric_scooter", "name": "9ed09afea5957479dfb30c317e1a10a1", "fusion_lon": 0.0, "is_reserved": 0, "lon": -76.98515183333333, "fusion_lat": 0.0, "is_disabled": 0, "bike_id": "9ed09afea5957479dfb30c317e1a10a1", "lat": 38.88026983333334, "rental_uris": {"ios": "https://dc.lft.to/lastmile_qr_scan", "android": "https://dc.lft.to/lastmile_qr_scan"}}, {"type": "electric_scooter", "name": "c70fb59e6fd65b6613490e448ec5addb", "fusion_lon": 0.0, "is_reserved": 0, "lon": -77.00600816666666, "fusion_lat": 0.0, "is_disabled": 0, "bike_id": "c70fb59e6fd65b6613490e448ec5addb", "lat": 38.880552333333334, "rental_uris": {"ios": "https://dc.lft.to/lastmile_qr_scan", "android": "https://dc.lft.to/lastmile_qr_scan"}}, {"type": "electric_scooter", "name": "027116cbec98479e95c70259f24cceae", "fusion_lon": 0.0, "is_reserved": 0, "lon": -77.03251916666666, "fusion_lat": 0.0, "is_disabled": 0, "bike_id": "027116cbec98479e95c70259f24cceae", "lat": 38.904516666666666, "rental_uris": {"ios": "https://dc.lft.to/lastmile_qr_scan", "android": "https://dc.lft.to/lastmile_qr_scan"}}, {"type": "electric_scooter", "name": "677cf3a4be8c6af5b70094bf77b25e8d", "fusion_lon": 0.0, "is_reserved": 0, "lon": -77.0343495, "fusion_lat": 0.0, "is_disabled": 0, "bike_id": "677cf3a4be8c6af5b70094bf77b25e8d", "lat": 38.90972716666667, "rental_uris": {"ios": "https://dc.lft.to/lastmile_qr_scan", "android": "https://dc.lft.to/lastmile_qr_scan"}}, {"type": "electric_scooter", "name": "459bb8696df56264a6a8ccfcc231adbc", "fusion_lon": 0.0, "is_reserved": 0, "lon": -77.0372865, "fusion_lat": 0.0, "is_disabled": 0, "bike_id": "459bb8696df56264a6a8ccfcc231adbc", "lat": 38.91106466666667, "rental_uris": {"ios": "https://dc.lft.to/lastmile_qr_scan", "android": "https://dc.lft.to/lastmile_qr_scan"}}, {"type": "electric_scooter", "name": "de838d51a71ef7bcd3dbf90f24376402", "fusion_lon": 0.0, "is_reserved": 0, "lon": -77.04450183333333, "fusion_lat": 0.0, "is_disabled": 0, "bike_id": "de838d51a71ef7bcd3dbf90f24376402", "lat": 38.911738, "rental_uris": {"ios": "https://dc.lft.to/lastmile_qr_scan", "android": "https://dc.lft.to/lastmile_qr_scan"}}, {"type": "electric_scooter", "name": "a946c8c4212885b586e135773d3e1c3d", "fusion_lon": 0.0, "is_reserved": 0, "lon": -77.02597483333334, "fusion_lat": 0.0, "is_disabled": 0, "bike_id": "a946c8c4212885b586e135773d3e1c3d", "lat": 38.91691633333333, "rental_uris": {"ios": "https://dc.lft.to/lastmile_qr_scan", "android": "https://dc.lft.to/lastmile_qr_scan"}}, {"type": "electric_scooter", "name": "80a3369dcd19c2913e99fe14b451fc78", "fusion_lon": 0.0, "is_reserved": 0, "lon": -77.04561716666667, "fusion_lat": 0.0, "is_disabled": 0, "bike_id": "80a3369dcd19c2913e99fe14b451fc78", "lat": 38.913652166666665, "rental_uris": {"ios": "https://dc.lft.to/lastmile_qr_scan", "android": "https://dc.lft.to/lastmile_qr_scan"}}, {"type": "electric_scooter", "name": "8a07ea4ece6a9a8d012bd0bf8090ed1a", "fusion_lon": 0.0, "is_reserved": 0, "lon": -77.05066833333333, "fusion_lat": 0.0, "is_disabled": 0, "bike_id": "8a07ea4ece6a9a8d012bd0bf8090ed1a", "lat": 38.905006, "rental_uris": {"ios": "https://dc.lft.to/lastmile_qr_scan", "android": "https://dc.lft.to/lastmile_qr_scan"}}, {"type": "electric_bike", "name": "28710e5ea64f9c65f8844ace5e0cee44", "fusion_lon": 0.0, "is_reserved": 0, "lon": -76.942943, "fusion_lat": 0.0, "is_disabled": 0, "bike_id": "28710e5ea64f9c65f8844ace5e0cee44", "lat": 38.938683166666664, "rental_uris": {"ios": "https://dc.lft.to/lastmile_qr_scan", "android": "https://dc.lft.to/lastmile_qr_scan"}}, {"type": "electric_scooter", "name": "00aaf3b24150c988587a6857fe7e8c03", "fusion_lon": 0.0, "is_reserved": 0, "lon": -77.00985333333334, "fusion_lat": 0.0, "is_disabled": 0, "bike_id": "00aaf3b24150c988587a6857fe7e8c03", "lat": 38.872889, "rental_uris": {"ios": "https://dc.lft.to/lastmile_qr_scan", "android": "https://dc.lft.to/lastmile_qr_scan"}}, {"type": "electric_scooter", "name": "7c0dbedabc72b8e94df1f7dc4b6b0015", "fusion_lon": 0.0, "is_reserved": 0, "lon": -77.045346, "fusion_lat": 0.0, "is_disabled": 0, "bike_id": "7c0dbedabc72b8e94df1f7dc4b6b0015", "lat": 38.913114666666665, "rental_uris": {"ios": "https://dc.lft.to/lastmile_qr_scan", "android": "https://dc.lft.to/lastmile_qr_scan"}}, {"type": "electric_scooter", "name": "65126f5bbe53264b1514beeaa2414801", "fusion_lon": 0.0, "is_reserved": 0, "lon": -76.99513733333333, "fusion_lat": 0.0, "is_disabled": 0, "bike_id": "65126f5bbe53264b1514beeaa2414801", "lat": 38.88606, "rental_uris": {"ios": "https://dc.lft.to/lastmile_qr_scan", "android": "https://dc.lft.to/lastmile_qr_scan"}}, {"type": "electric_scooter", "name": "09d49abd29054a213376a6d133e61e0c", "fusion_lon": 0.0, "is_reserved": 0, "lon": -77.038441, "fusion_lat": 0.0, "is_disabled": 0, "bike_id": "09d49abd29054a213376a6d133e61e0c", "lat": 38.916688666666666, "rental_uris": {"ios": "https://dc.lft.to/lastmile_qr_scan", "android": "https://dc.lft.to/lastmile_qr_scan"}}, {"type": "electric_bike", "name": "e0403f4d5754d155507452b68c073af4", "fusion_lon": 0.0, "is_reserved": 0, "lon": -77.02626, "fusion_lat": 0.0, "is_disabled": 0, "bike_id": "e0403f4d5754d155507452b68c073af4", "lat": 38.96223766666667, "rental_uris": {"ios": "https://dc.lft.to/lastmile_qr_scan", "android": "https://dc.lft.to/lastmile_qr_scan"}}, {"type": "electric_scooter", "name": "4c7e217ef97a43db7f008044eda9d42f", "fusion_lon": 0.0, "is_reserved": 0, "lon": -77.02103733333334, "fusion_lat": 0.0, "is_disabled": 0, "bike_id": "4c7e217ef97a43db7f008044eda9d42f", "lat": 38.8994625, "rental_uris": {"ios": "https://dc.lft.to/lastmile_qr_scan", "android": "https://dc.lft.to/lastmile_qr_scan"}}, {"type": "electric_scooter", "name": "8aafc9900e38a1faea3e3eaa16f280ce", "fusion_lon": 0.0, "is_reserved": 0, "lon": -77.02282316666667, "fusion_lat": 0.0, "is_disabled": 0, "bike_id": "8aafc9900e38a1faea3e3eaa16f280ce", "lat": 38.9145285, "rental_uris": {"ios": "https://dc.lft.to/lastmile_qr_scan", "android": "https://dc.lft.to/lastmile_qr_scan"}}, {"type": "electric_scooter", "name": "64d5d898a7661ea5b9e32181f0bc8c28", "fusion_lon": 0.0, "is_reserved": 0, "lon": -77.0377355, "fusion_lat": 0.0, "is_disabled": 0, "bike_id": "64d5d898a7661ea5b9e32181f0bc8c28", "lat": 38.92690483333333, "rental_uris": {"ios": "https://dc.lft.to/lastmile_qr_scan", "android": "https://dc.lft.to/lastmile_qr_scan"}}, {"type": "electric_scooter", "name": "8077fe4eb9fe0fa0414293dd48761bd0", "fusion_lon": 0.0, "is_reserved": 0, "lon": -76.92623316666666, "fusion_lat": 0.0, "is_disabled": 0, "bike_id": "8077fe4eb9fe0fa0414293dd48761bd0", "lat": 38.8845945, "rental_uris": {"ios": "https://dc.lft.to/lastmile_qr_scan", "android": "https://dc.lft.to/lastmile_qr_scan"}}, {"type": "electric_scooter", "name": "4c360f4f34b14da459a145633fc26c00", "fusion_lon": 0.0, "is_reserved": 0, "lon": -77.02111866666667, "fusion_lat": 0.0, "is_disabled": 0, "bike_id": "4c360f4f34b14da459a145633fc26c00", "lat": 38.90595716666667, "rental_uris": {"ios": "https://dc.lft.to/lastmile_qr_scan", "android": "https://dc.lft.to/lastmile_qr_scan"}}, {"type": "electric_scooter", "name": "73f6e26fd8f38b5b914d532078be869d", "fusion_lon": 0.0, "is_reserved": 0, "lon": -76.99622266666667, "fusion_lat": 0.0, "is_disabled": 0, "bike_id": "73f6e26fd8f38b5b914d532078be869d", "lat": 38.885297666666666, "rental_uris": {"ios": "https://dc.lft.to/lastmile_qr_scan", "android": "https://dc.lft.to/lastmile_qr_scan"}}, {"type": "electric_bike", "name": "ca922888406259d9bc8f61f160e8c640", "fusion_lon": 0.0, "is_reserved": 0, "lon": -77.10835116666667, "fusion_lat": 0.0, "is_disabled": 0, "bike_id": "ca922888406259d9bc8f61f160e8c640", "lat": 38.811993666666666, "rental_uris": {"ios": "https://dc.lft.to/lastmile_qr_scan", "android": "https://dc.lft.to/lastmile_qr_scan"}}, {"type": "electric_scooter", "name": "7ada75fe103df0c73510d2206b110a5b", "fusion_lon": 0.0, "is_reserved": 0, "lon": -77.0076975, "fusion_lat": 0.0, "is_disabled": 0, "bike_id": "7ada75fe103df0c73510d2206b110a5b", "lat": 38.897219666666665, "rental_uris": {"ios": "https://dc.lft.to/lastmile_qr_scan", "android": "https://dc.lft.to/lastmile_qr_scan"}}, {"type": "electric_scooter", "name": "a69972186c0b384171a15ae2eb28266c", "fusion_lon": 0.0, "is_reserved": 0, "lon": -77.03341483333334, "fusion_lat": 0.0, "is_disabled": 0, "bike_id": "a69972186c0b384171a15ae2eb28266c", "lat": 38.9288435, "rental_uris": {"ios": "https://dc.lft.to/lastmile_qr_scan", "android": "https://dc.lft.to/lastmile_qr_scan"}}, {"type": "electric_scooter", "name": "a911c7ce5b860ffe70e0ca80f6faba7c", "fusion_lon": 0.0, "is_reserved": 0, "lon": -77.030458, "fusion_lat": 0.0, "is_disabled": 0, "bike_id": "a911c7ce5b860ffe70e0ca80f6faba7c", "lat": 38.916825, "rental_uris": {"ios": "https://dc.lft.to/lastmile_qr_scan", "android": "https://dc.lft.to/lastmile_qr_scan"}}, {"type": "electric_bike", "name": "092491244195f4f697000647e1397d21", "fusion_lon": 0.0, "is_reserved": 0, "lon": -77.12021616666667, "fusion_lat": 0.0, "is_disabled": 0, "bike_id": "092491244195f4f697000647e1397d21", "lat": 38.85785, "rental_uris": {"ios": "https://dc.lft.to/lastmile_qr_scan", "android": "https://dc.lft.to/lastmile_qr_scan"}}, {"type": "electric_scooter", "name": "2aa75007b6b1232d9c300be2fcc6a15d", "fusion_lon": 0.0, "is_reserved": 0, "lon": -77.0250485, "fusion_lat": 0.0, "is_disabled": 0, "bike_id": "2aa75007b6b1232d9c300be2fcc6a15d", "lat": 38.905632, "rental_uris": {"ios": "https://dc.lft.to/lastmile_qr_scan", "android": "https://dc.lft.to/lastmile_qr_scan"}}, {"type": "electric_bike", "name": "c99e7ac8b171aac78b99e16fd310df52", "fusion_lon": 0.0, "is_reserved": 0, "lon": -76.983524, "fusion_lat": 0.0, "is_disabled": 0, "bike_id": "c99e7ac8b171aac78b99e16fd310df52", "lat": 38.862591, "rental_uris": {"ios": "https://dc.lft.to/lastmile_qr_scan", "android": "https://dc.lft.to/lastmile_qr_scan"}}, {"type": "electric_scooter", "name": "ec3c181a0c30ef011997f36d0312ae66", "fusion_lon": 0.0, "is_reserved": 0, "lon": -77.02933066666667, "fusion_lat": 0.0, "is_disabled": 0, "bike_id": "ec3c181a0c30ef011997f36d0312ae66", "lat": 38.920809166666665, "rental_uris": {"ios": "https://dc.lft.to/lastmile_qr_scan", "android": "https://dc.lft.to/lastmile_qr_scan"}}, {"type": "electric_scooter", "name": "d5b0be8e917eebbbad508cc85f8a9d8c", "fusion_lon": 0.0, "is_reserved": 0, "lon": -76.9960535, "fusion_lat": 0.0, "is_disabled": 0, "bike_id": "d5b0be8e917eebbbad508cc85f8a9d8c", "lat": 38.900363166666665, "rental_uris": {"ios": "https://dc.lft.to/lastmile_qr_scan", "android": "https://dc.lft.to/lastmile_qr_scan"}}, {"type": "electric_scooter", "name": "5ed547a034480c98c6c1d797d542086f", "fusion_lon": 0.0, "is_reserved": 0, "lon": -77.0466495, "fusion_lat": 0.0, "is_disabled": 0, "bike_id": "5ed547a034480c98c6c1d797d542086f", "lat": 38.90647216666667, "rental_uris": {"ios": "https://dc.lft.to/lastmile_qr_scan", "android": "https://dc.lft.to/lastmile_qr_scan"}}, {"type": "electric_scooter", "name": "401a3a78a1589694b7030fee48e4a755", "fusion_lon": 0.0, "is_reserved": 0, "lon": -77.04319383333333, "fusion_lat": 0.0, "is_disabled": 0, "bike_id": "401a3a78a1589694b7030fee48e4a755", "lat": 38.90550783333333, "rental_uris": {"ios": "https://dc.lft.to/lastmile_qr_scan", "android": "https://dc.lft.to/lastmile_qr_scan"}}, {"type": "electric_scooter", "name": "e2e8eec83b500910178a0d793d463fd3", "fusion_lon": 0.0, "is_reserved": 0, "lon": -77.0315085, "fusion_lat": 0.0, "is_disabled": 0, "bike_id": "e2e8eec83b500910178a0d793d463fd3", "lat": 38.91119166666667, "rental_uris": {"ios": "https://dc.lft.to/lastmile_qr_scan", "android": "https://dc.lft.to/lastmile_qr_scan"}}, {"type": "electric_scooter", "name": "6b200952ac02810e1e55a17a730e227e", "fusion_lon": 0.0, "is_reserved": 0, "lon": -77.04889066666667, "fusion_lat": 0.0, "is_disabled": 0, "bike_id": "6b200952ac02810e1e55a17a730e227e", "lat": 38.90071783333333, "rental_uris": {"ios": "https://dc.lft.to/lastmile_qr_scan", "android": "https://dc.lft.to/lastmile_qr_scan"}}, {"type": "electric_scooter", "name": "581cd6966d6554d52d161c0092a39b29", "fusion_lon": 0.0, "is_reserved": 0, "lon": -76.939171, "fusion_lat": 0.0, "is_disabled": 0, "bike_id": "581cd6966d6554d52d161c0092a39b29", "lat": 38.891443333333335, "rental_uris": {"ios": "https://dc.lft.to/lastmile_qr_scan", "android": "https://dc.lft.to/lastmile_qr_scan"}}, {"type": "electric_scooter", "name": "89cb0207d424eb58f58148774e2ddbcd", "fusion_lon": 0.0, "is_reserved": 0, "lon": -77.01915116666666, "fusion_lat": 0.0, "is_disabled": 0, "bike_id": "89cb0207d424eb58f58148774e2ddbcd", "lat": 38.92258733333333, "rental_uris": {"ios": "https://dc.lft.to/lastmile_qr_scan", "android": "https://dc.lft.to/lastmile_qr_scan"}}, {"type": "electric_bike", "name": "04fce8afbf08703337709c102eed55aa", "fusion_lon": 0.0, "is_reserved": 0, "lon": -76.98758583333333, "fusion_lat": 0.0, "is_disabled": 0, "bike_id": "04fce8afbf08703337709c102eed55aa", "lat": 38.85768483333333, "rental_uris": {"ios": "https://dc.lft.to/lastmile_qr_scan", "android": "https://dc.lft.to/lastmile_qr_scan"}}, {"type": "electric_scooter", "name": "36b3e19b3fc15f78568a4a33483084ee", "fusion_lon": 0.0, "is_reserved": 0, "lon": -77.02727833333333, "fusion_lat": 0.0, "is_disabled": 0, "bike_id": "36b3e19b3fc15f78568a4a33483084ee", "lat": 38.9518055, "rental_uris": {"ios": "https://dc.lft.to/lastmile_qr_scan", "android": "https://dc.lft.to/lastmile_qr_scan"}}, {"type": "electric_scooter", "name": "03609d78c1d9b706e304204c1c33bafe", "fusion_lon": 0.0, "is_reserved": 0, "lon": -77.02386166666666, "fusion_lat": 0.0, "is_disabled": 0, "bike_id": "03609d78c1d9b706e304204c1c33bafe", "lat": 38.91753116666667, "rental_uris": {"ios": "https://dc.lft.to/lastmile_qr_scan", "android": "https://dc.lft.to/lastmile_qr_scan"}}, {"type": "electric_bike", "name": "b250b0bcaa5df4c1d098d0387bd8f090", "fusion_lon": 0.0, "is_reserved": 0, "lon": -77.09523033333333, "fusion_lat": 0.0, "is_disabled": 0, "bike_id": "b250b0bcaa5df4c1d098d0387bd8f090", "lat": 38.8381165, "rental_uris": {"ios": "https://dc.lft.to/lastmile_qr_scan", "android": "https://dc.lft.to/lastmile_qr_scan"}}, {"type": "electric_scooter", "name": "2f6b5749bb6c960bcebf51f78419c5a3", "fusion_lon": 0.0, "is_reserved": 0, "lon": -77.02778233333333, "fusion_lat": 0.0, "is_disabled": 0, "bike_id": "2f6b5749bb6c960bcebf51f78419c5a3", "lat": 38.955316333333336, "rental_uris": {"ios": "https://dc.lft.to/lastmile_qr_scan", "android": "https://dc.lft.to/lastmile_qr_scan"}}, {"type": "electric_scooter", "name": "79e9703c8c37678fce7b59c682838497", "fusion_lon": 0.0, "is_reserved": 0, "lon": -77.01682883333334, "fusion_lat": 0.0, "is_disabled": 0, "bike_id": "79e9703c8c37678fce7b59c682838497", "lat": 38.9712335, "rental_uris": {"ios": "https://dc.lft.to/lastmile_qr_scan", "android": "https://dc.lft.to/lastmile_qr_scan"}}, {"type": "electric_scooter", "name": "48add7a9c31d73b069cf68b80b4bf634", "fusion_lon": 0.0, "is_reserved": 0, "lon": -77.03260716666666, "fusion_lat": 0.0, "is_disabled": 0, "bike_id": "48add7a9c31d73b069cf68b80b4bf634", "lat": 38.93773983333333, "rental_uris": {"ios": "https://dc.lft.to/lastmile_qr_scan", "android": "https://dc.lft.to/lastmile_qr_scan"}}, {"type": "electric_scooter", "name": "515fbc67187bd254fdcb16a75a8833a9", "fusion_lon": 0.0, "is_reserved": 0, "lon": -77.03062733333333, "fusion_lat": 0.0, "is_disabled": 0, "bike_id": "515fbc67187bd254fdcb16a75a8833a9", "lat": 38.92762166666667, "rental_uris": {"ios": "https://dc.lft.to/lastmile_qr_scan", "android": "https://dc.lft.to/lastmile_qr_scan"}}, {"type": "electric_scooter", "name": "0d6cddfd4337c8316896c021864a9840", "fusion_lon": 0.0, "is_reserved": 0, "lon": -77.0171775, "fusion_lat": 0.0, "is_disabled": 0, "bike_id": "0d6cddfd4337c8316896c021864a9840", "lat": 38.893466333333336, "rental_uris": {"ios": "https://dc.lft.to/lastmile_qr_scan", "android": "https://dc.lft.to/lastmile_qr_scan"}}, {"type": "electric_scooter", "name": "a5c733a1338491c50b52ea4910ee9f22", "fusion_lon": 0.0, "is_reserved": 0, "lon": -77.02722816666666, "fusion_lat": 0.0, "is_disabled": 0, "bike_id": "a5c733a1338491c50b52ea4910ee9f22", "lat": 38.92480233333333, "rental_uris": {"ios": "https://dc.lft.to/lastmile_qr_scan", "android": "https://dc.lft.to/lastmile_qr_scan"}}, {"type": "electric_scooter", "name": "a8aa93b658238af7f998620713993083", "fusion_lon": 0.0, "is_reserved": 0, "lon": -76.977175, "fusion_lat": 0.0, "is_disabled": 0, "bike_id": "a8aa93b658238af7f998620713993083", "lat": 38.89880616666667, "rental_uris": {"ios": "https://dc.lft.to/lastmile_qr_scan", "android": "https://dc.lft.to/lastmile_qr_scan"}}, {"type": "electric_scooter", "name": "d5525e99c23c838a5ffd2991052fd826", "fusion_lon": 0.0, "is_reserved": 0, "lon": -77.034528, "fusion_lat": 0.0, "is_disabled": 0, "bike_id": "d5525e99c23c838a5ffd2991052fd826", "lat": 38.91819183333333, "rental_uris": {"ios": "https://dc.lft.to/lastmile_qr_scan", "android": "https://dc.lft.to/lastmile_qr_scan"}}, {"type": "electric_bike", "name": "2300cdf0c46c3b4d7829ba75b028e3f8", "fusion_lon": 0.0, "is_reserved": 0, "lon": -76.9073385, "fusion_lat": 0.0, "is_disabled": 0, "bike_id": "2300cdf0c46c3b4d7829ba75b028e3f8", "lat": 38.896286, "rental_uris": {"ios": "https://dc.lft.to/lastmile_qr_scan", "android": "https://dc.lft.to/lastmile_qr_scan"}}, {"type": "electric_scooter", "name": "c3ac0c26806d2617d73f0e45d6dc602a", "fusion_lon": 0.0, "is_reserved": 0, "lon": -77.0467975, "fusion_lat": 0.0, "is_disabled": 0, "bike_id": "c3ac0c26806d2617d73f0e45d6dc602a", "lat": 38.89506316666667, "rental_uris": {"ios": "https://dc.lft.to/lastmile_qr_scan", "android": "https://dc.lft.to/lastmile_qr_scan"}}, {"type": "electric_scooter", "name": "40045ea66ad3f4fad118ce1a1cfccd30", "fusion_lon": 0.0, "is_reserved": 0, "lon": -77.02911933333333, "fusion_lat": 0.0, "is_disabled": 0, "bike_id": "40045ea66ad3f4fad118ce1a1cfccd30", "lat": 38.900525, "rental_uris": {"ios": "https://dc.lft.to/lastmile_qr_scan", "android": "https://dc.lft.to/lastmile_qr_scan"}}, {"type": "electric_scooter", "name": "33936946db9c461f4889cda8739c5d63", "fusion_lon": 0.0, "is_reserved": 0, "lon": -77.05575616666667, "fusion_lat": 0.0, "is_disabled": 0, "bike_id": "33936946db9c461f4889cda8739c5d63", "lat": 38.89734, "rental_uris": {"ios": "https://dc.lft.to/lastmile_qr_scan", "android": "https://dc.lft.to/lastmile_qr_scan"}}, {"type": "electric_scooter", "name": "9c7a3ba57ec131308f50cfb73c0ed74d", "fusion_lon": 0.0, "is_reserved": 0, "lon": -76.98268616666667, "fusion_lat": 0.0, "is_disabled": 0, "bike_id": "9c7a3ba57ec131308f50cfb73c0ed74d", "lat": 38.88532, "rental_uris": {"ios": "https://dc.lft.to/lastmile_qr_scan", "android": "https://dc.lft.to/lastmile_qr_scan"}}, {"type": "electric_scooter", "name": "aa04eefafe84c440e6877e76b79f9a8d", "fusion_lon": 0.0, "is_reserved": 0, "lon": -77.02797633333333, "fusion_lat": 0.0, "is_disabled": 0, "bike_id": "aa04eefafe84c440e6877e76b79f9a8d", "lat": 38.90738416666667, "rental_uris": {"ios": "https://dc.lft.to/lastmile_qr_scan", "android": "https://dc.lft.to/lastmile_qr_scan"}}, {"type": "electric_scooter", "name": "449e540554ba9edf4d803b45f5761133", "fusion_lon": 0.0, "is_reserved": 0, "lon": -77.01989833333333, "fusion_lat": 0.0, "is_disabled": 0, "bike_id": "449e540554ba9edf4d803b45f5761133", "lat": 38.91913066666667, "rental_uris": {"ios": "https://dc.lft.to/lastmile_qr_scan", "android": "https://dc.lft.to/lastmile_qr_scan"}}, {"type": "electric_scooter", "name": "0f689a9b315c158d52c55c19d19dbcd1", "fusion_lon": 0.0, "is_reserved": 0, "lon": -77.03340016666667, "fusion_lat": 0.0, "is_disabled": 0, "bike_id": "0f689a9b315c158d52c55c19d19dbcd1", "lat": 38.89749966666667, "rental_uris": {"ios": "https://dc.lft.to/lastmile_qr_scan", "android": "https://dc.lft.to/lastmile_qr_scan"}}, {"type": "electric_scooter", "name": "f2c434349240a332f8acb34a95b54785", "fusion_lon": 0.0, "is_reserved": 0, "lon": -77.0414725, "fusion_lat": 0.0, "is_disabled": 0, "bike_id": "f2c434349240a332f8acb34a95b54785", "lat": 38.91709216666667, "rental_uris": {"ios": "https://dc.lft.to/lastmile_qr_scan", "android": "https://dc.lft.to/lastmile_qr_scan"}}, {"type": "electric_scooter", "name": "796aaf765f48034036c35fda6bd48eed", "fusion_lon": 0.0, "is_reserved": 0, "lon": -77.0525095, "fusion_lat": 0.0, "is_disabled": 0, "bike_id": "796aaf765f48034036c35fda6bd48eed", "lat": 38.925115, "rental_uris": {"ios": "https://dc.lft.to/lastmile_qr_scan", "android": "https://dc.lft.to/lastmile_qr_scan"}}, {"type": "electric_scooter", "name": "82c1d457ba0a14ee0d5c64fae92849eb", "fusion_lon": 0.0, "is_reserved": 0, "lon": -77.03672583333334, "fusion_lat": 0.0, "is_disabled": 0, "bike_id": "82c1d457ba0a14ee0d5c64fae92849eb", "lat": 38.90287516666667, "rental_uris": {"ios": "https://dc.lft.to/lastmile_qr_scan", "android": "https://dc.lft.to/lastmile_qr_scan"}}, {"type": "electric_scooter", "name": "451ee5ef3db2cd84d1732b672c6c666c", "fusion_lon": 0.0, "is_reserved": 0, "lon": -77.0427545, "fusion_lat": 0.0, "is_disabled": 0, "bike_id": "451ee5ef3db2cd84d1732b672c6c666c", "lat": 38.922815166666666, "rental_uris": {"ios": "https://dc.lft.to/lastmile_qr_scan", "android": "https://dc.lft.to/lastmile_qr_scan"}}, {"type": "electric_scooter", "name": "714199df0518d1c99ed42b38b569a9b4", "fusion_lon": 0.0, "is_reserved": 0, "lon": -76.94691616666667, "fusion_lat": 0.0, "is_disabled": 0, "bike_id": "714199df0518d1c99ed42b38b569a9b4", "lat": 38.90068216666667, "rental_uris": {"ios": "https://dc.lft.to/lastmile_qr_scan", "android": "https://dc.lft.to/lastmile_qr_scan"}}, {"type": "electric_bike", "name": "0669f09cf46131d6bf997a7e0adb037e", "fusion_lon": 0.0, "is_reserved": 0, "lon": -76.97730116666666, "fusion_lat": 0.0, "is_disabled": 0, "bike_id": "0669f09cf46131d6bf997a7e0adb037e", "lat": 38.95172783333334, "rental_uris": {"ios": "https://dc.lft.to/lastmile_qr_scan", "android": "https://dc.lft.to/lastmile_qr_scan"}}, {"type": "electric_scooter", "name": "1777d265c7c99f2261cb0ef5ea2b64c5", "fusion_lon": 0.0, "is_reserved": 0, "lon": -77.03456966666667, "fusion_lat": 0.0, "is_disabled": 0, "bike_id": "1777d265c7c99f2261cb0ef5ea2b64c5", "lat": 38.902701666666665, "rental_uris": {"ios": "https://dc.lft.to/lastmile_qr_scan", "android": "https://dc.lft.to/lastmile_qr_scan"}}, {"type": "electric_bike", "name": "0eaeb3fffd46b88e5f07db28961cba61", "fusion_lon": 0.0, "is_reserved": 0, "lon": -77.03272533333333, "fusion_lat": 0.0, "is_disabled": 0, "bike_id": "0eaeb3fffd46b88e5f07db28961cba61", "lat": 38.934507833333335, "rental_uris": {"ios": "https://dc.lft.to/lastmile_qr_scan", "android": "https://dc.lft.to/lastmile_qr_scan"}}, {"type": "electric_bike", "name": "28ef86f0dea099bd7f2807a6bbf7c987", "fusion_lon": 0.0, "is_reserved": 0, "lon": -77.01458083333333, "fusion_lat": 0.0, "is_disabled": 0, "bike_id": "28ef86f0dea099bd7f2807a6bbf7c987", "lat": 38.9627635, "rental_uris": {"ios": "https://dc.lft.to/lastmile_qr_scan", "android": "https://dc.lft.to/lastmile_qr_scan"}}, {"type": "electric_scooter", "name": "8c8429b98a3e2bfd41f281489adb21b2", "fusion_lon": 0.0, "is_reserved": 0, "lon": -77.0386115, "fusion_lat": 0.0, "is_disabled": 0, "bike_id": "8c8429b98a3e2bfd41f281489adb21b2", "lat": 38.917152333333334, "rental_uris": {"ios": "https://dc.lft.to/lastmile_qr_scan", "android": "https://dc.lft.to/lastmile_qr_scan"}}, {"type": "electric_scooter", "name": "8ffdb3401dd5553bd868d8555825ce64", "fusion_lon": 0.0, "is_reserved": 0, "lon": -77.04869483333333, "fusion_lat": 0.0, "is_disabled": 0, "bike_id": "8ffdb3401dd5553bd868d8555825ce64", "lat": 38.89321866666667, "rental_uris": {"ios": "https://dc.lft.to/lastmile_qr_scan", "android": "https://dc.lft.to/lastmile_qr_scan"}}, {"type": "electric_scooter", "name": "dedb55d6b969f2e58cb85e309010b662", "fusion_lon": 0.0, "is_reserved": 0, "lon": -77.04143233333333, "fusion_lat": 0.0, "is_disabled": 0, "bike_id": "dedb55d6b969f2e58cb85e309010b662", "lat": 38.92648666666667, "rental_uris": {"ios": "https://dc.lft.to/lastmile_qr_scan", "android": "https://dc.lft.to/lastmile_qr_scan"}}, {"type": "electric_scooter", "name": "6c58bfc43034263a55ea11b202e27cb8", "fusion_lon": 0.0, "is_reserved": 0, "lon": -77.04510466666666, "fusion_lat": 0.0, "is_disabled": 0, "bike_id": "6c58bfc43034263a55ea11b202e27cb8", "lat": 38.905529666666666, "rental_uris": {"ios": "https://dc.lft.to/lastmile_qr_scan", "android": "https://dc.lft.to/lastmile_qr_scan"}}, {"type": "electric_scooter", "name": "30c56cd69c3e129bc951d55b9f63476f", "fusion_lon": 0.0, "is_reserved": 0, "lon": -77.03842283333333, "fusion_lat": 0.0, "is_disabled": 0, "bike_id": "30c56cd69c3e129bc951d55b9f63476f", "lat": 38.91221816666667, "rental_uris": {"ios": "https://dc.lft.to/lastmile_qr_scan", "android": "https://dc.lft.to/lastmile_qr_scan"}}, {"type": "electric_scooter", "name": "d0e900b202282ec1795d43dd72976402", "fusion_lon": 0.0, "is_reserved": 0, "lon": -77.03389916666667, "fusion_lat": 0.0, "is_disabled": 0, "bike_id": "d0e900b202282ec1795d43dd72976402", "lat": 38.886583333333334, "rental_uris": {"ios": "https://dc.lft.to/lastmile_qr_scan", "android": "https://dc.lft.to/lastmile_qr_scan"}}, {"type": "electric_scooter", "name": "9c5dd3c68cda6e678f8db6611f539e39", "fusion_lon": 0.0, "is_reserved": 0, "lon": -76.9852205, "fusion_lat": 0.0, "is_disabled": 0, "bike_id": "9c5dd3c68cda6e678f8db6611f539e39", "lat": 38.880801166666664, "rental_uris": {"ios": "https://dc.lft.to/lastmile_qr_scan", "android": "https://dc.lft.to/lastmile_qr_scan"}}, {"type": "electric_scooter", "name": "b3a463f890b9cea0cf01b5fcf444ddde", "fusion_lon": 0.0, "is_reserved": 0, "lon": -77.02486983333333, "fusion_lat": 0.0, "is_disabled": 0, "bike_id": "b3a463f890b9cea0cf01b5fcf444ddde", "lat": 38.938642333333334, "rental_uris": {"ios": "https://dc.lft.to/lastmile_qr_scan", "android": "https://dc.lft.to/lastmile_qr_scan"}}, {"type": "electric_scooter", "name": "3ca4732e4a3e2637682060401b4ddf46", "fusion_lon": 0.0, "is_reserved": 0, "lon": -77.02361966666666, "fusion_lat": 0.0, "is_disabled": 0, "bike_id": "3ca4732e4a3e2637682060401b4ddf46", "lat": 38.8985765, "rental_uris": {"ios": "https://dc.lft.to/lastmile_qr_scan", "android": "https://dc.lft.to/lastmile_qr_scan"}}, {"type": "electric_scooter", "name": "eb1baa425a262d0fdbace119fabe3531", "fusion_lon": 0.0, "is_reserved": 0, "lon": -77.040718, "fusion_lat": 0.0, "is_disabled": 0, "bike_id": "eb1baa425a262d0fdbace119fabe3531", "lat": 38.92387166666666, "rental_uris": {"ios": "https://dc.lft.to/lastmile_qr_scan", "android": "https://dc.lft.to/lastmile_qr_scan"}}, {"type": "electric_scooter", "name": "698d58c603d4d8860046be5b6674f2d1", "fusion_lon": 0.0, "is_reserved": 0, "lon": -77.0282375, "fusion_lat": 0.0, "is_disabled": 0, "bike_id": "698d58c603d4d8860046be5b6674f2d1", "lat": 38.8872345, "rental_uris": {"ios": "https://dc.lft.to/lastmile_qr_scan", "android": "https://dc.lft.to/lastmile_qr_scan"}}, {"type": "electric_scooter", "name": "3b3749ea62542cecb7b615f0394a830c", "fusion_lon": 0.0, "is_reserved": 0, "lon": -77.02891166666667, "fusion_lat": 0.0, "is_disabled": 0, "bike_id": "3b3749ea62542cecb7b615f0394a830c", "lat": 38.90722916666667, "rental_uris": {"ios": "https://dc.lft.to/lastmile_qr_scan", "android": "https://dc.lft.to/lastmile_qr_scan"}}, {"type": "electric_scooter", "name": "589267be8bee7002b28611ccdb4f7344", "fusion_lon": 0.0, "is_reserved": 0, "lon": -76.96310916666667, "fusion_lat": 0.0, "is_disabled": 0, "bike_id": "589267be8bee7002b28611ccdb4f7344", "lat": 38.8782835, "rental_uris": {"ios": "https://dc.lft.to/lastmile_qr_scan", "android": "https://dc.lft.to/lastmile_qr_scan"}}, {"type": "electric_scooter", "name": "4d34c84ba6b63a42ba84dd47fe35fe4a", "fusion_lon": 0.0, "is_reserved": 0, "lon": -77.03232066666666, "fusion_lat": 0.0, "is_disabled": 0, "bike_id": "4d34c84ba6b63a42ba84dd47fe35fe4a", "lat": 38.90449316666667, "rental_uris": {"ios": "https://dc.lft.to/lastmile_qr_scan", "android": "https://dc.lft.to/lastmile_qr_scan"}}, {"type": "electric_scooter", "name": "ac0c1c83351cf60f76ccfd717cc5a5cf", "fusion_lon": 0.0, "is_reserved": 0, "lon": -77.0883665, "fusion_lat": 0.0, "is_disabled": 0, "bike_id": "ac0c1c83351cf60f76ccfd717cc5a5cf", "lat": 38.94312816666667, "rental_uris": {"ios": "https://dc.lft.to/lastmile_qr_scan", "android": "https://dc.lft.to/lastmile_qr_scan"}}, {"type": "electric_scooter", "name": "3f761281a40f4c3a736563e9a448398a", "fusion_lon": 0.0, "is_reserved": 0, "lon": -76.98882233333333, "fusion_lat": 0.0, "is_disabled": 0, "bike_id": "3f761281a40f4c3a736563e9a448398a", "lat": 38.8666175, "rental_uris": {"ios": "https://dc.lft.to/lastmile_qr_scan", "android": "https://dc.lft.to/lastmile_qr_scan"}}, {"type": "electric_scooter", "name": "3801686ae376b8820fa687377104d357", "fusion_lon": 0.0, "is_reserved": 0, "lon": -77.03558733333334, "fusion_lat": 0.0, "is_disabled": 0, "bike_id": "3801686ae376b8820fa687377104d357", "lat": 38.92748616666667, "rental_uris": {"ios": "https://dc.lft.to/lastmile_qr_scan", "android": "https://dc.lft.to/lastmile_qr_scan"}}, {"type": "electric_bike", "name": "2a02dd64e5b19750050442bd325807ef", "fusion_lon": 0.0, "is_reserved": 0, "lon": -77.080683, "fusion_lat": 0.0, "is_disabled": 0, "bike_id": "2a02dd64e5b19750050442bd325807ef", "lat": 39.05282183333333, "rental_uris": {"ios": "https://dc.lft.to/lastmile_qr_scan", "android": "https://dc.lft.to/lastmile_qr_scan"}}, {"type": "electric_scooter", "name": "b1d5bc832bc033796ac80dc930c89560", "fusion_lon": 0.0, "is_reserved": 0, "lon": -76.975873, "fusion_lat": 0.0, "is_disabled": 0, "bike_id": "b1d5bc832bc033796ac80dc930c89560", "lat": 38.86999216666667, "rental_uris": {"ios": "https://dc.lft.to/lastmile_qr_scan", "android": "https://dc.lft.to/lastmile_qr_scan"}}, {"type": "electric_scooter", "name": "0adb2a3af7878c8d7a6ff9cfa12b19e5", "fusion_lon": 0.0, "is_reserved": 0, "lon": -77.01467983333333, "fusion_lat": 0.0, "is_disabled": 0, "bike_id": "0adb2a3af7878c8d7a6ff9cfa12b19e5", "lat": 38.914976833333334, "rental_uris": {"ios": "https://dc.lft.to/lastmile_qr_scan", "android": "https://dc.lft.to/lastmile_qr_scan"}}, {"type": "electric_scooter", "name": "27048e15b519aa96d41b301a118a7e3f", "fusion_lon": 0.0, "is_reserved": 0, "lon": -77.03591016666667, "fusion_lat": 0.0, "is_disabled": 0, "bike_id": "27048e15b519aa96d41b301a118a7e3f", "lat": 38.936764, "rental_uris": {"ios": "https://dc.lft.to/lastmile_qr_scan", "android": "https://dc.lft.to/lastmile_qr_scan"}}, {"type": "electric_scooter", "name": "07bc8fd16af307b6dca3908e962cc918", "fusion_lon": 0.0, "is_reserved": 0, "lon": -77.05127083333333, "fusion_lat": 0.0, "is_disabled": 0, "bike_id": "07bc8fd16af307b6dca3908e962cc918", "lat": 38.92316316666667, "rental_uris": {"ios": "https://dc.lft.to/lastmile_qr_scan", "android": "https://dc.lft.to/lastmile_qr_scan"}}, {"type": "electric_scooter", "name": "1d7c1e133c774d2bbab407ba91b934c7", "fusion_lon": 0.0, "is_reserved": 0, "lon": -76.99282016666666, "fusion_lat": 0.0, "is_disabled": 0, "bike_id": "1d7c1e133c774d2bbab407ba91b934c7", "lat": 38.893033833333334, "rental_uris": {"ios": "https://dc.lft.to/lastmile_qr_scan", "android": "https://dc.lft.to/lastmile_qr_scan"}}, {"type": "electric_scooter", "name": "42003c992ecc7989c388c3d42731026b", "fusion_lon": 0.0, "is_reserved": 0, "lon": -77.02401566666667, "fusion_lat": 0.0, "is_disabled": 0, "bike_id": "42003c992ecc7989c388c3d42731026b", "lat": 38.90040466666667, "rental_uris": {"ios": "https://dc.lft.to/lastmile_qr_scan", "android": "https://dc.lft.to/lastmile_qr_scan"}}, {"type": "electric_scooter", "name": "b669e772432eb444401d87c8ba3809be", "fusion_lon": 0.0, "is_reserved": 0, "lon": -77.03124383333333, "fusion_lat": 0.0, "is_disabled": 0, "bike_id": "b669e772432eb444401d87c8ba3809be", "lat": 38.959233, "rental_uris": {"ios": "https://dc.lft.to/lastmile_qr_scan", "android": "https://dc.lft.to/lastmile_qr_scan"}}, {"type": "electric_scooter", "name": "1efdf0e01c1571c0e976d0f023d8ee39", "fusion_lon": 0.0, "is_reserved": 0, "lon": -77.02174666666667, "fusion_lat": 0.0, "is_disabled": 0, "bike_id": "1efdf0e01c1571c0e976d0f023d8ee39", "lat": 38.9429325, "rental_uris": {"ios": "https://dc.lft.to/lastmile_qr_scan", "android": "https://dc.lft.to/lastmile_qr_scan"}}, {"type": "electric_scooter", "name": "316ec83f491bd42464a74f9faec6b02f", "fusion_lon": 0.0, "is_reserved": 0, "lon": -76.95101333333334, "fusion_lat": 0.0, "is_disabled": 0, "bike_id": "316ec83f491bd42464a74f9faec6b02f", "lat": 38.88821983333333, "rental_uris": {"ios": "https://dc.lft.to/lastmile_qr_scan", "android": "https://dc.lft.to/lastmile_qr_scan"}}, {"type": "electric_scooter", "name": "4415c6a1fc8319573c0df4265295b235", "fusion_lon": 0.0, "is_reserved": 0, "lon": -77.03821366666666, "fusion_lat": 0.0, "is_disabled": 0, "bike_id": "4415c6a1fc8319573c0df4265295b235", "lat": 38.907769333333334, "rental_uris": {"ios": "https://dc.lft.to/lastmile_qr_scan", "android": "https://dc.lft.to/lastmile_qr_scan"}}, {"type": "electric_scooter", "name": "daf0c1f9061bb9d5111e84bf9b8e93d3", "fusion_lon": 0.0, "is_reserved": 0, "lon": -77.03532616666666, "fusion_lat": 0.0, "is_disabled": 0, "bike_id": "daf0c1f9061bb9d5111e84bf9b8e93d3", "lat": 38.923178666666665, "rental_uris": {"ios": "https://dc.lft.to/lastmile_qr_scan", "android": "https://dc.lft.to/lastmile_qr_scan"}}, {"type": "electric_scooter", "name": "415dba3246c1728da01f6c45de9f024d", "fusion_lon": 0.0, "is_reserved": 0, "lon": -77.03066683333333, "fusion_lat": 0.0, "is_disabled": 0, "bike_id": "415dba3246c1728da01f6c45de9f024d", "lat": 38.909378333333336, "rental_uris": {"ios": "https://dc.lft.to/lastmile_qr_scan", "android": "https://dc.lft.to/lastmile_qr_scan"}}, {"type": "electric_scooter", "name": "894dba49ec3054f0c2f5cafc9f294746", "fusion_lon": 0.0, "is_reserved": 0, "lon": -76.96506166666667, "fusion_lat": 0.0, "is_disabled": 0, "bike_id": "894dba49ec3054f0c2f5cafc9f294746", "lat": 38.87648216666667, "rental_uris": {"ios": "https://dc.lft.to/lastmile_qr_scan", "android": "https://dc.lft.to/lastmile_qr_scan"}}, {"type": "electric_scooter", "name": "0f73444af212bc1d748d10c4b87c9bbe", "fusion_lon": 0.0, "is_reserved": 0, "lon": -77.04311766666666, "fusion_lat": 0.0, "is_disabled": 0, "bike_id": "0f73444af212bc1d748d10c4b87c9bbe", "lat": 38.8922815, "rental_uris": {"ios": "https://dc.lft.to/lastmile_qr_scan", "android": "https://dc.lft.to/lastmile_qr_scan"}}, {"type": "electric_scooter", "name": "3884afd4fc1738994d9aac098fcd7871", "fusion_lon": 0.0, "is_reserved": 0, "lon": -77.02527816666667, "fusion_lat": 0.0, "is_disabled": 0, "bike_id": "3884afd4fc1738994d9aac098fcd7871", "lat": 38.921541500000004, "rental_uris": {"ios": "https://dc.lft.to/lastmile_qr_scan", "android": "https://dc.lft.to/lastmile_qr_scan"}}, {"type": "electric_scooter", "name": "5ceb5aa5b27bf80eeb37295a1d9bcc5f", "fusion_lon": 0.0, "is_reserved": 0, "lon": -77.01504783333333, "fusion_lat": 0.0, "is_disabled": 0, "bike_id": "5ceb5aa5b27bf80eeb37295a1d9bcc5f", "lat": 38.9583635, "rental_uris": {"ios": "https://dc.lft.to/lastmile_qr_scan", "android": "https://dc.lft.to/lastmile_qr_scan"}}, {"type": "electric_bike", "name": "3f295e315da0c967ee86ba7eb680333d", "fusion_lon": 0.0, "is_reserved": 0, "lon": -77.03079333333334, "fusion_lat": 0.0, "is_disabled": 0, "bike_id": "3f295e315da0c967ee86ba7eb680333d", "lat": 39.0423365, "rental_uris": {"ios": "https://dc.lft.to/lastmile_qr_scan", "android": "https://dc.lft.to/lastmile_qr_scan"}}, {"type": "electric_scooter", "name": "b70ace9d170d9a0d32af01d9f172714d", "fusion_lon": 0.0, "is_reserved": 0, "lon": -77.02721366666667, "fusion_lat": 0.0, "is_disabled": 0, "bike_id": "b70ace9d170d9a0d32af01d9f172714d", "lat": 38.95134383333333, "rental_uris": {"ios": "https://dc.lft.to/lastmile_qr_scan", "android": "https://dc.lft.to/lastmile_qr_scan"}}, {"type": "electric_bike", "name": "8db3d8b2d2a874b9b765d3aa183e1b14", "fusion_lon": 0.0, "is_reserved": 0, "lon": -76.99354116666666, "fusion_lat": 0.0, "is_disabled": 0, "bike_id": "8db3d8b2d2a874b9b765d3aa183e1b14", "lat": 38.95503816666667, "rental_uris": {"ios": "https://dc.lft.to/lastmile_qr_scan", "android": "https://dc.lft.to/lastmile_qr_scan"}}, {"type": "electric_scooter", "name": "12687c5049e502cfef432346b39d22dc", "fusion_lon": 0.0, "is_reserved": 0, "lon": -77.031987, "fusion_lat": 0.0, "is_disabled": 0, "bike_id": "12687c5049e502cfef432346b39d22dc", "lat": 38.919206833333334, "rental_uris": {"ios": "https://dc.lft.to/lastmile_qr_scan", "android": "https://dc.lft.to/lastmile_qr_scan"}}, {"type": "electric_scooter", "name": "91c9f86b123bfc445cc0ae8e7c478bed", "fusion_lon": 0.0, "is_reserved": 0, "lon": -77.02011616666667, "fusion_lat": 0.0, "is_disabled": 0, "bike_id": "91c9f86b123bfc445cc0ae8e7c478bed", "lat": 38.91111, "rental_uris": {"ios": "https://dc.lft.to/lastmile_qr_scan", "android": "https://dc.lft.to/lastmile_qr_scan"}}, {"type": "electric_scooter", "name": "283773f1b231f4141b523756fb50ce0b", "fusion_lon": 0.0, "is_reserved": 0, "lon": -77.02060433333334, "fusion_lat": 0.0, "is_disabled": 0, "bike_id": "283773f1b231f4141b523756fb50ce0b", "lat": 38.9135145, "rental_uris": {"ios": "https://dc.lft.to/lastmile_qr_scan", "android": "https://dc.lft.to/lastmile_qr_scan"}}, {"type": "electric_scooter", "name": "4f946d3cb7ec20d19b847f18c9524abf", "fusion_lon": 0.0, "is_reserved": 0, "lon": -77.01230683333333, "fusion_lat": 0.0, "is_disabled": 0, "bike_id": "4f946d3cb7ec20d19b847f18c9524abf", "lat": 38.86975866666667, "rental_uris": {"ios": "https://dc.lft.to/lastmile_qr_scan", "android": "https://dc.lft.to/lastmile_qr_scan"}}, {"type": "electric_scooter", "name": "5a3882f72eee9cb117e437a6036bc88b", "fusion_lon": 0.0, "is_reserved": 0, "lon": -77.02026366666666, "fusion_lat": 0.0, "is_disabled": 0, "bike_id": "5a3882f72eee9cb117e437a6036bc88b", "lat": 38.924320333333334, "rental_uris": {"ios": "https://dc.lft.to/lastmile_qr_scan", "android": "https://dc.lft.to/lastmile_qr_scan"}}, {"type": "electric_scooter", "name": "4396130a152ce8b8bcf1091c800a2871", "fusion_lon": 0.0, "is_reserved": 0, "lon": -77.0320015, "fusion_lat": 0.0, "is_disabled": 0, "bike_id": "4396130a152ce8b8bcf1091c800a2871", "lat": 38.9305365, "rental_uris": {"ios": "https://dc.lft.to/lastmile_qr_scan", "android": "https://dc.lft.to/lastmile_qr_scan"}}, {"type": "electric_scooter", "name": "20cadda08a4f986ada7805fcd24e3026", "fusion_lon": 0.0, "is_reserved": 0, "lon": -77.02516, "fusion_lat": 0.0, "is_disabled": 0, "bike_id": "20cadda08a4f986ada7805fcd24e3026", "lat": 38.942101, "rental_uris": {"ios": "https://dc.lft.to/lastmile_qr_scan", "android": "https://dc.lft.to/lastmile_qr_scan"}}, {"type": "electric_scooter", "name": "2fbe1e43bff6325bf7439ad22dea3ace", "fusion_lon": 0.0, "is_reserved": 0, "lon": -77.0288395, "fusion_lat": 0.0, "is_disabled": 0, "bike_id": "2fbe1e43bff6325bf7439ad22dea3ace", "lat": 38.91947116666667, "rental_uris": {"ios": "https://dc.lft.to/lastmile_qr_scan", "android": "https://dc.lft.to/lastmile_qr_scan"}}, {"type": "electric_bike", "name": "e24ce04f5f7f73d81542dc685d76ef71", "fusion_lon": 0.0, "is_reserved": 0, "lon": -77.08402016666666, "fusion_lat": 0.0, "is_disabled": 0, "bike_id": "e24ce04f5f7f73d81542dc685d76ef71", "lat": 38.928904833333334, "rental_uris": {"ios": "https://dc.lft.to/lastmile_qr_scan", "android": "https://dc.lft.to/lastmile_qr_scan"}}, {"type": "electric_scooter", "name": "bda8632d05db24f06e188086447daf2a", "fusion_lon": 0.0, "is_reserved": 0, "lon": -77.02207616666666, "fusion_lat": 0.0, "is_disabled": 0, "bike_id": "bda8632d05db24f06e188086447daf2a", "lat": 38.920396, "rental_uris": {"ios": "https://dc.lft.to/lastmile_qr_scan", "android": "https://dc.lft.to/lastmile_qr_scan"}}, {"type": "electric_scooter", "name": "f2f90e24a5fb0d9c0431871a045142da", "fusion_lon": 0.0, "is_reserved": 0, "lon": -77.01515633333334, "fusion_lat": 0.0, "is_disabled": 0, "bike_id": "f2f90e24a5fb0d9c0431871a045142da", "lat": 38.967827666666665, "rental_uris": {"ios": "https://dc.lft.to/lastmile_qr_scan", "android": "https://dc.lft.to/lastmile_qr_scan"}}, {"type": "electric_scooter", "name": "502e5d1a7ec8e6febbc0e6b4d8b7e4ab", "fusion_lon": 0.0, "is_reserved": 0, "lon": -77.01030966666667, "fusion_lat": 0.0, "is_disabled": 0, "bike_id": "502e5d1a7ec8e6febbc0e6b4d8b7e4ab", "lat": 38.90654583333333, "rental_uris": {"ios": "https://dc.lft.to/lastmile_qr_scan", "android": "https://dc.lft.to/lastmile_qr_scan"}}, {"type": "electric_scooter", "name": "2908e6789e5214d10b8eb638da9514c8", "fusion_lon": 0.0, "is_reserved": 0, "lon": -77.0482525, "fusion_lat": 0.0, "is_disabled": 0, "bike_id": "2908e6789e5214d10b8eb638da9514c8", "lat": 38.91891866666667, "rental_uris": {"ios": "https://dc.lft.to/lastmile_qr_scan", "android": "https://dc.lft.to/lastmile_qr_scan"}}, {"type": "electric_scooter", "name": "550db30eed6a9f0e0ec265efe787a391", "fusion_lon": 0.0, "is_reserved": 0, "lon": -77.0274145, "fusion_lat": 0.0, "is_disabled": 0, "bike_id": "550db30eed6a9f0e0ec265efe787a391", "lat": 38.89446433333333, "rental_uris": {"ios": "https://dc.lft.to/lastmile_qr_scan", "android": "https://dc.lft.to/lastmile_qr_scan"}}, {"type": "electric_scooter", "name": "eb91af6771f014bbf6c74fa915b1ae15", "fusion_lon": 0.0, "is_reserved": 0, "lon": -76.98487666666666, "fusion_lat": 0.0, "is_disabled": 0, "bike_id": "eb91af6771f014bbf6c74fa915b1ae15", "lat": 38.92033166666667, "rental_uris": {"ios": "https://dc.lft.to/lastmile_qr_scan", "android": "https://dc.lft.to/lastmile_qr_scan"}}, {"type": "electric_scooter", "name": "08d03c4478cc0c345dea0072c0aa0cab", "fusion_lon": 0.0, "is_reserved": 0, "lon": -77.033134, "fusion_lat": 0.0, "is_disabled": 0, "bike_id": "08d03c4478cc0c345dea0072c0aa0cab", "lat": 38.903043833333335, "rental_uris": {"ios": "https://dc.lft.to/lastmile_qr_scan", "android": "https://dc.lft.to/lastmile_qr_scan"}}, {"type": "electric_scooter", "name": "4eaf339573fef2892e128e7e675fc04f", "fusion_lon": 0.0, "is_reserved": 0, "lon": -77.029946, "fusion_lat": 0.0, "is_disabled": 0, "bike_id": "4eaf339573fef2892e128e7e675fc04f", "lat": 38.89607633333333, "rental_uris": {"ios": "https://dc.lft.to/lastmile_qr_scan", "android": "https://dc.lft.to/lastmile_qr_scan"}}, {"type": "electric_bike", "name": "b9ba477204db9ada21c83b07889888c8", "fusion_lon": 0.0, "is_reserved": 0, "lon": -76.97616483333333, "fusion_lat": 0.0, "is_disabled": 0, "bike_id": "b9ba477204db9ada21c83b07889888c8", "lat": 38.89293, "rental_uris": {"ios": "https://dc.lft.to/lastmile_qr_scan", "android": "https://dc.lft.to/lastmile_qr_scan"}}, {"type": "electric_scooter", "name": "f1ba14c823c83820f87aebccd433e4ee", "fusion_lon": 0.0, "is_reserved": 0, "lon": -77.025889, "fusion_lat": 0.0, "is_disabled": 0, "bike_id": "f1ba14c823c83820f87aebccd433e4ee", "lat": 38.9181855, "rental_uris": {"ios": "https://dc.lft.to/lastmile_qr_scan", "android": "https://dc.lft.to/lastmile_qr_scan"}}, {"type": "electric_scooter", "name": "53057c90382eccdf850e02cdf2016d7e", "fusion_lon": 0.0, "is_reserved": 0, "lon": -77.03300883333333, "fusion_lat": 0.0, "is_disabled": 0, "bike_id": "53057c90382eccdf850e02cdf2016d7e", "lat": 38.89743383333333, "rental_uris": {"ios": "https://dc.lft.to/lastmile_qr_scan", "android": "https://dc.lft.to/lastmile_qr_scan"}}, {"type": "electric_scooter", "name": "423b4550fad22bd3b646f19e01bd6089", "fusion_lon": 0.0, "is_reserved": 0, "lon": -77.01825633333333, "fusion_lat": 0.0, "is_disabled": 0, "bike_id": "423b4550fad22bd3b646f19e01bd6089", "lat": 38.92270216666667, "rental_uris": {"ios": "https://dc.lft.to/lastmile_qr_scan", "android": "https://dc.lft.to/lastmile_qr_scan"}}, {"type": "electric_scooter", "name": "f4b2843ff9015380136f822afce84fe6", "fusion_lon": 0.0, "is_reserved": 0, "lon": -77.02352366666666, "fusion_lat": 0.0, "is_disabled": 0, "bike_id": "f4b2843ff9015380136f822afce84fe6", "lat": 38.89221633333333, "rental_uris": {"ios": "https://dc.lft.to/lastmile_qr_scan", "android": "https://dc.lft.to/lastmile_qr_scan"}}, {"type": "electric_scooter", "name": "0701eac822494cfba6f8230541da77d4", "fusion_lon": 0.0, "is_reserved": 0, "lon": -77.00710216666667, "fusion_lat": 0.0, "is_disabled": 0, "bike_id": "0701eac822494cfba6f8230541da77d4", "lat": 38.8849025, "rental_uris": {"ios": "https://dc.lft.to/lastmile_qr_scan", "android": "https://dc.lft.to/lastmile_qr_scan"}}, {"type": "electric_scooter", "name": "55a966c62a962d9cde8f6b039a5ce68e", "fusion_lon": 0.0, "is_reserved": 0, "lon": -77.03387466666666, "fusion_lat": 0.0, "is_disabled": 0, "bike_id": "55a966c62a962d9cde8f6b039a5ce68e", "lat": 38.938267333333336, "rental_uris": {"ios": "https://dc.lft.to/lastmile_qr_scan", "android": "https://dc.lft.to/lastmile_qr_scan"}}, {"type": "electric_scooter", "name": "f3152243db96fd125d40b960f3a17d5e", "fusion_lon": 0.0, "is_reserved": 0, "lon": -77.04784816666667, "fusion_lat": 0.0, "is_disabled": 0, "bike_id": "f3152243db96fd125d40b960f3a17d5e", "lat": 38.893690666666664, "rental_uris": {"ios": "https://dc.lft.to/lastmile_qr_scan", "android": "https://dc.lft.to/lastmile_qr_scan"}}, {"type": "electric_scooter", "name": "b6f37b8fea1e18aa08fa503924da17fa", "fusion_lon": 0.0, "is_reserved": 0, "lon": -77.05249616666667, "fusion_lat": 0.0, "is_disabled": 0, "bike_id": "b6f37b8fea1e18aa08fa503924da17fa", "lat": 38.92516116666667, "rental_uris": {"ios": "https://dc.lft.to/lastmile_qr_scan", "android": "https://dc.lft.to/lastmile_qr_scan"}}, {"type": "electric_scooter", "name": "71f5bee8b5df7846575c278e29e5cce1", "fusion_lon": 0.0, "is_reserved": 0, "lon": -77.01476916666667, "fusion_lat": 0.0, "is_disabled": 0, "bike_id": "71f5bee8b5df7846575c278e29e5cce1", "lat": 38.920634, "rental_uris": {"ios": "https://dc.lft.to/lastmile_qr_scan", "android": "https://dc.lft.to/lastmile_qr_scan"}}, {"type": "electric_scooter", "name": "89807447cb79f8f8f476e21e4f8265a2", "fusion_lon": 0.0, "is_reserved": 0, "lon": -77.04503866666667, "fusion_lat": 0.0, "is_disabled": 0, "bike_id": "89807447cb79f8f8f476e21e4f8265a2", "lat": 38.92227, "rental_uris": {"ios": "https://dc.lft.to/lastmile_qr_scan", "android": "https://dc.lft.to/lastmile_qr_scan"}}, {"type": "electric_scooter", "name": "e8c45a7995d27d0e64d01db4a81e982c", "fusion_lon": 0.0, "is_reserved": 0, "lon": -77.03140383333333, "fusion_lat": 0.0, "is_disabled": 0, "bike_id": "e8c45a7995d27d0e64d01db4a81e982c", "lat": 38.883031833333334, "rental_uris": {"ios": "https://dc.lft.to/lastmile_qr_scan", "android": "https://dc.lft.to/lastmile_qr_scan"}}, {"type": "electric_scooter", "name": "eec8b60fef7ed234e86c52904c911091", "fusion_lon": 0.0, "is_reserved": 0, "lon": -77.03719683333334, "fusion_lat": 0.0, "is_disabled": 0, "bike_id": "eec8b60fef7ed234e86c52904c911091", "lat": 38.906374666666665, "rental_uris": {"ios": "https://dc.lft.to/lastmile_qr_scan", "android": "https://dc.lft.to/lastmile_qr_scan"}}, {"type": "electric_scooter", "name": "602d61ced8b78c1ed19680d715458283", "fusion_lon": 0.0, "is_reserved": 0, "lon": -77.021583, "fusion_lat": 0.0, "is_disabled": 0, "bike_id": "602d61ced8b78c1ed19680d715458283", "lat": 38.92438416666667, "rental_uris": {"ios": "https://dc.lft.to/lastmile_qr_scan", "android": "https://dc.lft.to/lastmile_qr_scan"}}, {"type": "electric_scooter", "name": "4466a5ab2de09224357e994cf3df0ca9", "fusion_lon": 0.0, "is_reserved": 0, "lon": -76.94651133333333, "fusion_lat": 0.0, "is_disabled": 0, "bike_id": "4466a5ab2de09224357e994cf3df0ca9", "lat": 38.89822866666667, "rental_uris": {"ios": "https://dc.lft.to/lastmile_qr_scan", "android": "https://dc.lft.to/lastmile_qr_scan"}}, {"type": "electric_bike", "name": "db1d9ab4858445d8c21e1f2622473050", "fusion_lon": 0.0, "is_reserved": 0, "lon": -77.04978633333333, "fusion_lat": 0.0, "is_disabled": 0, "bike_id": "db1d9ab4858445d8c21e1f2622473050", "lat": 39.062963833333335, "rental_uris": {"ios": "https://dc.lft.to/lastmile_qr_scan", "android": "https://dc.lft.to/lastmile_qr_scan"}}, {"type": "electric_scooter", "name": "671d8d80517cde0b50ff298ae582b3d3", "fusion_lon": 0.0, "is_reserved": 0, "lon": -77.01952883333334, "fusion_lat": 0.0, "is_disabled": 0, "bike_id": "671d8d80517cde0b50ff298ae582b3d3", "lat": 38.92314916666667, "rental_uris": {"ios": "https://dc.lft.to/lastmile_qr_scan", "android": "https://dc.lft.to/lastmile_qr_scan"}}, {"type": "electric_scooter", "name": "9fe4cf5da5f78f52d80ecb6b85a77965", "fusion_lon": 0.0, "is_reserved": 0, "lon": -77.02351166666666, "fusion_lat": 0.0, "is_disabled": 0, "bike_id": "9fe4cf5da5f78f52d80ecb6b85a77965", "lat": 38.892214, "rental_uris": {"ios": "https://dc.lft.to/lastmile_qr_scan", "android": "https://dc.lft.to/lastmile_qr_scan"}}, {"type": "electric_scooter", "name": "69b705ed07ed486a818129d4d57f92e8", "fusion_lon": 0.0, "is_reserved": 0, "lon": -77.0684415, "fusion_lat": 0.0, "is_disabled": 0, "bike_id": "69b705ed07ed486a818129d4d57f92e8", "lat": 38.917217, "rental_uris": {"ios": "https://dc.lft.to/lastmile_qr_scan", "android": "https://dc.lft.to/lastmile_qr_scan"}}, {"type": "electric_scooter", "name": "f9b3a5b24404b03229b2172284a97371", "fusion_lon": 0.0, "is_reserved": 0, "lon": -76.93388066666667, "fusion_lat": 0.0, "is_disabled": 0, "bike_id": "f9b3a5b24404b03229b2172284a97371", "lat": 38.8991505, "rental_uris": {"ios": "https://dc.lft.to/lastmile_qr_scan", "android": "https://dc.lft.to/lastmile_qr_scan"}}, {"type": "electric_scooter", "name": "c854774a18f3ce0de5578874249986cf", "fusion_lon": 0.0, "is_reserved": 0, "lon": -77.03124366666667, "fusion_lat": 0.0, "is_disabled": 0, "bike_id": "c854774a18f3ce0de5578874249986cf", "lat": 38.920205833333334, "rental_uris": {"ios": "https://dc.lft.to/lastmile_qr_scan", "android": "https://dc.lft.to/lastmile_qr_scan"}}, {"type": "electric_scooter", "name": "8211aa4787cab4e17d51b1ac62c5e6c0", "fusion_lon": 0.0, "is_reserved": 0, "lon": -77.03307066666666, "fusion_lat": 0.0, "is_disabled": 0, "bike_id": "8211aa4787cab4e17d51b1ac62c5e6c0", "lat": 38.9169665, "rental_uris": {"ios": "https://dc.lft.to/lastmile_qr_scan", "android": "https://dc.lft.to/lastmile_qr_scan"}}, {"type": "electric_scooter", "name": "e8c080847cff44a33d97f0c79a7b5d87", "fusion_lon": 0.0, "is_reserved": 0, "lon": -77.043479, "fusion_lat": 0.0, "is_disabled": 0, "bike_id": "e8c080847cff44a33d97f0c79a7b5d87", "lat": 38.904232, "rental_uris": {"ios": "https://dc.lft.to/lastmile_qr_scan", "android": "https://dc.lft.to/lastmile_qr_scan"}}, {"type": "electric_scooter", "name": "18819e21d52713b141b3902bc94bffd0", "fusion_lon": 0.0, "is_reserved": 0, "lon": -77.02963316666667, "fusion_lat": 0.0, "is_disabled": 0, "bike_id": "18819e21d52713b141b3902bc94bffd0", "lat": 38.954994, "rental_uris": {"ios": "https://dc.lft.to/lastmile_qr_scan", "android": "https://dc.lft.to/lastmile_qr_scan"}}, {"type": "electric_scooter", "name": "7873f98ee6b6bc4284571b844ca83b86", "fusion_lon": 0.0, "is_reserved": 0, "lon": -77.02205983333333, "fusion_lat": 0.0, "is_disabled": 0, "bike_id": "7873f98ee6b6bc4284571b844ca83b86", "lat": 38.892339, "rental_uris": {"ios": "https://dc.lft.to/lastmile_qr_scan", "android": "https://dc.lft.to/lastmile_qr_scan"}}, {"type": "electric_scooter", "name": "073c641e153bd258cc379fe273cac5f6", "fusion_lon": 0.0, "is_reserved": 0, "lon": -77.03379866666667, "fusion_lat": 0.0, "is_disabled": 0, "bike_id": "073c641e153bd258cc379fe273cac5f6", "lat": 38.92160416666667, "rental_uris": {"ios": "https://dc.lft.to/lastmile_qr_scan", "android": "https://dc.lft.to/lastmile_qr_scan"}}, {"type": "electric_scooter", "name": "59e32409afc9ef905fa4bd87bad79fba", "fusion_lon": 0.0, "is_reserved": 0, "lon": -77.06898033333333, "fusion_lat": 0.0, "is_disabled": 0, "bike_id": "59e32409afc9ef905fa4bd87bad79fba", "lat": 38.90635283333334, "rental_uris": {"ios": "https://dc.lft.to/lastmile_qr_scan", "android": "https://dc.lft.to/lastmile_qr_scan"}}, {"type": "electric_scooter", "name": "6b0319d55802b00eba721fe6bb84afd5", "fusion_lon": 0.0, "is_reserved": 0, "lon": -77.04058566666667, "fusion_lat": 0.0, "is_disabled": 0, "bike_id": "6b0319d55802b00eba721fe6bb84afd5", "lat": 38.923956833333335, "rental_uris": {"ios": "https://dc.lft.to/lastmile_qr_scan", "android": "https://dc.lft.to/lastmile_qr_scan"}}, {"type": "electric_scooter", "name": "476dbe8093b89c9650e8acee9fa53f7b", "fusion_lon": 0.0, "is_reserved": 0, "lon": -77.045368, "fusion_lat": 0.0, "is_disabled": 0, "bike_id": "476dbe8093b89c9650e8acee9fa53f7b", "lat": 38.900680333333334, "rental_uris": {"ios": "https://dc.lft.to/lastmile_qr_scan", "android": "https://dc.lft.to/lastmile_qr_scan"}}, {"type": "electric_scooter", "name": "190f60215dd1e93634c4bb9846b3d61d", "fusion_lon": 0.0, "is_reserved": 0, "lon": -77.02648633333334, "fusion_lat": 0.0, "is_disabled": 0, "bike_id": "190f60215dd1e93634c4bb9846b3d61d", "lat": 38.93095183333333, "rental_uris": {"ios": "https://dc.lft.to/lastmile_qr_scan", "android": "https://dc.lft.to/lastmile_qr_scan"}}, {"type": "electric_scooter", "name": "55cb5e51e432b73d26bd5a1bee5a97fe", "fusion_lon": 0.0, "is_reserved": 0, "lon": -77.03638666666667, "fusion_lat": 0.0, "is_disabled": 0, "bike_id": "55cb5e51e432b73d26bd5a1bee5a97fe", "lat": 38.91713933333333, "rental_uris": {"ios": "https://dc.lft.to/lastmile_qr_scan", "android": "https://dc.lft.to/lastmile_qr_scan"}}, {"type": "electric_scooter", "name": "dfdb7f0b9a30cff8d9a604417eae4bcc", "fusion_lon": 0.0, "is_reserved": 0, "lon": -76.97330633333334, "fusion_lat": 0.0, "is_disabled": 0, "bike_id": "dfdb7f0b9a30cff8d9a604417eae4bcc", "lat": 38.90407583333333, "rental_uris": {"ios": "https://dc.lft.to/lastmile_qr_scan", "android": "https://dc.lft.to/lastmile_qr_scan"}}, {"type": "electric_scooter", "name": "cc90175059078b56277d0e8e05fdd97d", "fusion_lon": 0.0, "is_reserved": 0, "lon": -77.04181783333334, "fusion_lat": 0.0, "is_disabled": 0, "bike_id": "cc90175059078b56277d0e8e05fdd97d", "lat": 38.90637433333333, "rental_uris": {"ios": "https://dc.lft.to/lastmile_qr_scan", "android": "https://dc.lft.to/lastmile_qr_scan"}}, {"type": "electric_scooter", "name": "bc0234ab332f9accbe0bdfab171258ce", "fusion_lon": 0.0, "is_reserved": 0, "lon": -77.02212316666666, "fusion_lat": 0.0, "is_disabled": 0, "bike_id": "bc0234ab332f9accbe0bdfab171258ce", "lat": 38.887392, "rental_uris": {"ios": "https://dc.lft.to/lastmile_qr_scan", "android": "https://dc.lft.to/lastmile_qr_scan"}}, {"type": "electric_scooter", "name": "d4ef8d7ecab8d2abf15fe9f8fa2c0fd2", "fusion_lon": 0.0, "is_reserved": 0, "lon": -77.046796, "fusion_lat": 0.0, "is_disabled": 0, "bike_id": "d4ef8d7ecab8d2abf15fe9f8fa2c0fd2", "lat": 38.89509816666666, "rental_uris": {"ios": "https://dc.lft.to/lastmile_qr_scan", "android": "https://dc.lft.to/lastmile_qr_scan"}}, {"type": "electric_scooter", "name": "26bd71f252a70890b5d3e04e92bce353", "fusion_lon": 0.0, "is_reserved": 0, "lon": -77.033008, "fusion_lat": 0.0, "is_disabled": 0, "bike_id": "26bd71f252a70890b5d3e04e92bce353", "lat": 38.928509166666664, "rental_uris": {"ios": "https://dc.lft.to/lastmile_qr_scan", "android": "https://dc.lft.to/lastmile_qr_scan"}}, {"type": "electric_scooter", "name": "506ade7d07122777a52e22bc430f526b", "fusion_lon": 0.0, "is_reserved": 0, "lon": -77.0385005, "fusion_lat": 0.0, "is_disabled": 0, "bike_id": "506ade7d07122777a52e22bc430f526b", "lat": 38.906897, "rental_uris": {"ios": "https://dc.lft.to/lastmile_qr_scan", "android": "https://dc.lft.to/lastmile_qr_scan"}}, {"type": "electric_scooter", "name": "9d57eb41f914cfd6983530afb88ff591", "fusion_lon": 0.0, "is_reserved": 0, "lon": -77.0418505, "fusion_lat": 0.0, "is_disabled": 0, "bike_id": "9d57eb41f914cfd6983530afb88ff591", "lat": 38.90240033333333, "rental_uris": {"ios": "https://dc.lft.to/lastmile_qr_scan", "android": "https://dc.lft.to/lastmile_qr_scan"}}, {"type": "electric_scooter", "name": "2fcd1e6130012dbe2c4fe30aecee7807", "fusion_lon": 0.0, "is_reserved": 0, "lon": -77.01666916666667, "fusion_lat": 0.0, "is_disabled": 0, "bike_id": "2fcd1e6130012dbe2c4fe30aecee7807", "lat": 38.881075, "rental_uris": {"ios": "https://dc.lft.to/lastmile_qr_scan", "android": "https://dc.lft.to/lastmile_qr_scan"}}, {"type": "electric_scooter", "name": "2997d03b6a21adcfb6408c35fe18514d", "fusion_lon": 0.0, "is_reserved": 0, "lon": -77.0476195, "fusion_lat": 0.0, "is_disabled": 0, "bike_id": "2997d03b6a21adcfb6408c35fe18514d", "lat": 38.9187235, "rental_uris": {"ios": "https://dc.lft.to/lastmile_qr_scan", "android": "https://dc.lft.to/lastmile_qr_scan"}}, {"type": "electric_scooter", "name": "5428a18691614a2566b8f94041e7c119", "fusion_lon": 0.0, "is_reserved": 0, "lon": -77.0386535, "fusion_lat": 0.0, "is_disabled": 0, "bike_id": "5428a18691614a2566b8f94041e7c119", "lat": 38.90832316666667, "rental_uris": {"ios": "https://dc.lft.to/lastmile_qr_scan", "android": "https://dc.lft.to/lastmile_qr_scan"}}, {"type": "electric_scooter", "name": "1f4851e1f4034ae4bc0d4587b9c7d0d4", "fusion_lon": 0.0, "is_reserved": 0, "lon": -76.99101466666667, "fusion_lat": 0.0, "is_disabled": 0, "bike_id": "1f4851e1f4034ae4bc0d4587b9c7d0d4", "lat": 38.88597566666667, "rental_uris": {"ios": "https://dc.lft.to/lastmile_qr_scan", "android": "https://dc.lft.to/lastmile_qr_scan"}}, {"type": "electric_scooter", "name": "9216469487a59d41d5a617908814dfe1", "fusion_lon": 0.0, "is_reserved": 0, "lon": -77.0145145, "fusion_lat": 0.0, "is_disabled": 0, "bike_id": "9216469487a59d41d5a617908814dfe1", "lat": 38.8796575, "rental_uris": {"ios": "https://dc.lft.to/lastmile_qr_scan", "android": "https://dc.lft.to/lastmile_qr_scan"}}, {"type": "electric_scooter", "name": "fd9835fe5baf6a2635ceb05156f13fd6", "fusion_lon": 0.0, "is_reserved": 0, "lon": -77.022009, "fusion_lat": 0.0, "is_disabled": 0, "bike_id": "fd9835fe5baf6a2635ceb05156f13fd6", "lat": 38.916156, "rental_uris": {"ios": "https://dc.lft.to/lastmile_qr_scan", "android": "https://dc.lft.to/lastmile_qr_scan"}}, {"type": "electric_scooter", "name": "f3cb656a4383751beaadcfc805b655cd", "fusion_lon": 0.0, "is_reserved": 0, "lon": -77.0455505, "fusion_lat": 0.0, "is_disabled": 0, "bike_id": "f3cb656a4383751beaadcfc805b655cd", "lat": 38.896067, "rental_uris": {"ios": "https://dc.lft.to/lastmile_qr_scan", "android": "https://dc.lft.to/lastmile_qr_scan"}}, {"type": "electric_scooter", "name": "306492b29950f388160cef12ecc1eb36", "fusion_lon": 0.0, "is_reserved": 0, "lon": -77.04129516666667, "fusion_lat": 0.0, "is_disabled": 0, "bike_id": "306492b29950f388160cef12ecc1eb36", "lat": 38.905502166666665, "rental_uris": {"ios": "https://dc.lft.to/lastmile_qr_scan", "android": "https://dc.lft.to/lastmile_qr_scan"}}, {"type": "electric_scooter", "name": "c4e3f943a6af203fc0be7e545f5a412a", "fusion_lon": 0.0, "is_reserved": 0, "lon": -76.99344, "fusion_lat": 0.0, "is_disabled": 0, "bike_id": "c4e3f943a6af203fc0be7e545f5a412a", "lat": 38.91033866666667, "rental_uris": {"ios": "https://dc.lft.to/lastmile_qr_scan", "android": "https://dc.lft.to/lastmile_qr_scan"}}, {"type": "electric_scooter", "name": "2a5b97adb0dd8c9deced80f3287432bb", "fusion_lon": 0.0, "is_reserved": 0, "lon": -77.02983866666666, "fusion_lat": 0.0, "is_disabled": 0, "bike_id": "2a5b97adb0dd8c9deced80f3287432bb", "lat": 38.92051566666667, "rental_uris": {"ios": "https://dc.lft.to/lastmile_qr_scan", "android": "https://dc.lft.to/lastmile_qr_scan"}}, {"type": "electric_scooter", "name": "ba0d109f78992da22271f77d561d4754", "fusion_lon": 0.0, "is_reserved": 0, "lon": -77.02748766666667, "fusion_lat": 0.0, "is_disabled": 0, "bike_id": "ba0d109f78992da22271f77d561d4754", "lat": 38.939621, "rental_uris": {"ios": "https://dc.lft.to/lastmile_qr_scan", "android": "https://dc.lft.to/lastmile_qr_scan"}}, {"type": "electric_scooter", "name": "6db16173d6a8e2ca45dcffe465b0232b", "fusion_lon": 0.0, "is_reserved": 0, "lon": -76.996209, "fusion_lat": 0.0, "is_disabled": 0, "bike_id": "6db16173d6a8e2ca45dcffe465b0232b", "lat": 38.885893, "rental_uris": {"ios": "https://dc.lft.to/lastmile_qr_scan", "android": "https://dc.lft.to/lastmile_qr_scan"}}, {"type": "electric_scooter", "name": "ad310db10213d1e9b5d2203d9a9850fb", "fusion_lon": 0.0, "is_reserved": 0, "lon": -77.0550485, "fusion_lat": 0.0, "is_disabled": 0, "bike_id": "ad310db10213d1e9b5d2203d9a9850fb", "lat": 38.92948466666667, "rental_uris": {"ios": "https://dc.lft.to/lastmile_qr_scan", "android": "https://dc.lft.to/lastmile_qr_scan"}}, {"type": "electric_scooter", "name": "d984a91431bdbac882dd42a305ea5492", "fusion_lon": 0.0, "is_reserved": 0, "lon": -77.057475, "fusion_lat": 0.0, "is_disabled": 0, "bike_id": "d984a91431bdbac882dd42a305ea5492", "lat": 38.9353725, "rental_uris": {"ios": "https://dc.lft.to/lastmile_qr_scan", "android": "https://dc.lft.to/lastmile_qr_scan"}}, {"type": "electric_scooter", "name": "a43673efbc693cec38a292309e4263ae", "fusion_lon": 0.0, "is_reserved": 0, "lon": -77.04264033333334, "fusion_lat": 0.0, "is_disabled": 0, "bike_id": "a43673efbc693cec38a292309e4263ae", "lat": 38.89221166666667, "rental_uris": {"ios": "https://dc.lft.to/lastmile_qr_scan", "android": "https://dc.lft.to/lastmile_qr_scan"}}, {"type": "electric_scooter", "name": "3094681bcf368faa151036b51d36a532", "fusion_lon": 0.0, "is_reserved": 0, "lon": -77.029634, "fusion_lat": 0.0, "is_disabled": 0, "bike_id": "3094681bcf368faa151036b51d36a532", "lat": 38.9172155, "rental_uris": {"ios": "https://dc.lft.to/lastmile_qr_scan", "android": "https://dc.lft.to/lastmile_qr_scan"}}, {"type": "electric_scooter", "name": "fc005d4143dbe3d38b81d109bc6e8047", "fusion_lon": 0.0, "is_reserved": 0, "lon": -77.043117, "fusion_lat": 0.0, "is_disabled": 0, "bike_id": "fc005d4143dbe3d38b81d109bc6e8047", "lat": 38.923288666666664, "rental_uris": {"ios": "https://dc.lft.to/lastmile_qr_scan", "android": "https://dc.lft.to/lastmile_qr_scan"}}, {"type": "electric_scooter", "name": "cf93cf3c22806d0b6cd178bb75538b30", "fusion_lon": 0.0, "is_reserved": 0, "lon": -76.93084633333333, "fusion_lat": 0.0, "is_disabled": 0, "bike_id": "cf93cf3c22806d0b6cd178bb75538b30", "lat": 38.87793533333333, "rental_uris": {"ios": "https://dc.lft.to/lastmile_qr_scan", "android": "https://dc.lft.to/lastmile_qr_scan"}}, {"type": "electric_scooter", "name": "3a641ea994c7378696102d0f640e59e0", "fusion_lon": 0.0, "is_reserved": 0, "lon": -77.03942066666667, "fusion_lat": 0.0, "is_disabled": 0, "bike_id": "3a641ea994c7378696102d0f640e59e0", "lat": 38.908187166666664, "rental_uris": {"ios": "https://dc.lft.to/lastmile_qr_scan", "android": "https://dc.lft.to/lastmile_qr_scan"}}, {"type": "electric_scooter", "name": "019c69e89e09cf58e4d72e6f70d67294", "fusion_lon": 0.0, "is_reserved": 0, "lon": -77.01948716666666, "fusion_lat": 0.0, "is_disabled": 0, "bike_id": "019c69e89e09cf58e4d72e6f70d67294", "lat": 38.922583, "rental_uris": {"ios": "https://dc.lft.to/lastmile_qr_scan", "android": "https://dc.lft.to/lastmile_qr_scan"}}, {"type": "electric_scooter", "name": "a30e0a986b48f86bc9b186f16113906d", "fusion_lon": 0.0, "is_reserved": 0, "lon": -77.05609066666666, "fusion_lat": 0.0, "is_disabled": 0, "bike_id": "a30e0a986b48f86bc9b186f16113906d", "lat": 38.931678833333336, "rental_uris": {"ios": "https://dc.lft.to/lastmile_qr_scan", "android": "https://dc.lft.to/lastmile_qr_scan"}}, {"type": "electric_scooter", "name": "1877a9c8b3831892dc838d6d6e923eef", "fusion_lon": 0.0, "is_reserved": 0, "lon": -77.0185395, "fusion_lat": 0.0, "is_disabled": 0, "bike_id": "1877a9c8b3831892dc838d6d6e923eef", "lat": 38.914957, "rental_uris": {"ios": "https://dc.lft.to/lastmile_qr_scan", "android": "https://dc.lft.to/lastmile_qr_scan"}}, {"type": "electric_scooter", "name": "de84cd184d950da627514a13b6ec85f6", "fusion_lon": 0.0, "is_reserved": 0, "lon": -77.039934, "fusion_lat": 0.0, "is_disabled": 0, "bike_id": "de84cd184d950da627514a13b6ec85f6", "lat": 38.902685166666664, "rental_uris": {"ios": "https://dc.lft.to/lastmile_qr_scan", "android": "https://dc.lft.to/lastmile_qr_scan"}}, {"type": "electric_scooter", "name": "c844d255c114ba765ca89486dd79e9bf", "fusion_lon": 0.0, "is_reserved": 0, "lon": -77.02093616666667, "fusion_lat": 0.0, "is_disabled": 0, "bike_id": "c844d255c114ba765ca89486dd79e9bf", "lat": 38.93263666666667, "rental_uris": {"ios": "https://dc.lft.to/lastmile_qr_scan", "android": "https://dc.lft.to/lastmile_qr_scan"}}, {"type": "electric_scooter", "name": "7c1084138a490ba14bff99458d06e163", "fusion_lon": 0.0, "is_reserved": 0, "lon": -77.00710316666667, "fusion_lat": 0.0, "is_disabled": 0, "bike_id": "7c1084138a490ba14bff99458d06e163", "lat": 38.900349, "rental_uris": {"ios": "https://dc.lft.to/lastmile_qr_scan", "android": "https://dc.lft.to/lastmile_qr_scan"}}, {"type": "electric_scooter", "name": "c566d97f1736e42eeb60c0365e7a4eca", "fusion_lon": 0.0, "is_reserved": 0, "lon": -77.02596916666667, "fusion_lat": 0.0, "is_disabled": 0, "bike_id": "c566d97f1736e42eeb60c0365e7a4eca", "lat": 38.916915333333336, "rental_uris": {"ios": "https://dc.lft.to/lastmile_qr_scan", "android": "https://dc.lft.to/lastmile_qr_scan"}}, {"type": "electric_scooter", "name": "c33585676785930f825cb7df6c962b39", "fusion_lon": 0.0, "is_reserved": 0, "lon": -77.0446565, "fusion_lat": 0.0, "is_disabled": 0, "bike_id": "c33585676785930f825cb7df6c962b39", "lat": 38.91107366666667, "rental_uris": {"ios": "https://dc.lft.to/lastmile_qr_scan", "android": "https://dc.lft.to/lastmile_qr_scan"}}, {"type": "electric_scooter", "name": "24a5409b886c2eb7abd82c856b22a390", "fusion_lon": 0.0, "is_reserved": 0, "lon": -77.01215066666667, "fusion_lat": 0.0, "is_disabled": 0, "bike_id": "24a5409b886c2eb7abd82c856b22a390", "lat": 38.864271333333335, "rental_uris": {"ios": "https://dc.lft.to/lastmile_qr_scan", "android": "https://dc.lft.to/lastmile_qr_scan"}}, {"type": "electric_scooter", "name": "827327b656177c764fa881e808b3a35d", "fusion_lon": 0.0, "is_reserved": 0, "lon": -77.03879583333334, "fusion_lat": 0.0, "is_disabled": 0, "bike_id": "827327b656177c764fa881e808b3a35d", "lat": 38.922728, "rental_uris": {"ios": "https://dc.lft.to/lastmile_qr_scan", "android": "https://dc.lft.to/lastmile_qr_scan"}}, {"type": "electric_scooter", "name": "d5fab3aa5fe2f708e335313910691900", "fusion_lon": 0.0, "is_reserved": 0, "lon": -77.03122266666666, "fusion_lat": 0.0, "is_disabled": 0, "bike_id": "d5fab3aa5fe2f708e335313910691900", "lat": 38.91921, "rental_uris": {"ios": "https://dc.lft.to/lastmile_qr_scan", "android": "https://dc.lft.to/lastmile_qr_scan"}}, {"type": "electric_scooter", "name": "fdac572f64615ce6fb382238cd530570", "fusion_lon": 0.0, "is_reserved": 0, "lon": -77.03485483333333, "fusion_lat": 0.0, "is_disabled": 0, "bike_id": "fdac572f64615ce6fb382238cd530570", "lat": 38.908555, "rental_uris": {"ios": "https://dc.lft.to/lastmile_qr_scan", "android": "https://dc.lft.to/lastmile_qr_scan"}}, {"type": "electric_scooter", "name": "245eb7a8e4ac49fed4b0085d9164e766", "fusion_lon": 0.0, "is_reserved": 0, "lon": -77.0209215, "fusion_lat": 0.0, "is_disabled": 0, "bike_id": "245eb7a8e4ac49fed4b0085d9164e766", "lat": 38.9190095, "rental_uris": {"ios": "https://dc.lft.to/lastmile_qr_scan", "android": "https://dc.lft.to/lastmile_qr_scan"}}, {"type": "electric_bike", "name": "dcf8de4c70d917cdff1c3f168decd720", "fusion_lon": 0.0, "is_reserved": 0, "lon": -77.09030016666667, "fusion_lat": 0.0, "is_disabled": 0, "bike_id": "dcf8de4c70d917cdff1c3f168decd720", "lat": 38.9361, "rental_uris": {"ios": "https://dc.lft.to/lastmile_qr_scan", "android": "https://dc.lft.to/lastmile_qr_scan"}}, {"type": "electric_scooter", "name": "90f3bb494f259c9efead8665b75b61fa", "fusion_lon": 0.0, "is_reserved": 0, "lon": -77.03190233333333, "fusion_lat": 0.0, "is_disabled": 0, "bike_id": "90f3bb494f259c9efead8665b75b61fa", "lat": 38.915881666666664, "rental_uris": {"ios": "https://dc.lft.to/lastmile_qr_scan", "android": "https://dc.lft.to/lastmile_qr_scan"}}, {"type": "electric_scooter", "name": "c6decf89d6d0f9d318c9905a085cc131", "fusion_lon": 0.0, "is_reserved": 0, "lon": -77.03813233333334, "fusion_lat": 0.0, "is_disabled": 0, "bike_id": "c6decf89d6d0f9d318c9905a085cc131", "lat": 38.93098466666667, "rental_uris": {"ios": "https://dc.lft.to/lastmile_qr_scan", "android": "https://dc.lft.to/lastmile_qr_scan"}}, {"type": "electric_bike", "name": "5d089aa2d3f7196946c3f07fc8be8a8d", "fusion_lon": 0.0, "is_reserved": 0, "lon": -77.07051466666667, "fusion_lat": 0.0, "is_disabled": 0, "bike_id": "5d089aa2d3f7196946c3f07fc8be8a8d", "lat": 38.80127366666667, "rental_uris": {"ios": "https://dc.lft.to/lastmile_qr_scan", "android": "https://dc.lft.to/lastmile_qr_scan"}}, {"type": "electric_scooter", "name": "ba7d15c3a7fb0fb6839afcafb96adffb", "fusion_lon": 0.0, "is_reserved": 0, "lon": -77.0418685, "fusion_lat": 0.0, "is_disabled": 0, "bike_id": "ba7d15c3a7fb0fb6839afcafb96adffb", "lat": 38.898541333333334, "rental_uris": {"ios": "https://dc.lft.to/lastmile_qr_scan", "android": "https://dc.lft.to/lastmile_qr_scan"}}, {"type": "electric_scooter", "name": "46d803a7f740bf847ce0eda8dffd3664", "fusion_lon": 0.0, "is_reserved": 0, "lon": -77.00219166666666, "fusion_lat": 0.0, "is_disabled": 0, "bike_id": "46d803a7f740bf847ce0eda8dffd3664", "lat": 38.90026016666667, "rental_uris": {"ios": "https://dc.lft.to/lastmile_qr_scan", "android": "https://dc.lft.to/lastmile_qr_scan"}}, {"type": "electric_scooter", "name": "8de5d351eeb61e3111e71cacabdcba01", "fusion_lon": 0.0, "is_reserved": 0, "lon": -77.05255866666667, "fusion_lat": 0.0, "is_disabled": 0, "bike_id": "8de5d351eeb61e3111e71cacabdcba01", "lat": 38.925114666666666, "rental_uris": {"ios": "https://dc.lft.to/lastmile_qr_scan", "android": "https://dc.lft.to/lastmile_qr_scan"}}, {"type": "electric_scooter", "name": "417f3896d7c97323d62617b51cd29237", "fusion_lon": 0.0, "is_reserved": 0, "lon": -76.93735216666667, "fusion_lat": 0.0, "is_disabled": 0, "bike_id": "417f3896d7c97323d62617b51cd29237", "lat": 38.8901775, "rental_uris": {"ios": "https://dc.lft.to/lastmile_qr_scan", "android": "https://dc.lft.to/lastmile_qr_scan"}}, {"type": "electric_bike", "name": "19ead166656e18dac415ad6d1eb0269a", "fusion_lon": 0.0, "is_reserved": 0, "lon": -77.0117695, "fusion_lat": 0.0, "is_disabled": 0, "bike_id": "19ead166656e18dac415ad6d1eb0269a", "lat": 38.9118295, "rental_uris": {"ios": "https://dc.lft.to/lastmile_qr_scan", "android": "https://dc.lft.to/lastmile_qr_scan"}}, {"type": "electric_scooter", "name": "08754e4508760c4b825cb7dc69b6ddb4", "fusion_lon": 0.0, "is_reserved": 0, "lon": -77.01456166666667, "fusion_lat": 0.0, "is_disabled": 0, "bike_id": "08754e4508760c4b825cb7dc69b6ddb4", "lat": 38.92663683333333, "rental_uris": {"ios": "https://dc.lft.to/lastmile_qr_scan", "android": "https://dc.lft.to/lastmile_qr_scan"}}, {"type": "electric_scooter", "name": "bb1a549899a2d54d2ffd5e80986093b9", "fusion_lon": 0.0, "is_reserved": 0, "lon": -76.9926975, "fusion_lat": 0.0, "is_disabled": 0, "bike_id": "bb1a549899a2d54d2ffd5e80986093b9", "lat": 38.910833833333335, "rental_uris": {"ios": "https://dc.lft.to/lastmile_qr_scan", "android": "https://dc.lft.to/lastmile_qr_scan"}}, {"type": "electric_scooter", "name": "ce481127cf2205470043f3da4fb2e31a", "fusion_lon": 0.0, "is_reserved": 0, "lon": -77.03995883333333, "fusion_lat": 0.0, "is_disabled": 0, "bike_id": "ce481127cf2205470043f3da4fb2e31a", "lat": 38.92462833333333, "rental_uris": {"ios": "https://dc.lft.to/lastmile_qr_scan", "android": "https://dc.lft.to/lastmile_qr_scan"}}, {"type": "electric_scooter", "name": "697c4ac254e3cae17497506383fea757", "fusion_lon": 0.0, "is_reserved": 0, "lon": -77.000309, "fusion_lat": 0.0, "is_disabled": 0, "bike_id": "697c4ac254e3cae17497506383fea757", "lat": 38.876420333333336, "rental_uris": {"ios": "https://dc.lft.to/lastmile_qr_scan", "android": "https://dc.lft.to/lastmile_qr_scan"}}, {"type": "electric_scooter", "name": "4e68345a499db8e71dae5ba87d30ffeb", "fusion_lon": 0.0, "is_reserved": 0, "lon": -77.03196283333334, "fusion_lat": 0.0, "is_disabled": 0, "bike_id": "4e68345a499db8e71dae5ba87d30ffeb", "lat": 38.89227133333333, "rental_uris": {"ios": "https://dc.lft.to/lastmile_qr_scan", "android": "https://dc.lft.to/lastmile_qr_scan"}}, {"type": "electric_scooter", "name": "c8c7f623d13ffe488a078ff6bce39acf", "fusion_lon": 0.0, "is_reserved": 0, "lon": -77.04355983333333, "fusion_lat": 0.0, "is_disabled": 0, "bike_id": "c8c7f623d13ffe488a078ff6bce39acf", "lat": 38.904309166666664, "rental_uris": {"ios": "https://dc.lft.to/lastmile_qr_scan", "android": "https://dc.lft.to/lastmile_qr_scan"}}, {"type": "electric_scooter", "name": "475fbdaa2ef390911addd44a86f7f4cd", "fusion_lon": 0.0, "is_reserved": 0, "lon": -77.00211266666666, "fusion_lat": 0.0, "is_disabled": 0, "bike_id": "475fbdaa2ef390911addd44a86f7f4cd", "lat": 38.91102333333333, "rental_uris": {"ios": "https://dc.lft.to/lastmile_qr_scan", "android": "https://dc.lft.to/lastmile_qr_scan"}}, {"type": "electric_scooter", "name": "7b48b43d6e90e084f9ee7abe49e53d8b", "fusion_lon": 0.0, "is_reserved": 0, "lon": -77.03222033333333, "fusion_lat": 0.0, "is_disabled": 0, "bike_id": "7b48b43d6e90e084f9ee7abe49e53d8b", "lat": 38.90981333333333, "rental_uris": {"ios": "https://dc.lft.to/lastmile_qr_scan", "android": "https://dc.lft.to/lastmile_qr_scan"}}, {"type": "electric_scooter", "name": "38e4cca7950503cb61c05bfcfe15a052", "fusion_lon": 0.0, "is_reserved": 0, "lon": -77.04133583333333, "fusion_lat": 0.0, "is_disabled": 0, "bike_id": "38e4cca7950503cb61c05bfcfe15a052", "lat": 38.900263, "rental_uris": {"ios": "https://dc.lft.to/lastmile_qr_scan", "android": "https://dc.lft.to/lastmile_qr_scan"}}, {"type": "electric_scooter", "name": "13d611be0e79f35f461e715c62041879", "fusion_lon": 0.0, "is_reserved": 0, "lon": -77.0198945, "fusion_lat": 0.0, "is_disabled": 0, "bike_id": "13d611be0e79f35f461e715c62041879", "lat": 38.88499933333333, "rental_uris": {"ios": "https://dc.lft.to/lastmile_qr_scan", "android": "https://dc.lft.to/lastmile_qr_scan"}}, {"type": "electric_scooter", "name": "4773fe28323c90e51b43f016ec4ff65a", "fusion_lon": 0.0, "is_reserved": 0, "lon": -77.01209666666666, "fusion_lat": 0.0, "is_disabled": 0, "bike_id": "4773fe28323c90e51b43f016ec4ff65a", "lat": 38.917607, "rental_uris": {"ios": "https://dc.lft.to/lastmile_qr_scan", "android": "https://dc.lft.to/lastmile_qr_scan"}}, {"type": "electric_scooter", "name": "bcb31c6bd8011a1507c08f8d970067ac", "fusion_lon": 0.0, "is_reserved": 0, "lon": -77.00137016666666, "fusion_lat": 0.0, "is_disabled": 0, "bike_id": "bcb31c6bd8011a1507c08f8d970067ac", "lat": 38.894695666666664, "rental_uris": {"ios": "https://dc.lft.to/lastmile_qr_scan", "android": "https://dc.lft.to/lastmile_qr_scan"}}, {"type": "electric_scooter", "name": "58a3e7b6a57648c7446e7e76c625149c", "fusion_lon": 0.0, "is_reserved": 0, "lon": -77.04053583333334, "fusion_lat": 0.0, "is_disabled": 0, "bike_id": "58a3e7b6a57648c7446e7e76c625149c", "lat": 38.92547116666667, "rental_uris": {"ios": "https://dc.lft.to/lastmile_qr_scan", "android": "https://dc.lft.to/lastmile_qr_scan"}}, {"type": "electric_scooter", "name": "306a142a21d95b6e20ce76e87c64c3c0", "fusion_lon": 0.0, "is_reserved": 0, "lon": -77.0251305, "fusion_lat": 0.0, "is_disabled": 0, "bike_id": "306a142a21d95b6e20ce76e87c64c3c0", "lat": 38.942062, "rental_uris": {"ios": "https://dc.lft.to/lastmile_qr_scan", "android": "https://dc.lft.to/lastmile_qr_scan"}}, {"type": "electric_scooter", "name": "0f00512f2fd89378461cae82d0a6c0db", "fusion_lon": 0.0, "is_reserved": 0, "lon": -76.98263266666666, "fusion_lat": 0.0, "is_disabled": 0, "bike_id": "0f00512f2fd89378461cae82d0a6c0db", "lat": 38.866385666666666, "rental_uris": {"ios": "https://dc.lft.to/lastmile_qr_scan", "android": "https://dc.lft.to/lastmile_qr_scan"}}, {"type": "electric_scooter", "name": "0a4b2c71b6076b9f5f6d18b2a9d03ea6", "fusion_lon": 0.0, "is_reserved": 0, "lon": -77.04490883333334, "fusion_lat": 0.0, "is_disabled": 0, "bike_id": "0a4b2c71b6076b9f5f6d18b2a9d03ea6", "lat": 38.922322666666666, "rental_uris": {"ios": "https://dc.lft.to/lastmile_qr_scan", "android": "https://dc.lft.to/lastmile_qr_scan"}}, {"type": "electric_bike", "name": "e468b44618683915c5787147321e27f3", "fusion_lon": 0.0, "is_reserved": 0, "lon": -76.98418683333334, "fusion_lat": 0.0, "is_disabled": 0, "bike_id": "e468b44618683915c5787147321e27f3", "lat": 38.854921833333336, "rental_uris": {"ios": "https://dc.lft.to/lastmile_qr_scan", "android": "https://dc.lft.to/lastmile_qr_scan"}}, {"type": "electric_scooter", "name": "e0f6644238b2b89596812ec86ccaf42f", "fusion_lon": 0.0, "is_reserved": 0, "lon": -77.044315, "fusion_lat": 0.0, "is_disabled": 0, "bike_id": "e0f6644238b2b89596812ec86ccaf42f", "lat": 38.91095633333333, "rental_uris": {"ios": "https://dc.lft.to/lastmile_qr_scan", "android": "https://dc.lft.to/lastmile_qr_scan"}}, {"type": "electric_scooter", "name": "90cb86996de959fcedeec5acdb8043c2", "fusion_lon": 0.0, "is_reserved": 0, "lon": -77.07897116666666, "fusion_lat": 0.0, "is_disabled": 0, "bike_id": "90cb86996de959fcedeec5acdb8043c2", "lat": 38.919270833333336, "rental_uris": {"ios": "https://dc.lft.to/lastmile_qr_scan", "android": "https://dc.lft.to/lastmile_qr_scan"}}, {"type": "electric_scooter", "name": "c3b597dbff62fb8255a4f04c2e458938", "fusion_lon": 0.0, "is_reserved": 0, "lon": -77.04659283333334, "fusion_lat": 0.0, "is_disabled": 0, "bike_id": "c3b597dbff62fb8255a4f04c2e458938", "lat": 38.90560883333333, "rental_uris": {"ios": "https://dc.lft.to/lastmile_qr_scan", "android": "https://dc.lft.to/lastmile_qr_scan"}}, {"type": "electric_scooter", "name": "bb6e55a101057569db06305ced62a64f", "fusion_lon": 0.0, "is_reserved": 0, "lon": -76.98146733333333, "fusion_lat": 0.0, "is_disabled": 0, "bike_id": "bb6e55a101057569db06305ced62a64f", "lat": 38.9031805, "rental_uris": {"ios": "https://dc.lft.to/lastmile_qr_scan", "android": "https://dc.lft.to/lastmile_qr_scan"}}, {"type": "electric_bike", "name": "b1d01feb0d58795dddbb37c2a9afed16", "fusion_lon": 0.0, "is_reserved": 0, "lon": -77.09614416666666, "fusion_lat": 0.0, "is_disabled": 0, "bike_id": "b1d01feb0d58795dddbb37c2a9afed16", "lat": 38.87882466666667, "rental_uris": {"ios": "https://dc.lft.to/lastmile_qr_scan", "android": "https://dc.lft.to/lastmile_qr_scan"}}, {"type": "electric_scooter", "name": "b7ae7c272eb21dad7cc0a20482d87913", "fusion_lon": 0.0, "is_reserved": 0, "lon": -77.04030733333333, "fusion_lat": 0.0, "is_disabled": 0, "bike_id": "b7ae7c272eb21dad7cc0a20482d87913", "lat": 38.924523666666666, "rental_uris": {"ios": "https://dc.lft.to/lastmile_qr_scan", "android": "https://dc.lft.to/lastmile_qr_scan"}}, {"type": "electric_scooter", "name": "b667dc2e313632bfec1850869915eb1e", "fusion_lon": 0.0, "is_reserved": 0, "lon": -77.0455235, "fusion_lat": 0.0, "is_disabled": 0, "bike_id": "b667dc2e313632bfec1850869915eb1e", "lat": 38.896030833333334, "rental_uris": {"ios": "https://dc.lft.to/lastmile_qr_scan", "android": "https://dc.lft.to/lastmile_qr_scan"}}, {"type": "electric_scooter", "name": "8b425b2af648d359fac9f68196d75776", "fusion_lon": 0.0, "is_reserved": 0, "lon": -77.03466516666667, "fusion_lat": 0.0, "is_disabled": 0, "bike_id": "8b425b2af648d359fac9f68196d75776", "lat": 38.90520716666666, "rental_uris": {"ios": "https://dc.lft.to/lastmile_qr_scan", "android": "https://dc.lft.to/lastmile_qr_scan"}}, {"type": "electric_scooter", "name": "e4f8fc634e6cc11453d4d1c5d2bb37e4", "fusion_lon": 0.0, "is_reserved": 0, "lon": -77.04206383333333, "fusion_lat": 0.0, "is_disabled": 0, "bike_id": "e4f8fc634e6cc11453d4d1c5d2bb37e4", "lat": 38.920502666666664, "rental_uris": {"ios": "https://dc.lft.to/lastmile_qr_scan", "android": "https://dc.lft.to/lastmile_qr_scan"}}, {"type": "electric_scooter", "name": "3cf7791b01cda0197643b5fb07a6d2ec", "fusion_lon": 0.0, "is_reserved": 0, "lon": -76.94154566666667, "fusion_lat": 0.0, "is_disabled": 0, "bike_id": "3cf7791b01cda0197643b5fb07a6d2ec", "lat": 38.883620666666665, "rental_uris": {"ios": "https://dc.lft.to/lastmile_qr_scan", "android": "https://dc.lft.to/lastmile_qr_scan"}}, {"type": "electric_scooter", "name": "705aef8dcc1ca7b3362fd68d71427d99", "fusion_lon": 0.0, "is_reserved": 0, "lon": -77.03406633333333, "fusion_lat": 0.0, "is_disabled": 0, "bike_id": "705aef8dcc1ca7b3362fd68d71427d99", "lat": 38.919193166666666, "rental_uris": {"ios": "https://dc.lft.to/lastmile_qr_scan", "android": "https://dc.lft.to/lastmile_qr_scan"}}, {"type": "electric_scooter", "name": "02f987a63a8d4feee1ed8e43dc488b38", "fusion_lon": 0.0, "is_reserved": 0, "lon": -77.04650983333333, "fusion_lat": 0.0, "is_disabled": 0, "bike_id": "02f987a63a8d4feee1ed8e43dc488b38", "lat": 38.913676333333335, "rental_uris": {"ios": "https://dc.lft.to/lastmile_qr_scan", "android": "https://dc.lft.to/lastmile_qr_scan"}}, {"type": "electric_scooter", "name": "d57e1ca9e0c4abfa43ceab2a8c4d338a", "fusion_lon": 0.0, "is_reserved": 0, "lon": -77.00045533333333, "fusion_lat": 0.0, "is_disabled": 0, "bike_id": "d57e1ca9e0c4abfa43ceab2a8c4d338a", "lat": 38.881237166666665, "rental_uris": {"ios": "https://dc.lft.to/lastmile_qr_scan", "android": "https://dc.lft.to/lastmile_qr_scan"}}, {"type": "electric_scooter", "name": "d6b2aeadf6bb79c4e4edb2f8524987ee", "fusion_lon": 0.0, "is_reserved": 0, "lon": -77.033091, "fusion_lat": 0.0, "is_disabled": 0, "bike_id": "d6b2aeadf6bb79c4e4edb2f8524987ee", "lat": 38.900314, "rental_uris": {"ios": "https://dc.lft.to/lastmile_qr_scan", "android": "https://dc.lft.to/lastmile_qr_scan"}}, {"type": "electric_scooter", "name": "8391f2585a5f178c1b7a9ce9d1cca827", "fusion_lon": 0.0, "is_reserved": 0, "lon": -77.03774583333333, "fusion_lat": 0.0, "is_disabled": 0, "bike_id": "8391f2585a5f178c1b7a9ce9d1cca827", "lat": 38.90468883333333, "rental_uris": {"ios": "https://dc.lft.to/lastmile_qr_scan", "android": "https://dc.lft.to/lastmile_qr_scan"}}, {"type": "electric_scooter", "name": "99b71f3d6cd55ba216a366777daa7300", "fusion_lon": 0.0, "is_reserved": 0, "lon": -77.01531166666666, "fusion_lat": 0.0, "is_disabled": 0, "bike_id": "99b71f3d6cd55ba216a366777daa7300", "lat": 38.900546166666665, "rental_uris": {"ios": "https://dc.lft.to/lastmile_qr_scan", "android": "https://dc.lft.to/lastmile_qr_scan"}}, {"type": "electric_bike", "name": "74d8daa0a8d11c302e68755d815fcce8", "fusion_lon": 0.0, "is_reserved": 0, "lon": -77.01281933333334, "fusion_lat": 0.0, "is_disabled": 0, "bike_id": "74d8daa0a8d11c302e68755d815fcce8", "lat": 38.956517, "rental_uris": {"ios": "https://dc.lft.to/lastmile_qr_scan", "android": "https://dc.lft.to/lastmile_qr_scan"}}, {"type": "electric_scooter", "name": "191d1eb29ba1c071f95ef524287cd8fa", "fusion_lon": 0.0, "is_reserved": 0, "lon": -76.988817, "fusion_lat": 0.0, "is_disabled": 0, "bike_id": "191d1eb29ba1c071f95ef524287cd8fa", "lat": 38.866603166666664, "rental_uris": {"ios": "https://dc.lft.to/lastmile_qr_scan", "android": "https://dc.lft.to/lastmile_qr_scan"}}, {"type": "electric_scooter", "name": "4d73643a3950822a2329214a71092438", "fusion_lon": 0.0, "is_reserved": 0, "lon": -77.030704, "fusion_lat": 0.0, "is_disabled": 0, "bike_id": "4d73643a3950822a2329214a71092438", "lat": 38.90757383333333, "rental_uris": {"ios": "https://dc.lft.to/lastmile_qr_scan", "android": "https://dc.lft.to/lastmile_qr_scan"}}, {"type": "electric_scooter", "name": "b3386b0e6ce2c517e40c1246c87e63f0", "fusion_lon": 0.0, "is_reserved": 0, "lon": -77.02668966666667, "fusion_lat": 0.0, "is_disabled": 0, "bike_id": "b3386b0e6ce2c517e40c1246c87e63f0", "lat": 38.9024045, "rental_uris": {"ios": "https://dc.lft.to/lastmile_qr_scan", "android": "https://dc.lft.to/lastmile_qr_scan"}}, {"type": "electric_scooter", "name": "50a81188b1d2f85d28501077054f847e", "fusion_lon": 0.0, "is_reserved": 0, "lon": -77.01733733333333, "fusion_lat": 0.0, "is_disabled": 0, "bike_id": "50a81188b1d2f85d28501077054f847e", "lat": 38.90048433333333, "rental_uris": {"ios": "https://dc.lft.to/lastmile_qr_scan", "android": "https://dc.lft.to/lastmile_qr_scan"}}, {"type": "electric_scooter", "name": "edcc4b7683245f7f9974ef7b887d6a0f", "fusion_lon": 0.0, "is_reserved": 0, "lon": -77.03689916666667, "fusion_lat": 0.0, "is_disabled": 0, "bike_id": "edcc4b7683245f7f9974ef7b887d6a0f", "lat": 38.91813966666667, "rental_uris": {"ios": "https://dc.lft.to/lastmile_qr_scan", "android": "https://dc.lft.to/lastmile_qr_scan"}}, {"type": "electric_scooter", "name": "f8b4066d5fbb654f2c8576f2bda0b861", "fusion_lon": 0.0, "is_reserved": 0, "lon": -77.028314, "fusion_lat": 0.0, "is_disabled": 0, "bike_id": "f8b4066d5fbb654f2c8576f2bda0b861", "lat": 38.887309, "rental_uris": {"ios": "https://dc.lft.to/lastmile_qr_scan", "android": "https://dc.lft.to/lastmile_qr_scan"}}, {"type": "electric_scooter", "name": "9af63d8bacacb32f07f6fa1745e763a6", "fusion_lon": 0.0, "is_reserved": 0, "lon": -77.0326035, "fusion_lat": 0.0, "is_disabled": 0, "bike_id": "9af63d8bacacb32f07f6fa1745e763a6", "lat": 38.895377833333335, "rental_uris": {"ios": "https://dc.lft.to/lastmile_qr_scan", "android": "https://dc.lft.to/lastmile_qr_scan"}}, {"type": "electric_scooter", "name": "c847593e9bd6b82c149b7bbc19fc0134", "fusion_lon": 0.0, "is_reserved": 0, "lon": -77.03191, "fusion_lat": 0.0, "is_disabled": 0, "bike_id": "c847593e9bd6b82c149b7bbc19fc0134", "lat": 38.884691333333336, "rental_uris": {"ios": "https://dc.lft.to/lastmile_qr_scan", "android": "https://dc.lft.to/lastmile_qr_scan"}}, {"type": "electric_scooter", "name": "b9b31d9aff15a22e5bf7babec3599e83", "fusion_lon": 0.0, "is_reserved": 0, "lon": -77.03793716666667, "fusion_lat": 0.0, "is_disabled": 0, "bike_id": "b9b31d9aff15a22e5bf7babec3599e83", "lat": 38.925352, "rental_uris": {"ios": "https://dc.lft.to/lastmile_qr_scan", "android": "https://dc.lft.to/lastmile_qr_scan"}}, {"type": "electric_scooter", "name": "7af9a9e9786a2022f26afb7d948ba652", "fusion_lon": 0.0, "is_reserved": 0, "lon": -77.0132115, "fusion_lat": 0.0, "is_disabled": 0, "bike_id": "7af9a9e9786a2022f26afb7d948ba652", "lat": 38.900740166666665, "rental_uris": {"ios": "https://dc.lft.to/lastmile_qr_scan", "android": "https://dc.lft.to/lastmile_qr_scan"}}, {"type": "electric_scooter", "name": "759d83ae9d539239a3f8177f9a86ae1d", "fusion_lon": 0.0, "is_reserved": 0, "lon": -76.985965, "fusion_lat": 0.0, "is_disabled": 0, "bike_id": "759d83ae9d539239a3f8177f9a86ae1d", "lat": 38.86698116666667, "rental_uris": {"ios": "https://dc.lft.to/lastmile_qr_scan", "android": "https://dc.lft.to/lastmile_qr_scan"}}, {"type": "electric_scooter", "name": "37ac635b5b28e7895bc3ca9aa8cf3a98", "fusion_lon": 0.0, "is_reserved": 0, "lon": -76.97545383333333, "fusion_lat": 0.0, "is_disabled": 0, "bike_id": "37ac635b5b28e7895bc3ca9aa8cf3a98", "lat": 38.90323266666667, "rental_uris": {"ios": "https://dc.lft.to/lastmile_qr_scan", "android": "https://dc.lft.to/lastmile_qr_scan"}},