{"data": {"bikes": [{"lat": 38.90756983333333, "is_disabled": 0, "type": "electric_scooter", "lon": -77.04141383333334, "bike_id": "8e75740809215b06f1b98f5b59401168", "fusion_lat": 0.0, "name": "8e75740809215b06f1b98f5b59401168", "is_reserved": 0, "rental_uris": {"android": "https://dc.lft.to/lastmile_qr_scan", "ios": "https://dc.lft.to/lastmile_qr_scan"}, "fusion_lon": 0.0}, {"lat": 38.927372, "is_disabled": 0, "type": "electric_scooter", "lon": -77.02266966666667, "bike_id": "01da5dd38125e4dd2bffc9e814e10b38", "fusion_lat": 0.0, "name": "01da5dd38125e4dd2bffc9e814e10b38", "is_reserved": 0, "rental_uris": {"android": "https://dc.lft.to/lastmile_qr_scan", "ios": "https://dc.lft.to/lastmile_qr_scan"}, "fusion_lon": 0.0}, {"lat": 38.919777833333335, "is_disabled": 0, "type": "electric_scooter", "lon": -77.0238525, "bike_id": "ed3cad333e850fb58acc04b8da04b315", "fusion_lat": 0.0, "name": "ed3cad333e850fb58acc04b8da04b315", "is_reserved": 0, "rental_uris": {"android": "https://dc.lft.to/lastmile_qr_scan", "ios": "https://dc.lft.to/lastmile_qr_scan"}, "fusion_lon": 0.0}, {"lat": 38.90977216666667, "is_disabled": 0, "type": "electric_scooter", "lon": -77.023945, "bike_id": "9e4dde05efddce0e8dfe279461964cd8", "fusion_lat": 0.0, "name": "9e4dde05efddce0e8dfe279461964cd8", "is_reserved": 0, "rental_uris": {"android": "https://dc.lft.to/lastmile_qr_scan", "ios": "https://dc.lft.to/lastmile_qr_scan"}, "fusion_lon": 0.0}, {"lat": 38.88430733333333, "is_disabled": 0, "type": "electric_scooter", "lon": -77.01768016666666, "bike_id": "8fb17370145053facefd59015b77ffc3", "fusion_lat": 0.0, "name": "8fb17370145053facefd59015b77ffc3", "is_reserved": 0, "rental_uris": {"android": "https://dc.lft.to/lastmile_qr_scan", "ios": "https://dc.lft.to/lastmile_qr_scan"}, "fusion_lon": 0.0}, {"lat": 38.88135583333333, "is_disabled": 0, "type": "electric_scooter", "lon": -77.02705283333333, "bike_id": "ae5d6915c793487db25776340fbeb24e", "fusion_lat": 0.0, "name": "ae5d6915c793487db25776340fbeb24e", "is_reserved": 0, "rental_uris": {"android": "https://dc.lft.to/lastmile_qr_scan", "ios": "https://dc.lft.to/lastmile_qr_scan"}, "fusion_lon": 0.0}, {"lat": 38.8706485, "is_disabled": 0, "type": "electric_scooter", "lon": -77.008441, "bike_id": "63de10df6fbf654b6f340de0c9dec635", "fusion_lat": 0.0, "name": "63de10df6fbf654b6f340de0c9dec635", "is_reserved": 0, "rental_uris": {"android": "https://dc.lft.to/lastmile_qr_scan", "ios": "https://dc.lft.to/lastmile_qr_scan"}, "fusion_lon": 0.0}, {"lat": 38.91883983333334, "is_disabled": 0, "type": "electric_scooter", "lon": -77.04125016666667, "bike_id": "eeccb1bbfea299ea0ac156fe009de32f", "fusion_lat": 0.0, "name": "eeccb1bbfea299ea0ac156fe009de32f", "is_reserved": 0, "rental_uris": {"android": "https://dc.lft.to/lastmile_qr_scan", "ios": "https://dc.lft.to/lastmile_qr_scan"}, "fusion_lon": 0.0}, {"lat": 38.80500883333333, "is_disabled": 0, "type": "electric_bike", "lon": -77.0413275, "bike_id": "9111c0804b3a822c6ff5914466e59a56", "fusion_lat": 0.0, "name": "9111c0804b3a822c6ff5914466e59a56", "is_reserved": 0, "rental_uris": {"android": "https://dc.lft.to/lastmile_qr_scan", "ios": "https://dc.lft.to/lastmile_qr_scan"}, "fusion_lon": 0.0}, {"lat": 38.9181905, "is_disabled": 0, "type": "electric_scooter", "lon": -77.0307315, "bike_id": "7409d21f22ad58a149dc3a9d1ecc1ad5", "fusion_lat": 0.0, "name": "7409d21f22ad58a149dc3a9d1ecc1ad5", "is_reserved": 0, "rental_uris": {"android": "https://dc.lft.to/lastmile_qr_scan", "ios": "https://dc.lft.to/lastmile_qr_scan"}, "fusion_lon": 0.0}, {"lat": 38.917040666666665, "is_disabled": 0, "type": "electric_scooter", "lon": -77.01105783333334, "bike_id": "d0408d075fb1fd06cf896677efdeb497", "fusion_lat": 0.0, "name": "d0408d075fb1fd06cf896677efdeb497", "is_reserved": 0, "rental_uris": {"android": "https://dc.lft.to/lastmile_qr_scan", "ios": "https://dc.lft.to/lastmile_qr_scan"}, "fusion_lon": 0.0}, {"lat": 38.866213333333334, "is_disabled": 0, "type": "electric_scooter", "lon": -76.9864225, "bike_id": "8d6015a8c330808680fb155f923e32a2", "fusion_lat": 0.0, "name": "8d6015a8c330808680fb155f923e32a2", "is_reserved": 0, "rental_uris": {"android": "https://dc.lft.to/lastmile_qr_scan", "ios": "https://dc.lft.to/lastmile_qr_scan"}, "fusion_lon": 0.0}, {"lat": 38.90643683333333, "is_disabled": 0, "type": "electric_scooter", "lon": -76.9902285, "bike_id": "43dd4e06aedae2e868a22d2567f66ae6", "fusion_lat": 0.0, "name": "43dd4e06aedae2e868a22d2567f66ae6", "is_reserved": 0, "rental_uris": {"android": "https://dc.lft.to/lastmile_qr_scan", "ios": "https://dc.lft.to/lastmile_qr_scan"}, "fusion_lon": 0.0}, {"lat": 38.933368333333334, "is_disabled": 0, "type": "electric_scooter", "lon": -76.99304883333333, "bike_id": "cc52e5e9f94329ee64ade373b17f9a25", "fusion_lat": 0.0, "name": "cc52e5e9f94329ee64ade373b17f9a25", "is_reserved": 0, "rental_uris": {"android": "https://dc.lft.to/lastmile_qr_scan", "ios": "https://dc.lft.to/lastmile_qr_scan"}, "fusion_lon": 0.0}, {"lat": 38.915492, "is_disabled": 0, "type": "electric_scooter", "lon": -77.01238383333333, "bike_id": "814c46c2f7b6d2634a85817f5cad99ee", "fusion_lat": 0.0, "name": "814c46c2f7b6d2634a85817f5cad99ee", "is_reserved": 0, "rental_uris": {"android": "https://dc.lft.to/lastmile_qr_scan", "ios": "https://dc.lft.to/lastmile_qr_scan"}, "fusion_lon": 0.0}, {"lat": 38.877027, "is_disabled": 0, "type": "electric_scooter", "lon": -77.00411016666666, "bike_id": "3ed5308399c745efd08e7f08d1979d32", "fusion_lat": 0.0, "name": "3ed5308399c745efd08e7f08d1979d32", "is_reserved": 0, "rental_uris": {"android": "https://dc.lft.to/lastmile_qr_scan", "ios": "https://dc.lft.to/lastmile_qr_scan"}, "fusion_lon": 0.0}, {"lat": 38.85205216666667, "is_disabled": 0, "type": "electric_bike", "lon": -76.995843, "bike_id": "147d1011fd7a750dc8a2a04ed46b8b10", "fusion_lat": 0.0, "name": "147d1011fd7a750dc8a2a04ed46b8b10", "is_reserved": 0, "rental_uris": {"android": "https://dc.lft.to/lastmile_qr_scan", "ios": "https://dc.lft.to/lastmile_qr_scan"}, "fusion_lon": 0.0}, {"lat": 38.844237, "is_disabled": 0, "type": "electric_scooter", "lon": -76.9977825, "bike_id": "1e72ee063a1c30045a5f5e53a0641998", "fusion_lat": 0.0, "name": "1e72ee063a1c30045a5f5e53a0641998", "is_reserved": 0, "rental_uris": {"android": "https://dc.lft.to/lastmile_qr_scan", "ios": "https://dc.lft.to/lastmile_qr_scan"}, "fusion_lon": 0.0}, {"lat": 38.953273, "is_disabled": 0, "type": "electric_bike", "lon": -76.98820283333333, "bike_id": "53b9fe1fce982dbb2a5c7ca3547bbd5d", "fusion_lat": 0.0, "name": "53b9fe1fce982dbb2a5c7ca3547bbd5d", "is_reserved": 0, "rental_uris": {"android": "https://dc.lft.to/lastmile_qr_scan", "ios": "https://dc.lft.to/lastmile_qr_scan"}, "fusion_lon": 0.0}, {"lat": 38.9204715, "is_disabled": 0, "type": "electric_scooter", "lon": -77.041974, "bike_id": "ae0f67160f91579d6d96320c89a47016", "fusion_lat": 0.0, "name": "ae0f67160f91579d6d96320c89a47016", "is_reserved": 0, "rental_uris": {"android": "https://dc.lft.to/lastmile_qr_scan", "ios": "https://dc.lft.to/lastmile_qr_scan"}, "fusion_lon": 0.0}, {"lat": 38.93224883333333, "is_disabled": 0, "type": "electric_scooter", "lon": -77.02375766666667, "bike_id": "10c46dafe3ca5a9b5195112381bfa5c0", "fusion_lat": 0.0, "name": "10c46dafe3ca5a9b5195112381bfa5c0", "is_reserved": 0, "rental_uris": {"android": "https://dc.lft.to/lastmile_qr_scan", "ios": "https://dc.lft.to/lastmile_qr_scan"}, "fusion_lon": 0.0}, {"lat": 38.914142166666664, "is_disabled": 0, "type": "electric_scooter", "lon": -77.03163, "bike_id": "d9d9b8faceb10f78f1301683d9f70400", "fusion_lat": 0.0, "name": "d9d9b8faceb10f78f1301683d9f70400", "is_reserved": 0, "rental_uris": {"android": "https://dc.lft.to/lastmile_qr_scan", "ios": "https://dc.lft.to/lastmile_qr_scan"}, "fusion_lon": 0.0}, {"lat": 38.88525466666667, "is_disabled": 0, "type": "electric_scooter", "lon": -77.0113435, "bike_id": "a94fa3a3275748b176f0c2ac4d7155e1", "fusion_lat": 0.0, "name": "a94fa3a3275748b176f0c2ac4d7155e1", "is_reserved": 0, "rental_uris": {"android": "https://dc.lft.to/lastmile_qr_scan", "ios": "https://dc.lft.to/lastmile_qr_scan"}, "fusion_lon": 0.0}, {"lat": 38.89230083333333, "is_disabled": 0, "type": "electric_scooter", "lon": -77.04500416666667, "bike_id": "ca29c144316bd1a280c536ef9f74fbf8", "fusion_lat": 0.0, "name": "ca29c144316bd1a280c536ef9f74fbf8", "is_reserved": 0, "rental_uris": {"android": "https://dc.lft.to/lastmile_qr_scan", "ios": "https://dc.lft.to/lastmile_qr_scan"}, "fusion_lon": 0.0}, {"lat": 38.8764, "is_disabled": 0, "type": "electric_scooter", "lon": -76.99322033333334, "bike_id": "fa1f80169b6c020345dad2845da339af", "fusion_lat": 0.0, "name": "fa1f80169b6c020345dad2845da339af", "is_reserved": 0, "rental_uris": {"android": "https://dc.lft.to/lastmile_qr_scan", "ios": "https://dc.lft.to/lastmile_qr_scan"}, "fusion_lon": 0.0}, {"lat": 39.088586, "is_disabled": 0, "type": "electric_bike", "lon": -77.1784435, "bike_id": "8f2534a700677b2f018220404c69eaaf", "fusion_lat": 0.0, "name": "8f2534a700677b2f018220404c69eaaf", "is_reserved": 0, "rental_uris": {"android": "https://dc.lft.to/lastmile_qr_scan", "ios": "https://dc.lft.to/lastmile_qr_scan"}, "fusion_lon": 0.0}, {"lat": 38.92860866666667, "is_disabled": 0, "type": "electric_bike", "lon": -77.22215333333334, "bike_id": "7fdfaa3fd1c10a08fdc74f7d4bce5baf", "fusion_lat": 0.0, "name": "7fdfaa3fd1c10a08fdc74f7d4bce5baf", "is_reserved": 0, "rental_uris": {"android": "https://dc.lft.to/lastmile_qr_scan", "ios": "https://dc.lft.to/lastmile_qr_scan"}, "fusion_lon": 0.0}, {"lat": 38.9176885, "is_disabled": 0, "type": "electric_scooter", "lon": -77.02899333333333, "bike_id": "d68b89d6faa3754f9e4e9c1c5fb6b978", "fusion_lat": 0.0, "name": "d68b89d6faa3754f9e4e9c1c5fb6b978", "is_reserved": 0, "rental_uris": {"android": "https://dc.lft.to/lastmile_qr_scan", "ios": "https://dc.lft.to/lastmile_qr_scan"}, "fusion_lon": 0.0}, {"lat": 38.9387035, "is_disabled": 0, "type": "electric_scooter", "lon": -77.03262833333334, "bike_id": "ddc4ac01f05ce0e2780fe7a0d150bb87", "fusion_lat": 0.0, "name": "ddc4ac01f05ce0e2780fe7a0d150bb87", "is_reserved": 0, "rental_uris": {"android": "https://dc.lft.to/lastmile_qr_scan", "ios": "https://dc.lft.to/lastmile_qr_scan"}, "fusion_lon": 0.0}, {"lat": 38.9031535, "is_disabled": 0, "type": "electric_scooter", "lon": -77.02885233333333, "bike_id": "158471d90acb1ee9220c93a38ea579a1", "fusion_lat": 0.0, "name": "158471d90acb1ee9220c93a38ea579a1", "is_reserved": 0, "rental_uris": {"android": "https://dc.lft.to/lastmile_qr_scan", "ios": "https://dc.lft.to/lastmile_qr_scan"}, "fusion_lon": 0.0}, {"lat": 38.902297833333336, "is_disabled": 0, "type": "electric_scooter", "lon": -77.04344866666666, "bike_id": "ac9ae26b8e00c8eb5cce8b5a15eb94c8", "fusion_lat": 0.0, "name": "ac9ae26b8e00c8eb5cce8b5a15eb94c8", "is_reserved": 0, "rental_uris": {"android": "https://dc.lft.to/lastmile_qr_scan", "ios": "https://dc.lft.to/lastmile_qr_scan"}, "fusion_lon": 0.0}, {"lat": 38.91629616666667, "is_disabled": 0, "type": "electric_scooter", "lon": -77.04618783333333, "bike_id": "f022e05c758605a31f1709f284c8700a", "fusion_lat": 0.0, "name": "f022e05c758605a31f1709f284c8700a", "is_reserved": 0, "rental_uris": {"android": "https://dc.lft.to/lastmile_qr_scan", "ios": "https://dc.lft.to/lastmile_qr_scan"}, "fusion_lon": 0.0}, {"lat": 38.88439066666667, "is_disabled": 0, "type": "electric_bike", "lon": -76.98080466666667, "bike_id": "4e3d152a060e69234a995e3086d2fc78", "fusion_lat": 0.0, "name": "4e3d152a060e69234a995e3086d2fc78", "is_reserved": 0, "rental_uris": {"android": "https://dc.lft.to/lastmile_qr_scan", "ios": "https://dc.lft.to/lastmile_qr_scan"}, "fusion_lon": 0.0}, {"lat": 38.899921, "is_disabled": 0, "type": "electric_scooter", "lon": -77.02155783333333, "bike_id": "418311e1b6ff70a584892c88f34428b7", "fusion_lat": 0.0, "name": "418311e1b6ff70a584892c88f34428b7", "is_reserved": 0, "rental_uris": {"android": "https://dc.lft.to/lastmile_qr_scan", "ios": "https://dc.lft.to/lastmile_qr_scan"}, "fusion_lon": 0.0}, {"lat": 38.92364716666667, "is_disabled": 0, "type": "electric_scooter", "lon": -77.04029283333334, "bike_id": "ac0a2d6ea3de7aa703f40637df96557e", "fusion_lat": 0.0, "name": "ac0a2d6ea3de7aa703f40637df96557e", "is_reserved": 0, "rental_uris": {"android": "https://dc.lft.to/lastmile_qr_scan", "ios": "https://dc.lft.to/lastmile_qr_scan"}, "fusion_lon": 0.0}, {"lat": 38.855132833333336, "is_disabled": 0, "type": "electric_bike", "lon": -77.12042533333333, "bike_id": "0933a3778ea4ec4e65d8d6d698d634ab", "fusion_lat": 0.0, "name": "0933a3778ea4ec4e65d8d6d698d634ab", "is_reserved": 0, "rental_uris": {"android": "https://dc.lft.to/lastmile_qr_scan", "ios": "https://dc.lft.to/lastmile_qr_scan"}, "fusion_lon": 0.0}, {"lat": 38.912442666666664, "is_disabled": 0, "type": "electric_scooter", "lon": -77.03235516666666, "bike_id": "ad08ce60e936cd6834ae5d83206e4a2b", "fusion_lat": 0.0, "name": "ad08ce60e936cd6834ae5d83206e4a2b", "is_reserved": 0, "rental_uris": {"android": "https://dc.lft.to/lastmile_qr_scan", "ios": "https://dc.lft.to/lastmile_qr_scan"}, "fusion_lon": 0.0}, {"lat": 38.870819166666664, "is_disabled": 0, "type": "electric_scooter", "lon": -77.01078983333333, "bike_id": "be2957433913cf51aeaf1e9f1d81bea7", "fusion_lat": 0.0, "name": "be2957433913cf51aeaf1e9f1d81bea7", "is_reserved": 0, "rental_uris": {"android": "https://dc.lft.to/lastmile_qr_scan", "ios": "https://dc.lft.to/lastmile_qr_scan"}, "fusion_lon": 0.0}, {"lat": 38.8638095, "is_disabled": 0, "type": "electric_scooter", "lon": -76.9925155, "bike_id": "2e6772861c3b8119b27a7ccb5b0b545d", "fusion_lat": 0.0, "name": "2e6772861c3b8119b27a7ccb5b0b545d", "is_reserved": 0, "rental_uris": {"android": "https://dc.lft.to/lastmile_qr_scan", "ios": "https://dc.lft.to/lastmile_qr_scan"}, "fusion_lon": 0.0}, {"lat": 38.92257433333333, "is_disabled": 0, "type": "electric_scooter", "lon": -77.04304283333333, "bike_id": "b64f0f48f153b171dbd9ef7289f300a6", "fusion_lat": 0.0, "name": "b64f0f48f153b171dbd9ef7289f300a6", "is_reserved": 0, "rental_uris": {"android": "https://dc.lft.to/lastmile_qr_scan", "ios": "https://dc.lft.to/lastmile_qr_scan"}, "fusion_lon": 0.0}, {"lat": 38.8609175, "is_disabled": 0, "type": "electric_scooter", "lon": -76.983762, "bike_id": "c70ad8a0f5cc5a272d48c02e73fd2b40", "fusion_lat": 0.0, "name": "c70ad8a0f5cc5a272d48c02e73fd2b40", "is_reserved": 0, "rental_uris": {"android": "https://dc.lft.to/lastmile_qr_scan", "ios": "https://dc.lft.to/lastmile_qr_scan"}, "fusion_lon": 0.0}, {"lat": 38.924451, "is_disabled": 0, "type": "electric_scooter", "lon": -77.02032433333333, "bike_id": "77ac534ca80bd647bd367f1b8eacc7fb", "fusion_lat": 0.0, "name": "77ac534ca80bd647bd367f1b8eacc7fb", "is_reserved": 0, "rental_uris": {"android": "https://dc.lft.to/lastmile_qr_scan", "ios": "https://dc.lft.to/lastmile_qr_scan"}, "fusion_lon": 0.0}, {"lat": 38.943014, "is_disabled": 0, "type": "electric_scooter", "lon": -77.0592845, "bike_id": "fb86703f0f646db6f5a42e9726990e68", "fusion_lat": 0.0, "name": "fb86703f0f646db6f5a42e9726990e68", "is_reserved": 0, "rental_uris": {"android": "https://dc.lft.to/lastmile_qr_scan", "ios": "https://dc.lft.to/lastmile_qr_scan"}, "fusion_lon": 0.0}, {"lat": 38.9013905, "is_disabled": 0, "type": "electric_scooter", "lon": -77.0445135, "bike_id": "b60e334a106ecba8307eafe3c000f147", "fusion_lat": 0.0, "name": "b60e334a106ecba8307eafe3c000f147", "is_reserved": 0, "rental_uris": {"android": "https://dc.lft.to/lastmile_qr_scan", "ios": "https://dc.lft.to/lastmile_qr_scan"}, "fusion_lon": 0.0}, {"lat": 38.92788483333333, "is_disabled": 0, "type": "electric_bike", "lon": -76.97217816666667, "bike_id": "7592c5604ad9e3a9eb60b0def6c0b61c", "fusion_lat": 0.0, "name": "7592c5604ad9e3a9eb60b0def6c0b61c", "is_reserved": 0, "rental_uris": {"android": "https://dc.lft.to/lastmile_qr_scan", "ios": "https://dc.lft.to/lastmile_qr_scan"}, "fusion_lon": 0.0}, {"lat": 38.978380333333334, "is_disabled": 0, "type": "electric_bike", "lon": -77.02654816666667, "bike_id": "bc634a6de66d4539173aaacced043025", "fusion_lat": 0.0, "name": "bc634a6de66d4539173aaacced043025", "is_reserved": 0, "rental_uris": {"android": "https://dc.lft.to/lastmile_qr_scan", "ios": "https://dc.lft.to/lastmile_qr_scan"}, "fusion_lon": 0.0}, {"lat": 38.913238166666666, "is_disabled": 0, "type": "electric_scooter", "lon": -77.03201133333333, "bike_id": "f9ad0ab12a3f1427efa5c58c2fb4d45f", "fusion_lat": 0.0, "name": "f9ad0ab12a3f1427efa5c58c2fb4d45f", "is_reserved": 0, "rental_uris": {"android": "https://dc.lft.to/lastmile_qr_scan", "ios": "https://dc.lft.to/lastmile_qr_scan"}, "fusion_lon": 0.0}, {"lat": 38.92923833333333, "is_disabled": 0, "type": "electric_scooter", "lon": -77.03181666666667, "bike_id": "4287d6a4334c91c6caeb022ea706071c", "fusion_lat": 0.0, "name": "4287d6a4334c91c6caeb022ea706071c", "is_reserved": 0, "rental_uris": {"android": "https://dc.lft.to/lastmile_qr_scan", "ios": "https://dc.lft.to/lastmile_qr_scan"}, "fusion_lon": 0.0}, {"lat": 38.93099433333333, "is_disabled": 0, "type": "electric_scooter", "lon": -77.02497466666667, "bike_id": "4e0b9406e4d8e321b628599214bf463e", "fusion_lat": 0.0, "name": "4e0b9406e4d8e321b628599214bf463e", "is_reserved": 0, "rental_uris": {"android": "https://dc.lft.to/lastmile_qr_scan", "ios": "https://dc.lft.to/lastmile_qr_scan"}, "fusion_lon": 0.0}, {"lat": 38.95880533333333, "is_disabled": 0, "type": "electric_bike", "lon": -76.92483233333333, "bike_id": "576812456e6d7290c42863f1ba89af79", "fusion_lat": 0.0, "name": "576812456e6d7290c42863f1ba89af79", "is_reserved": 0, "rental_uris": {"android": "https://dc.lft.to/lastmile_qr_scan", "ios": "https://dc.lft.to/lastmile_qr_scan"}, "fusion_lon": 0.0}, {"lat": 38.940382666666665, "is_disabled": 0, "type": "electric_bike", "lon": -77.05157933333334, "bike_id": "23b00bc71538232d66193016dd2c1854", "fusion_lat": 0.0, "name": "23b00bc71538232d66193016dd2c1854", "is_reserved": 0, "rental_uris": {"android": "https://dc.lft.to/lastmile_qr_scan", "ios": "https://dc.lft.to/lastmile_qr_scan"}, "fusion_lon": 0.0}, {"lat": 38.890425666666665, "is_disabled": 0, "type": "electric_scooter", "lon": -76.94073016666667, "bike_id": "864b27a904ab14edf82e9f00a8a4a4b5", "fusion_lat": 0.0, "name": "864b27a904ab14edf82e9f00a8a4a4b5", "is_reserved": 0, "rental_uris": {"android": "https://dc.lft.to/lastmile_qr_scan", "ios": "https://dc.lft.to/lastmile_qr_scan"}, "fusion_lon": 0.0}, {"lat": 38.9179205, "is_disabled": 0, "type": "electric_scooter", "lon": -77.04443683333334, "bike_id": "576930a786e73aaf5b76d284405abe61", "fusion_lat": 0.0, "name": "576930a786e73aaf5b76d284405abe61", "is_reserved": 0, "rental_uris": {"android": "https://dc.lft.to/lastmile_qr_scan", "ios": "https://dc.lft.to/lastmile_qr_scan"}, "fusion_lon": 0.0}, {"lat": 38.902752666666665, "is_disabled": 0, "type": "electric_scooter", "lon": -77.03648583333333, "bike_id": "fc147a6428e4a6fa02ff7561bf71b618", "fusion_lat": 0.0, "name": "fc147a6428e4a6fa02ff7561bf71b618", "is_reserved": 0, "rental_uris": {"android": "https://dc.lft.to/lastmile_qr_scan", "ios": "https://dc.lft.to/lastmile_qr_scan"}, "fusion_lon": 0.0}, {"lat": 38.921122833333335, "is_disabled": 0, "type": "electric_bike", "lon": -76.98573133333333, "bike_id": "d26a51dd0fdfa2f6ac1d3f09703dad1f", "fusion_lat": 0.0, "name": "d26a51dd0fdfa2f6ac1d3f09703dad1f", "is_reserved": 0, "rental_uris": {"android": "https://dc.lft.to/lastmile_qr_scan", "ios": "https://dc.lft.to/lastmile_qr_scan"}, "fusion_lon": 0.0}, {"lat": 38.858462833333334, "is_disabled": 0, "type": "electric_bike", "lon": -77.097527, "bike_id": "f29152c355752a6664e0c00d3f5335d7", "fusion_lat": 0.0, "name": "f29152c355752a6664e0c00d3f5335d7", "is_reserved": 0, "rental_uris": {"android": "https://dc.lft.to/lastmile_qr_scan", "ios": "https://dc.lft.to/lastmile_qr_scan"}, "fusion_lon": 0.0}, {"lat": 38.91201433333333, "is_disabled": 0, "type": "electric_scooter", "lon": -77.044875, "bike_id": "64edce8199a70eb833e7e964e1a8d017", "fusion_lat": 0.0, "name": "64edce8199a70eb833e7e964e1a8d017", "is_reserved": 0, "rental_uris": {"android": "https://dc.lft.to/lastmile_qr_scan", "ios": "https://dc.lft.to/lastmile_qr_scan"}, "fusion_lon": 0.0}, {"lat": 38.90070266666667, "is_disabled": 0, "type": "electric_scooter", "lon": -77.05065183333333, "bike_id": "f109dab5e6662b6ff8f218a3cee27b88", "fusion_lat": 0.0, "name": "f109dab5e6662b6ff8f218a3cee27b88", "is_reserved": 0, "rental_uris": {"android": "https://dc.lft.to/lastmile_qr_scan", "ios": "https://dc.lft.to/lastmile_qr_scan"}, "fusion_lon": 0.0}, {"lat": 38.9012375, "is_disabled": 0, "type": "electric_scooter", "lon": -77.04994983333333, "bike_id": "37febc0d54aedc5e54177f192530a43b", "fusion_lat": 0.0, "name": "37febc0d54aedc5e54177f192530a43b", "is_reserved": 0, "rental_uris": {"android": "https://dc.lft.to/lastmile_qr_scan", "ios": "https://dc.lft.to/lastmile_qr_scan"}, "fusion_lon": 0.0}, {"lat": 38.950795, "is_disabled": 0, "type": "electric_bike", "lon": -77.01197133333334, "bike_id": "9afe13907d6bd37647a5d9166ef7ebdc", "fusion_lat": 0.0, "name": "9afe13907d6bd37647a5d9166ef7ebdc", "is_reserved": 0, "rental_uris": {"android": "https://dc.lft.to/lastmile_qr_scan", "ios": "https://dc.lft.to/lastmile_qr_scan"}, "fusion_lon": 0.0}, {"lat": 38.8661705, "is_disabled": 0, "type": "electric_scooter", "lon": -76.986617, "bike_id": "ff006d1d385f728a1186ff836288595f", "fusion_lat": 0.0, "name": "ff006d1d385f728a1186ff836288595f", "is_reserved": 0, "rental_uris": {"android": "https://dc.lft.to/lastmile_qr_scan", "ios": "https://dc.lft.to/lastmile_qr_scan"}, "fusion_lon": 0.0}, {"lat": 38.90231383333333, "is_disabled": 0, "type": "electric_scooter", "lon": -77.04345466666666, "bike_id": "40b68f5b23fdc154e961b22301a0b985", "fusion_lat": 0.0, "name": "40b68f5b23fdc154e961b22301a0b985", "is_reserved": 0, "rental_uris": {"android": "https://dc.lft.to/lastmile_qr_scan", "ios": "https://dc.lft.to/lastmile_qr_scan"}, "fusion_lon": 0.0}, {"lat": 38.915576333333334, "is_disabled": 0, "type": "electric_scooter", "lon": -77.0098365, "bike_id": "7e3dd84851f99577112af83d23049c13", "fusion_lat": 0.0, "name": "7e3dd84851f99577112af83d23049c13", "is_reserved": 0, "rental_uris": {"android": "https://dc.lft.to/lastmile_qr_scan", "ios": "https://dc.lft.to/lastmile_qr_scan"}, "fusion_lon": 0.0}, {"lat": 38.914245, "is_disabled": 0, "type": "electric_scooter", "lon": -77.03205683333333, "bike_id": "f3c2b22e1e98d696890331102721d36b", "fusion_lat": 0.0, "name": "f3c2b22e1e98d696890331102721d36b", "is_reserved": 0, "rental_uris": {"android": "https://dc.lft.to/lastmile_qr_scan", "ios": "https://dc.lft.to/lastmile_qr_scan"}, "fusion_lon": 0.0}, {"lat": 38.91497566666666, "is_disabled": 0, "type": "electric_scooter", "lon": -76.98369416666667, "bike_id": "64059a3aec582bbcd4a616a701b5fd95", "fusion_lat": 0.0, "name": "64059a3aec582bbcd4a616a701b5fd95", "is_reserved": 0, "rental_uris": {"android": "https://dc.lft.to/lastmile_qr_scan", "ios": "https://dc.lft.to/lastmile_qr_scan"}, "fusion_lon": 0.0}, {"lat": 38.90752766666667, "is_disabled": 0, "type": "electric_scooter", "lon": -77.04165166666667, "bike_id": "e02dbad5551dcc01d1bffb2dbda9d925", "fusion_lat": 0.0, "name": "e02dbad5551dcc01d1bffb2dbda9d925", "is_reserved": 0, "rental_uris": {"android": "https://dc.lft.to/lastmile_qr_scan", "ios": "https://dc.lft.to/lastmile_qr_scan"}, "fusion_lon": 0.0}, {"lat": 38.90884166666667, "is_disabled": 0, "type": "electric_scooter", "lon": -77.03665816666667, "bike_id": "8f6985aad90b51c41b115325db9942ef", "fusion_lat": 0.0, "name": "8f6985aad90b51c41b115325db9942ef", "is_reserved": 0, "rental_uris": {"android": "https://dc.lft.to/lastmile_qr_scan", "ios": "https://dc.lft.to/lastmile_qr_scan"}, "fusion_lon": 0.0}, {"lat": 38.9573725, "is_disabled": 0, "type": "electric_scooter", "lon": -77.02382183333333, "bike_id": "09d5b0ea57bbb7d465348dd51c9c295a", "fusion_lat": 0.0, "name": "09d5b0ea57bbb7d465348dd51c9c295a", "is_reserved": 0, "rental_uris": {"android": "https://dc.lft.to/lastmile_qr_scan", "ios": "https://dc.lft.to/lastmile_qr_scan"}, "fusion_lon": 0.0}, {"lat": 38.86223483333333, "is_disabled": 0, "type": "electric_scooter", "lon": -76.983605, "bike_id": "13a875a38035261b17b7af323c912434", "fusion_lat": 0.0, "name": "13a875a38035261b17b7af323c912434", "is_reserved": 0, "rental_uris": {"android": "https://dc.lft.to/lastmile_qr_scan", "ios": "https://dc.lft.to/lastmile_qr_scan"}, "fusion_lon": 0.0}, {"lat": 38.90332083333333, "is_disabled": 0, "type": "electric_scooter", "lon": -76.97056733333334, "bike_id": "0badd6d202cc984e0f5370542f23145c", "fusion_lat": 0.0, "name": "0badd6d202cc984e0f5370542f23145c", "is_reserved": 0, "rental_uris": {"android": "https://dc.lft.to/lastmile_qr_scan", "ios": "https://dc.lft.to/lastmile_qr_scan"}, "fusion_lon": 0.0}, {"lat": 38.915532166666665, "is_disabled": 0, "type": "electric_scooter", "lon": -77.01040816666666, "bike_id": "fd21ce7288f56a85e0fb5e28579a6994", "fusion_lat": 0.0, "name": "fd21ce7288f56a85e0fb5e28579a6994", "is_reserved": 0, "rental_uris": {"android": "https://dc.lft.to/lastmile_qr_scan", "ios": "https://dc.lft.to/lastmile_qr_scan"}, "fusion_lon": 0.0}, {"lat": 38.88271183333333, "is_disabled": 0, "type": "electric_bike", "lon": -76.93239916666667, "bike_id": "2011b7b643e5312171c03fd3ea48c02e", "fusion_lat": 0.0, "name": "2011b7b643e5312171c03fd3ea48c02e", "is_reserved": 0, "rental_uris": {"android": "https://dc.lft.to/lastmile_qr_scan", "ios": "https://dc.lft.to/lastmile_qr_scan"}, "fusion_lon": 0.0}, {"lat": 38.88765133333333, "is_disabled": 0, "type": "electric_scooter", "lon": -76.9835155, "bike_id": "4ea6ac2077fa4a28d165db603d640c8d", "fusion_lat": 0.0, "name": "4ea6ac2077fa4a28d165db603d640c8d", "is_reserved": 0, "rental_uris": {"android": "https://dc.lft.to/lastmile_qr_scan", "ios": "https://dc.lft.to/lastmile_qr_scan"}, "fusion_lon": 0.0}, {"lat": 38.93567433333333, "is_disabled": 0, "type": "electric_scooter", "lon": -77.03727983333333, "bike_id": "3317b5f299a20b2fcc03cf9d2260f76a", "fusion_lat": 0.0, "name": "3317b5f299a20b2fcc03cf9d2260f76a", "is_reserved": 0, "rental_uris": {"android": "https://dc.lft.to/lastmile_qr_scan", "ios": "https://dc.lft.to/lastmile_qr_scan"}, "fusion_lon": 0.0}, {"lat": 38.9010405, "is_disabled": 0, "type": "electric_scooter", "lon": -77.0590265, "bike_id": "f48abb5327f7d11da223a34a6b865b13", "fusion_lat": 0.0, "name": "f48abb5327f7d11da223a34a6b865b13", "is_reserved": 0, "rental_uris": {"android": "https://dc.lft.to/lastmile_qr_scan", "ios": "https://dc.lft.to/lastmile_qr_scan"}, "fusion_lon": 0.0}, {"lat": 38.892224166666665, "is_disabled": 0, "type": "electric_scooter", "lon": -77.04503533333333, "bike_id": "9c04a497340a03ada48254e4cf6e347a", "fusion_lat": 0.0, "name": "9c04a497340a03ada48254e4cf6e347a", "is_reserved": 0, "rental_uris": {"android": "https://dc.lft.to/lastmile_qr_scan", "ios": "https://dc.lft.to/lastmile_qr_scan"}, "fusion_lon": 0.0}, {"lat": 38.898950666666664, "is_disabled": 0, "type": "electric_scooter", "lon": -77.07228633333334, "bike_id": "dbd4d99791d695f3a65bb05f10e14f61", "fusion_lat": 0.0, "name": "dbd4d99791d695f3a65bb05f10e14f61", "is_reserved": 0, "rental_uris": {"android": "https://dc.lft.to/lastmile_qr_scan", "ios": "https://dc.lft.to/lastmile_qr_scan"}, "fusion_lon": 0.0}, {"lat": 38.91257983333333, "is_disabled": 0, "type": "electric_scooter", "lon": -77.03157933333334, "bike_id": "bd033250bdeea72b3b6c71bec9b596d6", "fusion_lat": 0.0, "name": "bd033250bdeea72b3b6c71bec9b596d6", "is_reserved": 0, "rental_uris": {"android": "https://dc.lft.to/lastmile_qr_scan", "ios": "https://dc.lft.to/lastmile_qr_scan"}, "fusion_lon": 0.0}, {"lat": 38.92303183333333, "is_disabled": 0, "type": "electric_scooter", "lon": -77.02332566666666, "bike_id": "c4ab44634f9ead0ff9027c5d4ce356af", "fusion_lat": 0.0, "name": "c4ab44634f9ead0ff9027c5d4ce356af", "is_reserved": 0, "rental_uris": {"android": "https://dc.lft.to/lastmile_qr_scan", "ios": "https://dc.lft.to/lastmile_qr_scan"}, "fusion_lon": 0.0}, {"lat": 38.91239866666667, "is_disabled": 0, "type": "electric_scooter", "lon": -77.046661, "bike_id": "2e2a1031f880aa819c97e7fa15fd8940", "fusion_lat": 0.0, "name": "2e2a1031f880aa819c97e7fa15fd8940", "is_reserved": 0, "rental_uris": {"android": "https://dc.lft.to/lastmile_qr_scan", "ios": "https://dc.lft.to/lastmile_qr_scan"}, "fusion_lon": 0.0}, {"lat": 38.87637333333333, "is_disabled": 0, "type": "electric_scooter", "lon": -77.00916466666666, "bike_id": "0cd3d61467e90d2d8baff4863df8a8ca", "fusion_lat": 0.0, "name": "0cd3d61467e90d2d8baff4863df8a8ca", "is_reserved": 0, "rental_uris": {"android": "https://dc.lft.to/lastmile_qr_scan", "ios": "https://dc.lft.to/lastmile_qr_scan"}, "fusion_lon": 0.0}, {"lat": 38.843761, "is_disabled": 0, "type": "electric_bike", "lon": -77.089957, "bike_id": "3897f591687b1a6c9c103f33a7f15da1", "fusion_lat": 0.0, "name": "3897f591687b1a6c9c103f33a7f15da1", "is_reserved": 0, "rental_uris": {"android": "https://dc.lft.to/lastmile_qr_scan", "ios": "https://dc.lft.to/lastmile_qr_scan"}, "fusion_lon": 0.0}, {"lat": 38.91692916666667, "is_disabled": 0, "type": "electric_scooter", "lon": -77.04596916666667, "bike_id": "ed439abfa3a93f9188b54d5d14cd6cc2", "fusion_lat": 0.0, "name": "ed439abfa3a93f9188b54d5d14cd6cc2", "is_reserved": 0, "rental_uris": {"android": "https://dc.lft.to/lastmile_qr_scan", "ios": "https://dc.lft.to/lastmile_qr_scan"}, "fusion_lon": 0.0}, {"lat": 38.86250316666667, "is_disabled": 0, "type": "electric_scooter", "lon": -76.99259583333334, "bike_id": "1d5cb5a06c82b8c90da4660a11f6dda0", "fusion_lat": 0.0, "name": "1d5cb5a06c82b8c90da4660a11f6dda0", "is_reserved": 0, "rental_uris": {"android": "https://dc.lft.to/lastmile_qr_scan", "ios": "https://dc.lft.to/lastmile_qr_scan"}, "fusion_lon": 0.0}, {"lat": 38.90089416666667, "is_disabled": 0, "type": "electric_scooter", "lon": -77.04929233333333, "bike_id": "fcc25949f3b682ebda0e8b32cbb32d0c", "fusion_lat": 0.0, "name": "fcc25949f3b682ebda0e8b32cbb32d0c", "is_reserved": 0, "rental_uris": {"android": "https://dc.lft.to/lastmile_qr_scan", "ios": "https://dc.lft.to/lastmile_qr_scan"}, "fusion_lon": 0.0}, {"lat": 38.92589183333333, "is_disabled": 0, "type": "electric_scooter", "lon": -77.02285683333334, "bike_id": "e66135f2d605b4ea6f1d03d87a65fbb8", "fusion_lat": 0.0, "name": "e66135f2d605b4ea6f1d03d87a65fbb8", "is_reserved": 0, "rental_uris": {"android": "https://dc.lft.to/lastmile_qr_scan", "ios": "https://dc.lft.to/lastmile_qr_scan"}, "fusion_lon": 0.0}, {"lat": 38.95779983333333, "is_disabled": 0, "type": "electric_scooter", "lon": -77.02753166666666, "bike_id": "13a95c04b6b81236704ca6b911f0c989", "fusion_lat": 0.0, "name": "13a95c04b6b81236704ca6b911f0c989", "is_reserved": 0, "rental_uris": {"android": "https://dc.lft.to/lastmile_qr_scan", "ios": "https://dc.lft.to/lastmile_qr_scan"}, "fusion_lon": 0.0}, {"lat": 38.939719, "is_disabled": 0, "type": "electric_scooter", "lon": -77.0358425, "bike_id": "e0c6687bd6cfc9f510d0fe48931ffeb3", "fusion_lat": 0.0, "name": "e0c6687bd6cfc9f510d0fe48931ffeb3", "is_reserved": 0, "rental_uris": {"android": "https://dc.lft.to/lastmile_qr_scan", "ios": "https://dc.lft.to/lastmile_qr_scan"}, "fusion_lon": 0.0}, {"lat": 38.909889166666666, "is_disabled": 0, "type": "electric_scooter", "lon": -77.0089915, "bike_id": "3cb1c6fb56bd9b8da60233f8731aad8f", "fusion_lat": 0.0, "name": "3cb1c6fb56bd9b8da60233f8731aad8f", "is_reserved": 0, "rental_uris": {"android": "https://dc.lft.to/lastmile_qr_scan", "ios": "https://dc.lft.to/lastmile_qr_scan"}, "fusion_lon": 0.0}, {"lat": 38.90879133333333, "is_disabled": 0, "type": "electric_scooter", "lon": -77.03672616666667, "bike_id": "170b54d3ce27ca7fbb2562ec2213c6dc", "fusion_lat": 0.0, "name": "170b54d3ce27ca7fbb2562ec2213c6dc", "is_reserved": 0, "rental_uris": {"android": "https://dc.lft.to/lastmile_qr_scan", "ios": "https://dc.lft.to/lastmile_qr_scan"}, "fusion_lon": 0.0}, {"lat": 38.886948833333335, "is_disabled": 0, "type": "electric_scooter", "lon": -77.00217283333333, "bike_id": "5134c3b53ec4d081257e93ae865a8c07", "fusion_lat": 0.0, "name": "5134c3b53ec4d081257e93ae865a8c07", "is_reserved": 0, "rental_uris": {"android": "https://dc.lft.to/lastmile_qr_scan", "ios": "https://dc.lft.to/lastmile_qr_scan"}, "fusion_lon": 0.0}, {"lat": 38.9374825, "is_disabled": 0, "type": "electric_scooter", "lon": -77.03633966666666, "bike_id": "4002963932899cde846399ffa390df9e", "fusion_lat": 0.0, "name": "4002963932899cde846399ffa390df9e", "is_reserved": 0, "rental_uris": {"android": "https://dc.lft.to/lastmile_qr_scan", "ios": "https://dc.lft.to/lastmile_qr_scan"}, "fusion_lon": 0.0}, {"lat": 38.900361, "is_disabled": 0, "type": "electric_scooter", "lon": -76.99627083333333, "bike_id": "dc85d0fc6fd57e01c2e3a506df4294ab", "fusion_lat": 0.0, "name": "dc85d0fc6fd57e01c2e3a506df4294ab", "is_reserved": 0, "rental_uris": {"android": "https://dc.lft.to/lastmile_qr_scan", "ios": "https://dc.lft.to/lastmile_qr_scan"}, "fusion_lon": 0.0}, {"lat": 38.8972845, "is_disabled": 0, "type": "electric_scooter", "lon": -77.04988666666667, "bike_id": "372effc1f8f1da9f911777569a427946", "fusion_lat": 0.0, "name": "372effc1f8f1da9f911777569a427946", "is_reserved": 0, "rental_uris": {"android": "https://dc.lft.to/lastmile_qr_scan", "ios": "https://dc.lft.to/lastmile_qr_scan"}, "fusion_lon": 0.0}, {"lat": 38.922419833333336, "is_disabled": 0, "type": "electric_scooter", "lon": -77.04268166666667, "bike_id": "ca4768da23e25d0b33bc737aa63b4b40", "fusion_lat": 0.0, "name": "ca4768da23e25d0b33bc737aa63b4b40", "is_reserved": 0, "rental_uris": {"android": "https://dc.lft.to/lastmile_qr_scan", "ios": "https://dc.lft.to/lastmile_qr_scan"}, "fusion_lon": 0.0}, {"lat": 38.93656333333333, "is_disabled": 0, "type": "electric_bike", "lon": -76.95215466666667, "bike_id": "5dd781c9872c665f6be277785d911dda", "fusion_lat": 0.0, "name": "5dd781c9872c665f6be277785d911dda", "is_reserved": 0, "rental_uris": {"android": "https://dc.lft.to/lastmile_qr_scan", "ios": "https://dc.lft.to/lastmile_qr_scan"}, "fusion_lon": 0.0}, {"lat": 38.8873125, "is_disabled": 0, "type": "electric_scooter", "lon": -77.03177633333334, "bike_id": "eb54347830c85da6a005297f9e8f1f28", "fusion_lat": 0.0, "name": "eb54347830c85da6a005297f9e8f1f28", "is_reserved": 0, "rental_uris": {"android": "https://dc.lft.to/lastmile_qr_scan", "ios": "https://dc.lft.to/lastmile_qr_scan"}, "fusion_lon": 0.0}, {"lat": 38.916884333333336, "is_disabled": 0, "type": "electric_scooter", "lon": -77.02918416666667, "bike_id": "e2f75c7e7101f249303e3fb85e712912", "fusion_lat": 0.0, "name": "e2f75c7e7101f249303e3fb85e712912", "is_reserved": 0, "rental_uris": {"android": "https://dc.lft.to/lastmile_qr_scan", "ios": "https://dc.lft.to/lastmile_qr_scan"}, "fusion_lon": 0.0}, {"lat": 38.973278, "is_disabled": 0, "type": "electric_bike", "lon": -77.0214925, "bike_id": "a3c73007adbf0ea79ed1ab6de50ce827", "fusion_lat": 0.0, "name": "a3c73007adbf0ea79ed1ab6de50ce827", "is_reserved": 0, "rental_uris": {"android": "https://dc.lft.to/lastmile_qr_scan", "ios": "https://dc.lft.to/lastmile_qr_scan"}, "fusion_lon": 0.0}, {"lat": 38.91641083333333, "is_disabled": 0, "type": "electric_scooter", "lon": -76.98223483333334, "bike_id": "4b3c12d1c60a780dacafa56ff3d9ee0f", "fusion_lat": 0.0, "name": "4b3c12d1c60a780dacafa56ff3d9ee0f", "is_reserved": 0, "rental_uris": {"android": "https://dc.lft.to/lastmile_qr_scan", "ios": "https://dc.lft.to/lastmile_qr_scan"}, "fusion_lon": 0.0}, {"lat": 38.844235, "is_disabled": 0, "type": "electric_scooter", "lon": -76.99775116666666, "bike_id": "33123dac9fcb6bb3d747994cb101eaba", "fusion_lat": 0.0, "name": "33123dac9fcb6bb3d747994cb101eaba", "is_reserved": 0, "rental_uris": {"android": "https://dc.lft.to/lastmile_qr_scan", "ios": "https://dc.lft.to/lastmile_qr_scan"}, "fusion_lon": 0.0}, {"lat": 38.85186683333333, "is_disabled": 0, "type": "electric_scooter", "lon": -76.97618933333334, "bike_id": "aa5e8c7972a09b8a17d5bcd2f4df9a25", "fusion_lat": 0.0, "name": "aa5e8c7972a09b8a17d5bcd2f4df9a25", "is_reserved": 0, "rental_uris": {"android": "https://dc.lft.to/lastmile_qr_scan", "ios": "https://dc.lft.to/lastmile_qr_scan"}, "fusion_lon": 0.0}, {"lat": 39.034268, "is_disabled": 0, "type": "electric_bike", "lon": -77.04293433333333, "bike_id": "6b89495a4476fcd88f4858491c6ac2a8", "fusion_lat": 0.0, "name": "6b89495a4476fcd88f4858491c6ac2a8", "is_reserved": 0, "rental_uris": {"android": "https://dc.lft.to/lastmile_qr_scan", "ios": "https://dc.lft.to/lastmile_qr_scan"}, "fusion_lon": 0.0}, {"lat": 38.87662383333333, "is_disabled": 0, "type": "electric_scooter", "lon": -77.0041695, "bike_id": "ffa22a6c8d4966058e32f287e541f1cb", "fusion_lat": 0.0, "name": "ffa22a6c8d4966058e32f287e541f1cb", "is_reserved": 0, "rental_uris": {"android": "https://dc.lft.to/lastmile_qr_scan", "ios": "https://dc.lft.to/lastmile_qr_scan"}, "fusion_lon": 0.0}, {"lat": 38.90530733333333, "is_disabled": 0, "type": "electric_scooter", "lon": -77.0270805, "bike_id": "91e06f07133dd2b6be3d94edd61dc8c0", "fusion_lat": 0.0, "name": "91e06f07133dd2b6be3d94edd61dc8c0", "is_reserved": 0, "rental_uris": {"android": "https://dc.lft.to/lastmile_qr_scan", "ios": "https://dc.lft.to/lastmile_qr_scan"}, "fusion_lon": 0.0}, {"lat": 38.91971216666666, "is_disabled": 0, "type": "electric_scooter", "lon": -77.02382966666667, "bike_id": "95e852ec1f9d61325aac92813ad919cc", "fusion_lat": 0.0, "name": "95e852ec1f9d61325aac92813ad919cc", "is_reserved": 0, "rental_uris": {"android": "https://dc.lft.to/lastmile_qr_scan", "ios": "https://dc.lft.to/lastmile_qr_scan"}, "fusion_lon": 0.0}, {"lat": 38.94550316666667, "is_disabled": 0, "type": "electric_bike", "lon": -76.89537766666666, "bike_id": "12013d941d0ad2576bd358d3f1ead73e", "fusion_lat": 0.0, "name": "12013d941d0ad2576bd358d3f1ead73e", "is_reserved": 0, "rental_uris": {"android": "https://dc.lft.to/lastmile_qr_scan", "ios": "https://dc.lft.to/lastmile_qr_scan"}, "fusion_lon": 0.0}, {"lat": 38.91683783333333, "is_disabled": 0, "type": "electric_scooter", "lon": -77.02512833333333, "bike_id": "b16f134aa20db1947e9b0c4353d54e23", "fusion_lat": 0.0, "name": "b16f134aa20db1947e9b0c4353d54e23", "is_reserved": 0, "rental_uris": {"android": "https://dc.lft.to/lastmile_qr_scan", "ios": "https://dc.lft.to/lastmile_qr_scan"}, "fusion_lon": 0.0}, {"lat": 38.9126705, "is_disabled": 0, "type": "electric_scooter", "lon": -77.03236366666667, "bike_id": "5e1de8948c730b48c7c9c9ef9bc483b3", "fusion_lat": 0.0, "name": "5e1de8948c730b48c7c9c9ef9bc483b3", "is_reserved": 0, "rental_uris": {"android": "https://dc.lft.to/lastmile_qr_scan", "ios": "https://dc.lft.to/lastmile_qr_scan"}, "fusion_lon": 0.0}, {"lat": 38.907493333333335, "is_disabled": 0, "type": "electric_scooter", "lon": -77.041512, "bike_id": "cd994ea4d5c4181d479b1030ab0c58a6", "fusion_lat": 0.0, "name": "cd994ea4d5c4181d479b1030ab0c58a6", "is_reserved": 0, "rental_uris": {"android": "https://dc.lft.to/lastmile_qr_scan", "ios": "https://dc.lft.to/lastmile_qr_scan"}, "fusion_lon": 0.0}, {"lat": 38.907272166666665, "is_disabled": 0, "type": "electric_scooter", "lon": -77.023698, "bike_id": "6ab1be80ae6979df84ebacee0e639467", "fusion_lat": 0.0, "name": "6ab1be80ae6979df84ebacee0e639467", "is_reserved": 0, "rental_uris": {"android": "https://dc.lft.to/lastmile_qr_scan", "ios": "https://dc.lft.to/lastmile_qr_scan"}, "fusion_lon": 0.0}, {"lat": 38.90277616666667, "is_disabled": 0, "type": "electric_scooter", "lon": -77.038721, "bike_id": "3242e0d1295e6a52dd8992f2ac3648e0", "fusion_lat": 0.0, "name": "3242e0d1295e6a52dd8992f2ac3648e0", "is_reserved": 0, "rental_uris": {"android": "https://dc.lft.to/lastmile_qr_scan", "ios": "https://dc.lft.to/lastmile_qr_scan"}, "fusion_lon": 0.0}, {"lat": 38.904715833333334, "is_disabled": 0, "type": "electric_scooter", "lon": -77.0488295, "bike_id": "31c5c249cf292de4bbfcbabff47478e1", "fusion_lat": 0.0, "name": "31c5c249cf292de4bbfcbabff47478e1", "is_reserved": 0, "rental_uris": {"android": "https://dc.lft.to/lastmile_qr_scan", "ios": "https://dc.lft.to/lastmile_qr_scan"}, "fusion_lon": 0.0}, {"lat": 38.912563, "is_disabled": 0, "type": "electric_scooter", "lon": -77.0374375, "bike_id": "9bb01cb45d5b2429db860c74404b88bf", "fusion_lat": 0.0, "name": "9bb01cb45d5b2429db860c74404b88bf", "is_reserved": 0, "rental_uris": {"android": "https://dc.lft.to/lastmile_qr_scan", "ios": "https://dc.lft.to/lastmile_qr_scan"}, "fusion_lon": 0.0}, {"lat": 38.91249466666667, "is_disabled": 0, "type": "electric_scooter", "lon": -77.032074, "bike_id": "363e9ae49fb69c7667c68f87e1567477", "fusion_lat": 0.0, "name": "363e9ae49fb69c7667c68f87e1567477", "is_reserved": 0, "rental_uris": {"android": "https://dc.lft.to/lastmile_qr_scan", "ios": "https://dc.lft.to/lastmile_qr_scan"}, "fusion_lon": 0.0}, {"lat": 39.052028666666665, "is_disabled": 0, "type": "electric_bike", "lon": -77.10914616666666, "bike_id": "570215fccd87b76649149a85e8f5a448", "fusion_lat": 0.0, "name": "570215fccd87b76649149a85e8f5a448", "is_reserved": 0, "rental_uris": {"android": "https://dc.lft.to/lastmile_qr_scan", "ios": "https://dc.lft.to/lastmile_qr_scan"}, "fusion_lon": 0.0}, {"lat": 38.900125, "is_disabled": 0, "type": "electric_scooter", "lon": -77.04503633333333, "bike_id": "26bf12f6527e5be2f73010909fba4e1f", "fusion_lat": 0.0, "name": "26bf12f6527e5be2f73010909fba4e1f", "is_reserved": 0, "rental_uris": {"android": "https://dc.lft.to/lastmile_qr_scan", "ios": "https://dc.lft.to/lastmile_qr_scan"}, "fusion_lon": 0.0}, {"lat": 38.900658666666665, "is_disabled": 0, "type": "electric_scooter", "lon": -77.02598883333333, "bike_id": "a99cbeb2b1f73857562a2a2bfedd1fe3", "fusion_lat": 0.0, "name": "a99cbeb2b1f73857562a2a2bfedd1fe3", "is_reserved": 0, "rental_uris": {"android": "https://dc.lft.to/lastmile_qr_scan", "ios": "https://dc.lft.to/lastmile_qr_scan"}, "fusion_lon": 0.0}, {"lat": 38.88740033333333, "is_disabled": 0, "type": "electric_scooter", "lon": -77.015319, "bike_id": "e6d01b4a000a964206cfb84c1f5ccb4e", "fusion_lat": 0.0, "name": "e6d01b4a000a964206cfb84c1f5ccb4e", "is_reserved": 0, "rental_uris": {"android": "https://dc.lft.to/lastmile_qr_scan", "ios": "https://dc.lft.to/lastmile_qr_scan"}, "fusion_lon": 0.0}, {"lat": 38.8996895, "is_disabled": 0, "type": "electric_scooter", "lon": -76.92659483333334, "bike_id": "dee30578086684b0efaa6e003ac58933", "fusion_lat": 0.0, "name": "dee30578086684b0efaa6e003ac58933", "is_reserved": 0, "rental_uris": {"android": "https://dc.lft.to/lastmile_qr_scan", "ios": "https://dc.lft.to/lastmile_qr_scan"}, "fusion_lon": 0.0}, {"lat": 38.9178235, "is_disabled": 0, "type": "electric_scooter", "lon": -77.02309616666666, "bike_id": "8c1ba21b4a0cc0734419b69d7bdb5114", "fusion_lat": 0.0, "name": "8c1ba21b4a0cc0734419b69d7bdb5114", "is_reserved": 0, "rental_uris": {"android": "https://dc.lft.to/lastmile_qr_scan", "ios": "https://dc.lft.to/lastmile_qr_scan"}, "fusion_lon": 0.0}, {"lat": 38.912027333333334, "is_disabled": 0, "type": "electric_scooter", "lon": -77.00222116666667, "bike_id": "7f92e17c46456554ffaed02eebee0f78", "fusion_lat": 0.0, "name": "7f92e17c46456554ffaed02eebee0f78", "is_reserved": 0, "rental_uris": {"android": "https://dc.lft.to/lastmile_qr_scan", "ios": "https://dc.lft.to/lastmile_qr_scan"}, "fusion_lon": 0.0}, {"lat": 38.866231, "is_disabled": 0, "type": "electric_scooter", "lon": -76.9869595, "bike_id": "beab1300d5ad793d9e28a30ba9fa62ad", "fusion_lat": 0.0, "name": "beab1300d5ad793d9e28a30ba9fa62ad", "is_reserved": 0, "rental_uris": {"android": "https://dc.lft.to/lastmile_qr_scan", "ios": "https://dc.lft.to/lastmile_qr_scan"}, "fusion_lon": 0.0}, {"lat": 38.9237035, "is_disabled": 0, "type": "electric_scooter", "lon": -77.04027783333333, "bike_id": "64cbbed08a77b66410ba9b516c26c49b", "fusion_lat": 0.0, "name": "64cbbed08a77b66410ba9b516c26c49b", "is_reserved": 0, "rental_uris": {"android": "https://dc.lft.to/lastmile_qr_scan", "ios": "https://dc.lft.to/lastmile_qr_scan"}, "fusion_lon": 0.0}, {"lat": 38.88765933333333, "is_disabled": 0, "type": "electric_scooter", "lon": -76.955989, "bike_id": "6e5e8835d08ba452b00c617ef5a234e8", "fusion_lat": 0.0, "name": "6e5e8835d08ba452b00c617ef5a234e8", "is_reserved": 0, "rental_uris": {"android": "https://dc.lft.to/lastmile_qr_scan", "ios": "https://dc.lft.to/lastmile_qr_scan"}, "fusion_lon": 0.0}, {"lat": 38.849318333333336, "is_disabled": 0, "type": "electric_bike", "lon": -77.10016483333334, "bike_id": "721eb3b8b2be298a70cf1c836f0ff1e0", "fusion_lat": 0.0, "name": "721eb3b8b2be298a70cf1c836f0ff1e0", "is_reserved": 0, "rental_uris": {"android": "https://dc.lft.to/lastmile_qr_scan", "ios": "https://dc.lft.to/lastmile_qr_scan"}, "fusion_lon": 0.0}, {"lat": 38.842882, "is_disabled": 0, "type": "electric_scooter", "lon": -76.99942516666667, "bike_id": "304a210ed5395fce7cc83a033c463275", "fusion_lat": 0.0, "name": "304a210ed5395fce7cc83a033c463275", "is_reserved": 0, "rental_uris": {"android": "https://dc.lft.to/lastmile_qr_scan", "ios": "https://dc.lft.to/lastmile_qr_scan"}, "fusion_lon": 0.0}, {"lat": 38.902375666666664, "is_disabled": 0, "type": "electric_scooter", "lon": -77.0020095, "bike_id": "acf32515efe3c476f80993f3f229fec7", "fusion_lat": 0.0, "name": "acf32515efe3c476f80993f3f229fec7", "is_reserved": 0, "rental_uris": {"android": "https://dc.lft.to/lastmile_qr_scan", "ios": "https://dc.lft.to/lastmile_qr_scan"}, "fusion_lon": 0.0}, {"lat": 38.85895033333333, "is_disabled": 0, "type": "electric_bike", "lon": -76.96698966666666, "bike_id": "d56a7b30fcbdbd147fb330c83fc106a5", "fusion_lat": 0.0, "name": "d56a7b30fcbdbd147fb330c83fc106a5", "is_reserved": 0, "rental_uris": {"android": "https://dc.lft.to/lastmile_qr_scan", "ios": "https://dc.lft.to/lastmile_qr_scan"}, "fusion_lon": 0.0}, {"lat": 38.93225733333333, "is_disabled": 0, "type": "electric_scooter", "lon": -76.99601316666667, "bike_id": "766effb5020f0f37fafea1395183fc90", "fusion_lat": 0.0, "name": "766effb5020f0f37fafea1395183fc90", "is_reserved": 0, "rental_uris": {"android": "https://dc.lft.to/lastmile_qr_scan", "ios": "https://dc.lft.to/lastmile_qr_scan"}, "fusion_lon": 0.0}, {"lat": 38.884890666666664, "is_disabled": 0, "type": "electric_scooter", "lon": -77.00709133333334, "bike_id": "fcaf95c275eaff49cc2d12880d5cdacb", "fusion_lat": 0.0, "name": "fcaf95c275eaff49cc2d12880d5cdacb", "is_reserved": 0, "rental_uris": {"android": "https://dc.lft.to/lastmile_qr_scan", "ios": "https://dc.lft.to/lastmile_qr_scan"}, "fusion_lon": 0.0}, {"lat": 38.92242066666667, "is_disabled": 0, "type": "electric_scooter", "lon": -77.04267883333333, "bike_id": "735498417da7396feba57980a915682e", "fusion_lat": 0.0, "name": "735498417da7396feba57980a915682e", "is_reserved": 0, "rental_uris": {"android": "https://dc.lft.to/lastmile_qr_scan", "ios": "https://dc.lft.to/lastmile_qr_scan"}, "fusion_lon": 0.0}, {"lat": 38.908042333333334, "is_disabled": 0, "type": "electric_scooter", "lon": -77.043385, "bike_id": "f78fe981cf54df74126932b3abaf2fda", "fusion_lat": 0.0, "name": "f78fe981cf54df74126932b3abaf2fda", "is_reserved": 0, "rental_uris": {"android": "https://dc.lft.to/lastmile_qr_scan", "ios": "https://dc.lft.to/lastmile_qr_scan"}, "fusion_lon": 0.0}, {"lat": 38.905459, "is_disabled": 0, "type": "electric_scooter", "lon": -77.03398333333334, "bike_id": "5b91f1a12cfcb83158f6cb42bdd021e4", "fusion_lat": 0.0, "name": "5b91f1a12cfcb83158f6cb42bdd021e4", "is_reserved": 0, "rental_uris": {"android": "https://dc.lft.to/lastmile_qr_scan", "ios": "https://dc.lft.to/lastmile_qr_scan"}, "fusion_lon": 0.0}, {"lat": 38.90801233333333, "is_disabled": 0, "type": "electric_scooter", "lon": -77.04330416666667, "bike_id": "d499e02ed5f81312c3a87f90cd19edc9", "fusion_lat": 0.0, "name": "d499e02ed5f81312c3a87f90cd19edc9", "is_reserved": 0, "rental_uris": {"android": "https://dc.lft.to/lastmile_qr_scan", "ios": "https://dc.lft.to/lastmile_qr_scan"}, "fusion_lon": 0.0}, {"lat": 38.89345683333333, "is_disabled": 0, "type": "electric_scooter", "lon": -76.94932966666667, "bike_id": "ea34726f5059fa5b431c0581bb897186", "fusion_lat": 0.0, "name": "ea34726f5059fa5b431c0581bb897186", "is_reserved": 0, "rental_uris": {"android": "https://dc.lft.to/lastmile_qr_scan", "ios": "https://dc.lft.to/lastmile_qr_scan"}, "fusion_lon": 0.0}, {"lat": 38.909739333333334, "is_disabled": 0, "type": "electric_bike", "lon": -76.9851845, "bike_id": "a287cdec2f396b3d8285f3a111df9043", "fusion_lat": 0.0, "name": "a287cdec2f396b3d8285f3a111df9043", "is_reserved": 0, "rental_uris": {"android": "https://dc.lft.to/lastmile_qr_scan", "ios": "https://dc.lft.to/lastmile_qr_scan"}, "fusion_lon": 0.0}, {"lat": 38.92531066666667, "is_disabled": 0, "type": "electric_scooter", "lon": -77.0442125, "bike_id": "3d2d921dde3752a1eb2dd8885e95202b", "fusion_lat": 0.0, "name": "3d2d921dde3752a1eb2dd8885e95202b", "is_reserved": 0, "rental_uris": {"android": "https://dc.lft.to/lastmile_qr_scan", "ios": "https://dc.lft.to/lastmile_qr_scan"}, "fusion_lon": 0.0}, {"lat": 38.97193466666667, "is_disabled": 0, "type": "electric_bike", "lon": -77.027154, "bike_id": "b121c2c1546d2c1e8eaa0336f14164d3", "fusion_lat": 0.0, "name": "b121c2c1546d2c1e8eaa0336f14164d3", "is_reserved": 0, "rental_uris": {"android": "https://dc.lft.to/lastmile_qr_scan", "ios": "https://dc.lft.to/lastmile_qr_scan"}, "fusion_lon": 0.0}, {"lat": 38.9010765, "is_disabled": 0, "type": "electric_scooter", "lon": -77.05900966666667, "bike_id": "a653e43a940b0e4206efff9c5308c46e", "fusion_lat": 0.0, "name": "a653e43a940b0e4206efff9c5308c46e", "is_reserved": 0, "rental_uris": {"android": "https://dc.lft.to/lastmile_qr_scan", "ios": "https://dc.lft.to/lastmile_qr_scan"}, "fusion_lon": 0.0}, {"lat": 38.910507, "is_disabled": 0, "type": "electric_scooter", "lon": -77.01984733333333, "bike_id": "4089c456576487714a122a39a965ffcb", "fusion_lat": 0.0, "name": "4089c456576487714a122a39a965ffcb", "is_reserved": 0, "rental_uris": {"android": "https://dc.lft.to/lastmile_qr_scan", "ios": "https://dc.lft.to/lastmile_qr_scan"}, "fusion_lon": 0.0}, {"lat": 38.9096735, "is_disabled": 0, "type": "electric_scooter", "lon": -77.00921066666666, "bike_id": "d3f47a083529864ff867a287538a5578", "fusion_lat": 0.0, "name": "d3f47a083529864ff867a287538a5578", "is_reserved": 0, "rental_uris": {"android": "https://dc.lft.to/lastmile_qr_scan", "ios": "https://dc.lft.to/lastmile_qr_scan"}, "fusion_lon": 0.0}, {"lat": 38.88456583333333, "is_disabled": 0, "type": "electric_scooter", "lon": -76.929556, "bike_id": "492de9fd2d13fd40a01f51b5b7a93028", "fusion_lat": 0.0, "name": "492de9fd2d13fd40a01f51b5b7a93028", "is_reserved": 0, "rental_uris": {"android": "https://dc.lft.to/lastmile_qr_scan", "ios": "https://dc.lft.to/lastmile_qr_scan"}, "fusion_lon": 0.0}, {"lat": 38.934239, "is_disabled": 0, "type": "electric_scooter", "lon": -76.96504483333334, "bike_id": "2db5469e8b0c6f25496bc609cade7bde", "fusion_lat": 0.0, "name": "2db5469e8b0c6f25496bc609cade7bde", "is_reserved": 0, "rental_uris": {"android": "https://dc.lft.to/lastmile_qr_scan", "ios": "https://dc.lft.to/lastmile_qr_scan"}, "fusion_lon": 0.0}, {"lat": 38.900291833333334, "is_disabled": 0, "type": "electric_scooter", "lon": -77.00212, "bike_id": "6628207b4970b252fdf7ca33b2d6cdb4", "fusion_lat": 0.0, "name": "6628207b4970b252fdf7ca33b2d6cdb4", "is_reserved": 0, "rental_uris": {"android": "https://dc.lft.to/lastmile_qr_scan", "ios": "https://dc.lft.to/lastmile_qr_scan"}, "fusion_lon": 0.0}, {"lat": 38.933834833333336, "is_disabled": 0, "type": "electric_scooter", "lon": -77.03545766666667, "bike_id": "daf20886e7127b273f1fdffb09e9f175", "fusion_lat": 0.0, "name": "daf20886e7127b273f1fdffb09e9f175", "is_reserved": 0, "rental_uris": {"android": "https://dc.lft.to/lastmile_qr_scan", "ios": "https://dc.lft.to/lastmile_qr_scan"}, "fusion_lon": 0.0}, {"lat": 38.855932333333335, "is_disabled": 0, "type": "electric_scooter", "lon": -76.970056, "bike_id": "d5c998f94d0c402f184ec90ef6a189d4", "fusion_lat": 0.0, "name": "d5c998f94d0c402f184ec90ef6a189d4", "is_reserved": 0, "rental_uris": {"android": "https://dc.lft.to/lastmile_qr_scan", "ios": "https://dc.lft.to/lastmile_qr_scan"}, "fusion_lon": 0.0}, {"lat": 38.91556633333333, "is_disabled": 0, "type": "electric_scooter", "lon": -77.03131766666667, "bike_id": "707adcdbde2f795480fed236b1981901", "fusion_lat": 0.0, "name": "707adcdbde2f795480fed236b1981901", "is_reserved": 0, "rental_uris": {"android": "https://dc.lft.to/lastmile_qr_scan", "ios": "https://dc.lft.to/lastmile_qr_scan"}, "fusion_lon": 0.0}, {"lat": 38.93178733333333, "is_disabled": 0, "type": "electric_scooter", "lon": -77.02363066666666, "bike_id": "6dd7540968d94d79a8d88b720d8a799c", "fusion_lat": 0.0, "name": "6dd7540968d94d79a8d88b720d8a799c", "is_reserved": 0, "rental_uris": {"android": "https://dc.lft.to/lastmile_qr_scan", "ios": "https://dc.lft.to/lastmile_qr_scan"}, "fusion_lon": 0.0}, {"lat": 38.886079333333335, "is_disabled": 0, "type": "electric_scooter", "lon": -77.01888133333334, "bike_id": "92a1c48df347c6436715b55767630c49", "fusion_lat": 0.0, "name": "92a1c48df347c6436715b55767630c49", "is_reserved": 0, "rental_uris": {"android": "https://dc.lft.to/lastmile_qr_scan", "ios": "https://dc.lft.to/lastmile_qr_scan"}, "fusion_lon": 0.0}, {"lat": 38.885487499999996, "is_disabled": 0, "type": "electric_bike", "lon": -77.1178575, "bike_id": "cf9557d669eda0b701276a121632bfe5", "fusion_lat": 0.0, "name": "cf9557d669eda0b701276a121632bfe5", "is_reserved": 0, "rental_uris": {"android": "https://dc.lft.to/lastmile_qr_scan", "ios": "https://dc.lft.to/lastmile_qr_scan"}, "fusion_lon": 0.0}, {"lat": 38.91950883333333, "is_disabled": 0, "type": "electric_scooter", "lon": -77.01439766666667, "bike_id": "cf15a36bff7e22568ff724689b6d17d2", "fusion_lat": 0.0, "name": "cf15a36bff7e22568ff724689b6d17d2", "is_reserved": 0, "rental_uris": {"android": "https://dc.lft.to/lastmile_qr_scan", "ios": "https://dc.lft.to/lastmile_qr_scan"}, "fusion_lon": 0.0}, {"lat": 38.902354833333334, "is_disabled": 0, "type": "electric_scooter", "lon": -77.0289285, "bike_id": "3d60c334b8a7ff11419ec6c6d5b9ed51", "fusion_lat": 0.0, "name": "3d60c334b8a7ff11419ec6c6d5b9ed51", "is_reserved": 0, "rental_uris": {"android": "https://dc.lft.to/lastmile_qr_scan", "ios": "https://dc.lft.to/lastmile_qr_scan"}, "fusion_lon": 0.0}, {"lat": 38.899130666666665, "is_disabled": 0, "type": "electric_scooter", "lon": -77.03931283333333, "bike_id": "680bd97d8c1ab5d9c1ad7fad2264ded7", "fusion_lat": 0.0, "name": "680bd97d8c1ab5d9c1ad7fad2264ded7", "is_reserved": 0, "rental_uris": {"android": "https://dc.lft.to/lastmile_qr_scan", "ios": "https://dc.lft.to/lastmile_qr_scan"}, "fusion_lon": 0.0}, {"lat": 38.886751333333336, "is_disabled": 0, "type": "electric_bike", "lon": -77.1624285, "bike_id": "e21b9c1350e5cdfd698bfe696b850826", "fusion_lat": 0.0, "name": "e21b9c1350e5cdfd698bfe696b850826", "is_reserved": 0, "rental_uris": {"android": "https://dc.lft.to/lastmile_qr_scan", "ios": "https://dc.lft.to/lastmile_qr_scan"}, "fusion_lon": 0.0}, {"lat": 38.95710033333334, "is_disabled": 0, "type": "electric_scooter", "lon": -77.02405383333334, "bike_id": "a9157e062013e70ef69bd0203b741d9e", "fusion_lat": 0.0, "name": "a9157e062013e70ef69bd0203b741d9e", "is_reserved": 0, "rental_uris": {"android": "https://dc.lft.to/lastmile_qr_scan", "ios": "https://dc.lft.to/lastmile_qr_scan"}, "fusion_lon": 0.0}, {"lat": 38.85731216666667, "is_disabled": 0, "type": "electric_scooter", "lon": -76.99431483333333, "bike_id": "fd7e8fdbee1fdd327e8eec6375318265", "fusion_lat": 0.0, "name": "fd7e8fdbee1fdd327e8eec6375318265", "is_reserved": 0, "rental_uris": {"android": "https://dc.lft.to/lastmile_qr_scan", "ios": "https://dc.lft.to/lastmile_qr_scan"}, "fusion_lon": 0.0}, {"lat": 38.925104833333336, "is_disabled": 0, "type": "electric_bike", "lon": -77.03798333333333, "bike_id": "a509cfc9c8d32edac2a2764e497ceaee", "fusion_lat": 0.0, "name": "a509cfc9c8d32edac2a2764e497ceaee", "is_reserved": 0, "rental_uris": {"android": "https://dc.lft.to/lastmile_qr_scan", "ios": "https://dc.lft.to/lastmile_qr_scan"}, "fusion_lon": 0.0}, {"lat": 38.94436783333333, "is_disabled": 0, "type": "electric_scooter", "lon": -77.02342566666667, "bike_id": "8e45c100151ee8387631fff65454e3bd", "fusion_lat": 0.0, "name": "8e45c100151ee8387631fff65454e3bd", "is_reserved": 0, "rental_uris": {"android": "https://dc.lft.to/lastmile_qr_scan", "ios": "https://dc.lft.to/lastmile_qr_scan"}, "fusion_lon": 0.0}, {"lat": 38.92437016666667, "is_disabled": 0, "type": "electric_scooter", "lon": -77.02959066666666, "bike_id": "b42431337db03c8021d41167de873ef3", "fusion_lat": 0.0, "name": "b42431337db03c8021d41167de873ef3", "is_reserved": 0, "rental_uris": {"android": "https://dc.lft.to/lastmile_qr_scan", "ios": "https://dc.lft.to/lastmile_qr_scan"}, "fusion_lon": 0.0}, {"lat": 38.90981816666667, "is_disabled": 0, "type": "electric_scooter", "lon": -77.02396683333333, "bike_id": "24154b3036afebaeb99fb5831f69ba01", "fusion_lat": 0.0, "name": "24154b3036afebaeb99fb5831f69ba01", "is_reserved": 0, "rental_uris": {"android": "https://dc.lft.to/lastmile_qr_scan", "ios": "https://dc.lft.to/lastmile_qr_scan"}, "fusion_lon": 0.0}, {"lat": 38.887393, "is_disabled": 0, "type": "electric_scooter", "lon": -77.01530516666666, "bike_id": "623c175f297958a17d72cddad603d489", "fusion_lat": 0.0, "name": "623c175f297958a17d72cddad603d489", "is_reserved": 0, "rental_uris": {"android": "https://dc.lft.to/lastmile_qr_scan", "ios": "https://dc.lft.to/lastmile_qr_scan"}, "fusion_lon": 0.0}, {"lat": 38.90141533333333, "is_disabled": 0, "type": "electric_scooter", "lon": -77.04148816666667, "bike_id": "03a4cb1cd9f94982f063df3842fb9d00", "fusion_lat": 0.0, "name": "03a4cb1cd9f94982f063df3842fb9d00", "is_reserved": 0, "rental_uris": {"android": "https://dc.lft.to/lastmile_qr_scan", "ios": "https://dc.lft.to/lastmile_qr_scan"}, "fusion_lon": 0.0}, {"lat": 38.907352333333336, "is_disabled": 0, "type": "electric_scooter", "lon": -77.02364983333334, "bike_id": "f88250aac9d8c5a8794aae4612c69d6a", "fusion_lat": 0.0, "name": "f88250aac9d8c5a8794aae4612c69d6a", "is_reserved": 0, "rental_uris": {"android": "https://dc.lft.to/lastmile_qr_scan", "ios": "https://dc.lft.to/lastmile_qr_scan"}, "fusion_lon": 0.0}, {"lat": 38.9036555, "is_disabled": 0, "type": "electric_scooter", "lon": -77.03895216666666, "bike_id": "5f39c4470966d2464c4e194ac2fb1ddd", "fusion_lat": 0.0, "name": "5f39c4470966d2464c4e194ac2fb1ddd", "is_reserved": 0, "rental_uris": {"android": "https://dc.lft.to/lastmile_qr_scan", "ios": "https://dc.lft.to/lastmile_qr_scan"}, "fusion_lon": 0.0}, {"lat": 38.84812766666667, "is_disabled": 0, "type": "electric_bike", "lon": -77.07898233333333, "bike_id": "de47f02fb500886a08fc2b685e8c521c", "fusion_lat": 0.0, "name": "de47f02fb500886a08fc2b685e8c521c", "is_reserved": 0, "rental_uris": {"android": "https://dc.lft.to/lastmile_qr_scan", "ios": "https://dc.lft.to/lastmile_qr_scan"}, "fusion_lon": 0.0}, {"lat": 38.89756216666667, "is_disabled": 0, "type": "electric_scooter", "lon": -76.9418465, "bike_id": "0d4c249a2eb7ba8335061cd4fef9e2d0", "fusion_lat": 0.0, "name": "0d4c249a2eb7ba8335061cd4fef9e2d0", "is_reserved": 0, "rental_uris": {"android": "https://dc.lft.to/lastmile_qr_scan", "ios": "https://dc.lft.to/lastmile_qr_scan"}, "fusion_lon": 0.0}, {"lat": 38.90236933333333, "is_disabled": 0, "type": "electric_scooter", "lon": -77.02690983333333, "bike_id": "54b3adc150345a3beab0c17fe667e6b8", "fusion_lat": 0.0, "name": "54b3adc150345a3beab0c17fe667e6b8", "is_reserved": 0, "rental_uris": {"android": "https://dc.lft.to/lastmile_qr_scan", "ios": "https://dc.lft.to/lastmile_qr_scan"}, "fusion_lon": 0.0}, {"lat": 38.936946, "is_disabled": 0, "type": "electric_scooter", "lon": -77.03257166666667, "bike_id": "4d4882220cf480314dc03942b2031582", "fusion_lat": 0.0, "name": "4d4882220cf480314dc03942b2031582", "is_reserved": 0, "rental_uris": {"android": "https://dc.lft.to/lastmile_qr_scan", "ios": "https://dc.lft.to/lastmile_qr_scan"}, "fusion_lon": 0.0}, {"lat": 38.855169333333336, "is_disabled": 0, "type": "electric_bike", "lon": -76.98426716666667, "bike_id": "d12c363a3d5935610012f259d34f5e93", "fusion_lat": 0.0, "name": "d12c363a3d5935610012f259d34f5e93", "is_reserved": 0, "rental_uris": {"android": "https://dc.lft.to/lastmile_qr_scan", "ios": "https://dc.lft.to/lastmile_qr_scan"}, "fusion_lon": 0.0}, {"lat": 38.90976033333333, "is_disabled": 0, "type": "electric_scooter", "lon": -77.032952, "bike_id": "ca010450b862eb887a19ddd19d7e216f", "fusion_lat": 0.0, "name": "ca010450b862eb887a19ddd19d7e216f", "is_reserved": 0, "rental_uris": {"android": "https://dc.lft.to/lastmile_qr_scan", "ios": "https://dc.lft.to/lastmile_qr_scan"}, "fusion_lon": 0.0}, {"lat": 38.915598, "is_disabled": 0, "type": "electric_scooter", "lon": -77.03247616666667, "bike_id": "b7f7b25dc284bd54b60d2b25d1ab418f", "fusion_lat": 0.0, "name": "b7f7b25dc284bd54b60d2b25d1ab418f", "is_reserved": 0, "rental_uris": {"android": "https://dc.lft.to/lastmile_qr_scan", "ios": "https://dc.lft.to/lastmile_qr_scan"}, "fusion_lon": 0.0}, {"lat": 38.884274833333336, "is_disabled": 0, "type": "electric_scooter", "lon": -76.95755316666667, "bike_id": "1c0011bd64213c9a3bdfe30a8567379e", "fusion_lat": 0.0, "name": "1c0011bd64213c9a3bdfe30a8567379e", "is_reserved": 0, "rental_uris": {"android": "https://dc.lft.to/lastmile_qr_scan", "ios": "https://dc.lft.to/lastmile_qr_scan"}, "fusion_lon": 0.0}, {"lat": 38.907301, "is_disabled": 0, "type": "electric_scooter", "lon": -77.023698, "bike_id": "230b82185d6e4198cf176c1f83967a17", "fusion_lat": 0.0, "name": "230b82185d6e4198cf176c1f83967a17", "is_reserved": 0, "rental_uris": {"android": "https://dc.lft.to/lastmile_qr_scan", "ios": "https://dc.lft.to/lastmile_qr_scan"}, "fusion_lon": 0.0}, {"lat": 38.90658333333333, "is_disabled": 0, "type": "electric_scooter", "lon": -77.04860716666667, "bike_id": "3c58bdb3bf4d8a6b2faf2c73df918ee8", "fusion_lat": 0.0, "name": "3c58bdb3bf4d8a6b2faf2c73df918ee8", "is_reserved": 0, "rental_uris": {"android": "https://dc.lft.to/lastmile_qr_scan", "ios": "https://dc.lft.to/lastmile_qr_scan"}, "fusion_lon": 0.0}, {"lat": 38.90528316666666, "is_disabled": 0, "type": "electric_scooter", "lon": -77.06145983333333, "bike_id": "533ad7d560245199b8b74665ec1d0669", "fusion_lat": 0.0, "name": "533ad7d560245199b8b74665ec1d0669", "is_reserved": 0, "rental_uris": {"android": "https://dc.lft.to/lastmile_qr_scan", "ios": "https://dc.lft.to/lastmile_qr_scan"}, "fusion_lon": 0.0}, {"lat": 38.90031, "is_disabled": 0, "type": "electric_scooter", "lon": -77.00697783333334, "bike_id": "a572c5ff0aa53dc71c1320c544261799", "fusion_lat": 0.0, "name": "a572c5ff0aa53dc71c1320c544261799", "is_reserved": 0, "rental_uris": {"android": "https://dc.lft.to/lastmile_qr_scan", "ios": "https://dc.lft.to/lastmile_qr_scan"}, "fusion_lon": 0.0}, {"lat": 38.93247683333333, "is_disabled": 0, "type": "electric_scooter", "lon": -77.02942216666666, "bike_id": "00500ddf15603720324a1f91aeae928c", "fusion_lat": 0.0, "name": "00500ddf15603720324a1f91aeae928c", "is_reserved": 0, "rental_uris": {"android": "https://dc.lft.to/lastmile_qr_scan", "ios": "https://dc.lft.to/lastmile_qr_scan"}, "fusion_lon": 0.0}, {"lat": 38.887132666666666, "is_disabled": 0, "type": "electric_scooter", "lon": -77.01776783333334, "bike_id": "734aa334094b578418e84dc51960b561", "fusion_lat": 0.0, "name": "734aa334094b578418e84dc51960b561", "is_reserved": 0, "rental_uris": {"android": "https://dc.lft.to/lastmile_qr_scan", "ios": "https://dc.lft.to/lastmile_qr_scan"}, "fusion_lon": 0.0}, {"lat": 39.000044833333334, "is_disabled": 0, "type": "electric_bike", "lon": -76.91072116666666, "bike_id": "57e4e66f70b03341c81aaebb0d837ea4", "fusion_lat": 0.0, "name": "57e4e66f70b03341c81aaebb0d837ea4", "is_reserved": 0, "rental_uris": {"android": "https://dc.lft.to/lastmile_qr_scan", "ios": "https://dc.lft.to/lastmile_qr_scan"}, "fusion_lon": 0.0}, {"lat": 38.90373116666667, "is_disabled": 0, "type": "electric_scooter", "lon": -77.03831566666666, "bike_id": "4db81da01c37926a986fce03e8458ad0", "fusion_lat": 0.0, "name": "4db81da01c37926a986fce03e8458ad0", "is_reserved": 0, "rental_uris": {"android": "https://dc.lft.to/lastmile_qr_scan", "ios": "https://dc.lft.to/lastmile_qr_scan"}, "fusion_lon": 0.0}, {"lat": 38.90986916666667, "is_disabled": 0, "type": "electric_scooter", "lon": -76.99739866666667, "bike_id": "ae1f1e925411a259da16f5594afd01fd", "fusion_lat": 0.0, "name": "ae1f1e925411a259da16f5594afd01fd", "is_reserved": 0, "rental_uris": {"android": "https://dc.lft.to/lastmile_qr_scan", "ios": "https://dc.lft.to/lastmile_qr_scan"}, "fusion_lon": 0.0}, {"lat": 38.828742, "is_disabled": 0, "type": "electric_bike", "lon": -77.1121685, "bike_id": "1afcb199f5c7102e13e1348898f63e91", "fusion_lat": 0.0, "name": "1afcb199f5c7102e13e1348898f63e91", "is_reserved": 0, "rental_uris": {"android": "https://dc.lft.to/lastmile_qr_scan", "ios": "https://dc.lft.to/lastmile_qr_scan"}, "fusion_lon": 0.0}, {"lat": 38.919733, "is_disabled": 0, "type": "electric_scooter", "lon": -77.024993, "bike_id": "e68547bc5a6365e564245225d2a0e70c", "fusion_lat": 0.0, "name": "e68547bc5a6365e564245225d2a0e70c", "is_reserved": 0, "rental_uris": {"android": "https://dc.lft.to/lastmile_qr_scan", "ios": "https://dc.lft.to/lastmile_qr_scan"}, "fusion_lon": 0.0}, {"lat": 38.91818683333333, "is_disabled": 0, "type": "electric_scooter", "lon": -77.04170583333334, "bike_id": "53a5dee971bd90445406989a696d2fd4", "fusion_lat": 0.0, "name": "53a5dee971bd90445406989a696d2fd4", "is_reserved": 0, "rental_uris": {"android": "https://dc.lft.to/lastmile_qr_scan", "ios": "https://dc.lft.to/lastmile_qr_scan"}, "fusion_lon": 0.0}, {"lat": 38.93191383333333, "is_disabled": 0, "type": "electric_scooter", "lon": -77.029666, "bike_id": "fe4c4b72dbe664a70705eb0ad4e7d480", "fusion_lat": 0.0, "name": "fe4c4b72dbe664a70705eb0ad4e7d480", "is_reserved": 0, "rental_uris": {"android": "https://dc.lft.to/lastmile_qr_scan", "ios": "https://dc.lft.to/lastmile_qr_scan"}, "fusion_lon": 0.0}, {"lat": 38.9564165, "is_disabled": 0, "type": "electric_scooter", "lon": -77.01280916666667, "bike_id": "a98af9797ff3ef5e6beec69b77fdbbcb", "fusion_lat": 0.0, "name": "a98af9797ff3ef5e6beec69b77fdbbcb", "is_reserved": 0, "rental_uris": {"android": "https://dc.lft.to/lastmile_qr_scan", "ios": "https://dc.lft.to/lastmile_qr_scan"}, "fusion_lon": 0.0}, {"lat": 38.910459, "is_disabled": 0, "type": "electric_scooter", "lon": -77.03836366666667, "bike_id": "e860e012e14e2c36192be82acb52a142", "fusion_lat": 0.0, "name": "e860e012e14e2c36192be82acb52a142", "is_reserved": 0, "rental_uris": {"android": "https://dc.lft.to/lastmile_qr_scan", "ios": "https://dc.lft.to/lastmile_qr_scan"}, "fusion_lon": 0.0}, {"lat": 38.90571333333333, "is_disabled": 0, "type": "electric_scooter", "lon": -76.98172183333334, "bike_id": "8777b461bde1998fa2e8bd5ab3a10d83", "fusion_lat": 0.0, "name": "8777b461bde1998fa2e8bd5ab3a10d83", "is_reserved": 0, "rental_uris": {"android": "https://dc.lft.to/lastmile_qr_scan", "ios": "https://dc.lft.to/lastmile_qr_scan"}, "fusion_lon": 0.0}, {"lat": 38.93691366666667, "is_disabled": 0, "type": "electric_scooter", "lon": -77.05988, "bike_id": "77bca14cbc810957f7e899cef14e688b", "fusion_lat": 0.0, "name": "77bca14cbc810957f7e899cef14e688b", "is_reserved": 0, "rental_uris": {"android": "https://dc.lft.to/lastmile_qr_scan", "ios": "https://dc.lft.to/lastmile_qr_scan"}, "fusion_lon": 0.0}, {"lat": 38.93058933333333, "is_disabled": 0, "type": "electric_scooter", "lon": -77.0418145, "bike_id": "4908635b3fb3e22db54733dca4d4646f", "fusion_lat": 0.0, "name": "4908635b3fb3e22db54733dca4d4646f", "is_reserved": 0, "rental_uris": {"android": "https://dc.lft.to/lastmile_qr_scan", "ios": "https://dc.lft.to/lastmile_qr_scan"}, "fusion_lon": 0.0}, {"lat": 38.908612833333336, "is_disabled": 0, "type": "electric_scooter", "lon": -76.99166133333334, "bike_id": "b2d30bd563e9a6ab01a3b5805c8e9466", "fusion_lat": 0.0, "name": "b2d30bd563e9a6ab01a3b5805c8e9466", "is_reserved": 0, "rental_uris": {"android": "https://dc.lft.to/lastmile_qr_scan", "ios": "https://dc.lft.to/lastmile_qr_scan"}, "fusion_lon": 0.0}, {"lat": 38.89108083333333, "is_disabled": 0, "type": "electric_scooter", "lon": -76.9438485, "bike_id": "dbc382731bcb940c5fbfcae72a285ec9", "fusion_lat": 0.0, "name": "dbc382731bcb940c5fbfcae72a285ec9", "is_reserved": 0, "rental_uris": {"android": "https://dc.lft.to/lastmile_qr_scan", "ios": "https://dc.lft.to/lastmile_qr_scan"}, "fusion_lon": 0.0}, {"lat": 38.89166866666667, "is_disabled": 0, "type": "electric_bike", "lon": -77.0338465, "bike_id": "0ed47ba3f47f42e22ed82297967d3079", "fusion_lat": 0.0, "name": "0ed47ba3f47f42e22ed82297967d3079", "is_reserved": 0, "rental_uris": {"android": "https://dc.lft.to/lastmile_qr_scan", "ios": "https://dc.lft.to/lastmile_qr_scan"}, "fusion_lon": 0.0}, {"lat": 38.9003895, "is_disabled": 0, "type": "electric_scooter", "lon": -76.99384566666667, "bike_id": "85333384afc93c0057f6515c3e3f42bf", "fusion_lat": 0.0, "name": "85333384afc93c0057f6515c3e3f42bf", "is_reserved": 0, "rental_uris": {"android": "https://dc.lft.to/lastmile_qr_scan", "ios": "https://dc.lft.to/lastmile_qr_scan"}, "fusion_lon": 0.0}, {"lat": 38.91526416666667, "is_disabled": 0, "type": "electric_scooter", "lon": -77.01997316666667, "bike_id": "09c60f7ed952bea18156295d73173063", "fusion_lat": 0.0, "name": "09c60f7ed952bea18156295d73173063", "is_reserved": 0, "rental_uris": {"android": "https://dc.lft.to/lastmile_qr_scan", "ios": "https://dc.lft.to/lastmile_qr_scan"}, "fusion_lon": 0.0}, {"lat": 38.8990825, "is_disabled": 0, "type": "electric_scooter", "lon": -76.93352516666667, "bike_id": "7fdbcacf2d8d355ad0ced51b6338b350", "fusion_lat": 0.0, "name": "7fdbcacf2d8d355ad0ced51b6338b350", "is_reserved": 0, "rental_uris": {"android": "https://dc.lft.to/lastmile_qr_scan", "ios": "https://dc.lft.to/lastmile_qr_scan"}, "fusion_lon": 0.0}, {"lat": 38.906187, "is_disabled": 0, "type": "electric_scooter", "lon": -76.98980933333333, "bike_id": "87ee4db06a96de4daed4b5de7e226f0c", "fusion_lat": 0.0, "name": "87ee4db06a96de4daed4b5de7e226f0c", "is_reserved": 0, "rental_uris": {"android": "https://dc.lft.to/lastmile_qr_scan", "ios": "https://dc.lft.to/lastmile_qr_scan"}, "fusion_lon": 0.0}, {"lat": 38.85904433333333, "is_disabled": 0, "type": "electric_scooter", "lon": -76.99149983333334, "bike_id": "1f3ce0f33764d07c6fa5d0643bf409b6", "fusion_lat": 0.0, "name": "1f3ce0f33764d07c6fa5d0643bf409b6", "is_reserved": 0, "rental_uris": {"android": "https://dc.lft.to/lastmile_qr_scan", "ios": "https://dc.lft.to/lastmile_qr_scan"}, "fusion_lon": 0.0}, {"lat": 38.922693833333334, "is_disabled": 0, "type": "electric_scooter", "lon": -77.04237316666666, "bike_id": "5ee8aa88357efd7e4b85244e81dfb72e", "fusion_lat": 0.0, "name": "5ee8aa88357efd7e4b85244e81dfb72e", "is_reserved": 0, "rental_uris": {"android": "https://dc.lft.to/lastmile_qr_scan", "ios": "https://dc.lft.to/lastmile_qr_scan"}, "fusion_lon": 0.0}, {"lat": 38.892153, "is_disabled": 0, "type": "electric_scooter", "lon": -77.0450825, "bike_id": "3fa8bad05238a22f651de2c9beca7ecf", "fusion_lat": 0.0, "name": "3fa8bad05238a22f651de2c9beca7ecf", "is_reserved": 0, "rental_uris": {"android": "https://dc.lft.to/lastmile_qr_scan", "ios": "https://dc.lft.to/lastmile_qr_scan"}, "fusion_lon": 0.0}, {"lat": 38.89433533333333, "is_disabled": 0, "type": "electric_scooter", "lon": -77.03205783333334, "bike_id": "6e4a10747661e55913d3d33a82863195", "fusion_lat": 0.0, "name": "6e4a10747661e55913d3d33a82863195", "is_reserved": 0, "rental_uris": {"android": "https://dc.lft.to/lastmile_qr_scan", "ios": "https://dc.lft.to/lastmile_qr_scan"}, "fusion_lon": 0.0}, {"lat": 38.91256666666666, "is_disabled": 0, "type": "electric_scooter", "lon": -76.9835005, "bike_id": "021d38b97d797c91eefefd69f552a786", "fusion_lat": 0.0, "name": "021d38b97d797c91eefefd69f552a786", "is_reserved": 0, "rental_uris": {"android": "https://dc.lft.to/lastmile_qr_scan", "ios": "https://dc.lft.to/lastmile_qr_scan"}, "fusion_lon": 0.0}, {"lat": 38.9119525, "is_disabled": 0, "type": "electric_scooter", "lon": -77.03218016666666, "bike_id": "363a05eb1b203de1bf99b17ad1bcfbeb", "fusion_lat": 0.0, "name": "363a05eb1b203de1bf99b17ad1bcfbeb", "is_reserved": 0, "rental_uris": {"android": "https://dc.lft.to/lastmile_qr_scan", "ios": "https://dc.lft.to/lastmile_qr_scan"}, "fusion_lon": 0.0}, {"lat": 38.8580925, "is_disabled": 0, "type": "electric_scooter", "lon": -76.9865275, "bike_id": "66ca22660c4dcb89ace148106c07acb0", "fusion_lat": 0.0, "name": "66ca22660c4dcb89ace148106c07acb0", "is_reserved": 0, "rental_uris": {"android": "https://dc.lft.to/lastmile_qr_scan", "ios": "https://dc.lft.to/lastmile_qr_scan"}, "fusion_lon": 0.0}, {"lat": 38.934750333333334, "is_disabled": 0, "type": "electric_scooter", "lon": -77.05794216666666, "bike_id": "f86a472d01bcb0527e27d1f60d7db41b", "fusion_lat": 0.0, "name": "f86a472d01bcb0527e27d1f60d7db41b", "is_reserved": 0, "rental_uris": {"android": "https://dc.lft.to/lastmile_qr_scan", "ios": "https://dc.lft.to/lastmile_qr_scan"}, "fusion_lon": 0.0}, {"lat": 38.900201833333334, "is_disabled": 0, "type": "electric_scooter", "lon": -76.9986915, "bike_id": "e501d10ad85806033cb9a53b4ff46eca", "fusion_lat": 0.0, "name": "e501d10ad85806033cb9a53b4ff46eca", "is_reserved": 0, "rental_uris": {"android": "https://dc.lft.to/lastmile_qr_scan", "ios": "https://dc.lft.to/lastmile_qr_scan"}, "fusion_lon": 0.0}, {"lat": 38.96607516666667, "is_disabled": 0, "type": "electric_scooter", "lon": -77.02056666666667, "bike_id": "499dbd5157ad4ca31c1b70b76cf82da3", "fusion_lat": 0.0, "name": "499dbd5157ad4ca31c1b70b76cf82da3", "is_reserved": 0, "rental_uris": {"android": "https://dc.lft.to/lastmile_qr_scan", "ios": "https://dc.lft.to/lastmile_qr_scan"}, "fusion_lon": 0.0}, {"lat": 38.90507916666667, "is_disabled": 0, "type": "electric_scooter", "lon": -77.044892, "bike_id": "9921bf3ce9bab41733a895aa550be47d", "fusion_lat": 0.0, "name": "9921bf3ce9bab41733a895aa550be47d", "is_reserved": 0, "rental_uris": {"android": "https://dc.lft.to/lastmile_qr_scan", "ios": "https://dc.lft.to/lastmile_qr_scan"}, "fusion_lon": 0.0}, {"lat": 38.9198145, "is_disabled": 0, "type": "electric_scooter", "lon": -77.02498683333333, "bike_id": "6b36599b664a33c84a1712768bfc925f", "fusion_lat": 0.0, "name": "6b36599b664a33c84a1712768bfc925f", "is_reserved": 0, "rental_uris": {"android": "https://dc.lft.to/lastmile_qr_scan", "ios": "https://dc.lft.to/lastmile_qr_scan"}, "fusion_lon": 0.0}, {"lat": 38.89242083333333, "is_disabled": 0, "type": "electric_scooter", "lon": -77.033496, "bike_id": "b9bf9b111ed5857101b74d640dc444fd", "fusion_lat": 0.0, "name": "b9bf9b111ed5857101b74d640dc444fd", "is_reserved": 0, "rental_uris": {"android": "https://dc.lft.to/lastmile_qr_scan", "ios": "https://dc.lft.to/lastmile_qr_scan"}, "fusion_lon": 0.0}, {"lat": 38.91393583333333, "is_disabled": 0, "type": "electric_scooter", "lon": -77.03181833333333, "bike_id": "f33e1b230398c7d9bb4611aca49f9145", "fusion_lat": 0.0, "name": "f33e1b230398c7d9bb4611aca49f9145", "is_reserved": 0, "rental_uris": {"android": "https://dc.lft.to/lastmile_qr_scan", "ios": "https://dc.lft.to/lastmile_qr_scan"}, "fusion_lon": 0.0}, {"lat": 38.91537616666667, "is_disabled": 0, "type": "electric_scooter", "lon": -77.0296065, "bike_id": "cdc6e2449201ad91d2ff1d5047d1db7d", "fusion_lat": 0.0, "name": "cdc6e2449201ad91d2ff1d5047d1db7d", "is_reserved": 0, "rental_uris": {"android": "https://dc.lft.to/lastmile_qr_scan", "ios": "https://dc.lft.to/lastmile_qr_scan"}, "fusion_lon": 0.0}, {"lat": 38.90420133333333, "is_disabled": 0, "type": "electric_scooter", "lon": -77.02404366666667, "bike_id": "e7bc7860273b2ce070cf5e074491e98f", "fusion_lat": 0.0, "name": "e7bc7860273b2ce070cf5e074491e98f", "is_reserved": 0, "rental_uris": {"android": "https://dc.lft.to/lastmile_qr_scan", "ios": "https://dc.lft.to/lastmile_qr_scan"}, "fusion_lon": 0.0}, {"lat": 38.882531666666665, "is_disabled": 0, "type": "electric_scooter", "lon": -76.98822533333333, "bike_id": "cf756f6c6e9e5d5db7be91137ecfcd3c", "fusion_lat": 0.0, "name": "cf756f6c6e9e5d5db7be91137ecfcd3c", "is_reserved": 0, "rental_uris": {"android": "https://dc.lft.to/lastmile_qr_scan", "ios": "https://dc.lft.to/lastmile_qr_scan"}, "fusion_lon": 0.0}, {"lat": 38.89551566666667, "is_disabled": 0, "type": "electric_scooter", "lon": -77.0036155, "bike_id": "5786735ea110a5787947ebb963da9447", "fusion_lat": 0.0, "name": "5786735ea110a5787947ebb963da9447", "is_reserved": 0, "rental_uris": {"android": "https://dc.lft.to/lastmile_qr_scan", "ios": "https://dc.lft.to/lastmile_qr_scan"}, "fusion_lon": 0.0}, {"lat": 38.94239783333333, "is_disabled": 0, "type": "electric_scooter", "lon": -77.035804, "bike_id": "dcc7387cc3e63c672db40e49c5890c63", "fusion_lat": 0.0, "name": "dcc7387cc3e63c672db40e49c5890c63", "is_reserved": 0, "rental_uris": {"android": "https://dc.lft.to/lastmile_qr_scan", "ios": "https://dc.lft.to/lastmile_qr_scan"}, "fusion_lon": 0.0}, {"lat": 38.929877, "is_disabled": 0, "type": "electric_scooter", "lon": -77.0383255, "bike_id": "e6720f747de169b9bd38b88f772e7eda", "fusion_lat": 0.0, "name": "e6720f747de169b9bd38b88f772e7eda", "is_reserved": 0, "rental_uris": {"android": "https://dc.lft.to/lastmile_qr_scan", "ios": "https://dc.lft.to/lastmile_qr_scan"}, "fusion_lon": 0.0}, {"lat": 38.917091, "is_disabled": 0, "type": "electric_scooter", "lon": -77.04028516666666, "bike_id": "95785f36c42b8d7fc114cc47f7c720a8", "fusion_lat": 0.0, "name": "95785f36c42b8d7fc114cc47f7c720a8", "is_reserved": 0, "rental_uris": {"android": "https://dc.lft.to/lastmile_qr_scan", "ios": "https://dc.lft.to/lastmile_qr_scan"}, "fusion_lon": 0.0}, {"lat": 38.894960166666664, "is_disabled": 0, "type": "electric_scooter", "lon": -77.00213583333333, "bike_id": "c3651d1adf9978e1a96a53cb6bdc391b", "fusion_lat": 0.0, "name": "c3651d1adf9978e1a96a53cb6bdc391b", "is_reserved": 0, "rental_uris": {"android": "https://dc.lft.to/lastmile_qr_scan", "ios": "https://dc.lft.to/lastmile_qr_scan"}, "fusion_lon": 0.0}, {"lat": 38.928286666666665, "is_disabled": 0, "type": "electric_scooter", "lon": -77.02185416666667, "bike_id": "e08f274df9b68a9cfcc7c723042a58fb", "fusion_lat": 0.0, "name": "e08f274df9b68a9cfcc7c723042a58fb", "is_reserved": 0, "rental_uris": {"android": "https://dc.lft.to/lastmile_qr_scan", "ios": "https://dc.lft.to/lastmile_qr_scan"}, "fusion_lon": 0.0}, {"lat": 38.80573833333333, "is_disabled": 0, "type": "electric_bike", "lon": -77.06857116666667, "bike_id": "ee0f8f5bf46ee4dd9f18b9de8542fcd5", "fusion_lat": 0.0, "name": "ee0f8f5bf46ee4dd9f18b9de8542fcd5", "is_reserved": 0, "rental_uris": {"android": "https://dc.lft.to/lastmile_qr_scan", "ios": "https://dc.lft.to/lastmile_qr_scan"}, "fusion_lon": 0.0}, {"lat": 38.900074333333336, "is_disabled": 0, "type": "electric_scooter", "lon": -76.995119, "bike_id": "0559506c53ac60e529761a3b2a3f47b7", "fusion_lat": 0.0, "name": "0559506c53ac60e529761a3b2a3f47b7", "is_reserved": 0, "rental_uris": {"android": "https://dc.lft.to/lastmile_qr_scan", "ios": "https://dc.lft.to/lastmile_qr_scan"}, "fusion_lon": 0.0}, {"lat": 38.898059333333336, "is_disabled": 0, "type": "electric_scooter", "lon": -77.03162583333334, "bike_id": "6713557b4459dcb0c3b3aeb3277fb4ae", "fusion_lat": 0.0, "name": "6713557b4459dcb0c3b3aeb3277fb4ae", "is_reserved": 0, "rental_uris": {"android": "https://dc.lft.to/lastmile_qr_scan", "ios": "https://dc.lft.to/lastmile_qr_scan"}, "fusion_lon": 0.0}, {"lat": 38.900985166666665, "is_disabled": 0, "type": "electric_scooter", "lon": -77.059144, "bike_id": "daab4b39b4b85f6a80390b4f43d6cbc1", "fusion_lat": 0.0, "name": "daab4b39b4b85f6a80390b4f43d6cbc1", "is_reserved": 0, "rental_uris": {"android": "https://dc.lft.to/lastmile_qr_scan", "ios": "https://dc.lft.to/lastmile_qr_scan"}, "fusion_lon": 0.0}, {"lat": 38.914071166666666, "is_disabled": 0, "type": "electric_scooter", "lon": -77.04564616666667, "bike_id": "cede866f1c63a5b8ecafe167835e1bae", "fusion_lat": 0.0, "name": "cede866f1c63a5b8ecafe167835e1bae", "is_reserved": 0, "rental_uris": {"android": "https://dc.lft.to/lastmile_qr_scan", "ios": "https://dc.lft.to/lastmile_qr_scan"}, "fusion_lon": 0.0}, {"lat": 38.933100333333336, "is_disabled": 0, "type": "electric_scooter", "lon": -77.0325535, "bike_id": "b5845f5439d0f640d2353f5c004f5b1d", "fusion_lat": 0.0, "name": "b5845f5439d0f640d2353f5c004f5b1d", "is_reserved": 0, "rental_uris": {"android": "https://dc.lft.to/lastmile_qr_scan", "ios": "https://dc.lft.to/lastmile_qr_scan"}, "fusion_lon": 0.0}, {"lat": 38.9649005, "is_disabled": 0, "type": "electric_scooter", "lon": -77.02787716666667, "bike_id": "db280580c862f0d9243dbc82fb830e45", "fusion_lat": 0.0, "name": "db280580c862f0d9243dbc82fb830e45", "is_reserved": 0, "rental_uris": {"android": "https://dc.lft.to/lastmile_qr_scan", "ios": "https://dc.lft.to/lastmile_qr_scan"}, "fusion_lon": 0.0}, {"lat": 38.905158166666666, "is_disabled": 0, "type": "electric_scooter", "lon": -77.03212666666667, "bike_id": "a41f5e477ccde0ca93300e415011ede0", "fusion_lat": 0.0, "name": "a41f5e477ccde0ca93300e415011ede0", "is_reserved": 0, "rental_uris": {"android": "https://dc.lft.to/lastmile_qr_scan", "ios": "https://dc.lft.to/lastmile_qr_scan"}, "fusion_lon": 0.0}, {"lat": 38.92031083333333, "is_disabled": 0, "type": "electric_scooter", "lon": -77.030405, "bike_id": "f5fe53528f6ee3d76c57dbce2da0e9b1", "fusion_lat": 0.0, "name": "f5fe53528f6ee3d76c57dbce2da0e9b1", "is_reserved": 0, "rental_uris": {"android": "https://dc.lft.to/lastmile_qr_scan", "ios": "https://dc.lft.to/lastmile_qr_scan"}, "fusion_lon": 0.0}, {"lat": 38.985037166666665, "is_disabled": 0, "type": "electric_bike", "lon": -76.98199266666667, "bike_id": "e2fb89e83e6778b095db5c3af4b29502", "fusion_lat": 0.0, "name": "e2fb89e83e6778b095db5c3af4b29502", "is_reserved": 0, "rental_uris": {"android": "https://dc.lft.to/lastmile_qr_scan", "ios": "https://dc.lft.to/lastmile_qr_scan"}, "fusion_lon": 0.0}, {"lat": 38.91985716666667, "is_disabled": 0, "type": "electric_scooter", "lon": -77.041594, "bike_id": "730d171bbd8ceeac5ddef531fd707f5c", "fusion_lat": 0.0, "name": "730d171bbd8ceeac5ddef531fd707f5c", "is_reserved": 0, "rental_uris": {"android": "https://dc.lft.to/lastmile_qr_scan", "ios": "https://dc.lft.to/lastmile_qr_scan"}, "fusion_lon": 0.0}, {"lat": 38.900384333333335, "is_disabled": 0, "type": "electric_scooter", "lon": -77.00580683333334, "bike_id": "1b47a81e3e522c7b78f96affc30d8f3e", "fusion_lat": 0.0, "name": "1b47a81e3e522c7b78f96affc30d8f3e", "is_reserved": 0, "rental_uris": {"android": "https://dc.lft.to/lastmile_qr_scan", "ios": "https://dc.lft.to/lastmile_qr_scan"}, "fusion_lon": 0.0}, {"lat": 38.91692066666667, "is_disabled": 0, "type": "electric_scooter", "lon": -77.04270716666667, "bike_id": "25f8ec87bb2ba4ea0093754fcffe0d5d", "fusion_lat": 0.0, "name": "25f8ec87bb2ba4ea0093754fcffe0d5d", "is_reserved": 0, "rental_uris": {"android": "https://dc.lft.to/lastmile_qr_scan", "ios": "https://dc.lft.to/lastmile_qr_scan"}, "fusion_lon": 0.0}, {"lat": 38.952744833333334, "is_disabled": 0, "type": "electric_scooter", "lon": -77.0366115, "bike_id": "0a473b08a6091c98152f1c8d13bdce22", "fusion_lat": 0.0, "name": "0a473b08a6091c98152f1c8d13bdce22", "is_reserved": 0, "rental_uris": {"android": "https://dc.lft.to/lastmile_qr_scan", "ios": "https://dc.lft.to/lastmile_qr_scan"}, "fusion_lon": 0.0}, {"lat": 38.89888416666667, "is_disabled": 0, "type": "electric_scooter", "lon": -77.03949283333333, "bike_id": "7302c999f088fad50a6441624d6ec103", "fusion_lat": 0.0, "name": "7302c999f088fad50a6441624d6ec103", "is_reserved": 0, "rental_uris": {"android": "https://dc.lft.to/lastmile_qr_scan", "ios": "https://dc.lft.to/lastmile_qr_scan"}, "fusion_lon": 0.0}, {"lat": 38.94461066666667, "is_disabled": 0, "type": "electric_scooter", "lon": -77.06036266666666, "bike_id": "bd12e0396e42cb4ec40e5134c8caa6cf", "fusion_lat": 0.0, "name": "bd12e0396e42cb4ec40e5134c8caa6cf", "is_reserved": 0, "rental_uris": {"android": "https://dc.lft.to/lastmile_qr_scan", "ios": "https://dc.lft.to/lastmile_qr_scan"}, "fusion_lon": 0.0}, {"lat": 38.924609333333336, "is_disabled": 0, "type": "electric_bike", "lon": -77.208299, "bike_id": "db0c5ea79258c07eba5703675b3c1af1", "fusion_lat": 0.0, "name": "db0c5ea79258c07eba5703675b3c1af1", "is_reserved": 0, "rental_uris": {"android": "https://dc.lft.to/lastmile_qr_scan", "ios": "https://dc.lft.to/lastmile_qr_scan"}, "fusion_lon": 0.0}, {"lat": 38.922503166666665, "is_disabled": 0, "type": "electric_scooter", "lon": -76.99387016666667, "bike_id": "03fd773d4e52c92ca0a7f6ac8d3dd11c", "fusion_lat": 0.0, "name": "03fd773d4e52c92ca0a7f6ac8d3dd11c", "is_reserved": 0, "rental_uris": {"android": "https://dc.lft.to/lastmile_qr_scan", "ios": "https://dc.lft.to/lastmile_qr_scan"}, "fusion_lon": 0.0}, {"lat": 38.91818633333333, "is_disabled": 0, "type": "electric_scooter", "lon": -77.02874866666667, "bike_id": "d75fb3e59ae2ab61474bf632c6e4ae9d", "fusion_lat": 0.0, "name": "d75fb3e59ae2ab61474bf632c6e4ae9d", "is_reserved": 0, "rental_uris": {"android": "https://dc.lft.to/lastmile_qr_scan", "ios": "https://dc.lft.to/lastmile_qr_scan"}, "fusion_lon": 0.0}, {"lat": 38.910538833333334, "is_disabled": 0, "type": "electric_scooter", "lon": -77.0435165, "bike_id": "e92b3f7af21cebf3f6453dc2dd9d142b", "fusion_lat": 0.0, "name": "e92b3f7af21cebf3f6453dc2dd9d142b", "is_reserved": 0, "rental_uris": {"android": "https://dc.lft.to/lastmile_qr_scan", "ios": "https://dc.lft.to/lastmile_qr_scan"}, "fusion_lon": 0.0}, {"lat": 38.9008105, "is_disabled": 0, "type": "electric_scooter", "lon": -77.04906566666666, "bike_id": "fcd498946b339118a33d8c2eea8e7218", "fusion_lat": 0.0, "name": "fcd498946b339118a33d8c2eea8e7218", "is_reserved": 0, "rental_uris": {"android": "https://dc.lft.to/lastmile_qr_scan", "ios": "https://dc.lft.to/lastmile_qr_scan"}, "fusion_lon": 0.0}, {"lat": 38.858096333333336, "is_disabled": 0, "type": "electric_scooter", "lon": -76.986554, "bike_id": "d59caea9f0959ff8379450097451a8c4", "fusion_lat": 0.0, "name": "d59caea9f0959ff8379450097451a8c4", "is_reserved": 0, "rental_uris": {"android": "https://dc.lft.to/lastmile_qr_scan", "ios": "https://dc.lft.to/lastmile_qr_scan"}, "fusion_lon": 0.0}, {"lat": 38.87421716666667, "is_disabled": 0, "type": "electric_bike", "lon": -77.08575616666667, "bike_id": "7bbe923a72aaff60b06b2bd2458d9535", "fusion_lat": 0.0, "name": "7bbe923a72aaff60b06b2bd2458d9535", "is_reserved": 0, "rental_uris": {"android": "https://dc.lft.to/lastmile_qr_scan", "ios": "https://dc.lft.to/lastmile_qr_scan"}, "fusion_lon": 0.0}, {"lat": 38.91707983333333, "is_disabled": 0, "type": "electric_scooter", "lon": -77.02477016666667, "bike_id": "4564c7057df3e167e6e0ab38421e95f4", "fusion_lat": 0.0, "name": "4564c7057df3e167e6e0ab38421e95f4", "is_reserved": 0, "rental_uris": {"android": "https://dc.lft.to/lastmile_qr_scan", "ios": "https://dc.lft.to/lastmile_qr_scan"}, "fusion_lon": 0.0}, {"lat": 38.929269166666664, "is_disabled": 0, "type": "electric_scooter", "lon": -77.03259116666666, "bike_id": "c470e066aa1a20c4ddef828c521258da", "fusion_lat": 0.0, "name": "c470e066aa1a20c4ddef828c521258da", "is_reserved": 0, "rental_uris": {"android": "https://dc.lft.to/lastmile_qr_scan", "ios": "https://dc.lft.to/lastmile_qr_scan"}, "fusion_lon": 0.0}, {"lat": 38.9961685, "is_disabled": 0, "type": "electric_scooter", "lon": -77.03218733333334, "bike_id": "e34534b1e0521ca1e11965bfcb0f98cb", "fusion_lat": 0.0, "name": "e34534b1e0521ca1e11965bfcb0f98cb", "is_reserved": 0, "rental_uris": {"android": "https://dc.lft.to/lastmile_qr_scan", "ios": "https://dc.lft.to/lastmile_qr_scan"}, "fusion_lon": 0.0}, {"lat": 38.9096955, "is_disabled": 0, "type": "electric_scooter", "lon": -77.04521483333333, "bike_id": "f801002de6c7fced6bdb5d5622e21b12", "fusion_lat": 0.0, "name": "f801002de6c7fced6bdb5d5622e21b12", "is_reserved": 0, "rental_uris": {"android": "https://dc.lft.to/lastmile_qr_scan", "ios": "https://dc.lft.to/lastmile_qr_scan"}, "fusion_lon": 0.0}, {"lat": 38.90267016666667, "is_disabled": 0, "type": "electric_scooter", "lon": -77.04596783333334, "bike_id": "ddb8a076a4e24153e708cc2a5e244335", "fusion_lat": 0.0, "name": "ddb8a076a4e24153e708cc2a5e244335", "is_reserved": 0, "rental_uris": {"android": "https://dc.lft.to/lastmile_qr_scan", "ios": "https://dc.lft.to/lastmile_qr_scan"}, "fusion_lon": 0.0}, {"lat": 38.9041205, "is_disabled": 0, "type": "electric_scooter", "lon": -76.99280316666666, "bike_id": "833e30ea34dd946e6b458ea91087eaec", "fusion_lat": 0.0, "name": "833e30ea34dd946e6b458ea91087eaec", "is_reserved": 0, "rental_uris": {"android": "https://dc.lft.to/lastmile_qr_scan", "ios": "https://dc.lft.to/lastmile_qr_scan"}, "fusion_lon": 0.0}, {"lat": 38.8880775, "is_disabled": 0, "type": "electric_scooter", "lon": -77.04425266666667, "bike_id": "ad1c0a11bca7b2c34b00ec39bce0a6e9", "fusion_lat": 0.0, "name": "ad1c0a11bca7b2c34b00ec39bce0a6e9", "is_reserved": 0, "rental_uris": {"android": "https://dc.lft.to/lastmile_qr_scan", "ios": "https://dc.lft.to/lastmile_qr_scan"}, "fusion_lon": 0.0}, {"lat": 38.9307315, "is_disabled": 0, "type": "electric_scooter", "lon": -77.023484, "bike_id": "76aa463f2e34c133e2fc52c8fb2e5591", "fusion_lat": 0.0, "name": "76aa463f2e34c133e2fc52c8fb2e5591", "is_reserved": 0, "rental_uris": {"android": "https://dc.lft.to/lastmile_qr_scan", "ios": "https://dc.lft.to/lastmile_qr_scan"}, "fusion_lon": 0.0}, {"lat": 38.8657365, "is_disabled": 0, "type": "electric_bike", "lon": -76.9735035, "bike_id": "ac20682d531e6864c650fce3c580e9a2", "fusion_lat": 0.0, "name": "ac20682d531e6864c650fce3c580e9a2", "is_reserved": 0, "rental_uris": {"android": "https://dc.lft.to/lastmile_qr_scan", "ios": "https://dc.lft.to/lastmile_qr_scan"}, "fusion_lon": 0.0}, {"lat": 38.993166, "is_disabled": 0, "type": "electric_bike", "lon": -77.0328945, "bike_id": "c1a59eabbc07f1df2b44fe073ab16a60", "fusion_lat": 0.0, "name": "c1a59eabbc07f1df2b44fe073ab16a60", "is_reserved": 0, "rental_uris": {"android": "https://dc.lft.to/lastmile_qr_scan", "ios": "https://dc.lft.to/lastmile_qr_scan"}, "fusion_lon": 0.0}, {"lat": 38.95557733333333, "is_disabled": 0, "type": "electric_bike", "lon": -76.93542283333333, "bike_id": "3d06719ee976c4f248923268c108c7a8", "fusion_lat": 0.0, "name": "3d06719ee976c4f248923268c108c7a8", "is_reserved": 0, "rental_uris": {"android": "https://dc.lft.to/lastmile_qr_scan", "ios": "https://dc.lft.to/lastmile_qr_scan"}, "fusion_lon": 0.0}, {"lat": 38.84293133333333, "is_disabled": 0, "type": "electric_scooter", "lon": -76.99948183333333, "bike_id": "23d2023b2d756d25510e14014742275a", "fusion_lat": 0.0, "name": "23d2023b2d756d25510e14014742275a", "is_reserved": 0, "rental_uris": {"android": "https://dc.lft.to/lastmile_qr_scan", "ios": "https://dc.lft.to/lastmile_qr_scan"}, "fusion_lon": 0.0}, {"lat": 38.9095385, "is_disabled": 0, "type": "electric_scooter", "lon": -77.04790116666666, "bike_id": "806e7f132221405700c33239dd3674b2", "fusion_lat": 0.0, "name": "806e7f132221405700c33239dd3674b2", "is_reserved": 0, "rental_uris": {"android": "https://dc.lft.to/lastmile_qr_scan", "ios": "https://dc.lft.to/lastmile_qr_scan"}, "fusion_lon": 0.0}, {"lat": 38.876553, "is_disabled": 0, "type": "electric_scooter", "lon": -77.00568533333333, "bike_id": "6f9ccd7a47133c5a669090ebc7332b3e", "fusion_lat": 0.0, "name": "6f9ccd7a47133c5a669090ebc7332b3e", "is_reserved": 0, "rental_uris": {"android": "https://dc.lft.to/lastmile_qr_scan", "ios": "https://dc.lft.to/lastmile_qr_scan"}, "fusion_lon": 0.0}, {"lat": 38.958808, "is_disabled": 0, "type": "electric_scooter", "lon": -77.0273345, "bike_id": "b6a254d3f8981a198af2cff96ffd08fa", "fusion_lat": 0.0, "name": "b6a254d3f8981a198af2cff96ffd08fa", "is_reserved": 0, "rental_uris": {"android": "https://dc.lft.to/lastmile_qr_scan", "ios": "https://dc.lft.to/lastmile_qr_scan"}, "fusion_lon": 0.0}, {"lat": 38.915526, "is_disabled": 0, "type": "electric_scooter", "lon": -77.02427533333334, "bike_id": "7d7072c291f98c9554f24f9384104871", "fusion_lat": 0.0, "name": "7d7072c291f98c9554f24f9384104871", "is_reserved": 0, "rental_uris": {"android": "https://dc.lft.to/lastmile_qr_scan", "ios": "https://dc.lft.to/lastmile_qr_scan"}, "fusion_lon": 0.0}, {"lat": 38.89916133333333, "is_disabled": 0, "type": "electric_scooter", "lon": -76.93379766666666, "bike_id": "d969a6f36941c03c6e676e99ed5a125d", "fusion_lat": 0.0, "name": "d969a6f36941c03c6e676e99ed5a125d", "is_reserved": 0, "rental_uris": {"android": "https://dc.lft.to/lastmile_qr_scan", "ios": "https://dc.lft.to/lastmile_qr_scan"}, "fusion_lon": 0.0}, {"lat": 38.9126825, "is_disabled": 0, "type": "electric_scooter", "lon": -77.01308416666667, "bike_id": "a790b0cb244ca38c5c7eaa6f240fe499", "fusion_lat": 0.0, "name": "a790b0cb244ca38c5c7eaa6f240fe499", "is_reserved": 0, "rental_uris": {"android": "https://dc.lft.to/lastmile_qr_scan", "ios": "https://dc.lft.to/lastmile_qr_scan"}, "fusion_lon": 0.0}, {"lat": 38.88279383333333, "is_disabled": 0, "type": "electric_bike", "lon": -76.98778466666667, "bike_id": "76ed208665c3b39a2ec845183f2e9e2d", "fusion_lat": 0.0, "name": "76ed208665c3b39a2ec845183f2e9e2d", "is_reserved": 0, "rental_uris": {"android": "https://dc.lft.to/lastmile_qr_scan", "ios": "https://dc.lft.to/lastmile_qr_scan"}, "fusion_lon": 0.0}, {"lat": 38.863428, "is_disabled": 0, "type": "electric_scooter", "lon": -76.98998533333334, "bike_id": "a8d5e137b6e17aa9210b1eba87aad033", "fusion_lat": 0.0, "name": "a8d5e137b6e17aa9210b1eba87aad033", "is_reserved": 0, "rental_uris": {"android": "https://dc.lft.to/lastmile_qr_scan", "ios": "https://dc.lft.to/lastmile_qr_scan"}, "fusion_lon": 0.0}, {"lat": 38.92679716666667, "is_disabled": 0, "type": "electric_scooter", "lon": -77.05102033333333, "bike_id": "5495a05230d9298ce854eebd67ad93f4", "fusion_lat": 0.0, "name": "5495a05230d9298ce854eebd67ad93f4", "is_reserved": 0, "rental_uris": {"android": "https://dc.lft.to/lastmile_qr_scan", "ios": "https://dc.lft.to/lastmile_qr_scan"}, "fusion_lon": 0.0}, {"lat": 39.030463, "is_disabled": 0, "type": "electric_bike", "lon": -77.09481533333333, "bike_id": "e2ff8cd83c61580a5eb0ef04f54a1dbc", "fusion_lat": 0.0, "name": "e2ff8cd83c61580a5eb0ef04f54a1dbc", "is_reserved": 0, "rental_uris": {"android": "https://dc.lft.to/lastmile_qr_scan", "ios": "https://dc.lft.to/lastmile_qr_scan"}, "fusion_lon": 0.0}, {"lat": 38.90969666666667, "is_disabled": 0, "type": "electric_scooter", "lon": -77.045134, "bike_id": "1635cb2b43a9dce0999da1734cef4403", "fusion_lat": 0.0, "name": "1635cb2b43a9dce0999da1734cef4403", "is_reserved": 0, "rental_uris": {"android": "https://dc.lft.to/lastmile_qr_scan", "ios": "https://dc.lft.to/lastmile_qr_scan"}, "fusion_lon": 0.0}, {"lat": 38.914277166666665, "is_disabled": 0, "type": "electric_scooter", "lon": -77.03210233333333, "bike_id": "9cb6d45105bafb0026ace7a13b438f30", "fusion_lat": 0.0, "name": "9cb6d45105bafb0026ace7a13b438f30", "is_reserved": 0, "rental_uris": {"android": "https://dc.lft.to/lastmile_qr_scan", "ios": "https://dc.lft.to/lastmile_qr_scan"}, "fusion_lon": 0.0}, {"lat": 38.91814883333333, "is_disabled": 0, "type": "electric_scooter", "lon": -77.02864916666667, "bike_id": "0898776a6355b3a3b1c17819e89a985c", "fusion_lat": 0.0, "name": "0898776a6355b3a3b1c17819e89a985c", "is_reserved": 0, "rental_uris": {"android": "https://dc.lft.to/lastmile_qr_scan", "ios": "https://dc.lft.to/lastmile_qr_scan"}, "fusion_lon": 0.0}, {"lat": 38.93839166666667, "is_disabled": 0, "type": "electric_bike", "lon": -76.98860416666666, "bike_id": "646f33845f04d29c164e95af08add21f", "fusion_lat": 0.0, "name": "646f33845f04d29c164e95af08add21f", "is_reserved": 0, "rental_uris": {"android": "https://dc.lft.to/lastmile_qr_scan", "ios": "https://dc.lft.to/lastmile_qr_scan"}, "fusion_lon": 0.0}, {"lat": 38.92330066666667, "is_disabled": 0, "type": "electric_scooter", "lon": -77.0390015, "bike_id": "5f6e7f74cccc24c157c40a2665a0a2fb", "fusion_lat": 0.0, "name": "5f6e7f74cccc24c157c40a2665a0a2fb", "is_reserved": 0, "rental_uris": {"android": "https://dc.lft.to/lastmile_qr_scan", "ios": "https://dc.lft.to/lastmile_qr_scan"}, "fusion_lon": 0.0}, {"lat": 38.915509, "is_disabled": 0, "type": "electric_scooter", "lon": -77.02037133333333, "bike_id": "f5f8eb0cce8356036fa536e367e5550e", "fusion_lat": 0.0, "name": "f5f8eb0cce8356036fa536e367e5550e", "is_reserved": 0, "rental_uris": {"android": "https://dc.lft.to/lastmile_qr_scan", "ios": "https://dc.lft.to/lastmile_qr_scan"}, "fusion_lon": 0.0}, {"lat": 38.915943666666664, "is_disabled": 0, "type": "electric_scooter", "lon": -77.02302366666666, "bike_id": "8f4bcd68ea5db0c55ba49bb1a6682872", "fusion_lat": 0.0, "name": "8f4bcd68ea5db0c55ba49bb1a6682872", "is_reserved": 0, "rental_uris": {"android": "https://dc.lft.to/lastmile_qr_scan", "ios": "https://dc.lft.to/lastmile_qr_scan"}, "fusion_lon": 0.0}, {"lat": 38.885125333333335, "is_disabled": 0, "type": "electric_scooter", "lon": -77.00680533333333, "bike_id": "40b433737ca290d3538cc83efd772fac", "fusion_lat": 0.0, "name": "40b433737ca290d3538cc83efd772fac", "is_reserved": 0, "rental_uris": {"android": "https://dc.lft.to/lastmile_qr_scan", "ios": "https://dc.lft.to/lastmile_qr_scan"}, "fusion_lon": 0.0}, {"lat": 38.929034, "is_disabled": 0, "type": "electric_scooter", "lon": -77.03267283333334, "bike_id": "62bf6b1eb052416ab46d891f1d614ab1", "fusion_lat": 0.0, "name": "62bf6b1eb052416ab46d891f1d614ab1", "is_reserved": 0, "rental_uris": {"android": "https://dc.lft.to/lastmile_qr_scan", "ios": "https://dc.lft.to/lastmile_qr_scan"}, "fusion_lon": 0.0}, {"lat": 38.907306166666665, "is_disabled": 0, "type": "electric_scooter", "lon": -77.0483025, "bike_id": "77ee5affd830ccff9b794f777d782643", "fusion_lat": 0.0, "name": "77ee5affd830ccff9b794f777d782643", "is_reserved": 0, "rental_uris": {"android": "https://dc.lft.to/lastmile_qr_scan", "ios": "https://dc.lft.to/lastmile_qr_scan"}, "fusion_lon": 0.0}, {"lat": 38.95366083333333, "is_disabled": 0, "type": "electric_bike", "lon": -76.979758, "bike_id": "ae5a19b45bac8c74edc9256684d9f581", "fusion_lat": 0.0, "name": "ae5a19b45bac8c74edc9256684d9f581", "is_reserved": 0, "rental_uris": {"android": "https://dc.lft.to/lastmile_qr_scan", "ios": "https://dc.lft.to/lastmile_qr_scan"}, "fusion_lon": 0.0}, {"lat": 38.90596, "is_disabled": 0, "type": "electric_scooter", "lon": -77.0629575, "bike_id": "66e01b9d2e65d7405b9452d9b5c273e0", "fusion_lat": 0.0, "name": "66e01b9d2e65d7405b9452d9b5c273e0", "is_reserved": 0, "rental_uris": {"android": "https://dc.lft.to/lastmile_qr_scan", "ios": "https://dc.lft.to/lastmile_qr_scan"}, "fusion_lon": 0.0}, {"lat": 38.91914233333333, "is_disabled": 0, "type": "electric_scooter", "lon": -77.01341, "bike_id": "e5b0dfc2e78f537b020717d2fa40afc3", "fusion_lat": 0.0, "name": "e5b0dfc2e78f537b020717d2fa40afc3", "is_reserved": 0, "rental_uris": {"android": "https://dc.lft.to/lastmile_qr_scan", "ios": "https://dc.lft.to/lastmile_qr_scan"}, "fusion_lon": 0.0}, {"lat": 38.836768, "is_disabled": 0, "type": "electric_scooter", "lon": -77.00573233333333, "bike_id": "18f999a0b79ff8d8b79aed1e50b92441", "fusion_lat": 0.0, "name": "18f999a0b79ff8d8b79aed1e50b92441", "is_reserved": 0, "rental_uris": {"android": "https://dc.lft.to/lastmile_qr_scan", "ios": "https://dc.lft.to/lastmile_qr_scan"}, "fusion_lon": 0.0}, {"lat": 38.8700685, "is_disabled": 0, "type": "electric_bike", "lon": -76.9601865, "bike_id": "b45cec68e4a5184ee43f8ca9e984159a", "fusion_lat": 0.0, "name": "b45cec68e4a5184ee43f8ca9e984159a", "is_reserved": 0, "rental_uris": {"android": "https://dc.lft.to/lastmile_qr_scan", "ios": "https://dc.lft.to/lastmile_qr_scan"}, "fusion_lon": 0.0}, {"lat": 38.939656, "is_disabled": 0, "type": "electric_scooter", "lon": -77.027491, "bike_id": "5d3a848cd3fa08f99411da3486360db4", "fusion_lat": 0.0, "name": "5d3a848cd3fa08f99411da3486360db4", "is_reserved": 0, "rental_uris": {"android": "https://dc.lft.to/lastmile_qr_scan", "ios": "https://dc.lft.to/lastmile_qr_scan"}, "fusion_lon": 0.0},