{"data": {"bikes": [{"is_disabled": 0, "fusion_lon": 0.0, "fusion_lat": 0.0, "lat": 38.925785833333336, "type": "electric_scooter", "lon": -77.02833516666666, "bike_id": "b015d6bf21b8fe5495a727334e058d38", "rental_uris": {"android": "https://dc.lft.to/lastmile_qr_scan", "ios": "https://dc.lft.to/lastmile_qr_scan"}, "name": "b015d6bf21b8fe5495a727334e058d38", "is_reserved": 0}, {"is_disabled": 0, "fusion_lon": 0.0, "fusion_lat": 0.0, "lat": 38.900385666666665, "type": "electric_scooter", "lon": -77.026979, "bike_id": "0a1035dc3b441e91b7e9bdaefeddab22", "rental_uris": {"android": "https://dc.lft.to/lastmile_qr_scan", "ios": "https://dc.lft.to/lastmile_qr_scan"}, "name": "0a1035dc3b441e91b7e9bdaefeddab22", "is_reserved": 0}, {"is_disabled": 0, "fusion_lon": 0.0, "fusion_lat": 0.0, "lat": 38.949846, "type": "electric_scooter", "lon": -77.02705183333333, "bike_id": "7a854e37bfbd50264000c78b2fa6e864", "rental_uris": {"android": "https://dc.lft.to/lastmile_qr_scan", "ios": "https://dc.lft.to/lastmile_qr_scan"}, "name": "7a854e37bfbd50264000c78b2fa6e864", "is_reserved": 0}, {"is_disabled": 0, "fusion_lon": 0.0, "fusion_lat": 0.0, "lat": 38.92231, "type": "electric_scooter", "lon": -77.04243766666667, "bike_id": "8c49283023234a170123459967803736", "rental_uris": {"android": "https://dc.lft.to/lastmile_qr_scan", "ios": "https://dc.lft.to/lastmile_qr_scan"}, "name": "8c49283023234a170123459967803736", "is_reserved": 0}, {"is_disabled": 0, "fusion_lon": 0.0, "fusion_lat": 0.0, "lat": 38.929771333333335, "type": "electric_scooter", "lon": -77.0414535, "bike_id": "5d920fbaee18808e10b5d33c4a65a10c", "rental_uris": {"android": "https://dc.lft.to/lastmile_qr_scan", "ios": "https://dc.lft.to/lastmile_qr_scan"}, "name": "5d920fbaee18808e10b5d33c4a65a10c", "is_reserved": 0}, {"is_disabled": 0, "fusion_lon": 0.0, "fusion_lat": 0.0, "lat": 38.9176665, "type": "electric_scooter", "lon": -77.0404325, "bike_id": "47b1c279f3d7b4ce06178e173a2c7323", "rental_uris": {"android": "https://dc.lft.to/lastmile_qr_scan", "ios": "https://dc.lft.to/lastmile_qr_scan"}, "name": "47b1c279f3d7b4ce06178e173a2c7323", "is_reserved": 0}, {"is_disabled": 0, "fusion_lon": 0.0, "fusion_lat": 0.0, "lat": 38.91649816666666, "type": "electric_scooter", "lon": -77.02274233333333, "bike_id": "950eafa93778b763a8d467ae15490224", "rental_uris": {"android": "https://dc.lft.to/lastmile_qr_scan", "ios": "https://dc.lft.to/lastmile_qr_scan"}, "name": "950eafa93778b763a8d467ae15490224", "is_reserved": 0}, {"is_disabled": 0, "fusion_lon": 0.0, "fusion_lat": 0.0, "lat": 38.8807115, "type": "electric_scooter", "lon": -76.99504883333333, "bike_id": "fdd89d76f03bc6e8dc6ede7724d8ba04", "rental_uris": {"android": "https://dc.lft.to/lastmile_qr_scan", "ios": "https://dc.lft.to/lastmile_qr_scan"}, "name": "fdd89d76f03bc6e8dc6ede7724d8ba04", "is_reserved": 0}, {"is_disabled": 0, "fusion_lon": 0.0, "fusion_lat": 0.0, "lat": 38.95403683333333, "type": "electric_scooter", "lon": -77.02749016666667, "bike_id": "a8e7fecfff2892c15a1299e117a88721", "rental_uris": {"android": "https://dc.lft.to/lastmile_qr_scan", "ios": "https://dc.lft.to/lastmile_qr_scan"}, "name": "a8e7fecfff2892c15a1299e117a88721", "is_reserved": 0}, {"is_disabled": 0, "fusion_lon": 0.0, "fusion_lat": 0.0, "lat": 38.9024515, "type": "electric_scooter", "lon": -77.019301, "bike_id": "646f4a5544c0f254acd8fc18a473221f", "rental_uris": {"android": "https://dc.lft.to/lastmile_qr_scan", "ios": "https://dc.lft.to/lastmile_qr_scan"}, "name": "646f4a5544c0f254acd8fc18a473221f", "is_reserved": 0}, {"is_disabled": 0, "fusion_lon": 0.0, "fusion_lat": 0.0, "lat": 38.91693633333333, "type": "electric_scooter", "lon": -77.02592966666667, "bike_id": "3d3d3f9e85f24075e101372ffd72740e", "rental_uris": {"android": "https://dc.lft.to/lastmile_qr_scan", "ios": "https://dc.lft.to/lastmile_qr_scan"}, "name": "3d3d3f9e85f24075e101372ffd72740e", "is_reserved": 0}, {"is_disabled": 0, "fusion_lon": 0.0, "fusion_lat": 0.0, "lat": 38.89765216666667, "type": "electric_scooter", "lon": -77.00891416666667, "bike_id": "69b1919a2d45993fa30f4f5e9e1a80a1", "rental_uris": {"android": "https://dc.lft.to/lastmile_qr_scan", "ios": "https://dc.lft.to/lastmile_qr_scan"}, "name": "69b1919a2d45993fa30f4f5e9e1a80a1", "is_reserved": 0}, {"is_disabled": 0, "fusion_lon": 0.0, "fusion_lat": 0.0, "lat": 38.883965, "type": "electric_bike", "lon": -77.03082816666667, "bike_id": "fae896a292dbaaf3fb0866e6b1ac38d6", "rental_uris": {"android": "https://dc.lft.to/lastmile_qr_scan", "ios": "https://dc.lft.to/lastmile_qr_scan"}, "name": "fae896a292dbaaf3fb0866e6b1ac38d6", "is_reserved": 0}, {"is_disabled": 0, "fusion_lon": 0.0, "fusion_lat": 0.0, "lat": 38.84598116666667, "type": "electric_bike", "lon": -76.96877866666667, "bike_id": "eac6953aafbedd76fb82c53e0cc8dcbe", "rental_uris": {"android": "https://dc.lft.to/lastmile_qr_scan", "ios": "https://dc.lft.to/lastmile_qr_scan"}, "name": "eac6953aafbedd76fb82c53e0cc8dcbe", "is_reserved": 0}, {"is_disabled": 0, "fusion_lon": 0.0, "fusion_lat": 0.0, "lat": 38.93558816666667, "type": "electric_scooter", "lon": -77.0734155, "bike_id": "bd74736b2cbf5771d43e41eb325f6940", "rental_uris": {"android": "https://dc.lft.to/lastmile_qr_scan", "ios": "https://dc.lft.to/lastmile_qr_scan"}, "name": "bd74736b2cbf5771d43e41eb325f6940", "is_reserved": 0}, {"is_disabled": 0, "fusion_lon": 0.0, "fusion_lat": 0.0, "lat": 38.899091166666665, "type": "electric_scooter", "lon": -76.93387866666667, "bike_id": "5b14f8b32c6674d6e8963a64a927e848", "rental_uris": {"android": "https://dc.lft.to/lastmile_qr_scan", "ios": "https://dc.lft.to/lastmile_qr_scan"}, "name": "5b14f8b32c6674d6e8963a64a927e848", "is_reserved": 0}, {"is_disabled": 0, "fusion_lon": 0.0, "fusion_lat": 0.0, "lat": 38.9596165, "type": "electric_scooter", "lon": -77.02111433333333, "bike_id": "78f7c2175baa227061dbd81fb6123e58", "rental_uris": {"android": "https://dc.lft.to/lastmile_qr_scan", "ios": "https://dc.lft.to/lastmile_qr_scan"}, "name": "78f7c2175baa227061dbd81fb6123e58", "is_reserved": 0}, {"is_disabled": 0, "fusion_lon": 0.0, "fusion_lat": 0.0, "lat": 38.8801875, "type": "electric_scooter", "lon": -76.9824025, "bike_id": "28f39ee4bb7c6f7dbefe7b21e72c0848", "rental_uris": {"android": "https://dc.lft.to/lastmile_qr_scan", "ios": "https://dc.lft.to/lastmile_qr_scan"}, "name": "28f39ee4bb7c6f7dbefe7b21e72c0848", "is_reserved": 0}, {"is_disabled": 0, "fusion_lon": 0.0, "fusion_lat": 0.0, "lat": 38.90075383333333, "type": "electric_scooter", "lon": -77.01816883333333, "bike_id": "29609648ada358d6b811ac9cd10c54a3", "rental_uris": {"android": "https://dc.lft.to/lastmile_qr_scan", "ios": "https://dc.lft.to/lastmile_qr_scan"}, "name": "29609648ada358d6b811ac9cd10c54a3", "is_reserved": 0}, {"is_disabled": 0, "fusion_lon": 0.0, "fusion_lat": 0.0, "lat": 38.912767333333335, "type": "electric_scooter", "lon": -77.0473285, "bike_id": "b2b948014e5ec0713f0d6ba4b21d6ee4", "rental_uris": {"android": "https://dc.lft.to/lastmile_qr_scan", "ios": "https://dc.lft.to/lastmile_qr_scan"}, "name": "b2b948014e5ec0713f0d6ba4b21d6ee4", "is_reserved": 0}, {"is_disabled": 0, "fusion_lon": 0.0, "fusion_lat": 0.0, "lat": 38.87470283333333, "type": "electric_scooter", "lon": -77.00519166666666, "bike_id": "d28ca225c1defb6f0730e1957f0ab1c8", "rental_uris": {"android": "https://dc.lft.to/lastmile_qr_scan", "ios": "https://dc.lft.to/lastmile_qr_scan"}, "name": "d28ca225c1defb6f0730e1957f0ab1c8", "is_reserved": 0}, {"is_disabled": 0, "fusion_lon": 0.0, "fusion_lat": 0.0, "lat": 38.896232499999996, "type": "electric_scooter", "lon": -77.02606333333334, "bike_id": "6a2e766dfa95e61681fd317e737add87", "rental_uris": {"android": "https://dc.lft.to/lastmile_qr_scan", "ios": "https://dc.lft.to/lastmile_qr_scan"}, "name": "6a2e766dfa95e61681fd317e737add87", "is_reserved": 0}, {"is_disabled": 0, "fusion_lon": 0.0, "fusion_lat": 0.0, "lat": 38.940874, "type": "electric_scooter", "lon": -77.03813516666666, "bike_id": "b6bd5e087df9dc10106f9053015833b0", "rental_uris": {"android": "https://dc.lft.to/lastmile_qr_scan", "ios": "https://dc.lft.to/lastmile_qr_scan"}, "name": "b6bd5e087df9dc10106f9053015833b0", "is_reserved": 0}, {"is_disabled": 0, "fusion_lon": 0.0, "fusion_lat": 0.0, "lat": 38.917094, "type": "electric_scooter", "lon": -77.03763166666667, "bike_id": "2a8a2e0f5d04551e15778fe1d4f73611", "rental_uris": {"android": "https://dc.lft.to/lastmile_qr_scan", "ios": "https://dc.lft.to/lastmile_qr_scan"}, "name": "2a8a2e0f5d04551e15778fe1d4f73611", "is_reserved": 0}, {"is_disabled": 0, "fusion_lon": 0.0, "fusion_lat": 0.0, "lat": 38.93879283333333, "type": "electric_scooter", "lon": -77.03231533333333, "bike_id": "c181d8d9aac48989d491e4a747516376", "rental_uris": {"android": "https://dc.lft.to/lastmile_qr_scan", "ios": "https://dc.lft.to/lastmile_qr_scan"}, "name": "c181d8d9aac48989d491e4a747516376", "is_reserved": 0}, {"is_disabled": 0, "fusion_lon": 0.0, "fusion_lat": 0.0, "lat": 38.971657666666665, "type": "electric_bike", "lon": -76.9802155, "bike_id": "56d46a81d3b98bab4b1ca128be8f0bad", "rental_uris": {"android": "https://dc.lft.to/lastmile_qr_scan", "ios": "https://dc.lft.to/lastmile_qr_scan"}, "name": "56d46a81d3b98bab4b1ca128be8f0bad", "is_reserved": 0}, {"is_disabled": 0, "fusion_lon": 0.0, "fusion_lat": 0.0, "lat": 38.91109466666666, "type": "electric_scooter", "lon": -77.04252466666667, "bike_id": "7a55d034ff7c13517e38ef2aa8aa10f0", "rental_uris": {"android": "https://dc.lft.to/lastmile_qr_scan", "ios": "https://dc.lft.to/lastmile_qr_scan"}, "name": "7a55d034ff7c13517e38ef2aa8aa10f0", "is_reserved": 0}, {"is_disabled": 0, "fusion_lon": 0.0, "fusion_lat": 0.0, "lat": 38.88031633333333, "type": "electric_scooter", "lon": -76.995082, "bike_id": "ad1c09fc08a252881e9bc7e6dba66186", "rental_uris": {"android": "https://dc.lft.to/lastmile_qr_scan", "ios": "https://dc.lft.to/lastmile_qr_scan"}, "name": "ad1c09fc08a252881e9bc7e6dba66186", "is_reserved": 0}, {"is_disabled": 0, "fusion_lon": 0.0, "fusion_lat": 0.0, "lat": 38.968056833333335, "type": "electric_scooter", "lon": -77.021189, "bike_id": "1a041a347dfea074337126b30888becc", "rental_uris": {"android": "https://dc.lft.to/lastmile_qr_scan", "ios": "https://dc.lft.to/lastmile_qr_scan"}, "name": "1a041a347dfea074337126b30888becc", "is_reserved": 0}, {"is_disabled": 0, "fusion_lon": 0.0, "fusion_lat": 0.0, "lat": 38.916345166666666, "type": "electric_scooter", "lon": -77.026933, "bike_id": "1d636b66a0f5feb99651a9224f0f5e57", "rental_uris": {"android": "https://dc.lft.to/lastmile_qr_scan", "ios": "https://dc.lft.to/lastmile_qr_scan"}, "name": "1d636b66a0f5feb99651a9224f0f5e57", "is_reserved": 0}, {"is_disabled": 0, "fusion_lon": 0.0, "fusion_lat": 0.0, "lat": 38.954194333333334, "type": "electric_scooter", "lon": -77.02172916666666, "bike_id": "2fb853c4302d49d9cc869efdfa26811c", "rental_uris": {"android": "https://dc.lft.to/lastmile_qr_scan", "ios": "https://dc.lft.to/lastmile_qr_scan"}, "name": "2fb853c4302d49d9cc869efdfa26811c", "is_reserved": 0}, {"is_disabled": 0, "fusion_lon": 0.0, "fusion_lat": 0.0, "lat": 38.879203333333336, "type": "electric_scooter", "lon": -76.94483566666666, "bike_id": "312de43b947fe05e0272cc2919d76962", "rental_uris": {"android": "https://dc.lft.to/lastmile_qr_scan", "ios": "https://dc.lft.to/lastmile_qr_scan"}, "name": "312de43b947fe05e0272cc2919d76962", "is_reserved": 0}, {"is_disabled": 0, "fusion_lon": 0.0, "fusion_lat": 0.0, "lat": 38.8591655, "type": "electric_scooter", "lon": -76.98777816666667, "bike_id": "994055c3a6267644ddee32dff02342e8", "rental_uris": {"android": "https://dc.lft.to/lastmile_qr_scan", "ios": "https://dc.lft.to/lastmile_qr_scan"}, "name": "994055c3a6267644ddee32dff02342e8", "is_reserved": 0}, {"is_disabled": 0, "fusion_lon": 0.0, "fusion_lat": 0.0, "lat": 38.92456283333333, "type": "electric_scooter", "lon": -77.05080633333333, "bike_id": "ee5c490e1542fcfd2e775504a7dfa7e3", "rental_uris": {"android": "https://dc.lft.to/lastmile_qr_scan", "ios": "https://dc.lft.to/lastmile_qr_scan"}, "name": "ee5c490e1542fcfd2e775504a7dfa7e3", "is_reserved": 0}, {"is_disabled": 0, "fusion_lon": 0.0, "fusion_lat": 0.0, "lat": 38.89515216666667, "type": "electric_scooter", "lon": -77.04995783333334, "bike_id": "8fb79b15b5bd8b40f0b8f64d8c910ede", "rental_uris": {"android": "https://dc.lft.to/lastmile_qr_scan", "ios": "https://dc.lft.to/lastmile_qr_scan"}, "name": "8fb79b15b5bd8b40f0b8f64d8c910ede", "is_reserved": 0}, {"is_disabled": 0, "fusion_lon": 0.0, "fusion_lat": 0.0, "lat": 38.926017, "type": "electric_scooter", "lon": -77.0215355, "bike_id": "e8a15d9170d664392815e84da46e56db", "rental_uris": {"android": "https://dc.lft.to/lastmile_qr_scan", "ios": "https://dc.lft.to/lastmile_qr_scan"}, "name": "e8a15d9170d664392815e84da46e56db", "is_reserved": 0}, {"is_disabled": 0, "fusion_lon": 0.0, "fusion_lat": 0.0, "lat": 38.872341666666664, "type": "electric_scooter", "lon": -77.00575383333333, "bike_id": "2b0ea1ea5a597e86dae9277fb3c68044", "rental_uris": {"android": "https://dc.lft.to/lastmile_qr_scan", "ios": "https://dc.lft.to/lastmile_qr_scan"}, "name": "2b0ea1ea5a597e86dae9277fb3c68044", "is_reserved": 0}, {"is_disabled": 0, "fusion_lon": 0.0, "fusion_lat": 0.0, "lat": 38.92975366666667, "type": "electric_scooter", "lon": -77.03470066666667, "bike_id": "1aeb166ea6514a05721aea672a9bb0b6", "rental_uris": {"android": "https://dc.lft.to/lastmile_qr_scan", "ios": "https://dc.lft.to/lastmile_qr_scan"}, "name": "1aeb166ea6514a05721aea672a9bb0b6", "is_reserved": 0}, {"is_disabled": 0, "fusion_lon": 0.0, "fusion_lat": 0.0, "lat": 38.9112065, "type": "electric_scooter", "lon": -77.0471815, "bike_id": "74a786ae06fd5f7d19911e0dffa925a8", "rental_uris": {"android": "https://dc.lft.to/lastmile_qr_scan", "ios": "https://dc.lft.to/lastmile_qr_scan"}, "name": "74a786ae06fd5f7d19911e0dffa925a8", "is_reserved": 0}, {"is_disabled": 0, "fusion_lon": 0.0, "fusion_lat": 0.0, "lat": 38.92844433333333, "type": "electric_scooter", "lon": -77.014132, "bike_id": "5ce4bbf1820ad7304fb6d941f58bce0a", "rental_uris": {"android": "https://dc.lft.to/lastmile_qr_scan", "ios": "https://dc.lft.to/lastmile_qr_scan"}, "name": "5ce4bbf1820ad7304fb6d941f58bce0a", "is_reserved": 0}, {"is_disabled": 0, "fusion_lon": 0.0, "fusion_lat": 0.0, "lat": 38.91579183333333, "type": "electric_scooter", "lon": -76.98113466666666, "bike_id": "ec36fba516d2ca9b846a65c97712413c", "rental_uris": {"android": "https://dc.lft.to/lastmile_qr_scan", "ios": "https://dc.lft.to/lastmile_qr_scan"}, "name": "ec36fba516d2ca9b846a65c97712413c", "is_reserved": 0}, {"is_disabled": 0, "fusion_lon": 0.0, "fusion_lat": 0.0, "lat": 38.90867983333333, "type": "electric_scooter", "lon": -77.03218083333333, "bike_id": "7de7a069dd828057dce43a3302c2b9c7", "rental_uris": {"android": "https://dc.lft.to/lastmile_qr_scan", "ios": "https://dc.lft.to/lastmile_qr_scan"}, "name": "7de7a069dd828057dce43a3302c2b9c7", "is_reserved": 0}, {"is_disabled": 0, "fusion_lon": 0.0, "fusion_lat": 0.0, "lat": 38.91330633333333, "type": "electric_scooter", "lon": -77.04169883333333, "bike_id": "23d9ecfafd90a42fb0c72a61a796f6be", "rental_uris": {"android": "https://dc.lft.to/lastmile_qr_scan", "ios": "https://dc.lft.to/lastmile_qr_scan"}, "name": "23d9ecfafd90a42fb0c72a61a796f6be", "is_reserved": 0}, {"is_disabled": 0, "fusion_lon": 0.0, "fusion_lat": 0.0, "lat": 38.939673166666665, "type": "electric_scooter", "lon": -77.03282183333333, "bike_id": "427189b8cb8dc5299efeb34ede2815e1", "rental_uris": {"android": "https://dc.lft.to/lastmile_qr_scan", "ios": "https://dc.lft.to/lastmile_qr_scan"}, "name": "427189b8cb8dc5299efeb34ede2815e1", "is_reserved": 0}, {"is_disabled": 0, "fusion_lon": 0.0, "fusion_lat": 0.0, "lat": 38.926013, "type": "electric_scooter", "lon": -77.02149866666667, "bike_id": "2faa127e1c6c712d2ccd3b22e97d3f04", "rental_uris": {"android": "https://dc.lft.to/lastmile_qr_scan", "ios": "https://dc.lft.to/lastmile_qr_scan"}, "name": "2faa127e1c6c712d2ccd3b22e97d3f04", "is_reserved": 0}, {"is_disabled": 0, "fusion_lon": 0.0, "fusion_lat": 0.0, "lat": 38.919713, "type": "electric_scooter", "lon": -76.98052633333333, "bike_id": "3346b7009aee30fbbb37b3e7408e41a9", "rental_uris": {"android": "https://dc.lft.to/lastmile_qr_scan", "ios": "https://dc.lft.to/lastmile_qr_scan"}, "name": "3346b7009aee30fbbb37b3e7408e41a9", "is_reserved": 0}, {"is_disabled": 0, "fusion_lon": 0.0, "fusion_lat": 0.0, "lat": 38.887451, "type": "electric_scooter", "lon": -77.021565, "bike_id": "0eb1fca2abd9bafb55ba8e0abd0601d4", "rental_uris": {"android": "https://dc.lft.to/lastmile_qr_scan", "ios": "https://dc.lft.to/lastmile_qr_scan"}, "name": "0eb1fca2abd9bafb55ba8e0abd0601d4", "is_reserved": 0}, {"is_disabled": 0, "fusion_lon": 0.0, "fusion_lat": 0.0, "lat": 38.8766865, "type": "electric_scooter", "lon": -77.0036595, "bike_id": "3bdc0d2bd068ed0e9466ee47062b145a", "rental_uris": {"android": "https://dc.lft.to/lastmile_qr_scan", "ios": "https://dc.lft.to/lastmile_qr_scan"}, "name": "3bdc0d2bd068ed0e9466ee47062b145a", "is_reserved": 0}, {"is_disabled": 0, "fusion_lon": 0.0, "fusion_lat": 0.0, "lat": 38.922211833333336, "type": "electric_scooter", "lon": -77.03442483333333, "bike_id": "a6b7f8a2ffc777afff5d221010f91eb8", "rental_uris": {"android": "https://dc.lft.to/lastmile_qr_scan", "ios": "https://dc.lft.to/lastmile_qr_scan"}, "name": "a6b7f8a2ffc777afff5d221010f91eb8", "is_reserved": 0}, {"is_disabled": 0, "fusion_lon": 0.0, "fusion_lat": 0.0, "lat": 38.89731, "type": "electric_scooter", "lon": -77.00973016666667, "bike_id": "4074d8016edd3076c6543b3915aa3f3e", "rental_uris": {"android": "https://dc.lft.to/lastmile_qr_scan", "ios": "https://dc.lft.to/lastmile_qr_scan"}, "name": "4074d8016edd3076c6543b3915aa3f3e", "is_reserved": 0}, {"is_disabled": 0, "fusion_lon": 0.0, "fusion_lat": 0.0, "lat": 38.927566166666665, "type": "electric_scooter", "lon": -77.00590333333334, "bike_id": "78feb47f48003e6b3fa5fb838c92f1e3", "rental_uris": {"android": "https://dc.lft.to/lastmile_qr_scan", "ios": "https://dc.lft.to/lastmile_qr_scan"}, "name": "78feb47f48003e6b3fa5fb838c92f1e3", "is_reserved": 0}, {"is_disabled": 0, "fusion_lon": 0.0, "fusion_lat": 0.0, "lat": 38.94216816666667, "type": "electric_scooter", "lon": -77.02499766666666, "bike_id": "0bcd2bddae347c1edf31fed7af56e6be", "rental_uris": {"android": "https://dc.lft.to/lastmile_qr_scan", "ios": "https://dc.lft.to/lastmile_qr_scan"}, "name": "0bcd2bddae347c1edf31fed7af56e6be", "is_reserved": 0}, {"is_disabled": 0, "fusion_lon": 0.0, "fusion_lat": 0.0, "lat": 38.903941833333334, "type": "electric_scooter", "lon": -76.99006766666666, "bike_id": "865f8a4dee5842e96293f0363f34b96c", "rental_uris": {"android": "https://dc.lft.to/lastmile_qr_scan", "ios": "https://dc.lft.to/lastmile_qr_scan"}, "name": "865f8a4dee5842e96293f0363f34b96c", "is_reserved": 0}, {"is_disabled": 0, "fusion_lon": 0.0, "fusion_lat": 0.0, "lat": 38.924789833333335, "type": "electric_scooter", "lon": -77.03483183333333, "bike_id": "727a714b8fd4f98711bf6f2896b61d74", "rental_uris": {"android": "https://dc.lft.to/lastmile_qr_scan", "ios": "https://dc.lft.to/lastmile_qr_scan"}, "name": "727a714b8fd4f98711bf6f2896b61d74", "is_reserved": 0}, {"is_disabled": 0, "fusion_lon": 0.0, "fusion_lat": 0.0, "lat": 38.903369, "type": "electric_scooter", "lon": -77.03842933333334, "bike_id": "0b674e8cee95aec0472245c5a875127d", "rental_uris": {"android": "https://dc.lft.to/lastmile_qr_scan", "ios": "https://dc.lft.to/lastmile_qr_scan"}, "name": "0b674e8cee95aec0472245c5a875127d", "is_reserved": 0}, {"is_disabled": 0, "fusion_lon": 0.0, "fusion_lat": 0.0, "lat": 38.8971295, "type": "electric_scooter", "lon": -77.01184316666667, "bike_id": "1adabfa35033b50e10c52838579a80ef", "rental_uris": {"android": "https://dc.lft.to/lastmile_qr_scan", "ios": "https://dc.lft.to/lastmile_qr_scan"}, "name": "1adabfa35033b50e10c52838579a80ef", "is_reserved": 0}, {"is_disabled": 0, "fusion_lon": 0.0, "fusion_lat": 0.0, "lat": 38.90736733333333, "type": "electric_scooter", "lon": -77.02271916666666, "bike_id": "11508d5f2d5bae7386758861a5534706", "rental_uris": {"android": "https://dc.lft.to/lastmile_qr_scan", "ios": "https://dc.lft.to/lastmile_qr_scan"}, "name": "11508d5f2d5bae7386758861a5534706", "is_reserved": 0}, {"is_disabled": 0, "fusion_lon": 0.0, "fusion_lat": 0.0, "lat": 38.914882666666664, "type": "electric_scooter", "lon": -77.04159166666666, "bike_id": "b9a8f6fd7315d196cc20145c16218d3c", "rental_uris": {"android": "https://dc.lft.to/lastmile_qr_scan", "ios": "https://dc.lft.to/lastmile_qr_scan"}, "name": "b9a8f6fd7315d196cc20145c16218d3c", "is_reserved": 0}, {"is_disabled": 0, "fusion_lon": 0.0, "fusion_lat": 0.0, "lat": 38.904720166666664, "type": "electric_scooter", "lon": -77.035487, "bike_id": "566d5871bd57fae624275abfca09b5d8", "rental_uris": {"android": "https://dc.lft.to/lastmile_qr_scan", "ios": "https://dc.lft.to/lastmile_qr_scan"}, "name": "566d5871bd57fae624275abfca09b5d8", "is_reserved": 0}, {"is_disabled": 0, "fusion_lon": 0.0, "fusion_lat": 0.0, "lat": 38.93377483333333, "type": "electric_scooter", "lon": -77.07255416666666, "bike_id": "418206d9f8aa5db587ed2d9b028bd9ac", "rental_uris": {"android": "https://dc.lft.to/lastmile_qr_scan", "ios": "https://dc.lft.to/lastmile_qr_scan"}, "name": "418206d9f8aa5db587ed2d9b028bd9ac", "is_reserved": 0}, {"is_disabled": 0, "fusion_lon": 0.0, "fusion_lat": 0.0, "lat": 38.8963055, "type": "electric_scooter", "lon": -77.00894983333333, "bike_id": "0a82919479fd95e4e34949577c2d2eb8", "rental_uris": {"android": "https://dc.lft.to/lastmile_qr_scan", "ios": "https://dc.lft.to/lastmile_qr_scan"}, "name": "0a82919479fd95e4e34949577c2d2eb8", "is_reserved": 0}, {"is_disabled": 0, "fusion_lon": 0.0, "fusion_lat": 0.0, "lat": 38.9754095, "type": "electric_bike", "lon": -76.995285, "bike_id": "19527959eda538cc99f660e2d0fdb463", "rental_uris": {"android": "https://dc.lft.to/lastmile_qr_scan", "ios": "https://dc.lft.to/lastmile_qr_scan"}, "name": "19527959eda538cc99f660e2d0fdb463", "is_reserved": 0}, {"is_disabled": 0, "fusion_lon": 0.0, "fusion_lat": 0.0, "lat": 38.935782833333334, "type": "electric_bike", "lon": -77.08247666666666, "bike_id": "5cfb30ed46a2b57810df94dd70c97d5c", "rental_uris": {"android": "https://dc.lft.to/lastmile_qr_scan", "ios": "https://dc.lft.to/lastmile_qr_scan"}, "name": "5cfb30ed46a2b57810df94dd70c97d5c", "is_reserved": 0}, {"is_disabled": 0, "fusion_lon": 0.0, "fusion_lat": 0.0, "lat": 38.86638766666667, "type": "electric_scooter", "lon": -76.98301916666667, "bike_id": "4871d67ee037858eca848f2b004753b1", "rental_uris": {"android": "https://dc.lft.to/lastmile_qr_scan", "ios": "https://dc.lft.to/lastmile_qr_scan"}, "name": "4871d67ee037858eca848f2b004753b1", "is_reserved": 0}, {"is_disabled": 0, "fusion_lon": 0.0, "fusion_lat": 0.0, "lat": 38.91591433333333, "type": "electric_bike", "lon": -76.971488, "bike_id": "123668841121ef7b586aa79096e76846", "rental_uris": {"android": "https://dc.lft.to/lastmile_qr_scan", "ios": "https://dc.lft.to/lastmile_qr_scan"}, "name": "123668841121ef7b586aa79096e76846", "is_reserved": 0}, {"is_disabled": 0, "fusion_lon": 0.0, "fusion_lat": 0.0, "lat": 38.91113283333333, "type": "electric_scooter", "lon": -77.02278166666666, "bike_id": "95bdb7397243e0e0baa6f67486715268", "rental_uris": {"android": "https://dc.lft.to/lastmile_qr_scan", "ios": "https://dc.lft.to/lastmile_qr_scan"}, "name": "95bdb7397243e0e0baa6f67486715268", "is_reserved": 0}, {"is_disabled": 0, "fusion_lon": 0.0, "fusion_lat": 0.0, "lat": 38.897406, "type": "electric_scooter", "lon": -77.03043416666667, "bike_id": "46ffa8ee83db741b20f9296f49a3b37a", "rental_uris": {"android": "https://dc.lft.to/lastmile_qr_scan", "ios": "https://dc.lft.to/lastmile_qr_scan"}, "name": "46ffa8ee83db741b20f9296f49a3b37a", "is_reserved": 0}, {"is_disabled": 0, "fusion_lon": 0.0, "fusion_lat": 0.0, "lat": 38.919836, "type": "electric_bike", "lon": -76.9731645, "bike_id": "d5e2914fe46e960e0e4f99954f355c85", "rental_uris": {"android": "https://dc.lft.to/lastmile_qr_scan", "ios": "https://dc.lft.to/lastmile_qr_scan"}, "name": "d5e2914fe46e960e0e4f99954f355c85", "is_reserved": 0}, {"is_disabled": 0, "fusion_lon": 0.0, "fusion_lat": 0.0, "lat": 38.90659216666667, "type": "electric_scooter", "lon": -76.98228266666666, "bike_id": "cf4b1249104c7fb8169bdeb4c7929862", "rental_uris": {"android": "https://dc.lft.to/lastmile_qr_scan", "ios": "https://dc.lft.to/lastmile_qr_scan"}, "name": "cf4b1249104c7fb8169bdeb4c7929862", "is_reserved": 0}, {"is_disabled": 0, "fusion_lon": 0.0, "fusion_lat": 0.0, "lat": 38.926134833333336, "type": "electric_scooter", "lon": -77.0418915, "bike_id": "8995a4fc2162784a038df73883f0c9d0", "rental_uris": {"android": "https://dc.lft.to/lastmile_qr_scan", "ios": "https://dc.lft.to/lastmile_qr_scan"}, "name": "8995a4fc2162784a038df73883f0c9d0", "is_reserved": 0}, {"is_disabled": 0, "fusion_lon": 0.0, "fusion_lat": 0.0, "lat": 38.904757000000004, "type": "electric_scooter", "lon": -77.04865833333334, "bike_id": "6eba01a022ad9da6504f5a0c0ee54ae4", "rental_uris": {"android": "https://dc.lft.to/lastmile_qr_scan", "ios": "https://dc.lft.to/lastmile_qr_scan"}, "name": "6eba01a022ad9da6504f5a0c0ee54ae4", "is_reserved": 0}, {"is_disabled": 0, "fusion_lon": 0.0, "fusion_lat": 0.0, "lat": 38.996674166666665, "type": "electric_bike", "lon": -76.9914505, "bike_id": "046c0c362188494eb4fe16daf1a059a1", "rental_uris": {"android": "https://dc.lft.to/lastmile_qr_scan", "ios": "https://dc.lft.to/lastmile_qr_scan"}, "name": "046c0c362188494eb4fe16daf1a059a1", "is_reserved": 0}, {"is_disabled": 0, "fusion_lon": 0.0, "fusion_lat": 0.0, "lat": 38.898366833333334, "type": "electric_scooter", "lon": -77.04332116666667, "bike_id": "50dd6c9717c8f37a4902aef1e300dc46", "rental_uris": {"android": "https://dc.lft.to/lastmile_qr_scan", "ios": "https://dc.lft.to/lastmile_qr_scan"}, "name": "50dd6c9717c8f37a4902aef1e300dc46", "is_reserved": 0}, {"is_disabled": 0, "fusion_lon": 0.0, "fusion_lat": 0.0, "lat": 38.94454866666667, "type": "electric_scooter", "lon": -77.0602465, "bike_id": "00526d40be8b051c2ac032ad2ba02726", "rental_uris": {"android": "https://dc.lft.to/lastmile_qr_scan", "ios": "https://dc.lft.to/lastmile_qr_scan"}, "name": "00526d40be8b051c2ac032ad2ba02726", "is_reserved": 0}, {"is_disabled": 0, "fusion_lon": 0.0, "fusion_lat": 0.0, "lat": 38.8637315, "type": "electric_scooter", "lon": -77.01367733333333, "bike_id": "72423520e38b04416f20c32e48bb0b93", "rental_uris": {"android": "https://dc.lft.to/lastmile_qr_scan", "ios": "https://dc.lft.to/lastmile_qr_scan"}, "name": "72423520e38b04416f20c32e48bb0b93", "is_reserved": 0}, {"is_disabled": 0, "fusion_lon": 0.0, "fusion_lat": 0.0, "lat": 38.89538116666667, "type": "electric_scooter", "lon": -77.02814933333333, "bike_id": "36b5e64345dad65aa166f87f9f60a549", "rental_uris": {"android": "https://dc.lft.to/lastmile_qr_scan", "ios": "https://dc.lft.to/lastmile_qr_scan"}, "name": "36b5e64345dad65aa166f87f9f60a549", "is_reserved": 0}, {"is_disabled": 0, "fusion_lon": 0.0, "fusion_lat": 0.0, "lat": 38.877381666666665, "type": "electric_scooter", "lon": -76.996273, "bike_id": "b0506cd9dc8f636ba2e37fbcabd8df1e", "rental_uris": {"android": "https://dc.lft.to/lastmile_qr_scan", "ios": "https://dc.lft.to/lastmile_qr_scan"}, "name": "b0506cd9dc8f636ba2e37fbcabd8df1e", "is_reserved": 0}, {"is_disabled": 0, "fusion_lon": 0.0, "fusion_lat": 0.0, "lat": 38.83288, "type": "electric_scooter", "lon": -77.00825066666667, "bike_id": "6b1a53a286490f91ac0cf06af69a2779", "rental_uris": {"android": "https://dc.lft.to/lastmile_qr_scan", "ios": "https://dc.lft.to/lastmile_qr_scan"}, "name": "6b1a53a286490f91ac0cf06af69a2779", "is_reserved": 0}, {"is_disabled": 0, "fusion_lon": 0.0, "fusion_lat": 0.0, "lat": 38.91054366666667, "type": "electric_scooter", "lon": -77.05446066666667, "bike_id": "e3e8049db971bbe0e6b5ed5c347221ad", "rental_uris": {"android": "https://dc.lft.to/lastmile_qr_scan", "ios": "https://dc.lft.to/lastmile_qr_scan"}, "name": "e3e8049db971bbe0e6b5ed5c347221ad", "is_reserved": 0}, {"is_disabled": 0, "fusion_lon": 0.0, "fusion_lat": 0.0, "lat": 38.894705, "type": "electric_scooter", "lon": -77.00138133333333, "bike_id": "c1a90a3d47270ea5abcb653d19c5bc7f", "rental_uris": {"android": "https://dc.lft.to/lastmile_qr_scan", "ios": "https://dc.lft.to/lastmile_qr_scan"}, "name": "c1a90a3d47270ea5abcb653d19c5bc7f", "is_reserved": 0}, {"is_disabled": 0, "fusion_lon": 0.0, "fusion_lat": 0.0, "lat": 38.913503, "type": "electric_scooter", "lon": -77.03185166666667, "bike_id": "0a78745f123503e302be2813490bf286", "rental_uris": {"android": "https://dc.lft.to/lastmile_qr_scan", "ios": "https://dc.lft.to/lastmile_qr_scan"}, "name": "0a78745f123503e302be2813490bf286", "is_reserved": 0}, {"is_disabled": 0, "fusion_lon": 0.0, "fusion_lat": 0.0, "lat": 38.96286683333334, "type": "electric_bike", "lon": -77.0287075, "bike_id": "3dec3602a9e127b83503085d51ebe399", "rental_uris": {"android": "https://dc.lft.to/lastmile_qr_scan", "ios": "https://dc.lft.to/lastmile_qr_scan"}, "name": "3dec3602a9e127b83503085d51ebe399", "is_reserved": 0}, {"is_disabled": 0, "fusion_lon": 0.0, "fusion_lat": 0.0, "lat": 38.905109, "type": "electric_scooter", "lon": -77.06017966666667, "bike_id": "2c1d0336ed87eca19633b33e7e40d67e", "rental_uris": {"android": "https://dc.lft.to/lastmile_qr_scan", "ios": "https://dc.lft.to/lastmile_qr_scan"}, "name": "2c1d0336ed87eca19633b33e7e40d67e", "is_reserved": 0}, {"is_disabled": 0, "fusion_lon": 0.0, "fusion_lat": 0.0, "lat": 38.912691, "type": "electric_scooter", "lon": -77.05154916666666, "bike_id": "124066c90ef6276a784332185d284a94", "rental_uris": {"android": "https://dc.lft.to/lastmile_qr_scan", "ios": "https://dc.lft.to/lastmile_qr_scan"}, "name": "124066c90ef6276a784332185d284a94", "is_reserved": 0}, {"is_disabled": 0, "fusion_lon": 0.0, "fusion_lat": 0.0, "lat": 38.90626916666667, "type": "electric_scooter", "lon": -77.02182066666667, "bike_id": "0c42b7d77e8430bcb9f6e6f552ea025c", "rental_uris": {"android": "https://dc.lft.to/lastmile_qr_scan", "ios": "https://dc.lft.to/lastmile_qr_scan"}, "name": "0c42b7d77e8430bcb9f6e6f552ea025c", "is_reserved": 0}, {"is_disabled": 0, "fusion_lon": 0.0, "fusion_lat": 0.0, "lat": 38.89900433333333, "type": "electric_scooter", "lon": -76.93195766666666, "bike_id": "c604aa0da840857b4be95106bb2e142a", "rental_uris": {"android": "https://dc.lft.to/lastmile_qr_scan", "ios": "https://dc.lft.to/lastmile_qr_scan"}, "name": "c604aa0da840857b4be95106bb2e142a", "is_reserved": 0}, {"is_disabled": 0, "fusion_lon": 0.0, "fusion_lat": 0.0, "lat": 38.936402666666666, "type": "electric_bike", "lon": -76.95453566666667, "bike_id": "0db3a4344d7fa16bb76a00ea80798779", "rental_uris": {"android": "https://dc.lft.to/lastmile_qr_scan", "ios": "https://dc.lft.to/lastmile_qr_scan"}, "name": "0db3a4344d7fa16bb76a00ea80798779", "is_reserved": 0}, {"is_disabled": 0, "fusion_lon": 0.0, "fusion_lat": 0.0, "lat": 38.934544333333335, "type": "electric_scooter", "lon": -77.030151, "bike_id": "892b93f66a7b9bbeed6df4b8ca5ed976", "rental_uris": {"android": "https://dc.lft.to/lastmile_qr_scan", "ios": "https://dc.lft.to/lastmile_qr_scan"}, "name": "892b93f66a7b9bbeed6df4b8ca5ed976", "is_reserved": 0}, {"is_disabled": 0, "fusion_lon": 0.0, "fusion_lat": 0.0, "lat": 38.9455765, "type": "electric_bike", "lon": -76.9874435, "bike_id": "0771029b324ecd6a0645e0ed22fed241", "rental_uris": {"android": "https://dc.lft.to/lastmile_qr_scan", "ios": "https://dc.lft.to/lastmile_qr_scan"}, "name": "0771029b324ecd6a0645e0ed22fed241", "is_reserved": 0}, {"is_disabled": 0, "fusion_lon": 0.0, "fusion_lat": 0.0, "lat": 38.93076833333333, "type": "electric_scooter", "lon": -77.02794316666666, "bike_id": "0ca7444d2eb78e0018267c1a8a7f7a18", "rental_uris": {"android": "https://dc.lft.to/lastmile_qr_scan", "ios": "https://dc.lft.to/lastmile_qr_scan"}, "name": "0ca7444d2eb78e0018267c1a8a7f7a18", "is_reserved": 0}, {"is_disabled": 0, "fusion_lon": 0.0, "fusion_lat": 0.0, "lat": 38.905249833333336, "type": "electric_scooter", "lon": -77.0512825, "bike_id": "579540cbe3cf57120d65018cbc86a655", "rental_uris": {"android": "https://dc.lft.to/lastmile_qr_scan", "ios": "https://dc.lft.to/lastmile_qr_scan"}, "name": "579540cbe3cf57120d65018cbc86a655", "is_reserved": 0}, {"is_disabled": 0, "fusion_lon": 0.0, "fusion_lat": 0.0, "lat": 38.920898666666666, "type": "electric_scooter", "lon": -77.01705633333333, "bike_id": "193f45cd5d4e58169d6e8e7ac29d0e45", "rental_uris": {"android": "https://dc.lft.to/lastmile_qr_scan", "ios": "https://dc.lft.to/lastmile_qr_scan"}, "name": "193f45cd5d4e58169d6e8e7ac29d0e45", "is_reserved": 0}, {"is_disabled": 0, "fusion_lon": 0.0, "fusion_lat": 0.0, "lat": 38.897822, "type": "electric_scooter", "lon": -77.02744116666666, "bike_id": "8b95c81480bee36b401128b57a2b21a7", "rental_uris": {"android": "https://dc.lft.to/lastmile_qr_scan", "ios": "https://dc.lft.to/lastmile_qr_scan"}, "name": "8b95c81480bee36b401128b57a2b21a7", "is_reserved": 0}, {"is_disabled": 0, "fusion_lon": 0.0, "fusion_lat": 0.0, "lat": 38.9197775, "type": "electric_scooter", "lon": -77.02175883333334, "bike_id": "fd922340ac0483939cc8c1c2d77a613c", "rental_uris": {"android": "https://dc.lft.to/lastmile_qr_scan", "ios": "https://dc.lft.to/lastmile_qr_scan"}, "name": "fd922340ac0483939cc8c1c2d77a613c", "is_reserved": 0}, {"is_disabled": 0, "fusion_lon": 0.0, "fusion_lat": 0.0, "lat": 38.876766333333336, "type": "electric_scooter", "lon": -77.01758033333333, "bike_id": "a4d34ae5b750b66292ff398fd2b8a520", "rental_uris": {"android": "https://dc.lft.to/lastmile_qr_scan", "ios": "https://dc.lft.to/lastmile_qr_scan"}, "name": "a4d34ae5b750b66292ff398fd2b8a520", "is_reserved": 0}, {"is_disabled": 0, "fusion_lon": 0.0, "fusion_lat": 0.0, "lat": 38.92228083333333, "type": "electric_scooter", "lon": -77.03317633333333, "bike_id": "b289c71643e34353df63fa4e60d25a3b", "rental_uris": {"android": "https://dc.lft.to/lastmile_qr_scan", "ios": "https://dc.lft.to/lastmile_qr_scan"}, "name": "b289c71643e34353df63fa4e60d25a3b", "is_reserved": 0}, {"is_disabled": 0, "fusion_lon": 0.0, "fusion_lat": 0.0, "lat": 38.91692583333333, "type": "electric_scooter", "lon": -77.03632433333334, "bike_id": "b5f49195ce6b815359884a7754650abd", "rental_uris": {"android": "https://dc.lft.to/lastmile_qr_scan", "ios": "https://dc.lft.to/lastmile_qr_scan"}, "name": "b5f49195ce6b815359884a7754650abd", "is_reserved": 0}, {"is_disabled": 0, "fusion_lon": 0.0, "fusion_lat": 0.0, "lat": 38.8029715, "type": "electric_bike", "lon": -77.0398595, "bike_id": "0fb2bb1550b0eff87bcde6748c42ecc4", "rental_uris": {"android": "https://dc.lft.to/lastmile_qr_scan", "ios": "https://dc.lft.to/lastmile_qr_scan"}, "name": "0fb2bb1550b0eff87bcde6748c42ecc4", "is_reserved": 0}, {"is_disabled": 0, "fusion_lon": 0.0, "fusion_lat": 0.0, "lat": 38.9271685, "type": "electric_scooter", "lon": -77.04048, "bike_id": "9ea0c7271dda1fa18de3421b329c41a0", "rental_uris": {"android": "https://dc.lft.to/lastmile_qr_scan", "ios": "https://dc.lft.to/lastmile_qr_scan"}, "name": "9ea0c7271dda1fa18de3421b329c41a0", "is_reserved": 0}, {"is_disabled": 0, "fusion_lon": 0.0, "fusion_lat": 0.0, "lat": 38.91721783333333, "type": "electric_scooter", "lon": -77.03661266666667, "bike_id": "bf870a0cd6cc9e8aea3b34c4d1617d5e", "rental_uris": {"android": "https://dc.lft.to/lastmile_qr_scan", "ios": "https://dc.lft.to/lastmile_qr_scan"}, "name": "bf870a0cd6cc9e8aea3b34c4d1617d5e", "is_reserved": 0}, {"is_disabled": 0, "fusion_lon": 0.0, "fusion_lat": 0.0, "lat": 38.90017566666667, "type": "electric_scooter", "lon": -77.007924, "bike_id": "6678d2293baa63a4f2453319551b27bf", "rental_uris": {"android": "https://dc.lft.to/lastmile_qr_scan", "ios": "https://dc.lft.to/lastmile_qr_scan"}, "name": "6678d2293baa63a4f2453319551b27bf", "is_reserved": 0}, {"is_disabled": 0, "fusion_lon": 0.0, "fusion_lat": 0.0, "lat": 38.9195065, "type": "electric_scooter", "lon": -77.0139385, "bike_id": "ac30ad18eda59ec7d45e9fc73b6c3609", "rental_uris": {"android": "https://dc.lft.to/lastmile_qr_scan", "ios": "https://dc.lft.to/lastmile_qr_scan"}, "name": "ac30ad18eda59ec7d45e9fc73b6c3609", "is_reserved": 0}, {"is_disabled": 0, "fusion_lon": 0.0, "fusion_lat": 0.0, "lat": 38.939631166666665, "type": "electric_scooter", "lon": -77.03281216666667, "bike_id": "f8552340f2b26433ce986518fe4ca755", "rental_uris": {"android": "https://dc.lft.to/lastmile_qr_scan", "ios": "https://dc.lft.to/lastmile_qr_scan"}, "name": "f8552340f2b26433ce986518fe4ca755", "is_reserved": 0}, {"is_disabled": 0, "fusion_lon": 0.0, "fusion_lat": 0.0, "lat": 38.90286283333333, "type": "electric_scooter", "lon": -77.02427833333333, "bike_id": "a5f4bf70a6bad10b073586ad7b636055", "rental_uris": {"android": "https://dc.lft.to/lastmile_qr_scan", "ios": "https://dc.lft.to/lastmile_qr_scan"}, "name": "a5f4bf70a6bad10b073586ad7b636055", "is_reserved": 0}, {"is_disabled": 0, "fusion_lon": 0.0, "fusion_lat": 0.0, "lat": 38.82443416666667, "type": "electric_bike", "lon": -77.07041683333334, "bike_id": "28fa94b3d9cf4d2a229bde39e6c63a8a", "rental_uris": {"android": "https://dc.lft.to/lastmile_qr_scan", "ios": "https://dc.lft.to/lastmile_qr_scan"}, "name": "28fa94b3d9cf4d2a229bde39e6c63a8a", "is_reserved": 0}, {"is_disabled": 0, "fusion_lon": 0.0, "fusion_lat": 0.0, "lat": 38.96190716666667, "type": "electric_scooter", "lon": -77.02775383333334, "bike_id": "ffa42b623475ab7bc36e6b4bc9fce5d5", "rental_uris": {"android": "https://dc.lft.to/lastmile_qr_scan", "ios": "https://dc.lft.to/lastmile_qr_scan"}, "name": "ffa42b623475ab7bc36e6b4bc9fce5d5", "is_reserved": 0}, {"is_disabled": 0, "fusion_lon": 0.0, "fusion_lat": 0.0, "lat": 38.898317, "type": "electric_scooter", "lon": -76.94634933333333, "bike_id": "1c5e833ef38de3e035e85b73f8d0b824", "rental_uris": {"android": "https://dc.lft.to/lastmile_qr_scan", "ios": "https://dc.lft.to/lastmile_qr_scan"}, "name": "1c5e833ef38de3e035e85b73f8d0b824", "is_reserved": 0}, {"is_disabled": 0, "fusion_lon": 0.0, "fusion_lat": 0.0, "lat": 38.82780433333333, "type": "electric_bike", "lon": -77.11082366666666, "bike_id": "e4339d0dd5d1d8b37e01ebac47d08b28", "rental_uris": {"android": "https://dc.lft.to/lastmile_qr_scan", "ios": "https://dc.lft.to/lastmile_qr_scan"}, "name": "e4339d0dd5d1d8b37e01ebac47d08b28", "is_reserved": 0}, {"is_disabled": 0, "fusion_lon": 0.0, "fusion_lat": 0.0, "lat": 38.930288833333336, "type": "electric_scooter", "lon": -77.0345355, "bike_id": "a778781e45f8e3f08ff937f4c1f1f1cd", "rental_uris": {"android": "https://dc.lft.to/lastmile_qr_scan", "ios": "https://dc.lft.to/lastmile_qr_scan"}, "name": "a778781e45f8e3f08ff937f4c1f1f1cd", "is_reserved": 0}, {"is_disabled": 0, "fusion_lon": 0.0, "fusion_lat": 0.0, "lat": 38.928600833333334, "type": "electric_scooter", "lon": -77.03569783333333, "bike_id": "d47e6a9e102b07e30c3eb8867a452004", "rental_uris": {"android": "https://dc.lft.to/lastmile_qr_scan", "ios": "https://dc.lft.to/lastmile_qr_scan"}, "name": "d47e6a9e102b07e30c3eb8867a452004", "is_reserved": 0}, {"is_disabled": 0, "fusion_lon": 0.0, "fusion_lat": 0.0, "lat": 38.8450595, "type": "electric_bike", "lon": -76.9720995, "bike_id": "9686259a2c2ead24d4c24729e00abdeb", "rental_uris": {"android": "https://dc.lft.to/lastmile_qr_scan", "ios": "https://dc.lft.to/lastmile_qr_scan"}, "name": "9686259a2c2ead24d4c24729e00abdeb", "is_reserved": 0}, {"is_disabled": 0, "fusion_lon": 0.0, "fusion_lat": 0.0, "lat": 38.922925166666666, "type": "electric_scooter", "lon": -77.043061, "bike_id": "5ab71825c5e8dd5c472dd97d4acd4b8f", "rental_uris": {"android": "https://dc.lft.to/lastmile_qr_scan", "ios": "https://dc.lft.to/lastmile_qr_scan"}, "name": "5ab71825c5e8dd5c472dd97d4acd4b8f", "is_reserved": 0}, {"is_disabled": 0, "fusion_lon": 0.0, "fusion_lat": 0.0, "lat": 38.934989333333334, "type": "electric_scooter", "lon": -77.02417616666666, "bike_id": "328032c70ca4e492c87221b90cbd6854", "rental_uris": {"android": "https://dc.lft.to/lastmile_qr_scan", "ios": "https://dc.lft.to/lastmile_qr_scan"}, "name": "328032c70ca4e492c87221b90cbd6854", "is_reserved": 0}, {"is_disabled": 0, "fusion_lon": 0.0, "fusion_lat": 0.0, "lat": 38.90049716666667, "type": "electric_scooter", "lon": -77.04005116666667, "bike_id": "1bb4a9c87cf1b5ad559555f098614f37", "rental_uris": {"android": "https://dc.lft.to/lastmile_qr_scan", "ios": "https://dc.lft.to/lastmile_qr_scan"}, "name": "1bb4a9c87cf1b5ad559555f098614f37", "is_reserved": 0}, {"is_disabled": 0, "fusion_lon": 0.0, "fusion_lat": 0.0, "lat": 38.89853, "type": "electric_bike", "lon": -76.93187033333334, "bike_id": "171c6b2a565cccd753d74576f8d0c3df", "rental_uris": {"android": "https://dc.lft.to/lastmile_qr_scan", "ios": "https://dc.lft.to/lastmile_qr_scan"}, "name": "171c6b2a565cccd753d74576f8d0c3df", "is_reserved": 0}, {"is_disabled": 0, "fusion_lon": 0.0, "fusion_lat": 0.0, "lat": 38.916987666666664, "type": "electric_scooter", "lon": -77.00806783333333, "bike_id": "eb2aaa1a26eab8021ca1e329e1c6f0d4", "rental_uris": {"android": "https://dc.lft.to/lastmile_qr_scan", "ios": "https://dc.lft.to/lastmile_qr_scan"}, "name": "eb2aaa1a26eab8021ca1e329e1c6f0d4", "is_reserved": 0}, {"is_disabled": 0, "fusion_lon": 0.0, "fusion_lat": 0.0, "lat": 38.908658833333334, "type": "electric_scooter", "lon": -77.026765, "bike_id": "adf9703ae03674f35b9165a3ededcb4b", "rental_uris": {"android": "https://dc.lft.to/lastmile_qr_scan", "ios": "https://dc.lft.to/lastmile_qr_scan"}, "name": "adf9703ae03674f35b9165a3ededcb4b", "is_reserved": 0}, {"is_disabled": 0, "fusion_lon": 0.0, "fusion_lat": 0.0, "lat": 38.898683, "type": "electric_scooter", "lon": -77.02294383333333, "bike_id": "bcf7580b65ec41f6a759132fd831d7d0", "rental_uris": {"android": "https://dc.lft.to/lastmile_qr_scan", "ios": "https://dc.lft.to/lastmile_qr_scan"}, "name": "bcf7580b65ec41f6a759132fd831d7d0", "is_reserved": 0}, {"is_disabled": 0, "fusion_lon": 0.0, "fusion_lat": 0.0, "lat": 38.918559, "type": "electric_bike", "lon": -76.96083733333333, "bike_id": "69b3554187981a622fe9f4956a1f473d", "rental_uris": {"android": "https://dc.lft.to/lastmile_qr_scan", "ios": "https://dc.lft.to/lastmile_qr_scan"}, "name": "69b3554187981a622fe9f4956a1f473d", "is_reserved": 0}, {"is_disabled": 0, "fusion_lon": 0.0, "fusion_lat": 0.0, "lat": 38.914127666666666, "type": "electric_scooter", "lon": -77.02562483333334, "bike_id": "851ed81f3614557787d46d09630e575e", "rental_uris": {"android": "https://dc.lft.to/lastmile_qr_scan", "ios": "https://dc.lft.to/lastmile_qr_scan"}, "name": "851ed81f3614557787d46d09630e575e", "is_reserved": 0}, {"is_disabled": 0, "fusion_lon": 0.0, "fusion_lat": 0.0, "lat": 38.90549383333333, "type": "electric_scooter", "lon": -77.032522, "bike_id": "e4c1e30727ddb0b52e3a7c154ccb60c3", "rental_uris": {"android": "https://dc.lft.to/lastmile_qr_scan", "ios": "https://dc.lft.to/lastmile_qr_scan"}, "name": "e4c1e30727ddb0b52e3a7c154ccb60c3", "is_reserved": 0}, {"is_disabled": 0, "fusion_lon": 0.0, "fusion_lat": 0.0, "lat": 38.904961, "type": "electric_scooter", "lon": -77.02590816666667, "bike_id": "f04f09a4ef1814d8317198287dee679d", "rental_uris": {"android": "https://dc.lft.to/lastmile_qr_scan", "ios": "https://dc.lft.to/lastmile_qr_scan"}, "name": "f04f09a4ef1814d8317198287dee679d", "is_reserved": 0}, {"is_disabled": 0, "fusion_lon": 0.0, "fusion_lat": 0.0, "lat": 38.88501183333333, "type": "electric_scooter", "lon": -76.9965025, "bike_id": "d30a7da021dc1292c8d947426b552760", "rental_uris": {"android": "https://dc.lft.to/lastmile_qr_scan", "ios": "https://dc.lft.to/lastmile_qr_scan"}, "name": "d30a7da021dc1292c8d947426b552760", "is_reserved": 0}, {"is_disabled": 0, "fusion_lon": 0.0, "fusion_lat": 0.0, "lat": 38.86842766666667, "type": "electric_bike", "lon": -77.097262, "bike_id": "9d09b35912719d87739b11e1dd53c02b", "rental_uris": {"android": "https://dc.lft.to/lastmile_qr_scan", "ios": "https://dc.lft.to/lastmile_qr_scan"}, "name": "9d09b35912719d87739b11e1dd53c02b", "is_reserved": 0}, {"is_disabled": 0, "fusion_lon": 0.0, "fusion_lat": 0.0, "lat": 38.9155755, "type": "electric_scooter", "lon": -77.020449, "bike_id": "7e20f1a33f4964d6c587fb9cae142f9a", "rental_uris": {"android": "https://dc.lft.to/lastmile_qr_scan", "ios": "https://dc.lft.to/lastmile_qr_scan"}, "name": "7e20f1a33f4964d6c587fb9cae142f9a", "is_reserved": 0}, {"is_disabled": 0, "fusion_lon": 0.0, "fusion_lat": 0.0, "lat": 38.91179966666667, "type": "electric_scooter", "lon": -77.00446516666666, "bike_id": "80e0fc591bac352800478dace954291c", "rental_uris": {"android": "https://dc.lft.to/lastmile_qr_scan", "ios": "https://dc.lft.to/lastmile_qr_scan"}, "name": "80e0fc591bac352800478dace954291c", "is_reserved": 0}, {"is_disabled": 0, "fusion_lon": 0.0, "fusion_lat": 0.0, "lat": 38.90785533333333, "type": "electric_scooter", "lon": -77.00968516666667, "bike_id": "08af2d88817fdbf1fab32523a61fc24a", "rental_uris": {"android": "https://dc.lft.to/lastmile_qr_scan", "ios": "https://dc.lft.to/lastmile_qr_scan"}, "name": "08af2d88817fdbf1fab32523a61fc24a", "is_reserved": 0}, {"is_disabled": 0, "fusion_lon": 0.0, "fusion_lat": 0.0, "lat": 38.904157833333336, "type": "electric_scooter", "lon": -77.01799783333334, "bike_id": "a1be1a0096579b610770f7828c679cf4", "rental_uris": {"android": "https://dc.lft.to/lastmile_qr_scan", "ios": "https://dc.lft.to/lastmile_qr_scan"}, "name": "a1be1a0096579b610770f7828c679cf4", "is_reserved": 0}, {"is_disabled": 0, "fusion_lon": 0.0, "fusion_lat": 0.0, "lat": 38.927142833333335, "type": "electric_scooter", "lon": -77.04049183333333, "bike_id": "79266b651a0d78ab6cb40ad07f341b4a", "rental_uris": {"android": "https://dc.lft.to/lastmile_qr_scan", "ios": "https://dc.lft.to/lastmile_qr_scan"}, "name": "79266b651a0d78ab6cb40ad07f341b4a", "is_reserved": 0}, {"is_disabled": 0, "fusion_lon": 0.0, "fusion_lat": 0.0, "lat": 38.91548566666667, "type": "electric_scooter", "lon": -77.04156633333334, "bike_id": "8f07f97ab6e57c038cc2f5bfc340a444", "rental_uris": {"android": "https://dc.lft.to/lastmile_qr_scan", "ios": "https://dc.lft.to/lastmile_qr_scan"}, "name": "8f07f97ab6e57c038cc2f5bfc340a444", "is_reserved": 0}, {"is_disabled": 0, "fusion_lon": 0.0, "fusion_lat": 0.0, "lat": 38.9299075, "type": "electric_scooter", "lon": -77.01977283333333, "bike_id": "1b34494401650f6964cb862a300e2f84", "rental_uris": {"android": "https://dc.lft.to/lastmile_qr_scan", "ios": "https://dc.lft.to/lastmile_qr_scan"}, "name": "1b34494401650f6964cb862a300e2f84", "is_reserved": 0}, {"is_disabled": 0, "fusion_lon": 0.0, "fusion_lat": 0.0, "lat": 38.841000333333334, "type": "electric_bike", "lon": -77.08939366666667, "bike_id": "5a376eafcb47f8fc16062560b02b5508", "rental_uris": {"android": "https://dc.lft.to/lastmile_qr_scan", "ios": "https://dc.lft.to/lastmile_qr_scan"}, "name": "5a376eafcb47f8fc16062560b02b5508", "is_reserved": 0}, {"is_disabled": 0, "fusion_lon": 0.0, "fusion_lat": 0.0, "lat": 38.910178, "type": "electric_scooter", "lon": -77.04400816666667, "bike_id": "a324c2859fa64986bf9bbd2f3c604596", "rental_uris": {"android": "https://dc.lft.to/lastmile_qr_scan", "ios": "https://dc.lft.to/lastmile_qr_scan"}, "name": "a324c2859fa64986bf9bbd2f3c604596", "is_reserved": 0}, {"is_disabled": 0, "fusion_lon": 0.0, "fusion_lat": 0.0, "lat": 38.896829333333336, "type": "electric_bike", "lon": -76.94059983333334, "bike_id": "31f0b56a2b3476ef7d30a819160b5f65", "rental_uris": {"android": "https://dc.lft.to/lastmile_qr_scan", "ios": "https://dc.lft.to/lastmile_qr_scan"}, "name": "31f0b56a2b3476ef7d30a819160b5f65", "is_reserved": 0}, {"is_disabled": 0, "fusion_lon": 0.0, "fusion_lat": 0.0, "lat": 38.90748933333333, "type": "electric_scooter", "lon": -77.041575, "bike_id": "0186c201be273b245f067cf2c273f3d8", "rental_uris": {"android": "https://dc.lft.to/lastmile_qr_scan", "ios": "https://dc.lft.to/lastmile_qr_scan"}, "name": "0186c201be273b245f067cf2c273f3d8", "is_reserved": 0}, {"is_disabled": 0, "fusion_lon": 0.0, "fusion_lat": 0.0, "lat": 38.9170695, "type": "electric_scooter", "lon": -77.05125183333334, "bike_id": "a15da4e2db824f169bc0917e5c9af9c8", "rental_uris": {"android": "https://dc.lft.to/lastmile_qr_scan", "ios": "https://dc.lft.to/lastmile_qr_scan"}, "name": "a15da4e2db824f169bc0917e5c9af9c8", "is_reserved": 0}, {"is_disabled": 0, "fusion_lon": 0.0, "fusion_lat": 0.0, "lat": 38.909508833333334, "type": "electric_scooter", "lon": -77.0471865, "bike_id": "138cc403f505071421f5ea06ed2348e2", "rental_uris": {"android": "https://dc.lft.to/lastmile_qr_scan", "ios": "https://dc.lft.to/lastmile_qr_scan"}, "name": "138cc403f505071421f5ea06ed2348e2", "is_reserved": 0}, {"is_disabled": 0, "fusion_lon": 0.0, "fusion_lat": 0.0, "lat": 38.936703, "type": "electric_bike", "lon": -76.95206966666667, "bike_id": "4f0ef6aa308d56ec9bba747cefdb94d8", "rental_uris": {"android": "https://dc.lft.to/lastmile_qr_scan", "ios": "https://dc.lft.to/lastmile_qr_scan"}, "name": "4f0ef6aa308d56ec9bba747cefdb94d8", "is_reserved": 0}, {"is_disabled": 0, "fusion_lon": 0.0, "fusion_lat": 0.0, "lat": 38.93478966666667, "type": "electric_scooter", "lon": -77.0726545, "bike_id": "f19c8aa867ff53ef655ac5bc575d2e7d", "rental_uris": {"android": "https://dc.lft.to/lastmile_qr_scan", "ios": "https://dc.lft.to/lastmile_qr_scan"}, "name": "f19c8aa867ff53ef655ac5bc575d2e7d", "is_reserved": 0}, {"is_disabled": 0, "fusion_lon": 0.0, "fusion_lat": 0.0, "lat": 38.88577683333333, "type": "electric_scooter", "lon": -76.91910266666666, "bike_id": "8df32ae23bcc65cce68ecb40104af61e", "rental_uris": {"android": "https://dc.lft.to/lastmile_qr_scan", "ios": "https://dc.lft.to/lastmile_qr_scan"}, "name": "8df32ae23bcc65cce68ecb40104af61e", "is_reserved": 0}, {"is_disabled": 0, "fusion_lon": 0.0, "fusion_lat": 0.0, "lat": 38.915453666666664, "type": "electric_scooter", "lon": -77.03852, "bike_id": "9b1bd8f7c658e2ce895c994bbfe431de", "rental_uris": {"android": "https://dc.lft.to/lastmile_qr_scan", "ios": "https://dc.lft.to/lastmile_qr_scan"}, "name": "9b1bd8f7c658e2ce895c994bbfe431de", "is_reserved": 0}, {"is_disabled": 0, "fusion_lon": 0.0, "fusion_lat": 0.0, "lat": 38.91037516666667, "type": "electric_scooter", "lon": -77.04265733333334, "bike_id": "fb98f8244fa4aa7f619fc153b94dfe3c", "rental_uris": {"android": "https://dc.lft.to/lastmile_qr_scan", "ios": "https://dc.lft.to/lastmile_qr_scan"}, "name": "fb98f8244fa4aa7f619fc153b94dfe3c", "is_reserved": 0}, {"is_disabled": 0, "fusion_lon": 0.0, "fusion_lat": 0.0, "lat": 39.03882183333333, "type": "electric_bike", "lon": -77.10909283333334, "bike_id": "f4ce4a931f8309718164551aede0de73", "rental_uris": {"android": "https://dc.lft.to/lastmile_qr_scan", "ios": "https://dc.lft.to/lastmile_qr_scan"}, "name": "f4ce4a931f8309718164551aede0de73", "is_reserved": 0}, {"is_disabled": 0, "fusion_lon": 0.0, "fusion_lat": 0.0, "lat": 38.99263466666667, "type": "electric_scooter", "lon": -77.03611883333333, "bike_id": "75d8bdcd114c3f9df8e4f24ab4fb0f7f", "rental_uris": {"android": "https://dc.lft.to/lastmile_qr_scan", "ios": "https://dc.lft.to/lastmile_qr_scan"}, "name": "75d8bdcd114c3f9df8e4f24ab4fb0f7f", "is_reserved": 0}, {"is_disabled": 0, "fusion_lon": 0.0, "fusion_lat": 0.0, "lat": 38.922611333333336, "type": "electric_scooter", "lon": -77.03682016666667, "bike_id": "d0c1517066f93f43fb5a66b0041f4864", "rental_uris": {"android": "https://dc.lft.to/lastmile_qr_scan", "ios": "https://dc.lft.to/lastmile_qr_scan"}, "name": "d0c1517066f93f43fb5a66b0041f4864", "is_reserved": 0}, {"is_disabled": 0, "fusion_lon": 0.0, "fusion_lat": 0.0, "lat": 38.95226683333333, "type": "electric_scooter", "lon": -77.02758233333333, "bike_id": "8ec598bbd272c451f510cc15defb2511", "rental_uris": {"android": "https://dc.lft.to/lastmile_qr_scan", "ios": "https://dc.lft.to/lastmile_qr_scan"}, "name": "8ec598bbd272c451f510cc15defb2511", "is_reserved": 0}, {"is_disabled": 0, "fusion_lon": 0.0, "fusion_lat": 0.0, "lat": 38.922295166666665, "type": "electric_scooter", "lon": -77.02335066666667, "bike_id": "59b32b80be7e105aa9cc17699a9480cc", "rental_uris": {"android": "https://dc.lft.to/lastmile_qr_scan", "ios": "https://dc.lft.to/lastmile_qr_scan"}, "name": "59b32b80be7e105aa9cc17699a9480cc", "is_reserved": 0}, {"is_disabled": 0, "fusion_lon": 0.0, "fusion_lat": 0.0, "lat": 38.9143375, "type": "electric_scooter", "lon": -77.02817883333333, "bike_id": "d562a7c763e1f07e66f9f3ffc36decb6", "rental_uris": {"android": "https://dc.lft.to/lastmile_qr_scan", "ios": "https://dc.lft.to/lastmile_qr_scan"}, "name": "d562a7c763e1f07e66f9f3ffc36decb6", "is_reserved": 0}, {"is_disabled": 0, "fusion_lon": 0.0, "fusion_lat": 0.0, "lat": 38.922587166666666, "type": "electric_scooter", "lon": -77.0713045, "bike_id": "bce8c5f8c8baf026d5b7c5a23713a6c9", "rental_uris": {"android": "https://dc.lft.to/lastmile_qr_scan", "ios": "https://dc.lft.to/lastmile_qr_scan"}, "name": "bce8c5f8c8baf026d5b7c5a23713a6c9", "is_reserved": 0}, {"is_disabled": 0, "fusion_lon": 0.0, "fusion_lat": 0.0, "lat": 38.91326516666667, "type": "electric_scooter", "lon": -77.01503933333333, "bike_id": "deb7e6ef1c01b7acbbdb522bfb985fa2", "rental_uris": {"android": "https://dc.lft.to/lastmile_qr_scan", "ios": "https://dc.lft.to/lastmile_qr_scan"}, "name": "deb7e6ef1c01b7acbbdb522bfb985fa2", "is_reserved": 0}, {"is_disabled": 0, "fusion_lon": 0.0, "fusion_lat": 0.0, "lat": 38.91478633333333, "type": "electric_scooter", "lon": -77.04285266666666, "bike_id": "d101cefe2943cb353227fb17fc6ff7c0", "rental_uris": {"android": "https://dc.lft.to/lastmile_qr_scan", "ios": "https://dc.lft.to/lastmile_qr_scan"}, "name": "d101cefe2943cb353227fb17fc6ff7c0", "is_reserved": 0}, {"is_disabled": 0, "fusion_lon": 0.0, "fusion_lat": 0.0, "lat": 38.90775283333333, "type": "electric_scooter", "lon": -76.94127683333333, "bike_id": "1afd9044813bd58fee0a6ad96bef2295", "rental_uris": {"android": "https://dc.lft.to/lastmile_qr_scan", "ios": "https://dc.lft.to/lastmile_qr_scan"}, "name": "1afd9044813bd58fee0a6ad96bef2295", "is_reserved": 0}, {"is_disabled": 0, "fusion_lon": 0.0, "fusion_lat": 0.0, "lat": 38.919623, "type": "electric_scooter", "lon": -77.00053366666667, "bike_id": "ed4e56f8dbfadb62471a3add512e3020", "rental_uris": {"android": "https://dc.lft.to/lastmile_qr_scan", "ios": "https://dc.lft.to/lastmile_qr_scan"}, "name": "ed4e56f8dbfadb62471a3add512e3020", "is_reserved": 0}, {"is_disabled": 0, "fusion_lon": 0.0, "fusion_lat": 0.0, "lat": 38.90862883333333, "type": "electric_scooter", "lon": -77.063916, "bike_id": "06cab57748d72b64c8c660b9fd1dc589", "rental_uris": {"android": "https://dc.lft.to/lastmile_qr_scan", "ios": "https://dc.lft.to/lastmile_qr_scan"}, "name": "06cab57748d72b64c8c660b9fd1dc589", "is_reserved": 0}, {"is_disabled": 0, "fusion_lon": 0.0, "fusion_lat": 0.0, "lat": 38.917176833333336, "type": "electric_scooter", "lon": -77.02606283333333, "bike_id": "d246418bafb7231fd339cb37536efaac", "rental_uris": {"android": "https://dc.lft.to/lastmile_qr_scan", "ios": "https://dc.lft.to/lastmile_qr_scan"}, "name": "d246418bafb7231fd339cb37536efaac", "is_reserved": 0}, {"is_disabled": 0, "fusion_lon": 0.0, "fusion_lat": 0.0, "lat": 38.910364666666666, "type": "electric_scooter", "lon": -77.04659016666666, "bike_id": "bc66c5362dd609181589fd95c95d152d", "rental_uris": {"android": "https://dc.lft.to/lastmile_qr_scan", "ios": "https://dc.lft.to/lastmile_qr_scan"}, "name": "bc66c5362dd609181589fd95c95d152d", "is_reserved": 0}, {"is_disabled": 0, "fusion_lon": 0.0, "fusion_lat": 0.0, "lat": 38.883765, "type": "electric_scooter", "lon": -76.92372533333334, "bike_id": "f26ecfc640b5e6d46c2de681f959c7aa", "rental_uris": {"android": "https://dc.lft.to/lastmile_qr_scan", "ios": "https://dc.lft.to/lastmile_qr_scan"}, "name": "f26ecfc640b5e6d46c2de681f959c7aa", "is_reserved": 0}, {"is_disabled": 0, "fusion_lon": 0.0, "fusion_lat": 0.0, "lat": 38.93085633333333, "type": "electric_scooter", "lon": -77.03434133333333, "bike_id": "55863571b7a81518496442e68fae7a64", "rental_uris": {"android": "https://dc.lft.to/lastmile_qr_scan", "ios": "https://dc.lft.to/lastmile_qr_scan"}, "name": "55863571b7a81518496442e68fae7a64", "is_reserved": 0}, {"is_disabled": 0, "fusion_lon": 0.0, "fusion_lat": 0.0, "lat": 38.9163065, "type": "electric_scooter", "lon": -77.0383805, "bike_id": "365de0b6b88c945b074ecc67b2a7816b", "rental_uris": {"android": "https://dc.lft.to/lastmile_qr_scan", "ios": "https://dc.lft.to/lastmile_qr_scan"}, "name": "365de0b6b88c945b074ecc67b2a7816b", "is_reserved": 0}, {"is_disabled": 0, "fusion_lon": 0.0, "fusion_lat": 0.0, "lat": 38.939794, "type": "electric_scooter", "lon": -77.0302005, "bike_id": "e117f0dc96a2f36ec4d3372adb548c29", "rental_uris": {"android": "https://dc.lft.to/lastmile_qr_scan", "ios": "https://dc.lft.to/lastmile_qr_scan"}, "name": "e117f0dc96a2f36ec4d3372adb548c29", "is_reserved": 0}, {"is_disabled": 0, "fusion_lon": 0.0, "fusion_lat": 0.0, "lat": 38.911911, "type": "electric_scooter", "lon": -77.03707316666667, "bike_id": "bffd9465b3a834c8468e0b8751890c1b", "rental_uris": {"android": "https://dc.lft.to/lastmile_qr_scan", "ios": "https://dc.lft.to/lastmile_qr_scan"}, "name": "bffd9465b3a834c8468e0b8751890c1b", "is_reserved": 0}, {"is_disabled": 0, "fusion_lon": 0.0, "fusion_lat": 0.0, "lat": 38.924887166666664, "type": "electric_scooter", "lon": -77.027699, "bike_id": "8333cf400514584ebcf4de44ac331a93", "rental_uris": {"android": "https://dc.lft.to/lastmile_qr_scan", "ios": "https://dc.lft.to/lastmile_qr_scan"}, "name": "8333cf400514584ebcf4de44ac331a93", "is_reserved": 0}, {"is_disabled": 0, "fusion_lon": 0.0, "fusion_lat": 0.0, "lat": 38.8942135, "type": "electric_scooter", "lon": -77.02336683333333, "bike_id": "109936fe817aea3c3ddbc25db18a3a80", "rental_uris": {"android": "https://dc.lft.to/lastmile_qr_scan", "ios": "https://dc.lft.to/lastmile_qr_scan"}, "name": "109936fe817aea3c3ddbc25db18a3a80", "is_reserved": 0}, {"is_disabled": 0, "fusion_lon": 0.0, "fusion_lat": 0.0, "lat": 38.90986983333333, "type": "electric_scooter", "lon": -77.04264116666667, "bike_id": "347d7fc41dd7f23494b8b1799ccf4c21", "rental_uris": {"android": "https://dc.lft.to/lastmile_qr_scan", "ios": "https://dc.lft.to/lastmile_qr_scan"}, "name": "347d7fc41dd7f23494b8b1799ccf4c21", "is_reserved": 0}, {"is_disabled": 0, "fusion_lon": 0.0, "fusion_lat": 0.0, "lat": 38.913636, "type": "electric_scooter", "lon": -77.02589366666666, "bike_id": "b1d9450e4ecf4266c4fcf2ae53c83241", "rental_uris": {"android": "https://dc.lft.to/lastmile_qr_scan", "ios": "https://dc.lft.to/lastmile_qr_scan"}, "name": "b1d9450e4ecf4266c4fcf2ae53c83241", "is_reserved": 0}, {"is_disabled": 0, "fusion_lon": 0.0, "fusion_lat": 0.0, "lat": 38.893926, "type": "electric_scooter", "lon": -76.9499815, "bike_id": "5a147d9b4fc7b48713e0f571ea5e90db", "rental_uris": {"android": "https://dc.lft.to/lastmile_qr_scan", "ios": "https://dc.lft.to/lastmile_qr_scan"}, "name": "5a147d9b4fc7b48713e0f571ea5e90db", "is_reserved": 0}, {"is_disabled": 0, "fusion_lon": 0.0, "fusion_lat": 0.0, "lat": 38.916917166666664, "type": "electric_scooter", "lon": -77.03684066666666, "bike_id": "eb13beacfcf9952022db3b744f78d574", "rental_uris": {"android": "https://dc.lft.to/lastmile_qr_scan", "ios": "https://dc.lft.to/lastmile_qr_scan"}, "name": "eb13beacfcf9952022db3b744f78d574", "is_reserved": 0}, {"is_disabled": 0, "fusion_lon": 0.0, "fusion_lat": 0.0, "lat": 38.90505183333333, "type": "electric_scooter", "lon": -76.9962525, "bike_id": "a243c27122b00edfb6e82e1319ee5207", "rental_uris": {"android": "https://dc.lft.to/lastmile_qr_scan", "ios": "https://dc.lft.to/lastmile_qr_scan"}, "name": "a243c27122b00edfb6e82e1319ee5207", "is_reserved": 0}, {"is_disabled": 0, "fusion_lon": 0.0, "fusion_lat": 0.0, "lat": 38.89228583333333, "type": "electric_scooter", "lon": -77.022024, "bike_id": "38902f61e038920fa2f7db684e0c1c80", "rental_uris": {"android": "https://dc.lft.to/lastmile_qr_scan", "ios": "https://dc.lft.to/lastmile_qr_scan"}, "name": "38902f61e038920fa2f7db684e0c1c80", "is_reserved": 0}, {"is_disabled": 0, "fusion_lon": 0.0, "fusion_lat": 0.0, "lat": 38.898750166666666, "type": "electric_scooter", "lon": -76.9316115, "bike_id": "5199c0597da50451ac608442d6b1af42", "rental_uris": {"android": "https://dc.lft.to/lastmile_qr_scan", "ios": "https://dc.lft.to/lastmile_qr_scan"}, "name": "5199c0597da50451ac608442d6b1af42", "is_reserved": 0}, {"is_disabled": 0, "fusion_lon": 0.0, "fusion_lat": 0.0, "lat": 38.889751333333336, "type": "electric_scooter", "lon": -76.98741616666666, "bike_id": "8d91fe51265ab2b4b6174cea835bf301", "rental_uris": {"android": "https://dc.lft.to/lastmile_qr_scan", "ios": "https://dc.lft.to/lastmile_qr_scan"}, "name": "8d91fe51265ab2b4b6174cea835bf301", "is_reserved": 0}, {"is_disabled": 0, "fusion_lon": 0.0, "fusion_lat": 0.0, "lat": 38.90138116666667, "type": "electric_scooter", "lon": -77.0433405, "bike_id": "1146520061bdb74498d86398237a57ce", "rental_uris": {"android": "https://dc.lft.to/lastmile_qr_scan", "ios": "https://dc.lft.to/lastmile_qr_scan"}, "name": "1146520061bdb74498d86398237a57ce", "is_reserved": 0}, {"is_disabled": 0, "fusion_lon": 0.0, "fusion_lat": 0.0, "lat": 38.8658635, "type": "electric_scooter", "lon": -76.99025216666666, "bike_id": "7d43dd9bf3edce3cca26f1b804dead6d", "rental_uris": {"android": "https://dc.lft.to/lastmile_qr_scan", "ios": "https://dc.lft.to/lastmile_qr_scan"}, "name": "7d43dd9bf3edce3cca26f1b804dead6d", "is_reserved": 0}, {"is_disabled": 0, "fusion_lon": 0.0, "fusion_lat": 0.0, "lat": 38.91860116666667, "type": "electric_bike", "lon": -76.96175083333333, "bike_id": "1ea8ecf375eef43b981e04e90d03cdde", "rental_uris": {"android": "https://dc.lft.to/lastmile_qr_scan", "ios": "https://dc.lft.to/lastmile_qr_scan"}, "name": "1ea8ecf375eef43b981e04e90d03cdde", "is_reserved": 0}, {"is_disabled": 0, "fusion_lon": 0.0, "fusion_lat": 0.0, "lat": 38.8956705, "type": "electric_bike", "lon": -76.97617833333334, "bike_id": "8a82259c33609f64c9f4d97963ef638a", "rental_uris": {"android": "https://dc.lft.to/lastmile_qr_scan", "ios": "https://dc.lft.to/lastmile_qr_scan"}, "name": "8a82259c33609f64c9f4d97963ef638a", "is_reserved": 0}, {"is_disabled": 0, "fusion_lon": 0.0, "fusion_lat": 0.0, "lat": 38.9011925, "type": "electric_scooter", "lon": -77.01748083333334, "bike_id": "ef4bc1af9198272be5d7a68d52f494a4", "rental_uris": {"android": "https://dc.lft.to/lastmile_qr_scan", "ios": "https://dc.lft.to/lastmile_qr_scan"}, "name": "ef4bc1af9198272be5d7a68d52f494a4", "is_reserved": 0}, {"is_disabled": 0, "fusion_lon": 0.0, "fusion_lat": 0.0, "lat": 38.924649, "type": "electric_scooter", "lon": -77.039439, "bike_id": "7e2fac33c86a8752fe76fcf5db118174", "rental_uris": {"android": "https://dc.lft.to/lastmile_qr_scan", "ios": "https://dc.lft.to/lastmile_qr_scan"}, "name": "7e2fac33c86a8752fe76fcf5db118174", "is_reserved": 0}, {"is_disabled": 0, "fusion_lon": 0.0, "fusion_lat": 0.0, "lat": 38.92080983333334, "type": "electric_scooter", "lon": -77.01791883333334, "bike_id": "b56b4979890c0f6e7544d955dbdb8a9d", "rental_uris": {"android": "https://dc.lft.to/lastmile_qr_scan", "ios": "https://dc.lft.to/lastmile_qr_scan"}, "name": "b56b4979890c0f6e7544d955dbdb8a9d", "is_reserved": 0}, {"is_disabled": 0, "fusion_lon": 0.0, "fusion_lat": 0.0, "lat": 38.876777833333335, "type": "electric_scooter", "lon": -77.01759766666666, "bike_id": "e438de68b23a42df8ddc74d4b091012f", "rental_uris": {"android": "https://dc.lft.to/lastmile_qr_scan", "ios": "https://dc.lft.to/lastmile_qr_scan"}, "name": "e438de68b23a42df8ddc74d4b091012f", "is_reserved": 0}, {"is_disabled": 0, "fusion_lon": 0.0, "fusion_lat": 0.0, "lat": 38.91117033333333, "type": "electric_scooter", "lon": -77.04501433333333, "bike_id": "f31da2f925ed3bcc4f1812c289b8f8d1", "rental_uris": {"android": "https://dc.lft.to/lastmile_qr_scan", "ios": "https://dc.lft.to/lastmile_qr_scan"}, "name": "f31da2f925ed3bcc4f1812c289b8f8d1", "is_reserved": 0}, {"is_disabled": 0, "fusion_lon": 0.0, "fusion_lat": 0.0, "lat": 38.90353416666667, "type": "electric_scooter", "lon": -77.02208533333334, "bike_id": "d5a35061325a26087e0bf404f9d64ba6", "rental_uris": {"android": "https://dc.lft.to/lastmile_qr_scan", "ios": "https://dc.lft.to/lastmile_qr_scan"}, "name": "d5a35061325a26087e0bf404f9d64ba6", "is_reserved": 0}, {"is_disabled": 0, "fusion_lon": 0.0, "fusion_lat": 0.0, "lat": 38.8636375, "type": "electric_scooter", "lon": -76.99071883333333, "bike_id": "e87c8d062f71b85d7bbfcdef1bce9f22", "rental_uris": {"android": "https://dc.lft.to/lastmile_qr_scan", "ios": "https://dc.lft.to/lastmile_qr_scan"}, "name": "e87c8d062f71b85d7bbfcdef1bce9f22", "is_reserved": 0}, {"is_disabled": 0, "fusion_lon": 0.0, "fusion_lat": 0.0, "lat": 38.89850716666667, "type": "electric_scooter", "lon": -77.02391983333334, "bike_id": "eb22dc3268187e2e5a0b21f868fe68bb", "rental_uris": {"android": "https://dc.lft.to/lastmile_qr_scan", "ios": "https://dc.lft.to/lastmile_qr_scan"}, "name": "eb22dc3268187e2e5a0b21f868fe68bb", "is_reserved": 0}, {"is_disabled": 0, "fusion_lon": 0.0, "fusion_lat": 0.0, "lat": 38.91679766666667, "type": "electric_scooter", "lon": -77.02974066666667, "bike_id": "6afb20ffe62581f0ef4727e6d8ab8cb4", "rental_uris": {"android": "https://dc.lft.to/lastmile_qr_scan", "ios": "https://dc.lft.to/lastmile_qr_scan"}, "name": "6afb20ffe62581f0ef4727e6d8ab8cb4", "is_reserved": 0}, {"is_disabled": 0, "fusion_lon": 0.0, "fusion_lat": 0.0, "lat": 38.915569833333336, "type": "electric_scooter", "lon": -77.02048616666667, "bike_id": "bdf2841f555be35a8dc273ad652f6fee", "rental_uris": {"android": "https://dc.lft.to/lastmile_qr_scan", "ios": "https://dc.lft.to/lastmile_qr_scan"}, "name": "bdf2841f555be35a8dc273ad652f6fee", "is_reserved": 0}, {"is_disabled": 0, "fusion_lon": 0.0, "fusion_lat": 0.0, "lat": 38.90534733333333, "type": "electric_scooter", "lon": -77.06158416666666, "bike_id": "0bc39f9a3484612889d368e63b5c68bd", "rental_uris": {"android": "https://dc.lft.to/lastmile_qr_scan", "ios": "https://dc.lft.to/lastmile_qr_scan"}, "name": "0bc39f9a3484612889d368e63b5c68bd", "is_reserved": 0}, {"is_disabled": 0, "fusion_lon": 0.0, "fusion_lat": 0.0, "lat": 38.905972166666665, "type": "electric_scooter", "lon": -77.04041933333333, "bike_id": "fbcec039affd9dc23586d3e87cb9a986", "rental_uris": {"android": "https://dc.lft.to/lastmile_qr_scan", "ios": "https://dc.lft.to/lastmile_qr_scan"}, "name": "fbcec039affd9dc23586d3e87cb9a986", "is_reserved": 0}, {"is_disabled": 0, "fusion_lon": 0.0, "fusion_lat": 0.0, "lat": 38.848898166666665, "type": "electric_scooter", "lon": -77.0051925, "bike_id": "2ac8a36db400de681555a9eb8f4f95f8", "rental_uris": {"android": "https://dc.lft.to/lastmile_qr_scan", "ios": "https://dc.lft.to/lastmile_qr_scan"}, "name": "2ac8a36db400de681555a9eb8f4f95f8", "is_reserved": 0}, {"is_disabled": 0, "fusion_lon": 0.0, "fusion_lat": 0.0, "lat": 38.9111255, "type": "electric_scooter", "lon": -77.04504333333334, "bike_id": "7cd8f83cbd40a525d7ac3d73539bf391", "rental_uris": {"android": "https://dc.lft.to/lastmile_qr_scan", "ios": "https://dc.lft.to/lastmile_qr_scan"}, "name": "7cd8f83cbd40a525d7ac3d73539bf391", "is_reserved": 0}, {"is_disabled": 0, "fusion_lon": 0.0, "fusion_lat": 0.0, "lat": 38.94038833333333, "type": "electric_scooter", "lon": -77.02903416666666, "bike_id": "cc9daff299c9c9da6cd2e9eef34ce003", "rental_uris": {"android": "https://dc.lft.to/lastmile_qr_scan", "ios": "https://dc.lft.to/lastmile_qr_scan"}, "name": "cc9daff299c9c9da6cd2e9eef34ce003", "is_reserved": 0}, {"is_disabled": 0, "fusion_lon": 0.0, "fusion_lat": 0.0, "lat": 38.887971, "type": "electric_bike", "lon": -76.92993983333334, "bike_id": "bb6d46cdf3a2a9d62486c399196832e5", "rental_uris": {"android": "https://dc.lft.to/lastmile_qr_scan", "ios": "https://dc.lft.to/lastmile_qr_scan"}, "name": "bb6d46cdf3a2a9d62486c399196832e5", "is_reserved": 0}, {"is_disabled": 0, "fusion_lon": 0.0, "fusion_lat": 0.0, "lat": 38.8958695, "type": "electric_scooter", "lon": -77.02150516666667, "bike_id": "8b725238fe314fae87ecfe33b4f5cf45", "rental_uris": {"android": "https://dc.lft.to/lastmile_qr_scan", "ios": "https://dc.lft.to/lastmile_qr_scan"}, "name": "8b725238fe314fae87ecfe33b4f5cf45", "is_reserved": 0}, {"is_disabled": 0, "fusion_lon": 0.0, "fusion_lat": 0.0, "lat": 38.82744483333333, "type": "electric_bike", "lon": -77.00849833333334, "bike_id": "04d3cb1ca7e277aefa55877f77f645af", "rental_uris": {"android": "https://dc.lft.to/lastmile_qr_scan", "ios": "https://dc.lft.to/lastmile_qr_scan"}, "name": "04d3cb1ca7e277aefa55877f77f645af", "is_reserved": 0}, {"is_disabled": 0, "fusion_lon": 0.0, "fusion_lat": 0.0, "lat": 38.9027755, "type": "electric_scooter", "lon": -77.021815, "bike_id": "be2857dbb4faf66979f1f6103a197523", "rental_uris": {"android": "https://dc.lft.to/lastmile_qr_scan", "ios": "https://dc.lft.to/lastmile_qr_scan"}, "name": "be2857dbb4faf66979f1f6103a197523", "is_reserved": 0}, {"is_disabled": 0, "fusion_lon": 0.0, "fusion_lat": 0.0, "lat": 38.91038016666667, "type": "electric_scooter", "lon": -77.04804666666666, "bike_id": "215e90b80fcc1434e0ebfc20e0fafb6d", "rental_uris": {"android": "https://dc.lft.to/lastmile_qr_scan", "ios": "https://dc.lft.to/lastmile_qr_scan"}, "name": "215e90b80fcc1434e0ebfc20e0fafb6d", "is_reserved": 0}, {"is_disabled": 0, "fusion_lon": 0.0, "fusion_lat": 0.0, "lat": 38.898323500000004, "type": "electric_scooter", "lon": -76.98048066666667, "bike_id": "7d22db9ff9abec8e01e24098af907af3", "rental_uris": {"android": "https://dc.lft.to/lastmile_qr_scan", "ios": "https://dc.lft.to/lastmile_qr_scan"}, "name": "7d22db9ff9abec8e01e24098af907af3", "is_reserved": 0}, {"is_disabled": 0, "fusion_lon": 0.0, "fusion_lat": 0.0, "lat": 38.940734, "type": "electric_bike", "lon": -77.05291566666666, "bike_id": "9e4fa5118d8d186342ea3dfdb1f1c3aa", "rental_uris": {"android": "https://dc.lft.to/lastmile_qr_scan", "ios": "https://dc.lft.to/lastmile_qr_scan"}, "name": "9e4fa5118d8d186342ea3dfdb1f1c3aa", "is_reserved": 0}, {"is_disabled": 0, "fusion_lon": 0.0, "fusion_lat": 0.0, "lat": 39.008712833333334, "type": "electric_bike", "lon": -77.07900883333333, "bike_id": "828d88cd7b8a198edf5081a2bce83aeb", "rental_uris": {"android": "https://dc.lft.to/lastmile_qr_scan", "ios": "https://dc.lft.to/lastmile_qr_scan"}, "name": "828d88cd7b8a198edf5081a2bce83aeb", "is_reserved": 0}, {"is_disabled": 0, "fusion_lon": 0.0, "fusion_lat": 0.0, "lat": 38.924073, "type": "electric_scooter", "lon": -77.02539316666666, "bike_id": "36bd97d383dcc4c935f3cbc5a15da493", "rental_uris": {"android": "https://dc.lft.to/lastmile_qr_scan", "ios": "https://dc.lft.to/lastmile_qr_scan"}, "name": "36bd97d383dcc4c935f3cbc5a15da493", "is_reserved": 0}, {"is_disabled": 0, "fusion_lon": 0.0, "fusion_lat": 0.0, "lat": 38.89374516666667, "type": "electric_scooter", "lon": -76.9499855, "bike_id": "8807b6301e43bd46554f5a6686796f34", "rental_uris": {"android": "https://dc.lft.to/lastmile_qr_scan", "ios": "https://dc.lft.to/lastmile_qr_scan"}, "name": "8807b6301e43bd46554f5a6686796f34", "is_reserved": 0}, {"is_disabled": 0, "fusion_lon": 0.0, "fusion_lat": 0.0, "lat": 38.90063716666667, "type": "electric_scooter", "lon": -77.04841916666666, "bike_id": "8298a99bfd02fb340b10b462174ada56", "rental_uris": {"android": "https://dc.lft.to/lastmile_qr_scan", "ios": "https://dc.lft.to/lastmile_qr_scan"}, "name": "8298a99bfd02fb340b10b462174ada56", "is_reserved": 0}, {"is_disabled": 0, "fusion_lon": 0.0, "fusion_lat": 0.0, "lat": 38.941836333333335, "type": "electric_scooter", "lon": -77.02492116666667, "bike_id": "06c3a2bd59ef6aec5c3a82c6248ef7ab", "rental_uris": {"android": "https://dc.lft.to/lastmile_qr_scan", "ios": "https://dc.lft.to/lastmile_qr_scan"}, "name": "06c3a2bd59ef6aec5c3a82c6248ef7ab", "is_reserved": 0}, {"is_disabled": 0, "fusion_lon": 0.0, "fusion_lat": 0.0, "lat": 38.943221333333334, "type": "electric_scooter", "lon": -77.0857925, "bike_id": "0f43b4fff2de35da9119b2b41caa35cb", "rental_uris": {"android": "https://dc.lft.to/lastmile_qr_scan", "ios": "https://dc.lft.to/lastmile_qr_scan"}, "name": "0f43b4fff2de35da9119b2b41caa35cb", "is_reserved": 0}, {"is_disabled": 0, "fusion_lon": 0.0, "fusion_lat": 0.0, "lat": 38.872915, "type": "electric_scooter", "lon": -77.0098395, "bike_id": "e4cb2cf06c2f2800ebf65d04f3610155", "rental_uris": {"android": "https://dc.lft.to/lastmile_qr_scan", "ios": "https://dc.lft.to/lastmile_qr_scan"}, "name": "e4cb2cf06c2f2800ebf65d04f3610155", "is_reserved": 0}, {"is_disabled": 0, "fusion_lon": 0.0, "fusion_lat": 0.0, "lat": 38.892723333333336, "type": "electric_scooter", "lon": -76.93726316666667, "bike_id": "24eb1aa44e4a01b52bfdfe4f2ed16c52", "rental_uris": {"android": "https://dc.lft.to/lastmile_qr_scan", "ios": "https://dc.lft.to/lastmile_qr_scan"}, "name": "24eb1aa44e4a01b52bfdfe4f2ed16c52", "is_reserved": 0}, {"is_disabled": 0, "fusion_lon": 0.0, "fusion_lat": 0.0, "lat": 38.912481666666665, "type": "electric_scooter", "lon": -77.041596, "bike_id": "96de94d3d7bb4ab8b34943ec7a5c6484", "rental_uris": {"android": "https://dc.lft.to/lastmile_qr_scan", "ios": "https://dc.lft.to/lastmile_qr_scan"}, "name": "96de94d3d7bb4ab8b34943ec7a5c6484", "is_reserved": 0}, {"is_disabled": 0, "fusion_lon": 0.0, "fusion_lat": 0.0, "lat": 38.9100125, "type": "electric_scooter", "lon": -77.03743266666666, "bike_id": "a72180a9d853d9095ef546d33292659f", "rental_uris": {"android": "https://dc.lft.to/lastmile_qr_scan", "ios": "https://dc.lft.to/lastmile_qr_scan"}, "name": "a72180a9d853d9095ef546d33292659f", "is_reserved": 0}, {"is_disabled": 0, "fusion_lon": 0.0, "fusion_lat": 0.0, "lat": 38.930983833333336, "type": "electric_scooter", "lon": -77.03273216666666, "bike_id": "12ff22a872a2c796861bd847904205c2", "rental_uris": {"android": "https://dc.lft.to/lastmile_qr_scan", "ios": "https://dc.lft.to/lastmile_qr_scan"}, "name": "12ff22a872a2c796861bd847904205c2", "is_reserved": 0}, {"is_disabled": 0, "fusion_lon": 0.0, "fusion_lat": 0.0, "lat": 38.9146735, "type": "electric_scooter", "lon": -77.02178716666667, "bike_id": "8dfc4491b3e472aa2014ad11fec28845", "rental_uris": {"android": "https://dc.lft.to/lastmile_qr_scan", "ios": "https://dc.lft.to/lastmile_qr_scan"}, "name": "8dfc4491b3e472aa2014ad11fec28845", "is_reserved": 0}, {"is_disabled": 0, "fusion_lon": 0.0, "fusion_lat": 0.0, "lat": 38.918159333333335, "type": "electric_scooter", "lon": -77.02718583333333, "bike_id": "abf46bc27655dcd8592d402d0a2b286e", "rental_uris": {"android": "https://dc.lft.to/lastmile_qr_scan", "ios": "https://dc.lft.to/lastmile_qr_scan"}, "name": "abf46bc27655dcd8592d402d0a2b286e", "is_reserved": 0}, {"is_disabled": 0, "fusion_lon": 0.0, "fusion_lat": 0.0, "lat": 38.918415833333334, "type": "electric_scooter", "lon": -77.03439483333334, "bike_id": "cd7d92b19d156e84be505a67ec2e4800", "rental_uris": {"android": "https://dc.lft.to/lastmile_qr_scan", "ios": "https://dc.lft.to/lastmile_qr_scan"}, "name": "cd7d92b19d156e84be505a67ec2e4800", "is_reserved": 0}, {"is_disabled": 0, "fusion_lon": 0.0, "fusion_lat": 0.0, "lat": 38.902443833333336, "type": "electric_bike", "lon": -76.9701425, "bike_id": "3fa712280b3aaeb4be8e13417eee09cc", "rental_uris": {"android": "https://dc.lft.to/lastmile_qr_scan", "ios": "https://dc.lft.to/lastmile_qr_scan"}, "name": "3fa712280b3aaeb4be8e13417eee09cc", "is_reserved": 0}, {"is_disabled": 0, "fusion_lon": 0.0, "fusion_lat": 0.0, "lat": 38.924198833333335, "type": "electric_scooter", "lon": -77.05751966666666, "bike_id": "b0d93161a1c934756ab02aff2b3384d8", "rental_uris": {"android": "https://dc.lft.to/lastmile_qr_scan", "ios": "https://dc.lft.to/lastmile_qr_scan"}, "name": "b0d93161a1c934756ab02aff2b3384d8", "is_reserved": 0}, {"is_disabled": 0, "fusion_lon": 0.0, "fusion_lat": 0.0, "lat": 38.91304, "type": "electric_scooter", "lon": -77.0320225, "bike_id": "085f968e3f9de24f9592cb2df602ac78", "rental_uris": {"android": "https://dc.lft.to/lastmile_qr_scan", "ios": "https://dc.lft.to/lastmile_qr_scan"}, "name": "085f968e3f9de24f9592cb2df602ac78", "is_reserved": 0}, {"is_disabled": 0, "fusion_lon": 0.0, "fusion_lat": 0.0, "lat": 38.92261716666667, "type": "electric_scooter", "lon": -77.042155, "bike_id": "4122f5f4d743e13e0be803d84b9f46da", "rental_uris": {"android": "https://dc.lft.to/lastmile_qr_scan", "ios": "https://dc.lft.to/lastmile_qr_scan"}, "name": "4122f5f4d743e13e0be803d84b9f46da", "is_reserved": 0}, {"is_disabled": 0, "fusion_lon": 0.0, "fusion_lat": 0.0, "lat": 38.9142905, "type": "electric_scooter", "lon": -77.02941366666667, "bike_id": "e283d24ed63190b1c6c169e724e4adf4", "rental_uris": {"android": "https://dc.lft.to/lastmile_qr_scan", "ios": "https://dc.lft.to/lastmile_qr_scan"}, "name": "e283d24ed63190b1c6c169e724e4adf4", "is_reserved": 0}, {"is_disabled": 0, "fusion_lon": 0.0, "fusion_lat": 0.0, "lat": 38.90601933333333, "type": "electric_scooter", "lon": -77.00596933333334, "bike_id": "0b66b2ea090551f751da102d192d3856", "rental_uris": {"android": "https://dc.lft.to/lastmile_qr_scan", "ios": "https://dc.lft.to/lastmile_qr_scan"}, "name": "0b66b2ea090551f751da102d192d3856", "is_reserved": 0}, {"is_disabled": 0, "fusion_lon": 0.0, "fusion_lat": 0.0, "lat": 38.876194166666664, "type": "electric_scooter", "lon": -76.9653635, "bike_id": "6fe99d3305c38064639293859bb3c253", "rental_uris": {"android": "https://dc.lft.to/lastmile_qr_scan", "ios": "https://dc.lft.to/lastmile_qr_scan"}, "name": "6fe99d3305c38064639293859bb3c253", "is_reserved": 0}, {"is_disabled": 0, "fusion_lon": 0.0, "fusion_lat": 0.0, "lat": 38.91182833333333, "type": "electric_scooter", "lon": -77.0380895, "bike_id": "d52cee9b27a2556cb9dededd24ce404d", "rental_uris": {"android": "https://dc.lft.to/lastmile_qr_scan", "ios": "https://dc.lft.to/lastmile_qr_scan"}, "name": "d52cee9b27a2556cb9dededd24ce404d", "is_reserved": 0}, {"is_disabled": 0, "fusion_lon": 0.0, "fusion_lat": 0.0, "lat": 38.97051583333333, "type": "electric_bike", "lon": -77.03080416666667, "bike_id": "1278ddd0d488aaa1871640bdba238b41", "rental_uris": {"android": "https://dc.lft.to/lastmile_qr_scan", "ios": "https://dc.lft.to/lastmile_qr_scan"}, "name": "1278ddd0d488aaa1871640bdba238b41", "is_reserved": 0}, {"is_disabled": 0, "fusion_lon": 0.0, "fusion_lat": 0.0, "lat": 38.96021783333333, "type": "electric_bike", "lon": -77.04248066666666, "bike_id": "51481ece024eead608a1bfb141907299", "rental_uris": {"android": "https://dc.lft.to/lastmile_qr_scan", "ios": "https://dc.lft.to/lastmile_qr_scan"}, "name": "51481ece024eead608a1bfb141907299", "is_reserved": 0}, {"is_disabled": 0, "fusion_lon": 0.0, "fusion_lat": 0.0, "lat": 38.89675883333334, "type": "electric_scooter", "lon": -76.97619133333333, "bike_id": "222edb058718f37283566af600364c50", "rental_uris": {"android": "https://dc.lft.to/lastmile_qr_scan", "ios": "https://dc.lft.to/lastmile_qr_scan"}, "name": "222edb058718f37283566af600364c50", "is_reserved": 0}, {"is_disabled": 0, "fusion_lon": 0.0, "fusion_lat": 0.0, "lat": 38.93100233333333, "type": "electric_scooter", "lon": -77.0326635, "bike_id": "2e54164b524e8e4a9c5488e72378642f", "rental_uris": {"android": "https://dc.lft.to/lastmile_qr_scan", "ios": "https://dc.lft.to/lastmile_qr_scan"}, "name": "2e54164b524e8e4a9c5488e72378642f", "is_reserved": 0}, {"is_disabled": 0, "fusion_lon": 0.0, "fusion_lat": 0.0, "lat": 38.928218666666666, "type": "electric_scooter", "lon": -77.02147266666667, "bike_id": "ab0a8899f871109e7f0fa87c189b5045", "rental_uris": {"android": "https://dc.lft.to/lastmile_qr_scan", "ios": "https://dc.lft.to/lastmile_qr_scan"}, "name": "ab0a8899f871109e7f0fa87c189b5045", "is_reserved": 0}, {"is_disabled": 0, "fusion_lon": 0.0, "fusion_lat": 0.0, "lat": 38.90017233333333, "type": "electric_scooter", "lon": -77.05575733333333, "bike_id": "5bc88bb89e0bfe8f50e493ce69d8c8c3", "rental_uris": {"android": "https://dc.lft.to/lastmile_qr_scan", "ios": "https://dc.lft.to/lastmile_qr_scan"}, "name": "5bc88bb89e0bfe8f50e493ce69d8c8c3", "is_reserved": 0}, {"is_disabled": 0, "fusion_lon": 0.0, "fusion_lat": 0.0, "lat": 38.91823616666667, "type": "electric_scooter", "lon": -77.03439283333333, "bike_id": "076c4d0b0d87f830f13268b81ebf39f8", "rental_uris": {"android": "https://dc.lft.to/lastmile_qr_scan", "ios": "https://dc.lft.to/lastmile_qr_scan"}, "name": "076c4d0b0d87f830f13268b81ebf39f8", "is_reserved": 0}, {"is_disabled": 0, "fusion_lon": 0.0, "fusion_lat": 0.0, "lat": 38.90333233333333, "type": "electric_scooter", "lon": -76.98012333333334, "bike_id": "48282547440f38e4cbe3cc1f1d6f8467", "rental_uris": {"android": "https://dc.lft.to/lastmile_qr_scan", "ios": "https://dc.lft.to/lastmile_qr_scan"}, "name": "48282547440f38e4cbe3cc1f1d6f8467", "is_reserved": 0}, {"is_disabled": 0, "fusion_lon": 0.0, "fusion_lat": 0.0, "lat": 38.86525116666667, "type": "electric_scooter", "lon": -76.98967916666666, "bike_id": "f8572459ac3a972227eb3a19fa6b0d06", "rental_uris": {"android": "https://dc.lft.to/lastmile_qr_scan", "ios": "https://dc.lft.to/lastmile_qr_scan"}, "name": "f8572459ac3a972227eb3a19fa6b0d06", "is_reserved": 0}, {"is_disabled": 0, "fusion_lon": 0.0, "fusion_lat": 0.0, "lat": 38.962141333333335, "type": "electric_scooter", "lon": -77.02801316666667, "bike_id": "662d1f0ffa0a644b69653c680f2a1c14", "rental_uris": {"android": "https://dc.lft.to/lastmile_qr_scan", "ios": "https://dc.lft.to/lastmile_qr_scan"}, "name": "662d1f0ffa0a644b69653c680f2a1c14", "is_reserved": 0}, {"is_disabled": 0, "fusion_lon": 0.0, "fusion_lat": 0.0, "lat": 38.91254566666667, "type": "electric_scooter", "lon": -77.02234766666666, "bike_id": "5a5dba7feb49f61d7677ad22da50b8cd", "rental_uris": {"android": "https://dc.lft.to/lastmile_qr_scan", "ios": "https://dc.lft.to/lastmile_qr_scan"}, "name": "5a5dba7feb49f61d7677ad22da50b8cd", "is_reserved": 0}, {"is_disabled": 0, "fusion_lon": 0.0, "fusion_lat": 0.0, "lat": 38.846190666666665, "type": "electric_scooter", "lon": -76.9963075, "bike_id": "f4e6d824d521a35c7794d2b5b85c63da", "rental_uris": {"android": "https://dc.lft.to/lastmile_qr_scan", "ios": "https://dc.lft.to/lastmile_qr_scan"}, "name": "f4e6d824d521a35c7794d2b5b85c63da", "is_reserved": 0}, {"is_disabled": 0, "fusion_lon": 0.0, "fusion_lat": 0.0, "lat": 38.93660766666667, "type": "electric_scooter", "lon": -77.03266683333334, "bike_id": "846c0aa448c54d3d602be7a351285722", "rental_uris": {"android": "https://dc.lft.to/lastmile_qr_scan", "ios": "https://dc.lft.to/lastmile_qr_scan"}, "name": "846c0aa448c54d3d602be7a351285722", "is_reserved": 0}, {"is_disabled": 0, "fusion_lon": 0.0, "fusion_lat": 0.0, "lat": 38.8586845, "type": "electric_scooter", "lon": -76.99019466666667, "bike_id": "f6673ec901d8424bf356d077f2363f0a", "rental_uris": {"android": "https://dc.lft.to/lastmile_qr_scan", "ios": "https://dc.lft.to/lastmile_qr_scan"}, "name": "f6673ec901d8424bf356d077f2363f0a", "is_reserved": 0}, {"is_disabled": 0, "fusion_lon": 0.0, "fusion_lat": 0.0, "lat": 38.86342666666667, "type": "electric_scooter", "lon": -76.98256783333333, "bike_id": "78281e042c0df740e89daecb412d4964", "rental_uris": {"android": "https://dc.lft.to/lastmile_qr_scan", "ios": "https://dc.lft.to/lastmile_qr_scan"}, "name": "78281e042c0df740e89daecb412d4964", "is_reserved": 0}, {"is_disabled": 0, "fusion_lon": 0.0, "fusion_lat": 0.0, "lat": 38.904721333333335, "type": "electric_bike", "lon": -77.01895733333333, "bike_id": "a8d64c315d8093570ecf799a89b8b794", "rental_uris": {"android": "https://dc.lft.to/lastmile_qr_scan", "ios": "https://dc.lft.to/lastmile_qr_scan"}, "name": "a8d64c315d8093570ecf799a89b8b794", "is_reserved": 0}, {"is_disabled": 0, "fusion_lon": 0.0, "fusion_lat": 0.0, "lat": 38.916032666666666, "type": "electric_scooter", "lon": -77.02345283333334, "bike_id": "1a1801d4081ad7468e900d6a9684996b", "rental_uris": {"android": "https://dc.lft.to/lastmile_qr_scan", "ios": "https://dc.lft.to/lastmile_qr_scan"}, "name": "1a1801d4081ad7468e900d6a9684996b", "is_reserved": 0}, {"is_disabled": 0, "fusion_lon": 0.0, "fusion_lat": 0.0, "lat": 38.908974, "type": "electric_scooter", "lon": -76.99860366666667, "bike_id": "d857548926a77ca4b05e2a3d1a8a5a83", "rental_uris": {"android": "https://dc.lft.to/lastmile_qr_scan", "ios": "https://dc.lft.to/lastmile_qr_scan"}, "name": "d857548926a77ca4b05e2a3d1a8a5a83", "is_reserved": 0}, {"is_disabled": 0, "fusion_lon": 0.0, "fusion_lat": 0.0, "lat": 38.92754516666667, "type": "electric_scooter", "lon": -77.03348283333334, "bike_id": "635f4be1f3e1fc90da1a7af2b2ddb8d6", "rental_uris": {"android": "https://dc.lft.to/lastmile_qr_scan", "ios": "https://dc.lft.to/lastmile_qr_scan"}, "name": "635f4be1f3e1fc90da1a7af2b2ddb8d6", "is_reserved": 0}, {"is_disabled": 0, "fusion_lon": 0.0, "fusion_lat": 0.0, "lat": 38.91279766666667, "type": "electric_scooter", "lon": -77.03852883333333, "bike_id": "ff58928ea13bb59ac91361e504a25af1", "rental_uris": {"android": "https://dc.lft.to/lastmile_qr_scan", "ios": "https://dc.lft.to/lastmile_qr_scan"}, "name": "ff58928ea13bb59ac91361e504a25af1", "is_reserved": 0}, {"is_disabled": 0, "fusion_lon": 0.0, "fusion_lat": 0.0, "lat": 38.89227, "type": "electric_scooter", "lon": -77.02574716666666, "bike_id": "c81c04aa4f64b3ad2a043b98862e0007", "rental_uris": {"android": "https://dc.lft.to/lastmile_qr_scan", "ios": "https://dc.lft.to/lastmile_qr_scan"}, "name": "c81c04aa4f64b3ad2a043b98862e0007", "is_reserved": 0}, {"is_disabled": 0, "fusion_lon": 0.0, "fusion_lat": 0.0, "lat": 38.901679, "type": "electric_scooter", "lon": -77.0531995, "bike_id": "7ff5f5c16bd4fc9b3aed0fdec000164a", "rental_uris": {"android": "https://dc.lft.to/lastmile_qr_scan", "ios": "https://dc.lft.to/lastmile_qr_scan"}, "name": "7ff5f5c16bd4fc9b3aed0fdec000164a", "is_reserved": 0}, {"is_disabled": 0, "fusion_lon": 0.0, "fusion_lat": 0.0, "lat": 38.9257715, "type": "electric_scooter", "lon": -76.994927, "bike_id": "e54636702cff3e6d4250b4d4ff68dba2", "rental_uris": {"android": "https://dc.lft.to/lastmile_qr_scan", "ios": "https://dc.lft.to/lastmile_qr_scan"}, "name": "e54636702cff3e6d4250b4d4ff68dba2", "is_reserved": 0}, {"is_disabled": 0, "fusion_lon": 0.0, "fusion_lat": 0.0, "lat": 38.988254833333336, "type": "electric_bike", "lon": -76.987594, "bike_id": "f524d7dbcf575c33e263bce4e4c288e8", "rental_uris": {"android": "https://dc.lft.to/lastmile_qr_scan", "ios": "https://dc.lft.to/lastmile_qr_scan"}, "name": "f524d7dbcf575c33e263bce4e4c288e8", "is_reserved": 0}, {"is_disabled": 0, "fusion_lon": 0.0, "fusion_lat": 0.0, "lat": 38.941998166666664, "type": "electric_scooter", "lon": -77.02578866666667, "bike_id": "72b883c8b9c13bba3487e2789799add9", "rental_uris": {"android": "https://dc.lft.to/lastmile_qr_scan", "ios": "https://dc.lft.to/lastmile_qr_scan"}, "name": "72b883c8b9c13bba3487e2789799add9", "is_reserved": 0}, {"is_disabled": 0, "fusion_lon": 0.0, "fusion_lat": 0.0, "lat": 38.89749066666667, "type": "electric_scooter", "lon": -77.0271015, "bike_id": "b0e241b23ec5b05ad7cc76caeb1971fb", "rental_uris": {"android": "https://dc.lft.to/lastmile_qr_scan", "ios": "https://dc.lft.to/lastmile_qr_scan"}, "name": "b0e241b23ec5b05ad7cc76caeb1971fb", "is_reserved": 0}, {"is_disabled": 0, "fusion_lon": 0.0, "fusion_lat": 0.0, "lat": 38.91027533333333, "type": "electric_scooter", "lon": -77.03831916666667, "bike_id": "7dff46ff0832ffb5a7c2b5188c562ac4", "rental_uris": {"android": "https://dc.lft.to/lastmile_qr_scan", "ios": "https://dc.lft.to/lastmile_qr_scan"}, "name": "7dff46ff0832ffb5a7c2b5188c562ac4", "is_reserved": 0}, {"is_disabled": 0, "fusion_lon": 0.0, "fusion_lat": 0.0, "lat": 38.88280733333333, "type": "electric_scooter", "lon": -76.98776066666667, "bike_id": "b329b8fe619c54b42de58e3d5b376f9e", "rental_uris": {"android": "https://dc.lft.to/lastmile_qr_scan", "ios": "https://dc.lft.to/lastmile_qr_scan"}, "name": "b329b8fe619c54b42de58e3d5b376f9e", "is_reserved": 0}, {"is_disabled": 0, "fusion_lon": 0.0, "fusion_lat": 0.0, "lat": 38.900782666666665, "type": "electric_scooter", "lon": -77.0185425, "bike_id": "a2e394475574ee94f32ab70ec0062f01", "rental_uris": {"android": "https://dc.lft.to/lastmile_qr_scan", "ios": "https://dc.lft.to/lastmile_qr_scan"}, "name": "a2e394475574ee94f32ab70ec0062f01", "is_reserved": 0}, {"is_disabled": 0, "fusion_lon": 0.0, "fusion_lat": 0.0, "lat": 38.912672666666666, "type": "electric_scooter", "lon": -77.02236166666667, "bike_id": "3aa1074962cd67b7e3e83b3a9e901907", "rental_uris": {"android": "https://dc.lft.to/lastmile_qr_scan", "ios": "https://dc.lft.to/lastmile_qr_scan"}, "name": "3aa1074962cd67b7e3e83b3a9e901907", "is_reserved": 0}, {"is_disabled": 0, "fusion_lon": 0.0, "fusion_lat": 0.0, "lat": 38.906322833333334, "type": "electric_scooter", "lon": -77.02465716666667, "bike_id": "7454b874bda82ec3ab4b9cdeab1ce6e7", "rental_uris": {"android": "https://dc.lft.to/lastmile_qr_scan", "ios": "https://dc.lft.to/lastmile_qr_scan"}, "name": "7454b874bda82ec3ab4b9cdeab1ce6e7", "is_reserved": 0}, {"is_disabled": 0, "fusion_lon": 0.0, "fusion_lat": 0.0, "lat": 38.94965933333334, "type": "electric_scooter", "lon": -77.0668555, "bike_id": "33b06cb45be2c6e92a7d92f10632283b", "rental_uris": {"android": "https://dc.lft.to/lastmile_qr_scan", "ios": "https://dc.lft.to/lastmile_qr_scan"}, "name": "33b06cb45be2c6e92a7d92f10632283b", "is_reserved": 0}, {"is_disabled": 0, "fusion_lon": 0.0, "fusion_lat": 0.0, "lat": 38.92250516666667, "type": "electric_scooter", "lon": -77.04137316666667, "bike_id": "b477cfd3d68203a8566cf65e67c4a45f", "rental_uris": {"android": "https://dc.lft.to/lastmile_qr_scan", "ios": "https://dc.lft.to/lastmile_qr_scan"}, "name": "b477cfd3d68203a8566cf65e67c4a45f", "is_reserved": 0}, {"is_disabled": 0, "fusion_lon": 0.0, "fusion_lat": 0.0, "lat": 38.961223333333336, "type": "electric_scooter", "lon": -77.085202, "bike_id": "bf826c7b3afabc80d99fc918a144188c", "rental_uris": {"android": "https://dc.lft.to/lastmile_qr_scan", "ios": "https://dc.lft.to/lastmile_qr_scan"}, "name": "bf826c7b3afabc80d99fc918a144188c", "is_reserved": 0}, {"is_disabled": 0, "fusion_lon": 0.0, "fusion_lat": 0.0, "lat": 38.91656166666667, "type": "electric_scooter", "lon": -77.02710283333333, "bike_id": "4811226f8c42e19d7de9880ee61b3b1b", "rental_uris": {"android": "https://dc.lft.to/lastmile_qr_scan", "ios": "https://dc.lft.to/lastmile_qr_scan"}, "name": "4811226f8c42e19d7de9880ee61b3b1b", "is_reserved": 0}, {"is_disabled": 0, "fusion_lon": 0.0, "fusion_lat": 0.0, "lat": 38.92605833333333, "type": "electric_scooter", "lon": -77.0230765, "bike_id": "98fcef74a81a34c42d5692ef2ae3afb5", "rental_uris": {"android": "https://dc.lft.to/lastmile_qr_scan", "ios": "https://dc.lft.to/lastmile_qr_scan"}, "name": "98fcef74a81a34c42d5692ef2ae3afb5", "is_reserved": 0}, {"is_disabled": 0, "fusion_lon": 0.0, "fusion_lat": 0.0, "lat": 38.96306666666667, "type": "electric_bike", "lon": -77.011047, "bike_id": "61f270647af631954772a0c084276312", "rental_uris": {"android": "https://dc.lft.to/lastmile_qr_scan", "ios": "https://dc.lft.to/lastmile_qr_scan"}, "name": "61f270647af631954772a0c084276312", "is_reserved": 0}, {"is_disabled": 0, "fusion_lon": 0.0, "fusion_lat": 0.0, "lat": 38.88727866666667, "type": "electric_scooter", "lon": -77.03178733333333, "bike_id": "bfa44dc034164f2576c703bc31f916b1", "rental_uris": {"android": "https://dc.lft.to/lastmile_qr_scan", "ios": "https://dc.lft.to/lastmile_qr_scan"}, "name": "bfa44dc034164f2576c703bc31f916b1", "is_reserved": 0}, {"is_disabled": 0, "fusion_lon": 0.0, "fusion_lat": 0.0, "lat": 38.93783033333333, "type": "electric_scooter", "lon": -77.018781, "bike_id": "789670d1479542dbf5c76b4c605cbc6e", "rental_uris": {"android": "https://dc.lft.to/lastmile_qr_scan", "ios": "https://dc.lft.to/lastmile_qr_scan"}, "name": "789670d1479542dbf5c76b4c605cbc6e", "is_reserved": 0}, {"is_disabled": 0, "fusion_lon": 0.0, "fusion_lat": 0.0, "lat": 38.923703333333336, "type": "electric_scooter", "lon": -77.0281345, "bike_id": "4259acd017cae263d163d4c8d5138a9c", "rental_uris": {"android": "https://dc.lft.to/lastmile_qr_scan", "ios": "https://dc.lft.to/lastmile_qr_scan"}, "name": "4259acd017cae263d163d4c8d5138a9c", "is_reserved": 0}, {"is_disabled": 0, "fusion_lon": 0.0, "fusion_lat": 0.0, "lat": 38.935099, "type": "electric_scooter", "lon": -77.082231, "bike_id": "ae6ca6470dee1c43097fcfb55890c717", "rental_uris": {"android": "https://dc.lft.to/lastmile_qr_scan", "ios": "https://dc.lft.to/lastmile_qr_scan"}, "name": "ae6ca6470dee1c43097fcfb55890c717", "is_reserved": 0}, {"is_disabled": 0, "fusion_lon": 0.0, "fusion_lat": 0.0, "lat": 38.935314166666664, "type": "electric_scooter", "lon": -77.02356266666666, "bike_id": "0dd443ad5c4e034e8bc24abf83a95a29", "rental_uris": {"android": "https://dc.lft.to/lastmile_qr_scan", "ios": "https://dc.lft.to/lastmile_qr_scan"}, "name": "0dd443ad5c4e034e8bc24abf83a95a29", "is_reserved": 0}, {"is_disabled": 0, "fusion_lon": 0.0, "fusion_lat": 0.0, "lat": 38.92306416666667, "type": "electric_scooter", "lon": -77.04738533333334, "bike_id": "83931312ca4a2ea5e6d75d4dc02c8f02", "rental_uris": {"android": "https://dc.lft.to/lastmile_qr_scan", "ios": "https://dc.lft.to/lastmile_qr_scan"}, "name": "83931312ca4a2ea5e6d75d4dc02c8f02", "is_reserved": 0}, {"is_disabled": 0, "fusion_lon": 0.0, "fusion_lat": 0.0, "lat": 38.916941666666666, "type": "electric_scooter", "lon": -77.03623483333334, "bike_id": "f963f3ba2e6788ae088a1ccf4f5a6748", "rental_uris": {"android": "https://dc.lft.to/lastmile_qr_scan", "ios": "https://dc.lft.to/lastmile_qr_scan"}, "name": "f963f3ba2e6788ae088a1ccf4f5a6748", "is_reserved": 0}, {"is_disabled": 0, "fusion_lon": 0.0, "fusion_lat": 0.0, "lat": 38.84436383333333, "type": "electric_scooter", "lon": -76.99779316666667, "bike_id": "87fcd7b1af6f61e050e3afeb34cab188", "rental_uris": {"android": "https://dc.lft.to/lastmile_qr_scan", "ios": "https://dc.lft.to/lastmile_qr_scan"}, "name": "87fcd7b1af6f61e050e3afeb34cab188", "is_reserved": 0}, {"is_disabled": 0, "fusion_lon": 0.0, "fusion_lat": 0.0, "lat": 38.92853733333333, "type": "electric_scooter", "lon": -77.0142175, "bike_id": "ec6d848671498590ff6aa1d230bbd66e", "rental_uris": {"android": "https://dc.lft.to/lastmile_qr_scan", "ios": "https://dc.lft.to/lastmile_qr_scan"}, "name": "ec6d848671498590ff6aa1d230bbd66e", "is_reserved": 0}, {"is_disabled": 0, "fusion_lon": 0.0, "fusion_lat": 0.0, "lat": 38.90076766666667, "type": "electric_scooter", "lon": -77.0020795, "bike_id": "57c001cc12411031e6f9e7efad186721", "rental_uris": {"android": "https://dc.lft.to/lastmile_qr_scan", "ios": "https://dc.lft.to/lastmile_qr_scan"}, "name": "57c001cc12411031e6f9e7efad186721", "is_reserved": 0}, {"is_disabled": 0, "fusion_lon": 0.0, "fusion_lat": 0.0, "lat": 38.858118166666664, "type": "electric_scooter", "lon": -76.9893565, "bike_id": "2214ad1208def440987e8dade3e6c490", "rental_uris": {"android": "https://dc.lft.to/lastmile_qr_scan", "ios": "https://dc.lft.to/lastmile_qr_scan"}, "name": "2214ad1208def440987e8dade3e6c490", "is_reserved": 0}, {"is_disabled": 0, "fusion_lon": 0.0, "fusion_lat": 0.0, "lat": 38.9145045, "type": "electric_scooter", "lon": -77.01999566666667, "bike_id": "772b566fac9e9c26d9be6bc94188b9f1", "rental_uris": {"android": "https://dc.lft.to/lastmile_qr_scan", "ios": "https://dc.lft.to/lastmile_qr_scan"}, "name": "772b566fac9e9c26d9be6bc94188b9f1", "is_reserved": 0}, {"is_disabled": 0, "fusion_lon": 0.0, "fusion_lat": 0.0, "lat": 38.909651833333335, "type": "electric_scooter", "lon": -77.0394695, "bike_id": "91dedb888a74a4e154f306b20cf12e1b", "rental_uris": {"android": "https://dc.lft.to/lastmile_qr_scan", "ios": "https://dc.lft.to/lastmile_qr_scan"}, "name": "91dedb888a74a4e154f306b20cf12e1b", "is_reserved": 0}, {"is_disabled": 0, "fusion_lon": 0.0, "fusion_lat": 0.0, "lat": 38.92033133333334, "type": "electric_scooter", "lon": -77.0258515, "bike_id": "784df6bda54d52cbe5764a305673cfbf", "rental_uris": {"android": "https://dc.lft.to/lastmile_qr_scan", "ios": "https://dc.lft.to/lastmile_qr_scan"}, "name": "784df6bda54d52cbe5764a305673cfbf", "is_reserved": 0}, {"is_disabled": 0, "fusion_lon": 0.0, "fusion_lat": 0.0, "lat": 39.052068166666665, "type": "electric_bike", "lon": -77.04409966666667, "bike_id": "709dabaef6cc8df19dcd804d892fb0d9", "rental_uris": {"android": "https://dc.lft.to/lastmile_qr_scan", "ios": "https://dc.lft.to/lastmile_qr_scan"}, "name": "709dabaef6cc8df19dcd804d892fb0d9", "is_reserved": 0}, {"is_disabled": 0, "fusion_lon": 0.0, "fusion_lat": 0.0, "lat": 38.889925, "type": "electric_scooter", "lon": -77.00050483333334, "bike_id": "c97dae2efae3337d0f83fda2b8e7fc7b", "rental_uris": {"android": "https://dc.lft.to/lastmile_qr_scan", "ios": "https://dc.lft.to/lastmile_qr_scan"}, "name": "c97dae2efae3337d0f83fda2b8e7fc7b", "is_reserved": 0}, {"is_disabled": 0, "fusion_lon": 0.0, "fusion_lat": 0.0, "lat": 38.920383, "type": "electric_scooter", "lon": -77.04184316666667, "bike_id": "4040fb2bfcf670d8628be238f12c13f3", "rental_uris": {"android": "https://dc.lft.to/lastmile_qr_scan", "ios": "https://dc.lft.to/lastmile_qr_scan"}, "name": "4040fb2bfcf670d8628be238f12c13f3", "is_reserved": 0}, {"is_disabled": 0, "fusion_lon": 0.0, "fusion_lat": 0.0, "lat": 38.941027, "type": "electric_scooter", "lon": -77.07722966666667, "bike_id": "f7c12972c595982f3ac6c6cbf22aba49", "rental_uris": {"android": "https://dc.lft.to/lastmile_qr_scan", "ios": "https://dc.lft.to/lastmile_qr_scan"}, "name": "f7c12972c595982f3ac6c6cbf22aba49", "is_reserved": 0}, {"is_disabled": 0, "fusion_lon": 0.0, "fusion_lat": 0.0, "lat": 38.886238166666665, "type": "electric_bike", "lon": -77.09236833333334, "bike_id": "19adf6fe6fd8608237b54d6655461dc3", "rental_uris": {"android": "https://dc.lft.to/lastmile_qr_scan", "ios": "https://dc.lft.to/lastmile_qr_scan"}, "name": "19adf6fe6fd8608237b54d6655461dc3", "is_reserved": 0}, {"is_disabled": 0, "fusion_lon": 0.0, "fusion_lat": 0.0, "lat": 38.89730933333333, "type": "electric_bike", "lon": -76.9054165, "bike_id": "fbe21ca5893e14caf8930ca494d8e829", "rental_uris": {"android": "https://dc.lft.to/lastmile_qr_scan", "ios": "https://dc.lft.to/lastmile_qr_scan"}, "name": "fbe21ca5893e14caf8930ca494d8e829", "is_reserved": 0}, {"is_disabled": 0, "fusion_lon": 0.0, "fusion_lat": 0.0, "lat": 38.920658833333334, "type": "electric_scooter", "lon": -77.0435585, "bike_id": "c6c116ccf3e232fbb206d456b6f1d273", "rental_uris": {"android": "https://dc.lft.to/lastmile_qr_scan", "ios": "https://dc.lft.to/lastmile_qr_scan"}, "name": "c6c116ccf3e232fbb206d456b6f1d273", "is_reserved": 0}, {"is_disabled": 0, "fusion_lon": 0.0, "fusion_lat": 0.0, "lat": 38.903912, "type": "electric_scooter", "lon": -77.00472533333334, "bike_id": "31beab9f1b151adc52ce3dc1a292d8c3", "rental_uris": {"android": "https://dc.lft.to/lastmile_qr_scan", "ios": "https://dc.lft.to/lastmile_qr_scan"}, "name": "31beab9f1b151adc52ce3dc1a292d8c3", "is_reserved": 0}, {"is_disabled": 0, "fusion_lon": 0.0, "fusion_lat": 0.0, "lat": 38.968176166666666, "type": "electric_scooter", "lon": -77.00891533333333, "bike_id": "3a9a1ef065045625288028695bd00c92", "rental_uris": {"android": "https://dc.lft.to/lastmile_qr_scan", "ios": "https://dc.lft.to/lastmile_qr_scan"}, "name": "3a9a1ef065045625288028695bd00c92", "is_reserved": 0}, {"is_disabled": 0, "fusion_lon": 0.0, "fusion_lat": 0.0, "lat": 38.95043833333333, "type": "electric_scooter", "lon": -77.02295483333333, "bike_id": "d0bf57c8bda49ea1808a5f3461963a8c", "rental_uris": {"android": "https://dc.lft.to/lastmile_qr_scan", "ios": "https://dc.lft.to/lastmile_qr_scan"}, "name": "d0bf57c8bda49ea1808a5f3461963a8c", "is_reserved": 0}, {"is_disabled": 0, "fusion_lon": 0.0, "fusion_lat": 0.0, "lat": 38.88351933333333, "type": "electric_scooter", "lon": -76.92784883333333, "bike_id": "ff5002d57e4e656ae16480a9b5548c76", "rental_uris": {"android": "https://dc.lft.to/lastmile_qr_scan", "ios": "https://dc.lft.to/lastmile_qr_scan"}, "name": "ff5002d57e4e656ae16480a9b5548c76", "is_reserved": 0}, {"is_disabled": 0, "fusion_lon": 0.0, "fusion_lat": 0.0, "lat": 38.9057325, "type": "electric_scooter", "lon": -77.01011233333334, "bike_id": "b844f5d75bb17d9edc38a5c128ae2a26", "rental_uris": {"android": "https://dc.lft.to/lastmile_qr_scan", "ios": "https://dc.lft.to/lastmile_qr_scan"}, "name": "b844f5d75bb17d9edc38a5c128ae2a26", "is_reserved": 0},