{"data": {"bikes": [{"is_reserved": 0, "fusion_lon": 0.0, "fusion_lat": 0.0, "name": "ab145586c3c7a04058dc66a535740982", "type": "electric_scooter", "is_disabled": 0, "lat": 38.901493, "rental_uris": {"android": "https://dc.lft.to/lastmile_qr_scan", "ios": "https://dc.lft.to/lastmile_qr_scan"}, "bike_id": "ab145586c3c7a04058dc66a535740982", "lon": -77.0397555}, {"is_reserved": 0, "fusion_lon": 0.0, "fusion_lat": 0.0, "name": "6738182bc32dccd76d8b66c692633daf", "type": "electric_scooter", "is_disabled": 0, "lat": 38.8665485, "rental_uris": {"android": "https://dc.lft.to/lastmile_qr_scan", "ios": "https://dc.lft.to/lastmile_qr_scan"}, "bike_id": "6738182bc32dccd76d8b66c692633daf", "lon": -76.98517016666666}, {"is_reserved": 0, "fusion_lon": 0.0, "fusion_lat": 0.0, "name": "6bba0dbb3be84f6843661cf75fd44f46", "type": "electric_scooter", "is_disabled": 0, "lat": 38.89908, "rental_uris": {"android": "https://dc.lft.to/lastmile_qr_scan", "ios": "https://dc.lft.to/lastmile_qr_scan"}, "bike_id": "6bba0dbb3be84f6843661cf75fd44f46", "lon": -77.0406695}, {"is_reserved": 0, "fusion_lon": 0.0, "fusion_lat": 0.0, "name": "a0de3a1d66db614873094adfa0b5d6fb", "type": "electric_scooter", "is_disabled": 0, "lat": 38.895275833333336, "rental_uris": {"android": "https://dc.lft.to/lastmile_qr_scan", "ios": "https://dc.lft.to/lastmile_qr_scan"}, "bike_id": "a0de3a1d66db614873094adfa0b5d6fb", "lon": -77.003386}, {"is_reserved": 0, "fusion_lon": 0.0, "fusion_lat": 0.0, "name": "dbcbbcc097b20f976bb9be6a58d234d0", "type": "electric_scooter", "is_disabled": 0, "lat": 38.8922695, "rental_uris": {"android": "https://dc.lft.to/lastmile_qr_scan", "ios": "https://dc.lft.to/lastmile_qr_scan"}, "bike_id": "dbcbbcc097b20f976bb9be6a58d234d0", "lon": -77.04376116666667}, {"is_reserved": 0, "fusion_lon": 0.0, "fusion_lat": 0.0, "name": "fc8536f14cc880df15ab89220b63a784", "type": "electric_scooter", "is_disabled": 0, "lat": 38.92334916666667, "rental_uris": {"android": "https://dc.lft.to/lastmile_qr_scan", "ios": "https://dc.lft.to/lastmile_qr_scan"}, "bike_id": "fc8536f14cc880df15ab89220b63a784", "lon": -77.0431855}, {"is_reserved": 0, "fusion_lon": 0.0, "fusion_lat": 0.0, "name": "7a90a7653753d4bfd3625a10da5b98fd", "type": "electric_scooter", "is_disabled": 0, "lat": 38.90776133333333, "rental_uris": {"android": "https://dc.lft.to/lastmile_qr_scan", "ios": "https://dc.lft.to/lastmile_qr_scan"}, "bike_id": "7a90a7653753d4bfd3625a10da5b98fd", "lon": -77.03823183333333}, {"is_reserved": 0, "fusion_lon": 0.0, "fusion_lat": 0.0, "name": "02207d3f8291de62af4bcdba885b8eb9", "type": "electric_scooter", "is_disabled": 0, "lat": 38.91658783333333, "rental_uris": {"android": "https://dc.lft.to/lastmile_qr_scan", "ios": "https://dc.lft.to/lastmile_qr_scan"}, "bike_id": "02207d3f8291de62af4bcdba885b8eb9", "lon": -77.01913783333333}, {"is_reserved": 0, "fusion_lon": 0.0, "fusion_lat": 0.0, "name": "0cbc1129cf3d5fee0a6c6e8cd39aff19", "type": "electric_scooter", "is_disabled": 0, "lat": 38.86658383333334, "rental_uris": {"android": "https://dc.lft.to/lastmile_qr_scan", "ios": "https://dc.lft.to/lastmile_qr_scan"}, "bike_id": "0cbc1129cf3d5fee0a6c6e8cd39aff19", "lon": -76.988819}, {"is_reserved": 0, "fusion_lon": 0.0, "fusion_lat": 0.0, "name": "7d3e2d40f5a89e253491d33d8482e350", "type": "electric_scooter", "is_disabled": 0, "lat": 38.8746075, "rental_uris": {"android": "https://dc.lft.to/lastmile_qr_scan", "ios": "https://dc.lft.to/lastmile_qr_scan"}, "bike_id": "7d3e2d40f5a89e253491d33d8482e350", "lon": -77.00549916666667}, {"is_reserved": 0, "fusion_lon": 0.0, "fusion_lat": 0.0, "name": "6be5cec1aa4fc7a1f30d7dcc1b029cd9", "type": "electric_scooter", "is_disabled": 0, "lat": 38.92110366666667, "rental_uris": {"android": "https://dc.lft.to/lastmile_qr_scan", "ios": "https://dc.lft.to/lastmile_qr_scan"}, "bike_id": "6be5cec1aa4fc7a1f30d7dcc1b029cd9", "lon": -77.033361}, {"is_reserved": 0, "fusion_lon": 0.0, "fusion_lat": 0.0, "name": "1b11c5e12e4003cc95ff3bae225608ba", "type": "electric_scooter", "is_disabled": 0, "lat": 38.92072616666667, "rental_uris": {"android": "https://dc.lft.to/lastmile_qr_scan", "ios": "https://dc.lft.to/lastmile_qr_scan"}, "bike_id": "1b11c5e12e4003cc95ff3bae225608ba", "lon": -77.01448433333333}, {"is_reserved": 0, "fusion_lon": 0.0, "fusion_lat": 0.0, "name": "ffe43e3b48bba913a83846211199d898", "type": "electric_scooter", "is_disabled": 0, "lat": 38.93004116666667, "rental_uris": {"android": "https://dc.lft.to/lastmile_qr_scan", "ios": "https://dc.lft.to/lastmile_qr_scan"}, "bike_id": "ffe43e3b48bba913a83846211199d898", "lon": -77.01302516666667}, {"is_reserved": 0, "fusion_lon": 0.0, "fusion_lat": 0.0, "name": "2648fd74d507d7c92bcb61ba2f6d0ad2", "type": "electric_scooter", "is_disabled": 0, "lat": 38.903756, "rental_uris": {"android": "https://dc.lft.to/lastmile_qr_scan", "ios": "https://dc.lft.to/lastmile_qr_scan"}, "bike_id": "2648fd74d507d7c92bcb61ba2f6d0ad2", "lon": -77.04021133333333}, {"is_reserved": 0, "fusion_lon": 0.0, "fusion_lat": 0.0, "name": "6cce8e9950d11bcf0feca88d0cde96ab", "type": "electric_scooter", "is_disabled": 0, "lat": 38.9087685, "rental_uris": {"android": "https://dc.lft.to/lastmile_qr_scan", "ios": "https://dc.lft.to/lastmile_qr_scan"}, "bike_id": "6cce8e9950d11bcf0feca88d0cde96ab", "lon": -77.037641}, {"is_reserved": 0, "fusion_lon": 0.0, "fusion_lat": 0.0, "name": "3dd42a5bb8e1e0ff7f488094c5ceaf62", "type": "electric_scooter", "is_disabled": 0, "lat": 38.91782583333333, "rental_uris": {"android": "https://dc.lft.to/lastmile_qr_scan", "ios": "https://dc.lft.to/lastmile_qr_scan"}, "bike_id": "3dd42a5bb8e1e0ff7f488094c5ceaf62", "lon": -77.03212033333334}, {"is_reserved": 0, "fusion_lon": 0.0, "fusion_lat": 0.0, "name": "abf0af5c329e498c2b991f7181a0c7bf", "type": "electric_scooter", "is_disabled": 0, "lat": 38.86352383333333, "rental_uris": {"android": "https://dc.lft.to/lastmile_qr_scan", "ios": "https://dc.lft.to/lastmile_qr_scan"}, "bike_id": "abf0af5c329e498c2b991f7181a0c7bf", "lon": -76.98711516666667}, {"is_reserved": 0, "fusion_lon": 0.0, "fusion_lat": 0.0, "name": "508a1691ccf28728786c26c117c839e1", "type": "electric_scooter", "is_disabled": 0, "lat": 38.900153, "rental_uris": {"android": "https://dc.lft.to/lastmile_qr_scan", "ios": "https://dc.lft.to/lastmile_qr_scan"}, "bike_id": "508a1691ccf28728786c26c117c839e1", "lon": -76.99592933333334}, {"is_reserved": 0, "fusion_lon": 0.0, "fusion_lat": 0.0, "name": "1fd031c07e29a4b1458dd1b0214b6359", "type": "electric_scooter", "is_disabled": 0, "lat": 38.887442, "rental_uris": {"android": "https://dc.lft.to/lastmile_qr_scan", "ios": "https://dc.lft.to/lastmile_qr_scan"}, "bike_id": "1fd031c07e29a4b1458dd1b0214b6359", "lon": -77.02735816666667}, {"is_reserved": 0, "fusion_lon": 0.0, "fusion_lat": 0.0, "name": "074b058067444e6ec716e2b552381e5b", "type": "electric_scooter", "is_disabled": 0, "lat": 38.92661583333334, "rental_uris": {"android": "https://dc.lft.to/lastmile_qr_scan", "ios": "https://dc.lft.to/lastmile_qr_scan"}, "bike_id": "074b058067444e6ec716e2b552381e5b", "lon": -77.0229055}, {"is_reserved": 0, "fusion_lon": 0.0, "fusion_lat": 0.0, "name": "3c0d99437219c2e2ebac2e1d6fc06d09", "type": "electric_scooter", "is_disabled": 0, "lat": 38.88695633333333, "rental_uris": {"android": "https://dc.lft.to/lastmile_qr_scan", "ios": "https://dc.lft.to/lastmile_qr_scan"}, "bike_id": "3c0d99437219c2e2ebac2e1d6fc06d09", "lon": -76.95467516666666}, {"is_reserved": 0, "fusion_lon": 0.0, "fusion_lat": 0.0, "name": "37b0e7d8540a7fe41fe36e00fadc64c6", "type": "electric_scooter", "is_disabled": 0, "lat": 38.92049383333333, "rental_uris": {"android": "https://dc.lft.to/lastmile_qr_scan", "ios": "https://dc.lft.to/lastmile_qr_scan"}, "bike_id": "37b0e7d8540a7fe41fe36e00fadc64c6", "lon": -77.016599}, {"is_reserved": 0, "fusion_lon": 0.0, "fusion_lat": 0.0, "name": "c739f77e2236b47d6560a44f223e9a48", "type": "electric_scooter", "is_disabled": 0, "lat": 38.908885, "rental_uris": {"android": "https://dc.lft.to/lastmile_qr_scan", "ios": "https://dc.lft.to/lastmile_qr_scan"}, "bike_id": "c739f77e2236b47d6560a44f223e9a48", "lon": -76.98542266666666}, {"is_reserved": 0, "fusion_lon": 0.0, "fusion_lat": 0.0, "name": "442c4d2aea37097193bbdbd3b6c41c0f", "type": "electric_scooter", "is_disabled": 0, "lat": 38.907328166666666, "rental_uris": {"android": "https://dc.lft.to/lastmile_qr_scan", "ios": "https://dc.lft.to/lastmile_qr_scan"}, "bike_id": "442c4d2aea37097193bbdbd3b6c41c0f", "lon": -77.05001}, {"is_reserved": 0, "fusion_lon": 0.0, "fusion_lat": 0.0, "name": "efa4148b4307214be3708a9730b535aa", "type": "electric_scooter", "is_disabled": 0, "lat": 38.8924235, "rental_uris": {"android": "https://dc.lft.to/lastmile_qr_scan", "ios": "https://dc.lft.to/lastmile_qr_scan"}, "bike_id": "efa4148b4307214be3708a9730b535aa", "lon": -77.03143333333334}, {"is_reserved": 0, "fusion_lon": 0.0, "fusion_lat": 0.0, "name": "34d896ebd4323feabcc869389163c9c8", "type": "electric_scooter", "is_disabled": 0, "lat": 38.915552, "rental_uris": {"android": "https://dc.lft.to/lastmile_qr_scan", "ios": "https://dc.lft.to/lastmile_qr_scan"}, "bike_id": "34d896ebd4323feabcc869389163c9c8", "lon": -77.022117}, {"is_reserved": 0, "fusion_lon": 0.0, "fusion_lat": 0.0, "name": "499b9ee9742f556a7658e0c36c6fee59", "type": "electric_bike", "is_disabled": 0, "lat": 38.99537733333333, "rental_uris": {"android": "https://dc.lft.to/lastmile_qr_scan", "ios": "https://dc.lft.to/lastmile_qr_scan"}, "bike_id": "499b9ee9742f556a7658e0c36c6fee59", "lon": -77.0694}, {"is_reserved": 0, "fusion_lon": 0.0, "fusion_lat": 0.0, "name": "38a3db5c3b347650fc803b35103b193c", "type": "electric_scooter", "is_disabled": 0, "lat": 38.900483333333334, "rental_uris": {"android": "https://dc.lft.to/lastmile_qr_scan", "ios": "https://dc.lft.to/lastmile_qr_scan"}, "bike_id": "38a3db5c3b347650fc803b35103b193c", "lon": -77.0434085}, {"is_reserved": 0, "fusion_lon": 0.0, "fusion_lat": 0.0, "name": "99c8263521d37ba00372aea2a148fd47", "type": "electric_bike", "is_disabled": 0, "lat": 38.837824166666664, "rental_uris": {"android": "https://dc.lft.to/lastmile_qr_scan", "ios": "https://dc.lft.to/lastmile_qr_scan"}, "bike_id": "99c8263521d37ba00372aea2a148fd47", "lon": -76.99756116666667}, {"is_reserved": 0, "fusion_lon": 0.0, "fusion_lat": 0.0, "name": "40c3b9abcb062f5f223cb9b6a0627872", "type": "electric_scooter", "is_disabled": 0, "lat": 38.9262765, "rental_uris": {"android": "https://dc.lft.to/lastmile_qr_scan", "ios": "https://dc.lft.to/lastmile_qr_scan"}, "bike_id": "40c3b9abcb062f5f223cb9b6a0627872", "lon": -77.04322883333333}, {"is_reserved": 0, "fusion_lon": 0.0, "fusion_lat": 0.0, "name": "6d3115a993bcdf33753377636e3fa815", "type": "electric_scooter", "is_disabled": 0, "lat": 38.891988166666664, "rental_uris": {"android": "https://dc.lft.to/lastmile_qr_scan", "ios": "https://dc.lft.to/lastmile_qr_scan"}, "bike_id": "6d3115a993bcdf33753377636e3fa815", "lon": -77.03720616666666}, {"is_reserved": 0, "fusion_lon": 0.0, "fusion_lat": 0.0, "name": "dc71890625b9f05ba6216172ecac3223", "type": "electric_scooter", "is_disabled": 0, "lat": 38.909794833333336, "rental_uris": {"android": "https://dc.lft.to/lastmile_qr_scan", "ios": "https://dc.lft.to/lastmile_qr_scan"}, "bike_id": "dc71890625b9f05ba6216172ecac3223", "lon": -77.03863283333334}, {"is_reserved": 0, "fusion_lon": 0.0, "fusion_lat": 0.0, "name": "5a375daad7f8d3c06249b7b542e6f7fc", "type": "electric_scooter", "is_disabled": 0, "lat": 38.8950595, "rental_uris": {"android": "https://dc.lft.to/lastmile_qr_scan", "ios": "https://dc.lft.to/lastmile_qr_scan"}, "bike_id": "5a375daad7f8d3c06249b7b542e6f7fc", "lon": -76.9347515}, {"is_reserved": 0, "fusion_lon": 0.0, "fusion_lat": 0.0, "name": "b7d1a9672818154b79483e0600eeb5e9", "type": "electric_scooter", "is_disabled": 0, "lat": 38.93243116666667, "rental_uris": {"android": "https://dc.lft.to/lastmile_qr_scan", "ios": "https://dc.lft.to/lastmile_qr_scan"}, "bike_id": "b7d1a9672818154b79483e0600eeb5e9", "lon": -77.02382216666666}, {"is_reserved": 0, "fusion_lon": 0.0, "fusion_lat": 0.0, "name": "64d0536e89fedd1487035e2b457ee9a8", "type": "electric_scooter", "is_disabled": 0, "lat": 38.9062095, "rental_uris": {"android": "https://dc.lft.to/lastmile_qr_scan", "ios": "https://dc.lft.to/lastmile_qr_scan"}, "bike_id": "64d0536e89fedd1487035e2b457ee9a8", "lon": -77.0238165}, {"is_reserved": 0, "fusion_lon": 0.0, "fusion_lat": 0.0, "name": "1934da54e8744986023fd54814ae2029", "type": "electric_scooter", "is_disabled": 0, "lat": 38.92254366666667, "rental_uris": {"android": "https://dc.lft.to/lastmile_qr_scan", "ios": "https://dc.lft.to/lastmile_qr_scan"}, "bike_id": "1934da54e8744986023fd54814ae2029", "lon": -77.0193785}, {"is_reserved": 0, "fusion_lon": 0.0, "fusion_lat": 0.0, "name": "d26549b227f42e9c0b1c87291bf47d4a", "type": "electric_scooter", "is_disabled": 0, "lat": 38.915642166666665, "rental_uris": {"android": "https://dc.lft.to/lastmile_qr_scan", "ios": "https://dc.lft.to/lastmile_qr_scan"}, "bike_id": "d26549b227f42e9c0b1c87291bf47d4a", "lon": -77.04090733333334}, {"is_reserved": 0, "fusion_lon": 0.0, "fusion_lat": 0.0, "name": "84d7176b7ad0b1ee3848a424544777a7", "type": "electric_scooter", "is_disabled": 0, "lat": 38.90240933333333, "rental_uris": {"android": "https://dc.lft.to/lastmile_qr_scan", "ios": "https://dc.lft.to/lastmile_qr_scan"}, "bike_id": "84d7176b7ad0b1ee3848a424544777a7", "lon": -77.00205083333333}, {"is_reserved": 0, "fusion_lon": 0.0, "fusion_lat": 0.0, "name": "be5107adc0cec36d34e591fdce06dc68", "type": "electric_bike", "is_disabled": 0, "lat": 38.967414, "rental_uris": {"android": "https://dc.lft.to/lastmile_qr_scan", "ios": "https://dc.lft.to/lastmile_qr_scan"}, "bike_id": "be5107adc0cec36d34e591fdce06dc68", "lon": -76.98195666666666}, {"is_reserved": 0, "fusion_lon": 0.0, "fusion_lat": 0.0, "name": "8d5181c7e9470a56b0ca04f0596f3bef", "type": "electric_scooter", "is_disabled": 0, "lat": 38.907088333333334, "rental_uris": {"android": "https://dc.lft.to/lastmile_qr_scan", "ios": "https://dc.lft.to/lastmile_qr_scan"}, "bike_id": "8d5181c7e9470a56b0ca04f0596f3bef", "lon": -77.024113}, {"is_reserved": 0, "fusion_lon": 0.0, "fusion_lat": 0.0, "name": "2df6cfa364d9d93ba18aaaba56c34a3c", "type": "electric_scooter", "is_disabled": 0, "lat": 38.910304333333336, "rental_uris": {"android": "https://dc.lft.to/lastmile_qr_scan", "ios": "https://dc.lft.to/lastmile_qr_scan"}, "bike_id": "2df6cfa364d9d93ba18aaaba56c34a3c", "lon": -77.04497166666667}, {"is_reserved": 0, "fusion_lon": 0.0, "fusion_lat": 0.0, "name": "4bbf3d24dd4aa3e117fe775ee1fcc20d", "type": "electric_scooter", "is_disabled": 0, "lat": 38.90383966666667, "rental_uris": {"android": "https://dc.lft.to/lastmile_qr_scan", "ios": "https://dc.lft.to/lastmile_qr_scan"}, "bike_id": "4bbf3d24dd4aa3e117fe775ee1fcc20d", "lon": -77.04285633333333}, {"is_reserved": 0, "fusion_lon": 0.0, "fusion_lat": 0.0, "name": "4ce53a7ac558987b9559fcc6ffbf28be", "type": "electric_scooter", "is_disabled": 0, "lat": 38.9025555, "rental_uris": {"android": "https://dc.lft.to/lastmile_qr_scan", "ios": "https://dc.lft.to/lastmile_qr_scan"}, "bike_id": "4ce53a7ac558987b9559fcc6ffbf28be", "lon": -77.03970466666667}, {"is_reserved": 0, "fusion_lon": 0.0, "fusion_lat": 0.0, "name": "4c6dd3f7857ee548969e52c85fce8223", "type": "electric_scooter", "is_disabled": 0, "lat": 38.9126745, "rental_uris": {"android": "https://dc.lft.to/lastmile_qr_scan", "ios": "https://dc.lft.to/lastmile_qr_scan"}, "bike_id": "4c6dd3f7857ee548969e52c85fce8223", "lon": -77.02870483333334}, {"is_reserved": 0, "fusion_lon": 0.0, "fusion_lat": 0.0, "name": "991abcfe3d1ca0fff463c482d1468d50", "type": "electric_scooter", "is_disabled": 0, "lat": 38.89224633333333, "rental_uris": {"android": "https://dc.lft.to/lastmile_qr_scan", "ios": "https://dc.lft.to/lastmile_qr_scan"}, "bike_id": "991abcfe3d1ca0fff463c482d1468d50", "lon": -77.04691733333334}, {"is_reserved": 0, "fusion_lon": 0.0, "fusion_lat": 0.0, "name": "3272516cdbf397043d98912f2239c926", "type": "electric_bike", "is_disabled": 0, "lat": 39.0148095, "rental_uris": {"android": "https://dc.lft.to/lastmile_qr_scan", "ios": "https://dc.lft.to/lastmile_qr_scan"}, "bike_id": "3272516cdbf397043d98912f2239c926", "lon": -77.05497316666667}, {"is_reserved": 0, "fusion_lon": 0.0, "fusion_lat": 0.0, "name": "c595642f36a58bc0aca8c335910c4036", "type": "electric_bike", "is_disabled": 0, "lat": 38.929586, "rental_uris": {"android": "https://dc.lft.to/lastmile_qr_scan", "ios": "https://dc.lft.to/lastmile_qr_scan"}, "bike_id": "c595642f36a58bc0aca8c335910c4036", "lon": -77.22580116666667}, {"is_reserved": 0, "fusion_lon": 0.0, "fusion_lat": 0.0, "name": "669fce2624ec7e6b54e1ee6ce0c7c392", "type": "electric_scooter", "is_disabled": 0, "lat": 38.908355, "rental_uris": {"android": "https://dc.lft.to/lastmile_qr_scan", "ios": "https://dc.lft.to/lastmile_qr_scan"}, "bike_id": "669fce2624ec7e6b54e1ee6ce0c7c392", "lon": -77.0741245}, {"is_reserved": 0, "fusion_lon": 0.0, "fusion_lat": 0.0, "name": "e70cf89e74257409ac3779f2270849a5", "type": "electric_scooter", "is_disabled": 0, "lat": 38.9507725, "rental_uris": {"android": "https://dc.lft.to/lastmile_qr_scan", "ios": "https://dc.lft.to/lastmile_qr_scan"}, "bike_id": "e70cf89e74257409ac3779f2270849a5", "lon": -76.99560583333333}, {"is_reserved": 0, "fusion_lon": 0.0, "fusion_lat": 0.0, "name": "df86e404c76af6479b21b507c16ab1e1", "type": "electric_scooter", "is_disabled": 0, "lat": 38.9024475, "rental_uris": {"android": "https://dc.lft.to/lastmile_qr_scan", "ios": "https://dc.lft.to/lastmile_qr_scan"}, "bike_id": "df86e404c76af6479b21b507c16ab1e1", "lon": -77.0269085}, {"is_reserved": 0, "fusion_lon": 0.0, "fusion_lat": 0.0, "name": "ed1461983c2e78a895a48f9c074f285a", "type": "electric_scooter", "is_disabled": 0, "lat": 38.904148166666666, "rental_uris": {"android": "https://dc.lft.to/lastmile_qr_scan", "ios": "https://dc.lft.to/lastmile_qr_scan"}, "bike_id": "ed1461983c2e78a895a48f9c074f285a", "lon": -77.04347716666666}, {"is_reserved": 0, "fusion_lon": 0.0, "fusion_lat": 0.0, "name": "71babd423f8232fe422b9a0dddc6d818", "type": "electric_scooter", "is_disabled": 0, "lat": 38.9036395, "rental_uris": {"android": "https://dc.lft.to/lastmile_qr_scan", "ios": "https://dc.lft.to/lastmile_qr_scan"}, "bike_id": "71babd423f8232fe422b9a0dddc6d818", "lon": -77.03923583333334}, {"is_reserved": 0, "fusion_lon": 0.0, "fusion_lat": 0.0, "name": "0be68180326040c886b5d97921603ddf", "type": "electric_bike", "is_disabled": 0, "lat": 38.956930166666666, "rental_uris": {"android": "https://dc.lft.to/lastmile_qr_scan", "ios": "https://dc.lft.to/lastmile_qr_scan"}, "bike_id": "0be68180326040c886b5d97921603ddf", "lon": -77.02234583333333}, {"is_reserved": 0, "fusion_lon": 0.0, "fusion_lat": 0.0, "name": "b65439c579038f56a9c7f779844d8eb7", "type": "electric_scooter", "is_disabled": 0, "lat": 38.908333999999996, "rental_uris": {"android": "https://dc.lft.to/lastmile_qr_scan", "ios": "https://dc.lft.to/lastmile_qr_scan"}, "bike_id": "b65439c579038f56a9c7f779844d8eb7", "lon": -77.03316116666667}, {"is_reserved": 0, "fusion_lon": 0.0, "fusion_lat": 0.0, "name": "bbd33892c010e01c292ef4cb709f5c69", "type": "electric_scooter", "is_disabled": 0, "lat": 38.90561733333333, "rental_uris": {"android": "https://dc.lft.to/lastmile_qr_scan", "ios": "https://dc.lft.to/lastmile_qr_scan"}, "bike_id": "bbd33892c010e01c292ef4cb709f5c69", "lon": -77.04184}, {"is_reserved": 0, "fusion_lon": 0.0, "fusion_lat": 0.0, "name": "3af16e137f153d1499cdf137ec5a66b9", "type": "electric_scooter", "is_disabled": 0, "lat": 38.927444333333334, "rental_uris": {"android": "https://dc.lft.to/lastmile_qr_scan", "ios": "https://dc.lft.to/lastmile_qr_scan"}, "bike_id": "3af16e137f153d1499cdf137ec5a66b9", "lon": -77.02485816666666}, {"is_reserved": 0, "fusion_lon": 0.0, "fusion_lat": 0.0, "name": "9652533d3a4b6696ebe725cb840a5ed0", "type": "electric_scooter", "is_disabled": 0, "lat": 38.90469683333333, "rental_uris": {"android": "https://dc.lft.to/lastmile_qr_scan", "ios": "https://dc.lft.to/lastmile_qr_scan"}, "bike_id": "9652533d3a4b6696ebe725cb840a5ed0", "lon": -77.03792333333334}, {"is_reserved": 0, "fusion_lon": 0.0, "fusion_lat": 0.0, "name": "bfb207365b512e327b08b57202cf6341", "type": "electric_scooter", "is_disabled": 0, "lat": 38.9005715, "rental_uris": {"android": "https://dc.lft.to/lastmile_qr_scan", "ios": "https://dc.lft.to/lastmile_qr_scan"}, "bike_id": "bfb207365b512e327b08b57202cf6341", "lon": -77.01507333333333}, {"is_reserved": 0, "fusion_lon": 0.0, "fusion_lat": 0.0, "name": "fa48ab56f1e6bb6a029653e9a147aa36", "type": "electric_scooter", "is_disabled": 0, "lat": 38.9182115, "rental_uris": {"android": "https://dc.lft.to/lastmile_qr_scan", "ios": "https://dc.lft.to/lastmile_qr_scan"}, "bike_id": "fa48ab56f1e6bb6a029653e9a147aa36", "lon": -77.0369535}, {"is_reserved": 0, "fusion_lon": 0.0, "fusion_lat": 0.0, "name": "73da6902bd6bae60a23733c1628af879", "type": "electric_scooter", "is_disabled": 0, "lat": 38.9024315, "rental_uris": {"android": "https://dc.lft.to/lastmile_qr_scan", "ios": "https://dc.lft.to/lastmile_qr_scan"}, "bike_id": "73da6902bd6bae60a23733c1628af879", "lon": -77.02687333333333}, {"is_reserved": 0, "fusion_lon": 0.0, "fusion_lat": 0.0, "name": "a6610bd8b8b053cc64c05c46c22c8616", "type": "electric_scooter", "is_disabled": 0, "lat": 38.866664666666665, "rental_uris": {"android": "https://dc.lft.to/lastmile_qr_scan", "ios": "https://dc.lft.to/lastmile_qr_scan"}, "bike_id": "a6610bd8b8b053cc64c05c46c22c8616", "lon": -76.98878466666666}, {"is_reserved": 0, "fusion_lon": 0.0, "fusion_lat": 0.0, "name": "7adfcdfee98e58e62a57c18c8f2b0dcd", "type": "electric_scooter", "is_disabled": 0, "lat": 38.896073, "rental_uris": {"android": "https://dc.lft.to/lastmile_qr_scan", "ios": "https://dc.lft.to/lastmile_qr_scan"}, "bike_id": "7adfcdfee98e58e62a57c18c8f2b0dcd", "lon": -77.0317315}, {"is_reserved": 0, "fusion_lon": 0.0, "fusion_lat": 0.0, "name": "939e4f4ce3cfd728065d9d4105e71559", "type": "electric_bike", "is_disabled": 0, "lat": 38.95652833333333, "rental_uris": {"android": "https://dc.lft.to/lastmile_qr_scan", "ios": "https://dc.lft.to/lastmile_qr_scan"}, "bike_id": "939e4f4ce3cfd728065d9d4105e71559", "lon": -77.01282133333333}, {"is_reserved": 0, "fusion_lon": 0.0, "fusion_lat": 0.0, "name": "39ca90be98b099f044f631686f431900", "type": "electric_scooter", "is_disabled": 0, "lat": 38.90678616666667, "rental_uris": {"android": "https://dc.lft.to/lastmile_qr_scan", "ios": "https://dc.lft.to/lastmile_qr_scan"}, "bike_id": "39ca90be98b099f044f631686f431900", "lon": -77.03844483333333}, {"is_reserved": 0, "fusion_lon": 0.0, "fusion_lat": 0.0, "name": "62f43442dfcd16bb926948e1f302bdf1", "type": "electric_scooter", "is_disabled": 0, "lat": 38.932737833333334, "rental_uris": {"android": "https://dc.lft.to/lastmile_qr_scan", "ios": "https://dc.lft.to/lastmile_qr_scan"}, "bike_id": "62f43442dfcd16bb926948e1f302bdf1", "lon": -77.02832483333333}, {"is_reserved": 0, "fusion_lon": 0.0, "fusion_lat": 0.0, "name": "f13de30be0017988a07ff2c97427a695", "type": "electric_bike", "is_disabled": 0, "lat": 38.9882225, "rental_uris": {"android": "https://dc.lft.to/lastmile_qr_scan", "ios": "https://dc.lft.to/lastmile_qr_scan"}, "bike_id": "f13de30be0017988a07ff2c97427a695", "lon": -77.02649166666667}, {"is_reserved": 0, "fusion_lon": 0.0, "fusion_lat": 0.0, "name": "a18781bd9fc8daed89342346edac2767", "type": "electric_scooter", "is_disabled": 0, "lat": 38.90470583333333, "rental_uris": {"android": "https://dc.lft.to/lastmile_qr_scan", "ios": "https://dc.lft.to/lastmile_qr_scan"}, "bike_id": "a18781bd9fc8daed89342346edac2767", "lon": -77.037945}, {"is_reserved": 0, "fusion_lon": 0.0, "fusion_lat": 0.0, "name": "95295ea8f1c6b16bde9566acd26eed60", "type": "electric_scooter", "is_disabled": 0, "lat": 38.8714365, "rental_uris": {"android": "https://dc.lft.to/lastmile_qr_scan", "ios": "https://dc.lft.to/lastmile_qr_scan"}, "bike_id": "95295ea8f1c6b16bde9566acd26eed60", "lon": -77.007047}, {"is_reserved": 0, "fusion_lon": 0.0, "fusion_lat": 0.0, "name": "b57b350b1759fa7cc233fddd7ddf046e", "type": "electric_scooter", "is_disabled": 0, "lat": 38.9193775, "rental_uris": {"android": "https://dc.lft.to/lastmile_qr_scan", "ios": "https://dc.lft.to/lastmile_qr_scan"}, "bike_id": "b57b350b1759fa7cc233fddd7ddf046e", "lon": -77.02515083333333}, {"is_reserved": 0, "fusion_lon": 0.0, "fusion_lat": 0.0, "name": "e8345e174d7f866aa700d577f2936438", "type": "electric_scooter", "is_disabled": 0, "lat": 38.927532, "rental_uris": {"android": "https://dc.lft.to/lastmile_qr_scan", "ios": "https://dc.lft.to/lastmile_qr_scan"}, "bike_id": "e8345e174d7f866aa700d577f2936438", "lon": -77.02149366666667}, {"is_reserved": 0, "fusion_lon": 0.0, "fusion_lat": 0.0, "name": "a04d9e8ac7856b72229e2f20022b8cbc", "type": "electric_scooter", "is_disabled": 0, "lat": 38.90874433333333, "rental_uris": {"android": "https://dc.lft.to/lastmile_qr_scan", "ios": "https://dc.lft.to/lastmile_qr_scan"}, "bike_id": "a04d9e8ac7856b72229e2f20022b8cbc", "lon": -77.0717035}, {"is_reserved": 0, "fusion_lon": 0.0, "fusion_lat": 0.0, "name": "2a85234e12535f22d8b79a8786fdc300", "type": "electric_scooter", "is_disabled": 0, "lat": 38.91694966666667, "rental_uris": {"android": "https://dc.lft.to/lastmile_qr_scan", "ios": "https://dc.lft.to/lastmile_qr_scan"}, "bike_id": "2a85234e12535f22d8b79a8786fdc300", "lon": -77.04603816666666}, {"is_reserved": 0, "fusion_lon": 0.0, "fusion_lat": 0.0, "name": "c3de9ff25b57e21ef8db212067aa11de", "type": "electric_scooter", "is_disabled": 0, "lat": 38.91824966666667, "rental_uris": {"android": "https://dc.lft.to/lastmile_qr_scan", "ios": "https://dc.lft.to/lastmile_qr_scan"}, "bike_id": "c3de9ff25b57e21ef8db212067aa11de", "lon": -77.03460083333333}, {"is_reserved": 0, "fusion_lon": 0.0, "fusion_lat": 0.0, "name": "505c1c8ddc9f6abe449230cb0ea1707d", "type": "electric_scooter", "is_disabled": 0, "lat": 38.851800833333336, "rental_uris": {"android": "https://dc.lft.to/lastmile_qr_scan", "ios": "https://dc.lft.to/lastmile_qr_scan"}, "bike_id": "505c1c8ddc9f6abe449230cb0ea1707d", "lon": -76.99582616666666}, {"is_reserved": 0, "fusion_lon": 0.0, "fusion_lat": 0.0, "name": "18dfb375d5c97b3d92b42df0c4213ab9", "type": "electric_scooter", "is_disabled": 0, "lat": 38.90093433333333, "rental_uris": {"android": "https://dc.lft.to/lastmile_qr_scan", "ios": "https://dc.lft.to/lastmile_qr_scan"}, "bike_id": "18dfb375d5c97b3d92b42df0c4213ab9", "lon": -77.02099033333333}, {"is_reserved": 0, "fusion_lon": 0.0, "fusion_lat": 0.0, "name": "ebae360d03d800647aa03fe3efcc4fe6", "type": "electric_scooter", "is_disabled": 0, "lat": 38.9169395, "rental_uris": {"android": "https://dc.lft.to/lastmile_qr_scan", "ios": "https://dc.lft.to/lastmile_qr_scan"}, "bike_id": "ebae360d03d800647aa03fe3efcc4fe6", "lon": -77.03217916666667}, {"is_reserved": 0, "fusion_lon": 0.0, "fusion_lat": 0.0, "name": "5df041e3fa9a04dc632487ae15132797", "type": "electric_scooter", "is_disabled": 0, "lat": 38.93612816666667, "rental_uris": {"android": "https://dc.lft.to/lastmile_qr_scan", "ios": "https://dc.lft.to/lastmile_qr_scan"}, "bike_id": "5df041e3fa9a04dc632487ae15132797", "lon": -77.03814233333334}, {"is_reserved": 0, "fusion_lon": 0.0, "fusion_lat": 0.0, "name": "04b4b275e7f2b5f813e40b196fb90775", "type": "electric_scooter", "is_disabled": 0, "lat": 38.920454, "rental_uris": {"android": "https://dc.lft.to/lastmile_qr_scan", "ios": "https://dc.lft.to/lastmile_qr_scan"}, "bike_id": "04b4b275e7f2b5f813e40b196fb90775", "lon": -76.989527}, {"is_reserved": 0, "fusion_lon": 0.0, "fusion_lat": 0.0, "name": "848330d73f27b743c32a8dfbb715146f", "type": "electric_bike", "is_disabled": 0, "lat": 38.82953916666666, "rental_uris": {"android": "https://dc.lft.to/lastmile_qr_scan", "ios": "https://dc.lft.to/lastmile_qr_scan"}, "bike_id": "848330d73f27b743c32a8dfbb715146f", "lon": -77.1235485}, {"is_reserved": 0, "fusion_lon": 0.0, "fusion_lat": 0.0, "name": "8f3f7be544340d6b6ea578e6a34346b9", "type": "electric_scooter", "is_disabled": 0, "lat": 38.92689466666667, "rental_uris": {"android": "https://dc.lft.to/lastmile_qr_scan", "ios": "https://dc.lft.to/lastmile_qr_scan"}, "bike_id": "8f3f7be544340d6b6ea578e6a34346b9", "lon": -77.01516633333334}, {"is_reserved": 0, "fusion_lon": 0.0, "fusion_lat": 0.0, "name": "21afc40d7f1f46f79f3aa67923b4ab7a", "type": "electric_scooter", "is_disabled": 0, "lat": 38.900481166666665, "rental_uris": {"android": "https://dc.lft.to/lastmile_qr_scan", "ios": "https://dc.lft.to/lastmile_qr_scan"}, "bike_id": "21afc40d7f1f46f79f3aa67923b4ab7a", "lon": -77.03954133333333}, {"is_reserved": 0, "fusion_lon": 0.0, "fusion_lat": 0.0, "name": "1eaa55c22ac6ea5645c0d2f435821664", "type": "electric_scooter", "is_disabled": 0, "lat": 38.90270433333333, "rental_uris": {"android": "https://dc.lft.to/lastmile_qr_scan", "ios": "https://dc.lft.to/lastmile_qr_scan"}, "bike_id": "1eaa55c22ac6ea5645c0d2f435821664", "lon": -77.05914633333333}, {"is_reserved": 0, "fusion_lon": 0.0, "fusion_lat": 0.0, "name": "2fcf0dd2c16551a55cd24ce4d13ad550", "type": "electric_scooter", "is_disabled": 0, "lat": 38.92444033333334, "rental_uris": {"android": "https://dc.lft.to/lastmile_qr_scan", "ios": "https://dc.lft.to/lastmile_qr_scan"}, "bike_id": "2fcf0dd2c16551a55cd24ce4d13ad550", "lon": -77.02144666666666}, {"is_reserved": 0, "fusion_lon": 0.0, "fusion_lat": 0.0, "name": "f271010a47bf75ec87e3d5059126c532", "type": "electric_scooter", "is_disabled": 0, "lat": 38.921612833333334, "rental_uris": {"android": "https://dc.lft.to/lastmile_qr_scan", "ios": "https://dc.lft.to/lastmile_qr_scan"}, "bike_id": "f271010a47bf75ec87e3d5059126c532", "lon": -77.02092833333333}, {"is_reserved": 0, "fusion_lon": 0.0, "fusion_lat": 0.0, "name": "20661e84cea81aab97944d4813c7c55c", "type": "electric_bike", "is_disabled": 0, "lat": 38.962787666666664, "rental_uris": {"android": "https://dc.lft.to/lastmile_qr_scan", "ios": "https://dc.lft.to/lastmile_qr_scan"}, "bike_id": "20661e84cea81aab97944d4813c7c55c", "lon": -77.01460716666666}, {"is_reserved": 0, "fusion_lon": 0.0, "fusion_lat": 0.0, "name": "d4dc1f7ff49f6b3fb4c545ffa35eec7a", "type": "electric_scooter", "is_disabled": 0, "lat": 38.8922225, "rental_uris": {"android": "https://dc.lft.to/lastmile_qr_scan", "ios": "https://dc.lft.to/lastmile_qr_scan"}, "bike_id": "d4dc1f7ff49f6b3fb4c545ffa35eec7a", "lon": -77.02636833333334}, {"is_reserved": 0, "fusion_lon": 0.0, "fusion_lat": 0.0, "name": "3dd16e1ef5704efe07fa7faf09016269", "type": "electric_scooter", "is_disabled": 0, "lat": 38.90065166666667, "rental_uris": {"android": "https://dc.lft.to/lastmile_qr_scan", "ios": "https://dc.lft.to/lastmile_qr_scan"}, "bike_id": "3dd16e1ef5704efe07fa7faf09016269", "lon": -76.94696466666667}, {"is_reserved": 0, "fusion_lon": 0.0, "fusion_lat": 0.0, "name": "30739baeef31ff975da30390ef2692dc", "type": "electric_scooter", "is_disabled": 0, "lat": 38.92273083333333, "rental_uris": {"android": "https://dc.lft.to/lastmile_qr_scan", "ios": "https://dc.lft.to/lastmile_qr_scan"}, "bike_id": "30739baeef31ff975da30390ef2692dc", "lon": -77.04244316666667}, {"is_reserved": 0, "fusion_lon": 0.0, "fusion_lat": 0.0, "name": "66703880513ed0dd43856ecbf8b35686", "type": "electric_bike", "is_disabled": 0, "lat": 38.951754333333334, "rental_uris": {"android": "https://dc.lft.to/lastmile_qr_scan", "ios": "https://dc.lft.to/lastmile_qr_scan"}, "bike_id": "66703880513ed0dd43856ecbf8b35686", "lon": -76.97732933333333}, {"is_reserved": 0, "fusion_lon": 0.0, "fusion_lat": 0.0, "name": "328ab55b8d3e83875283559abb78d56a", "type": "electric_scooter", "is_disabled": 0, "lat": 38.9344545, "rental_uris": {"android": "https://dc.lft.to/lastmile_qr_scan", "ios": "https://dc.lft.to/lastmile_qr_scan"}, "bike_id": "328ab55b8d3e83875283559abb78d56a", "lon": -76.99879783333333}, {"is_reserved": 0, "fusion_lon": 0.0, "fusion_lat": 0.0, "name": "505d69886ff8595e4ae90e6137c96b69", "type": "electric_scooter", "is_disabled": 0, "lat": 38.9302305, "rental_uris": {"android": "https://dc.lft.to/lastmile_qr_scan", "ios": "https://dc.lft.to/lastmile_qr_scan"}, "bike_id": "505d69886ff8595e4ae90e6137c96b69", "lon": -77.0553435}, {"is_reserved": 0, "fusion_lon": 0.0, "fusion_lat": 0.0, "name": "268fcefad53e739fdc287b95f39250b2", "type": "electric_scooter", "is_disabled": 0, "lat": 38.924525, "rental_uris": {"android": "https://dc.lft.to/lastmile_qr_scan", "ios": "https://dc.lft.to/lastmile_qr_scan"}, "bike_id": "268fcefad53e739fdc287b95f39250b2", "lon": -77.0215685}, {"is_reserved": 0, "fusion_lon": 0.0, "fusion_lat": 0.0, "name": "dda02dfd52a19d6d7846489391d9a248", "type": "electric_scooter", "is_disabled": 0, "lat": 38.938779833333335, "rental_uris": {"android": "https://dc.lft.to/lastmile_qr_scan", "ios": "https://dc.lft.to/lastmile_qr_scan"}, "bike_id": "dda02dfd52a19d6d7846489391d9a248", "lon": -77.02512033333333}, {"is_reserved": 0, "fusion_lon": 0.0, "fusion_lat": 0.0, "name": "5f0b9438eda1b05b543376613c0d7645", "type": "electric_scooter", "is_disabled": 0, "lat": 38.866628166666665, "rental_uris": {"android": "https://dc.lft.to/lastmile_qr_scan", "ios": "https://dc.lft.to/lastmile_qr_scan"}, "bike_id": "5f0b9438eda1b05b543376613c0d7645", "lon": -76.98881683333333}, {"is_reserved": 0, "fusion_lon": 0.0, "fusion_lat": 0.0, "name": "1dd12ddf5b4f7b84f017fcc20862ceda", "type": "electric_bike", "is_disabled": 0, "lat": 38.84564183333333, "rental_uris": {"android": "https://dc.lft.to/lastmile_qr_scan", "ios": "https://dc.lft.to/lastmile_qr_scan"}, "bike_id": "1dd12ddf5b4f7b84f017fcc20862ceda", "lon": -77.0669345}, {"is_reserved": 0, "fusion_lon": 0.0, "fusion_lat": 0.0, "name": "57ccad9ad628ecd8d57ef4905b9333ea", "type": "electric_scooter", "is_disabled": 0, "lat": 38.94186083333334, "rental_uris": {"android": "https://dc.lft.to/lastmile_qr_scan", "ios": "https://dc.lft.to/lastmile_qr_scan"}, "bike_id": "57ccad9ad628ecd8d57ef4905b9333ea", "lon": -77.02492183333334}, {"is_reserved": 0, "fusion_lon": 0.0, "fusion_lat": 0.0, "name": "25f2fe51269d90af36b580cb02ada9e0", "type": "electric_scooter", "is_disabled": 0, "lat": 38.90464866666667, "rental_uris": {"android": "https://dc.lft.to/lastmile_qr_scan", "ios": "https://dc.lft.to/lastmile_qr_scan"}, "bike_id": "25f2fe51269d90af36b580cb02ada9e0", "lon": -77.04818383333334}, {"is_reserved": 0, "fusion_lon": 0.0, "fusion_lat": 0.0, "name": "f9a94ae622eec069e210edc2bcff7fce", "type": "electric_bike", "is_disabled": 0, "lat": 38.9934685, "rental_uris": {"android": "https://dc.lft.to/lastmile_qr_scan", "ios": "https://dc.lft.to/lastmile_qr_scan"}, "bike_id": "f9a94ae622eec069e210edc2bcff7fce", "lon": -77.115792}, {"is_reserved": 0, "fusion_lon": 0.0, "fusion_lat": 0.0, "name": "4ebf107a556f9939d1d794caa0a761a4", "type": "electric_scooter", "is_disabled": 0, "lat": 38.90280083333333, "rental_uris": {"android": "https://dc.lft.to/lastmile_qr_scan", "ios": "https://dc.lft.to/lastmile_qr_scan"}, "bike_id": "4ebf107a556f9939d1d794caa0a761a4", "lon": -77.033564}, {"is_reserved": 0, "fusion_lon": 0.0, "fusion_lat": 0.0, "name": "7a1d33bf8ca8e03a4fbf6ae677a1edc4", "type": "electric_bike", "is_disabled": 0, "lat": 38.81205583333333, "rental_uris": {"android": "https://dc.lft.to/lastmile_qr_scan", "ios": "https://dc.lft.to/lastmile_qr_scan"}, "bike_id": "7a1d33bf8ca8e03a4fbf6ae677a1edc4", "lon": -77.10837066666667}, {"is_reserved": 0, "fusion_lon": 0.0, "fusion_lat": 0.0, "name": "2bf0fda7f3a7824e78f72d77b6a667a2", "type": "electric_scooter", "is_disabled": 0, "lat": 38.90975066666667, "rental_uris": {"android": "https://dc.lft.to/lastmile_qr_scan", "ios": "https://dc.lft.to/lastmile_qr_scan"}, "bike_id": "2bf0fda7f3a7824e78f72d77b6a667a2", "lon": -77.03445016666667}, {"is_reserved": 0, "fusion_lon": 0.0, "fusion_lat": 0.0, "name": "f8069a532b8777b95dc6252008dbbd53", "type": "electric_scooter", "is_disabled": 0, "lat": 38.901510333333334, "rental_uris": {"android": "https://dc.lft.to/lastmile_qr_scan", "ios": "https://dc.lft.to/lastmile_qr_scan"}, "bike_id": "f8069a532b8777b95dc6252008dbbd53", "lon": -77.0400335}, {"is_reserved": 0, "fusion_lon": 0.0, "fusion_lat": 0.0, "name": "66022cd5e377c5ea142296e3c4f03682", "type": "electric_scooter", "is_disabled": 0, "lat": 38.9022825, "rental_uris": {"android": "https://dc.lft.to/lastmile_qr_scan", "ios": "https://dc.lft.to/lastmile_qr_scan"}, "bike_id": "66022cd5e377c5ea142296e3c4f03682", "lon": -77.04409516666666}, {"is_reserved": 0, "fusion_lon": 0.0, "fusion_lat": 0.0, "name": "0c034cbbcb90e01e199a5307f9f3ea6a", "type": "electric_bike", "is_disabled": 0, "lat": 38.964717666666665, "rental_uris": {"android": "https://dc.lft.to/lastmile_qr_scan", "ios": "https://dc.lft.to/lastmile_qr_scan"}, "bike_id": "0c034cbbcb90e01e199a5307f9f3ea6a", "lon": -77.0356695}, {"is_reserved": 0, "fusion_lon": 0.0, "fusion_lat": 0.0, "name": "0bada08775466585f515aa5c245e54bd", "type": "electric_scooter", "is_disabled": 0, "lat": 38.90575666666667, "rental_uris": {"android": "https://dc.lft.to/lastmile_qr_scan", "ios": "https://dc.lft.to/lastmile_qr_scan"}, "bike_id": "0bada08775466585f515aa5c245e54bd", "lon": -77.041394}, {"is_reserved": 0, "fusion_lon": 0.0, "fusion_lat": 0.0, "name": "1c900208aa064a670867c82f10085154", "type": "electric_scooter", "is_disabled": 0, "lat": 38.89644033333333, "rental_uris": {"android": "https://dc.lft.to/lastmile_qr_scan", "ios": "https://dc.lft.to/lastmile_qr_scan"}, "bike_id": "1c900208aa064a670867c82f10085154", "lon": -77.02202866666667}, {"is_reserved": 0, "fusion_lon": 0.0, "fusion_lat": 0.0, "name": "c8a0182ba63c7758df498d03db0b4069", "type": "electric_scooter", "is_disabled": 0, "lat": 38.91574633333333, "rental_uris": {"android": "https://dc.lft.to/lastmile_qr_scan", "ios": "https://dc.lft.to/lastmile_qr_scan"}, "bike_id": "c8a0182ba63c7758df498d03db0b4069", "lon": -77.03190483333333}, {"is_reserved": 0, "fusion_lon": 0.0, "fusion_lat": 0.0, "name": "4adc60efbd46c25616048ce2c4f671b6", "type": "electric_bike", "is_disabled": 0, "lat": 38.949015333333335, "rental_uris": {"android": "https://dc.lft.to/lastmile_qr_scan", "ios": "https://dc.lft.to/lastmile_qr_scan"}, "bike_id": "4adc60efbd46c25616048ce2c4f671b6", "lon": -77.0344715}, {"is_reserved": 0, "fusion_lon": 0.0, "fusion_lat": 0.0, "name": "e4de82fd15ca4437ebe71da49c187112", "type": "electric_scooter", "is_disabled": 0, "lat": 38.898532833333334, "rental_uris": {"android": "https://dc.lft.to/lastmile_qr_scan", "ios": "https://dc.lft.to/lastmile_qr_scan"}, "bike_id": "e4de82fd15ca4437ebe71da49c187112", "lon": -77.03944883333334}, {"is_reserved": 0, "fusion_lon": 0.0, "fusion_lat": 0.0, "name": "be9e2c340b39d756e1ca48d24de33fe9", "type": "electric_scooter", "is_disabled": 0, "lat": 38.8820535, "rental_uris": {"android": "https://dc.lft.to/lastmile_qr_scan", "ios": "https://dc.lft.to/lastmile_qr_scan"}, "bike_id": "be9e2c340b39d756e1ca48d24de33fe9", "lon": -76.9270535}, {"is_reserved": 0, "fusion_lon": 0.0, "fusion_lat": 0.0, "name": "0bf561d2c3508df62a26588af6d62f0f", "type": "electric_scooter", "is_disabled": 0, "lat": 38.898553, "rental_uris": {"android": "https://dc.lft.to/lastmile_qr_scan", "ios": "https://dc.lft.to/lastmile_qr_scan"}, "bike_id": "0bf561d2c3508df62a26588af6d62f0f", "lon": -77.039455}, {"is_reserved": 0, "fusion_lon": 0.0, "fusion_lat": 0.0, "name": "7cca779e0f5845dd0b5b97dba471f396", "type": "electric_scooter", "is_disabled": 0, "lat": 38.95937, "rental_uris": {"android": "https://dc.lft.to/lastmile_qr_scan", "ios": "https://dc.lft.to/lastmile_qr_scan"}, "bike_id": "7cca779e0f5845dd0b5b97dba471f396", "lon": -77.0312295}, {"is_reserved": 0, "fusion_lon": 0.0, "fusion_lat": 0.0, "name": "e9ecda6551bab53e708b1bf9da04b646", "type": "electric_scooter", "is_disabled": 0, "lat": 38.90777116666667, "rental_uris": {"android": "https://dc.lft.to/lastmile_qr_scan", "ios": "https://dc.lft.to/lastmile_qr_scan"}, "bike_id": "e9ecda6551bab53e708b1bf9da04b646", "lon": -77.03825083333334}, {"is_reserved": 0, "fusion_lon": 0.0, "fusion_lat": 0.0, "name": "7edd5167b3b03471d65f412dff541fc1", "type": "electric_scooter", "is_disabled": 0, "lat": 38.8990045, "rental_uris": {"android": "https://dc.lft.to/lastmile_qr_scan", "ios": "https://dc.lft.to/lastmile_qr_scan"}, "bike_id": "7edd5167b3b03471d65f412dff541fc1", "lon": -77.0318465}, {"is_reserved": 0, "fusion_lon": 0.0, "fusion_lat": 0.0, "name": "09f825075567939bfb802a4e91e75aef", "type": "electric_scooter", "is_disabled": 0, "lat": 38.873691666666666, "rental_uris": {"android": "https://dc.lft.to/lastmile_qr_scan", "ios": "https://dc.lft.to/lastmile_qr_scan"}, "bike_id": "09f825075567939bfb802a4e91e75aef", "lon": -76.97020616666667}, {"is_reserved": 0, "fusion_lon": 0.0, "fusion_lat": 0.0, "name": "ab0df81322c0cda8c2a84371dd2ebeca", "type": "electric_scooter", "is_disabled": 0, "lat": 38.90939616666667, "rental_uris": {"android": "https://dc.lft.to/lastmile_qr_scan", "ios": "https://dc.lft.to/lastmile_qr_scan"}, "bike_id": "ab0df81322c0cda8c2a84371dd2ebeca", "lon": -77.0307905}, {"is_reserved": 0, "fusion_lon": 0.0, "fusion_lat": 0.0, "name": "165b2cd22e6a45bc88b0bccd0ca6f733", "type": "electric_scooter", "is_disabled": 0, "lat": 38.92400716666667, "rental_uris": {"android": "https://dc.lft.to/lastmile_qr_scan", "ios": "https://dc.lft.to/lastmile_qr_scan"}, "bike_id": "165b2cd22e6a45bc88b0bccd0ca6f733", "lon": -77.02453516666667}, {"is_reserved": 0, "fusion_lon": 0.0, "fusion_lat": 0.0, "name": "77656cf6cd0a46094e28e183a248e8c4", "type": "electric_scooter", "is_disabled": 0, "lat": 38.8955865, "rental_uris": {"android": "https://dc.lft.to/lastmile_qr_scan", "ios": "https://dc.lft.to/lastmile_qr_scan"}, "bike_id": "77656cf6cd0a46094e28e183a248e8c4", "lon": -76.99845066666667}, {"is_reserved": 0, "fusion_lon": 0.0, "fusion_lat": 0.0, "name": "c9d8913ede7d3c993738887ec58761aa", "type": "electric_scooter", "is_disabled": 0, "lat": 38.900389833333335, "rental_uris": {"android": "https://dc.lft.to/lastmile_qr_scan", "ios": "https://dc.lft.to/lastmile_qr_scan"}, "bike_id": "c9d8913ede7d3c993738887ec58761aa", "lon": -77.024077}, {"is_reserved": 0, "fusion_lon": 0.0, "fusion_lat": 0.0, "name": "d28c64639c4a01223a3e2ef80dda214c", "type": "electric_scooter", "is_disabled": 0, "lat": 38.94297483333333, "rental_uris": {"android": "https://dc.lft.to/lastmile_qr_scan", "ios": "https://dc.lft.to/lastmile_qr_scan"}, "bike_id": "d28c64639c4a01223a3e2ef80dda214c", "lon": -77.021729}, {"is_reserved": 0, "fusion_lon": 0.0, "fusion_lat": 0.0, "name": "0cda5305275a8eeb123efa6c2031a8f3", "type": "electric_scooter", "is_disabled": 0, "lat": 38.91758216666667, "rental_uris": {"android": "https://dc.lft.to/lastmile_qr_scan", "ios": "https://dc.lft.to/lastmile_qr_scan"}, "bike_id": "0cda5305275a8eeb123efa6c2031a8f3", "lon": -77.0122685}, {"is_reserved": 0, "fusion_lon": 0.0, "fusion_lat": 0.0, "name": "43e2cbf73a97508bf0ac30c855aada44", "type": "electric_scooter", "is_disabled": 0, "lat": 38.875489, "rental_uris": {"android": "https://dc.lft.to/lastmile_qr_scan", "ios": "https://dc.lft.to/lastmile_qr_scan"}, "bike_id": "43e2cbf73a97508bf0ac30c855aada44", "lon": -77.00536866666667}, {"is_reserved": 0, "fusion_lon": 0.0, "fusion_lat": 0.0, "name": "51b7fa36c01bca3598d0fbfd61feabd5", "type": "electric_scooter", "is_disabled": 0, "lat": 38.900119333333336, "rental_uris": {"android": "https://dc.lft.to/lastmile_qr_scan", "ios": "https://dc.lft.to/lastmile_qr_scan"}, "bike_id": "51b7fa36c01bca3598d0fbfd61feabd5", "lon": -77.04139066666667}, {"is_reserved": 0, "fusion_lon": 0.0, "fusion_lat": 0.0, "name": "8f779778c012475a5b258c95acc1523d", "type": "electric_scooter", "is_disabled": 0, "lat": 38.8847955, "rental_uris": {"android": "https://dc.lft.to/lastmile_qr_scan", "ios": "https://dc.lft.to/lastmile_qr_scan"}, "bike_id": "8f779778c012475a5b258c95acc1523d", "lon": -77.01996666666666}, {"is_reserved": 0, "fusion_lon": 0.0, "fusion_lat": 0.0, "name": "a9955b965374531e557cea32de15bc82", "type": "electric_scooter", "is_disabled": 0, "lat": 38.90435633333333, "rental_uris": {"android": "https://dc.lft.to/lastmile_qr_scan", "ios": "https://dc.lft.to/lastmile_qr_scan"}, "bike_id": "a9955b965374531e557cea32de15bc82", "lon": -77.04377616666666}, {"is_reserved": 0, "fusion_lon": 0.0, "fusion_lat": 0.0, "name": "37b821c62fc6c7997d75a26365e90a86", "type": "electric_scooter", "is_disabled": 0, "lat": 38.894740666666664, "rental_uris": {"android": "https://dc.lft.to/lastmile_qr_scan", "ios": "https://dc.lft.to/lastmile_qr_scan"}, "bike_id": "37b821c62fc6c7997d75a26365e90a86", "lon": -77.00137166666667}, {"is_reserved": 0, "fusion_lon": 0.0, "fusion_lat": 0.0, "name": "c1f841f130d75ab9f297bdeee047ec6a", "type": "electric_scooter", "is_disabled": 0, "lat": 38.92252033333333, "rental_uris": {"android": "https://dc.lft.to/lastmile_qr_scan", "ios": "https://dc.lft.to/lastmile_qr_scan"}, "bike_id": "c1f841f130d75ab9f297bdeee047ec6a", "lon": -77.01845516666667}, {"is_reserved": 0, "fusion_lon": 0.0, "fusion_lat": 0.0, "name": "954d9cee102f04cd9695daba094c7f4f", "type": "electric_scooter", "is_disabled": 0, "lat": 38.94204833333333, "rental_uris": {"android": "https://dc.lft.to/lastmile_qr_scan", "ios": "https://dc.lft.to/lastmile_qr_scan"}, "bike_id": "954d9cee102f04cd9695daba094c7f4f", "lon": -77.02513733333333}, {"is_reserved": 0, "fusion_lon": 0.0, "fusion_lat": 0.0, "name": "66e61a6d58026fa9490aa13f0f8e9cbf", "type": "electric_scooter", "is_disabled": 0, "lat": 38.911798166666664, "rental_uris": {"android": "https://dc.lft.to/lastmile_qr_scan", "ios": "https://dc.lft.to/lastmile_qr_scan"}, "bike_id": "66e61a6d58026fa9490aa13f0f8e9cbf", "lon": -77.043502}, {"is_reserved": 0, "fusion_lon": 0.0, "fusion_lat": 0.0, "name": "daeacefebf30b6d599844b973a3994c5", "type": "electric_scooter", "is_disabled": 0, "lat": 38.89236266666666, "rental_uris": {"android": "https://dc.lft.to/lastmile_qr_scan", "ios": "https://dc.lft.to/lastmile_qr_scan"}, "bike_id": "daeacefebf30b6d599844b973a3994c5", "lon": -77.03186316666667}, {"is_reserved": 0, "fusion_lon": 0.0, "fusion_lat": 0.0, "name": "24398335e9c19eeeb37fe0790c0ae520", "type": "electric_scooter", "is_disabled": 0, "lat": 38.86640283333333, "rental_uris": {"android": "https://dc.lft.to/lastmile_qr_scan", "ios": "https://dc.lft.to/lastmile_qr_scan"}, "bike_id": "24398335e9c19eeeb37fe0790c0ae520", "lon": -76.9826855}, {"is_reserved": 0, "fusion_lon": 0.0, "fusion_lat": 0.0, "name": "b3d422911ab7d8207ad2b650ccbb8189", "type": "electric_scooter", "is_disabled": 0, "lat": 38.90982833333333, "rental_uris": {"android": "https://dc.lft.to/lastmile_qr_scan", "ios": "https://dc.lft.to/lastmile_qr_scan"}, "bike_id": "b3d422911ab7d8207ad2b650ccbb8189", "lon": -77.03193883333333}, {"is_reserved": 0, "fusion_lon": 0.0, "fusion_lat": 0.0, "name": "cfdfe206d667d74b23b513db52ffd36d", "type": "electric_scooter", "is_disabled": 0, "lat": 38.8991565, "rental_uris": {"android": "https://dc.lft.to/lastmile_qr_scan", "ios": "https://dc.lft.to/lastmile_qr_scan"}, "bike_id": "cfdfe206d667d74b23b513db52ffd36d", "lon": -76.93368866666667}, {"is_reserved": 0, "fusion_lon": 0.0, "fusion_lat": 0.0, "name": "2d45c191a10ab764f2a0eda172f97f1a", "type": "electric_scooter", "is_disabled": 0, "lat": 38.90566466666667, "rental_uris": {"android": "https://dc.lft.to/lastmile_qr_scan", "ios": "https://dc.lft.to/lastmile_qr_scan"}, "bike_id": "2d45c191a10ab764f2a0eda172f97f1a", "lon": -77.022174}, {"is_reserved": 0, "fusion_lon": 0.0, "fusion_lat": 0.0, "name": "df7d2868b5c3448d1f4f15795052fe8e", "type": "electric_scooter", "is_disabled": 0, "lat": 38.90156916666667, "rental_uris": {"android": "https://dc.lft.to/lastmile_qr_scan", "ios": "https://dc.lft.to/lastmile_qr_scan"}, "bike_id": "df7d2868b5c3448d1f4f15795052fe8e", "lon": -76.9763295}, {"is_reserved": 0, "fusion_lon": 0.0, "fusion_lat": 0.0, "name": "b053e401dcb64d06a2c9fa67d8872b9c", "type": "electric_scooter", "is_disabled": 0, "lat": 38.895284333333336, "rental_uris": {"android": "https://dc.lft.to/lastmile_qr_scan", "ios": "https://dc.lft.to/lastmile_qr_scan"}, "bike_id": "b053e401dcb64d06a2c9fa67d8872b9c", "lon": -77.0033895}, {"is_reserved": 0, "fusion_lon": 0.0, "fusion_lat": 0.0, "name": "dda6b8ba603a6cef42db91480d7ff6fe", "type": "electric_scooter", "is_disabled": 0, "lat": 38.906482833333335, "rental_uris": {"android": "https://dc.lft.to/lastmile_qr_scan", "ios": "https://dc.lft.to/lastmile_qr_scan"}, "bike_id": "dda6b8ba603a6cef42db91480d7ff6fe", "lon": -77.0060555}, {"is_reserved": 0, "fusion_lon": 0.0, "fusion_lat": 0.0, "name": "0a2ebb626c4d7063f752c21909b92946", "type": "electric_scooter", "is_disabled": 0, "lat": 38.924072333333335, "rental_uris": {"android": "https://dc.lft.to/lastmile_qr_scan", "ios": "https://dc.lft.to/lastmile_qr_scan"}, "bike_id": "0a2ebb626c4d7063f752c21909b92946", "lon": -77.02697166666667}, {"is_reserved": 0, "fusion_lon": 0.0, "fusion_lat": 0.0, "name": "2744c32a31397df80923177162a23706", "type": "electric_scooter", "is_disabled": 0, "lat": 38.915695666666664, "rental_uris": {"android": "https://dc.lft.to/lastmile_qr_scan", "ios": "https://dc.lft.to/lastmile_qr_scan"}, "bike_id": "2744c32a31397df80923177162a23706", "lon": -77.02382}, {"is_reserved": 0, "fusion_lon": 0.0, "fusion_lat": 0.0, "name": "c9a3ad55fc4dfd8f8336a84a0ed0ff2b", "type": "electric_scooter", "is_disabled": 0, "lat": 38.901431, "rental_uris": {"android": "https://dc.lft.to/lastmile_qr_scan", "ios": "https://dc.lft.to/lastmile_qr_scan"}, "bike_id": "c9a3ad55fc4dfd8f8336a84a0ed0ff2b", "lon": -77.0001095}, {"is_reserved": 0, "fusion_lon": 0.0, "fusion_lat": 0.0, "name": "36f550e64370198e09d720363c2d5ec4", "type": "electric_scooter", "is_disabled": 0, "lat": 38.928406333333335, "rental_uris": {"android": "https://dc.lft.to/lastmile_qr_scan", "ios": "https://dc.lft.to/lastmile_qr_scan"}, "bike_id": "36f550e64370198e09d720363c2d5ec4", "lon": -77.01396633333333}, {"is_reserved": 0, "fusion_lon": 0.0, "fusion_lat": 0.0, "name": "b0180e79d674ef712c47bf7f381d0853", "type": "electric_scooter", "is_disabled": 0, "lat": 38.90028916666667, "rental_uris": {"android": "https://dc.lft.to/lastmile_qr_scan", "ios": "https://dc.lft.to/lastmile_qr_scan"}, "bike_id": "b0180e79d674ef712c47bf7f381d0853", "lon": -77.03372233333333}, {"is_reserved": 0, "fusion_lon": 0.0, "fusion_lat": 0.0, "name": "86b8d59f95514191936e1c786ac781ed", "type": "electric_scooter", "is_disabled": 0, "lat": 38.910823666666666, "rental_uris": {"android": "https://dc.lft.to/lastmile_qr_scan", "ios": "https://dc.lft.to/lastmile_qr_scan"}, "bike_id": "86b8d59f95514191936e1c786ac781ed", "lon": -77.0654715}, {"is_reserved": 0, "fusion_lon": 0.0, "fusion_lat": 0.0, "name": "7355a294b60bdf02f84707b82d35a455", "type": "electric_bike", "is_disabled": 0, "lat": 38.89889, "rental_uris": {"android": "https://dc.lft.to/lastmile_qr_scan", "ios": "https://dc.lft.to/lastmile_qr_scan"}, "bike_id": "7355a294b60bdf02f84707b82d35a455", "lon": -77.0400425}, {"is_reserved": 0, "fusion_lon": 0.0, "fusion_lat": 0.0, "name": "4a362a988fdaaec6f7bdd2f46ea12503", "type": "electric_scooter", "is_disabled": 0, "lat": 38.91103483333333, "rental_uris": {"android": "https://dc.lft.to/lastmile_qr_scan", "ios": "https://dc.lft.to/lastmile_qr_scan"}, "bike_id": "4a362a988fdaaec6f7bdd2f46ea12503", "lon": -77.02201816666667}, {"is_reserved": 0, "fusion_lon": 0.0, "fusion_lat": 0.0, "name": "a80aa03c717a23d4e2cea65309391691", "type": "electric_scooter", "is_disabled": 0, "lat": 38.909916, "rental_uris": {"android": "https://dc.lft.to/lastmile_qr_scan", "ios": "https://dc.lft.to/lastmile_qr_scan"}, "bike_id": "a80aa03c717a23d4e2cea65309391691", "lon": -77.04872233333333}, {"is_reserved": 0, "fusion_lon": 0.0, "fusion_lat": 0.0, "name": "45374269677d42f1b2ee7390d09dde84", "type": "electric_scooter", "is_disabled": 0, "lat": 38.9021165, "rental_uris": {"android": "https://dc.lft.to/lastmile_qr_scan", "ios": "https://dc.lft.to/lastmile_qr_scan"}, "bike_id": "45374269677d42f1b2ee7390d09dde84", "lon": -76.976038}, {"is_reserved": 0, "fusion_lon": 0.0, "fusion_lat": 0.0, "name": "52876f1815cfce84964b1bc0f4957a1c", "type": "electric_scooter", "is_disabled": 0, "lat": 38.897652, "rental_uris": {"android": "https://dc.lft.to/lastmile_qr_scan", "ios": "https://dc.lft.to/lastmile_qr_scan"}, "bike_id": "52876f1815cfce84964b1bc0f4957a1c", "lon": -77.04661616666667}, {"is_reserved": 0, "fusion_lon": 0.0, "fusion_lat": 0.0, "name": "d9e4b5d5ba9b9130994df58f4ac0dd48", "type": "electric_scooter", "is_disabled": 0, "lat": 38.900730333333335, "rental_uris": {"android": "https://dc.lft.to/lastmile_qr_scan", "ios": "https://dc.lft.to/lastmile_qr_scan"}, "bike_id": "d9e4b5d5ba9b9130994df58f4ac0dd48", "lon": -77.01338216666667}, {"is_reserved": 0, "fusion_lon": 0.0, "fusion_lat": 0.0, "name": "9f88dcb6a3b7a158328c8767d1854a17", "type": "electric_scooter", "is_disabled": 0, "lat": 38.895427166666664, "rental_uris": {"android": "https://dc.lft.to/lastmile_qr_scan", "ios": "https://dc.lft.to/lastmile_qr_scan"}, "bike_id": "9f88dcb6a3b7a158328c8767d1854a17", "lon": -77.032635}, {"is_reserved": 0, "fusion_lon": 0.0, "fusion_lat": 0.0, "name": "b44221b5a961b90b80cfee76f703913d", "type": "electric_scooter", "is_disabled": 0, "lat": 38.88624216666667, "rental_uris": {"android": "https://dc.lft.to/lastmile_qr_scan", "ios": "https://dc.lft.to/lastmile_qr_scan"}, "bike_id": "b44221b5a961b90b80cfee76f703913d", "lon": -76.95584016666666}, {"is_reserved": 0, "fusion_lon": 0.0, "fusion_lat": 0.0, "name": "467f2eaace7e951d2359c9d793817aaa", "type": "electric_scooter", "is_disabled": 0, "lat": 38.887326, "rental_uris": {"android": "https://dc.lft.to/lastmile_qr_scan", "ios": "https://dc.lft.to/lastmile_qr_scan"}, "bike_id": "467f2eaace7e951d2359c9d793817aaa", "lon": -77.0282955}, {"is_reserved": 0, "fusion_lon": 0.0, "fusion_lat": 0.0, "name": "841e807ead618e1a243ec45796e3a612", "type": "electric_scooter", "is_disabled": 0, "lat": 38.867008166666665, "rental_uris": {"android": "https://dc.lft.to/lastmile_qr_scan", "ios": "https://dc.lft.to/lastmile_qr_scan"}, "bike_id": "841e807ead618e1a243ec45796e3a612", "lon": -76.985909}, {"is_reserved": 0, "fusion_lon": 0.0, "fusion_lat": 0.0, "name": "fcf7a4954c0cc439df497de75932513f", "type": "electric_bike", "is_disabled": 0, "lat": 38.80710966666667, "rental_uris": {"android": "https://dc.lft.to/lastmile_qr_scan", "ios": "https://dc.lft.to/lastmile_qr_scan"}, "bike_id": "fcf7a4954c0cc439df497de75932513f", "lon": -77.0617405}, {"is_reserved": 0, "fusion_lon": 0.0, "fusion_lat": 0.0, "name": "655e8bb3ddd995b6f5bda2b641d0b234", "type": "electric_scooter", "is_disabled": 0, "lat": 38.88305233333333, "rental_uris": {"android": "https://dc.lft.to/lastmile_qr_scan", "ios": "https://dc.lft.to/lastmile_qr_scan"}, "bike_id": "655e8bb3ddd995b6f5bda2b641d0b234", "lon": -77.031439}, {"is_reserved": 0, "fusion_lon": 0.0, "fusion_lat": 0.0, "name": "a7b283c71a841a1e4c181f75b0d25d8d", "type": "electric_bike", "is_disabled": 0, "lat": 38.8076585, "rental_uris": {"android": "https://dc.lft.to/lastmile_qr_scan", "ios": "https://dc.lft.to/lastmile_qr_scan"}, "bike_id": "a7b283c71a841a1e4c181f75b0d25d8d", "lon": -77.09469533333333}, {"is_reserved": 0, "fusion_lon": 0.0, "fusion_lat": 0.0, "name": "11f95e36af4dd6c3e624493468628a12", "type": "electric_scooter", "is_disabled": 0, "lat": 38.88230683333333, "rental_uris": {"android": "https://dc.lft.to/lastmile_qr_scan", "ios": "https://dc.lft.to/lastmile_qr_scan"}, "bike_id": "11f95e36af4dd6c3e624493468628a12", "lon": -76.9898155}, {"is_reserved": 0, "fusion_lon": 0.0, "fusion_lat": 0.0, "name": "b47f6e0cf6a4867c092820d8f3074ca5", "type": "electric_scooter", "is_disabled": 0, "lat": 38.90136283333333, "rental_uris": {"android": "https://dc.lft.to/lastmile_qr_scan", "ios": "https://dc.lft.to/lastmile_qr_scan"}, "bike_id": "b47f6e0cf6a4867c092820d8f3074ca5", "lon": -77.02992633333334}, {"is_reserved": 0, "fusion_lon": 0.0, "fusion_lat": 0.0, "name": "69ae62a5aae69128fa4dc88c35034081", "type": "electric_scooter", "is_disabled": 0, "lat": 38.89851216666667, "rental_uris": {"android": "https://dc.lft.to/lastmile_qr_scan", "ios": "https://dc.lft.to/lastmile_qr_scan"}, "bike_id": "69ae62a5aae69128fa4dc88c35034081", "lon": -76.98177683333333}, {"is_reserved": 0, "fusion_lon": 0.0, "fusion_lat": 0.0, "name": "6d907b843e5404283f1831c0da20eda5", "type": "electric_scooter", "is_disabled": 0, "lat": 38.9153955, "rental_uris": {"android": "https://dc.lft.to/lastmile_qr_scan", "ios": "https://dc.lft.to/lastmile_qr_scan"}, "bike_id": "6d907b843e5404283f1831c0da20eda5", "lon": -77.0363845}, {"is_reserved": 0, "fusion_lon": 0.0, "fusion_lat": 0.0, "name": "cdc90c6df6a3f8571346f625a9ea06be", "type": "electric_scooter", "is_disabled": 0, "lat": 38.917116666666665, "rental_uris": {"android": "https://dc.lft.to/lastmile_qr_scan", "ios": "https://dc.lft.to/lastmile_qr_scan"}, "bike_id": "cdc90c6df6a3f8571346f625a9ea06be", "lon": -77.03497516666667}, {"is_reserved": 0, "fusion_lon": 0.0, "fusion_lat": 0.0, "name": "734ec76070eb1530b619906a37950a49", "type": "electric_scooter", "is_disabled": 0, "lat": 38.91457333333334, "rental_uris": {"android": "https://dc.lft.to/lastmile_qr_scan", "ios": "https://dc.lft.to/lastmile_qr_scan"}, "bike_id": "734ec76070eb1530b619906a37950a49", "lon": -77.0217635}, {"is_reserved": 0, "fusion_lon": 0.0, "fusion_lat": 0.0, "name": "d8939f099db13be441b6d26e1b4e6f93", "type": "electric_scooter", "is_disabled": 0, "lat": 38.934308333333334, "rental_uris": {"android": "https://dc.lft.to/lastmile_qr_scan", "ios": "https://dc.lft.to/lastmile_qr_scan"}, "bike_id": "d8939f099db13be441b6d26e1b4e6f93", "lon": -77.0400015}, {"is_reserved": 0, "fusion_lon": 0.0, "fusion_lat": 0.0, "name": "70594c89ff7a1a7adf496a73101f1946", "type": "electric_scooter", "is_disabled": 0, "lat": 38.955292166666666, "rental_uris": {"android": "https://dc.lft.to/lastmile_qr_scan", "ios": "https://dc.lft.to/lastmile_qr_scan"}, "bike_id": "70594c89ff7a1a7adf496a73101f1946", "lon": -77.02217383333333}, {"is_reserved": 0, "fusion_lon": 0.0, "fusion_lat": 0.0, "name": "1c6648436c1760dc8339980cf1d2f304", "type": "electric_scooter", "is_disabled": 0, "lat": 38.898663666666664, "rental_uris": {"android": "https://dc.lft.to/lastmile_qr_scan", "ios": "https://dc.lft.to/lastmile_qr_scan"}, "bike_id": "1c6648436c1760dc8339980cf1d2f304", "lon": -76.99014833333334}, {"is_reserved": 0, "fusion_lon": 0.0, "fusion_lat": 0.0, "name": "a431c0a893120520f15fc4195c9e6992", "type": "electric_scooter", "is_disabled": 0, "lat": 38.8923285, "rental_uris": {"android": "https://dc.lft.to/lastmile_qr_scan", "ios": "https://dc.lft.to/lastmile_qr_scan"}, "bike_id": "a431c0a893120520f15fc4195c9e6992", "lon": -77.045155}, {"is_reserved": 0, "fusion_lon": 0.0, "fusion_lat": 0.0, "name": "0fe6091d64761c8206831aea8ca9d93c", "type": "electric_scooter", "is_disabled": 0, "lat": 38.89226016666667, "rental_uris": {"android": "https://dc.lft.to/lastmile_qr_scan", "ios": "https://dc.lft.to/lastmile_qr_scan"}, "bike_id": "0fe6091d64761c8206831aea8ca9d93c", "lon": -77.04312883333333}, {"is_reserved": 0, "fusion_lon": 0.0, "fusion_lat": 0.0, "name": "bd6e5cdbd753c9b2b8a3423f36f4d841", "type": "electric_scooter", "is_disabled": 0, "lat": 38.88492333333333, "rental_uris": {"android": "https://dc.lft.to/lastmile_qr_scan", "ios": "https://dc.lft.to/lastmile_qr_scan"}, "bike_id": "bd6e5cdbd753c9b2b8a3423f36f4d841", "lon": -77.00711516666667}, {"is_reserved": 0, "fusion_lon": 0.0, "fusion_lat": 0.0, "name": "643a680e5e8d365368e6549262c3ffde", "type": "electric_scooter", "is_disabled": 0, "lat": 38.9075255, "rental_uris": {"android": "https://dc.lft.to/lastmile_qr_scan", "ios": "https://dc.lft.to/lastmile_qr_scan"}, "bike_id": "643a680e5e8d365368e6549262c3ffde", "lon": -77.04557916666667}, {"is_reserved": 0, "fusion_lon": 0.0, "fusion_lat": 0.0, "name": "6cdda4731ab06c514500e69c72b01ee1", "type": "electric_scooter", "is_disabled": 0, "lat": 38.90235, "rental_uris": {"android": "https://dc.lft.to/lastmile_qr_scan", "ios": "https://dc.lft.to/lastmile_qr_scan"}, "bike_id": "6cdda4731ab06c514500e69c72b01ee1", "lon": -76.98938433333333}, {"is_reserved": 0, "fusion_lon": 0.0, "fusion_lat": 0.0, "name": "32e1447ee5c1e742d1f8d35b620a423c", "type": "electric_scooter", "is_disabled": 0, "lat": 38.90475683333333, "rental_uris": {"android": "https://dc.lft.to/lastmile_qr_scan", "ios": "https://dc.lft.to/lastmile_qr_scan"}, "bike_id": "32e1447ee5c1e742d1f8d35b620a423c", "lon": -77.0356135}, {"is_reserved": 0, "fusion_lon": 0.0, "fusion_lat": 0.0, "name": "b5896bfe6bc23f54ce9e73fce1f0c1f3", "type": "electric_scooter", "is_disabled": 0, "lat": 38.9039175, "rental_uris": {"android": "https://dc.lft.to/lastmile_qr_scan", "ios": "https://dc.lft.to/lastmile_qr_scan"}, "bike_id": "b5896bfe6bc23f54ce9e73fce1f0c1f3", "lon": -77.03851233333333}, {"is_reserved": 0, "fusion_lon": 0.0, "fusion_lat": 0.0, "name": "a446b07fec37cbed5a44702c8e559122", "type": "electric_scooter", "is_disabled": 0, "lat": 38.9001655, "rental_uris": {"android": "https://dc.lft.to/lastmile_qr_scan", "ios": "https://dc.lft.to/lastmile_qr_scan"}, "bike_id": "a446b07fec37cbed5a44702c8e559122", "lon": -77.0030315}, {"is_reserved": 0, "fusion_lon": 0.0, "fusion_lat": 0.0, "name": "61b91cb811acc1c144061d536895ecab", "type": "electric_scooter", "is_disabled": 0, "lat": 38.902628666666665, "rental_uris": {"android": "https://dc.lft.to/lastmile_qr_scan", "ios": "https://dc.lft.to/lastmile_qr_scan"}, "bike_id": "61b91cb811acc1c144061d536895ecab", "lon": -77.03889333333333}, {"is_reserved": 0, "fusion_lon": 0.0, "fusion_lat": 0.0, "name": "ffd6e772887da3df2b7d7b5b6dbab93c", "type": "electric_scooter", "is_disabled": 0, "lat": 38.903821666666666, "rental_uris": {"android": "https://dc.lft.to/lastmile_qr_scan", "ios": "https://dc.lft.to/lastmile_qr_scan"}, "bike_id": "ffd6e772887da3df2b7d7b5b6dbab93c", "lon": -77.03851483333334}, {"is_reserved": 0, "fusion_lon": 0.0, "fusion_lat": 0.0, "name": "8f0b69a269daed7c096e38ab940e0418", "type": "electric_scooter", "is_disabled": 0, "lat": 38.93701133333333, "rental_uris": {"android": "https://dc.lft.to/lastmile_qr_scan", "ios": "https://dc.lft.to/lastmile_qr_scan"}, "bike_id": "8f0b69a269daed7c096e38ab940e0418", "lon": -77.0241035}, {"is_reserved": 0, "fusion_lon": 0.0, "fusion_lat": 0.0, "name": "ce7e17e5e9f7b1be544de3a9664b74cd", "type": "electric_scooter", "is_disabled": 0, "lat": 38.900844666666664, "rental_uris": {"android": "https://dc.lft.to/lastmile_qr_scan", "ios": "https://dc.lft.to/lastmile_qr_scan"}, "bike_id": "ce7e17e5e9f7b1be544de3a9664b74cd", "lon": -76.99366416666666}, {"is_reserved": 0, "fusion_lon": 0.0, "fusion_lat": 0.0, "name": "6b48ea3386ef4ef6d608973978ce1fe3", "type": "electric_scooter", "is_disabled": 0, "lat": 38.89208383333333, "rental_uris": {"android": "https://dc.lft.to/lastmile_qr_scan", "ios": "https://dc.lft.to/lastmile_qr_scan"}, "bike_id": "6b48ea3386ef4ef6d608973978ce1fe3", "lon": -77.00291083333333}, {"is_reserved": 0, "fusion_lon": 0.0, "fusion_lat": 0.0, "name": "8667f7b493e67ae0384c389601465a39", "type": "electric_scooter", "is_disabled": 0, "lat": 38.93066816666666, "rental_uris": {"android": "https://dc.lft.to/lastmile_qr_scan", "ios": "https://dc.lft.to/lastmile_qr_scan"}, "bike_id": "8667f7b493e67ae0384c389601465a39", "lon": -77.03815766666666}, {"is_reserved": 0, "fusion_lon": 0.0, "fusion_lat": 0.0, "name": "dbb50c5c3c8aa7ef5249f719d217b86b", "type": "electric_scooter", "is_disabled": 0, "lat": 38.89867316666667, "rental_uris": {"android": "https://dc.lft.to/lastmile_qr_scan", "ios": "https://dc.lft.to/lastmile_qr_scan"}, "bike_id": "dbb50c5c3c8aa7ef5249f719d217b86b", "lon": -76.94660633333334}, {"is_reserved": 0, "fusion_lon": 0.0, "fusion_lat": 0.0, "name": "e3667315c6268d0c56d82a4ba3d4d7a8", "type": "electric_scooter", "is_disabled": 0, "lat": 38.92470183333333, "rental_uris": {"android": "https://dc.lft.to/lastmile_qr_scan", "ios": "https://dc.lft.to/lastmile_qr_scan"}, "bike_id": "e3667315c6268d0c56d82a4ba3d4d7a8", "lon": -77.02207916666667}, {"is_reserved": 0, "fusion_lon": 0.0, "fusion_lat": 0.0, "name": "5b2cfbcedb9657f9337b46d90acdafae", "type": "electric_scooter", "is_disabled": 0, "lat": 38.921638, "rental_uris": {"android": "https://dc.lft.to/lastmile_qr_scan", "ios": "https://dc.lft.to/lastmile_qr_scan"}, "bike_id": "5b2cfbcedb9657f9337b46d90acdafae", "lon": -77.033813}, {"is_reserved": 0, "fusion_lon": 0.0, "fusion_lat": 0.0, "name": "f1a6aaaad5902b07473b1e9bc408b82b", "type": "electric_scooter", "is_disabled": 0, "lat": 38.88580833333333, "rental_uris": {"android": "https://dc.lft.to/lastmile_qr_scan", "ios": "https://dc.lft.to/lastmile_qr_scan"}, "bike_id": "f1a6aaaad5902b07473b1e9bc408b82b", "lon": -77.02013166666667}, {"is_reserved": 0, "fusion_lon": 0.0, "fusion_lat": 0.0, "name": "82ae0518d6a9e58a99ade75b213faa07", "type": "electric_scooter", "is_disabled": 0, "lat": 38.900548, "rental_uris": {"android": "https://dc.lft.to/lastmile_qr_scan", "ios": "https://dc.lft.to/lastmile_qr_scan"}, "bike_id": "82ae0518d6a9e58a99ade75b213faa07", "lon": -77.0436485}, {"is_reserved": 0, "fusion_lon": 0.0, "fusion_lat": 0.0, "name": "0c5522a020ed49ed6f12c46e1fc139e2", "type": "electric_scooter", "is_disabled": 0, "lat": 38.917025, "rental_uris": {"android": "https://dc.lft.to/lastmile_qr_scan", "ios": "https://dc.lft.to/lastmile_qr_scan"}, "bike_id": "0c5522a020ed49ed6f12c46e1fc139e2", "lon": -77.01170566666667}, {"is_reserved": 0, "fusion_lon": 0.0, "fusion_lat": 0.0, "name": "47143ee5cece50091cd671b7bd2c36a0", "type": "electric_scooter", "is_disabled": 0, "lat": 38.903240833333335, "rental_uris": {"android": "https://dc.lft.to/lastmile_qr_scan", "ios": "https://dc.lft.to/lastmile_qr_scan"}, "bike_id": "47143ee5cece50091cd671b7bd2c36a0", "lon": -77.03491233333334}, {"is_reserved": 0, "fusion_lon": 0.0, "fusion_lat": 0.0, "name": "320355c45bd7c6822e275ffc2fde9aae", "type": "electric_scooter", "is_disabled": 0, "lat": 38.91628716666666, "rental_uris": {"android": "https://dc.lft.to/lastmile_qr_scan", "ios": "https://dc.lft.to/lastmile_qr_scan"}, "bike_id": "320355c45bd7c6822e275ffc2fde9aae", "lon": -77.01088883333334}, {"is_reserved": 0, "fusion_lon": 0.0, "fusion_lat": 0.0, "name": "b729966c3100e8f150cf20bfee7c2d62", "type": "electric_scooter", "is_disabled": 0, "lat": 38.90281233333333, "rental_uris": {"android": "https://dc.lft.to/lastmile_qr_scan", "ios": "https://dc.lft.to/lastmile_qr_scan"}, "bike_id": "b729966c3100e8f150cf20bfee7c2d62", "lon": -77.033764}, {"is_reserved": 0, "fusion_lon": 0.0, "fusion_lat": 0.0, "name": "4e9ffae5c354909d529c89779aa05c85", "type": "electric_scooter", "is_disabled": 0, "lat": 38.907248333333335, "rental_uris": {"android": "https://dc.lft.to/lastmile_qr_scan", "ios": "https://dc.lft.to/lastmile_qr_scan"}, "bike_id": "4e9ffae5c354909d529c89779aa05c85", "lon": -77.0164355}, {"is_reserved": 0, "fusion_lon": 0.0, "fusion_lat": 0.0, "name": "42767f8a956b51742465f9c8961b7ec6", "type": "electric_scooter", "is_disabled": 0, "lat": 38.929027166666664, "rental_uris": {"android": "https://dc.lft.to/lastmile_qr_scan", "ios": "https://dc.lft.to/lastmile_qr_scan"}, "bike_id": "42767f8a956b51742465f9c8961b7ec6", "lon": -77.01656016666666}, {"is_reserved": 0, "fusion_lon": 0.0, "fusion_lat": 0.0, "name": "38dd57ef9759ae8494023bfb30d234f1", "type": "electric_scooter", "is_disabled": 0, "lat": 38.924201, "rental_uris": {"android": "https://dc.lft.to/lastmile_qr_scan", "ios": "https://dc.lft.to/lastmile_qr_scan"}, "bike_id": "38dd57ef9759ae8494023bfb30d234f1", "lon": -77.020116}, {"is_reserved": 0, "fusion_lon": 0.0, "fusion_lat": 0.0, "name": "eeba0ed1ad2f42dd0db6dfaaf526def0", "type": "electric_scooter", "is_disabled": 0, "lat": 38.901585, "rental_uris": {"android": "https://dc.lft.to/lastmile_qr_scan", "ios": "https://dc.lft.to/lastmile_qr_scan"}, "bike_id": "eeba0ed1ad2f42dd0db6dfaaf526def0", "lon": -76.99025533333334}, {"is_reserved": 0, "fusion_lon": 0.0, "fusion_lat": 0.0, "name": "75375605ac2a0cd7f27cc9219a886433", "type": "electric_scooter", "is_disabled": 0, "lat": 38.8720325, "rental_uris": {"android": "https://dc.lft.to/lastmile_qr_scan", "ios": "https://dc.lft.to/lastmile_qr_scan"}, "bike_id": "75375605ac2a0cd7f27cc9219a886433", "lon": -77.00571966666666}, {"is_reserved": 0, "fusion_lon": 0.0, "fusion_lat": 0.0, "name": "5b7dd96c8dca53f48b62acf5aa3728bf", "type": "electric_scooter", "is_disabled": 0, "lat": 38.917882, "rental_uris": {"android": "https://dc.lft.to/lastmile_qr_scan", "ios": "https://dc.lft.to/lastmile_qr_scan"}, "bike_id": "5b7dd96c8dca53f48b62acf5aa3728bf", "lon": -77.03216433333333}, {"is_reserved": 0, "fusion_lon": 0.0, "fusion_lat": 0.0, "name": "dcf2ae173d7ab53da130a78ef8735bee", "type": "electric_bike", "is_disabled": 0, "lat": 38.869417166666665, "rental_uris": {"android": "https://dc.lft.to/lastmile_qr_scan", "ios": "https://dc.lft.to/lastmile_qr_scan"}, "bike_id": "dcf2ae173d7ab53da130a78ef8735bee", "lon": -77.09467183333334}, {"is_reserved": 0, "fusion_lon": 0.0, "fusion_lat": 0.0, "name": "af902a3739dafe7e3171679ca5b46643", "type": "electric_scooter", "is_disabled": 0, "lat": 38.90604716666667, "rental_uris": {"android": "https://dc.lft.to/lastmile_qr_scan", "ios": "https://dc.lft.to/lastmile_qr_scan"}, "bike_id": "af902a3739dafe7e3171679ca5b46643", "lon": -77.06306566666666}, {"is_reserved": 0, "fusion_lon": 0.0, "fusion_lat": 0.0, "name": "d2d0c8d167cd25384d77eaa1b1d53c76", "type": "electric_bike", "is_disabled": 0, "lat": 38.884095333333335, "rental_uris": {"android": "https://dc.lft.to/lastmile_qr_scan", "ios": "https://dc.lft.to/lastmile_qr_scan"}, "bike_id": "d2d0c8d167cd25384d77eaa1b1d53c76", "lon": -76.9605785}, {"is_reserved": 0, "fusion_lon": 0.0, "fusion_lat": 0.0, "name": "53b8d7657bbfdde0d1c296f40787d2d3", "type": "electric_scooter", "is_disabled": 0, "lat": 38.91462083333333, "rental_uris": {"android": "https://dc.lft.to/lastmile_qr_scan", "ios": "https://dc.lft.to/lastmile_qr_scan"}, "bike_id": "53b8d7657bbfdde0d1c296f40787d2d3", "lon": -77.0455435}, {"is_reserved": 0, "fusion_lon": 0.0, "fusion_lat": 0.0, "name": "260fa542491573157575b963611b217a", "type": "electric_scooter", "is_disabled": 0, "lat": 38.892242, "rental_uris": {"android": "https://dc.lft.to/lastmile_qr_scan", "ios": "https://dc.lft.to/lastmile_qr_scan"}, "bike_id": "260fa542491573157575b963611b217a", "lon": -77.023484}, {"is_reserved": 0, "fusion_lon": 0.0, "fusion_lat": 0.0, "name": "d47cd405f684bdf26107873dec7b1754", "type": "electric_scooter", "is_disabled": 0, "lat": 38.890241, "rental_uris": {"android": "https://dc.lft.to/lastmile_qr_scan", "ios": "https://dc.lft.to/lastmile_qr_scan"}, "bike_id": "d47cd405f684bdf26107873dec7b1754", "lon": -76.93700983333333}, {"is_reserved": 0, "fusion_lon": 0.0, "fusion_lat": 0.0, "name": "79f749f125b53eab3e8c5fc11d510dc9", "type": "electric_scooter", "is_disabled": 0, "lat": 38.902370833333336, "rental_uris": {"android": "https://dc.lft.to/lastmile_qr_scan", "ios": "https://dc.lft.to/lastmile_qr_scan"}, "bike_id": "79f749f125b53eab3e8c5fc11d510dc9", "lon": -77.04408283333333}, {"is_reserved": 0, "fusion_lon": 0.0, "fusion_lat": 0.0, "name": "f232a0dcadd7dd3a992b43a81226e3c4", "type": "electric_scooter", "is_disabled": 0, "lat": 38.89316, "rental_uris": {"android": "https://dc.lft.to/lastmile_qr_scan", "ios": "https://dc.lft.to/lastmile_qr_scan"}, "bike_id": "f232a0dcadd7dd3a992b43a81226e3c4", "lon": -77.05006716666666}, {"is_reserved": 0, "fusion_lon": 0.0, "fusion_lat": 0.0, "name": "551cb61711294cb2fbddfa3290f0ca29", "type": "electric_scooter", "is_disabled": 0, "lat": 38.90673533333333, "rental_uris": {"android": "https://dc.lft.to/lastmile_qr_scan", "ios": "https://dc.lft.to/lastmile_qr_scan"}, "bike_id": "551cb61711294cb2fbddfa3290f0ca29", "lon": -77.03761933333334}, {"is_reserved": 0, "fusion_lon": 0.0, "fusion_lat": 0.0, "name": "f0444f61b42b8ae02d097674cb7a4368", "type": "electric_scooter", "is_disabled": 0, "lat": 38.902679666666664, "rental_uris": {"android": "https://dc.lft.to/lastmile_qr_scan", "ios": "https://dc.lft.to/lastmile_qr_scan"}, "bike_id": "f0444f61b42b8ae02d097674cb7a4368", "lon": -77.030394}, {"is_reserved": 0, "fusion_lon": 0.0, "fusion_lat": 0.0, "name": "5deea56a6dbee9f2c4b15a1476162bb8", "type": "electric_scooter", "is_disabled": 0, "lat": 38.879410666666665, "rental_uris": {"android": "https://dc.lft.to/lastmile_qr_scan", "ios": "https://dc.lft.to/lastmile_qr_scan"}, "bike_id": "5deea56a6dbee9f2c4b15a1476162bb8", "lon": -77.00405716666667}, {"is_reserved": 0, "fusion_lon": 0.0, "fusion_lat": 0.0, "name": "36c1720d0fafb88a57235b4f41e62877", "type": "electric_scooter", "is_disabled": 0, "lat": 38.936554666666666, "rental_uris": {"android": "https://dc.lft.to/lastmile_qr_scan", "ios": "https://dc.lft.to/lastmile_qr_scan"}, "bike_id": "36c1720d0fafb88a57235b4f41e62877", "lon": -77.02639616666667}, {"is_reserved": 0, "fusion_lon": 0.0, "fusion_lat": 0.0, "name": "38f98efea76adb3bce508ccece44cb35", "type": "electric_scooter", "is_disabled": 0, "lat": 38.909645166666664, "rental_uris": {"android": "https://dc.lft.to/lastmile_qr_scan", "ios": "https://dc.lft.to/lastmile_qr_scan"}, "bike_id": "38f98efea76adb3bce508ccece44cb35", "lon": -77.038675}, {"is_reserved": 0, "fusion_lon": 0.0, "fusion_lat": 0.0, "name": "c573f35002ef3c8a6db97143b76041c0", "type": "electric_scooter", "is_disabled": 0, "lat": 38.905595166666664, "rental_uris": {"android": "https://dc.lft.to/lastmile_qr_scan", "ios": "https://dc.lft.to/lastmile_qr_scan"}, "bike_id": "c573f35002ef3c8a6db97143b76041c0", "lon": -77.0450095}, {"is_reserved": 0, "fusion_lon": 0.0, "fusion_lat": 0.0, "name": "df995baf97de134f03d1e51e38745ddb", "type": "electric_scooter", "is_disabled": 0, "lat": 38.90008266666667, "rental_uris": {"android": "https://dc.lft.to/lastmile_qr_scan", "ios": "https://dc.lft.to/lastmile_qr_scan"}, "bike_id": "df995baf97de134f03d1e51e38745ddb", "lon": -77.02691733333333}, {"is_reserved": 0, "fusion_lon": 0.0, "fusion_lat": 0.0, "name": "af1b65eb0b48058321db39eeb61eb81a", "type": "electric_scooter", "is_disabled": 0, "lat": 38.92648233333333, "rental_uris": {"android": "https://dc.lft.to/lastmile_qr_scan", "ios": "https://dc.lft.to/lastmile_qr_scan"}, "bike_id": "af1b65eb0b48058321db39eeb61eb81a", "lon": -77.0413665}, {"is_reserved": 0, "fusion_lon": 0.0, "fusion_lat": 0.0, "name": "f9621982c774a019ae7b679006f4a28c", "type": "electric_scooter", "is_disabled": 0, "lat": 38.8972185, "rental_uris": {"android": "https://dc.lft.to/lastmile_qr_scan", "ios": "https://dc.lft.to/lastmile_qr_scan"}, "bike_id": "f9621982c774a019ae7b679006f4a28c", "lon": -77.021435}, {"is_reserved": 0, "fusion_lon": 0.0, "fusion_lat": 0.0, "name": "bc4e6c5c33a3ffe5a157769c8655d18e", "type": "electric_scooter", "is_disabled": 0, "lat": 38.88083966666667, "rental_uris": {"android": "https://dc.lft.to/lastmile_qr_scan", "ios": "https://dc.lft.to/lastmile_qr_scan"}, "bike_id": "bc4e6c5c33a3ffe5a157769c8655d18e", "lon": -76.98512}, {"is_reserved": 0, "fusion_lon": 0.0, "fusion_lat": 0.0, "name": "ce5dcd4123158ae6aca3fdf4a7507448", "type": "electric_scooter", "is_disabled": 0, "lat": 38.9210685, "rental_uris": {"android": "https://dc.lft.to/lastmile_qr_scan", "ios": "https://dc.lft.to/lastmile_qr_scan"}, "bike_id": "ce5dcd4123158ae6aca3fdf4a7507448", "lon": -77.02083483333334}, {"is_reserved": 0, "fusion_lon": 0.0, "fusion_lat": 0.0, "name": "71238844f66d8b1e4385985cd5b7827c", "type": "electric_scooter", "is_disabled": 0, "lat": 38.8951705, "rental_uris": {"android": "https://dc.lft.to/lastmile_qr_scan", "ios": "https://dc.lft.to/lastmile_qr_scan"}, "bike_id": "71238844f66d8b1e4385985cd5b7827c", "lon": -77.03959966666666}, {"is_reserved": 0, "fusion_lon": 0.0, "fusion_lat": 0.0, "name": "2f95530febc00c80aa015d113a1c5a5c", "type": "electric_scooter", "is_disabled": 0, "lat": 38.921683, "rental_uris": {"android": "https://dc.lft.to/lastmile_qr_scan", "ios": "https://dc.lft.to/lastmile_qr_scan"}, "bike_id": "2f95530febc00c80aa015d113a1c5a5c", "lon": -77.0332175}, {"is_reserved": 0, "fusion_lon": 0.0, "fusion_lat": 0.0, "name": "4ff6c0f9ddf3a797e8607a92c4b0fa4d", "type": "electric_scooter", "is_disabled": 0, "lat": 38.903462833333336, "rental_uris": {"android": "https://dc.lft.to/lastmile_qr_scan", "ios": "https://dc.lft.to/lastmile_qr_scan"}, "bike_id": "4ff6c0f9ddf3a797e8607a92c4b0fa4d", "lon": -77.04673116666666}, {"is_reserved": 0, "fusion_lon": 0.0, "fusion_lat": 0.0, "name": "8fbb7662a38973b07820ae9b32ed45a7", "type": "electric_scooter", "is_disabled": 0, "lat": 38.902598, "rental_uris": {"android": "https://dc.lft.to/lastmile_qr_scan", "ios": "https://dc.lft.to/lastmile_qr_scan"}, "bike_id": "8fbb7662a38973b07820ae9b32ed45a7", "lon": -77.0395145}, {"is_reserved": 0, "fusion_lon": 0.0, "fusion_lat": 0.0, "name": "a5c6c8cc4bc55a66631511f689934be1", "type": "electric_scooter", "is_disabled": 0, "lat": 38.90382183333333, "rental_uris": {"android": "https://dc.lft.to/lastmile_qr_scan", "ios": "https://dc.lft.to/lastmile_qr_scan"}, "bike_id": "a5c6c8cc4bc55a66631511f689934be1", "lon": -77.03471083333334}, {"is_reserved": 0, "fusion_lon": 0.0, "fusion_lat": 0.0, "name": "7b868a9d1142c42ca8bbc4c1a39d5eae", "type": "electric_scooter", "is_disabled": 0, "lat": 38.902375666666664, "rental_uris": {"android": "https://dc.lft.to/lastmile_qr_scan", "ios": "https://dc.lft.to/lastmile_qr_scan"}, "bike_id": "7b868a9d1142c42ca8bbc4c1a39d5eae", "lon": -77.04354566666666}, {"is_reserved": 0, "fusion_lon": 0.0, "fusion_lat": 0.0, "name": "0612ccc9e0c517a943427b14e82b09e2", "type": "electric_scooter", "is_disabled": 0, "lat": 38.9078915, "rental_uris": {"android": "https://dc.lft.to/lastmile_qr_scan", "ios": "https://dc.lft.to/lastmile_qr_scan"}, "bike_id": "0612ccc9e0c517a943427b14e82b09e2", "lon": -77.07262116666666}, {"is_reserved": 0, "fusion_lon": 0.0, "fusion_lat": 0.0, "name": "83f225f67a4a6b6dd8f6953655c13cb9", "type": "electric_bike", "is_disabled": 0, "lat": 39.0579055, "rental_uris": {"android": "https://dc.lft.to/lastmile_qr_scan", "ios": "https://dc.lft.to/lastmile_qr_scan"}, "bike_id": "83f225f67a4a6b6dd8f6953655c13cb9", "lon": -77.15019816666667}, {"is_reserved": 0, "fusion_lon": 0.0, "fusion_lat": 0.0, "name": "4ef1efaa8359251f29a8847827edb346", "type": "electric_scooter", "is_disabled": 0, "lat": 38.93049383333334, "rental_uris": {"android": "https://dc.lft.to/lastmile_qr_scan", "ios": "https://dc.lft.to/lastmile_qr_scan"}, "bike_id": "4ef1efaa8359251f29a8847827edb346", "lon": -77.03799866666667}, {"is_reserved": 0, "fusion_lon": 0.0, "fusion_lat": 0.0, "name": "efa0fd85b8fe4179d33cf805259b1fd0", "type": "electric_scooter", "is_disabled": 0, "lat": 38.902917, "rental_uris": {"android": "https://dc.lft.to/lastmile_qr_scan", "ios": "https://dc.lft.to/lastmile_qr_scan"}, "bike_id": "efa0fd85b8fe4179d33cf805259b1fd0", "lon": -77.05813183333333}, {"is_reserved": 0, "fusion_lon": 0.0, "fusion_lat": 0.0, "name": "73186a1b4d26ccf9b92be6fee9782d4f", "type": "electric_scooter", "is_disabled": 0, "lat": 38.91059716666667, "rental_uris": {"android": "https://dc.lft.to/lastmile_qr_scan", "ios": "https://dc.lft.to/lastmile_qr_scan"}, "bike_id": "73186a1b4d26ccf9b92be6fee9782d4f", "lon": -77.0408095}, {"is_reserved": 0, "fusion_lon": 0.0, "fusion_lat": 0.0, "name": "6f3fe37e33b4e0d42fc3a35651b74426", "type": "electric_scooter", "is_disabled": 0, "lat": 38.953320833333336, "rental_uris": {"android": "https://dc.lft.to/lastmile_qr_scan", "ios": "https://dc.lft.to/lastmile_qr_scan"}, "bike_id": "6f3fe37e33b4e0d42fc3a35651b74426", "lon": -77.070723}, {"is_reserved": 0, "fusion_lon": 0.0, "fusion_lat": 0.0, "name": "cf70315025b017f31571400860414fc6", "type": "electric_scooter", "is_disabled": 0, "lat": 38.92981416666667, "rental_uris": {"android": "https://dc.lft.to/lastmile_qr_scan", "ios": "https://dc.lft.to/lastmile_qr_scan"}, "bike_id": "cf70315025b017f31571400860414fc6", "lon": -77.01327466666666}, {"is_reserved": 0, "fusion_lon": 0.0, "fusion_lat": 0.0, "name": "2e3472a9959647da2cbd4388377b9f5a", "type": "electric_scooter", "is_disabled": 0, "lat": 38.8841425, "rental_uris": {"android": "https://dc.lft.to/lastmile_qr_scan", "ios": "https://dc.lft.to/lastmile_qr_scan"}, "bike_id": "2e3472a9959647da2cbd4388377b9f5a", "lon": -77.0177765}, {"is_reserved": 0, "fusion_lon": 0.0, "fusion_lat": 0.0, "name": "db53f38ce2ce0ed80eef4244a7abe238", "type": "electric_scooter", "is_disabled": 0, "lat": 38.9008905, "rental_uris": {"android": "https://dc.lft.to/lastmile_qr_scan", "ios": "https://dc.lft.to/lastmile_qr_scan"}, "bike_id": "db53f38ce2ce0ed80eef4244a7abe238", "lon": -76.93019816666667}, {"is_reserved": 0, "fusion_lon": 0.0, "fusion_lat": 0.0, "name": "f6b489ec026eebfccdf45240c4e99f88", "type": "electric_scooter", "is_disabled": 0, "lat": 38.91769733333334, "rental_uris": {"android": "https://dc.lft.to/lastmile_qr_scan", "ios": "https://dc.lft.to/lastmile_qr_scan"}, "bike_id": "f6b489ec026eebfccdf45240c4e99f88", "lon": -77.04059416666666}, {"is_reserved": 0, "fusion_lon": 0.0, "fusion_lat": 0.0, "name": "1b2252e79da93722e4d64348ae0e77cf", "type": "electric_scooter", "is_disabled": 0, "lat": 38.898642333333335, "rental_uris": {"android": "https://dc.lft.to/lastmile_qr_scan", "ios": "https://dc.lft.to/lastmile_qr_scan"}, "bike_id": "1b2252e79da93722e4d64348ae0e77cf", "lon": -76.92753216666667}, {"is_reserved": 0, "fusion_lon": 0.0, "fusion_lat": 0.0, "name": "4381d15f836985c29200698569b0c837", "type": "electric_scooter", "is_disabled": 0, "lat": 38.919193666666665, "rental_uris": {"android": "https://dc.lft.to/lastmile_qr_scan", "ios": "https://dc.lft.to/lastmile_qr_scan"}, "bike_id": "4381d15f836985c29200698569b0c837", "lon": -77.0251055}, {"is_reserved": 0, "fusion_lon": 0.0, "fusion_lat": 0.0, "name": "ca836f35f8a1e838ec7c1b35afaf80a7", "type": "electric_bike", "is_disabled": 0, "lat": 38.956554833333335, "rental_uris": {"android": "https://dc.lft.to/lastmile_qr_scan", "ios": "https://dc.lft.to/lastmile_qr_scan"}, "bike_id": "ca836f35f8a1e838ec7c1b35afaf80a7", "lon": -77.0128035}, {"is_reserved": 0, "fusion_lon": 0.0, "fusion_lat": 0.0, "name": "b59ff71cf2ac85173c1612b54ed6a8a5", "type": "electric_scooter", "is_disabled": 0, "lat": 38.884896833333336, "rental_uris": {"android": "https://dc.lft.to/lastmile_qr_scan", "ios": "https://dc.lft.to/lastmile_qr_scan"}, "bike_id": "b59ff71cf2ac85173c1612b54ed6a8a5", "lon": -76.92619466666666}, {"is_reserved": 0, "fusion_lon": 0.0, "fusion_lat": 0.0, "name": "281b2288ada533ef304715f5cd9bfb2b", "type": "electric_scooter", "is_disabled": 0, "lat": 38.8981725, "rental_uris": {"android": "https://dc.lft.to/lastmile_qr_scan", "ios": "https://dc.lft.to/lastmile_qr_scan"}, "bike_id": "281b2288ada533ef304715f5cd9bfb2b", "lon": -77.02980516666666}, {"is_reserved": 0, "fusion_lon": 0.0, "fusion_lat": 0.0, "name": "e75c12245463f3c4b990e028f1892970", "type": "electric_scooter", "is_disabled": 0, "lat": 38.90724683333333, "rental_uris": {"android": "https://dc.lft.to/lastmile_qr_scan", "ios": "https://dc.lft.to/lastmile_qr_scan"}, "bike_id": "e75c12245463f3c4b990e028f1892970", "lon": -77.0434625}, {"is_reserved": 0, "fusion_lon": 0.0, "fusion_lat": 0.0, "name": "bc4705d0ab28433a0a5b1e9b119ddaa6", "type": "electric_scooter", "is_disabled": 0, "lat": 38.855388833333336, "rental_uris": {"android": "https://dc.lft.to/lastmile_qr_scan", "ios": "https://dc.lft.to/lastmile_qr_scan"}, "bike_id": "bc4705d0ab28433a0a5b1e9b119ddaa6", "lon": -76.98418483333333}, {"is_reserved": 0, "fusion_lon": 0.0, "fusion_lat": 0.0, "name": "e226ff356cf40448e1fa310ecbb2877b", "type": "electric_bike", "is_disabled": 0, "lat": 38.9681955, "rental_uris": {"android": "https://dc.lft.to/lastmile_qr_scan", "ios": "https://dc.lft.to/lastmile_qr_scan"}, "bike_id": "e226ff356cf40448e1fa310ecbb2877b", "lon": -77.07227566666667}, {"is_reserved": 0, "fusion_lon": 0.0, "fusion_lat": 0.0, "name": "4c671a7db0e67eccdf02c76b2187aaef", "type": "electric_scooter", "is_disabled": 0, "lat": 38.900384833333334, "rental_uris": {"android": "https://dc.lft.to/lastmile_qr_scan", "ios": "https://dc.lft.to/lastmile_qr_scan"}, "bike_id": "4c671a7db0e67eccdf02c76b2187aaef", "lon": -76.9962615}, {"is_reserved": 0, "fusion_lon": 0.0, "fusion_lat": 0.0, "name": "6c59821e8165579adf1477c65f264805", "type": "electric_scooter", "is_disabled": 0, "lat": 38.92091516666667, "rental_uris": {"android": "https://dc.lft.to/lastmile_qr_scan", "ios": "https://dc.lft.to/lastmile_qr_scan"}, "bike_id": "6c59821e8165579adf1477c65f264805", "lon": -77.0221185}, {"is_reserved": 0, "fusion_lon": 0.0, "fusion_lat": 0.0, "name": "d7868cf2a918cddd9ac412d4c50647d9", "type": "electric_scooter", "is_disabled": 0, "lat": 38.917182333333336, "rental_uris": {"android": "https://dc.lft.to/lastmile_qr_scan", "ios": "https://dc.lft.to/lastmile_qr_scan"}, "bike_id": "d7868cf2a918cddd9ac412d4c50647d9", "lon": -77.03860433333334}, {"is_reserved": 0, "fusion_lon": 0.0, "fusion_lat": 0.0, "name": "6d7c4e413c62fe0cfb6e8db6152000b2", "type": "electric_scooter", "is_disabled": 0, "lat": 38.9331615, "rental_uris": {"android": "https://dc.lft.to/lastmile_qr_scan", "ios": "https://dc.lft.to/lastmile_qr_scan"}, "bike_id": "6d7c4e413c62fe0cfb6e8db6152000b2", "lon": -77.02967583333333}, {"is_reserved": 0, "fusion_lon": 0.0, "fusion_lat": 0.0, "name": "843d75011780320396743e463bbd710d", "type": "electric_bike", "is_disabled": 0, "lat": 38.89218416666667, "rental_uris": {"android": "https://dc.lft.to/lastmile_qr_scan", "ios": "https://dc.lft.to/lastmile_qr_scan"}, "bike_id": "843d75011780320396743e463bbd710d", "lon": -76.97078583333334}, {"is_reserved": 0, "fusion_lon": 0.0, "fusion_lat": 0.0, "name": "a9c707a7ec533c4cee321fc3411829cb", "type": "electric_scooter", "is_disabled": 0, "lat": 38.89753133333333, "rental_uris": {"android": "https://dc.lft.to/lastmile_qr_scan", "ios": "https://dc.lft.to/lastmile_qr_scan"}, "bike_id": "a9c707a7ec533c4cee321fc3411829cb", "lon": -77.02906983333334}, {"is_reserved": 0, "fusion_lon": 0.0, "fusion_lat": 0.0, "name": "14c0df60ef3c37b195422b2f1516bb44", "type": "electric_scooter", "is_disabled": 0, "lat": 38.896227, "rental_uris": {"android": "https://dc.lft.to/lastmile_qr_scan", "ios": "https://dc.lft.to/lastmile_qr_scan"}, "bike_id": "14c0df60ef3c37b195422b2f1516bb44", "lon": -77.0297495}, {"is_reserved": 0, "fusion_lon": 0.0, "fusion_lat": 0.0, "name": "d9f70a4909de5f23d8d8f8f622d0f478", "type": "electric_scooter", "is_disabled": 0, "lat": 38.90446433333334, "rental_uris": {"android": "https://dc.lft.to/lastmile_qr_scan", "ios": "https://dc.lft.to/lastmile_qr_scan"}, "bike_id": "d9f70a4909de5f23d8d8f8f622d0f478", "lon": -76.98497516666667}, {"is_reserved": 0, "fusion_lon": 0.0, "fusion_lat": 0.0, "name": "f2b5b9f079505eecdcd9b3c630fbe83e", "type": "electric_bike", "is_disabled": 0, "lat": 38.94513516666667, "rental_uris": {"android": "https://dc.lft.to/lastmile_qr_scan", "ios": "https://dc.lft.to/lastmile_qr_scan"}, "bike_id": "f2b5b9f079505eecdcd9b3c630fbe83e", "lon": -77.006767}, {"is_reserved": 0, "fusion_lon": 0.0, "fusion_lat": 0.0, "name": "e1e45c20009f1fca0ae48121af3bb4e2", "type": "electric_scooter", "is_disabled": 0, "lat": 38.9518575, "rental_uris": {"android": "https://dc.lft.to/lastmile_qr_scan", "ios": "https://dc.lft.to/lastmile_qr_scan"}, "bike_id": "e1e45c20009f1fca0ae48121af3bb4e2", "lon": -77.02726366666667}, {"is_reserved": 0, "fusion_lon": 0.0, "fusion_lat": 0.0, "name": "da75b1112caab7f9b2265f9c24230bba", "type": "electric_scooter", "is_disabled": 0, "lat": 38.924678166666666, "rental_uris": {"android": "https://dc.lft.to/lastmile_qr_scan", "ios": "https://dc.lft.to/lastmile_qr_scan"}, "bike_id": "da75b1112caab7f9b2265f9c24230bba", "lon": -77.052391}, {"is_reserved": 0, "fusion_lon": 0.0, "fusion_lat": 0.0, "name": "d66c342dd5f4d900e6599503df255324", "type": "electric_scooter", "is_disabled": 0, "lat": 38.903712666666664, "rental_uris": {"android": "https://dc.lft.to/lastmile_qr_scan", "ios": "https://dc.lft.to/lastmile_qr_scan"}, "bike_id": "d66c342dd5f4d900e6599503df255324", "lon": -77.03898783333334}, {"is_reserved": 0, "fusion_lon": 0.0, "fusion_lat": 0.0, "name": "045ce1e216f683ccb2cb1464fdddee26", "type": "electric_scooter", "is_disabled": 0, "lat": 38.92344683333334, "rental_uris": {"android": "https://dc.lft.to/lastmile_qr_scan", "ios": "https://dc.lft.to/lastmile_qr_scan"}, "bike_id": "045ce1e216f683ccb2cb1464fdddee26", "lon": -77.05089533333333}, {"is_reserved": 0, "fusion_lon": 0.0, "fusion_lat": 0.0, "name": "5b07265efbfe7c2221c8f63ea9eb2de5", "type": "electric_scooter", "is_disabled": 0, "lat": 38.871867333333334, "rental_uris": {"android": "https://dc.lft.to/lastmile_qr_scan", "ios": "https://dc.lft.to/lastmile_qr_scan"}, "bike_id": "5b07265efbfe7c2221c8f63ea9eb2de5", "lon": -77.00600266666666}, {"is_reserved": 0, "fusion_lon": 0.0, "fusion_lat": 0.0, "name": "7485c9de3f5ca0d96903403952ddb172", "type": "electric_scooter", "is_disabled": 0, "lat": 38.87787616666667, "rental_uris": {"android": "https://dc.lft.to/lastmile_qr_scan", "ios": "https://dc.lft.to/lastmile_qr_scan"}, "bike_id": "7485c9de3f5ca0d96903403952ddb172", "lon": -76.99405866666666}, {"is_reserved": 0, "fusion_lon": 0.0, "fusion_lat": 0.0, "name": "a7a1400656756a625cfa064657f861be", "type": "electric_bike", "is_disabled": 0, "lat": 38.9731265, "rental_uris": {"android": "https://dc.lft.to/lastmile_qr_scan", "ios": "https://dc.lft.to/lastmile_qr_scan"}, "bike_id": "a7a1400656756a625cfa064657f861be", "lon": -77.03427866666667}, {"is_reserved": 0, "fusion_lon": 0.0, "fusion_lat": 0.0, "name": "645a5be2be9459b648ad4d904b1102bd", "type": "electric_scooter", "is_disabled": 0, "lat": 38.897722, "rental_uris": {"android": "https://dc.lft.to/lastmile_qr_scan", "ios": "https://dc.lft.to/lastmile_qr_scan"}, "bike_id": "645a5be2be9459b648ad4d904b1102bd", "lon": -77.02702533333333}, {"is_reserved": 0, "fusion_lon": 0.0, "fusion_lat": 0.0, "name": "ebefcc98b10c8ea389cd9eb907c14b0b", "type": "electric_scooter", "is_disabled": 0, "lat": 38.977282833333334, "rental_uris": {"android": "https://dc.lft.to/lastmile_qr_scan", "ios": "https://dc.lft.to/lastmile_qr_scan"}, "bike_id": "ebefcc98b10c8ea389cd9eb907c14b0b", "lon": -77.01727933333333}, {"is_reserved": 0, "fusion_lon": 0.0, "fusion_lat": 0.0, "name": "7c563b1f659b224df30be26aca34d554", "type": "electric_scooter", "is_disabled": 0, "lat": 38.888904833333335, "rental_uris": {"android": "https://dc.lft.to/lastmile_qr_scan", "ios": "https://dc.lft.to/lastmile_qr_scan"}, "bike_id": "7c563b1f659b224df30be26aca34d554", "lon": -76.947839}, {"is_reserved": 0, "fusion_lon": 0.0, "fusion_lat": 0.0, "name": "31bf60f0f76910ae97410cc56704666c", "type": "electric_scooter", "is_disabled": 0, "lat": 38.8874235, "rental_uris": {"android": "https://dc.lft.to/lastmile_qr_scan", "ios": "https://dc.lft.to/lastmile_qr_scan"}, "bike_id": "31bf60f0f76910ae97410cc56704666c", "lon": -77.02206416666667}, {"is_reserved": 0, "fusion_lon": 0.0, "fusion_lat": 0.0, "name": "4fd4fe3ac4f16e9484a76aa9abeef618", "type": "electric_scooter", "is_disabled": 0, "lat": 38.89317583333333, "rental_uris": {"android": "https://dc.lft.to/lastmile_qr_scan", "ios": "https://dc.lft.to/lastmile_qr_scan"}, "bike_id": "4fd4fe3ac4f16e9484a76aa9abeef618", "lon": -77.01800133333333}, {"is_reserved": 0, "fusion_lon": 0.0, "fusion_lat": 0.0, "name": "12b807c539a86fef3f0330e8874717a9", "type": "electric_bike", "is_disabled": 0, "lat": 38.796802166666666, "rental_uris": {"android": "https://dc.lft.to/lastmile_qr_scan", "ios": "https://dc.lft.to/lastmile_qr_scan"}, "bike_id": "12b807c539a86fef3f0330e8874717a9", "lon": -76.99332183333334}, {"is_reserved": 0, "fusion_lon": 0.0, "fusion_lat": 0.0, "name": "868bda3bf7e8977d91a563702333691f", "type": "electric_bike", "is_disabled": 0, "lat": 38.806606333333335, "rental_uris": {"android": "https://dc.lft.to/lastmile_qr_scan", "ios": "https://dc.lft.to/lastmile_qr_scan"}, "bike_id": "868bda3bf7e8977d91a563702333691f", "lon": -77.087681}, {"is_reserved": 0, "fusion_lon": 0.0, "fusion_lat": 0.0, "name": "19d51bae5859a80a472027ae5f558ce9", "type": "electric_scooter", "is_disabled": 0, "lat": 38.88596866666666, "rental_uris": {"android": "https://dc.lft.to/lastmile_qr_scan", "ios": "https://dc.lft.to/lastmile_qr_scan"}, "bike_id": "19d51bae5859a80a472027ae5f558ce9", "lon": -77.0058415}, {"is_reserved": 0, "fusion_lon": 0.0, "fusion_lat": 0.0, "name": "16591c233ee6788176479b2a960c76ff", "type": "electric_scooter", "is_disabled": 0, "lat": 38.90235933333334, "rental_uris": {"android": "https://dc.lft.to/lastmile_qr_scan", "ios": "https://dc.lft.to/lastmile_qr_scan"}, "bike_id": "16591c233ee6788176479b2a960c76ff", "lon": -77.05342416666667}, {"is_reserved": 0, "fusion_lon": 0.0, "fusion_lat": 0.0, "name": "dad92dde20d52d3ebe46d25fd44d377f", "type": "electric_scooter", "is_disabled": 0, "lat": 38.9077205, "rental_uris": {"android": "https://dc.lft.to/lastmile_qr_scan", "ios": "https://dc.lft.to/lastmile_qr_scan"}, "bike_id": "dad92dde20d52d3ebe46d25fd44d377f", "lon": -77.0240505}, {"is_reserved": 0, "fusion_lon": 0.0, "fusion_lat": 0.0, "name": "a567aeccacaa6daafbf7bd848cd6937f", "type": "electric_bike", "is_disabled": 0, "lat": 38.865188, "rental_uris": {"android": "https://dc.lft.to/lastmile_qr_scan", "ios": "https://dc.lft.to/lastmile_qr_scan"}, "bike_id": "a567aeccacaa6daafbf7bd848cd6937f", "lon": -76.97337916666666}, {"is_reserved": 0, "fusion_lon": 0.0, "fusion_lat": 0.0, "name": "e310bcbf0f5976144420ebb4a373c0ec", "type": "electric_scooter", "is_disabled": 0, "lat": 38.92665816666667, "rental_uris": {"android": "https://dc.lft.to/lastmile_qr_scan", "ios": "https://dc.lft.to/lastmile_qr_scan"}, "bike_id": "e310bcbf0f5976144420ebb4a373c0ec", "lon": -76.99538716666666}, {"is_reserved": 0, "fusion_lon": 0.0, "fusion_lat": 0.0, "name": "94cb62931d1173977faef1a4092652a5", "type": "electric_scooter", "is_disabled": 0, "lat": 38.90969483333333, "rental_uris": {"android": "https://dc.lft.to/lastmile_qr_scan", "ios": "https://dc.lft.to/lastmile_qr_scan"}, "bike_id": "94cb62931d1173977faef1a4092652a5", "lon": -77.04005483333333}, {"is_reserved": 0, "fusion_lon": 0.0, "fusion_lat": 0.0, "name": "5b4a6e02a401f18d111c18a74d5c500c", "type": "electric_scooter", "is_disabled": 0, "lat": 38.9353855, "rental_uris": {"android": "https://dc.lft.to/lastmile_qr_scan", "ios": "https://dc.lft.to/lastmile_qr_scan"}, "bike_id": "5b4a6e02a401f18d111c18a74d5c500c", "lon": -77.02353583333333}, {"is_reserved": 0, "fusion_lon": 0.0, "fusion_lat": 0.0, "name": "0a25189f8aa9d0d5aa6c938f706825a0", "type": "electric_scooter", "is_disabled": 0, "lat": 38.900313, "rental_uris": {"android": "https://dc.lft.to/lastmile_qr_scan", "ios": "https://dc.lft.to/lastmile_qr_scan"}, "bike_id": "0a25189f8aa9d0d5aa6c938f706825a0", "lon": -77.01178583333333}, {"is_reserved": 0, "fusion_lon": 0.0, "fusion_lat": 0.0, "name": "cfcba2f7984b833290c0a40feff964b4", "type": "electric_scooter", "is_disabled": 0, "lat": 38.8961635, "rental_uris": {"android": "https://dc.lft.to/lastmile_qr_scan", "ios": "https://dc.lft.to/lastmile_qr_scan"}, "bike_id": "cfcba2f7984b833290c0a40feff964b4", "lon": -77.045623}, {"is_reserved": 0, "fusion_lon": 0.0, "fusion_lat": 0.0, "name": "13692c2749931bb831f6eb1e6f46aaab", "type": "electric_scooter", "is_disabled": 0, "lat": 38.916938, "rental_uris": {"android": "https://dc.lft.to/lastmile_qr_scan", "ios": "https://dc.lft.to/lastmile_qr_scan"}, "bike_id": "13692c2749931bb831f6eb1e6f46aaab", "lon": -77.03124216666667}, {"is_reserved": 0, "fusion_lon": 0.0, "fusion_lat": 0.0, "name": "112e13df6dbb61f7515cd15084f125a9", "type": "electric_scooter", "is_disabled": 0, "lat": 38.89880183333333, "rental_uris": {"android": "https://dc.lft.to/lastmile_qr_scan", "ios": "https://dc.lft.to/lastmile_qr_scan"}, "bike_id": "112e13df6dbb61f7515cd15084f125a9", "lon": -77.04041933333333}, {"is_reserved": 0, "fusion_lon": 0.0, "fusion_lat": 0.0, "name": "94c150c7d6fa0cfdba8fb9c5188cac83", "type": "electric_scooter", "is_disabled": 0, "lat": 38.90023266666667, "rental_uris": {"android": "https://dc.lft.to/lastmile_qr_scan", "ios": "https://dc.lft.to/lastmile_qr_scan"}, "bike_id": "94c150c7d6fa0cfdba8fb9c5188cac83", "lon": -77.01189433333333}, {"is_reserved": 0, "fusion_lon": 0.0, "fusion_lat": 0.0, "name": "90f3842cbc6e9c020d37efb4eca16d61", "type": "electric_scooter", "is_disabled": 0, "lat": 38.94202683333334, "rental_uris": {"android": "https://dc.lft.to/lastmile_qr_scan", "ios": "https://dc.lft.to/lastmile_qr_scan"}, "bike_id": "90f3842cbc6e9c020d37efb4eca16d61", "lon": -77.02502566666666}, {"is_reserved": 0, "fusion_lon": 0.0, "fusion_lat": 0.0, "name": "4ee9c0ba83c143e514e3f0110b14c501", "type": "electric_scooter", "is_disabled": 0, "lat": 38.90977616666667, "rental_uris": {"android": "https://dc.lft.to/lastmile_qr_scan", "ios": "https://dc.lft.to/lastmile_qr_scan"}, "bike_id": "4ee9c0ba83c143e514e3f0110b14c501", "lon": -77.0451975}, {"is_reserved": 0, "fusion_lon": 0.0, "fusion_lat": 0.0, "name": "5629c7dcc594fe7939d75d10cd7f3992", "type": "electric_scooter", "is_disabled": 0, "lat": 38.917673666666666, "rental_uris": {"android": "https://dc.lft.to/lastmile_qr_scan", "ios": "https://dc.lft.to/lastmile_qr_scan"}, "bike_id": "5629c7dcc594fe7939d75d10cd7f3992", "lon": -77.04770833333333}, {"is_reserved": 0, "fusion_lon": 0.0, "fusion_lat": 0.0, "name": "0244f616326e4bb61fe13fd13d8f8453", "type": "electric_scooter", "is_disabled": 0, "lat": 38.930589499999996, "rental_uris": {"android": "https://dc.lft.to/lastmile_qr_scan", "ios": "https://dc.lft.to/lastmile_qr_scan"}, "bike_id": "0244f616326e4bb61fe13fd13d8f8453", "lon": -77.03286983333334}, {"is_reserved": 0, "fusion_lon": 0.0, "fusion_lat": 0.0, "name": "65fe5462ab918f90dd616e2ebc70a13f", "type": "electric_scooter", "is_disabled": 0, "lat": 38.900346, "rental_uris": {"android": "https://dc.lft.to/lastmile_qr_scan", "ios": "https://dc.lft.to/lastmile_qr_scan"}, "bike_id": "65fe5462ab918f90dd616e2ebc70a13f", "lon": -77.01760916666667}, {"is_reserved": 0, "fusion_lon": 0.0, "fusion_lat": 0.0, "name": "61912de65836ca8f4949fc5c23d9aa9b", "type": "electric_scooter", "is_disabled": 0, "lat": 38.90985283333333, "rental_uris": {"android": "https://dc.lft.to/lastmile_qr_scan", "ios": "https://dc.lft.to/lastmile_qr_scan"}, "bike_id": "61912de65836ca8f4949fc5c23d9aa9b", "lon": -77.04264533333334}, {"is_reserved": 0, "fusion_lon": 0.0, "fusion_lat": 0.0, "name": "7fef9acac845eade61bc6f5530d348b7", "type": "electric_scooter", "is_disabled": 0, "lat": 38.86386433333333, "rental_uris": {"android": "https://dc.lft.to/lastmile_qr_scan", "ios": "https://dc.lft.to/lastmile_qr_scan"}, "bike_id": "7fef9acac845eade61bc6f5530d348b7", "lon": -76.98909016666667}, {"is_reserved": 0, "fusion_lon": 0.0, "fusion_lat": 0.0, "name": "9c31dd226f7d2396aa27d4483fe3c0ae", "type": "electric_bike", "is_disabled": 0, "lat": 38.86582883333333, "rental_uris": {"android": "https://dc.lft.to/lastmile_qr_scan", "ios": "https://dc.lft.to/lastmile_qr_scan"}, "bike_id": "9c31dd226f7d2396aa27d4483fe3c0ae", "lon": -77.047624}, {"is_reserved": 0, "fusion_lon": 0.0, "fusion_lat": 0.0, "name": "00d417d217169432b10627cd33cd4d3e", "type": "electric_scooter", "is_disabled": 0, "lat": 38.887480333333336, "rental_uris": {"android": "https://dc.lft.to/lastmile_qr_scan", "ios": "https://dc.lft.to/lastmile_qr_scan"}, "bike_id": "00d417d217169432b10627cd33cd4d3e", "lon": -77.02732966666666}, {"is_reserved": 0, "fusion_lon": 0.0, "fusion_lat": 0.0, "name": "3c54368cd5ff399cd85ebe84e5eb7e83", "type": "electric_scooter", "is_disabled": 0, "lat": 38.905840166666664, "rental_uris": {"android": "https://dc.lft.to/lastmile_qr_scan", "ios": "https://dc.lft.to/lastmile_qr_scan"}, "bike_id": "3c54368cd5ff399cd85ebe84e5eb7e83", "lon": -77.03255383333334},