{"data": {"bikes": [{"lat": 38.9049535, "is_disabled": 0, "type": "electric_scooter", "lon": -77.02950966666667, "bike_id": "2584a1374ee9362c39315309906307a6", "fusion_lat": 0.0, "name": "2584a1374ee9362c39315309906307a6", "is_reserved": 0, "rental_uris": {"android": "https://dc.lft.to/lastmile_qr_scan", "ios": "https://dc.lft.to/lastmile_qr_scan"}, "fusion_lon": 0.0}, {"lat": 38.90218333333333, "is_disabled": 0, "type": "electric_scooter", "lon": -77.04871983333334, "bike_id": "b07a14f27be79d3a000e2907137927a0", "fusion_lat": 0.0, "name": "b07a14f27be79d3a000e2907137927a0", "is_reserved": 0, "rental_uris": {"android": "https://dc.lft.to/lastmile_qr_scan", "ios": "https://dc.lft.to/lastmile_qr_scan"}, "fusion_lon": 0.0}, {"lat": 38.9014, "is_disabled": 0, "type": "electric_scooter", "lon": -77.000747, "bike_id": "511ef86b65ed553937c36b791d14d93a", "fusion_lat": 0.0, "name": "511ef86b65ed553937c36b791d14d93a", "is_reserved": 0, "rental_uris": {"android": "https://dc.lft.to/lastmile_qr_scan", "ios": "https://dc.lft.to/lastmile_qr_scan"}, "fusion_lon": 0.0}, {"lat": 38.92097166666667, "is_disabled": 0, "type": "electric_bike", "lon": -77.03918583333333, "bike_id": "28180857f46a6a5f917a2811a869d7eb", "fusion_lat": 0.0, "name": "28180857f46a6a5f917a2811a869d7eb", "is_reserved": 0, "rental_uris": {"android": "https://dc.lft.to/lastmile_qr_scan", "ios": "https://dc.lft.to/lastmile_qr_scan"}, "fusion_lon": 0.0}, {"lat": 38.93398116666667, "is_disabled": 0, "type": "electric_scooter", "lon": -77.041185, "bike_id": "4cc20668d4a6c1ff6d04ac48d7bc570d", "fusion_lat": 0.0, "name": "4cc20668d4a6c1ff6d04ac48d7bc570d", "is_reserved": 0, "rental_uris": {"android": "https://dc.lft.to/lastmile_qr_scan", "ios": "https://dc.lft.to/lastmile_qr_scan"}, "fusion_lon": 0.0}, {"lat": 38.96095666666667, "is_disabled": 0, "type": "electric_scooter", "lon": -77.08283216666666, "bike_id": "47f816b0116ea5d8dccb0be0d26253e5", "fusion_lat": 0.0, "name": "47f816b0116ea5d8dccb0be0d26253e5", "is_reserved": 0, "rental_uris": {"android": "https://dc.lft.to/lastmile_qr_scan", "ios": "https://dc.lft.to/lastmile_qr_scan"}, "fusion_lon": 0.0}, {"lat": 38.91843466666667, "is_disabled": 0, "type": "electric_scooter", "lon": -77.02308683333334, "bike_id": "0b398c5574ef0f231d446087e307b529", "fusion_lat": 0.0, "name": "0b398c5574ef0f231d446087e307b529", "is_reserved": 0, "rental_uris": {"android": "https://dc.lft.to/lastmile_qr_scan", "ios": "https://dc.lft.to/lastmile_qr_scan"}, "fusion_lon": 0.0}, {"lat": 38.92217, "is_disabled": 0, "type": "electric_scooter", "lon": -77.032885, "bike_id": "d745147c2600adb461b0aff6eab67125", "fusion_lat": 0.0, "name": "d745147c2600adb461b0aff6eab67125", "is_reserved": 0, "rental_uris": {"android": "https://dc.lft.to/lastmile_qr_scan", "ios": "https://dc.lft.to/lastmile_qr_scan"}, "fusion_lon": 0.0}, {"lat": 38.902372666666665, "is_disabled": 0, "type": "electric_scooter", "lon": -77.000655, "bike_id": "f8c65f47a193f31f2cae7b4078a7fa30", "fusion_lat": 0.0, "name": "f8c65f47a193f31f2cae7b4078a7fa30", "is_reserved": 0, "rental_uris": {"android": "https://dc.lft.to/lastmile_qr_scan", "ios": "https://dc.lft.to/lastmile_qr_scan"}, "fusion_lon": 0.0}, {"lat": 38.91985616666667, "is_disabled": 0, "type": "electric_scooter", "lon": -77.03276, "bike_id": "dc323086bedfcfa9158fab31aa38445b", "fusion_lat": 0.0, "name": "dc323086bedfcfa9158fab31aa38445b", "is_reserved": 0, "rental_uris": {"android": "https://dc.lft.to/lastmile_qr_scan", "ios": "https://dc.lft.to/lastmile_qr_scan"}, "fusion_lon": 0.0}, {"lat": 38.8814, "is_disabled": 0, "type": "electric_scooter", "lon": -76.99510183333334, "bike_id": "967dae8ce4cfb3f1a494784915fdd53f", "fusion_lat": 0.0, "name": "967dae8ce4cfb3f1a494784915fdd53f", "is_reserved": 0, "rental_uris": {"android": "https://dc.lft.to/lastmile_qr_scan", "ios": "https://dc.lft.to/lastmile_qr_scan"}, "fusion_lon": 0.0}, {"lat": 38.89899233333333, "is_disabled": 0, "type": "electric_scooter", "lon": -76.997288, "bike_id": "e5b8e0a8132b93a86ce60cada4d56cd8", "fusion_lat": 0.0, "name": "e5b8e0a8132b93a86ce60cada4d56cd8", "is_reserved": 0, "rental_uris": {"android": "https://dc.lft.to/lastmile_qr_scan", "ios": "https://dc.lft.to/lastmile_qr_scan"}, "fusion_lon": 0.0}, {"lat": 38.90571216666667, "is_disabled": 0, "type": "electric_scooter", "lon": -77.00569083333333, "bike_id": "025df37665aaf8f27c32bc82d12c892b", "fusion_lat": 0.0, "name": "025df37665aaf8f27c32bc82d12c892b", "is_reserved": 0, "rental_uris": {"android": "https://dc.lft.to/lastmile_qr_scan", "ios": "https://dc.lft.to/lastmile_qr_scan"}, "fusion_lon": 0.0}, {"lat": 38.905729666666666, "is_disabled": 0, "type": "electric_scooter", "lon": -77.00887633333333, "bike_id": "54a79572f3668d67e73429937385c980", "fusion_lat": 0.0, "name": "54a79572f3668d67e73429937385c980", "is_reserved": 0, "rental_uris": {"android": "https://dc.lft.to/lastmile_qr_scan", "ios": "https://dc.lft.to/lastmile_qr_scan"}, "fusion_lon": 0.0}, {"lat": 38.86888116666667, "is_disabled": 0, "type": "electric_scooter", "lon": -76.98311416666667, "bike_id": "71c6cc43956a981db59ebf8525c61a81", "fusion_lat": 0.0, "name": "71c6cc43956a981db59ebf8525c61a81", "is_reserved": 0, "rental_uris": {"android": "https://dc.lft.to/lastmile_qr_scan", "ios": "https://dc.lft.to/lastmile_qr_scan"}, "fusion_lon": 0.0}, {"lat": 38.90650216666667, "is_disabled": 0, "type": "electric_scooter", "lon": -77.05319766666666, "bike_id": "eb3972819b25c96fe76cf1ead3ee6398", "fusion_lat": 0.0, "name": "eb3972819b25c96fe76cf1ead3ee6398", "is_reserved": 0, "rental_uris": {"android": "https://dc.lft.to/lastmile_qr_scan", "ios": "https://dc.lft.to/lastmile_qr_scan"}, "fusion_lon": 0.0}, {"lat": 38.918728333333334, "is_disabled": 0, "type": "electric_scooter", "lon": -77.02480583333333, "bike_id": "2c33c8a1938de82c1007c55d6fc1c0d5", "fusion_lat": 0.0, "name": "2c33c8a1938de82c1007c55d6fc1c0d5", "is_reserved": 0, "rental_uris": {"android": "https://dc.lft.to/lastmile_qr_scan", "ios": "https://dc.lft.to/lastmile_qr_scan"}, "fusion_lon": 0.0}, {"lat": 38.902548833333334, "is_disabled": 0, "type": "electric_scooter", "lon": -77.017736, "bike_id": "779fb5020558fcb28a50de4b238a3070", "fusion_lat": 0.0, "name": "779fb5020558fcb28a50de4b238a3070", "is_reserved": 0, "rental_uris": {"android": "https://dc.lft.to/lastmile_qr_scan", "ios": "https://dc.lft.to/lastmile_qr_scan"}, "fusion_lon": 0.0}, {"lat": 38.902927166666665, "is_disabled": 0, "type": "electric_scooter", "lon": -77.00221033333334, "bike_id": "2e0d6372014bbeea525d9f9da7111391", "fusion_lat": 0.0, "name": "2e0d6372014bbeea525d9f9da7111391", "is_reserved": 0, "rental_uris": {"android": "https://dc.lft.to/lastmile_qr_scan", "ios": "https://dc.lft.to/lastmile_qr_scan"}, "fusion_lon": 0.0}, {"lat": 38.8954955, "is_disabled": 0, "type": "electric_scooter", "lon": -77.008892, "bike_id": "905e84740822ec9d15a0b2fc2cd9b175", "fusion_lat": 0.0, "name": "905e84740822ec9d15a0b2fc2cd9b175", "is_reserved": 0, "rental_uris": {"android": "https://dc.lft.to/lastmile_qr_scan", "ios": "https://dc.lft.to/lastmile_qr_scan"}, "fusion_lon": 0.0}, {"lat": 38.9036845, "is_disabled": 0, "type": "electric_scooter", "lon": -76.9923105, "bike_id": "7723d5cc7bc15f2983a47f7d909ae116", "fusion_lat": 0.0, "name": "7723d5cc7bc15f2983a47f7d909ae116", "is_reserved": 0, "rental_uris": {"android": "https://dc.lft.to/lastmile_qr_scan", "ios": "https://dc.lft.to/lastmile_qr_scan"}, "fusion_lon": 0.0}, {"lat": 38.908542, "is_disabled": 0, "type": "electric_scooter", "lon": -77.01967316666666, "bike_id": "f808cb4cbd245fcd73df772a9a40f460", "fusion_lat": 0.0, "name": "f808cb4cbd245fcd73df772a9a40f460", "is_reserved": 0, "rental_uris": {"android": "https://dc.lft.to/lastmile_qr_scan", "ios": "https://dc.lft.to/lastmile_qr_scan"}, "fusion_lon": 0.0}, {"lat": 38.897260833333334, "is_disabled": 0, "type": "electric_scooter", "lon": -77.02395666666666, "bike_id": "b939a4db2f4b8283fe2f7c775dd7b427", "fusion_lat": 0.0, "name": "b939a4db2f4b8283fe2f7c775dd7b427", "is_reserved": 0, "rental_uris": {"android": "https://dc.lft.to/lastmile_qr_scan", "ios": "https://dc.lft.to/lastmile_qr_scan"}, "fusion_lon": 0.0}, {"lat": 38.93477166666667, "is_disabled": 0, "type": "electric_scooter", "lon": -77.04114766666666, "bike_id": "e4601a63d542b9ebd111ecb2846da3de", "fusion_lat": 0.0, "name": "e4601a63d542b9ebd111ecb2846da3de", "is_reserved": 0, "rental_uris": {"android": "https://dc.lft.to/lastmile_qr_scan", "ios": "https://dc.lft.to/lastmile_qr_scan"}, "fusion_lon": 0.0}, {"lat": 38.924071833333336, "is_disabled": 0, "type": "electric_scooter", "lon": -77.04442733333333, "bike_id": "39b8fcded30099980d11d046cff39887", "fusion_lat": 0.0, "name": "39b8fcded30099980d11d046cff39887", "is_reserved": 0, "rental_uris": {"android": "https://dc.lft.to/lastmile_qr_scan", "ios": "https://dc.lft.to/lastmile_qr_scan"}, "fusion_lon": 0.0}, {"lat": 38.93524083333333, "is_disabled": 0, "type": "electric_scooter", "lon": -77.07308033333334, "bike_id": "4be43d1158e981e3317da90e8f1cdb4e", "fusion_lat": 0.0, "name": "4be43d1158e981e3317da90e8f1cdb4e", "is_reserved": 0, "rental_uris": {"android": "https://dc.lft.to/lastmile_qr_scan", "ios": "https://dc.lft.to/lastmile_qr_scan"}, "fusion_lon": 0.0}, {"lat": 38.86366566666667, "is_disabled": 0, "type": "electric_scooter", "lon": -76.99034916666666, "bike_id": "a3d9277b996926d57059347dae5ca6fc", "fusion_lat": 0.0, "name": "a3d9277b996926d57059347dae5ca6fc", "is_reserved": 0, "rental_uris": {"android": "https://dc.lft.to/lastmile_qr_scan", "ios": "https://dc.lft.to/lastmile_qr_scan"}, "fusion_lon": 0.0}, {"lat": 38.902976333333335, "is_disabled": 0, "type": "electric_scooter", "lon": -77.0090135, "bike_id": "a1aaef53aa6c4f5d1242fb2aec7502e0", "fusion_lat": 0.0, "name": "a1aaef53aa6c4f5d1242fb2aec7502e0", "is_reserved": 0, "rental_uris": {"android": "https://dc.lft.to/lastmile_qr_scan", "ios": "https://dc.lft.to/lastmile_qr_scan"}, "fusion_lon": 0.0}, {"lat": 38.941409166666666, "is_disabled": 0, "type": "electric_bike", "lon": -77.03285183333334, "bike_id": "4dddaae325df7183661be29d1fa7f41c", "fusion_lat": 0.0, "name": "4dddaae325df7183661be29d1fa7f41c", "is_reserved": 0, "rental_uris": {"android": "https://dc.lft.to/lastmile_qr_scan", "ios": "https://dc.lft.to/lastmile_qr_scan"}, "fusion_lon": 0.0}, {"lat": 38.9223195, "is_disabled": 0, "type": "electric_scooter", "lon": -77.043614, "bike_id": "afa3100eace4dd59e922b07bbc96ee61", "fusion_lat": 0.0, "name": "afa3100eace4dd59e922b07bbc96ee61", "is_reserved": 0, "rental_uris": {"android": "https://dc.lft.to/lastmile_qr_scan", "ios": "https://dc.lft.to/lastmile_qr_scan"}, "fusion_lon": 0.0}, {"lat": 38.88487583333333, "is_disabled": 0, "type": "electric_scooter", "lon": -77.03475816666666, "bike_id": "921b926f3a3e536b043d9b7df418f97a", "fusion_lat": 0.0, "name": "921b926f3a3e536b043d9b7df418f97a", "is_reserved": 0, "rental_uris": {"android": "https://dc.lft.to/lastmile_qr_scan", "ios": "https://dc.lft.to/lastmile_qr_scan"}, "fusion_lon": 0.0}, {"lat": 38.927116166666664, "is_disabled": 0, "type": "electric_scooter", "lon": -77.02284666666667, "bike_id": "073464646166f0f3c02a506bbccec8ed", "fusion_lat": 0.0, "name": "073464646166f0f3c02a506bbccec8ed", "is_reserved": 0, "rental_uris": {"android": "https://dc.lft.to/lastmile_qr_scan", "ios": "https://dc.lft.to/lastmile_qr_scan"}, "fusion_lon": 0.0}, {"lat": 38.9193465, "is_disabled": 0, "type": "electric_scooter", "lon": -77.02592916666667, "bike_id": "90ece1e52e47bd483573eab22fba02d9", "fusion_lat": 0.0, "name": "90ece1e52e47bd483573eab22fba02d9", "is_reserved": 0, "rental_uris": {"android": "https://dc.lft.to/lastmile_qr_scan", "ios": "https://dc.lft.to/lastmile_qr_scan"}, "fusion_lon": 0.0}, {"lat": 38.954064333333335, "is_disabled": 0, "type": "electric_bike", "lon": -76.9786345, "bike_id": "b83974c1d7ce3d5aa531cce9f74a7679", "fusion_lat": 0.0, "name": "b83974c1d7ce3d5aa531cce9f74a7679", "is_reserved": 0, "rental_uris": {"android": "https://dc.lft.to/lastmile_qr_scan", "ios": "https://dc.lft.to/lastmile_qr_scan"}, "fusion_lon": 0.0}, {"lat": 38.87151033333333, "is_disabled": 0, "type": "electric_scooter", "lon": -77.01190183333334, "bike_id": "5ffbf589aea30defd19ab4b42d52bdd3", "fusion_lat": 0.0, "name": "5ffbf589aea30defd19ab4b42d52bdd3", "is_reserved": 0, "rental_uris": {"android": "https://dc.lft.to/lastmile_qr_scan", "ios": "https://dc.lft.to/lastmile_qr_scan"}, "fusion_lon": 0.0}, {"lat": 38.9193205, "is_disabled": 0, "type": "electric_scooter", "lon": -76.97017433333333, "bike_id": "668676138d175843b5ced9e1c7d4a0f0", "fusion_lat": 0.0, "name": "668676138d175843b5ced9e1c7d4a0f0", "is_reserved": 0, "rental_uris": {"android": "https://dc.lft.to/lastmile_qr_scan", "ios": "https://dc.lft.to/lastmile_qr_scan"}, "fusion_lon": 0.0}, {"lat": 38.92847533333333, "is_disabled": 0, "type": "electric_scooter", "lon": -77.01421516666667, "bike_id": "202e51cf68c7b5a7a3442b9075776c39", "fusion_lat": 0.0, "name": "202e51cf68c7b5a7a3442b9075776c39", "is_reserved": 0, "rental_uris": {"android": "https://dc.lft.to/lastmile_qr_scan", "ios": "https://dc.lft.to/lastmile_qr_scan"}, "fusion_lon": 0.0}, {"lat": 38.80227083333333, "is_disabled": 0, "type": "electric_bike", "lon": -77.07915483333333, "bike_id": "5e30aad7fdb9cf89bcd2d591a758fc34", "fusion_lat": 0.0, "name": "5e30aad7fdb9cf89bcd2d591a758fc34", "is_reserved": 0, "rental_uris": {"android": "https://dc.lft.to/lastmile_qr_scan", "ios": "https://dc.lft.to/lastmile_qr_scan"}, "fusion_lon": 0.0}, {"lat": 38.904927666666666, "is_disabled": 0, "type": "electric_scooter", "lon": -77.03893233333334, "bike_id": "53308952a5781972d168c61d99592bc0", "fusion_lat": 0.0, "name": "53308952a5781972d168c61d99592bc0", "is_reserved": 0, "rental_uris": {"android": "https://dc.lft.to/lastmile_qr_scan", "ios": "https://dc.lft.to/lastmile_qr_scan"}, "fusion_lon": 0.0}, {"lat": 38.89177133333333, "is_disabled": 0, "type": "electric_scooter", "lon": -77.0320575, "bike_id": "202a0fbe4f70de2e501574a14845c511", "fusion_lat": 0.0, "name": "202a0fbe4f70de2e501574a14845c511", "is_reserved": 0, "rental_uris": {"android": "https://dc.lft.to/lastmile_qr_scan", "ios": "https://dc.lft.to/lastmile_qr_scan"}, "fusion_lon": 0.0}, {"lat": 38.9168535, "is_disabled": 0, "type": "electric_scooter", "lon": -77.02972516666667, "bike_id": "d9028a6f97440c1ec7e80733d6fcc377", "fusion_lat": 0.0, "name": "d9028a6f97440c1ec7e80733d6fcc377", "is_reserved": 0, "rental_uris": {"android": "https://dc.lft.to/lastmile_qr_scan", "ios": "https://dc.lft.to/lastmile_qr_scan"}, "fusion_lon": 0.0}, {"lat": 38.862131166666664, "is_disabled": 0, "type": "electric_bike", "lon": -76.99778116666667, "bike_id": "6241493f24eff079015fb0315ccfa4b9", "fusion_lat": 0.0, "name": "6241493f24eff079015fb0315ccfa4b9", "is_reserved": 0, "rental_uris": {"android": "https://dc.lft.to/lastmile_qr_scan", "ios": "https://dc.lft.to/lastmile_qr_scan"}, "fusion_lon": 0.0}, {"lat": 38.92821283333333, "is_disabled": 0, "type": "electric_scooter", "lon": -77.0287555, "bike_id": "f945606753e7388d8a9e768b23f8fa73", "fusion_lat": 0.0, "name": "f945606753e7388d8a9e768b23f8fa73", "is_reserved": 0, "rental_uris": {"android": "https://dc.lft.to/lastmile_qr_scan", "ios": "https://dc.lft.to/lastmile_qr_scan"}, "fusion_lon": 0.0}, {"lat": 38.87063366666667, "is_disabled": 0, "type": "electric_scooter", "lon": -77.00840033333333, "bike_id": "dece8cd36c764466088d94e841543ab0", "fusion_lat": 0.0, "name": "dece8cd36c764466088d94e841543ab0", "is_reserved": 0, "rental_uris": {"android": "https://dc.lft.to/lastmile_qr_scan", "ios": "https://dc.lft.to/lastmile_qr_scan"}, "fusion_lon": 0.0}, {"lat": 38.91923366666666, "is_disabled": 0, "type": "electric_scooter", "lon": -77.03425983333334, "bike_id": "6fc8833bf8a152b62285eccaba302b7a", "fusion_lat": 0.0, "name": "6fc8833bf8a152b62285eccaba302b7a", "is_reserved": 0, "rental_uris": {"android": "https://dc.lft.to/lastmile_qr_scan", "ios": "https://dc.lft.to/lastmile_qr_scan"}, "fusion_lon": 0.0}, {"lat": 38.866771666666665, "is_disabled": 0, "type": "electric_scooter", "lon": -76.98541816666666, "bike_id": "739f60d3b9b49dc057cf2bbe5afa74f0", "fusion_lat": 0.0, "name": "739f60d3b9b49dc057cf2bbe5afa74f0", "is_reserved": 0, "rental_uris": {"android": "https://dc.lft.to/lastmile_qr_scan", "ios": "https://dc.lft.to/lastmile_qr_scan"}, "fusion_lon": 0.0}, {"lat": 38.8922065, "is_disabled": 0, "type": "electric_scooter", "lon": -77.0231535, "bike_id": "1cc05689576363c40037b0519de33b45", "fusion_lat": 0.0, "name": "1cc05689576363c40037b0519de33b45", "is_reserved": 0, "rental_uris": {"android": "https://dc.lft.to/lastmile_qr_scan", "ios": "https://dc.lft.to/lastmile_qr_scan"}, "fusion_lon": 0.0}, {"lat": 38.9446495, "is_disabled": 0, "type": "electric_scooter", "lon": -77.00655533333334, "bike_id": "2a388abd88627888d5b4132d5d28baf3", "fusion_lat": 0.0, "name": "2a388abd88627888d5b4132d5d28baf3", "is_reserved": 0, "rental_uris": {"android": "https://dc.lft.to/lastmile_qr_scan", "ios": "https://dc.lft.to/lastmile_qr_scan"}, "fusion_lon": 0.0}, {"lat": 38.90238866666667, "is_disabled": 0, "type": "electric_scooter", "lon": -77.00202216666666, "bike_id": "67c8c7cd6f6e29fa30e7391b6aed17f2", "fusion_lat": 0.0, "name": "67c8c7cd6f6e29fa30e7391b6aed17f2", "is_reserved": 0, "rental_uris": {"android": "https://dc.lft.to/lastmile_qr_scan", "ios": "https://dc.lft.to/lastmile_qr_scan"}, "fusion_lon": 0.0}, {"lat": 38.9055145, "is_disabled": 0, "type": "electric_scooter", "lon": -77.00697366666667, "bike_id": "d4a8381a94e1c06486ec3fc55501f1b1", "fusion_lat": 0.0, "name": "d4a8381a94e1c06486ec3fc55501f1b1", "is_reserved": 0, "rental_uris": {"android": "https://dc.lft.to/lastmile_qr_scan", "ios": "https://dc.lft.to/lastmile_qr_scan"}, "fusion_lon": 0.0}, {"lat": 38.93357116666667, "is_disabled": 0, "type": "electric_bike", "lon": -77.09961216666666, "bike_id": "3b4fc981cae3011d26f0d4418f06699c", "fusion_lat": 0.0, "name": "3b4fc981cae3011d26f0d4418f06699c", "is_reserved": 0, "rental_uris": {"android": "https://dc.lft.to/lastmile_qr_scan", "ios": "https://dc.lft.to/lastmile_qr_scan"}, "fusion_lon": 0.0}, {"lat": 38.90355133333333, "is_disabled": 0, "type": "electric_scooter", "lon": -77.04460633333333, "bike_id": "9b212b0047e1fa918010cd5138f106b3", "fusion_lat": 0.0, "name": "9b212b0047e1fa918010cd5138f106b3", "is_reserved": 0, "rental_uris": {"android": "https://dc.lft.to/lastmile_qr_scan", "ios": "https://dc.lft.to/lastmile_qr_scan"}, "fusion_lon": 0.0}, {"lat": 38.9192615, "is_disabled": 0, "type": "electric_scooter", "lon": -77.03208783333334, "bike_id": "bb493cc7b09a72c511c038fac77e853f", "fusion_lat": 0.0, "name": "bb493cc7b09a72c511c038fac77e853f", "is_reserved": 0, "rental_uris": {"android": "https://dc.lft.to/lastmile_qr_scan", "ios": "https://dc.lft.to/lastmile_qr_scan"}, "fusion_lon": 0.0}, {"lat": 38.902395166666665, "is_disabled": 0, "type": "electric_scooter", "lon": -77.03975616666666, "bike_id": "4fe9f6eaa57e9fb881d17cf2a0874246", "fusion_lat": 0.0, "name": "4fe9f6eaa57e9fb881d17cf2a0874246", "is_reserved": 0, "rental_uris": {"android": "https://dc.lft.to/lastmile_qr_scan", "ios": "https://dc.lft.to/lastmile_qr_scan"}, "fusion_lon": 0.0}, {"lat": 38.91680016666667, "is_disabled": 0, "type": "electric_scooter", "lon": -77.012122, "bike_id": "345abce01d2eb15574c272561ab99f67", "fusion_lat": 0.0, "name": "345abce01d2eb15574c272561ab99f67", "is_reserved": 0, "rental_uris": {"android": "https://dc.lft.to/lastmile_qr_scan", "ios": "https://dc.lft.to/lastmile_qr_scan"}, "fusion_lon": 0.0}, {"lat": 38.90072383333333, "is_disabled": 0, "type": "electric_scooter", "lon": -77.0019435, "bike_id": "a875f33b508ec19d11baa7c36b4799e6", "fusion_lat": 0.0, "name": "a875f33b508ec19d11baa7c36b4799e6", "is_reserved": 0, "rental_uris": {"android": "https://dc.lft.to/lastmile_qr_scan", "ios": "https://dc.lft.to/lastmile_qr_scan"}, "fusion_lon": 0.0}, {"lat": 38.921602666666665, "is_disabled": 0, "type": "electric_scooter", "lon": -77.02093483333333, "bike_id": "c4ad47681d22a8e7fb612f60c02111fc", "fusion_lat": 0.0, "name": "c4ad47681d22a8e7fb612f60c02111fc", "is_reserved": 0, "rental_uris": {"android": "https://dc.lft.to/lastmile_qr_scan", "ios": "https://dc.lft.to/lastmile_qr_scan"}, "fusion_lon": 0.0}, {"lat": 38.9074035, "is_disabled": 0, "type": "electric_scooter", "lon": -77.03447316666667, "bike_id": "f5383e1c769d7dc336ca47f43b709c88", "fusion_lat": 0.0, "name": "f5383e1c769d7dc336ca47f43b709c88", "is_reserved": 0, "rental_uris": {"android": "https://dc.lft.to/lastmile_qr_scan", "ios": "https://dc.lft.to/lastmile_qr_scan"}, "fusion_lon": 0.0}, {"lat": 38.9101325, "is_disabled": 0, "type": "electric_scooter", "lon": -77.02196216666667, "bike_id": "9ee2f8489549e5c8567e2d52ac8fc774", "fusion_lat": 0.0, "name": "9ee2f8489549e5c8567e2d52ac8fc774", "is_reserved": 0, "rental_uris": {"android": "https://dc.lft.to/lastmile_qr_scan", "ios": "https://dc.lft.to/lastmile_qr_scan"}, "fusion_lon": 0.0}, {"lat": 38.91302183333333, "is_disabled": 0, "type": "electric_scooter", "lon": -77.02399416666667, "bike_id": "0d764d123f021793b10482c3d550d99e", "fusion_lat": 0.0, "name": "0d764d123f021793b10482c3d550d99e", "is_reserved": 0, "rental_uris": {"android": "https://dc.lft.to/lastmile_qr_scan", "ios": "https://dc.lft.to/lastmile_qr_scan"}, "fusion_lon": 0.0}, {"lat": 38.962076, "is_disabled": 0, "type": "electric_bike", "lon": -77.035147, "bike_id": "ee8cfaf643a41009d127ea4b398df236", "fusion_lat": 0.0, "name": "ee8cfaf643a41009d127ea4b398df236", "is_reserved": 0, "rental_uris": {"android": "https://dc.lft.to/lastmile_qr_scan", "ios": "https://dc.lft.to/lastmile_qr_scan"}, "fusion_lon": 0.0}, {"lat": 38.813463, "is_disabled": 0, "type": "electric_bike", "lon": -77.04923866666667, "bike_id": "ab565af4d6ba0439226b2a773a900bad", "fusion_lat": 0.0, "name": "ab565af4d6ba0439226b2a773a900bad", "is_reserved": 0, "rental_uris": {"android": "https://dc.lft.to/lastmile_qr_scan", "ios": "https://dc.lft.to/lastmile_qr_scan"}, "fusion_lon": 0.0}, {"lat": 38.941166, "is_disabled": 0, "type": "electric_scooter", "lon": -77.0004625, "bike_id": "6d598340b029f424a296a1c830ec934b", "fusion_lat": 0.0, "name": "6d598340b029f424a296a1c830ec934b", "is_reserved": 0, "rental_uris": {"android": "https://dc.lft.to/lastmile_qr_scan", "ios": "https://dc.lft.to/lastmile_qr_scan"}, "fusion_lon": 0.0}, {"lat": 38.91356966666667, "is_disabled": 0, "type": "electric_scooter", "lon": -77.04172833333334, "bike_id": "57ec7891b5c972cae200bc779a957f84", "fusion_lat": 0.0, "name": "57ec7891b5c972cae200bc779a957f84", "is_reserved": 0, "rental_uris": {"android": "https://dc.lft.to/lastmile_qr_scan", "ios": "https://dc.lft.to/lastmile_qr_scan"}, "fusion_lon": 0.0}, {"lat": 38.9019135, "is_disabled": 0, "type": "electric_scooter", "lon": -77.03650916666666, "bike_id": "e245e372f4769d0c45b1b90da9924d7b", "fusion_lat": 0.0, "name": "e245e372f4769d0c45b1b90da9924d7b", "is_reserved": 0, "rental_uris": {"android": "https://dc.lft.to/lastmile_qr_scan", "ios": "https://dc.lft.to/lastmile_qr_scan"}, "fusion_lon": 0.0}, {"lat": 38.90164716666666, "is_disabled": 0, "type": "electric_scooter", "lon": -77.01995266666667, "bike_id": "89bb06d34859fda018ad9202865d0404", "fusion_lat": 0.0, "name": "89bb06d34859fda018ad9202865d0404", "is_reserved": 0, "rental_uris": {"android": "https://dc.lft.to/lastmile_qr_scan", "ios": "https://dc.lft.to/lastmile_qr_scan"}, "fusion_lon": 0.0}, {"lat": 38.92631016666667, "is_disabled": 0, "type": "electric_scooter", "lon": -77.03782316666667, "bike_id": "a26049ff5f66c9a847d6bb5d4c097d95", "fusion_lat": 0.0, "name": "a26049ff5f66c9a847d6bb5d4c097d95", "is_reserved": 0, "rental_uris": {"android": "https://dc.lft.to/lastmile_qr_scan", "ios": "https://dc.lft.to/lastmile_qr_scan"}, "fusion_lon": 0.0}, {"lat": 38.89555566666667, "is_disabled": 0, "type": "electric_scooter", "lon": -77.00363583333333, "bike_id": "83d863b377f44e16499464a1889c4e74", "fusion_lat": 0.0, "name": "83d863b377f44e16499464a1889c4e74", "is_reserved": 0, "rental_uris": {"android": "https://dc.lft.to/lastmile_qr_scan", "ios": "https://dc.lft.to/lastmile_qr_scan"}, "fusion_lon": 0.0}, {"lat": 38.8969055, "is_disabled": 0, "type": "electric_bike", "lon": -77.02421983333333, "bike_id": "23a94daf3b347364a5dc3806b99ff14b", "fusion_lat": 0.0, "name": "23a94daf3b347364a5dc3806b99ff14b", "is_reserved": 0, "rental_uris": {"android": "https://dc.lft.to/lastmile_qr_scan", "ios": "https://dc.lft.to/lastmile_qr_scan"}, "fusion_lon": 0.0}, {"lat": 38.90252133333333, "is_disabled": 0, "type": "electric_scooter", "lon": -77.01777666666666, "bike_id": "dfa6e3ae628b5e97bf04d5b8bdac36ea", "fusion_lat": 0.0, "name": "dfa6e3ae628b5e97bf04d5b8bdac36ea", "is_reserved": 0, "rental_uris": {"android": "https://dc.lft.to/lastmile_qr_scan", "ios": "https://dc.lft.to/lastmile_qr_scan"}, "fusion_lon": 0.0}, {"lat": 38.90726383333333, "is_disabled": 0, "type": "electric_scooter", "lon": -77.02965183333333, "bike_id": "5539f4a480656294347340b846f02791", "fusion_lat": 0.0, "name": "5539f4a480656294347340b846f02791", "is_reserved": 0, "rental_uris": {"android": "https://dc.lft.to/lastmile_qr_scan", "ios": "https://dc.lft.to/lastmile_qr_scan"}, "fusion_lon": 0.0}, {"lat": 38.91116533333334, "is_disabled": 0, "type": "electric_scooter", "lon": -77.03812783333333, "bike_id": "6d12eae313d242429883c0c43eed7ea1", "fusion_lat": 0.0, "name": "6d12eae313d242429883c0c43eed7ea1", "is_reserved": 0, "rental_uris": {"android": "https://dc.lft.to/lastmile_qr_scan", "ios": "https://dc.lft.to/lastmile_qr_scan"}, "fusion_lon": 0.0}, {"lat": 38.90719633333333, "is_disabled": 0, "type": "electric_scooter", "lon": -77.01139916666666, "bike_id": "a78f03f3cd9e64856b20d46b211610f5", "fusion_lat": 0.0, "name": "a78f03f3cd9e64856b20d46b211610f5", "is_reserved": 0, "rental_uris": {"android": "https://dc.lft.to/lastmile_qr_scan", "ios": "https://dc.lft.to/lastmile_qr_scan"}, "fusion_lon": 0.0}, {"lat": 38.902234666666665, "is_disabled": 0, "type": "electric_scooter", "lon": -77.0229115, "bike_id": "f9633afd3287c54d23e7d44f01e3a42c", "fusion_lat": 0.0, "name": "f9633afd3287c54d23e7d44f01e3a42c", "is_reserved": 0, "rental_uris": {"android": "https://dc.lft.to/lastmile_qr_scan", "ios": "https://dc.lft.to/lastmile_qr_scan"}, "fusion_lon": 0.0}, {"lat": 38.902603166666665, "is_disabled": 0, "type": "electric_scooter", "lon": -77.00322183333333, "bike_id": "75715468a9fc1738d29cbb6582aaca57", "fusion_lat": 0.0, "name": "75715468a9fc1738d29cbb6582aaca57", "is_reserved": 0, "rental_uris": {"android": "https://dc.lft.to/lastmile_qr_scan", "ios": "https://dc.lft.to/lastmile_qr_scan"}, "fusion_lon": 0.0}, {"lat": 38.90432716666667, "is_disabled": 0, "type": "electric_scooter", "lon": -77.00210366666667, "bike_id": "e5c8a1b2066c7977ec3bca4476bc81e1", "fusion_lat": 0.0, "name": "e5c8a1b2066c7977ec3bca4476bc81e1", "is_reserved": 0, "rental_uris": {"android": "https://dc.lft.to/lastmile_qr_scan", "ios": "https://dc.lft.to/lastmile_qr_scan"}, "fusion_lon": 0.0}, {"lat": 38.87617066666667, "is_disabled": 0, "type": "electric_scooter", "lon": -76.931235, "bike_id": "8a7a4d2e018c0238000a349c713d5f05", "fusion_lat": 0.0, "name": "8a7a4d2e018c0238000a349c713d5f05", "is_reserved": 0, "rental_uris": {"android": "https://dc.lft.to/lastmile_qr_scan", "ios": "https://dc.lft.to/lastmile_qr_scan"}, "fusion_lon": 0.0}, {"lat": 38.92340166666666, "is_disabled": 0, "type": "electric_scooter", "lon": -77.05029416666666, "bike_id": "b04ac9d805516d177498813e08091405", "fusion_lat": 0.0, "name": "b04ac9d805516d177498813e08091405", "is_reserved": 0, "rental_uris": {"android": "https://dc.lft.to/lastmile_qr_scan", "ios": "https://dc.lft.to/lastmile_qr_scan"}, "fusion_lon": 0.0}, {"lat": 38.9285205, "is_disabled": 0, "type": "electric_scooter", "lon": -77.03328166666667, "bike_id": "27fc36e85016f8bf8cd28757a17860a4", "fusion_lat": 0.0, "name": "27fc36e85016f8bf8cd28757a17860a4", "is_reserved": 0, "rental_uris": {"android": "https://dc.lft.to/lastmile_qr_scan", "ios": "https://dc.lft.to/lastmile_qr_scan"}, "fusion_lon": 0.0}, {"lat": 38.908424, "is_disabled": 0, "type": "electric_scooter", "lon": -76.99699516666666, "bike_id": "5a9ef61a4101953e3e3a4a1760f23c4b", "fusion_lat": 0.0, "name": "5a9ef61a4101953e3e3a4a1760f23c4b", "is_reserved": 0, "rental_uris": {"android": "https://dc.lft.to/lastmile_qr_scan", "ios": "https://dc.lft.to/lastmile_qr_scan"}, "fusion_lon": 0.0}, {"lat": 38.92239766666667, "is_disabled": 0, "type": "electric_scooter", "lon": -77.0457845, "bike_id": "112a1c2f033f8d3f245c9fe519dd8c33", "fusion_lat": 0.0, "name": "112a1c2f033f8d3f245c9fe519dd8c33", "is_reserved": 0, "rental_uris": {"android": "https://dc.lft.to/lastmile_qr_scan", "ios": "https://dc.lft.to/lastmile_qr_scan"}, "fusion_lon": 0.0}, {"lat": 38.93278, "is_disabled": 0, "type": "electric_scooter", "lon": -77.0282455, "bike_id": "ed8373bd947b0c5c1ba2653bc6f18298", "fusion_lat": 0.0, "name": "ed8373bd947b0c5c1ba2653bc6f18298", "is_reserved": 0, "rental_uris": {"android": "https://dc.lft.to/lastmile_qr_scan", "ios": "https://dc.lft.to/lastmile_qr_scan"}, "fusion_lon": 0.0}, {"lat": 38.972266, "is_disabled": 0, "type": "electric_bike", "lon": -76.99350733333333, "bike_id": "c9746fa5fdb2895c85e627caa780a879", "fusion_lat": 0.0, "name": "c9746fa5fdb2895c85e627caa780a879", "is_reserved": 0, "rental_uris": {"android": "https://dc.lft.to/lastmile_qr_scan", "ios": "https://dc.lft.to/lastmile_qr_scan"}, "fusion_lon": 0.0}, {"lat": 38.90736416666667, "is_disabled": 0, "type": "electric_scooter", "lon": -77.02954583333333, "bike_id": "0f52ada1006f3f5d367806a1594babc4", "fusion_lat": 0.0, "name": "0f52ada1006f3f5d367806a1594babc4", "is_reserved": 0, "rental_uris": {"android": "https://dc.lft.to/lastmile_qr_scan", "ios": "https://dc.lft.to/lastmile_qr_scan"}, "fusion_lon": 0.0}, {"lat": 38.933200666666664, "is_disabled": 0, "type": "electric_scooter", "lon": -77.04525783333334, "bike_id": "24b613ddcf813e7b1ccc66eb19159a20", "fusion_lat": 0.0, "name": "24b613ddcf813e7b1ccc66eb19159a20", "is_reserved": 0, "rental_uris": {"android": "https://dc.lft.to/lastmile_qr_scan", "ios": "https://dc.lft.to/lastmile_qr_scan"}, "fusion_lon": 0.0}, {"lat": 38.9031595, "is_disabled": 0, "type": "electric_scooter", "lon": -77.03769866666667, "bike_id": "1db25a76ddc0c48936139c27f79b6eb5", "fusion_lat": 0.0, "name": "1db25a76ddc0c48936139c27f79b6eb5", "is_reserved": 0, "rental_uris": {"android": "https://dc.lft.to/lastmile_qr_scan", "ios": "https://dc.lft.to/lastmile_qr_scan"}, "fusion_lon": 0.0}, {"lat": 38.927294833333335, "is_disabled": 0, "type": "electric_scooter", "lon": -77.02243983333334, "bike_id": "bdd1ca3817975ff64e48d3992859c658", "fusion_lat": 0.0, "name": "bdd1ca3817975ff64e48d3992859c658", "is_reserved": 0, "rental_uris": {"android": "https://dc.lft.to/lastmile_qr_scan", "ios": "https://dc.lft.to/lastmile_qr_scan"}, "fusion_lon": 0.0}, {"lat": 38.90005933333333, "is_disabled": 0, "type": "electric_scooter", "lon": -77.03330333333334, "bike_id": "9e219ef170d6e192e17659e42d5d8a65", "fusion_lat": 0.0, "name": "9e219ef170d6e192e17659e42d5d8a65", "is_reserved": 0, "rental_uris": {"android": "https://dc.lft.to/lastmile_qr_scan", "ios": "https://dc.lft.to/lastmile_qr_scan"}, "fusion_lon": 0.0}, {"lat": 38.89219466666667, "is_disabled": 0, "type": "electric_scooter", "lon": -77.04516, "bike_id": "2c7ca0ee687205a3100d12bff93b48b5", "fusion_lat": 0.0, "name": "2c7ca0ee687205a3100d12bff93b48b5", "is_reserved": 0, "rental_uris": {"android": "https://dc.lft.to/lastmile_qr_scan", "ios": "https://dc.lft.to/lastmile_qr_scan"}, "fusion_lon": 0.0}, {"lat": 38.907255166666666, "is_disabled": 0, "type": "electric_scooter", "lon": -77.044941, "bike_id": "35000b7f684a731d4e2db7feed2bb792", "fusion_lat": 0.0, "name": "35000b7f684a731d4e2db7feed2bb792", "is_reserved": 0, "rental_uris": {"android": "https://dc.lft.to/lastmile_qr_scan", "ios": "https://dc.lft.to/lastmile_qr_scan"}, "fusion_lon": 0.0}, {"lat": 38.917555, "is_disabled": 0, "type": "electric_scooter", "lon": -77.03188366666667, "bike_id": "db41ab0bd71078f9f517626c93ced105", "fusion_lat": 0.0, "name": "db41ab0bd71078f9f517626c93ced105", "is_reserved": 0, "rental_uris": {"android": "https://dc.lft.to/lastmile_qr_scan", "ios": "https://dc.lft.to/lastmile_qr_scan"}, "fusion_lon": 0.0}, {"lat": 38.9072645, "is_disabled": 0, "type": "electric_scooter", "lon": -77.029722, "bike_id": "e2d9c7a467d0a98f6359ca6ae0856c0b", "fusion_lat": 0.0, "name": "e2d9c7a467d0a98f6359ca6ae0856c0b", "is_reserved": 0, "rental_uris": {"android": "https://dc.lft.to/lastmile_qr_scan", "ios": "https://dc.lft.to/lastmile_qr_scan"}, "fusion_lon": 0.0}, {"lat": 38.90727866666667, "is_disabled": 0, "type": "electric_scooter", "lon": -77.03447216666666, "bike_id": "063e8af55ef0d9b43abe3fb1b7ca3b3c", "fusion_lat": 0.0, "name": "063e8af55ef0d9b43abe3fb1b7ca3b3c", "is_reserved": 0, "rental_uris": {"android": "https://dc.lft.to/lastmile_qr_scan", "ios": "https://dc.lft.to/lastmile_qr_scan"}, "fusion_lon": 0.0}, {"lat": 38.917135333333334, "is_disabled": 0, "type": "electric_scooter", "lon": -77.03836, "bike_id": "8ffa30a688f95fd1f28af4e8d77f9eb1", "fusion_lat": 0.0, "name": "8ffa30a688f95fd1f28af4e8d77f9eb1", "is_reserved": 0, "rental_uris": {"android": "https://dc.lft.to/lastmile_qr_scan", "ios": "https://dc.lft.to/lastmile_qr_scan"}, "fusion_lon": 0.0}, {"lat": 38.90262766666667, "is_disabled": 0, "type": "electric_scooter", "lon": -77.04376783333333, "bike_id": "37001fbec6260eb46f73170e2125fb6e", "fusion_lat": 0.0, "name": "37001fbec6260eb46f73170e2125fb6e", "is_reserved": 0, "rental_uris": {"android": "https://dc.lft.to/lastmile_qr_scan", "ios": "https://dc.lft.to/lastmile_qr_scan"}, "fusion_lon": 0.0}, {"lat": 38.93118966666667, "is_disabled": 0, "type": "electric_scooter", "lon": -77.02086183333333, "bike_id": "680b1c3d3020dd9590badf4df1459fcf", "fusion_lat": 0.0, "name": "680b1c3d3020dd9590badf4df1459fcf", "is_reserved": 0, "rental_uris": {"android": "https://dc.lft.to/lastmile_qr_scan", "ios": "https://dc.lft.to/lastmile_qr_scan"}, "fusion_lon": 0.0}, {"lat": 38.933773333333335, "is_disabled": 0, "type": "electric_scooter", "lon": -77.032494, "bike_id": "c7bec8531c3df881e4aaddb1e5d77646", "fusion_lat": 0.0, "name": "c7bec8531c3df881e4aaddb1e5d77646", "is_reserved": 0, "rental_uris": {"android": "https://dc.lft.to/lastmile_qr_scan", "ios": "https://dc.lft.to/lastmile_qr_scan"}, "fusion_lon": 0.0}, {"lat": 38.8858685, "is_disabled": 0, "type": "electric_scooter", "lon": -77.02188133333334, "bike_id": "7f8b50f6f820eab175c8d429074755b2", "fusion_lat": 0.0, "name": "7f8b50f6f820eab175c8d429074755b2", "is_reserved": 0, "rental_uris": {"android": "https://dc.lft.to/lastmile_qr_scan", "ios": "https://dc.lft.to/lastmile_qr_scan"}, "fusion_lon": 0.0}, {"lat": 38.90739266666667, "is_disabled": 0, "type": "electric_scooter", "lon": -77.0271415, "bike_id": "1b67805f945a6907dac39db8f0988d69", "fusion_lat": 0.0, "name": "1b67805f945a6907dac39db8f0988d69", "is_reserved": 0, "rental_uris": {"android": "https://dc.lft.to/lastmile_qr_scan", "ios": "https://dc.lft.to/lastmile_qr_scan"}, "fusion_lon": 0.0}, {"lat": 38.9277175, "is_disabled": 0, "type": "electric_scooter", "lon": -77.02708083333333, "bike_id": "271d08e1e48e95ed270c02aa1f183556", "fusion_lat": 0.0, "name": "271d08e1e48e95ed270c02aa1f183556", "is_reserved": 0, "rental_uris": {"android": "https://dc.lft.to/lastmile_qr_scan", "ios": "https://dc.lft.to/lastmile_qr_scan"}, "fusion_lon": 0.0}, {"lat": 38.805771166666666, "is_disabled": 0, "type": "electric_bike", "lon": -77.06860716666667, "bike_id": "2008dc75987e7a2834c84b9c96f70823", "fusion_lat": 0.0, "name": "2008dc75987e7a2834c84b9c96f70823", "is_reserved": 0, "rental_uris": {"android": "https://dc.lft.to/lastmile_qr_scan", "ios": "https://dc.lft.to/lastmile_qr_scan"}, "fusion_lon": 0.0}, {"lat": 38.90987233333333, "is_disabled": 0, "type": "electric_scooter", "lon": -77.04160316666666, "bike_id": "40d03ac6a953c10573808a7bfad0510c", "fusion_lat": 0.0, "name": "40d03ac6a953c10573808a7bfad0510c", "is_reserved": 0, "rental_uris": {"android": "https://dc.lft.to/lastmile_qr_scan", "ios": "https://dc.lft.to/lastmile_qr_scan"}, "fusion_lon": 0.0}, {"lat": 38.9023525, "is_disabled": 0, "type": "electric_scooter", "lon": -77.0263675, "bike_id": "3b8523e9e5e5aed531ed6155ba6529d7", "fusion_lat": 0.0, "name": "3b8523e9e5e5aed531ed6155ba6529d7", "is_reserved": 0, "rental_uris": {"android": "https://dc.lft.to/lastmile_qr_scan", "ios": "https://dc.lft.to/lastmile_qr_scan"}, "fusion_lon": 0.0}, {"lat": 38.88833433333333, "is_disabled": 0, "type": "electric_scooter", "lon": -76.9940975, "bike_id": "15876c996f50a0946c9f2f6c38afe161", "fusion_lat": 0.0, "name": "15876c996f50a0946c9f2f6c38afe161", "is_reserved": 0, "rental_uris": {"android": "https://dc.lft.to/lastmile_qr_scan", "ios": "https://dc.lft.to/lastmile_qr_scan"}, "fusion_lon": 0.0}, {"lat": 38.9167315, "is_disabled": 0, "type": "electric_scooter", "lon": -77.022982, "bike_id": "885665f2299b3360936e2f6f3f6d88b4", "fusion_lat": 0.0, "name": "885665f2299b3360936e2f6f3f6d88b4", "is_reserved": 0, "rental_uris": {"android": "https://dc.lft.to/lastmile_qr_scan", "ios": "https://dc.lft.to/lastmile_qr_scan"}, "fusion_lon": 0.0}, {"lat": 38.90109316666667, "is_disabled": 0, "type": "electric_bike", "lon": -77.048652, "bike_id": "36c1a94b87875eddc677e11cf4006275", "fusion_lat": 0.0, "name": "36c1a94b87875eddc677e11cf4006275", "is_reserved": 0, "rental_uris": {"android": "https://dc.lft.to/lastmile_qr_scan", "ios": "https://dc.lft.to/lastmile_qr_scan"}, "fusion_lon": 0.0}, {"lat": 38.98276966666667, "is_disabled": 0, "type": "electric_bike", "lon": -77.0176885, "bike_id": "e3e5ca0b1c972276ff61ce93015716c9", "fusion_lat": 0.0, "name": "e3e5ca0b1c972276ff61ce93015716c9", "is_reserved": 0, "rental_uris": {"android": "https://dc.lft.to/lastmile_qr_scan", "ios": "https://dc.lft.to/lastmile_qr_scan"}, "fusion_lon": 0.0}, {"lat": 38.90965883333333, "is_disabled": 0, "type": "electric_scooter", "lon": -77.03837333333334, "bike_id": "ab78e6f846423577280a3b3d2f147b8e", "fusion_lat": 0.0, "name": "ab78e6f846423577280a3b3d2f147b8e", "is_reserved": 0, "rental_uris": {"android": "https://dc.lft.to/lastmile_qr_scan", "ios": "https://dc.lft.to/lastmile_qr_scan"}, "fusion_lon": 0.0}, {"lat": 38.921287666666665, "is_disabled": 0, "type": "electric_scooter", "lon": -77.011627, "bike_id": "6fd1bd13c40c4ac51354e360a5e8f2e7", "fusion_lat": 0.0, "name": "6fd1bd13c40c4ac51354e360a5e8f2e7", "is_reserved": 0, "rental_uris": {"android": "https://dc.lft.to/lastmile_qr_scan", "ios": "https://dc.lft.to/lastmile_qr_scan"}, "fusion_lon": 0.0}, {"lat": 38.91747083333333, "is_disabled": 0, "type": "electric_scooter", "lon": -77.0320875, "bike_id": "011229fc37ed488f39008c98fe3ad68a", "fusion_lat": 0.0, "name": "011229fc37ed488f39008c98fe3ad68a", "is_reserved": 0, "rental_uris": {"android": "https://dc.lft.to/lastmile_qr_scan", "ios": "https://dc.lft.to/lastmile_qr_scan"}, "fusion_lon": 0.0}, {"lat": 38.9850655, "is_disabled": 0, "type": "electric_bike", "lon": -76.98214066666667, "bike_id": "cf9b8e38bf81e25c36fff404450f3339", "fusion_lat": 0.0, "name": "cf9b8e38bf81e25c36fff404450f3339", "is_reserved": 0, "rental_uris": {"android": "https://dc.lft.to/lastmile_qr_scan", "ios": "https://dc.lft.to/lastmile_qr_scan"}, "fusion_lon": 0.0}, {"lat": 38.91815616666667, "is_disabled": 0, "type": "electric_scooter", "lon": -77.024825, "bike_id": "9374437ab3d94d48342e41dfc3c5d797", "fusion_lat": 0.0, "name": "9374437ab3d94d48342e41dfc3c5d797", "is_reserved": 0, "rental_uris": {"android": "https://dc.lft.to/lastmile_qr_scan", "ios": "https://dc.lft.to/lastmile_qr_scan"}, "fusion_lon": 0.0}, {"lat": 38.91990116666667, "is_disabled": 0, "type": "electric_scooter", "lon": -77.02528, "bike_id": "5ff329029822e34f0c4f97f8f86ff073", "fusion_lat": 0.0, "name": "5ff329029822e34f0c4f97f8f86ff073", "is_reserved": 0, "rental_uris": {"android": "https://dc.lft.to/lastmile_qr_scan", "ios": "https://dc.lft.to/lastmile_qr_scan"}, "fusion_lon": 0.0}, {"lat": 38.89216483333333, "is_disabled": 0, "type": "electric_scooter", "lon": -77.0220855, "bike_id": "e3d7a201e29ba622e64e2d1ca3f0a6ec", "fusion_lat": 0.0, "name": "e3d7a201e29ba622e64e2d1ca3f0a6ec", "is_reserved": 0, "rental_uris": {"android": "https://dc.lft.to/lastmile_qr_scan", "ios": "https://dc.lft.to/lastmile_qr_scan"}, "fusion_lon": 0.0}, {"lat": 38.9041155, "is_disabled": 0, "type": "electric_scooter", "lon": -77.0504385, "bike_id": "abbca0d23875e898c94b02759b7417f9", "fusion_lat": 0.0, "name": "abbca0d23875e898c94b02759b7417f9", "is_reserved": 0, "rental_uris": {"android": "https://dc.lft.to/lastmile_qr_scan", "ios": "https://dc.lft.to/lastmile_qr_scan"}, "fusion_lon": 0.0}, {"lat": 38.908254166666666, "is_disabled": 0, "type": "electric_scooter", "lon": -77.020039, "bike_id": "3df097c1de8c4659c2513ce07d60b9b0", "fusion_lat": 0.0, "name": "3df097c1de8c4659c2513ce07d60b9b0", "is_reserved": 0, "rental_uris": {"android": "https://dc.lft.to/lastmile_qr_scan", "ios": "https://dc.lft.to/lastmile_qr_scan"}, "fusion_lon": 0.0}, {"lat": 38.8854925, "is_disabled": 0, "type": "electric_bike", "lon": -77.117884, "bike_id": "88f9a978acd6a824aea063b9a09df07e", "fusion_lat": 0.0, "name": "88f9a978acd6a824aea063b9a09df07e", "is_reserved": 0, "rental_uris": {"android": "https://dc.lft.to/lastmile_qr_scan", "ios": "https://dc.lft.to/lastmile_qr_scan"}, "fusion_lon": 0.0}, {"lat": 38.90391116666667, "is_disabled": 0, "type": "electric_scooter", "lon": -76.99003816666666, "bike_id": "1d2d6e22183f25d8f679a3bedda0eea9", "fusion_lat": 0.0, "name": "1d2d6e22183f25d8f679a3bedda0eea9", "is_reserved": 0, "rental_uris": {"android": "https://dc.lft.to/lastmile_qr_scan", "ios": "https://dc.lft.to/lastmile_qr_scan"}, "fusion_lon": 0.0}, {"lat": 38.87713683333333, "is_disabled": 0, "type": "electric_scooter", "lon": -77.0177125, "bike_id": "7ae4ac938636d882ac52b09fa86aa212", "fusion_lat": 0.0, "name": "7ae4ac938636d882ac52b09fa86aa212", "is_reserved": 0, "rental_uris": {"android": "https://dc.lft.to/lastmile_qr_scan", "ios": "https://dc.lft.to/lastmile_qr_scan"}, "fusion_lon": 0.0}, {"lat": 38.886022833333335, "is_disabled": 0, "type": "electric_scooter", "lon": -77.0189005, "bike_id": "5998824cf61e9e53122bae8dcb708498", "fusion_lat": 0.0, "name": "5998824cf61e9e53122bae8dcb708498", "is_reserved": 0, "rental_uris": {"android": "https://dc.lft.to/lastmile_qr_scan", "ios": "https://dc.lft.to/lastmile_qr_scan"}, "fusion_lon": 0.0}, {"lat": 38.948244833333334, "is_disabled": 0, "type": "electric_scooter", "lon": -76.9990385, "bike_id": "ef4c4f71a2952761fa453e6b76df72e8", "fusion_lat": 0.0, "name": "ef4c4f71a2952761fa453e6b76df72e8", "is_reserved": 0, "rental_uris": {"android": "https://dc.lft.to/lastmile_qr_scan", "ios": "https://dc.lft.to/lastmile_qr_scan"}, "fusion_lon": 0.0}, {"lat": 38.922092, "is_disabled": 0, "type": "electric_bike", "lon": -77.08201466666667, "bike_id": "3f0f32d3b4705d033b80d1e0df19b92c", "fusion_lat": 0.0, "name": "3f0f32d3b4705d033b80d1e0df19b92c", "is_reserved": 0, "rental_uris": {"android": "https://dc.lft.to/lastmile_qr_scan", "ios": "https://dc.lft.to/lastmile_qr_scan"}, "fusion_lon": 0.0}, {"lat": 38.894882333333335, "is_disabled": 0, "type": "electric_scooter", "lon": -77.02186333333333, "bike_id": "a48f09cb1f2266003f83ea3917a1afc6", "fusion_lat": 0.0, "name": "a48f09cb1f2266003f83ea3917a1afc6", "is_reserved": 0, "rental_uris": {"android": "https://dc.lft.to/lastmile_qr_scan", "ios": "https://dc.lft.to/lastmile_qr_scan"}, "fusion_lon": 0.0}, {"lat": 38.906202, "is_disabled": 0, "type": "electric_bike", "lon": -76.98613833333333, "bike_id": "2f29c21a4f270460a8462f785687ecfb", "fusion_lat": 0.0, "name": "2f29c21a4f270460a8462f785687ecfb", "is_reserved": 0, "rental_uris": {"android": "https://dc.lft.to/lastmile_qr_scan", "ios": "https://dc.lft.to/lastmile_qr_scan"}, "fusion_lon": 0.0}, {"lat": 38.91697833333333, "is_disabled": 0, "type": "electric_scooter", "lon": -76.97916733333334, "bike_id": "26b3c8ef947757d127871da4f2d4b774", "fusion_lat": 0.0, "name": "26b3c8ef947757d127871da4f2d4b774", "is_reserved": 0, "rental_uris": {"android": "https://dc.lft.to/lastmile_qr_scan", "ios": "https://dc.lft.to/lastmile_qr_scan"}, "fusion_lon": 0.0}, {"lat": 38.91968833333333, "is_disabled": 0, "type": "electric_scooter", "lon": -77.01439383333333, "bike_id": "b0ccce713270f9019cc3356ae638c2d2", "fusion_lat": 0.0, "name": "b0ccce713270f9019cc3356ae638c2d2", "is_reserved": 0, "rental_uris": {"android": "https://dc.lft.to/lastmile_qr_scan", "ios": "https://dc.lft.to/lastmile_qr_scan"}, "fusion_lon": 0.0}, {"lat": 38.88679883333333, "is_disabled": 0, "type": "electric_bike", "lon": -77.16242933333334, "bike_id": "8229f29615b4da8983f6bd6266c68086", "fusion_lat": 0.0, "name": "8229f29615b4da8983f6bd6266c68086", "is_reserved": 0, "rental_uris": {"android": "https://dc.lft.to/lastmile_qr_scan", "ios": "https://dc.lft.to/lastmile_qr_scan"}, "fusion_lon": 0.0}, {"lat": 38.902573333333336, "is_disabled": 0, "type": "electric_scooter", "lon": -77.0394935, "bike_id": "7fe4028e24fb08d5d1c43f62f2da4184", "fusion_lat": 0.0, "name": "7fe4028e24fb08d5d1c43f62f2da4184", "is_reserved": 0, "rental_uris": {"android": "https://dc.lft.to/lastmile_qr_scan", "ios": "https://dc.lft.to/lastmile_qr_scan"}, "fusion_lon": 0.0}, {"lat": 38.917308, "is_disabled": 0, "type": "electric_scooter", "lon": -77.01759366666667, "bike_id": "84494e3161f72e9f002c27d3fac91d90", "fusion_lat": 0.0, "name": "84494e3161f72e9f002c27d3fac91d90", "is_reserved": 0, "rental_uris": {"android": "https://dc.lft.to/lastmile_qr_scan", "ios": "https://dc.lft.to/lastmile_qr_scan"}, "fusion_lon": 0.0}, {"lat": 38.884492333333334, "is_disabled": 0, "type": "electric_scooter", "lon": -76.95095783333333, "bike_id": "889ff7d1011a064cdcf195346b496213", "fusion_lat": 0.0, "name": "889ff7d1011a064cdcf195346b496213", "is_reserved": 0, "rental_uris": {"android": "https://dc.lft.to/lastmile_qr_scan", "ios": "https://dc.lft.to/lastmile_qr_scan"}, "fusion_lon": 0.0}, {"lat": 38.94460183333333, "is_disabled": 0, "type": "electric_scooter", "lon": -77.06024783333334, "bike_id": "57f5732ba4c1a387a0273d4215a6c998", "fusion_lat": 0.0, "name": "57f5732ba4c1a387a0273d4215a6c998", "is_reserved": 0, "rental_uris": {"android": "https://dc.lft.to/lastmile_qr_scan", "ios": "https://dc.lft.to/lastmile_qr_scan"}, "fusion_lon": 0.0}, {"lat": 38.91741316666667, "is_disabled": 0, "type": "electric_scooter", "lon": -77.031828, "bike_id": "fbd8604f07e0746dbc364742b358fe87", "fusion_lat": 0.0, "name": "fbd8604f07e0746dbc364742b358fe87", "is_reserved": 0, "rental_uris": {"android": "https://dc.lft.to/lastmile_qr_scan", "ios": "https://dc.lft.to/lastmile_qr_scan"}, "fusion_lon": 0.0}, {"lat": 38.89681566666667, "is_disabled": 0, "type": "electric_scooter", "lon": -76.93608733333333, "bike_id": "3ef8197d3bc057771d68d759ddc97a54", "fusion_lat": 0.0, "name": "3ef8197d3bc057771d68d759ddc97a54", "is_reserved": 0, "rental_uris": {"android": "https://dc.lft.to/lastmile_qr_scan", "ios": "https://dc.lft.to/lastmile_qr_scan"}, "fusion_lon": 0.0}, {"lat": 38.94821916666667, "is_disabled": 0, "type": "electric_scooter", "lon": -76.9989685, "bike_id": "e13c1ba2889d5a6593cd806375cb8b74", "fusion_lat": 0.0, "name": "e13c1ba2889d5a6593cd806375cb8b74", "is_reserved": 0, "rental_uris": {"android": "https://dc.lft.to/lastmile_qr_scan", "ios": "https://dc.lft.to/lastmile_qr_scan"}, "fusion_lon": 0.0}, {"lat": 38.91810433333333, "is_disabled": 0, "type": "electric_scooter", "lon": -77.03157016666667, "bike_id": "c081db12ce993ef41b9ad5f1d74459a5", "fusion_lat": 0.0, "name": "c081db12ce993ef41b9ad5f1d74459a5", "is_reserved": 0, "rental_uris": {"android": "https://dc.lft.to/lastmile_qr_scan", "ios": "https://dc.lft.to/lastmile_qr_scan"}, "fusion_lon": 0.0}, {"lat": 38.921098, "is_disabled": 0, "type": "electric_scooter", "lon": -77.04164866666666, "bike_id": "6dd181fb871898978dc36e33e968d0e1", "fusion_lat": 0.0, "name": "6dd181fb871898978dc36e33e968d0e1", "is_reserved": 0, "rental_uris": {"android": "https://dc.lft.to/lastmile_qr_scan", "ios": "https://dc.lft.to/lastmile_qr_scan"}, "fusion_lon": 0.0}, {"lat": 38.930449, "is_disabled": 0, "type": "electric_bike", "lon": -77.07299733333333, "bike_id": "92a41e8bc525504a0a3e2df65af14c00", "fusion_lat": 0.0, "name": "92a41e8bc525504a0a3e2df65af14c00", "is_reserved": 0, "rental_uris": {"android": "https://dc.lft.to/lastmile_qr_scan", "ios": "https://dc.lft.to/lastmile_qr_scan"}, "fusion_lon": 0.0}, {"lat": 38.908518666666666, "is_disabled": 0, "type": "electric_scooter", "lon": -77.02062716666667, "bike_id": "fea0581e2da83d99f6a3d0661a283747", "fusion_lat": 0.0, "name": "fea0581e2da83d99f6a3d0661a283747", "is_reserved": 0, "rental_uris": {"android": "https://dc.lft.to/lastmile_qr_scan", "ios": "https://dc.lft.to/lastmile_qr_scan"}, "fusion_lon": 0.0}, {"lat": 38.930751666666666, "is_disabled": 0, "type": "electric_scooter", "lon": -77.03394016666667, "bike_id": "acce3497867b5a909245ce4e0f7cceb5", "fusion_lat": 0.0, "name": "acce3497867b5a909245ce4e0f7cceb5", "is_reserved": 0, "rental_uris": {"android": "https://dc.lft.to/lastmile_qr_scan", "ios": "https://dc.lft.to/lastmile_qr_scan"}, "fusion_lon": 0.0}, {"lat": 38.90227516666667, "is_disabled": 0, "type": "electric_scooter", "lon": -77.06061766666667, "bike_id": "f0ce7336c9d6b195e19b5436f875e283", "fusion_lat": 0.0, "name": "f0ce7336c9d6b195e19b5436f875e283", "is_reserved": 0, "rental_uris": {"android": "https://dc.lft.to/lastmile_qr_scan", "ios": "https://dc.lft.to/lastmile_qr_scan"}, "fusion_lon": 0.0}, {"lat": 38.9244845, "is_disabled": 0, "type": "electric_scooter", "lon": -77.04199516666667, "bike_id": "1a4ea1cf8b424235b3dfa1672603dbd2", "fusion_lat": 0.0, "name": "1a4ea1cf8b424235b3dfa1672603dbd2", "is_reserved": 0, "rental_uris": {"android": "https://dc.lft.to/lastmile_qr_scan", "ios": "https://dc.lft.to/lastmile_qr_scan"}, "fusion_lon": 0.0}, {"lat": 38.919520166666665, "is_disabled": 0, "type": "electric_scooter", "lon": -77.03231266666667, "bike_id": "112e354761522d8786b2333b8831a346", "fusion_lat": 0.0, "name": "112e354761522d8786b2333b8831a346", "is_reserved": 0, "rental_uris": {"android": "https://dc.lft.to/lastmile_qr_scan", "ios": "https://dc.lft.to/lastmile_qr_scan"}, "fusion_lon": 0.0}, {"lat": 38.905735166666666, "is_disabled": 0, "type": "electric_scooter", "lon": -77.0296975, "bike_id": "ec6edac77da6950f425ab6eb47daf0e1", "fusion_lat": 0.0, "name": "ec6edac77da6950f425ab6eb47daf0e1", "is_reserved": 0, "rental_uris": {"android": "https://dc.lft.to/lastmile_qr_scan", "ios": "https://dc.lft.to/lastmile_qr_scan"}, "fusion_lon": 0.0}, {"lat": 38.9105615, "is_disabled": 0, "type": "electric_scooter", "lon": -77.0558205, "bike_id": "11ed2fe397c49c992489445441005a1f", "fusion_lat": 0.0, "name": "11ed2fe397c49c992489445441005a1f", "is_reserved": 0, "rental_uris": {"android": "https://dc.lft.to/lastmile_qr_scan", "ios": "https://dc.lft.to/lastmile_qr_scan"}, "fusion_lon": 0.0}, {"lat": 38.900984, "is_disabled": 0, "type": "electric_scooter", "lon": -76.98477466666667, "bike_id": "bda5cc1397dff198f2878925e35fc38b", "fusion_lat": 0.0, "name": "bda5cc1397dff198f2878925e35fc38b", "is_reserved": 0, "rental_uris": {"android": "https://dc.lft.to/lastmile_qr_scan", "ios": "https://dc.lft.to/lastmile_qr_scan"}, "fusion_lon": 0.0}, {"lat": 38.90859016666667, "is_disabled": 0, "type": "electric_scooter", "lon": -77.04575566666666, "bike_id": "d7e523a1ad0787ccea261a3d6c915a7f", "fusion_lat": 0.0, "name": "d7e523a1ad0787ccea261a3d6c915a7f", "is_reserved": 0, "rental_uris": {"android": "https://dc.lft.to/lastmile_qr_scan", "ios": "https://dc.lft.to/lastmile_qr_scan"}, "fusion_lon": 0.0}, {"lat": 38.918083833333334, "is_disabled": 0, "type": "electric_scooter", "lon": -77.03170783333333, "bike_id": "9d2f1a62278e9844d65750ec40ee7faa", "fusion_lat": 0.0, "name": "9d2f1a62278e9844d65750ec40ee7faa", "is_reserved": 0, "rental_uris": {"android": "https://dc.lft.to/lastmile_qr_scan", "ios": "https://dc.lft.to/lastmile_qr_scan"}, "fusion_lon": 0.0}, {"lat": 38.90822633333333, "is_disabled": 0, "type": "electric_scooter", "lon": -77.01792283333333, "bike_id": "9abce2a5629147fc3669eab3079689d1", "fusion_lat": 0.0, "name": "9abce2a5629147fc3669eab3079689d1", "is_reserved": 0, "rental_uris": {"android": "https://dc.lft.to/lastmile_qr_scan", "ios": "https://dc.lft.to/lastmile_qr_scan"}, "fusion_lon": 0.0}, {"lat": 38.915569, "is_disabled": 0, "type": "electric_scooter", "lon": -77.02044533333333, "bike_id": "52eeb6a30ceece606c39adfae16495e1", "fusion_lat": 0.0, "name": "52eeb6a30ceece606c39adfae16495e1", "is_reserved": 0, "rental_uris": {"android": "https://dc.lft.to/lastmile_qr_scan", "ios": "https://dc.lft.to/lastmile_qr_scan"}, "fusion_lon": 0.0}, {"lat": 38.836764, "is_disabled": 0, "type": "electric_scooter", "lon": -77.00575683333334, "bike_id": "e27c280e3107391f5b64120a5118eeca", "fusion_lat": 0.0, "name": "e27c280e3107391f5b64120a5118eeca", "is_reserved": 0, "rental_uris": {"android": "https://dc.lft.to/lastmile_qr_scan", "ios": "https://dc.lft.to/lastmile_qr_scan"}, "fusion_lon": 0.0}, {"lat": 38.912579666666666, "is_disabled": 0, "type": "electric_scooter", "lon": -77.0220985, "bike_id": "954efacac064572b0a38e8972bb2da44", "fusion_lat": 0.0, "name": "954efacac064572b0a38e8972bb2da44", "is_reserved": 0, "rental_uris": {"android": "https://dc.lft.to/lastmile_qr_scan", "ios": "https://dc.lft.to/lastmile_qr_scan"}, "fusion_lon": 0.0}, {"lat": 38.90043416666666, "is_disabled": 0, "type": "electric_scooter", "lon": -77.00197966666667, "bike_id": "16b8e78fceedda04716d2be4017d4ebd", "fusion_lat": 0.0, "name": "16b8e78fceedda04716d2be4017d4ebd", "is_reserved": 0, "rental_uris": {"android": "https://dc.lft.to/lastmile_qr_scan", "ios": "https://dc.lft.to/lastmile_qr_scan"}, "fusion_lon": 0.0}, {"lat": 38.91615516666667, "is_disabled": 0, "type": "electric_bike", "lon": -77.00290883333334, "bike_id": "f4b66ecd19ae31075c7485943bee1c47", "fusion_lat": 0.0, "name": "f4b66ecd19ae31075c7485943bee1c47", "is_reserved": 0, "rental_uris": {"android": "https://dc.lft.to/lastmile_qr_scan", "ios": "https://dc.lft.to/lastmile_qr_scan"}, "fusion_lon": 0.0}, {"lat": 38.8714305, "is_disabled": 0, "type": "electric_bike", "lon": -76.93704066666666, "bike_id": "30692877e342b79219dde467d6360386", "fusion_lat": 0.0, "name": "30692877e342b79219dde467d6360386", "is_reserved": 0, "rental_uris": {"android": "https://dc.lft.to/lastmile_qr_scan", "ios": "https://dc.lft.to/lastmile_qr_scan"}, "fusion_lon": 0.0}, {"lat": 38.91422283333333, "is_disabled": 0, "type": "electric_scooter", "lon": -77.0464735, "bike_id": "bd43a8f08bb505f5d93ab9d8f8ac4137", "fusion_lat": 0.0, "name": "bd43a8f08bb505f5d93ab9d8f8ac4137", "is_reserved": 0, "rental_uris": {"android": "https://dc.lft.to/lastmile_qr_scan", "ios": "https://dc.lft.to/lastmile_qr_scan"}, "fusion_lon": 0.0}, {"lat": 38.91610716666667, "is_disabled": 0, "type": "electric_scooter", "lon": -77.04859666666667, "bike_id": "58f3683a5f46e523c92d30fdba4ef4e7", "fusion_lat": 0.0, "name": "58f3683a5f46e523c92d30fdba4ef4e7", "is_reserved": 0, "rental_uris": {"android": "https://dc.lft.to/lastmile_qr_scan", "ios": "https://dc.lft.to/lastmile_qr_scan"}, "fusion_lon": 0.0}, {"lat": 38.900650166666665, "is_disabled": 0, "type": "electric_scooter", "lon": -77.050769, "bike_id": "0e39a657d86a1687ade9fb949dfe2241", "fusion_lat": 0.0, "name": "0e39a657d86a1687ade9fb949dfe2241", "is_reserved": 0, "rental_uris": {"android": "https://dc.lft.to/lastmile_qr_scan", "ios": "https://dc.lft.to/lastmile_qr_scan"}, "fusion_lon": 0.0}, {"lat": 38.928656, "is_disabled": 0, "type": "electric_scooter", "lon": -77.03315483333333, "bike_id": "f2969710719fe51d161bcbadce5e2cd2", "fusion_lat": 0.0, "name": "f2969710719fe51d161bcbadce5e2cd2", "is_reserved": 0, "rental_uris": {"android": "https://dc.lft.to/lastmile_qr_scan", "ios": "https://dc.lft.to/lastmile_qr_scan"}, "fusion_lon": 0.0}, {"lat": 38.92471283333333, "is_disabled": 0, "type": "electric_scooter", "lon": -77.02712716666667, "bike_id": "ce3876d923ef082ef5a142dad7da259b", "fusion_lat": 0.0, "name": "ce3876d923ef082ef5a142dad7da259b", "is_reserved": 0, "rental_uris": {"android": "https://dc.lft.to/lastmile_qr_scan", "ios": "https://dc.lft.to/lastmile_qr_scan"}, "fusion_lon": 0.0}, {"lat": 38.90634283333333, "is_disabled": 0, "type": "electric_scooter", "lon": -77.02501033333333, "bike_id": "d936838c70ac3cf9ebbf8b2c82e83a52", "fusion_lat": 0.0, "name": "d936838c70ac3cf9ebbf8b2c82e83a52", "is_reserved": 0, "rental_uris": {"android": "https://dc.lft.to/lastmile_qr_scan", "ios": "https://dc.lft.to/lastmile_qr_scan"}, "fusion_lon": 0.0}, {"lat": 38.9126675, "is_disabled": 0, "type": "electric_scooter", "lon": -77.03869233333333, "bike_id": "2cae61a5fa90c007ab31b033955b5ed8", "fusion_lat": 0.0, "name": "2cae61a5fa90c007ab31b033955b5ed8", "is_reserved": 0, "rental_uris": {"android": "https://dc.lft.to/lastmile_qr_scan", "ios": "https://dc.lft.to/lastmile_qr_scan"}, "fusion_lon": 0.0}, {"lat": 38.916199, "is_disabled": 0, "type": "electric_scooter", "lon": -77.0326325, "bike_id": "a9df3994193faf7806ccd7026f288ad5", "fusion_lat": 0.0, "name": "a9df3994193faf7806ccd7026f288ad5", "is_reserved": 0, "rental_uris": {"android": "https://dc.lft.to/lastmile_qr_scan", "ios": "https://dc.lft.to/lastmile_qr_scan"}, "fusion_lon": 0.0}, {"lat": 38.8921985, "is_disabled": 0, "type": "electric_scooter", "lon": -77.031588, "bike_id": "d611d542b45a61df9eb7db469a30eaf2", "fusion_lat": 0.0, "name": "d611d542b45a61df9eb7db469a30eaf2", "is_reserved": 0, "rental_uris": {"android": "https://dc.lft.to/lastmile_qr_scan", "ios": "https://dc.lft.to/lastmile_qr_scan"}, "fusion_lon": 0.0}, {"lat": 38.8873785, "is_disabled": 0, "type": "electric_scooter", "lon": -77.02209033333334, "bike_id": "0c15c2edf0743aa9593de122dcf29358", "fusion_lat": 0.0, "name": "0c15c2edf0743aa9593de122dcf29358", "is_reserved": 0, "rental_uris": {"android": "https://dc.lft.to/lastmile_qr_scan", "ios": "https://dc.lft.to/lastmile_qr_scan"}, "fusion_lon": 0.0}, {"lat": 38.8683245, "is_disabled": 0, "type": "electric_scooter", "lon": -76.97739833333333, "bike_id": "8f2ea6860003408a5203ddcae19ccea5", "fusion_lat": 0.0, "name": "8f2ea6860003408a5203ddcae19ccea5", "is_reserved": 0, "rental_uris": {"android": "https://dc.lft.to/lastmile_qr_scan", "ios": "https://dc.lft.to/lastmile_qr_scan"}, "fusion_lon": 0.0}, {"lat": 38.89223333333333, "is_disabled": 0, "type": "electric_scooter", "lon": -77.04367683333334, "bike_id": "fb1b36e8b44a30e64c3b69883b4d81ea", "fusion_lat": 0.0, "name": "fb1b36e8b44a30e64c3b69883b4d81ea", "is_reserved": 0, "rental_uris": {"android": "https://dc.lft.to/lastmile_qr_scan", "ios": "https://dc.lft.to/lastmile_qr_scan"}, "fusion_lon": 0.0}, {"lat": 38.94837783333333, "is_disabled": 0, "type": "electric_bike", "lon": -77.03885383333333, "bike_id": "10626d40b4bd9ff40d7c4838c2b0a2e7", "fusion_lat": 0.0, "name": "10626d40b4bd9ff40d7c4838c2b0a2e7", "is_reserved": 0, "rental_uris": {"android": "https://dc.lft.to/lastmile_qr_scan", "ios": "https://dc.lft.to/lastmile_qr_scan"}, "fusion_lon": 0.0}, {"lat": 38.93205916666667, "is_disabled": 0, "type": "electric_scooter", "lon": -77.03667183333333, "bike_id": "a1fef54b91390ca547379b3d576b689c", "fusion_lat": 0.0, "name": "a1fef54b91390ca547379b3d576b689c", "is_reserved": 0, "rental_uris": {"android": "https://dc.lft.to/lastmile_qr_scan", "ios": "https://dc.lft.to/lastmile_qr_scan"}, "fusion_lon": 0.0}, {"lat": 38.898807833333336, "is_disabled": 0, "type": "electric_scooter", "lon": -77.05335933333333, "bike_id": "4851f7604694c0e62c7f3a0ed31feec5", "fusion_lat": 0.0, "name": "4851f7604694c0e62c7f3a0ed31feec5", "is_reserved": 0, "rental_uris": {"android": "https://dc.lft.to/lastmile_qr_scan", "ios": "https://dc.lft.to/lastmile_qr_scan"}, "fusion_lon": 0.0}, {"lat": 38.922808833333335, "is_disabled": 0, "type": "electric_scooter", "lon": -77.02964083333333, "bike_id": "370c55712a71611d62c8b242b15a3b53", "fusion_lat": 0.0, "name": "370c55712a71611d62c8b242b15a3b53", "is_reserved": 0, "rental_uris": {"android": "https://dc.lft.to/lastmile_qr_scan", "ios": "https://dc.lft.to/lastmile_qr_scan"}, "fusion_lon": 0.0}, {"lat": 38.906790666666666, "is_disabled": 0, "type": "electric_scooter", "lon": -77.02707866666667, "bike_id": "26728e07f4e304a806c940479a39fcc3", "fusion_lat": 0.0, "name": "26728e07f4e304a806c940479a39fcc3", "is_reserved": 0, "rental_uris": {"android": "https://dc.lft.to/lastmile_qr_scan", "ios": "https://dc.lft.to/lastmile_qr_scan"}, "fusion_lon": 0.0}, {"lat": 38.95551316666667, "is_disabled": 0, "type": "electric_bike", "lon": -76.935443, "bike_id": "2cc1ef93e14e413fbeea6662f27bfe7b", "fusion_lat": 0.0, "name": "2cc1ef93e14e413fbeea6662f27bfe7b", "is_reserved": 0, "rental_uris": {"android": "https://dc.lft.to/lastmile_qr_scan", "ios": "https://dc.lft.to/lastmile_qr_scan"}, "fusion_lon": 0.0}, {"lat": 38.863510833333336, "is_disabled": 0, "type": "electric_scooter", "lon": -76.98999666666667, "bike_id": "c3bf9faf6f2c0389e1323d96fab4ca02", "fusion_lat": 0.0, "name": "c3bf9faf6f2c0389e1323d96fab4ca02", "is_reserved": 0, "rental_uris": {"android": "https://dc.lft.to/lastmile_qr_scan", "ios": "https://dc.lft.to/lastmile_qr_scan"}, "fusion_lon": 0.0}, {"lat": 38.8991825, "is_disabled": 0, "type": "electric_scooter", "lon": -76.933638, "bike_id": "8597ba51387ea0c688a508b49eb044a5", "fusion_lat": 0.0, "name": "8597ba51387ea0c688a508b49eb044a5", "is_reserved": 0, "rental_uris": {"android": "https://dc.lft.to/lastmile_qr_scan", "ios": "https://dc.lft.to/lastmile_qr_scan"}, "fusion_lon": 0.0}, {"lat": 38.91947716666667, "is_disabled": 0, "type": "electric_scooter", "lon": -77.03222916666667, "bike_id": "23474026a3033d20fbd9c85073d703cd", "fusion_lat": 0.0, "name": "23474026a3033d20fbd9c85073d703cd", "is_reserved": 0, "rental_uris": {"android": "https://dc.lft.to/lastmile_qr_scan", "ios": "https://dc.lft.to/lastmile_qr_scan"}, "fusion_lon": 0.0}, {"lat": 38.90809516666667, "is_disabled": 0, "type": "electric_scooter", "lon": -77.03463416666666, "bike_id": "a6ba7af69cd0ff6e713b10b1733339c4", "fusion_lat": 0.0, "name": "a6ba7af69cd0ff6e713b10b1733339c4", "is_reserved": 0, "rental_uris": {"android": "https://dc.lft.to/lastmile_qr_scan", "ios": "https://dc.lft.to/lastmile_qr_scan"}, "fusion_lon": 0.0}, {"lat": 38.89502783333333, "is_disabled": 0, "type": "electric_scooter", "lon": -77.0031995, "bike_id": "cedf69500d6375ba2c68ce8d057cd7c1", "fusion_lat": 0.0, "name": "cedf69500d6375ba2c68ce8d057cd7c1", "is_reserved": 0, "rental_uris": {"android": "https://dc.lft.to/lastmile_qr_scan", "ios": "https://dc.lft.to/lastmile_qr_scan"}, "fusion_lon": 0.0}, {"lat": 38.917956, "is_disabled": 0, "type": "electric_scooter", "lon": -77.02285533333334, "bike_id": "d3827c8e7c06294144dd43d3bb6e78b7", "fusion_lat": 0.0, "name": "d3827c8e7c06294144dd43d3bb6e78b7", "is_reserved": 0, "rental_uris": {"android": "https://dc.lft.to/lastmile_qr_scan", "ios": "https://dc.lft.to/lastmile_qr_scan"}, "fusion_lon": 0.0}, {"lat": 38.92493483333333, "is_disabled": 0, "type": "electric_scooter", "lon": -77.07329516666667, "bike_id": "c993dfa78cf66f4a1c16fee6880dfce3", "fusion_lat": 0.0, "name": "c993dfa78cf66f4a1c16fee6880dfce3", "is_reserved": 0, "rental_uris": {"android": "https://dc.lft.to/lastmile_qr_scan", "ios": "https://dc.lft.to/lastmile_qr_scan"}, "fusion_lon": 0.0}, {"lat": 38.88193166666667, "is_disabled": 0, "type": "electric_scooter", "lon": -76.99618283333334, "bike_id": "c7c01c27df962ed0ab6f818aaa901f86", "fusion_lat": 0.0, "name": "c7c01c27df962ed0ab6f818aaa901f86", "is_reserved": 0, "rental_uris": {"android": "https://dc.lft.to/lastmile_qr_scan", "ios": "https://dc.lft.to/lastmile_qr_scan"}, "fusion_lon": 0.0}, {"lat": 38.870675166666665, "is_disabled": 0, "type": "electric_scooter", "lon": -77.008388, "bike_id": "3ad2d70a16aaf1b28d8d4fea7635de7e", "fusion_lat": 0.0, "name": "3ad2d70a16aaf1b28d8d4fea7635de7e", "is_reserved": 0, "rental_uris": {"android": "https://dc.lft.to/lastmile_qr_scan", "ios": "https://dc.lft.to/lastmile_qr_scan"}, "fusion_lon": 0.0}, {"lat": 38.931050666666664, "is_disabled": 0, "type": "electric_scooter", "lon": -77.030766, "bike_id": "ab6c293b17a860ced5e530096969a660", "fusion_lat": 0.0, "name": "ab6c293b17a860ced5e530096969a660", "is_reserved": 0, "rental_uris": {"android": "https://dc.lft.to/lastmile_qr_scan", "ios": "https://dc.lft.to/lastmile_qr_scan"}, "fusion_lon": 0.0}, {"lat": 38.9173295, "is_disabled": 0, "type": "electric_scooter", "lon": -77.03663333333333, "bike_id": "88c81dba34c16c52b2192f6c76a14d69", "fusion_lat": 0.0, "name": "88c81dba34c16c52b2192f6c76a14d69", "is_reserved": 0, "rental_uris": {"android": "https://dc.lft.to/lastmile_qr_scan", "ios": "https://dc.lft.to/lastmile_qr_scan"}, "fusion_lon": 0.0}, {"lat": 38.927133166666664, "is_disabled": 0, "type": "electric_scooter", "lon": -77.02083483333334, "bike_id": "d8a4371e21f37e6b7da2d6989ed2eb7d", "fusion_lat": 0.0, "name": "d8a4371e21f37e6b7da2d6989ed2eb7d", "is_reserved": 0, "rental_uris": {"android": "https://dc.lft.to/lastmile_qr_scan", "ios": "https://dc.lft.to/lastmile_qr_scan"}, "fusion_lon": 0.0}, {"lat": 38.909625166666665, "is_disabled": 0, "type": "electric_scooter", "lon": -77.0395695, "bike_id": "a1eb830eaf0c85443a9bb4e6eb44c8b1", "fusion_lat": 0.0, "name": "a1eb830eaf0c85443a9bb4e6eb44c8b1", "is_reserved": 0, "rental_uris": {"android": "https://dc.lft.to/lastmile_qr_scan", "ios": "https://dc.lft.to/lastmile_qr_scan"}, "fusion_lon": 0.0}, {"lat": 38.9037315, "is_disabled": 0, "type": "electric_scooter", "lon": -77.0291705, "bike_id": "ba51d7fc2923887b4606c651b267384d", "fusion_lat": 0.0, "name": "ba51d7fc2923887b4606c651b267384d", "is_reserved": 0, "rental_uris": {"android": "https://dc.lft.to/lastmile_qr_scan", "ios": "https://dc.lft.to/lastmile_qr_scan"}, "fusion_lon": 0.0}, {"lat": 38.875718, "is_disabled": 0, "type": "electric_scooter", "lon": -77.02073533333333, "bike_id": "e4b25b0e4d4f0d303086ae594c72095d", "fusion_lat": 0.0, "name": "e4b25b0e4d4f0d303086ae594c72095d", "is_reserved": 0, "rental_uris": {"android": "https://dc.lft.to/lastmile_qr_scan", "ios": "https://dc.lft.to/lastmile_qr_scan"}, "fusion_lon": 0.0}, {"lat": 38.919191166666664, "is_disabled": 0, "type": "electric_scooter", "lon": -77.03199466666666, "bike_id": "043fa66a7805f970d6fb8d4653ae53b0", "fusion_lat": 0.0, "name": "043fa66a7805f970d6fb8d4653ae53b0", "is_reserved": 0, "rental_uris": {"android": "https://dc.lft.to/lastmile_qr_scan", "ios": "https://dc.lft.to/lastmile_qr_scan"}, "fusion_lon": 0.0}, {"lat": 38.90852666666667, "is_disabled": 0, "type": "electric_scooter", "lon": -76.99963883333334, "bike_id": "e7dbae39fe7c507591a70b1109be6154", "fusion_lat": 0.0, "name": "e7dbae39fe7c507591a70b1109be6154", "is_reserved": 0, "rental_uris": {"android": "https://dc.lft.to/lastmile_qr_scan", "ios": "https://dc.lft.to/lastmile_qr_scan"}, "fusion_lon": 0.0}, {"lat": 38.90409183333333, "is_disabled": 0, "type": "electric_scooter", "lon": -77.04054016666667, "bike_id": "118b0dd8a32b53121b842b9720ced080", "fusion_lat": 0.0, "name": "118b0dd8a32b53121b842b9720ced080", "is_reserved": 0, "rental_uris": {"android": "https://dc.lft.to/lastmile_qr_scan", "ios": "https://dc.lft.to/lastmile_qr_scan"}, "fusion_lon": 0.0}, {"lat": 38.885142, "is_disabled": 0, "type": "electric_scooter", "lon": -77.0068175, "bike_id": "c49c3c0032e71f466745b21b46b1a1d6", "fusion_lat": 0.0, "name": "c49c3c0032e71f466745b21b46b1a1d6", "is_reserved": 0, "rental_uris": {"android": "https://dc.lft.to/lastmile_qr_scan", "ios": "https://dc.lft.to/lastmile_qr_scan"}, "fusion_lon": 0.0}, {"lat": 38.91341116666667, "is_disabled": 0, "type": "electric_scooter", "lon": -77.04883116666667, "bike_id": "99f6c543fc4ea74062a20b72659e70f7", "fusion_lat": 0.0, "name": "99f6c543fc4ea74062a20b72659e70f7", "is_reserved": 0, "rental_uris": {"android": "https://dc.lft.to/lastmile_qr_scan", "ios": "https://dc.lft.to/lastmile_qr_scan"}, "fusion_lon": 0.0}, {"lat": 39.030511, "is_disabled": 0, "type": "electric_bike", "lon": -77.09481283333334, "bike_id": "65036f3da3b66f84f8ec428d16cc7fee", "fusion_lat": 0.0, "name": "65036f3da3b66f84f8ec428d16cc7fee", "is_reserved": 0, "rental_uris": {"android": "https://dc.lft.to/lastmile_qr_scan", "ios": "https://dc.lft.to/lastmile_qr_scan"}, "fusion_lon": 0.0}, {"lat": 38.90793466666667, "is_disabled": 0, "type": "electric_scooter", "lon": -77.03796383333334, "bike_id": "c3ca5d2b56baa9dfa18868c7a8c739f8", "fusion_lat": 0.0, "name": "c3ca5d2b56baa9dfa18868c7a8c739f8", "is_reserved": 0, "rental_uris": {"android": "https://dc.lft.to/lastmile_qr_scan", "ios": "https://dc.lft.to/lastmile_qr_scan"}, "fusion_lon": 0.0}, {"lat": 38.8636805, "is_disabled": 0, "type": "electric_scooter", "lon": -76.99033333333334, "bike_id": "7fef763e343e67bc193fc09b9e7cb3b1", "fusion_lat": 0.0, "name": "7fef763e343e67bc193fc09b9e7cb3b1", "is_reserved": 0, "rental_uris": {"android": "https://dc.lft.to/lastmile_qr_scan", "ios": "https://dc.lft.to/lastmile_qr_scan"}, "fusion_lon": 0.0}, {"lat": 38.91312583333333, "is_disabled": 0, "type": "electric_scooter", "lon": -77.04160433333334, "bike_id": "0ace9250e2acb2f765e5f590a432c613", "fusion_lat": 0.0, "name": "0ace9250e2acb2f765e5f590a432c613", "is_reserved": 0, "rental_uris": {"android": "https://dc.lft.to/lastmile_qr_scan", "ios": "https://dc.lft.to/lastmile_qr_scan"}, "fusion_lon": 0.0}, {"lat": 38.92751616666666, "is_disabled": 0, "type": "electric_scooter", "lon": -76.99724916666666, "bike_id": "5db766880ead8891c8f06da6af567079", "fusion_lat": 0.0, "name": "5db766880ead8891c8f06da6af567079", "is_reserved": 0, "rental_uris": {"android": "https://dc.lft.to/lastmile_qr_scan", "ios": "https://dc.lft.to/lastmile_qr_scan"}, "fusion_lon": 0.0}, {"lat": 38.90496483333333, "is_disabled": 0, "type": "electric_scooter", "lon": -77.06281833333334, "bike_id": "ddb69d27a02bb5fd7b0594c73568e764", "fusion_lat": 0.0, "name": "ddb69d27a02bb5fd7b0594c73568e764", "is_reserved": 0, "rental_uris": {"android": "https://dc.lft.to/lastmile_qr_scan", "ios": "https://dc.lft.to/lastmile_qr_scan"}, "fusion_lon": 0.0}, {"lat": 38.9436445, "is_disabled": 0, "type": "electric_bike", "lon": -76.96779783333334, "bike_id": "4afa7fd197b8f978e9583e739e6f8352", "fusion_lat": 0.0, "name": "4afa7fd197b8f978e9583e739e6f8352", "is_reserved": 0, "rental_uris": {"android": "https://dc.lft.to/lastmile_qr_scan", "ios": "https://dc.lft.to/lastmile_qr_scan"}, "fusion_lon": 0.0}, {"lat": 38.896220666666665, "is_disabled": 0, "type": "electric_scooter", "lon": -77.0316015, "bike_id": "414405a6bee8ae3b8a60d274d64a2ac3", "fusion_lat": 0.0, "name": "414405a6bee8ae3b8a60d274d64a2ac3", "is_reserved": 0, "rental_uris": {"android": "https://dc.lft.to/lastmile_qr_scan", "ios": "https://dc.lft.to/lastmile_qr_scan"}, "fusion_lon": 0.0}, {"lat": 38.90490633333334, "is_disabled": 0, "type": "electric_scooter", "lon": -77.02947983333334, "bike_id": "3dd5634bbb7d65a3022f88217c0e7e40", "fusion_lat": 0.0, "name": "3dd5634bbb7d65a3022f88217c0e7e40", "is_reserved": 0, "rental_uris": {"android": "https://dc.lft.to/lastmile_qr_scan", "ios": "https://dc.lft.to/lastmile_qr_scan"}, "fusion_lon": 0.0}, {"lat": 38.96609016666667, "is_disabled": 0, "type": "electric_scooter", "lon": -77.0205235, "bike_id": "eb888a30759178833dcd834f9d064615", "fusion_lat": 0.0, "name": "eb888a30759178833dcd834f9d064615", "is_reserved": 0, "rental_uris": {"android": "https://dc.lft.to/lastmile_qr_scan", "ios": "https://dc.lft.to/lastmile_qr_scan"}, "fusion_lon": 0.0}, {"lat": 38.92068716666667, "is_disabled": 0, "type": "electric_scooter", "lon": -77.02521366666667, "bike_id": "647db334bd69147614b229673b8b6424", "fusion_lat": 0.0, "name": "647db334bd69147614b229673b8b6424", "is_reserved": 0, "rental_uris": {"android": "https://dc.lft.to/lastmile_qr_scan", "ios": "https://dc.lft.to/lastmile_qr_scan"}, "fusion_lon": 0.0}, {"lat": 38.901403, "is_disabled": 0, "type": "electric_scooter", "lon": -77.03272166666666, "bike_id": "b9b5ba0dc5082c5a5f489f48e2338b37", "fusion_lat": 0.0, "name": "b9b5ba0dc5082c5a5f489f48e2338b37", "is_reserved": 0, "rental_uris": {"android": "https://dc.lft.to/lastmile_qr_scan", "ios": "https://dc.lft.to/lastmile_qr_scan"}, "fusion_lon": 0.0}, {"lat": 38.91757783333333, "is_disabled": 0, "type": "electric_scooter", "lon": -77.01162116666667, "bike_id": "1d254aae98ae5444faba0f28294b9b17", "fusion_lat": 0.0, "name": "1d254aae98ae5444faba0f28294b9b17", "is_reserved": 0, "rental_uris": {"android": "https://dc.lft.to/lastmile_qr_scan", "ios": "https://dc.lft.to/lastmile_qr_scan"}, "fusion_lon": 0.0}, {"lat": 38.90731566666667, "is_disabled": 0, "type": "electric_bike", "lon": -77.01070333333334, "bike_id": "5a9872e7d504e670addc6bf4a7f1ee45", "fusion_lat": 0.0, "name": "5a9872e7d504e670addc6bf4a7f1ee45", "is_reserved": 0, "rental_uris": {"android": "https://dc.lft.to/lastmile_qr_scan", "ios": "https://dc.lft.to/lastmile_qr_scan"}, "fusion_lon": 0.0}, {"lat": 38.90740016666667, "is_disabled": 0, "type": "electric_scooter", "lon": -77.02959983333334, "bike_id": "9ea30c91a62f1a89f413c3a331d964e4", "fusion_lat": 0.0, "name": "9ea30c91a62f1a89f413c3a331d964e4", "is_reserved": 0, "rental_uris": {"android": "https://dc.lft.to/lastmile_qr_scan", "ios": "https://dc.lft.to/lastmile_qr_scan"}, "fusion_lon": 0.0}, {"lat": 38.86105666666667, "is_disabled": 0, "type": "electric_scooter", "lon": -76.98884716666667, "bike_id": "a2a5d2bfcc5c50f84146f1c0bf49f86c", "fusion_lat": 0.0, "name": "a2a5d2bfcc5c50f84146f1c0bf49f86c", "is_reserved": 0, "rental_uris": {"android": "https://dc.lft.to/lastmile_qr_scan", "ios": "https://dc.lft.to/lastmile_qr_scan"}, "fusion_lon": 0.0}, {"lat": 38.89612, "is_disabled": 0, "type": "electric_scooter", "lon": -77.03169683333333, "bike_id": "beb9512bbcf345efb348111c40494b7f", "fusion_lat": 0.0, "name": "beb9512bbcf345efb348111c40494b7f", "is_reserved": 0, "rental_uris": {"android": "https://dc.lft.to/lastmile_qr_scan", "ios": "https://dc.lft.to/lastmile_qr_scan"}, "fusion_lon": 0.0}, {"lat": 38.83731916666667, "is_disabled": 0, "type": "electric_bike", "lon": -76.99763583333333, "bike_id": "dea2f8d5e23e3e9b4b91f9568a29ef90", "fusion_lat": 0.0, "name": "dea2f8d5e23e3e9b4b91f9568a29ef90", "is_reserved": 0, "rental_uris": {"android": "https://dc.lft.to/lastmile_qr_scan", "ios": "https://dc.lft.to/lastmile_qr_scan"}, "fusion_lon": 0.0}, {"lat": 38.89550833333333, "is_disabled": 0, "type": "electric_scooter", "lon": -77.00441166666667, "bike_id": "5530e2676fdc5296bd95aa44090e0a10", "fusion_lat": 0.0, "name": "5530e2676fdc5296bd95aa44090e0a10", "is_reserved": 0, "rental_uris": {"android": "https://dc.lft.to/lastmile_qr_scan", "ios": "https://dc.lft.to/lastmile_qr_scan"}, "fusion_lon": 0.0}, {"lat": 38.93531333333333, "is_disabled": 0, "type": "electric_scooter", "lon": -77.02339816666667, "bike_id": "5b03785ce801864ad6c3dbe3341e22ab", "fusion_lat": 0.0, "name": "5b03785ce801864ad6c3dbe3341e22ab", "is_reserved": 0, "rental_uris": {"android": "https://dc.lft.to/lastmile_qr_scan", "ios": "https://dc.lft.to/lastmile_qr_scan"}, "fusion_lon": 0.0}, {"lat": 38.9026345, "is_disabled": 0, "type": "electric_scooter", "lon": -77.00352016666666, "bike_id": "815d67dd9ab673bce44667231db8cce8", "fusion_lat": 0.0, "name": "815d67dd9ab673bce44667231db8cce8", "is_reserved": 0, "rental_uris": {"android": "https://dc.lft.to/lastmile_qr_scan", "ios": "https://dc.lft.to/lastmile_qr_scan"}, "fusion_lon": 0.0}, {"lat": 38.86509916666667, "is_disabled": 0, "type": "electric_scooter", "lon": -76.99007033333334, "bike_id": "0b15e12c47b6b3420749a7466d0d8772", "fusion_lat": 0.0, "name": "0b15e12c47b6b3420749a7466d0d8772", "is_reserved": 0, "rental_uris": {"android": "https://dc.lft.to/lastmile_qr_scan", "ios": "https://dc.lft.to/lastmile_qr_scan"}, "fusion_lon": 0.0}, {"lat": 38.92929216666667, "is_disabled": 0, "type": "electric_scooter", "lon": -77.03767716666667, "bike_id": "cd3b72bfd7c075f12796dd0f0b3a0470", "fusion_lat": 0.0, "name": "cd3b72bfd7c075f12796dd0f0b3a0470", "is_reserved": 0, "rental_uris": {"android": "https://dc.lft.to/lastmile_qr_scan", "ios": "https://dc.lft.to/lastmile_qr_scan"}, "fusion_lon": 0.0}, {"lat": 38.899806, "is_disabled": 0, "type": "electric_scooter", "lon": -77.02061083333334, "bike_id": "f26af915e06c04cec2175dd6b28377a9", "fusion_lat": 0.0, "name": "f26af915e06c04cec2175dd6b28377a9", "is_reserved": 0, "rental_uris": {"android": "https://dc.lft.to/lastmile_qr_scan", "ios": "https://dc.lft.to/lastmile_qr_scan"}, "fusion_lon": 0.0}, {"lat": 38.917714333333336, "is_disabled": 0, "type": "electric_scooter", "lon": -77.01877333333333, "bike_id": "16167c55c2abdb13b1a47c57c9bc59df", "fusion_lat": 0.0, "name": "16167c55c2abdb13b1a47c57c9bc59df", "is_reserved": 0, "rental_uris": {"android": "https://dc.lft.to/lastmile_qr_scan", "ios": "https://dc.lft.to/lastmile_qr_scan"}, "fusion_lon": 0.0}, {"lat": 38.84270716666666, "is_disabled": 0, "type": "electric_bike", "lon": -76.98846066666667, "bike_id": "04b4229a18857f4732e2d011aa84ac8a", "fusion_lat": 0.0, "name": "04b4229a18857f4732e2d011aa84ac8a", "is_reserved": 0, "rental_uris": {"android": "https://dc.lft.to/lastmile_qr_scan", "ios": "https://dc.lft.to/lastmile_qr_scan"}, "fusion_lon": 0.0}, {"lat": 38.9110375, "is_disabled": 0, "type": "electric_scooter", "lon": -77.04208033333333, "bike_id": "056f3429cf3b2e2988f1ac7d4d087302", "fusion_lat": 0.0, "name": "056f3429cf3b2e2988f1ac7d4d087302", "is_reserved": 0, "rental_uris": {"android": "https://dc.lft.to/lastmile_qr_scan", "ios": "https://dc.lft.to/lastmile_qr_scan"}, "fusion_lon": 0.0}, {"lat": 38.936476666666664, "is_disabled": 0, "type": "electric_scooter", "lon": -77.02046683333333, "bike_id": "886ae64c793666907b8f57a2859c3f8f", "fusion_lat": 0.0, "name": "886ae64c793666907b8f57a2859c3f8f", "is_reserved": 0, "rental_uris": {"android": "https://dc.lft.to/lastmile_qr_scan", "ios": "https://dc.lft.to/lastmile_qr_scan"}, "fusion_lon": 0.0}, {"lat": 38.9181675, "is_disabled": 0, "type": "electric_scooter", "lon": -77.041765, "bike_id": "c7a7a6006156441f3c3b1c7d706db3d1", "fusion_lat": 0.0, "name": "c7a7a6006156441f3c3b1c7d706db3d1", "is_reserved": 0, "rental_uris": {"android": "https://dc.lft.to/lastmile_qr_scan", "ios": "https://dc.lft.to/lastmile_qr_scan"}, "fusion_lon": 0.0}, {"lat": 38.91737666666667, "is_disabled": 0, "type": "electric_scooter", "lon": -77.03664983333333, "bike_id": "50434c7eb3eb0fcf837719f64a0dab0d", "fusion_lat": 0.0, "name": "50434c7eb3eb0fcf837719f64a0dab0d", "is_reserved": 0, "rental_uris": {"android": "https://dc.lft.to/lastmile_qr_scan", "ios": "https://dc.lft.to/lastmile_qr_scan"}, "fusion_lon": 0.0}, {"lat": 38.8568165, "is_disabled": 0, "type": "electric_scooter", "lon": -76.98175516666667, "bike_id": "767a433e9d490b3a60c1e7188b04e047", "fusion_lat": 0.0, "name": "767a433e9d490b3a60c1e7188b04e047", "is_reserved": 0, "rental_uris": {"android": "https://dc.lft.to/lastmile_qr_scan", "ios": "https://dc.lft.to/lastmile_qr_scan"}, "fusion_lon": 0.0}, {"lat": 38.916572, "is_disabled": 0, "type": "electric_scooter", "lon": -77.04718883333334, "bike_id": "8151c7873eff7e8eb5903d4f519dacc5", "fusion_lat": 0.0, "name": "8151c7873eff7e8eb5903d4f519dacc5", "is_reserved": 0, "rental_uris": {"android": "https://dc.lft.to/lastmile_qr_scan", "ios": "https://dc.lft.to/lastmile_qr_scan"}, "fusion_lon": 0.0}, {"lat": 38.905517, "is_disabled": 0, "type": "electric_scooter", "lon": -77.02209816666667, "bike_id": "043cb53b4fa6437cb3b3706256c3cafc", "fusion_lat": 0.0, "name": "043cb53b4fa6437cb3b3706256c3cafc", "is_reserved": 0, "rental_uris": {"android": "https://dc.lft.to/lastmile_qr_scan", "ios": "https://dc.lft.to/lastmile_qr_scan"}, "fusion_lon": 0.0}, {"lat": 38.93689033333333, "is_disabled": 0, "type": "electric_bike", "lon": -77.05643083333334, "bike_id": "d406cdb3d829d9046cbc66f455da57b3", "fusion_lat": 0.0, "name": "d406cdb3d829d9046cbc66f455da57b3", "is_reserved": 0, "rental_uris": {"android": "https://dc.lft.to/lastmile_qr_scan", "ios": "https://dc.lft.to/lastmile_qr_scan"}, "fusion_lon": 0.0}, {"lat": 38.916760833333335, "is_disabled": 0, "type": "electric_scooter", "lon": -77.022767, "bike_id": "2d83a0bbf87c6ffd5efd934a13c3ca17", "fusion_lat": 0.0, "name": "2d83a0bbf87c6ffd5efd934a13c3ca17", "is_reserved": 0, "rental_uris": {"android": "https://dc.lft.to/lastmile_qr_scan", "ios": "https://dc.lft.to/lastmile_qr_scan"}, "fusion_lon": 0.0}, {"lat": 38.90967416666667, "is_disabled": 0, "type": "electric_scooter", "lon": -76.9960425, "bike_id": "12f6bf46169e6e9860a9f6a28a2724a5", "fusion_lat": 0.0, "name": "12f6bf46169e6e9860a9f6a28a2724a5", "is_reserved": 0, "rental_uris": {"android": "https://dc.lft.to/lastmile_qr_scan", "ios": "https://dc.lft.to/lastmile_qr_scan"}, "fusion_lon": 0.0}, {"lat": 38.89997433333333, "is_disabled": 0, "type": "electric_scooter", "lon": -76.99959283333334, "bike_id": "a02c4a23d39acf59efe9374d2de07b42", "fusion_lat": 0.0, "name": "a02c4a23d39acf59efe9374d2de07b42", "is_reserved": 0, "rental_uris": {"android": "https://dc.lft.to/lastmile_qr_scan", "ios": "https://dc.lft.to/lastmile_qr_scan"}, "fusion_lon": 0.0}, {"lat": 38.91097766666667, "is_disabled": 0, "type": "electric_scooter", "lon": -77.03200016666666, "bike_id": "ddf2fc68e5eb4816cbaf99e17e2f034c", "fusion_lat": 0.0, "name": "ddf2fc68e5eb4816cbaf99e17e2f034c", "is_reserved": 0, "rental_uris": {"android": "https://dc.lft.to/lastmile_qr_scan", "ios": "https://dc.lft.to/lastmile_qr_scan"}, "fusion_lon": 0.0}, {"lat": 38.8928715, "is_disabled": 0, "type": "electric_scooter", "lon": -76.95852733333334, "bike_id": "3705c7e31ed2c8776d8730f1cd974c2b", "fusion_lat": 0.0, "name": "3705c7e31ed2c8776d8730f1cd974c2b", "is_reserved": 0, "rental_uris": {"android": "https://dc.lft.to/lastmile_qr_scan", "ios": "https://dc.lft.to/lastmile_qr_scan"}, "fusion_lon": 0.0}, {"lat": 38.91548, "is_disabled": 0, "type": "electric_scooter", "lon": -77.07413016666666, "bike_id": "1cc76dbbb03a1c553b1391484f41b5e7", "fusion_lat": 0.0, "name": "1cc76dbbb03a1c553b1391484f41b5e7", "is_reserved": 0, "rental_uris": {"android": "https://dc.lft.to/lastmile_qr_scan", "ios": "https://dc.lft.to/lastmile_qr_scan"}, "fusion_lon": 0.0}, {"lat": 38.90681883333333, "is_disabled": 0, "type": "electric_scooter", "lon": -77.02707366666667, "bike_id": "826feb37b38785d2474b9aa2820df8d7", "fusion_lat": 0.0, "name": "826feb37b38785d2474b9aa2820df8d7", "is_reserved": 0, "rental_uris": {"android": "https://dc.lft.to/lastmile_qr_scan", "ios": "https://dc.lft.to/lastmile_qr_scan"}, "fusion_lon": 0.0}, {"lat": 38.92955533333333, "is_disabled": 0, "type": "electric_scooter", "lon": -76.99087816666666, "bike_id": "950ba92fab6bae3642b8a5c3649410c9", "fusion_lat": 0.0, "name": "950ba92fab6bae3642b8a5c3649410c9", "is_reserved": 0, "rental_uris": {"android": "https://dc.lft.to/lastmile_qr_scan", "ios": "https://dc.lft.to/lastmile_qr_scan"}, "fusion_lon": 0.0}, {"lat": 38.8872095, "is_disabled": 0, "type": "electric_scooter", "lon": -76.99607683333333, "bike_id": "4f62fb6e5ef991af8033548992d519b6", "fusion_lat": 0.0, "name": "4f62fb6e5ef991af8033548992d519b6", "is_reserved": 0, "rental_uris": {"android": "https://dc.lft.to/lastmile_qr_scan", "ios": "https://dc.lft.to/lastmile_qr_scan"}, "fusion_lon": 0.0}, {"lat": 38.91268916666667, "is_disabled": 0, "type": "electric_scooter", "lon": -77.02252166666666, "bike_id": "e27b9579cb87ad6d704d77466901be00", "fusion_lat": 0.0, "name": "e27b9579cb87ad6d704d77466901be00", "is_reserved": 0, "rental_uris": {"android": "https://dc.lft.to/lastmile_qr_scan", "ios": "https://dc.lft.to/lastmile_qr_scan"}, "fusion_lon": 0.0}, {"lat": 38.886702, "is_disabled": 0, "type": "electric_scooter", "lon": -76.99031016666666, "bike_id": "15401a448f60a5eec2279367cbb27efc", "fusion_lat": 0.0, "name": "15401a448f60a5eec2279367cbb27efc", "is_reserved": 0, "rental_uris": {"android": "https://dc.lft.to/lastmile_qr_scan", "ios": "https://dc.lft.to/lastmile_qr_scan"}, "fusion_lon": 0.0}, {"lat": 38.92335216666667, "is_disabled": 0, "type": "electric_scooter", "lon": -77.03539983333333, "bike_id": "f3f1909c7e1993a3cf13e5d8abf3fac0", "fusion_lat": 0.0, "name": "f3f1909c7e1993a3cf13e5d8abf3fac0", "is_reserved": 0, "rental_uris": {"android": "https://dc.lft.to/lastmile_qr_scan", "ios": "https://dc.lft.to/lastmile_qr_scan"}, "fusion_lon": 0.0}, {"lat": 38.904062333333336, "is_disabled": 0, "type": "electric_scooter", "lon": -77.04342616666666, "bike_id": "b8b04a5439063e29a3262042d21105d1", "fusion_lat": 0.0, "name": "b8b04a5439063e29a3262042d21105d1", "is_reserved": 0, "rental_uris": {"android": "https://dc.lft.to/lastmile_qr_scan", "ios": "https://dc.lft.to/lastmile_qr_scan"}, "fusion_lon": 0.0}, {"lat": 39.075041666666664, "is_disabled": 0, "type": "electric_bike", "lon": -77.11897883333333, "bike_id": "b9114acbc7698dd638ba0a8e370210d1", "fusion_lat": 0.0, "name": "b9114acbc7698dd638ba0a8e370210d1", "is_reserved": 0, "rental_uris": {"android": "https://dc.lft.to/lastmile_qr_scan", "ios": "https://dc.lft.to/lastmile_qr_scan"}, "fusion_lon": 0.0}, {"lat": 38.92098766666667, "is_disabled": 0, "type": "electric_scooter", "lon": -77.04577766666667, "bike_id": "317b0e7d03e75387b393673384c5d795", "fusion_lat": 0.0, "name": "317b0e7d03e75387b393673384c5d795", "is_reserved": 0, "rental_uris": {"android": "https://dc.lft.to/lastmile_qr_scan", "ios": "https://dc.lft.to/lastmile_qr_scan"}, "fusion_lon": 0.0}, {"lat": 38.9179795, "is_disabled": 0, "type": "electric_scooter", "lon": -77.03208233333334, "bike_id": "94cba2b273f160d1367daf3a85b1fa71", "fusion_lat": 0.0, "name": "94cba2b273f160d1367daf3a85b1fa71", "is_reserved": 0, "rental_uris": {"android": "https://dc.lft.to/lastmile_qr_scan", "ios": "https://dc.lft.to/lastmile_qr_scan"}, "fusion_lon": 0.0}, {"lat": 38.92333466666667, "is_disabled": 0, "type": "electric_scooter", "lon": -77.03499866666667, "bike_id": "988810147029ba76389b2d96fce53bf9", "fusion_lat": 0.0, "name": "988810147029ba76389b2d96fce53bf9", "is_reserved": 0, "rental_uris": {"android": "https://dc.lft.to/lastmile_qr_scan", "ios": "https://dc.lft.to/lastmile_qr_scan"}, "fusion_lon": 0.0}, {"lat": 38.9191855, "is_disabled": 0, "type": "electric_scooter", "lon": -77.04783, "bike_id": "7d211c7fdafc5385931f38d81d950184", "fusion_lat": 0.0, "name": "7d211c7fdafc5385931f38d81d950184", "is_reserved": 0, "rental_uris": {"android": "https://dc.lft.to/lastmile_qr_scan", "ios": "https://dc.lft.to/lastmile_qr_scan"}, "fusion_lon": 0.0}, {"lat": 38.8719675, "is_disabled": 0, "type": "electric_bike", "lon": -77.01216766666667, "bike_id": "9d5fae0fbe09d0e8a34194e3962826da", "fusion_lat": 0.0, "name": "9d5fae0fbe09d0e8a34194e3962826da", "is_reserved": 0, "rental_uris": {"android": "https://dc.lft.to/lastmile_qr_scan", "ios": "https://dc.lft.to/lastmile_qr_scan"}, "fusion_lon": 0.0}, {"lat": 38.900538, "is_disabled": 0, "type": "electric_scooter", "lon": -77.0187175, "bike_id": "090cb31a37a60ab0b73b4309c35c01dd", "fusion_lat": 0.0, "name": "090cb31a37a60ab0b73b4309c35c01dd", "is_reserved": 0, "rental_uris": {"android": "https://dc.lft.to/lastmile_qr_scan", "ios": "https://dc.lft.to/lastmile_qr_scan"}, "fusion_lon": 0.0}, {"lat": 38.959618666666664, "is_disabled": 0, "type": "electric_bike", "lon": -77.10095283333334, "bike_id": "7a1d0ad96e9a3e8f21d5bb1309cc6aae", "fusion_lat": 0.0, "name": "7a1d0ad96e9a3e8f21d5bb1309cc6aae", "is_reserved": 0, "rental_uris": {"android": "https://dc.lft.to/lastmile_qr_scan", "ios": "https://dc.lft.to/lastmile_qr_scan"}, "fusion_lon": 0.0}, {"lat": 38.884882166666664, "is_disabled": 0, "type": "electric_scooter", "lon": -77.03470433333334, "bike_id": "75c37c918479c733cec6cb5722242a57", "fusion_lat": 0.0, "name": "75c37c918479c733cec6cb5722242a57", "is_reserved": 0, "rental_uris": {"android": "https://dc.lft.to/lastmile_qr_scan", "ios": "https://dc.lft.to/lastmile_qr_scan"}, "fusion_lon": 0.0}, {"lat": 38.91616416666667, "is_disabled": 0, "type": "electric_bike", "lon": -77.00294066666666, "bike_id": "c3971c9a50dd58ec03ac6147f5a571f2", "fusion_lat": 0.0, "name": "c3971c9a50dd58ec03ac6147f5a571f2", "is_reserved": 0, "rental_uris": {"android": "https://dc.lft.to/lastmile_qr_scan", "ios": "https://dc.lft.to/lastmile_qr_scan"}, "fusion_lon": 0.0}, {"lat": 38.9249895, "is_disabled": 0, "type": "electric_scooter", "lon": -77.02157066666666, "bike_id": "10c476d5e2404d25fe2f24cf27cb2396", "fusion_lat": 0.0, "name": "10c476d5e2404d25fe2f24cf27cb2396", "is_reserved": 0, "rental_uris": {"android": "https://dc.lft.to/lastmile_qr_scan", "ios": "https://dc.lft.to/lastmile_qr_scan"}, "fusion_lon": 0.0}, {"lat": 38.959545, "is_disabled": 0, "type": "electric_scooter", "lon": -77.03313383333334, "bike_id": "37567a794649f4768e985d6ff0d7c99c", "fusion_lat": 0.0, "name": "37567a794649f4768e985d6ff0d7c99c", "is_reserved": 0, "rental_uris": {"android": "https://dc.lft.to/lastmile_qr_scan", "ios": "https://dc.lft.to/lastmile_qr_scan"}, "fusion_lon": 0.0}, {"lat": 38.9055125, "is_disabled": 0, "type": "electric_scooter", "lon": -77.05714166666667, "bike_id": "1c6ed2c5b6715b090888cb63de08f967", "fusion_lat": 0.0, "name": "1c6ed2c5b6715b090888cb63de08f967", "is_reserved": 0, "rental_uris": {"android": "https://dc.lft.to/lastmile_qr_scan", "ios": "https://dc.lft.to/lastmile_qr_scan"}, "fusion_lon": 0.0}, {"lat": 38.91324483333333, "is_disabled": 0, "type": "electric_scooter", "lon": -77.032652, "bike_id": "444468dde3cfdf9e3fbe4858f9b2d1c3", "fusion_lat": 0.0, "name": "444468dde3cfdf9e3fbe4858f9b2d1c3", "is_reserved": 0, "rental_uris": {"android": "https://dc.lft.to/lastmile_qr_scan", "ios": "https://dc.lft.to/lastmile_qr_scan"}, "fusion_lon": 0.0}, {"lat": 38.892243, "is_disabled": 0, "type": "electric_scooter", "lon": -77.04680466666667, "bike_id": "283ff02c2e793bb55ddfce4255df7762", "fusion_lat": 0.0, "name": "283ff02c2e793bb55ddfce4255df7762", "is_reserved": 0, "rental_uris": {"android": "https://dc.lft.to/lastmile_qr_scan", "ios": "https://dc.lft.to/lastmile_qr_scan"}, "fusion_lon": 0.0}, {"lat": 38.915588166666666, "is_disabled": 0, "type": "electric_scooter", "lon": -77.03863333333334, "bike_id": "5996f49884c9ab18e7aed3f7bb6c3a7a", "fusion_lat": 0.0, "name": "5996f49884c9ab18e7aed3f7bb6c3a7a", "is_reserved": 0, "rental_uris": {"android": "https://dc.lft.to/lastmile_qr_scan", "ios": "https://dc.lft.to/lastmile_qr_scan"}, "fusion_lon": 0.0}, {"lat": 38.89219466666667, "is_disabled": 0, "type": "electric_scooter", "lon": -77.02782083333334, "bike_id": "aadb60c64645e2a63fba280b0e9a4a18", "fusion_lat": 0.0, "name": "aadb60c64645e2a63fba280b0e9a4a18", "is_reserved": 0, "rental_uris": {"android": "https://dc.lft.to/lastmile_qr_scan", "ios": "https://dc.lft.to/lastmile_qr_scan"}, "fusion_lon": 0.0}, {"lat": 38.926098833333334, "is_disabled": 0, "type": "electric_scooter", "lon": -76.99605, "bike_id": "ed48fd6c272e259dd9bc017c8def4be1", "fusion_lat": 0.0, "name": "ed48fd6c272e259dd9bc017c8def4be1", "is_reserved": 0, "rental_uris": {"android": "https://dc.lft.to/lastmile_qr_scan", "ios": "https://dc.lft.to/lastmile_qr_scan"}, "fusion_lon": 0.0}, {"lat": 38.875872666666666, "is_disabled": 0, "type": "electric_bike", "lon": -77.1056705, "bike_id": "82af9737dbec3c36b00b2ad33db3ceb3", "fusion_lat": 0.0, "name": "82af9737dbec3c36b00b2ad33db3ceb3", "is_reserved": 0, "rental_uris": {"android": "https://dc.lft.to/lastmile_qr_scan", "ios": "https://dc.lft.to/lastmile_qr_scan"}, "fusion_lon": 0.0}, {"lat": 38.8899925, "is_disabled": 0, "type": "electric_scooter", "lon": -76.95410766666667, "bike_id": "305b95a37b20a75d747ef1549f121cb3", "fusion_lat": 0.0, "name": "305b95a37b20a75d747ef1549f121cb3", "is_reserved": 0, "rental_uris": {"android": "https://dc.lft.to/lastmile_qr_scan", "ios": "https://dc.lft.to/lastmile_qr_scan"}, "fusion_lon": 0.0}, {"lat": 38.912688, "is_disabled": 0, "type": "electric_scooter", "lon": -77.02253166666667, "bike_id": "a23b5358f099076ee54369ef7bdf3409", "fusion_lat": 0.0, "name": "a23b5358f099076ee54369ef7bdf3409", "is_reserved": 0, "rental_uris": {"android": "https://dc.lft.to/lastmile_qr_scan", "ios": "https://dc.lft.to/lastmile_qr_scan"}, "fusion_lon": 0.0}, {"lat": 38.89525616666667, "is_disabled": 0, "type": "electric_scooter", "lon": -77.00213183333334, "bike_id": "85dd1853e877e994f8f1fff275a36515", "fusion_lat": 0.0, "name": "85dd1853e877e994f8f1fff275a36515", "is_reserved": 0, "rental_uris": {"android": "https://dc.lft.to/lastmile_qr_scan", "ios": "https://dc.lft.to/lastmile_qr_scan"}, "fusion_lon": 0.0}, {"lat": 38.842779666666665, "is_disabled": 0, "type": "electric_bike", "lon": -76.98841366666667, "bike_id": "85015a5815ab700c3a74aaa527906e13", "fusion_lat": 0.0, "name": "85015a5815ab700c3a74aaa527906e13", "is_reserved": 0, "rental_uris": {"android": "https://dc.lft.to/lastmile_qr_scan", "ios": "https://dc.lft.to/lastmile_qr_scan"}, "fusion_lon": 0.0}, {"lat": 38.913590166666665, "is_disabled": 0, "type": "electric_scooter", "lon": -77.03956266666667, "bike_id": "560c81bb4046b559f9e05f8e224bb227", "fusion_lat": 0.0, "name": "560c81bb4046b559f9e05f8e224bb227", "is_reserved": 0, "rental_uris": {"android": "https://dc.lft.to/lastmile_qr_scan", "ios": "https://dc.lft.to/lastmile_qr_scan"}, "fusion_lon": 0.0}, {"lat": 38.8662205, "is_disabled": 0, "type": "electric_scooter", "lon": -76.987007, "bike_id": "a0e5b6dc36ca5ca7a495929773700130", "fusion_lat": 0.0, "name": "a0e5b6dc36ca5ca7a495929773700130", "is_reserved": 0, "rental_uris": {"android": "https://dc.lft.to/lastmile_qr_scan", "ios": "https://dc.lft.to/lastmile_qr_scan"}, "fusion_lon": 0.0}, {"lat": 38.884880833333334, "is_disabled": 0, "type": "electric_scooter", "lon": -77.00708816666666, "bike_id": "e3641101ef06d14a1547941f61998c1f", "fusion_lat": 0.0, "name": "e3641101ef06d14a1547941f61998c1f", "is_reserved": 0, "rental_uris": {"android": "https://dc.lft.to/lastmile_qr_scan", "ios": "https://dc.lft.to/lastmile_qr_scan"}, "fusion_lon": 0.0}, {"lat": 38.905337, "is_disabled": 0, "type": "electric_scooter", "lon": -77.043496, "bike_id": "9185a49c855e41034afc03322d06b3d4", "fusion_lat": 0.0, "name": "9185a49c855e41034afc03322d06b3d4", "is_reserved": 0, "rental_uris": {"android": "https://dc.lft.to/lastmile_qr_scan", "ios": "https://dc.lft.to/lastmile_qr_scan"}, "fusion_lon": 0.0}, {"lat": 38.91186316666667, "is_disabled": 0, "type": "electric_scooter", "lon": -77.00458133333333, "bike_id": "78e587ae1e15a7342d7d1e1b6227a2c1", "fusion_lat": 0.0, "name": "78e587ae1e15a7342d7d1e1b6227a2c1", "is_reserved": 0, "rental_uris": {"android": "https://dc.lft.to/lastmile_qr_scan", "ios": "https://dc.lft.to/lastmile_qr_scan"}, "fusion_lon": 0.0}, {"lat": 38.90537333333333, "is_disabled": 0, "type": "electric_scooter", "lon": -77.04169933333333, "bike_id": "0d33665383a07f3b71eb68cd5fda46ae", "fusion_lat": 0.0, "name": "0d33665383a07f3b71eb68cd5fda46ae", "is_reserved": 0, "rental_uris": {"android": "https://dc.lft.to/lastmile_qr_scan", "ios": "https://dc.lft.to/lastmile_qr_scan"}, "fusion_lon": 0.0}, {"lat": 38.90536483333333, "is_disabled": 0, "type": "electric_scooter", "lon": -77.04183566666667, "bike_id": "192f096143c156e2610d12bf5802659b", "fusion_lat": 0.0, "name": "192f096143c156e2610d12bf5802659b", "is_reserved": 0, "rental_uris": {"android": "https://dc.lft.to/lastmile_qr_scan", "ios": "https://dc.lft.to/lastmile_qr_scan"}, "fusion_lon": 0.0}, {"lat": 38.94925166666667, "is_disabled": 0, "type": "electric_scooter", "lon": -77.01933116666666, "bike_id": "034ab8583985f977a7a12d763688b05e", "fusion_lat": 0.0, "name": "034ab8583985f977a7a12d763688b05e", "is_reserved": 0, "rental_uris": {"android": "https://dc.lft.to/lastmile_qr_scan", "ios": "https://dc.lft.to/lastmile_qr_scan"}, "fusion_lon": 0.0}, {"lat": 38.905296166666666, "is_disabled": 0, "type": "electric_scooter", "lon": -77.02960433333334, "bike_id": "9827bf647d1b086ab26f571b6885fd5f", "fusion_lat": 0.0, "name": "9827bf647d1b086ab26f571b6885fd5f", "is_reserved": 0, "rental_uris": {"android": "https://dc.lft.to/lastmile_qr_scan", "ios": "https://dc.lft.to/lastmile_qr_scan"}, "fusion_lon": 0.0}, {"lat": 38.90702016666667, "is_disabled": 0, "type": "electric_scooter", "lon": -76.98693816666666, "bike_id": "f91ea40afc2b82621ad6e90a36424806", "fusion_lat": 0.0, "name": "f91ea40afc2b82621ad6e90a36424806", "is_reserved": 0, "rental_uris": {"android": "https://dc.lft.to/lastmile_qr_scan", "ios": "https://dc.lft.to/lastmile_qr_scan"}, "fusion_lon": 0.0}, {"lat": 38.94629533333333, "is_disabled": 0, "type": "electric_scooter", "lon": -77.01846666666667, "bike_id": "9b4f2c6b8af6bfac6cc388564cd5eb93", "fusion_lat": 0.0, "name": "9b4f2c6b8af6bfac6cc388564cd5eb93", "is_reserved": 0, "rental_uris": {"android": "https://dc.lft.to/lastmile_qr_scan", "ios": "https://dc.lft.to/lastmile_qr_scan"}, "fusion_lon": 0.0}, {"lat": 38.951835833333334, "is_disabled": 0, "type": "electric_bike", "lon": -76.935438, "bike_id": "2cd2e14a18f2c613bf28099effc5d7d7", "fusion_lat": 0.0, "name": "2cd2e14a18f2c613bf28099effc5d7d7", "is_reserved": 0, "rental_uris": {"android": "https://dc.lft.to/lastmile_qr_scan", "ios": "https://dc.lft.to/lastmile_qr_scan"}, "fusion_lon": 0.0}, {"lat": 38.909726166666665, "is_disabled": 0, "type": "electric_scooter", "lon": -77.03838816666666, "bike_id": "0b8031692b991bc670ad24591e4b6a24", "fusion_lat": 0.0, "name": "0b8031692b991bc670ad24591e4b6a24", "is_reserved": 0, "rental_uris": {"android": "https://dc.lft.to/lastmile_qr_scan", "ios": "https://dc.lft.to/lastmile_qr_scan"}, "fusion_lon": 0.0}, {"lat": 38.867482833333334, "is_disabled": 0, "type": "electric_scooter", "lon": -76.97662033333333, "bike_id": "a1bdbd9704d1efa230d9bb2affd1776e", "fusion_lat": 0.0, "name": "a1bdbd9704d1efa230d9bb2affd1776e", "is_reserved": 0, "rental_uris": {"android": "https://dc.lft.to/lastmile_qr_scan", "ios": "https://dc.lft.to/lastmile_qr_scan"}, "fusion_lon": 0.0}, {"lat": 38.909212333333336, "is_disabled": 0, "type": "electric_scooter", "lon": -77.08017316666667, "bike_id": "5d1409d56966fa86bc3d5f691d0d2e9d", "fusion_lat": 0.0, "name": "5d1409d56966fa86bc3d5f691d0d2e9d", "is_reserved": 0, "rental_uris": {"android": "https://dc.lft.to/lastmile_qr_scan", "ios": "https://dc.lft.to/lastmile_qr_scan"}, "fusion_lon": 0.0}, {"lat": 38.9200055, "is_disabled": 0, "type": "electric_scooter", "lon": -77.03947016666666, "bike_id": "d6b87405bd9c9ce8aa011864f69e8af3", "fusion_lat": 0.0, "name": "d6b87405bd9c9ce8aa011864f69e8af3", "is_reserved": 0, "rental_uris": {"android": "https://dc.lft.to/lastmile_qr_scan", "ios": "https://dc.lft.to/lastmile_qr_scan"}, "fusion_lon": 0.0}, {"lat": 38.87734, "is_disabled": 0, "type": "electric_bike", "lon": -77.118516, "bike_id": "b3e8360aaf87bc75ed3442b5994e7439", "fusion_lat": 0.0, "name": "b3e8360aaf87bc75ed3442b5994e7439", "is_reserved": 0, "rental_uris": {"android": "https://dc.lft.to/lastmile_qr_scan", "ios": "https://dc.lft.to/lastmile_qr_scan"}, "fusion_lon": 0.0}, {"lat": 38.922603, "is_disabled": 0, "type": "electric_scooter", "lon": -77.0430265, "bike_id": "12abf09d302ca43ce24c37eadb16a289", "fusion_lat": 0.0, "name": "12abf09d302ca43ce24c37eadb16a289", "is_reserved": 0, "rental_uris": {"android": "https://dc.lft.to/lastmile_qr_scan", "ios": "https://dc.lft.to/lastmile_qr_scan"}, "fusion_lon": 0.0}, {"lat": 38.914863833333335, "is_disabled": 0, "type": "electric_scooter", "lon": -77.03265616666667, "bike_id": "a198b07277fe44f1125a332e179684f8", "fusion_lat": 0.0, "name": "a198b07277fe44f1125a332e179684f8", "is_reserved": 0, "rental_uris": {"android": "https://dc.lft.to/lastmile_qr_scan", "ios": "https://dc.lft.to/lastmile_qr_scan"}, "fusion_lon": 0.0}, {"lat": 38.917878333333334, "is_disabled": 0, "type": "electric_scooter", "lon": -77.04034316666667, "bike_id": "edec0f15fc3cd32b28405208dbc7bc8d", "fusion_lat": 0.0, "name": "edec0f15fc3cd32b28405208dbc7bc8d", "is_reserved": 0, "rental_uris": {"android": "https://dc.lft.to/lastmile_qr_scan", "ios": "https://dc.lft.to/lastmile_qr_scan"}, "fusion_lon": 0.0},