{"data": {"bikes": [{"rental_uris": {"ios": "https://dc.lft.to/lastmile_qr_scan", "android": "https://dc.lft.to/lastmile_qr_scan"}, "lon": -76.98850383333334, "type": "electric_scooter", "fusion_lat": 0.0, "lat": 38.903440333333336, "name": "5dd0335dc51a515a37bb26879c7c055c", "fusion_lon": 0.0, "bike_id": "5dd0335dc51a515a37bb26879c7c055c", "is_disabled": 0, "is_reserved": 0}, {"rental_uris": {"ios": "https://dc.lft.to/lastmile_qr_scan", "android": "https://dc.lft.to/lastmile_qr_scan"}, "lon": -77.0365375, "type": "electric_scooter", "fusion_lat": 0.0, "lat": 38.93080283333333, "name": "be505405183318c38c907b9fbb331e25", "fusion_lon": 0.0, "bike_id": "be505405183318c38c907b9fbb331e25", "is_disabled": 0, "is_reserved": 0}, {"rental_uris": {"ios": "https://dc.lft.to/lastmile_qr_scan", "android": "https://dc.lft.to/lastmile_qr_scan"}, "lon": -77.02479883333334, "type": "electric_scooter", "fusion_lat": 0.0, "lat": 38.904114666666665, "name": "d73d2d40234b25e13f6a2d18a2591b3a", "fusion_lon": 0.0, "bike_id": "d73d2d40234b25e13f6a2d18a2591b3a", "is_disabled": 0, "is_reserved": 0}, {"rental_uris": {"ios": "https://dc.lft.to/lastmile_qr_scan", "android": "https://dc.lft.to/lastmile_qr_scan"}, "lon": -77.027812, "type": "electric_scooter", "fusion_lat": 0.0, "lat": 38.923727, "name": "1cca1d19dc4650edbe896533c0ba2c9b", "fusion_lon": 0.0, "bike_id": "1cca1d19dc4650edbe896533c0ba2c9b", "is_disabled": 0, "is_reserved": 0}, {"rental_uris": {"ios": "https://dc.lft.to/lastmile_qr_scan", "android": "https://dc.lft.to/lastmile_qr_scan"}, "lon": -77.04176433333333, "type": "electric_scooter", "fusion_lat": 0.0, "lat": 38.90338466666667, "name": "d2178bd39212a60666543e078c6e3ad5", "fusion_lon": 0.0, "bike_id": "d2178bd39212a60666543e078c6e3ad5", "is_disabled": 0, "is_reserved": 0}, {"rental_uris": {"ios": "https://dc.lft.to/lastmile_qr_scan", "android": "https://dc.lft.to/lastmile_qr_scan"}, "lon": -77.04717183333334, "type": "electric_scooter", "fusion_lat": 0.0, "lat": 38.909638, "name": "4db394b195b0a829213614082cad6e02", "fusion_lon": 0.0, "bike_id": "4db394b195b0a829213614082cad6e02", "is_disabled": 0, "is_reserved": 0}, {"rental_uris": {"ios": "https://dc.lft.to/lastmile_qr_scan", "android": "https://dc.lft.to/lastmile_qr_scan"}, "lon": -77.03306183333333, "type": "electric_scooter", "fusion_lat": 0.0, "lat": 38.90158016666667, "name": "566cc211006e54fe8698eb3b8e5e5f84", "fusion_lon": 0.0, "bike_id": "566cc211006e54fe8698eb3b8e5e5f84", "is_disabled": 0, "is_reserved": 0}, {"rental_uris": {"ios": "https://dc.lft.to/lastmile_qr_scan", "android": "https://dc.lft.to/lastmile_qr_scan"}, "lon": -77.02807816666666, "type": "electric_scooter", "fusion_lat": 0.0, "lat": 38.93077366666667, "name": "5743641d5d64e36f69c0fb9e0cf0ae9c", "fusion_lon": 0.0, "bike_id": "5743641d5d64e36f69c0fb9e0cf0ae9c", "is_disabled": 0, "is_reserved": 0}, {"rental_uris": {"ios": "https://dc.lft.to/lastmile_qr_scan", "android": "https://dc.lft.to/lastmile_qr_scan"}, "lon": -77.02144483333333, "type": "electric_scooter", "fusion_lat": 0.0, "lat": 38.92818466666667, "name": "5893550d6fc70234c7794ee5ce484203", "fusion_lon": 0.0, "bike_id": "5893550d6fc70234c7794ee5ce484203", "is_disabled": 0, "is_reserved": 0}, {"rental_uris": {"ios": "https://dc.lft.to/lastmile_qr_scan", "android": "https://dc.lft.to/lastmile_qr_scan"}, "lon": -77.06352433333333, "type": "electric_scooter", "fusion_lat": 0.0, "lat": 38.9444885, "name": "6895b0f699628c90f1a9594769565a86", "fusion_lon": 0.0, "bike_id": "6895b0f699628c90f1a9594769565a86", "is_disabled": 0, "is_reserved": 0}, {"rental_uris": {"ios": "https://dc.lft.to/lastmile_qr_scan", "android": "https://dc.lft.to/lastmile_qr_scan"}, "lon": -77.03427383333333, "type": "electric_scooter", "fusion_lat": 0.0, "lat": 38.91919433333333, "name": "f856ca1309264a75bbe3e4f470c88bee", "fusion_lon": 0.0, "bike_id": "f856ca1309264a75bbe3e4f470c88bee", "is_disabled": 0, "is_reserved": 0}, {"rental_uris": {"ios": "https://dc.lft.to/lastmile_qr_scan", "android": "https://dc.lft.to/lastmile_qr_scan"}, "lon": -76.94719383333333, "type": "electric_scooter", "fusion_lat": 0.0, "lat": 38.896716, "name": "dde6f68c35a6dbdbc83431838d149df2", "fusion_lon": 0.0, "bike_id": "dde6f68c35a6dbdbc83431838d149df2", "is_disabled": 0, "is_reserved": 0}, {"rental_uris": {"ios": "https://dc.lft.to/lastmile_qr_scan", "android": "https://dc.lft.to/lastmile_qr_scan"}, "lon": -77.02476683333333, "type": "electric_scooter", "fusion_lat": 0.0, "lat": 38.89761983333333, "name": "94edb2cc1f4cc1c17f511549c2b4b443", "fusion_lon": 0.0, "bike_id": "94edb2cc1f4cc1c17f511549c2b4b443", "is_disabled": 0, "is_reserved": 0}, {"rental_uris": {"ios": "https://dc.lft.to/lastmile_qr_scan", "android": "https://dc.lft.to/lastmile_qr_scan"}, "lon": -76.9985155, "type": "electric_scooter", "fusion_lat": 0.0, "lat": 38.9004105, "name": "9eae5bbf5280057eeebb1e4b266ff9bc", "fusion_lon": 0.0, "bike_id": "9eae5bbf5280057eeebb1e4b266ff9bc", "is_disabled": 0, "is_reserved": 0}, {"rental_uris": {"ios": "https://dc.lft.to/lastmile_qr_scan", "android": "https://dc.lft.to/lastmile_qr_scan"}, "lon": -77.03863083333333, "type": "electric_scooter", "fusion_lat": 0.0, "lat": 38.90361216666667, "name": "2e6774478224a2d3b0ce1ee72788dd0c", "fusion_lon": 0.0, "bike_id": "2e6774478224a2d3b0ce1ee72788dd0c", "is_disabled": 0, "is_reserved": 0}, {"rental_uris": {"ios": "https://dc.lft.to/lastmile_qr_scan", "android": "https://dc.lft.to/lastmile_qr_scan"}, "lon": -76.94833683333333, "type": "electric_scooter", "fusion_lat": 0.0, "lat": 38.8840585, "name": "f1c84d544c77f548ec2c0d45b7d3ad4b", "fusion_lon": 0.0, "bike_id": "f1c84d544c77f548ec2c0d45b7d3ad4b", "is_disabled": 0, "is_reserved": 0}, {"rental_uris": {"ios": "https://dc.lft.to/lastmile_qr_scan", "android": "https://dc.lft.to/lastmile_qr_scan"}, "lon": -76.92879716666667, "type": "electric_scooter", "fusion_lat": 0.0, "lat": 38.88440283333333, "name": "d82cd87f81c41803e15c605a904ed061", "fusion_lon": 0.0, "bike_id": "d82cd87f81c41803e15c605a904ed061", "is_disabled": 0, "is_reserved": 0}, {"rental_uris": {"ios": "https://dc.lft.to/lastmile_qr_scan", "android": "https://dc.lft.to/lastmile_qr_scan"}, "lon": -77.0804865, "type": "electric_bike", "fusion_lat": 0.0, "lat": 38.8484135, "name": "3526204799be69eaf2b14f30089a693e", "fusion_lon": 0.0, "bike_id": "3526204799be69eaf2b14f30089a693e", "is_disabled": 0, "is_reserved": 0}, {"rental_uris": {"ios": "https://dc.lft.to/lastmile_qr_scan", "android": "https://dc.lft.to/lastmile_qr_scan"}, "lon": -76.92785783333333, "type": "electric_scooter", "fusion_lat": 0.0, "lat": 38.88348666666667, "name": "e468b33aebe62ab98e73fc67a012207b", "fusion_lon": 0.0, "bike_id": "e468b33aebe62ab98e73fc67a012207b", "is_disabled": 0, "is_reserved": 0}, {"rental_uris": {"ios": "https://dc.lft.to/lastmile_qr_scan", "android": "https://dc.lft.to/lastmile_qr_scan"}, "lon": -77.04275866666667, "type": "electric_scooter", "fusion_lat": 0.0, "lat": 38.907069666666665, "name": "c8e701f17a3bd54647fd73d6c7de1a4e", "fusion_lon": 0.0, "bike_id": "c8e701f17a3bd54647fd73d6c7de1a4e", "is_disabled": 0, "is_reserved": 0}, {"rental_uris": {"ios": "https://dc.lft.to/lastmile_qr_scan", "android": "https://dc.lft.to/lastmile_qr_scan"}, "lon": -77.03969533333333, "type": "electric_scooter", "fusion_lat": 0.0, "lat": 38.902628, "name": "351719b6c52e8c079c74fb8edb5cb3c5", "fusion_lon": 0.0, "bike_id": "351719b6c52e8c079c74fb8edb5cb3c5", "is_disabled": 0, "is_reserved": 0}, {"rental_uris": {"ios": "https://dc.lft.to/lastmile_qr_scan", "android": "https://dc.lft.to/lastmile_qr_scan"}, "lon": -77.0201685, "type": "electric_bike", "fusion_lat": 0.0, "lat": 38.937266666666666, "name": "adf44383c4a14a76d9b7c05063e355b0", "fusion_lon": 0.0, "bike_id": "adf44383c4a14a76d9b7c05063e355b0", "is_disabled": 0, "is_reserved": 0}, {"rental_uris": {"ios": "https://dc.lft.to/lastmile_qr_scan", "android": "https://dc.lft.to/lastmile_qr_scan"}, "lon": -77.03652583333333, "type": "electric_scooter", "fusion_lat": 0.0, "lat": 38.90270733333333, "name": "8dc08d667105f24007b0c293d7b353c5", "fusion_lon": 0.0, "bike_id": "8dc08d667105f24007b0c293d7b353c5", "is_disabled": 0, "is_reserved": 0}, {"rental_uris": {"ios": "https://dc.lft.to/lastmile_qr_scan", "android": "https://dc.lft.to/lastmile_qr_scan"}, "lon": -77.0482715, "type": "electric_scooter", "fusion_lat": 0.0, "lat": 38.90955566666667, "name": "14ce3fb459ee363e6d3e3fd0beb4f37e", "fusion_lon": 0.0, "bike_id": "14ce3fb459ee363e6d3e3fd0beb4f37e", "is_disabled": 0, "is_reserved": 0}, {"rental_uris": {"ios": "https://dc.lft.to/lastmile_qr_scan", "android": "https://dc.lft.to/lastmile_qr_scan"}, "lon": -76.98517316666667, "type": "electric_scooter", "fusion_lat": 0.0, "lat": 38.910037, "name": "c12a8e3652b59a3063e828a082ecf044", "fusion_lon": 0.0, "bike_id": "c12a8e3652b59a3063e828a082ecf044", "is_disabled": 0, "is_reserved": 0}, {"rental_uris": {"ios": "https://dc.lft.to/lastmile_qr_scan", "android": "https://dc.lft.to/lastmile_qr_scan"}, "lon": -76.986072, "type": "electric_scooter", "fusion_lat": 0.0, "lat": 38.878297833333335, "name": "31f5dafe971668026685b2522d9de4b0", "fusion_lon": 0.0, "bike_id": "31f5dafe971668026685b2522d9de4b0", "is_disabled": 0, "is_reserved": 0}, {"rental_uris": {"ios": "https://dc.lft.to/lastmile_qr_scan", "android": "https://dc.lft.to/lastmile_qr_scan"}, "lon": -76.95676983333334, "type": "electric_bike", "fusion_lat": 0.0, "lat": 38.947279, "name": "2b8104f38d60a88e982253a02ab983eb", "fusion_lon": 0.0, "bike_id": "2b8104f38d60a88e982253a02ab983eb", "is_disabled": 0, "is_reserved": 0}, {"rental_uris": {"ios": "https://dc.lft.to/lastmile_qr_scan", "android": "https://dc.lft.to/lastmile_qr_scan"}, "lon": -77.01117116666667, "type": "electric_scooter", "fusion_lat": 0.0, "lat": 38.87091516666667, "name": "a000b704d76b9c22ba22ac95e31b2948", "fusion_lon": 0.0, "bike_id": "a000b704d76b9c22ba22ac95e31b2948", "is_disabled": 0, "is_reserved": 0}, {"rental_uris": {"ios": "https://dc.lft.to/lastmile_qr_scan", "android": "https://dc.lft.to/lastmile_qr_scan"}, "lon": -77.04567033333333, "type": "electric_scooter", "fusion_lat": 0.0, "lat": 38.910579, "name": "074809f5fa6a7ef2903ba720d5eb5b5b", "fusion_lon": 0.0, "bike_id": "074809f5fa6a7ef2903ba720d5eb5b5b", "is_disabled": 0, "is_reserved": 0}, {"rental_uris": {"ios": "https://dc.lft.to/lastmile_qr_scan", "android": "https://dc.lft.to/lastmile_qr_scan"}, "lon": -76.97412733333333, "type": "electric_scooter", "fusion_lat": 0.0, "lat": 38.90234433333333, "name": "2a803c7c772aeaa55cede88c9122a13e", "fusion_lon": 0.0, "bike_id": "2a803c7c772aeaa55cede88c9122a13e", "is_disabled": 0, "is_reserved": 0}, {"rental_uris": {"ios": "https://dc.lft.to/lastmile_qr_scan", "android": "https://dc.lft.to/lastmile_qr_scan"}, "lon": -77.038354, "type": "electric_scooter", "fusion_lat": 0.0, "lat": 38.90750533333333, "name": "159a4ecaadda8f21a73ff12650234840", "fusion_lon": 0.0, "bike_id": "159a4ecaadda8f21a73ff12650234840", "is_disabled": 0, "is_reserved": 0}, {"rental_uris": {"ios": "https://dc.lft.to/lastmile_qr_scan", "android": "https://dc.lft.to/lastmile_qr_scan"}, "lon": -77.00336783333333, "type": "electric_bike", "fusion_lat": 0.0, "lat": 38.87658116666667, "name": "2ddff5b79d16062f56ad11c4df7530e4", "fusion_lon": 0.0, "bike_id": "2ddff5b79d16062f56ad11c4df7530e4", "is_disabled": 0, "is_reserved": 0}, {"rental_uris": {"ios": "https://dc.lft.to/lastmile_qr_scan", "android": "https://dc.lft.to/lastmile_qr_scan"}, "lon": -77.03914216666666, "type": "electric_scooter", "fusion_lat": 0.0, "lat": 38.922483, "name": "8df01210f7e69748e1d801ac1e8601b3", "fusion_lon": 0.0, "bike_id": "8df01210f7e69748e1d801ac1e8601b3", "is_disabled": 0, "is_reserved": 0}, {"rental_uris": {"ios": "https://dc.lft.to/lastmile_qr_scan", "android": "https://dc.lft.to/lastmile_qr_scan"}, "lon": -77.031639, "type": "electric_scooter", "fusion_lat": 0.0, "lat": 38.893493, "name": "17778e298f70997b4548a8e49ae94342", "fusion_lon": 0.0, "bike_id": "17778e298f70997b4548a8e49ae94342", "is_disabled": 0, "is_reserved": 0}, {"rental_uris": {"ios": "https://dc.lft.to/lastmile_qr_scan", "android": "https://dc.lft.to/lastmile_qr_scan"}, "lon": -77.03408933333333, "type": "electric_scooter", "fusion_lat": 0.0, "lat": 38.924218, "name": "5d5889d33f21feb33a4190a614bb084c", "fusion_lon": 0.0, "bike_id": "5d5889d33f21feb33a4190a614bb084c", "is_disabled": 0, "is_reserved": 0}, {"rental_uris": {"ios": "https://dc.lft.to/lastmile_qr_scan", "android": "https://dc.lft.to/lastmile_qr_scan"}, "lon": -76.99460516666667, "type": "electric_scooter", "fusion_lat": 0.0, "lat": 38.851627666666666, "name": "8cfccfa2db7fc465a122c8068f5ca042", "fusion_lon": 0.0, "bike_id": "8cfccfa2db7fc465a122c8068f5ca042", "is_disabled": 0, "is_reserved": 0}, {"rental_uris": {"ios": "https://dc.lft.to/lastmile_qr_scan", "android": "https://dc.lft.to/lastmile_qr_scan"}, "lon": -76.93160083333333, "type": "electric_scooter", "fusion_lat": 0.0, "lat": 38.898768833333335, "name": "3008b23649bfb9e6bb53c9fe32d825f5", "fusion_lon": 0.0, "bike_id": "3008b23649bfb9e6bb53c9fe32d825f5", "is_disabled": 0, "is_reserved": 0}, {"rental_uris": {"ios": "https://dc.lft.to/lastmile_qr_scan", "android": "https://dc.lft.to/lastmile_qr_scan"}, "lon": -77.00614883333333, "type": "electric_scooter", "fusion_lat": 0.0, "lat": 38.90253466666667, "name": "b93a4bd27f74bd819739c7e13b6878ba", "fusion_lon": 0.0, "bike_id": "b93a4bd27f74bd819739c7e13b6878ba", "is_disabled": 0, "is_reserved": 0}, {"rental_uris": {"ios": "https://dc.lft.to/lastmile_qr_scan", "android": "https://dc.lft.to/lastmile_qr_scan"}, "lon": -76.9311505, "type": "electric_scooter", "fusion_lat": 0.0, "lat": 38.898289, "name": "b39bdd69761965ddbe1936582844499b", "fusion_lon": 0.0, "bike_id": "b39bdd69761965ddbe1936582844499b", "is_disabled": 0, "is_reserved": 0}, {"rental_uris": {"ios": "https://dc.lft.to/lastmile_qr_scan", "android": "https://dc.lft.to/lastmile_qr_scan"}, "lon": -77.02678766666666, "type": "electric_scooter", "fusion_lat": 0.0, "lat": 38.8921655, "name": "2a57199d709a94b8c301ac62fa11b11c", "fusion_lon": 0.0, "bike_id": "2a57199d709a94b8c301ac62fa11b11c", "is_disabled": 0, "is_reserved": 0}, {"rental_uris": {"ios": "https://dc.lft.to/lastmile_qr_scan", "android": "https://dc.lft.to/lastmile_qr_scan"}, "lon": -77.00685016666667, "type": "electric_scooter", "fusion_lat": 0.0, "lat": 38.9055435, "name": "f1863ab50d0aeaff1b6cb218b4340f98", "fusion_lon": 0.0, "bike_id": "f1863ab50d0aeaff1b6cb218b4340f98", "is_disabled": 0, "is_reserved": 0}, {"rental_uris": {"ios": "https://dc.lft.to/lastmile_qr_scan", "android": "https://dc.lft.to/lastmile_qr_scan"}, "lon": -76.99671066666667, "type": "electric_scooter", "fusion_lat": 0.0, "lat": 38.910085333333335, "name": "e404044c0da396685ef5bc29257bf83d", "fusion_lon": 0.0, "bike_id": "e404044c0da396685ef5bc29257bf83d", "is_disabled": 0, "is_reserved": 0}, {"rental_uris": {"ios": "https://dc.lft.to/lastmile_qr_scan", "android": "https://dc.lft.to/lastmile_qr_scan"}, "lon": -77.02594833333333, "type": "electric_scooter", "fusion_lat": 0.0, "lat": 38.89234583333333, "name": "ad54d4ed2afba20a5b76cc634ad0bd59", "fusion_lon": 0.0, "bike_id": "ad54d4ed2afba20a5b76cc634ad0bd59", "is_disabled": 0, "is_reserved": 0}, {"rental_uris": {"ios": "https://dc.lft.to/lastmile_qr_scan", "android": "https://dc.lft.to/lastmile_qr_scan"}, "lon": -76.99563233333333, "type": "electric_scooter", "fusion_lat": 0.0, "lat": 38.92868433333334, "name": "3cdb3c77a9cbea2bdcf46a4ba7134a08", "fusion_lon": 0.0, "bike_id": "3cdb3c77a9cbea2bdcf46a4ba7134a08", "is_disabled": 0, "is_reserved": 0}, {"rental_uris": {"ios": "https://dc.lft.to/lastmile_qr_scan", "android": "https://dc.lft.to/lastmile_qr_scan"}, "lon": -77.03715016666666, "type": "electric_scooter", "fusion_lat": 0.0, "lat": 38.91113216666667, "name": "9908e316b42e942709b4a56993a8764f", "fusion_lon": 0.0, "bike_id": "9908e316b42e942709b4a56993a8764f", "is_disabled": 0, "is_reserved": 0}, {"rental_uris": {"ios": "https://dc.lft.to/lastmile_qr_scan", "android": "https://dc.lft.to/lastmile_qr_scan"}, "lon": -76.93870866666667, "type": "electric_scooter", "fusion_lat": 0.0, "lat": 38.900854333333335, "name": "994a84178247acc912516fff1582d850", "fusion_lon": 0.0, "bike_id": "994a84178247acc912516fff1582d850", "is_disabled": 0, "is_reserved": 0}, {"rental_uris": {"ios": "https://dc.lft.to/lastmile_qr_scan", "android": "https://dc.lft.to/lastmile_qr_scan"}, "lon": -77.05267366666666, "type": "electric_scooter", "fusion_lat": 0.0, "lat": 38.91015133333333, "name": "2b7d3ce4d54e6587240c04db46b54a40", "fusion_lon": 0.0, "bike_id": "2b7d3ce4d54e6587240c04db46b54a40", "is_disabled": 0, "is_reserved": 0}, {"rental_uris": {"ios": "https://dc.lft.to/lastmile_qr_scan", "android": "https://dc.lft.to/lastmile_qr_scan"}, "lon": -76.97335, "type": "electric_bike", "fusion_lat": 0.0, "lat": 38.85060133333333, "name": "aa9a0ffe23c95131d6967927e6dfabd6", "fusion_lon": 0.0, "bike_id": "aa9a0ffe23c95131d6967927e6dfabd6", "is_disabled": 0, "is_reserved": 0}, {"rental_uris": {"ios": "https://dc.lft.to/lastmile_qr_scan", "android": "https://dc.lft.to/lastmile_qr_scan"}, "lon": -77.031828, "type": "electric_scooter", "fusion_lat": 0.0, "lat": 38.917299, "name": "a5c2c9cbfe679b04fd8db3027ee540b9", "fusion_lon": 0.0, "bike_id": "a5c2c9cbfe679b04fd8db3027ee540b9", "is_disabled": 0, "is_reserved": 0}, {"rental_uris": {"ios": "https://dc.lft.to/lastmile_qr_scan", "android": "https://dc.lft.to/lastmile_qr_scan"}, "lon": -77.03950316666666, "type": "electric_scooter", "fusion_lat": 0.0, "lat": 38.90270433333333, "name": "624c901e91b97c985ee344ba253eb2e3", "fusion_lon": 0.0, "bike_id": "624c901e91b97c985ee344ba253eb2e3", "is_disabled": 0, "is_reserved": 0}, {"rental_uris": {"ios": "https://dc.lft.to/lastmile_qr_scan", "android": "https://dc.lft.to/lastmile_qr_scan"}, "lon": -77.04733733333333, "type": "electric_scooter", "fusion_lat": 0.0, "lat": 38.90727366666667, "name": "ddae910314846edb37dfa8024359b393", "fusion_lon": 0.0, "bike_id": "ddae910314846edb37dfa8024359b393", "is_disabled": 0, "is_reserved": 0}, {"rental_uris": {"ios": "https://dc.lft.to/lastmile_qr_scan", "android": "https://dc.lft.to/lastmile_qr_scan"}, "lon": -77.0077145, "type": "electric_scooter", "fusion_lat": 0.0, "lat": 38.907634333333334, "name": "f52672151b25daa55d49d148c0e6cc14", "fusion_lon": 0.0, "bike_id": "f52672151b25daa55d49d148c0e6cc14", "is_disabled": 0, "is_reserved": 0}, {"rental_uris": {"ios": "https://dc.lft.to/lastmile_qr_scan", "android": "https://dc.lft.to/lastmile_qr_scan"}, "lon": -77.02043933333333, "type": "electric_scooter", "fusion_lat": 0.0, "lat": 38.91555866666667, "name": "7ccdeb97322ec197c582ae027216a8d2", "fusion_lon": 0.0, "bike_id": "7ccdeb97322ec197c582ae027216a8d2", "is_disabled": 0, "is_reserved": 0}, {"rental_uris": {"ios": "https://dc.lft.to/lastmile_qr_scan", "android": "https://dc.lft.to/lastmile_qr_scan"}, "lon": -77.00575683333334, "type": "electric_scooter", "fusion_lat": 0.0, "lat": 38.9056355, "name": "25a200ea419521c0dc60429d5fa9225b", "fusion_lon": 0.0, "bike_id": "25a200ea419521c0dc60429d5fa9225b", "is_disabled": 0, "is_reserved": 0}, {"rental_uris": {"ios": "https://dc.lft.to/lastmile_qr_scan", "android": "https://dc.lft.to/lastmile_qr_scan"}, "lon": -77.04545266666666, "type": "electric_scooter", "fusion_lat": 0.0, "lat": 38.919379166666666, "name": "a2a88e23154bd95657f1185cd3048a5f", "fusion_lon": 0.0, "bike_id": "a2a88e23154bd95657f1185cd3048a5f", "is_disabled": 0, "is_reserved": 0}, {"rental_uris": {"ios": "https://dc.lft.to/lastmile_qr_scan", "android": "https://dc.lft.to/lastmile_qr_scan"}, "lon": -77.06089683333333, "type": "electric_scooter", "fusion_lat": 0.0, "lat": 38.91209816666667, "name": "fabb082d4614cf05a551325b8daa5578", "fusion_lon": 0.0, "bike_id": "fabb082d4614cf05a551325b8daa5578", "is_disabled": 0, "is_reserved": 0}, {"rental_uris": {"ios": "https://dc.lft.to/lastmile_qr_scan", "android": "https://dc.lft.to/lastmile_qr_scan"}, "lon": -76.93530666666666, "type": "electric_scooter", "fusion_lat": 0.0, "lat": 38.8967885, "name": "bb14682ddb07af05a2ef60ef7a28eab3", "fusion_lon": 0.0, "bike_id": "bb14682ddb07af05a2ef60ef7a28eab3", "is_disabled": 0, "is_reserved": 0}, {"rental_uris": {"ios": "https://dc.lft.to/lastmile_qr_scan", "android": "https://dc.lft.to/lastmile_qr_scan"}, "lon": -77.02608333333333, "type": "electric_scooter", "fusion_lat": 0.0, "lat": 38.883991333333334, "name": "2ae0fe1c60e125e27629c281612d2e59", "fusion_lon": 0.0, "bike_id": "2ae0fe1c60e125e27629c281612d2e59", "is_disabled": 0, "is_reserved": 0}, {"rental_uris": {"ios": "https://dc.lft.to/lastmile_qr_scan", "android": "https://dc.lft.to/lastmile_qr_scan"}, "lon": -77.011184, "type": "electric_scooter", "fusion_lat": 0.0, "lat": 38.899911833333334, "name": "c1645271219182bf4b9193edf2ca1238", "fusion_lon": 0.0, "bike_id": "c1645271219182bf4b9193edf2ca1238", "is_disabled": 0, "is_reserved": 0}, {"rental_uris": {"ios": "https://dc.lft.to/lastmile_qr_scan", "android": "https://dc.lft.to/lastmile_qr_scan"}, "lon": -76.98262966666667, "type": "electric_scooter", "fusion_lat": 0.0, "lat": 38.8635045, "name": "e49735ce0bb5c974bf382066a5f26e5d", "fusion_lon": 0.0, "bike_id": "e49735ce0bb5c974bf382066a5f26e5d", "is_disabled": 0, "is_reserved": 0}, {"rental_uris": {"ios": "https://dc.lft.to/lastmile_qr_scan", "android": "https://dc.lft.to/lastmile_qr_scan"}, "lon": -77.00537383333334, "type": "electric_scooter", "fusion_lat": 0.0, "lat": 38.92894183333333, "name": "4b40fd2a0b2abcce59bd37632837fae8", "fusion_lon": 0.0, "bike_id": "4b40fd2a0b2abcce59bd37632837fae8", "is_disabled": 0, "is_reserved": 0}, {"rental_uris": {"ios": "https://dc.lft.to/lastmile_qr_scan", "android": "https://dc.lft.to/lastmile_qr_scan"}, "lon": -77.01655866666667, "type": "electric_scooter", "fusion_lat": 0.0, "lat": 38.953268666666666, "name": "2afdf9666fa947e3cf6164cccc979f41", "fusion_lon": 0.0, "bike_id": "2afdf9666fa947e3cf6164cccc979f41", "is_disabled": 0, "is_reserved": 0}, {"rental_uris": {"ios": "https://dc.lft.to/lastmile_qr_scan", "android": "https://dc.lft.to/lastmile_qr_scan"}, "lon": -77.03816033333334, "type": "electric_scooter", "fusion_lat": 0.0, "lat": 38.90969333333334, "name": "72b611cb3f6d137be0d617b72f61998c", "fusion_lon": 0.0, "bike_id": "72b611cb3f6d137be0d617b72f61998c", "is_disabled": 0, "is_reserved": 0}, {"rental_uris": {"ios": "https://dc.lft.to/lastmile_qr_scan", "android": "https://dc.lft.to/lastmile_qr_scan"}, "lon": -77.0543745, "type": "electric_scooter", "fusion_lat": 0.0, "lat": 38.896021166666664, "name": "7565edf2d654250a46f28ec5065d4f4f", "fusion_lon": 0.0, "bike_id": "7565edf2d654250a46f28ec5065d4f4f", "is_disabled": 0, "is_reserved": 0}, {"rental_uris": {"ios": "https://dc.lft.to/lastmile_qr_scan", "android": "https://dc.lft.to/lastmile_qr_scan"}, "lon": -77.002653, "type": "electric_scooter", "fusion_lat": 0.0, "lat": 38.877479, "name": "8dbb22fb2302c00c4dd74618e9bc9707", "fusion_lon": 0.0, "bike_id": "8dbb22fb2302c00c4dd74618e9bc9707", "is_disabled": 0, "is_reserved": 0}, {"rental_uris": {"ios": "https://dc.lft.to/lastmile_qr_scan", "android": "https://dc.lft.to/lastmile_qr_scan"}, "lon": -76.98558233333333, "type": "electric_bike", "fusion_lat": 0.0, "lat": 38.892133666666666, "name": "ec5737be1a6f0f0a56dd97c1e1cb39d2", "fusion_lon": 0.0, "bike_id": "ec5737be1a6f0f0a56dd97c1e1cb39d2", "is_disabled": 0, "is_reserved": 0}, {"rental_uris": {"ios": "https://dc.lft.to/lastmile_qr_scan", "android": "https://dc.lft.to/lastmile_qr_scan"}, "lon": -77.04400383333333, "type": "electric_scooter", "fusion_lat": 0.0, "lat": 38.9057485, "name": "4eb8a15e73baf08379324a448143c2b2", "fusion_lon": 0.0, "bike_id": "4eb8a15e73baf08379324a448143c2b2", "is_disabled": 0, "is_reserved": 0}, {"rental_uris": {"ios": "https://dc.lft.to/lastmile_qr_scan", "android": "https://dc.lft.to/lastmile_qr_scan"}, "lon": -77.04792483333334, "type": "electric_scooter", "fusion_lat": 0.0, "lat": 38.893667, "name": "f4ef42926b91637dda3944c002cb9767", "fusion_lon": 0.0, "bike_id": "f4ef42926b91637dda3944c002cb9767", "is_disabled": 0, "is_reserved": 0}, {"rental_uris": {"ios": "https://dc.lft.to/lastmile_qr_scan", "android": "https://dc.lft.to/lastmile_qr_scan"}, "lon": -77.01836016666667, "type": "electric_scooter", "fusion_lat": 0.0, "lat": 38.90880283333333, "name": "bd4b9fecde8939e62ead97adba6108ec", "fusion_lon": 0.0, "bike_id": "bd4b9fecde8939e62ead97adba6108ec", "is_disabled": 0, "is_reserved": 0}, {"rental_uris": {"ios": "https://dc.lft.to/lastmile_qr_scan", "android": "https://dc.lft.to/lastmile_qr_scan"}, "lon": -77.021249, "type": "electric_scooter", "fusion_lat": 0.0, "lat": 38.909715166666665, "name": "f7b6933c4ea9a54f3b7d49bcb73e03d1", "fusion_lon": 0.0, "bike_id": "f7b6933c4ea9a54f3b7d49bcb73e03d1", "is_disabled": 0, "is_reserved": 0}, {"rental_uris": {"ios": "https://dc.lft.to/lastmile_qr_scan", "android": "https://dc.lft.to/lastmile_qr_scan"}, "lon": -77.033734, "type": "electric_scooter", "fusion_lat": 0.0, "lat": 38.93836966666667, "name": "41bbf051fc40f62cfa228f0e59f21680", "fusion_lon": 0.0, "bike_id": "41bbf051fc40f62cfa228f0e59f21680", "is_disabled": 0, "is_reserved": 0}, {"rental_uris": {"ios": "https://dc.lft.to/lastmile_qr_scan", "android": "https://dc.lft.to/lastmile_qr_scan"}, "lon": -77.0115065, "type": "electric_scooter", "fusion_lat": 0.0, "lat": 38.95675883333333, "name": "825e1927d500089e50da1cfd4938ca07", "fusion_lon": 0.0, "bike_id": "825e1927d500089e50da1cfd4938ca07", "is_disabled": 0, "is_reserved": 0}, {"rental_uris": {"ios": "https://dc.lft.to/lastmile_qr_scan", "android": "https://dc.lft.to/lastmile_qr_scan"}, "lon": -77.0414475, "type": "electric_scooter", "fusion_lat": 0.0, "lat": 38.91809583333333, "name": "c6ba99e8819c4cd2354213ae5865e730", "fusion_lon": 0.0, "bike_id": "c6ba99e8819c4cd2354213ae5865e730", "is_disabled": 0, "is_reserved": 0}, {"rental_uris": {"ios": "https://dc.lft.to/lastmile_qr_scan", "android": "https://dc.lft.to/lastmile_qr_scan"}, "lon": -77.0314435, "type": "electric_scooter", "fusion_lat": 0.0, "lat": 38.912648833333336, "name": "9e2df76324ad18bbcd85bac9ab86c993", "fusion_lon": 0.0, "bike_id": "9e2df76324ad18bbcd85bac9ab86c993", "is_disabled": 0, "is_reserved": 0}, {"rental_uris": {"ios": "https://dc.lft.to/lastmile_qr_scan", "android": "https://dc.lft.to/lastmile_qr_scan"}, "lon": -77.05677683333333, "type": "electric_scooter", "fusion_lat": 0.0, "lat": 38.92331083333333, "name": "926eeb13961a0783f4fc539400bf710b", "fusion_lon": 0.0, "bike_id": "926eeb13961a0783f4fc539400bf710b", "is_disabled": 0, "is_reserved": 0}, {"rental_uris": {"ios": "https://dc.lft.to/lastmile_qr_scan", "android": "https://dc.lft.to/lastmile_qr_scan"}, "lon": -77.00209416666667, "type": "electric_scooter", "fusion_lat": 0.0, "lat": 38.82251016666667, "name": "96f9cd96493f4021a64ffb8c7a166d07", "fusion_lon": 0.0, "bike_id": "96f9cd96493f4021a64ffb8c7a166d07", "is_disabled": 0, "is_reserved": 0}, {"rental_uris": {"ios": "https://dc.lft.to/lastmile_qr_scan", "android": "https://dc.lft.to/lastmile_qr_scan"}, "lon": -76.989925, "type": "electric_scooter", "fusion_lat": 0.0, "lat": 38.864354, "name": "dbbbcddd2cfa5d14ed2654df3c1f7c79", "fusion_lon": 0.0, "bike_id": "dbbbcddd2cfa5d14ed2654df3c1f7c79", "is_disabled": 0, "is_reserved": 0}, {"rental_uris": {"ios": "https://dc.lft.to/lastmile_qr_scan", "android": "https://dc.lft.to/lastmile_qr_scan"}, "lon": -77.01967383333333, "type": "electric_scooter", "fusion_lat": 0.0, "lat": 38.88368466666667, "name": "e307ec96cd89e4ff6b9a80e8e1516bfc", "fusion_lon": 0.0, "bike_id": "e307ec96cd89e4ff6b9a80e8e1516bfc", "is_disabled": 0, "is_reserved": 0}, {"rental_uris": {"ios": "https://dc.lft.to/lastmile_qr_scan", "android": "https://dc.lft.to/lastmile_qr_scan"}, "lon": -77.03755833333334, "type": "electric_scooter", "fusion_lat": 0.0, "lat": 38.929128166666665, "name": "ee69c95f1904c7f7434510086b0aba6f", "fusion_lon": 0.0, "bike_id": "ee69c95f1904c7f7434510086b0aba6f", "is_disabled": 0, "is_reserved": 0}, {"rental_uris": {"ios": "https://dc.lft.to/lastmile_qr_scan", "android": "https://dc.lft.to/lastmile_qr_scan"}, "lon": -77.03903783333334, "type": "electric_scooter", "fusion_lat": 0.0, "lat": 38.9141375, "name": "83378d9e301eafd178035e47cb2c88fd", "fusion_lon": 0.0, "bike_id": "83378d9e301eafd178035e47cb2c88fd", "is_disabled": 0, "is_reserved": 0}, {"rental_uris": {"ios": "https://dc.lft.to/lastmile_qr_scan", "android": "https://dc.lft.to/lastmile_qr_scan"}, "lon": -77.031708, "type": "electric_scooter", "fusion_lat": 0.0, "lat": 38.91940483333333, "name": "05dd6612bea03599e5ceced863ebbbf0", "fusion_lon": 0.0, "bike_id": "05dd6612bea03599e5ceced863ebbbf0", "is_disabled": 0, "is_reserved": 0}, {"rental_uris": {"ios": "https://dc.lft.to/lastmile_qr_scan", "android": "https://dc.lft.to/lastmile_qr_scan"}, "lon": -77.03637916666666, "type": "electric_scooter", "fusion_lat": 0.0, "lat": 38.924855, "name": "6486149801d46ee1ffd960b832e09d76", "fusion_lon": 0.0, "bike_id": "6486149801d46ee1ffd960b832e09d76", "is_disabled": 0, "is_reserved": 0}, {"rental_uris": {"ios": "https://dc.lft.to/lastmile_qr_scan", "android": "https://dc.lft.to/lastmile_qr_scan"}, "lon": -77.10509483333334, "type": "electric_bike", "fusion_lat": 0.0, "lat": 38.928510333333335, "name": "023ce2148a0d7d4c66255867c0dc47cd", "fusion_lon": 0.0, "bike_id": "023ce2148a0d7d4c66255867c0dc47cd", "is_disabled": 0, "is_reserved": 0}, {"rental_uris": {"ios": "https://dc.lft.to/lastmile_qr_scan", "android": "https://dc.lft.to/lastmile_qr_scan"}, "lon": -77.006601, "type": "electric_scooter", "fusion_lat": 0.0, "lat": 38.94463433333333, "name": "e242c4b48429c9e1f6f141d1bd5300d8", "fusion_lon": 0.0, "bike_id": "e242c4b48429c9e1f6f141d1bd5300d8", "is_disabled": 0, "is_reserved": 0}, {"rental_uris": {"ios": "https://dc.lft.to/lastmile_qr_scan", "android": "https://dc.lft.to/lastmile_qr_scan"}, "lon": -77.04483933333333, "type": "electric_scooter", "fusion_lat": 0.0, "lat": 38.9156485, "name": "6e0a533e855dd932a5893bb69c2d7167", "fusion_lon": 0.0, "bike_id": "6e0a533e855dd932a5893bb69c2d7167", "is_disabled": 0, "is_reserved": 0}, {"rental_uris": {"ios": "https://dc.lft.to/lastmile_qr_scan", "android": "https://dc.lft.to/lastmile_qr_scan"}, "lon": -76.9842285, "type": "electric_scooter", "fusion_lat": 0.0, "lat": 38.85970916666667, "name": "761feb4ece9619fd366c3d912e4add67", "fusion_lon": 0.0, "bike_id": "761feb4ece9619fd366c3d912e4add67", "is_disabled": 0, "is_reserved": 0}, {"rental_uris": {"ios": "https://dc.lft.to/lastmile_qr_scan", "android": "https://dc.lft.to/lastmile_qr_scan"}, "lon": -77.0553375, "type": "electric_scooter", "fusion_lat": 0.0, "lat": 38.898972, "name": "aca51b88a6c951d186e38e893eb2085f", "fusion_lon": 0.0, "bike_id": "aca51b88a6c951d186e38e893eb2085f", "is_disabled": 0, "is_reserved": 0}, {"rental_uris": {"ios": "https://dc.lft.to/lastmile_qr_scan", "android": "https://dc.lft.to/lastmile_qr_scan"}, "lon": -77.02212083333333, "type": "electric_scooter", "fusion_lat": 0.0, "lat": 38.88768566666667, "name": "f4442472fb335b8f0c5f5f380f630684", "fusion_lon": 0.0, "bike_id": "f4442472fb335b8f0c5f5f380f630684", "is_disabled": 0, "is_reserved": 0}, {"rental_uris": {"ios": "https://dc.lft.to/lastmile_qr_scan", "android": "https://dc.lft.to/lastmile_qr_scan"}, "lon": -77.08931466666667, "type": "electric_bike", "fusion_lat": 0.0, "lat": 38.840953166666665, "name": "5b7e4414a5d65c09fe503d47dd41553c", "fusion_lon": 0.0, "bike_id": "5b7e4414a5d65c09fe503d47dd41553c", "is_disabled": 0, "is_reserved": 0}, {"rental_uris": {"ios": "https://dc.lft.to/lastmile_qr_scan", "android": "https://dc.lft.to/lastmile_qr_scan"}, "lon": -77.00280583333333, "type": "electric_scooter", "fusion_lat": 0.0, "lat": 38.8973685, "name": "5044527115b1b3d638925cb031e73257", "fusion_lon": 0.0, "bike_id": "5044527115b1b3d638925cb031e73257", "is_disabled": 0, "is_reserved": 0}, {"rental_uris": {"ios": "https://dc.lft.to/lastmile_qr_scan", "android": "https://dc.lft.to/lastmile_qr_scan"}, "lon": -77.03072616666667, "type": "electric_scooter", "fusion_lat": 0.0, "lat": 38.90027116666667, "name": "4f76a1c0f0f9aece43ef17a11ba5050d", "fusion_lon": 0.0, "bike_id": "4f76a1c0f0f9aece43ef17a11ba5050d", "is_disabled": 0, "is_reserved": 0}, {"rental_uris": {"ios": "https://dc.lft.to/lastmile_qr_scan", "android": "https://dc.lft.to/lastmile_qr_scan"}, "lon": -77.0401805, "type": "electric_scooter", "fusion_lat": 0.0, "lat": 38.923388833333334, "name": "70e48730323f3e7561fc0b25b95084b9", "fusion_lon": 0.0, "bike_id": "70e48730323f3e7561fc0b25b95084b9", "is_disabled": 0, "is_reserved": 0}, {"rental_uris": {"ios": "https://dc.lft.to/lastmile_qr_scan", "android": "https://dc.lft.to/lastmile_qr_scan"}, "lon": -77.006485, "type": "electric_scooter", "fusion_lat": 0.0, "lat": 38.917071666666665, "name": "e4eea3f81943751c55e67e902892a3c4", "fusion_lon": 0.0, "bike_id": "e4eea3f81943751c55e67e902892a3c4", "is_disabled": 0, "is_reserved": 0}, {"rental_uris": {"ios": "https://dc.lft.to/lastmile_qr_scan", "android": "https://dc.lft.to/lastmile_qr_scan"}, "lon": -77.06404166666667, "type": "electric_bike", "fusion_lat": 0.0, "lat": 38.843447166666664, "name": "72bb3c232ec13b3a0d2527da90344e84", "fusion_lon": 0.0, "bike_id": "72bb3c232ec13b3a0d2527da90344e84", "is_disabled": 0, "is_reserved": 0}, {"rental_uris": {"ios": "https://dc.lft.to/lastmile_qr_scan", "android": "https://dc.lft.to/lastmile_qr_scan"}, "lon": -77.02380183333334, "type": "electric_scooter", "fusion_lat": 0.0, "lat": 38.9158855, "name": "a13626895ec21a55bbdb5a2d21cfe0f3", "fusion_lon": 0.0, "bike_id": "a13626895ec21a55bbdb5a2d21cfe0f3", "is_disabled": 0, "is_reserved": 0}, {"rental_uris": {"ios": "https://dc.lft.to/lastmile_qr_scan", "android": "https://dc.lft.to/lastmile_qr_scan"}, "lon": -77.03183566666667, "type": "electric_scooter", "fusion_lat": 0.0, "lat": 38.89361266666667, "name": "10440df8a22f5ef0aadb13a8356bfb0f", "fusion_lon": 0.0, "bike_id": "10440df8a22f5ef0aadb13a8356bfb0f", "is_disabled": 0, "is_reserved": 0}, {"rental_uris": {"ios": "https://dc.lft.to/lastmile_qr_scan", "android": "https://dc.lft.to/lastmile_qr_scan"}, "lon": -77.03860383333334, "type": "electric_scooter", "fusion_lat": 0.0, "lat": 38.903729, "name": "dafb3d828368848646349d80200564e6", "fusion_lon": 0.0, "bike_id": "dafb3d828368848646349d80200564e6", "is_disabled": 0, "is_reserved": 0}, {"rental_uris": {"ios": "https://dc.lft.to/lastmile_qr_scan", "android": "https://dc.lft.to/lastmile_qr_scan"}, "lon": -77.0301195, "type": "electric_bike", "fusion_lat": 0.0, "lat": 38.9348705, "name": "53c13146898af26a18d1e7b576cf12e7", "fusion_lon": 0.0, "bike_id": "53c13146898af26a18d1e7b576cf12e7", "is_disabled": 0, "is_reserved": 0}, {"rental_uris": {"ios": "https://dc.lft.to/lastmile_qr_scan", "android": "https://dc.lft.to/lastmile_qr_scan"}, "lon": -77.02994266666667, "type": "electric_scooter", "fusion_lat": 0.0, "lat": 38.90051033333334, "name": "933365510d8d105e8e49c47787015117", "fusion_lon": 0.0, "bike_id": "933365510d8d105e8e49c47787015117", "is_disabled": 0, "is_reserved": 0}, {"rental_uris": {"ios": "https://dc.lft.to/lastmile_qr_scan", "android": "https://dc.lft.to/lastmile_qr_scan"}, "lon": -77.0422635, "type": "electric_scooter", "fusion_lat": 0.0, "lat": 38.9110335, "name": "7246bf4f9f5e767e1f6e86b55c6c776f", "fusion_lon": 0.0, "bike_id": "7246bf4f9f5e767e1f6e86b55c6c776f", "is_disabled": 0, "is_reserved": 0}, {"rental_uris": {"ios": "https://dc.lft.to/lastmile_qr_scan", "android": "https://dc.lft.to/lastmile_qr_scan"}, "lon": -77.0351655, "type": "electric_scooter", "fusion_lat": 0.0, "lat": 38.90357216666666, "name": "6d9cc3d71abe644d91349bf5dbe7fb55", "fusion_lon": 0.0, "bike_id": "6d9cc3d71abe644d91349bf5dbe7fb55", "is_disabled": 0, "is_reserved": 0}, {"rental_uris": {"ios": "https://dc.lft.to/lastmile_qr_scan", "android": "https://dc.lft.to/lastmile_qr_scan"}, "lon": -76.97620933333333, "type": "electric_bike", "fusion_lat": 0.0, "lat": 38.8957855, "name": "dacdf555e67aaf5ae46ce828b5c944ac", "fusion_lon": 0.0, "bike_id": "dacdf555e67aaf5ae46ce828b5c944ac", "is_disabled": 0, "is_reserved": 0}, {"rental_uris": {"ios": "https://dc.lft.to/lastmile_qr_scan", "android": "https://dc.lft.to/lastmile_qr_scan"}, "lon": -77.04669133333333, "type": "electric_scooter", "fusion_lat": 0.0, "lat": 38.913162, "name": "015089eb3e3b12c966e1606d2a22898a", "fusion_lon": 0.0, "bike_id": "015089eb3e3b12c966e1606d2a22898a", "is_disabled": 0, "is_reserved": 0}, {"rental_uris": {"ios": "https://dc.lft.to/lastmile_qr_scan", "android": "https://dc.lft.to/lastmile_qr_scan"}, "lon": -77.03262266666667, "type": "electric_scooter", "fusion_lat": 0.0, "lat": 38.90451816666667, "name": "8ac2a3496900a527b913a3df8892a9e9", "fusion_lon": 0.0, "bike_id": "8ac2a3496900a527b913a3df8892a9e9", "is_disabled": 0, "is_reserved": 0}, {"rental_uris": {"ios": "https://dc.lft.to/lastmile_qr_scan", "android": "https://dc.lft.to/lastmile_qr_scan"}, "lon": -77.01082416666667, "type": "electric_scooter", "fusion_lat": 0.0, "lat": 38.89497266666667, "name": "318c3c12f0c90ea0d95511ba528336d0", "fusion_lon": 0.0, "bike_id": "318c3c12f0c90ea0d95511ba528336d0", "is_disabled": 0, "is_reserved": 0}, {"rental_uris": {"ios": "https://dc.lft.to/lastmile_qr_scan", "android": "https://dc.lft.to/lastmile_qr_scan"}, "lon": -77.012147, "type": "electric_scooter", "fusion_lat": 0.0, "lat": 38.870931, "name": "90a5737130f8b3b61281f639ecd9a5c7", "fusion_lon": 0.0, "bike_id": "90a5737130f8b3b61281f639ecd9a5c7", "is_disabled": 0, "is_reserved": 0}, {"rental_uris": {"ios": "https://dc.lft.to/lastmile_qr_scan", "android": "https://dc.lft.to/lastmile_qr_scan"}, "lon": -77.0417035, "type": "electric_scooter", "fusion_lat": 0.0, "lat": 38.905404, "name": "a38612c2e91eb94678c19de48f273a7d", "fusion_lon": 0.0, "bike_id": "a38612c2e91eb94678c19de48f273a7d", "is_disabled": 0, "is_reserved": 0}, {"rental_uris": {"ios": "https://dc.lft.to/lastmile_qr_scan", "android": "https://dc.lft.to/lastmile_qr_scan"}, "lon": -77.01867, "type": "electric_scooter", "fusion_lat": 0.0, "lat": 38.9157445, "name": "02dfc8cbb370d435e89e4073b0575fba", "fusion_lon": 0.0, "bike_id": "02dfc8cbb370d435e89e4073b0575fba", "is_disabled": 0, "is_reserved": 0}, {"rental_uris": {"ios": "https://dc.lft.to/lastmile_qr_scan", "android": "https://dc.lft.to/lastmile_qr_scan"}, "lon": -77.01945316666666, "type": "electric_scooter", "fusion_lat": 0.0, "lat": 38.90359933333333, "name": "df819bcc3e941d8cabef5e56e3f41ca4", "fusion_lon": 0.0, "bike_id": "df819bcc3e941d8cabef5e56e3f41ca4", "is_disabled": 0, "is_reserved": 0}, {"rental_uris": {"ios": "https://dc.lft.to/lastmile_qr_scan", "android": "https://dc.lft.to/lastmile_qr_scan"}, "lon": -77.04118783333334, "type": "electric_scooter", "fusion_lat": 0.0, "lat": 38.924512166666666, "name": "89840d2ca9c312e49b54abc3b6bf2fa4", "fusion_lon": 0.0, "bike_id": "89840d2ca9c312e49b54abc3b6bf2fa4", "is_disabled": 0, "is_reserved": 0}, {"rental_uris": {"ios": "https://dc.lft.to/lastmile_qr_scan", "android": "https://dc.lft.to/lastmile_qr_scan"}, "lon": -77.00244566666667, "type": "electric_scooter", "fusion_lat": 0.0, "lat": 38.912688833333334, "name": "0e527dbce5f47b14b941ee54d821ff3c", "fusion_lon": 0.0, "bike_id": "0e527dbce5f47b14b941ee54d821ff3c", "is_disabled": 0, "is_reserved": 0}, {"rental_uris": {"ios": "https://dc.lft.to/lastmile_qr_scan", "android": "https://dc.lft.to/lastmile_qr_scan"}, "lon": -77.04246933333333, "type": "electric_scooter", "fusion_lat": 0.0, "lat": 38.907277, "name": "93bf243864e1c0cbe39948144e6edaaf", "fusion_lon": 0.0, "bike_id": "93bf243864e1c0cbe39948144e6edaaf", "is_disabled": 0, "is_reserved": 0}, {"rental_uris": {"ios": "https://dc.lft.to/lastmile_qr_scan", "android": "https://dc.lft.to/lastmile_qr_scan"}, "lon": -77.03443033333333, "type": "electric_scooter", "fusion_lat": 0.0, "lat": 38.903562, "name": "b85203d683895dca4725da35e2acb376", "fusion_lon": 0.0, "bike_id": "b85203d683895dca4725da35e2acb376", "is_disabled": 0, "is_reserved": 0}, {"rental_uris": {"ios": "https://dc.lft.to/lastmile_qr_scan", "android": "https://dc.lft.to/lastmile_qr_scan"}, "lon": -76.93718733333333, "type": "electric_scooter", "fusion_lat": 0.0, "lat": 38.8958775, "name": "6ddab9822603eadd5e505b4a9dfc15df", "fusion_lon": 0.0, "bike_id": "6ddab9822603eadd5e505b4a9dfc15df", "is_disabled": 0, "is_reserved": 0}, {"rental_uris": {"ios": "https://dc.lft.to/lastmile_qr_scan", "android": "https://dc.lft.to/lastmile_qr_scan"}, "lon": -76.97406783333334, "type": "electric_scooter", "fusion_lat": 0.0, "lat": 38.90155083333333, "name": "38757f0b3764608c39889389a17ebc56", "fusion_lon": 0.0, "bike_id": "38757f0b3764608c39889389a17ebc56", "is_disabled": 0, "is_reserved": 0}, {"rental_uris": {"ios": "https://dc.lft.to/lastmile_qr_scan", "android": "https://dc.lft.to/lastmile_qr_scan"}, "lon": -76.97920283333333, "type": "electric_scooter", "fusion_lat": 0.0, "lat": 38.90665216666667, "name": "9d0ae3bc60cbe37bdf2b4dfd57548019", "fusion_lon": 0.0, "bike_id": "9d0ae3bc60cbe37bdf2b4dfd57548019", "is_disabled": 0, "is_reserved": 0}, {"rental_uris": {"ios": "https://dc.lft.to/lastmile_qr_scan", "android": "https://dc.lft.to/lastmile_qr_scan"}, "lon": -77.02964233333333, "type": "electric_scooter", "fusion_lat": 0.0, "lat": 38.92327566666667, "name": "18e6e7594dd688f00061ced3a5bd3aed", "fusion_lon": 0.0, "bike_id": "18e6e7594dd688f00061ced3a5bd3aed", "is_disabled": 0, "is_reserved": 0}, {"rental_uris": {"ios": "https://dc.lft.to/lastmile_qr_scan", "android": "https://dc.lft.to/lastmile_qr_scan"}, "lon": -77.0025015, "type": "electric_scooter", "fusion_lat": 0.0, "lat": 38.911731833333334, "name": "d81834fdb9c10d87a7591f8a0abbd957", "fusion_lon": 0.0, "bike_id": "d81834fdb9c10d87a7591f8a0abbd957", "is_disabled": 0, "is_reserved": 0}, {"rental_uris": {"ios": "https://dc.lft.to/lastmile_qr_scan", "android": "https://dc.lft.to/lastmile_qr_scan"}, "lon": -76.96553366666667, "type": "electric_bike", "fusion_lat": 0.0, "lat": 38.9509855, "name": "7cb40b74a80bed7c6965f4cc1172d2e5", "fusion_lon": 0.0, "bike_id": "7cb40b74a80bed7c6965f4cc1172d2e5", "is_disabled": 0, "is_reserved": 0}, {"rental_uris": {"ios": "https://dc.lft.to/lastmile_qr_scan", "android": "https://dc.lft.to/lastmile_qr_scan"}, "lon": -77.013987, "type": "electric_scooter", "fusion_lat": 0.0, "lat": 38.928701833333335, "name": "d03337e96a11f3b8de356d639d5b15fb", "fusion_lon": 0.0, "bike_id": "d03337e96a11f3b8de356d639d5b15fb", "is_disabled": 0, "is_reserved": 0}, {"rental_uris": {"ios": "https://dc.lft.to/lastmile_qr_scan", "android": "https://dc.lft.to/lastmile_qr_scan"}, "lon": -77.0031525, "type": "electric_scooter", "fusion_lat": 0.0, "lat": 38.901309, "name": "32273efd37d43cd06269860ca314e149", "fusion_lon": 0.0, "bike_id": "32273efd37d43cd06269860ca314e149", "is_disabled": 0, "is_reserved": 0}, {"rental_uris": {"ios": "https://dc.lft.to/lastmile_qr_scan", "android": "https://dc.lft.to/lastmile_qr_scan"}, "lon": -77.00067966666667, "type": "electric_scooter", "fusion_lat": 0.0, "lat": 38.90049533333333, "name": "4ca8c46e90c74000ef3b9445773136d5", "fusion_lon": 0.0, "bike_id": "4ca8c46e90c74000ef3b9445773136d5", "is_disabled": 0, "is_reserved": 0}, {"rental_uris": {"ios": "https://dc.lft.to/lastmile_qr_scan", "android": "https://dc.lft.to/lastmile_qr_scan"}, "lon": -77.0026515, "type": "electric_scooter", "fusion_lat": 0.0, "lat": 38.87757, "name": "bed8c5337738f053fc069a7f7ba285c7", "fusion_lon": 0.0, "bike_id": "bed8c5337738f053fc069a7f7ba285c7", "is_disabled": 0, "is_reserved": 0}, {"rental_uris": {"ios": "https://dc.lft.to/lastmile_qr_scan", "android": "https://dc.lft.to/lastmile_qr_scan"}, "lon": -77.02181583333333, "type": "electric_scooter", "fusion_lat": 0.0, "lat": 38.909779, "name": "7e74bc41dcf5d6d4755c9595694447c8", "fusion_lon": 0.0, "bike_id": "7e74bc41dcf5d6d4755c9595694447c8", "is_disabled": 0, "is_reserved": 0}, {"rental_uris": {"ios": "https://dc.lft.to/lastmile_qr_scan", "android": "https://dc.lft.to/lastmile_qr_scan"}, "lon": -77.1140795, "type": "electric_bike", "fusion_lat": 0.0, "lat": 38.842800833333335, "name": "3f84bf505c373cd78a2a870ff265a7de", "fusion_lon": 0.0, "bike_id": "3f84bf505c373cd78a2a870ff265a7de", "is_disabled": 0, "is_reserved": 0}, {"rental_uris": {"ios": "https://dc.lft.to/lastmile_qr_scan", "android": "https://dc.lft.to/lastmile_qr_scan"}, "lon": -77.02349833333334, "type": "electric_scooter", "fusion_lat": 0.0, "lat": 38.933809833333335, "name": "1ddb6df801c8199c70cdf04ed7290495", "fusion_lon": 0.0, "bike_id": "1ddb6df801c8199c70cdf04ed7290495", "is_disabled": 0, "is_reserved": 0}, {"rental_uris": {"ios": "https://dc.lft.to/lastmile_qr_scan", "android": "https://dc.lft.to/lastmile_qr_scan"}, "lon": -76.972604, "type": "electric_bike", "fusion_lat": 0.0, "lat": 38.91917683333333, "name": "f60d0f7c8c2df001adebe76d8f80e504", "fusion_lon": 0.0, "bike_id": "f60d0f7c8c2df001adebe76d8f80e504", "is_disabled": 0, "is_reserved": 0}, {"rental_uris": {"ios": "https://dc.lft.to/lastmile_qr_scan", "android": "https://dc.lft.to/lastmile_qr_scan"}, "lon": -77.00768083333334, "type": "electric_scooter", "fusion_lat": 0.0, "lat": 38.8709435, "name": "78e4bcea2a2db13ab391e9ab1431a0df", "fusion_lon": 0.0, "bike_id": "78e4bcea2a2db13ab391e9ab1431a0df", "is_disabled": 0, "is_reserved": 0}, {"rental_uris": {"ios": "https://dc.lft.to/lastmile_qr_scan", "android": "https://dc.lft.to/lastmile_qr_scan"}, "lon": -77.05086783333333, "type": "electric_bike", "fusion_lat": 0.0, "lat": 38.81326766666667, "name": "d3fa67a66c3dd259f1c1695bcf75c4bd", "fusion_lon": 0.0, "bike_id": "d3fa67a66c3dd259f1c1695bcf75c4bd", "is_disabled": 0, "is_reserved": 0}, {"rental_uris": {"ios": "https://dc.lft.to/lastmile_qr_scan", "android": "https://dc.lft.to/lastmile_qr_scan"}, "lon": -77.02355966666667, "type": "electric_scooter", "fusion_lat": 0.0, "lat": 38.931362666666665, "name": "299c4002832e08d51efc965ba54197ad", "fusion_lon": 0.0, "bike_id": "299c4002832e08d51efc965ba54197ad", "is_disabled": 0, "is_reserved": 0}, {"rental_uris": {"ios": "https://dc.lft.to/lastmile_qr_scan", "android": "https://dc.lft.to/lastmile_qr_scan"}, "lon": -77.0790365, "type": "electric_bike", "fusion_lat": 0.0, "lat": 38.839350833333334, "name": "b7a08d42db04442dd85f3cc5bcd29ad1", "fusion_lon": 0.0, "bike_id": "b7a08d42db04442dd85f3cc5bcd29ad1", "is_disabled": 0, "is_reserved": 0}, {"rental_uris": {"ios": "https://dc.lft.to/lastmile_qr_scan", "android": "https://dc.lft.to/lastmile_qr_scan"}, "lon": -77.01158116666667, "type": "electric_scooter", "fusion_lat": 0.0, "lat": 38.91328716666666, "name": "fc03a174b2840974d2e1b7388360a120", "fusion_lon": 0.0, "bike_id": "fc03a174b2840974d2e1b7388360a120", "is_disabled": 0, "is_reserved": 0}, {"rental_uris": {"ios": "https://dc.lft.to/lastmile_qr_scan", "android": "https://dc.lft.to/lastmile_qr_scan"}, "lon": -77.02981583333333, "type": "electric_scooter", "fusion_lat": 0.0, "lat": 38.895544, "name": "ddb9bd0d9946ad0b95ace3935798c33b", "fusion_lon": 0.0, "bike_id": "ddb9bd0d9946ad0b95ace3935798c33b", "is_disabled": 0, "is_reserved": 0}, {"rental_uris": {"ios": "https://dc.lft.to/lastmile_qr_scan", "android": "https://dc.lft.to/lastmile_qr_scan"}, "lon": -77.0152845, "type": "electric_scooter", "fusion_lat": 0.0, "lat": 38.88731766666667, "name": "4d99ee785108693015f1d8b668dba9db", "fusion_lon": 0.0, "bike_id": "4d99ee785108693015f1d8b668dba9db", "is_disabled": 0, "is_reserved": 0}, {"rental_uris": {"ios": "https://dc.lft.to/lastmile_qr_scan", "android": "https://dc.lft.to/lastmile_qr_scan"}, "lon": -77.02711466666666, "type": "electric_scooter", "fusion_lat": 0.0, "lat": 38.8814275, "name": "3c10528008f05c141e5ad7b3337461a2", "fusion_lon": 0.0, "bike_id": "3c10528008f05c141e5ad7b3337461a2", "is_disabled": 0, "is_reserved": 0}, {"rental_uris": {"ios": "https://dc.lft.to/lastmile_qr_scan", "android": "https://dc.lft.to/lastmile_qr_scan"}, "lon": -77.14123283333333, "type": "electric_bike", "fusion_lat": 0.0, "lat": 38.816005833333335, "name": "799cd4fff25684fb63f4f38affe3e87b", "fusion_lon": 0.0, "bike_id": "799cd4fff25684fb63f4f38affe3e87b", "is_disabled": 0, "is_reserved": 0}, {"rental_uris": {"ios": "https://dc.lft.to/lastmile_qr_scan", "android": "https://dc.lft.to/lastmile_qr_scan"}, "lon": -77.0392745, "type": "electric_scooter", "fusion_lat": 0.0, "lat": 38.917508833333336, "name": "12bdd07a3fb276763d2ae0422e89129f", "fusion_lon": 0.0, "bike_id": "12bdd07a3fb276763d2ae0422e89129f", "is_disabled": 0, "is_reserved": 0}, {"rental_uris": {"ios": "https://dc.lft.to/lastmile_qr_scan", "android": "https://dc.lft.to/lastmile_qr_scan"}, "lon": -77.03465283333334, "type": "electric_scooter", "fusion_lat": 0.0, "lat": 38.90540466666667, "name": "89921a24677aa51b7d686569d6af5ffb", "fusion_lon": 0.0, "bike_id": "89921a24677aa51b7d686569d6af5ffb", "is_disabled": 0, "is_reserved": 0}, {"rental_uris": {"ios": "https://dc.lft.to/lastmile_qr_scan", "android": "https://dc.lft.to/lastmile_qr_scan"}, "lon": -77.05934916666666, "type": "electric_bike", "fusion_lat": 0.0, "lat": 38.904273833333335, "name": "d7189ce0f6d0332b81d543482d6ce592", "fusion_lon": 0.0, "bike_id": "d7189ce0f6d0332b81d543482d6ce592", "is_disabled": 0, "is_reserved": 0}, {"rental_uris": {"ios": "https://dc.lft.to/lastmile_qr_scan", "android": "https://dc.lft.to/lastmile_qr_scan"}, "lon": -76.99595516666666, "type": "electric_scooter", "fusion_lat": 0.0, "lat": 38.92231116666667, "name": "70ca7768f272575e434c872e77fa405f", "fusion_lon": 0.0, "bike_id": "70ca7768f272575e434c872e77fa405f", "is_disabled": 0, "is_reserved": 0}, {"rental_uris": {"ios": "https://dc.lft.to/lastmile_qr_scan", "android": "https://dc.lft.to/lastmile_qr_scan"}, "lon": -77.00039733333334, "type": "electric_scooter", "fusion_lat": 0.0, "lat": 38.87374633333334, "name": "f82bdad60877aaaa79f4e58e02804313", "fusion_lon": 0.0, "bike_id": "f82bdad60877aaaa79f4e58e02804313", "is_disabled": 0, "is_reserved": 0}, {"rental_uris": {"ios": "https://dc.lft.to/lastmile_qr_scan", "android": "https://dc.lft.to/lastmile_qr_scan"}, "lon": -77.02974866666666, "type": "electric_scooter", "fusion_lat": 0.0, "lat": 38.940437833333334, "name": "b539ddabef6175feec0e2de8a09acfd3", "fusion_lon": 0.0, "bike_id": "b539ddabef6175feec0e2de8a09acfd3", "is_disabled": 0, "is_reserved": 0}, {"rental_uris": {"ios": "https://dc.lft.to/lastmile_qr_scan", "android": "https://dc.lft.to/lastmile_qr_scan"}, "lon": -77.00665483333333, "type": "electric_scooter", "fusion_lat": 0.0, "lat": 38.87477716666667, "name": "525d21d97be1e68d3c6674494d8410a0", "fusion_lon": 0.0, "bike_id": "525d21d97be1e68d3c6674494d8410a0", "is_disabled": 0, "is_reserved": 0}, {"rental_uris": {"ios": "https://dc.lft.to/lastmile_qr_scan", "android": "https://dc.lft.to/lastmile_qr_scan"}, "lon": -77.00792916666667, "type": "electric_bike", "fusion_lat": 0.0, "lat": 38.9491735, "name": "4fdc2ef932b9048b1f8758c580707071", "fusion_lon": 0.0, "bike_id": "4fdc2ef932b9048b1f8758c580707071", "is_disabled": 0, "is_reserved": 0}, {"rental_uris": {"ios": "https://dc.lft.to/lastmile_qr_scan", "android": "https://dc.lft.to/lastmile_qr_scan"}, "lon": -77.03939383333334, "type": "electric_scooter", "fusion_lat": 0.0, "lat": 38.9261515, "name": "e7901934899b40fe2e382148889c1287", "fusion_lon": 0.0, "bike_id": "e7901934899b40fe2e382148889c1287", "is_disabled": 0, "is_reserved": 0}, {"rental_uris": {"ios": "https://dc.lft.to/lastmile_qr_scan", "android": "https://dc.lft.to/lastmile_qr_scan"}, "lon": -77.02765916666667, "type": "electric_scooter", "fusion_lat": 0.0, "lat": 38.89199216666667, "name": "9d3d891981247208ad813fcf71226e6f", "fusion_lon": 0.0, "bike_id": "9d3d891981247208ad813fcf71226e6f", "is_disabled": 0, "is_reserved": 0}, {"rental_uris": {"ios": "https://dc.lft.to/lastmile_qr_scan", "android": "https://dc.lft.to/lastmile_qr_scan"}, "lon": -77.03852383333333, "type": "electric_scooter", "fusion_lat": 0.0, "lat": 38.903717, "name": "b55c144fb79352362720b6d19b06380f", "fusion_lon": 0.0, "bike_id": "b55c144fb79352362720b6d19b06380f", "is_disabled": 0, "is_reserved": 0}, {"rental_uris": {"ios": "https://dc.lft.to/lastmile_qr_scan", "android": "https://dc.lft.to/lastmile_qr_scan"}, "lon": -76.98003683333333, "type": "electric_bike", "fusion_lat": 0.0, "lat": 38.902401, "name": "67a77ea956a0b20eb71a9f82d25bd75e", "fusion_lon": 0.0, "bike_id": "67a77ea956a0b20eb71a9f82d25bd75e", "is_disabled": 0, "is_reserved": 0}, {"rental_uris": {"ios": "https://dc.lft.to/lastmile_qr_scan", "android": "https://dc.lft.to/lastmile_qr_scan"}, "lon": -76.99015666666666, "type": "electric_scooter", "fusion_lat": 0.0, "lat": 38.861012, "name": "771a62593846a57b46d02dd7ebeb3118", "fusion_lon": 0.0, "bike_id": "771a62593846a57b46d02dd7ebeb3118", "is_disabled": 0, "is_reserved": 0}, {"rental_uris": {"ios": "https://dc.lft.to/lastmile_qr_scan", "android": "https://dc.lft.to/lastmile_qr_scan"}, "lon": -77.030678, "type": "electric_scooter", "fusion_lat": 0.0, "lat": 38.9055495, "name": "362b39606a9b591096eda36f82a0ee36", "fusion_lon": 0.0, "bike_id": "362b39606a9b591096eda36f82a0ee36", "is_disabled": 0, "is_reserved": 0}, {"rental_uris": {"ios": "https://dc.lft.to/lastmile_qr_scan", "android": "https://dc.lft.to/lastmile_qr_scan"}, "lon": -76.99750983333334, "type": "electric_scooter", "fusion_lat": 0.0, "lat": 38.90008533333334, "name": "416dc8533e5d9bf149dff585716206cf", "fusion_lon": 0.0, "bike_id": "416dc8533e5d9bf149dff585716206cf", "is_disabled": 0, "is_reserved": 0}, {"rental_uris": {"ios": "https://dc.lft.to/lastmile_qr_scan", "android": "https://dc.lft.to/lastmile_qr_scan"}, "lon": -77.03508816666667, "type": "electric_scooter", "fusion_lat": 0.0, "lat": 38.92153783333333, "name": "11ed054e07a5bd46bfb93122b75d266b", "fusion_lon": 0.0, "bike_id": "11ed054e07a5bd46bfb93122b75d266b", "is_disabled": 0, "is_reserved": 0}, {"rental_uris": {"ios": "https://dc.lft.to/lastmile_qr_scan", "android": "https://dc.lft.to/lastmile_qr_scan"}, "lon": -76.97675083333333, "type": "electric_scooter", "fusion_lat": 0.0, "lat": 38.89877933333333, "name": "0686973fa23a288f74353740c75b9d87", "fusion_lon": 0.0, "bike_id": "0686973fa23a288f74353740c75b9d87", "is_disabled": 0, "is_reserved": 0}, {"rental_uris": {"ios": "https://dc.lft.to/lastmile_qr_scan", "android": "https://dc.lft.to/lastmile_qr_scan"}, "lon": -76.94760283333333, "type": "electric_scooter", "fusion_lat": 0.0, "lat": 38.90053433333333, "name": "12c07e9cc58971b5bd43ca95b2234542", "fusion_lon": 0.0, "bike_id": "12c07e9cc58971b5bd43ca95b2234542", "is_disabled": 0, "is_reserved": 0}, {"rental_uris": {"ios": "https://dc.lft.to/lastmile_qr_scan", "android": "https://dc.lft.to/lastmile_qr_scan"}, "lon": -77.02135466666667, "type": "electric_scooter", "fusion_lat": 0.0, "lat": 38.937611, "name": "4d551dbaeb2a89f7967153c58c2e93b0", "fusion_lon": 0.0, "bike_id": "4d551dbaeb2a89f7967153c58c2e93b0", "is_disabled": 0, "is_reserved": 0}, {"rental_uris": {"ios": "https://dc.lft.to/lastmile_qr_scan", "android": "https://dc.lft.to/lastmile_qr_scan"}, "lon": -77.03301, "type": "electric_scooter", "fusion_lat": 0.0, "lat": 38.926428, "name": "f58747853b4cffd04312817db73f63b8", "fusion_lon": 0.0, "bike_id": "f58747853b4cffd04312817db73f63b8", "is_disabled": 0, "is_reserved": 0}, {"rental_uris": {"ios": "https://dc.lft.to/lastmile_qr_scan", "android": "https://dc.lft.to/lastmile_qr_scan"}, "lon": -77.04527533333334, "type": "electric_scooter", "fusion_lat": 0.0, "lat": 38.907753, "name": "18b0057811f5420e4de8a38e162cb95b", "fusion_lon": 0.0, "bike_id": "18b0057811f5420e4de8a38e162cb95b", "is_disabled": 0, "is_reserved": 0}, {"rental_uris": {"ios": "https://dc.lft.to/lastmile_qr_scan", "android": "https://dc.lft.to/lastmile_qr_scan"}, "lon": -77.02378816666666, "type": "electric_scooter", "fusion_lat": 0.0, "lat": 38.9524685, "name": "968587f29fa449a0d5a7598527058afc", "fusion_lon": 0.0, "bike_id": "968587f29fa449a0d5a7598527058afc", "is_disabled": 0, "is_reserved": 0}, {"rental_uris": {"ios": "https://dc.lft.to/lastmile_qr_scan", "android": "https://dc.lft.to/lastmile_qr_scan"}, "lon": -76.99629583333333, "type": "electric_scooter", "fusion_lat": 0.0, "lat": 38.846205, "name": "43853d7b0f551faa074cf2ccf0eff4db", "fusion_lon": 0.0, "bike_id": "43853d7b0f551faa074cf2ccf0eff4db", "is_disabled": 0, "is_reserved": 0}, {"rental_uris": {"ios": "https://dc.lft.to/lastmile_qr_scan", "android": "https://dc.lft.to/lastmile_qr_scan"}, "lon": -77.066731, "type": "electric_scooter", "fusion_lat": 0.0, "lat": 38.9140405, "name": "ffe0ab7f575cecab4715a0225af6fbda", "fusion_lon": 0.0, "bike_id": "ffe0ab7f575cecab4715a0225af6fbda", "is_disabled": 0, "is_reserved": 0}, {"rental_uris": {"ios": "https://dc.lft.to/lastmile_qr_scan", "android": "https://dc.lft.to/lastmile_qr_scan"}, "lon": -77.06616183333334, "type": "electric_scooter", "fusion_lat": 0.0, "lat": 38.90522416666667, "name": "aeff4d3cc013dfb30a7075ad646d221f", "fusion_lon": 0.0, "bike_id": "aeff4d3cc013dfb30a7075ad646d221f", "is_disabled": 0, "is_reserved": 0}, {"rental_uris": {"ios": "https://dc.lft.to/lastmile_qr_scan", "android": "https://dc.lft.to/lastmile_qr_scan"}, "lon": -77.10722116666666, "type": "electric_bike", "fusion_lat": 0.0, "lat": 38.85557633333333, "name": "a63620bb6f1da9e792c04fdeaa2b1bba", "fusion_lon": 0.0, "bike_id": "a63620bb6f1da9e792c04fdeaa2b1bba", "is_disabled": 0, "is_reserved": 0}, {"rental_uris": {"ios": "https://dc.lft.to/lastmile_qr_scan", "android": "https://dc.lft.to/lastmile_qr_scan"}, "lon": -77.03864233333333, "type": "electric_scooter", "fusion_lat": 0.0, "lat": 38.912529666666664, "name": "0c7dcd0e109d0df02d3ed644dea18fc6", "fusion_lon": 0.0, "bike_id": "0c7dcd0e109d0df02d3ed644dea18fc6", "is_disabled": 0, "is_reserved": 0}, {"rental_uris": {"ios": "https://dc.lft.to/lastmile_qr_scan", "android": "https://dc.lft.to/lastmile_qr_scan"}, "lon": -77.04412516666666, "type": "electric_scooter", "fusion_lat": 0.0, "lat": 38.91077033333333, "name": "5a59282d1d33005ba8912e7247508423", "fusion_lon": 0.0, "bike_id": "5a59282d1d33005ba8912e7247508423", "is_disabled": 0, "is_reserved": 0}, {"rental_uris": {"ios": "https://dc.lft.to/lastmile_qr_scan", "android": "https://dc.lft.to/lastmile_qr_scan"}, "lon": -77.0526975, "type": "electric_scooter", "fusion_lat": 0.0, "lat": 38.8984, "name": "64ef417717b3f78c014f0269bb186525", "fusion_lon": 0.0, "bike_id": "64ef417717b3f78c014f0269bb186525", "is_disabled": 0, "is_reserved": 0}, {"rental_uris": {"ios": "https://dc.lft.to/lastmile_qr_scan", "android": "https://dc.lft.to/lastmile_qr_scan"}, "lon": -77.01525366666667, "type": "electric_scooter", "fusion_lat": 0.0, "lat": 38.8724945, "name": "9af068fdf74effa047e20e761268244d", "fusion_lon": 0.0, "bike_id": "9af068fdf74effa047e20e761268244d", "is_disabled": 0, "is_reserved": 0}, {"rental_uris": {"ios": "https://dc.lft.to/lastmile_qr_scan", "android": "https://dc.lft.to/lastmile_qr_scan"}, "lon": -77.0021815, "type": "electric_scooter", "fusion_lat": 0.0, "lat": 38.9001685, "name": "960fd250a6aba9cfa740e2026b9376f2", "fusion_lon": 0.0, "bike_id": "960fd250a6aba9cfa740e2026b9376f2", "is_disabled": 0, "is_reserved": 0}, {"rental_uris": {"ios": "https://dc.lft.to/lastmile_qr_scan", "android": "https://dc.lft.to/lastmile_qr_scan"}, "lon": -76.98971833333333, "type": "electric_scooter", "fusion_lat": 0.0, "lat": 38.90247333333333, "name": "001b427f1043d59b66cef6197abfd0d0", "fusion_lon": 0.0, "bike_id": "001b427f1043d59b66cef6197abfd0d0", "is_disabled": 0, "is_reserved": 0}, {"rental_uris": {"ios": "https://dc.lft.to/lastmile_qr_scan", "android": "https://dc.lft.to/lastmile_qr_scan"}, "lon": -77.03189733333333, "type": "electric_scooter", "fusion_lat": 0.0, "lat": 38.91464666666667, "name": "9e7c560a2db909550009788cab18d875", "fusion_lon": 0.0, "bike_id": "9e7c560a2db909550009788cab18d875", "is_disabled": 0, "is_reserved": 0}, {"rental_uris": {"ios": "https://dc.lft.to/lastmile_qr_scan", "android": "https://dc.lft.to/lastmile_qr_scan"}, "lon": -77.02002433333334, "type": "electric_scooter", "fusion_lat": 0.0, "lat": 38.91309583333334, "name": "a7595b6be628f92531b0b699989f59ab", "fusion_lon": 0.0, "bike_id": "a7595b6be628f92531b0b699989f59ab", "is_disabled": 0, "is_reserved": 0}, {"rental_uris": {"ios": "https://dc.lft.to/lastmile_qr_scan", "android": "https://dc.lft.to/lastmile_qr_scan"}, "lon": -76.946325, "type": "electric_scooter", "fusion_lat": 0.0, "lat": 38.89827616666667, "name": "295f40518db5224d89a30a91b84ced2b", "fusion_lon": 0.0, "bike_id": "295f40518db5224d89a30a91b84ced2b", "is_disabled": 0, "is_reserved": 0}, {"rental_uris": {"ios": "https://dc.lft.to/lastmile_qr_scan", "android": "https://dc.lft.to/lastmile_qr_scan"}, "lon": -77.03642083333334, "type": "electric_scooter", "fusion_lat": 0.0, "lat": 38.903153333333336, "name": "ceec11ce96a1fd12aaf292774bc4e08f", "fusion_lon": 0.0, "bike_id": "ceec11ce96a1fd12aaf292774bc4e08f", "is_disabled": 0, "is_reserved": 0}, {"rental_uris": {"ios": "https://dc.lft.to/lastmile_qr_scan", "android": "https://dc.lft.to/lastmile_qr_scan"}, "lon": -77.03605416666667, "type": "electric_scooter", "fusion_lat": 0.0, "lat": 38.9347455, "name": "e2238083370b912ccc7ff0debb5f85b9", "fusion_lon": 0.0, "bike_id": "e2238083370b912ccc7ff0debb5f85b9", "is_disabled": 0, "is_reserved": 0}, {"rental_uris": {"ios": "https://dc.lft.to/lastmile_qr_scan", "android": "https://dc.lft.to/lastmile_qr_scan"}, "lon": -77.0099, "type": "electric_scooter", "fusion_lat": 0.0, "lat": 38.895893, "name": "06e26cb02f2e3d24ddea5464f861b3fa", "fusion_lon": 0.0, "bike_id": "06e26cb02f2e3d24ddea5464f861b3fa", "is_disabled": 0, "is_reserved": 0}, {"rental_uris": {"ios": "https://dc.lft.to/lastmile_qr_scan", "android": "https://dc.lft.to/lastmile_qr_scan"}, "lon": -77.0137875, "type": "electric_scooter", "fusion_lat": 0.0, "lat": 38.92875, "name": "f6e582ed737052248c4cd2c50bb62db9", "fusion_lon": 0.0, "bike_id": "f6e582ed737052248c4cd2c50bb62db9", "is_disabled": 0, "is_reserved": 0}, {"rental_uris": {"ios": "https://dc.lft.to/lastmile_qr_scan", "android": "https://dc.lft.to/lastmile_qr_scan"}, "lon": -76.99928016666667, "type": "electric_scooter", "fusion_lat": 0.0, "lat": 38.90908683333333, "name": "8160c4a817632a87655326f020ebcd6c", "fusion_lon": 0.0, "bike_id": "8160c4a817632a87655326f020ebcd6c", "is_disabled": 0, "is_reserved": 0}, {"rental_uris": {"ios": "https://dc.lft.to/lastmile_qr_scan", "android": "https://dc.lft.to/lastmile_qr_scan"}, "lon": -77.02843033333333, "type": "electric_scooter", "fusion_lat": 0.0, "lat": 38.93417816666667, "name": "13212c771e3666b85bb5fea1e71d0aaa", "fusion_lon": 0.0, "bike_id": "13212c771e3666b85bb5fea1e71d0aaa", "is_disabled": 0, "is_reserved": 0}, {"rental_uris": {"ios": "https://dc.lft.to/lastmile_qr_scan", "android": "https://dc.lft.to/lastmile_qr_scan"}, "lon": -76.98952683333333, "type": "electric_scooter", "fusion_lat": 0.0, "lat": 38.90135816666667, "name": "012edd4e45d713a490fcf90651067a0c", "fusion_lon": 0.0, "bike_id": "012edd4e45d713a490fcf90651067a0c", "is_disabled": 0, "is_reserved": 0}, {"rental_uris": {"ios": "https://dc.lft.to/lastmile_qr_scan", "android": "https://dc.lft.to/lastmile_qr_scan"}, "lon": -77.02706333333333, "type": "electric_scooter", "fusion_lat": 0.0, "lat": 38.94995516666667, "name": "bcbf445924ec616667419a3aa62a2f3a", "fusion_lon": 0.0, "bike_id": "bcbf445924ec616667419a3aa62a2f3a", "is_disabled": 0, "is_reserved": 0}, {"rental_uris": {"ios": "https://dc.lft.to/lastmile_qr_scan", "android": "https://dc.lft.to/lastmile_qr_scan"}, "lon": -77.00610383333333, "type": "electric_scooter", "fusion_lat": 0.0, "lat": 38.902536, "name": "ed28df4a9ec1ff472f9eea6ccd14051d", "fusion_lon": 0.0, "bike_id": "ed28df4a9ec1ff472f9eea6ccd14051d", "is_disabled": 0, "is_reserved": 0}, {"rental_uris": {"ios": "https://dc.lft.to/lastmile_qr_scan", "android": "https://dc.lft.to/lastmile_qr_scan"}, "lon": -77.03143166666666, "type": "electric_scooter", "fusion_lat": 0.0, "lat": 38.91684016666667, "name": "2d4deef0d783b8c809f633972a92daa7", "fusion_lon": 0.0, "bike_id": "2d4deef0d783b8c809f633972a92daa7", "is_disabled": 0, "is_reserved": 0}, {"rental_uris": {"ios": "https://dc.lft.to/lastmile_qr_scan", "android": "https://dc.lft.to/lastmile_qr_scan"}, "lon": -77.01152383333333, "type": "electric_scooter", "fusion_lat": 0.0, "lat": 38.8971055, "name": "07a6263e8811644ab1f048d128b7b067", "fusion_lon": 0.0, "bike_id": "07a6263e8811644ab1f048d128b7b067", "is_disabled": 0, "is_reserved": 0}, {"rental_uris": {"ios": "https://dc.lft.to/lastmile_qr_scan", "android": "https://dc.lft.to/lastmile_qr_scan"}, "lon": -77.03658733333333, "type": "electric_scooter", "fusion_lat": 0.0, "lat": 38.929185333333336, "name": "d1eb50646deea49e2f40be671828187e", "fusion_lon": 0.0, "bike_id": "d1eb50646deea49e2f40be671828187e", "is_disabled": 0, "is_reserved": 0}, {"rental_uris": {"ios": "https://dc.lft.to/lastmile_qr_scan", "android": "https://dc.lft.to/lastmile_qr_scan"}, "lon": -77.04488083333334, "type": "electric_scooter", "fusion_lat": 0.0, "lat": 38.9065, "name": "22beb7d45294ada1cbc90e2cc528a105", "fusion_lon": 0.0, "bike_id": "22beb7d45294ada1cbc90e2cc528a105", "is_disabled": 0, "is_reserved": 0}, {"rental_uris": {"ios": "https://dc.lft.to/lastmile_qr_scan", "android": "https://dc.lft.to/lastmile_qr_scan"}, "lon": -77.0125205, "type": "electric_scooter", "fusion_lat": 0.0, "lat": 38.899587333333336, "name": "f8d798351682ac226518dd13150706ce", "fusion_lon": 0.0, "bike_id": "f8d798351682ac226518dd13150706ce", "is_disabled": 0, "is_reserved": 0}, {"rental_uris": {"ios": "https://dc.lft.to/lastmile_qr_scan", "android": "https://dc.lft.to/lastmile_qr_scan"}, "lon": -77.0525615, "type": "electric_scooter", "fusion_lat": 0.0, "lat": 38.923804833333335, "name": "4ccb2deb609c9ee0007632277c0b2a5f", "fusion_lon": 0.0, "bike_id": "4ccb2deb609c9ee0007632277c0b2a5f", "is_disabled": 0, "is_reserved": 0}, {"rental_uris": {"ios": "https://dc.lft.to/lastmile_qr_scan", "android": "https://dc.lft.to/lastmile_qr_scan"}, "lon": -77.01441816666667, "type": "electric_scooter", "fusion_lat": 0.0, "lat": 38.87767866666667, "name": "f8cf01961971c86618ce967de4623864", "fusion_lon": 0.0, "bike_id": "f8cf01961971c86618ce967de4623864", "is_disabled": 0, "is_reserved": 0}, {"rental_uris": {"ios": "https://dc.lft.to/lastmile_qr_scan", "android": "https://dc.lft.to/lastmile_qr_scan"}, "lon": -77.1359635, "type": "electric_bike", "fusion_lat": 0.0, "lat": 39.053468, "name": "e8cd7bb29d188e8b561dafe2f0b3e4e6", "fusion_lon": 0.0, "bike_id": "e8cd7bb29d188e8b561dafe2f0b3e4e6", "is_disabled": 0, "is_reserved": 0}, {"rental_uris": {"ios": "https://dc.lft.to/lastmile_qr_scan", "android": "https://dc.lft.to/lastmile_qr_scan"}, "lon": -77.0430815, "type": "electric_scooter", "fusion_lat": 0.0, "lat": 38.9225455, "name": "7294709e633fde24186af0a0d1fa4607", "fusion_lon": 0.0, "bike_id": "7294709e633fde24186af0a0d1fa4607", "is_disabled": 0, "is_reserved": 0}, {"rental_uris": {"ios": "https://dc.lft.to/lastmile_qr_scan", "android": "https://dc.lft.to/lastmile_qr_scan"}, "lon": -77.03646416666666, "type": "electric_scooter", "fusion_lat": 0.0, "lat": 38.91299516666667, "name": "d8bbc50367c034d41b9f67a8460c7231", "fusion_lon": 0.0, "bike_id": "d8bbc50367c034d41b9f67a8460c7231", "is_disabled": 0, "is_reserved": 0}, {"rental_uris": {"ios": "https://dc.lft.to/lastmile_qr_scan", "android": "https://dc.lft.to/lastmile_qr_scan"}, "lon": -76.94891616666666, "type": "electric_scooter", "fusion_lat": 0.0, "lat": 38.894627666666665, "name": "48b9143c2c8eb09ed43c55de6a35217c", "fusion_lon": 0.0, "bike_id": "48b9143c2c8eb09ed43c55de6a35217c", "is_disabled": 0, "is_reserved": 0}, {"rental_uris": {"ios": "https://dc.lft.to/lastmile_qr_scan", "android": "https://dc.lft.to/lastmile_qr_scan"}, "lon": -76.9860915, "type": "electric_scooter", "fusion_lat": 0.0, "lat": 38.86816816666666, "name": "e54c4fa8ed4c43abe7362f42a0cecf67", "fusion_lon": 0.0, "bike_id": "e54c4fa8ed4c43abe7362f42a0cecf67", "is_disabled": 0, "is_reserved": 0}, {"rental_uris": {"ios": "https://dc.lft.to/lastmile_qr_scan", "android": "https://dc.lft.to/lastmile_qr_scan"}, "lon": -77.0424745, "type": "electric_scooter", "fusion_lat": 0.0, "lat": 38.920660166666664, "name": "eb44761213e79b6adf6d75f33114f608", "fusion_lon": 0.0, "bike_id": "eb44761213e79b6adf6d75f33114f608", "is_disabled": 0, "is_reserved": 0}, {"rental_uris": {"ios": "https://dc.lft.to/lastmile_qr_scan", "android": "https://dc.lft.to/lastmile_qr_scan"}, "lon": -77.03386816666666, "type": "electric_scooter", "fusion_lat": 0.0, "lat": 38.8865485, "name": "77726b80bc3af4ff5f2c0ced16a779dc", "fusion_lon": 0.0, "bike_id": "77726b80bc3af4ff5f2c0ced16a779dc", "is_disabled": 0, "is_reserved": 0}, {"rental_uris": {"ios": "https://dc.lft.to/lastmile_qr_scan", "android": "https://dc.lft.to/lastmile_qr_scan"}, "lon": -77.02087483333334, "type": "electric_scooter", "fusion_lat": 0.0, "lat": 38.88183816666667, "name": "214945d9a7a8f3ccb04320a3eab74e66", "fusion_lon": 0.0, "bike_id": "214945d9a7a8f3ccb04320a3eab74e66", "is_disabled": 0, "is_reserved": 0}, {"rental_uris": {"ios": "https://dc.lft.to/lastmile_qr_scan", "android": "https://dc.lft.to/lastmile_qr_scan"}, "lon": -77.02117783333334, "type": "electric_scooter", "fusion_lat": 0.0, "lat": 38.89460366666667, "name": "6857eca21a006c8e3b1d7561dd378f4f", "fusion_lon": 0.0, "bike_id": "6857eca21a006c8e3b1d7561dd378f4f", "is_disabled": 0, "is_reserved": 0}, {"rental_uris": {"ios": "https://dc.lft.to/lastmile_qr_scan", "android": "https://dc.lft.to/lastmile_qr_scan"}, "lon": -77.0200075, "type": "electric_scooter", "fusion_lat": 0.0, "lat": 38.902598166666664, "name": "b109964d047600bd6b06b8bd04209fda", "fusion_lon": 0.0, "bike_id": "b109964d047600bd6b06b8bd04209fda", "is_disabled": 0, "is_reserved": 0}, {"rental_uris": {"ios": "https://dc.lft.to/lastmile_qr_scan", "android": "https://dc.lft.to/lastmile_qr_scan"}, "lon": -77.02596916666667, "type": "electric_scooter", "fusion_lat": 0.0, "lat": 38.975885, "name": "5044a5bd1044e6004eb8886ca39d9d60", "fusion_lon": 0.0, "bike_id": "5044a5bd1044e6004eb8886ca39d9d60", "is_disabled": 0, "is_reserved": 0}, {"rental_uris": {"ios": "https://dc.lft.to/lastmile_qr_scan", "android": "https://dc.lft.to/lastmile_qr_scan"}, "lon": -77.05299683333334, "type": "electric_scooter", "fusion_lat": 0.0, "lat": 38.92782866666667, "name": "8021dc88c98c8010604634625c900101", "fusion_lon": 0.0, "bike_id": "8021dc88c98c8010604634625c900101", "is_disabled": 0, "is_reserved": 0}, {"rental_uris": {"ios": "https://dc.lft.to/lastmile_qr_scan", "android": "https://dc.lft.to/lastmile_qr_scan"}, "lon": -77.04890816666666, "type": "electric_scooter", "fusion_lat": 0.0, "lat": 38.9059595, "name": "8ca1e6529c340f0e5221253fa6c40ef5", "fusion_lon": 0.0, "bike_id": "8ca1e6529c340f0e5221253fa6c40ef5", "is_disabled": 0, "is_reserved": 0}, {"rental_uris": {"ios": "https://dc.lft.to/lastmile_qr_scan", "android": "https://dc.lft.to/lastmile_qr_scan"}, "lon": -77.053564, "type": "electric_scooter", "fusion_lat": 0.0, "lat": 38.9279435, "name": "184239d75c88335e0e2d0a9d52b87790", "fusion_lon": 0.0, "bike_id": "184239d75c88335e0e2d0a9d52b87790", "is_disabled": 0, "is_reserved": 0}, {"rental_uris": {"ios": "https://dc.lft.to/lastmile_qr_scan", "android": "https://dc.lft.to/lastmile_qr_scan"}, "lon": -77.02391966666667, "type": "electric_scooter", "fusion_lat": 0.0, "lat": 38.915905333333335, "name": "958984ae9fdd20cb8e3f8f2c99b0a252", "fusion_lon": 0.0, "bike_id": "958984ae9fdd20cb8e3f8f2c99b0a252", "is_disabled": 0, "is_reserved": 0}, {"rental_uris": {"ios": "https://dc.lft.to/lastmile_qr_scan", "android": "https://dc.lft.to/lastmile_qr_scan"}, "lon": -77.05217833333333, "type": "electric_scooter", "fusion_lat": 0.0, "lat": 38.92492566666667, "name": "54f69b0da96344efd825e01220df59ce", "fusion_lon": 0.0, "bike_id": "54f69b0da96344efd825e01220df59ce", "is_disabled": 0, "is_reserved": 0}, {"rental_uris": {"ios": "https://dc.lft.to/lastmile_qr_scan", "android": "https://dc.lft.to/lastmile_qr_scan"}, "lon": -77.02695416666667, "type": "electric_scooter", "fusion_lat": 0.0, "lat": 38.90867733333333, "name": "86956924a6ece721e6b756649ad2e763", "fusion_lon": 0.0, "bike_id": "86956924a6ece721e6b756649ad2e763", "is_disabled": 0, "is_reserved": 0}, {"rental_uris": {"ios": "https://dc.lft.to/lastmile_qr_scan", "android": "https://dc.lft.to/lastmile_qr_scan"}, "lon": -77.0182825, "type": "electric_scooter", "fusion_lat": 0.0, "lat": 38.876925, "name": "4c21452439ad0b19a039699464197590", "fusion_lon": 0.0, "bike_id": "4c21452439ad0b19a039699464197590", "is_disabled": 0, "is_reserved": 0}, {"rental_uris": {"ios": "https://dc.lft.to/lastmile_qr_scan", "android": "https://dc.lft.to/lastmile_qr_scan"}, "lon": -77.066312, "type": "electric_scooter", "fusion_lat": 0.0, "lat": 38.9136465, "name": "aecf586a83edd38da37f74c9e62f0f1a", "fusion_lon": 0.0, "bike_id": "aecf586a83edd38da37f74c9e62f0f1a", "is_disabled": 0, "is_reserved": 0}, {"rental_uris": {"ios": "https://dc.lft.to/lastmile_qr_scan", "android": "https://dc.lft.to/lastmile_qr_scan"}, "lon": -77.129013, "type": "electric_bike", "fusion_lat": 0.0, "lat": 38.8637515, "name": "76b7d86890d782317a6a53bf8cde2283", "fusion_lon": 0.0, "bike_id": "76b7d86890d782317a6a53bf8cde2283", "is_disabled": 0, "is_reserved": 0}, {"rental_uris": {"ios": "https://dc.lft.to/lastmile_qr_scan", "android": "https://dc.lft.to/lastmile_qr_scan"}, "lon": -76.98373316666667, "type": "electric_scooter", "fusion_lat": 0.0, "lat": 38.860307166666665, "name": "46291a47f8dde08bb1cc0518b1965b5d", "fusion_lon": 0.0, "bike_id": "46291a47f8dde08bb1cc0518b1965b5d", "is_disabled": 0, "is_reserved": 0}, {"rental_uris": {"ios": "https://dc.lft.to/lastmile_qr_scan", "android": "https://dc.lft.to/lastmile_qr_scan"}, "lon": -77.02962516666666, "type": "electric_scooter", "fusion_lat": 0.0, "lat": 38.91180416666667, "name": "97a2a1f7bdbdabd6e15c41fd649bd512", "fusion_lon": 0.0, "bike_id": "97a2a1f7bdbdabd6e15c41fd649bd512", "is_disabled": 0, "is_reserved": 0}, {"rental_uris": {"ios": "https://dc.lft.to/lastmile_qr_scan", "android": "https://dc.lft.to/lastmile_qr_scan"}, "lon": -77.0469615, "type": "electric_scooter", "fusion_lat": 0.0, "lat": 38.917809166666665, "name": "112121373ee42c0c2c1c2467e03326ee", "fusion_lon": 0.0, "bike_id": "112121373ee42c0c2c1c2467e03326ee", "is_disabled": 0, "is_reserved": 0}, {"rental_uris": {"ios": "https://dc.lft.to/lastmile_qr_scan", "android": "https://dc.lft.to/lastmile_qr_scan"}, "lon": -76.95657616666666, "type": "electric_scooter", "fusion_lat": 0.0, "lat": 38.89616316666667, "name": "8af452731536554f639fa3e231a3d3ea", "fusion_lon": 0.0, "bike_id": "8af452731536554f639fa3e231a3d3ea", "is_disabled": 0, "is_reserved": 0}, {"rental_uris": {"ios": "https://dc.lft.to/lastmile_qr_scan", "android": "https://dc.lft.to/lastmile_qr_scan"}, "lon": -76.97250033333333, "type": "electric_bike", "fusion_lat": 0.0, "lat": 38.9573975, "name": "c3ebc5dde311696d9caaa3a0af549d4e", "fusion_lon": 0.0, "bike_id": "c3ebc5dde311696d9caaa3a0af549d4e", "is_disabled": 0, "is_reserved": 0}, {"rental_uris": {"ios": "https://dc.lft.to/lastmile_qr_scan", "android": "https://dc.lft.to/lastmile_qr_scan"}, "lon": -77.00121366666667, "type": "electric_scooter", "fusion_lat": 0.0, "lat": 38.91479616666667, "name": "28fd566c841be759477a6fa2ba3d5528", "fusion_lon": 0.0, "bike_id": "28fd566c841be759477a6fa2ba3d5528", "is_disabled": 0, "is_reserved": 0}, {"rental_uris": {"ios": "https://dc.lft.to/lastmile_qr_scan", "android": "https://dc.lft.to/lastmile_qr_scan"}, "lon": -77.03205683333333, "type": "electric_scooter", "fusion_lat": 0.0, "lat": 38.937532, "name": "a9dae6067cdad0f1c1d627291ef13057", "fusion_lon": 0.0, "bike_id": "a9dae6067cdad0f1c1d627291ef13057", "is_disabled": 0, "is_reserved": 0}, {"rental_uris": {"ios": "https://dc.lft.to/lastmile_qr_scan", "android": "https://dc.lft.to/lastmile_qr_scan"}, "lon": -77.03433833333334, "type": "electric_scooter", "fusion_lat": 0.0, "lat": 38.9179045, "name": "24f2265b9ce73da45123ea324a0e30b6", "fusion_lon": 0.0, "bike_id": "24f2265b9ce73da45123ea324a0e30b6", "is_disabled": 0, "is_reserved": 0}, {"rental_uris": {"ios": "https://dc.lft.to/lastmile_qr_scan", "android": "https://dc.lft.to/lastmile_qr_scan"}, "lon": -77.02389083333334, "type": "electric_scooter", "fusion_lat": 0.0, "lat": 38.915974, "name": "e59ee6ff77166935c8e010218982ddfa", "fusion_lon": 0.0, "bike_id": "e59ee6ff77166935c8e010218982ddfa", "is_disabled": 0, "is_reserved": 0}, {"rental_uris": {"ios": "https://dc.lft.to/lastmile_qr_scan", "android": "https://dc.lft.to/lastmile_qr_scan"}, "lon": -77.03210433333334, "type": "electric_scooter", "fusion_lat": 0.0, "lat": 38.920077, "name": "d76fc7856257c4d039a0d3cea97b2c56", "fusion_lon": 0.0, "bike_id": "d76fc7856257c4d039a0d3cea97b2c56", "is_disabled": 0, "is_reserved": 0}, {"rental_uris": {"ios": "https://dc.lft.to/lastmile_qr_scan", "android": "https://dc.lft.to/lastmile_qr_scan"}, "lon": -77.02201016666666, "type": "electric_scooter", "fusion_lat": 0.0, "lat": 38.90835333333333, "name": "9e80f926d9e063d2aa7c7ac7647add97", "fusion_lon": 0.0, "bike_id": "9e80f926d9e063d2aa7c7ac7647add97", "is_disabled": 0, "is_reserved": 0}, {"rental_uris": {"ios": "https://dc.lft.to/lastmile_qr_scan", "android": "https://dc.lft.to/lastmile_qr_scan"}, "lon": -76.94655783333333, "type": "electric_scooter", "fusion_lat": 0.0, "lat": 38.89826633333333, "name": "825e81422bd232ed8d9a21550e36c76c", "fusion_lon": 0.0, "bike_id": "825e81422bd232ed8d9a21550e36c76c", "is_disabled": 0, "is_reserved": 0}, {"rental_uris": {"ios": "https://dc.lft.to/lastmile_qr_scan", "android": "https://dc.lft.to/lastmile_qr_scan"}, "lon": -77.058836, "type": "electric_scooter", "fusion_lat": 0.0, "lat": 38.9363245, "name": "67debf7d6dc51a9e6ff56fe9242b918a", "fusion_lon": 0.0, "bike_id": "67debf7d6dc51a9e6ff56fe9242b918a", "is_disabled": 0, "is_reserved": 0}, {"rental_uris": {"ios": "https://dc.lft.to/lastmile_qr_scan", "android": "https://dc.lft.to/lastmile_qr_scan"}, "lon": -77.06578883333333, "type": "electric_bike", "fusion_lat": 0.0, "lat": 38.91128633333334, "name": "cbac72fb0ffb808235593076573e6f52", "fusion_lon": 0.0, "bike_id": "cbac72fb0ffb808235593076573e6f52", "is_disabled": 0, "is_reserved": 0}, {"rental_uris": {"ios": "https://dc.lft.to/lastmile_qr_scan", "android": "https://dc.lft.to/lastmile_qr_scan"}, "lon": -77.031577, "type": "electric_scooter", "fusion_lat": 0.0, "lat": 38.923689, "name": "82e8c241e1441d6d009b8ccecff46de1", "fusion_lon": 0.0, "bike_id": "82e8c241e1441d6d009b8ccecff46de1", "is_disabled": 0, "is_reserved": 0}, {"rental_uris": {"ios": "https://dc.lft.to/lastmile_qr_scan", "android": "https://dc.lft.to/lastmile_qr_scan"}, "lon": -77.10701383333334, "type": "electric_bike", "fusion_lat": 0.0, "lat": 38.855421166666666, "name": "105d9309886557b774ad55119394af59", "fusion_lon": 0.0, "bike_id": "105d9309886557b774ad55119394af59", "is_disabled": 0, "is_reserved": 0}, {"rental_uris": {"ios": "https://dc.lft.to/lastmile_qr_scan", "android": "https://dc.lft.to/lastmile_qr_scan"}, "lon": -77.03353016666667, "type": "electric_scooter", "fusion_lat": 0.0, "lat": 38.88505516666667, "name": "59aea43b6f8c5789dbf435caf17ff8e7", "fusion_lon": 0.0, "bike_id": "59aea43b6f8c5789dbf435caf17ff8e7", "is_disabled": 0, "is_reserved": 0}, {"rental_uris": {"ios": "https://dc.lft.to/lastmile_qr_scan", "android": "https://dc.lft.to/lastmile_qr_scan"}, "lon": -76.99264583333333, "type": "electric_scooter", "fusion_lat": 0.0, "lat": 38.89686366666667, "name": "9be7608c76ba8fd9dcc30b2e7068ab47", "fusion_lon": 0.0, "bike_id": "9be7608c76ba8fd9dcc30b2e7068ab47", "is_disabled": 0, "is_reserved": 0}, {"rental_uris": {"ios": "https://dc.lft.to/lastmile_qr_scan", "android": "https://dc.lft.to/lastmile_qr_scan"}, "lon": -77.03206116666667, "type": "electric_scooter", "fusion_lat": 0.0, "lat": 38.91151466666667, "name": "2bf88b7091b9554348bf9722f2e014a8", "fusion_lon": 0.0, "bike_id": "2bf88b7091b9554348bf9722f2e014a8", "is_disabled": 0, "is_reserved": 0}, {"rental_uris": {"ios": "https://dc.lft.to/lastmile_qr_scan", "android": "https://dc.lft.to/lastmile_qr_scan"}, "lon": -77.023312, "type": "electric_scooter", "fusion_lat": 0.0, "lat": 38.92890533333333, "name": "988aa3a0c1a2234c83bf39d3e1a9e7a2", "fusion_lon": 0.0, "bike_id": "988aa3a0c1a2234c83bf39d3e1a9e7a2", "is_disabled": 0, "is_reserved": 0}, {"rental_uris": {"ios": "https://dc.lft.to/lastmile_qr_scan", "android": "https://dc.lft.to/lastmile_qr_scan"}, "lon": -77.065288, "type": "electric_scooter", "fusion_lat": 0.0, "lat": 38.91127766666666, "name": "43bc2f6c324dedede1a6afc1aaae1455", "fusion_lon": 0.0, "bike_id": "43bc2f6c324dedede1a6afc1aaae1455", "is_disabled": 0, "is_reserved": 0}, {"rental_uris": {"ios": "https://dc.lft.to/lastmile_qr_scan", "android": "https://dc.lft.to/lastmile_qr_scan"}, "lon": -77.0370175, "type": "electric_bike", "fusion_lat": 0.0, "lat": 38.9355945, "name": "a1fc172baa09d0541132ed04d191832d", "fusion_lon": 0.0, "bike_id": "a1fc172baa09d0541132ed04d191832d", "is_disabled": 0, "is_reserved": 0}, {"rental_uris": {"ios": "https://dc.lft.to/lastmile_qr_scan", "android": "https://dc.lft.to/lastmile_qr_scan"}, "lon": -77.01503916666667, "type": "electric_scooter", "fusion_lat": 0.0, "lat": 38.907193166666666, "name": "9830ba16acb8c5c4f1991f14df77c512", "fusion_lon": 0.0, "bike_id": "9830ba16acb8c5c4f1991f14df77c512", "is_disabled": 0, "is_reserved": 0}, {"rental_uris": {"ios": "https://dc.lft.to/lastmile_qr_scan", "android": "https://dc.lft.to/lastmile_qr_scan"}, "lon": -77.028319, "type": "electric_scooter", "fusion_lat": 0.0, "lat": 38.912557666666665, "name": "383368e4ca5b0903738d006baca52c2e", "fusion_lon": 0.0, "bike_id": "383368e4ca5b0903738d006baca52c2e", "is_disabled": 0, "is_reserved": 0}, {"rental_uris": {"ios": "https://dc.lft.to/lastmile_qr_scan", "android": "https://dc.lft.to/lastmile_qr_scan"}, "lon": -76.995152, "type": "electric_scooter", "fusion_lat": 0.0, "lat": 38.894817333333336, "name": "a99a10203ab7f52b297e997e9b08e7ef", "fusion_lon": 0.0, "bike_id": "a99a10203ab7f52b297e997e9b08e7ef", "is_disabled": 0, "is_reserved": 0}, {"rental_uris": {"ios": "https://dc.lft.to/lastmile_qr_scan", "android": "https://dc.lft.to/lastmile_qr_scan"}, "lon": -77.03668, "type": "electric_scooter", "fusion_lat": 0.0, "lat": 38.90791016666667, "name": "7592d7b176427b6d7d796f70fa5bb02e", "fusion_lon": 0.0, "bike_id": "7592d7b176427b6d7d796f70fa5bb02e", "is_disabled": 0, "is_reserved": 0}, {"rental_uris": {"ios": "https://dc.lft.to/lastmile_qr_scan", "android": "https://dc.lft.to/lastmile_qr_scan"}, "lon": -76.94843366666667, "type": "electric_scooter", "fusion_lat": 0.0, "lat": 38.8948455, "name": "73eaa7d05afe381f70d2645d3b12f0d9", "fusion_lon": 0.0, "bike_id": "73eaa7d05afe381f70d2645d3b12f0d9", "is_disabled": 0, "is_reserved": 0}, {"rental_uris": {"ios": "https://dc.lft.to/lastmile_qr_scan", "android": "https://dc.lft.to/lastmile_qr_scan"}, "lon": -76.93174233333333, "type": "electric_scooter", "fusion_lat": 0.0, "lat": 38.89885066666667, "name": "987e335636a4f73b1975490ac60a58de", "fusion_lon": 0.0, "bike_id": "987e335636a4f73b1975490ac60a58de", "is_disabled": 0, "is_reserved": 0}, {"rental_uris": {"ios": "https://dc.lft.to/lastmile_qr_scan", "android": "https://dc.lft.to/lastmile_qr_scan"}, "lon": -76.94852516666667, "type": "electric_scooter", "fusion_lat": 0.0, "lat": 38.88298533333333, "name": "f79c3a68202b08ef56a4b05883b64740", "fusion_lon": 0.0, "bike_id": "f79c3a68202b08ef56a4b05883b64740", "is_disabled": 0, "is_reserved": 0}, {"rental_uris": {"ios": "https://dc.lft.to/lastmile_qr_scan", "android": "https://dc.lft.to/lastmile_qr_scan"}, "lon": -77.0449115, "type": "electric_scooter", "fusion_lat": 0.0, "lat": 38.9055395, "name": "1e2e8829d245919f981cb2f159862b04", "fusion_lon": 0.0, "bike_id": "1e2e8829d245919f981cb2f159862b04", "is_disabled": 0, "is_reserved": 0}, {"rental_uris": {"ios": "https://dc.lft.to/lastmile_qr_scan", "android": "https://dc.lft.to/lastmile_qr_scan"}, "lon": -77.02427733333333, "type": "electric_scooter", "fusion_lat": 0.0, "lat": 38.91850866666667, "name": "99f269a04196a8a9ffb2b968232b39a2", "fusion_lon": 0.0, "bike_id": "99f269a04196a8a9ffb2b968232b39a2", "is_disabled": 0, "is_reserved": 0}, {"rental_uris": {"ios": "https://dc.lft.to/lastmile_qr_scan", "android": "https://dc.lft.to/lastmile_qr_scan"}, "lon": -77.088274, "type": "electric_bike", "fusion_lat": 0.0, "lat": 38.909772, "name": "ca2bbb19e096b67c03d1fab68e22b5a2", "fusion_lon": 0.0, "bike_id": "ca2bbb19e096b67c03d1fab68e22b5a2", "is_disabled": 0, "is_reserved": 0}, {"rental_uris": {"ios": "https://dc.lft.to/lastmile_qr_scan", "android": "https://dc.lft.to/lastmile_qr_scan"}, "lon": -77.0511765, "type": "electric_bike", "fusion_lat": 0.0, "lat": 38.999658, "name": "19a4f25be7d070c8e01f9a9b98444195", "fusion_lon": 0.0, "bike_id": "19a4f25be7d070c8e01f9a9b98444195", "is_disabled": 0, "is_reserved": 0}, {"rental_uris": {"ios": "https://dc.lft.to/lastmile_qr_scan", "android": "https://dc.lft.to/lastmile_qr_scan"}, "lon": -77.01628066666666, "type": "electric_scooter", "fusion_lat": 0.0, "lat": 38.9032885, "name": "7de5bb396a4637824297e04c10a27d02", "fusion_lon": 0.0, "bike_id": "7de5bb396a4637824297e04c10a27d02", "is_disabled": 0, "is_reserved": 0}, {"rental_uris": {"ios": "https://dc.lft.to/lastmile_qr_scan", "android": "https://dc.lft.to/lastmile_qr_scan"}, "lon": -76.9860835, "type": "electric_bike", "fusion_lat": 0.0, "lat": 38.90624866666667, "name": "421ea776b635ddb86db57652fbbfb968", "fusion_lon": 0.0, "bike_id": "421ea776b635ddb86db57652fbbfb968", "is_disabled": 0, "is_reserved": 0}, {"rental_uris": {"ios": "https://dc.lft.to/lastmile_qr_scan", "android": "https://dc.lft.to/lastmile_qr_scan"}, "lon": -77.024166, "type": "electric_scooter", "fusion_lat": 0.0, "lat": 38.91823, "name": "79557f8f39d5ac4b418d79d6bb900a1a", "fusion_lon": 0.0, "bike_id": "79557f8f39d5ac4b418d79d6bb900a1a", "is_disabled": 0, "is_reserved": 0}, {"rental_uris": {"ios": "https://dc.lft.to/lastmile_qr_scan", "android": "https://dc.lft.to/lastmile_qr_scan"}, "lon": -77.0129385, "type": "electric_bike", "fusion_lat": 0.0, "lat": 39.003805, "name": "852936c4b5b8ebf99c3dfca9815c0a33", "fusion_lon": 0.0, "bike_id": "852936c4b5b8ebf99c3dfca9815c0a33", "is_disabled": 0, "is_reserved": 0}, {"rental_uris": {"ios": "https://dc.lft.to/lastmile_qr_scan", "android": "https://dc.lft.to/lastmile_qr_scan"}, "lon": -77.011161, "type": "electric_scooter", "fusion_lat": 0.0, "lat": 38.903609833333334, "name": "d7ab04ad1f6e3bc0a15904e4afe86252", "fusion_lon": 0.0, "bike_id": "d7ab04ad1f6e3bc0a15904e4afe86252", "is_disabled": 0, "is_reserved": 0}, {"rental_uris": {"ios": "https://dc.lft.to/lastmile_qr_scan", "android": "https://dc.lft.to/lastmile_qr_scan"}, "lon": -77.02549516666667, "type": "electric_scooter", "fusion_lat": 0.0, "lat": 38.89223583333333, "name": "5b0bdcca4fc50dfa039c2aed5cdea154", "fusion_lon": 0.0, "bike_id": "5b0bdcca4fc50dfa039c2aed5cdea154", "is_disabled": 0, "is_reserved": 0}, {"rental_uris": {"ios": "https://dc.lft.to/lastmile_qr_scan", "android": "https://dc.lft.to/lastmile_qr_scan"}, "lon": -77.05746266666667, "type": "electric_scooter", "fusion_lat": 0.0, "lat": 38.9353825, "name": "930fa9e8a68952f099edffc1038ff481", "fusion_lon": 0.0, "bike_id": "930fa9e8a68952f099edffc1038ff481", "is_disabled": 0, "is_reserved": 0}, {"rental_uris": {"ios": "https://dc.lft.to/lastmile_qr_scan", "android": "https://dc.lft.to/lastmile_qr_scan"}, "lon": -77.016979, "type": "electric_scooter", "fusion_lat": 0.0, "lat": 38.87919933333333, "name": "648694ac3b4de67bafd80d21c60225f8", "fusion_lon": 0.0, "bike_id": "648694ac3b4de67bafd80d21c60225f8", "is_disabled": 0, "is_reserved": 0}, {"rental_uris": {"ios": "https://dc.lft.to/lastmile_qr_scan", "android": "https://dc.lft.to/lastmile_qr_scan"}, "lon": -77.0005435, "type": "electric_scooter", "fusion_lat": 0.0, "lat": 38.888993666666664, "name": "a0dbee9a4abeb9caf00e9d8820e03205", "fusion_lon": 0.0, "bike_id": "a0dbee9a4abeb9caf00e9d8820e03205", "is_disabled": 0, "is_reserved": 0}, {"rental_uris": {"ios": "https://dc.lft.to/lastmile_qr_scan", "android": "https://dc.lft.to/lastmile_qr_scan"}, "lon": -77.03693416666667, "type": "electric_bike", "fusion_lat": 0.0, "lat": 38.935665, "name": "c5ac39345382691d545db4f5cc9a83d1", "fusion_lon": 0.0, "bike_id": "c5ac39345382691d545db4f5cc9a83d1", "is_disabled": 0, "is_reserved": 0}, {"rental_uris": {"ios": "https://dc.lft.to/lastmile_qr_scan", "android": "https://dc.lft.to/lastmile_qr_scan"}, "lon": -77.07557383333334, "type": "electric_bike", "fusion_lat": 0.0, "lat": 38.91046333333333, "name": "b1a3d5090377200e73f8f821896fe7ee", "fusion_lon": 0.0, "bike_id": "b1a3d5090377200e73f8f821896fe7ee", "is_disabled": 0, "is_reserved": 0}, {"rental_uris": {"ios": "https://dc.lft.to/lastmile_qr_scan", "android": "https://dc.lft.to/lastmile_qr_scan"}, "lon": -77.08843216666666, "type": "electric_bike", "fusion_lat": 0.0, "lat": 38.8407845, "name": "73b90b2dfc5a42391eb12d5b46b18383", "fusion_lon": 0.0, "bike_id": "73b90b2dfc5a42391eb12d5b46b18383", "is_disabled": 0, "is_reserved": 0}, {"rental_uris": {"ios": "https://dc.lft.to/lastmile_qr_scan", "android": "https://dc.lft.to/lastmile_qr_scan"}, "lon": -77.04560916666667, "type": "electric_scooter", "fusion_lat": 0.0, "lat": 38.91460933333333, "name": "19605c1e4bca38704d4a2f14356ca2bc", "fusion_lon": 0.0, "bike_id": "19605c1e4bca38704d4a2f14356ca2bc", "is_disabled": 0, "is_reserved": 0}, {"rental_uris": {"ios": "https://dc.lft.to/lastmile_qr_scan", "android": "https://dc.lft.to/lastmile_qr_scan"}, "lon": -77.0384245, "type": "electric_scooter", "fusion_lat": 0.0, "lat": 38.9108825, "name": "6f70d5a6f1425b96c5b431e34948f307", "fusion_lon": 0.0, "bike_id": "6f70d5a6f1425b96c5b431e34948f307", "is_disabled": 0, "is_reserved": 0}, {"rental_uris": {"ios": "https://dc.lft.to/lastmile_qr_scan", "android": "https://dc.lft.to/lastmile_qr_scan"}, "lon": -76.9948015, "type": "electric_scooter", "fusion_lat": 0.0, "lat": 38.895575666666666, "name": "7036bd1c7e952bdc15be2490a2689d9c", "fusion_lon": 0.0, "bike_id": "7036bd1c7e952bdc15be2490a2689d9c", "is_disabled": 0, "is_reserved": 0}, {"rental_uris": {"ios": "https://dc.lft.to/lastmile_qr_scan", "android": "https://dc.lft.to/lastmile_qr_scan"}, "lon": -76.931561, "type": "electric_scooter", "fusion_lat": 0.0, "lat": 38.898775, "name": "f476b582c13f10b0f88fbe545030947a", "fusion_lon": 0.0, "bike_id": "f476b582c13f10b0f88fbe545030947a", "is_disabled": 0, "is_reserved": 0}, {"rental_uris": {"ios": "https://dc.lft.to/lastmile_qr_scan", "android": "https://dc.lft.to/lastmile_qr_scan"}, "lon": -77.04710816666666, "type": "electric_scooter", "fusion_lat": 0.0, "lat": 38.9085775, "name": "85e7c8478f2863155ba747388c83d8dd", "fusion_lon": 0.0, "bike_id": "85e7c8478f2863155ba747388c83d8dd", "is_disabled": 0, "is_reserved": 0}, {"rental_uris": {"ios": "https://dc.lft.to/lastmile_qr_scan", "android": "https://dc.lft.to/lastmile_qr_scan"}, "lon": -77.01187133333333, "type": "electric_scooter", "fusion_lat": 0.0, "lat": 38.9001535, "name": "7bcd91d908cd9efafb29dbe23f6c53b8", "fusion_lon": 0.0, "bike_id": "7bcd91d908cd9efafb29dbe23f6c53b8", "is_disabled": 0, "is_reserved": 0}, {"rental_uris": {"ios": "https://dc.lft.to/lastmile_qr_scan", "android": "https://dc.lft.to/lastmile_qr_scan"}, "lon": -77.025243, "type": "electric_scooter", "fusion_lat": 0.0, "lat": 38.932807333333336, "name": "c0f08144b9b5978479f6975113627d46", "fusion_lon": 0.0, "bike_id": "c0f08144b9b5978479f6975113627d46", "is_disabled": 0, "is_reserved": 0}, {"rental_uris": {"ios": "https://dc.lft.to/lastmile_qr_scan", "android": "https://dc.lft.to/lastmile_qr_scan"}, "lon": -77.03487016666666, "type": "electric_scooter", "fusion_lat": 0.0, "lat": 38.919206333333335, "name": "d5ffc2d001f22637978fdc743c81dde4", "fusion_lon": 0.0, "bike_id": "d5ffc2d001f22637978fdc743c81dde4", "is_disabled": 0, "is_reserved": 0}, {"rental_uris": {"ios": "https://dc.lft.to/lastmile_qr_scan", "android": "https://dc.lft.to/lastmile_qr_scan"}, "lon": -76.98158433333333, "type": "electric_scooter", "fusion_lat": 0.0, "lat": 38.90014383333333, "name": "12bfe094848d1316e0057d029e24e098", "fusion_lon": 0.0, "bike_id": "12bfe094848d1316e0057d029e24e098", "is_disabled": 0, "is_reserved": 0}, {"rental_uris": {"ios": "https://dc.lft.to/lastmile_qr_scan", "android": "https://dc.lft.to/lastmile_qr_scan"}, "lon": -77.00201266666667, "type": "electric_scooter", "fusion_lat": 0.0, "lat": 38.90034216666667, "name": "6ed30c6610f71e385d79ec689a52b7ef", "fusion_lon": 0.0, "bike_id": "6ed30c6610f71e385d79ec689a52b7ef", "is_disabled": 0, "is_reserved": 0}, {"rental_uris": {"ios": "https://dc.lft.to/lastmile_qr_scan", "android": "https://dc.lft.to/lastmile_qr_scan"}, "lon": -76.97562683333334, "type": "electric_bike", "fusion_lat": 0.0, "lat": 38.872634833333336, "name": "d4e9bbdb05117dc3c2b4b9c0657bd462", "fusion_lon": 0.0, "bike_id": "d4e9bbdb05117dc3c2b4b9c0657bd462", "is_disabled": 0, "is_reserved": 0}, {"rental_uris": {"ios": "https://dc.lft.to/lastmile_qr_scan", "android": "https://dc.lft.to/lastmile_qr_scan"}, "lon": -77.04190066666666, "type": "electric_scooter", "fusion_lat": 0.0, "lat": 38.91260033333333, "name": "41655ea4a5f8836444e3cf4d3c20ae55", "fusion_lon": 0.0, "bike_id": "41655ea4a5f8836444e3cf4d3c20ae55", "is_disabled": 0, "is_reserved": 0}, {"rental_uris": {"ios": "https://dc.lft.to/lastmile_qr_scan", "android": "https://dc.lft.to/lastmile_qr_scan"}, "lon": -77.03170733333333, "type": "electric_scooter", "fusion_lat": 0.0, "lat": 38.91550316666667, "name": "f3575b255aba4a76844bf53164a95fd2", "fusion_lon": 0.0, "bike_id": "f3575b255aba4a76844bf53164a95fd2", "is_disabled": 0, "is_reserved": 0}, {"rental_uris": {"ios": "https://dc.lft.to/lastmile_qr_scan", "android": "https://dc.lft.to/lastmile_qr_scan"}, "lon": -77.01103783333333, "type": "electric_scooter", "fusion_lat": 0.0, "lat": 38.9035465, "name": "af8dada5c6a7982f9eb7e0e28f8b6e6b", "fusion_lon": 0.0, "bike_id": "af8dada5c6a7982f9eb7e0e28f8b6e6b", "is_disabled": 0, "is_reserved": 0}, {"rental_uris": {"ios": "https://dc.lft.to/lastmile_qr_scan", "android": "https://dc.lft.to/lastmile_qr_scan"}, "lon": -77.01512883333334, "type": "electric_scooter", "fusion_lat": 0.0, "lat": 38.9160985, "name": "24df311ea3caf73b692b8365e1a9f8d3", "fusion_lon": 0.0, "bike_id": "24df311ea3caf73b692b8365e1a9f8d3", "is_disabled": 0, "is_reserved": 0}, {"rental_uris": {"ios": "https://dc.lft.to/lastmile_qr_scan", "android": "https://dc.lft.to/lastmile_qr_scan"}, "lon": -77.01613616666667, "type": "electric_scooter", "fusion_lat": 0.0, "lat": 38.899883333333335, "name": "8c8b20313578b7e9a12048f41d5cc607", "fusion_lon": 0.0, "bike_id": "8c8b20313578b7e9a12048f41d5cc607", "is_disabled": 0, "is_reserved": 0}, {"rental_uris": {"ios": "https://dc.lft.to/lastmile_qr_scan", "android": "https://dc.lft.to/lastmile_qr_scan"}, "lon": -77.0281925, "type": "electric_scooter", "fusion_lat": 0.0, "lat": 38.8989485, "name": "995cb2506312ad9ad49f92515915c730", "fusion_lon": 0.0, "bike_id": "995cb2506312ad9ad49f92515915c730", "is_disabled": 0, "is_reserved": 0}, {"rental_uris": {"ios": "https://dc.lft.to/lastmile_qr_scan", "android": "https://dc.lft.to/lastmile_qr_scan"}, "lon": -77.02700933333334, "type": "electric_scooter", "fusion_lat": 0.0, "lat": 38.911743333333334, "name": "f6b8add14114def65d76b4f2ed6f7d84", "fusion_lon": 0.0, "bike_id": "f6b8add14114def65d76b4f2ed6f7d84", "is_disabled": 0, "is_reserved": 0}, {"rental_uris": {"ios": "https://dc.lft.to/lastmile_qr_scan", "android": "https://dc.lft.to/lastmile_qr_scan"}, "lon": -76.9652415, "type": "electric_scooter", "fusion_lat": 0.0, "lat": 38.876254, "name": "aeff4a5b433ccd27fce55d9631af4b0d", "fusion_lon": 0.0, "bike_id": "aeff4a5b433ccd27fce55d9631af4b0d", "is_disabled": 0, "is_reserved": 0}, {"rental_uris": {"ios": "https://dc.lft.to/lastmile_qr_scan", "android": "https://dc.lft.to/lastmile_qr_scan"}, "lon": -77.040024, "type": "electric_scooter", "fusion_lat": 0.0, "lat": 38.92179683333333, "name": "a198bf228f4ec51618ebdbabf38ab2a0", "fusion_lon": 0.0, "bike_id": "a198bf228f4ec51618ebdbabf38ab2a0", "is_disabled": 0, "is_reserved": 0}, {"rental_uris": {"ios": "https://dc.lft.to/lastmile_qr_scan", "android": "https://dc.lft.to/lastmile_qr_scan"}, "lon": -77.0390485, "type": "electric_scooter", "fusion_lat": 0.0, "lat": 38.923267333333335, "name": "b2a65a688311ddc347049a950c463edb", "fusion_lon": 0.0, "bike_id": "b2a65a688311ddc347049a950c463edb", "is_disabled": 0, "is_reserved": 0}, {"rental_uris": {"ios": "https://dc.lft.to/lastmile_qr_scan", "android": "https://dc.lft.to/lastmile_qr_scan"}, "lon": -77.023435, "type": "electric_scooter", "fusion_lat": 0.0, "lat": 38.962068, "name": "b04a5a704fb69183c619e9d76278386f", "fusion_lon": 0.0, "bike_id": "b04a5a704fb69183c619e9d76278386f", "is_disabled": 0, "is_reserved": 0}, {"rental_uris": {"ios": "https://dc.lft.to/lastmile_qr_scan", "android": "https://dc.lft.to/lastmile_qr_scan"}, "lon": -77.02941316666667, "type": "electric_scooter", "fusion_lat": 0.0, "lat": 38.907782833333336, "name": "7d53452059626f55e25c1680963e065a", "fusion_lon": 0.0, "bike_id": "7d53452059626f55e25c1680963e065a", "is_disabled": 0, "is_reserved": 0}, {"rental_uris": {"ios": "https://dc.lft.to/lastmile_qr_scan", "android": "https://dc.lft.to/lastmile_qr_scan"}, "lon": -77.00587116666667, "type": "electric_scooter", "fusion_lat": 0.0, "lat": 38.915606833333335, "name": "f0f5fa65d4541a3549f86e148babd4d9", "fusion_lon": 0.0, "bike_id": "f0f5fa65d4541a3549f86e148babd4d9", "is_disabled": 0, "is_reserved": 0}, {"rental_uris": {"ios": "https://dc.lft.to/lastmile_qr_scan", "android": "https://dc.lft.to/lastmile_qr_scan"}, "lon": -77.02613416666667, "type": "electric_scooter", "fusion_lat": 0.0, "lat": 38.90350766666667, "name": "1d59abb1c00211c7f21db02e25ae8c93", "fusion_lon": 0.0, "bike_id": "1d59abb1c00211c7f21db02e25ae8c93", "is_disabled": 0, "is_reserved": 0}, {"rental_uris": {"ios": "https://dc.lft.to/lastmile_qr_scan", "android": "https://dc.lft.to/lastmile_qr_scan"}, "lon": -77.12500716666666, "type": "electric_bike", "fusion_lat": 0.0, "lat": 39.02411416666666, "name": "e7ec534d8d0d37b8ecfa36e3a576b34f", "fusion_lon": 0.0, "bike_id": "e7ec534d8d0d37b8ecfa36e3a576b34f", "is_disabled": 0, "is_reserved": 0}, {"rental_uris": {"ios": "https://dc.lft.to/lastmile_qr_scan", "android": "https://dc.lft.to/lastmile_qr_scan"}, "lon": -77.0284345, "type": "electric_scooter", "fusion_lat": 0.0, "lat": 38.93073966666667, "name": "693fb6e3fdecc4207b0f881cf5de512d", "fusion_lon": 0.0, "bike_id": "693fb6e3fdecc4207b0f881cf5de512d", "is_disabled": 0, "is_reserved": 0}, {"rental_uris": {"ios": "https://dc.lft.to/lastmile_qr_scan", "android": "https://dc.lft.to/lastmile_qr_scan"}, "lon": -77.02287533333333, "type": "electric_scooter", "fusion_lat": 0.0, "lat": 38.91570383333333, "name": "32334ef5770b2d42b9bead452b40a335", "fusion_lon": 0.0, "bike_id": "32334ef5770b2d42b9bead452b40a335", "is_disabled": 0, "is_reserved": 0}, {"rental_uris": {"ios": "https://dc.lft.to/lastmile_qr_scan", "android": "https://dc.lft.to/lastmile_qr_scan"}, "lon": -77.04171416666667, "type": "electric_scooter", "fusion_lat": 0.0, "lat": 38.9074785, "name": "b94bf6aba5613bcb9a080b4aceb111bf", "fusion_lon": 0.0, "bike_id": "b94bf6aba5613bcb9a080b4aceb111bf", "is_disabled": 0, "is_reserved": 0}, {"rental_uris": {"ios": "https://dc.lft.to/lastmile_qr_scan", "android": "https://dc.lft.to/lastmile_qr_scan"}, "lon": -77.04388333333333, "type": "electric_scooter", "fusion_lat": 0.0, "lat": 38.9293695, "name": "fe939fc52b98422fe86aedb0ad4f3c5a", "fusion_lon": 0.0, "bike_id": "fe939fc52b98422fe86aedb0ad4f3c5a", "is_disabled": 0, "is_reserved": 0}, {"rental_uris": {"ios": "https://dc.lft.to/lastmile_qr_scan", "android": "https://dc.lft.to/lastmile_qr_scan"},