{"data": {"bikes": [{"fusion_lat": 0.0, "bike_id": "830572c2ac0a2b0027f73331d6fb2885", "fusion_lon": 0.0, "lon": -77.00449533333334, "lat": 38.91761916666667, "is_reserved": 0, "is_disabled": 0, "rental_uris": {"android": "https://dc.lft.to/lastmile_qr_scan", "ios": "https://dc.lft.to/lastmile_qr_scan"}, "name": "830572c2ac0a2b0027f73331d6fb2885", "type": "electric_scooter"}, {"fusion_lat": 0.0, "bike_id": "ce41e819e43b642567f8eab49475bb86", "fusion_lon": 0.0, "lon": -77.00719633333334, "lat": 38.8972505, "is_reserved": 0, "is_disabled": 0, "rental_uris": {"android": "https://dc.lft.to/lastmile_qr_scan", "ios": "https://dc.lft.to/lastmile_qr_scan"}, "name": "ce41e819e43b642567f8eab49475bb86", "type": "electric_scooter"}, {"fusion_lat": 0.0, "bike_id": "c2952c1396c375d62ecab02d963a0cce", "fusion_lon": 0.0, "lon": -77.04102133333333, "lat": 38.92446183333333, "is_reserved": 0, "is_disabled": 0, "rental_uris": {"android": "https://dc.lft.to/lastmile_qr_scan", "ios": "https://dc.lft.to/lastmile_qr_scan"}, "name": "c2952c1396c375d62ecab02d963a0cce", "type": "electric_scooter"}, {"fusion_lat": 0.0, "bike_id": "c455e61fe6d15bbd1d7de0f66af19f53", "fusion_lon": 0.0, "lon": -77.02465133333334, "lat": 38.941989166666666, "is_reserved": 0, "is_disabled": 0, "rental_uris": {"android": "https://dc.lft.to/lastmile_qr_scan", "ios": "https://dc.lft.to/lastmile_qr_scan"}, "name": "c455e61fe6d15bbd1d7de0f66af19f53", "type": "electric_scooter"}, {"fusion_lat": 0.0, "bike_id": "4454159097f21840c2e1c4ce6cf2a9c6", "fusion_lon": 0.0, "lon": -77.02396883333333, "lat": 38.9211015, "is_reserved": 0, "is_disabled": 0, "rental_uris": {"android": "https://dc.lft.to/lastmile_qr_scan", "ios": "https://dc.lft.to/lastmile_qr_scan"}, "name": "4454159097f21840c2e1c4ce6cf2a9c6", "type": "electric_scooter"}, {"fusion_lat": 0.0, "bike_id": "2882349f75e238f63df39a7c657391bb", "fusion_lon": 0.0, "lon": -76.9881695, "lat": 38.90046566666667, "is_reserved": 0, "is_disabled": 0, "rental_uris": {"android": "https://dc.lft.to/lastmile_qr_scan", "ios": "https://dc.lft.to/lastmile_qr_scan"}, "name": "2882349f75e238f63df39a7c657391bb", "type": "electric_scooter"}, {"fusion_lat": 0.0, "bike_id": "51d4c35d66bbba937b0b2a1f9080e98e", "fusion_lon": 0.0, "lon": -77.03177683333334, "lat": 38.9117375, "is_reserved": 0, "is_disabled": 0, "rental_uris": {"android": "https://dc.lft.to/lastmile_qr_scan", "ios": "https://dc.lft.to/lastmile_qr_scan"}, "name": "51d4c35d66bbba937b0b2a1f9080e98e", "type": "electric_scooter"}, {"fusion_lat": 0.0, "bike_id": "76a34ba114db82cc32b1398c4efd62cf", "fusion_lon": 0.0, "lon": -77.03814266666667, "lat": 38.930630666666666, "is_reserved": 0, "is_disabled": 0, "rental_uris": {"android": "https://dc.lft.to/lastmile_qr_scan", "ios": "https://dc.lft.to/lastmile_qr_scan"}, "name": "76a34ba114db82cc32b1398c4efd62cf", "type": "electric_scooter"}, {"fusion_lat": 0.0, "bike_id": "b9e116e5fb03d7bbc2d67fa808d07124", "fusion_lon": 0.0, "lon": -76.98460566666667, "lat": 38.905584, "is_reserved": 0, "is_disabled": 0, "rental_uris": {"android": "https://dc.lft.to/lastmile_qr_scan", "ios": "https://dc.lft.to/lastmile_qr_scan"}, "name": "b9e116e5fb03d7bbc2d67fa808d07124", "type": "electric_scooter"}, {"fusion_lat": 0.0, "bike_id": "26fe1154b0551074ec449ca5b9ff97d3", "fusion_lon": 0.0, "lon": -77.05240633333334, "lat": 38.92549983333333, "is_reserved": 0, "is_disabled": 0, "rental_uris": {"android": "https://dc.lft.to/lastmile_qr_scan", "ios": "https://dc.lft.to/lastmile_qr_scan"}, "name": "26fe1154b0551074ec449ca5b9ff97d3", "type": "electric_scooter"}, {"fusion_lat": 0.0, "bike_id": "21bbbe2f9589e58a85908dd4fd224f8b", "fusion_lon": 0.0, "lon": -77.05001983333334, "lat": 38.892309833333336, "is_reserved": 0, "is_disabled": 0, "rental_uris": {"android": "https://dc.lft.to/lastmile_qr_scan", "ios": "https://dc.lft.to/lastmile_qr_scan"}, "name": "21bbbe2f9589e58a85908dd4fd224f8b", "type": "electric_scooter"}, {"fusion_lat": 0.0, "bike_id": "7405097bf02b666cbe9eb877d4398370", "fusion_lon": 0.0, "lon": -77.01506816666667, "lat": 38.905755666666664, "is_reserved": 0, "is_disabled": 0, "rental_uris": {"android": "https://dc.lft.to/lastmile_qr_scan", "ios": "https://dc.lft.to/lastmile_qr_scan"}, "name": "7405097bf02b666cbe9eb877d4398370", "type": "electric_scooter"}, {"fusion_lat": 0.0, "bike_id": "3174a26aff6206c2fe2151606a76fe59", "fusion_lon": 0.0, "lon": -77.03929616666667, "lat": 38.93276616666667, "is_reserved": 0, "is_disabled": 0, "rental_uris": {"android": "https://dc.lft.to/lastmile_qr_scan", "ios": "https://dc.lft.to/lastmile_qr_scan"}, "name": "3174a26aff6206c2fe2151606a76fe59", "type": "electric_scooter"}, {"fusion_lat": 0.0, "bike_id": "4b051b31be4e5d8d9d0ebc41502e234f", "fusion_lon": 0.0, "lon": -77.033321, "lat": 38.89224383333333, "is_reserved": 0, "is_disabled": 0, "rental_uris": {"android": "https://dc.lft.to/lastmile_qr_scan", "ios": "https://dc.lft.to/lastmile_qr_scan"}, "name": "4b051b31be4e5d8d9d0ebc41502e234f", "type": "electric_scooter"}, {"fusion_lat": 0.0, "bike_id": "cd894ec9dde3334085b720496d7168cd", "fusion_lon": 0.0, "lon": -77.02092883333333, "lat": 38.91129316666667, "is_reserved": 0, "is_disabled": 0, "rental_uris": {"android": "https://dc.lft.to/lastmile_qr_scan", "ios": "https://dc.lft.to/lastmile_qr_scan"}, "name": "cd894ec9dde3334085b720496d7168cd", "type": "electric_scooter"}, {"fusion_lat": 0.0, "bike_id": "d377d99964c6e1e56051691a0837a21e", "fusion_lon": 0.0, "lon": -77.03121183333333, "lat": 38.897187833333334, "is_reserved": 0, "is_disabled": 0, "rental_uris": {"android": "https://dc.lft.to/lastmile_qr_scan", "ios": "https://dc.lft.to/lastmile_qr_scan"}, "name": "d377d99964c6e1e56051691a0837a21e", "type": "electric_scooter"}, {"fusion_lat": 0.0, "bike_id": "d6b0db7cae6f042365d4d555c1df8c3e", "fusion_lon": 0.0, "lon": -76.9992, "lat": 38.889758, "is_reserved": 0, "is_disabled": 0, "rental_uris": {"android": "https://dc.lft.to/lastmile_qr_scan", "ios": "https://dc.lft.to/lastmile_qr_scan"}, "name": "d6b0db7cae6f042365d4d555c1df8c3e", "type": "electric_scooter"}, {"fusion_lat": 0.0, "bike_id": "0c9d7f252562384d31783bfece2909bf", "fusion_lon": 0.0, "lon": -76.9810165, "lat": 38.8773045, "is_reserved": 0, "is_disabled": 0, "rental_uris": {"android": "https://dc.lft.to/lastmile_qr_scan", "ios": "https://dc.lft.to/lastmile_qr_scan"}, "name": "0c9d7f252562384d31783bfece2909bf", "type": "electric_bike"}, {"fusion_lat": 0.0, "bike_id": "4d41f7e149a0bcc6f6111435661cf821", "fusion_lon": 0.0, "lon": -77.02710166666667, "lat": 38.924672666666666, "is_reserved": 0, "is_disabled": 0, "rental_uris": {"android": "https://dc.lft.to/lastmile_qr_scan", "ios": "https://dc.lft.to/lastmile_qr_scan"}, "name": "4d41f7e149a0bcc6f6111435661cf821", "type": "electric_scooter"}, {"fusion_lat": 0.0, "bike_id": "883a6f52221ab713ae423214c314160a", "fusion_lon": 0.0, "lon": -77.00904866666667, "lat": 38.9098915, "is_reserved": 0, "is_disabled": 0, "rental_uris": {"android": "https://dc.lft.to/lastmile_qr_scan", "ios": "https://dc.lft.to/lastmile_qr_scan"}, "name": "883a6f52221ab713ae423214c314160a", "type": "electric_scooter"}, {"fusion_lat": 0.0, "bike_id": "880023b55dd6e102320cd1117476fd02", "fusion_lon": 0.0, "lon": -77.0153165, "lat": 38.887442166666666, "is_reserved": 0, "is_disabled": 0, "rental_uris": {"android": "https://dc.lft.to/lastmile_qr_scan", "ios": "https://dc.lft.to/lastmile_qr_scan"}, "name": "880023b55dd6e102320cd1117476fd02", "type": "electric_scooter"}, {"fusion_lat": 0.0, "bike_id": "8f42e867a893ec1eeae339f95ca59588", "fusion_lon": 0.0, "lon": -77.03211783333333, "lat": 38.90726, "is_reserved": 0, "is_disabled": 0, "rental_uris": {"android": "https://dc.lft.to/lastmile_qr_scan", "ios": "https://dc.lft.to/lastmile_qr_scan"}, "name": "8f42e867a893ec1eeae339f95ca59588", "type": "electric_scooter"}, {"fusion_lat": 0.0, "bike_id": "c1ca50fc4e02639b96f6240dd86b51f3", "fusion_lon": 0.0, "lon": -77.04003383333334, "lat": 38.9342605, "is_reserved": 0, "is_disabled": 0, "rental_uris": {"android": "https://dc.lft.to/lastmile_qr_scan", "ios": "https://dc.lft.to/lastmile_qr_scan"}, "name": "c1ca50fc4e02639b96f6240dd86b51f3", "type": "electric_scooter"}, {"fusion_lat": 0.0, "bike_id": "e44b92ab283386ef3e97148717f4a07e", "fusion_lon": 0.0, "lon": -77.0214775, "lat": 38.92343783333333, "is_reserved": 0, "is_disabled": 0, "rental_uris": {"android": "https://dc.lft.to/lastmile_qr_scan", "ios": "https://dc.lft.to/lastmile_qr_scan"}, "name": "e44b92ab283386ef3e97148717f4a07e", "type": "electric_scooter"}, {"fusion_lat": 0.0, "bike_id": "15f69fa16ee879e3ab59f4f57b90ff5a", "fusion_lon": 0.0, "lon": -77.027799, "lat": 38.8922015, "is_reserved": 0, "is_disabled": 0, "rental_uris": {"android": "https://dc.lft.to/lastmile_qr_scan", "ios": "https://dc.lft.to/lastmile_qr_scan"}, "name": "15f69fa16ee879e3ab59f4f57b90ff5a", "type": "electric_scooter"}, {"fusion_lat": 0.0, "bike_id": "7128b2fadc72554367639534fcbf0eeb", "fusion_lon": 0.0, "lon": -77.03601516666667, "lat": 38.907562, "is_reserved": 0, "is_disabled": 0, "rental_uris": {"android": "https://dc.lft.to/lastmile_qr_scan", "ios": "https://dc.lft.to/lastmile_qr_scan"}, "name": "7128b2fadc72554367639534fcbf0eeb", "type": "electric_scooter"}, {"fusion_lat": 0.0, "bike_id": "c37b26724b3196b698fdff085038a860", "fusion_lon": 0.0, "lon": -77.0411385, "lat": 38.91554216666667, "is_reserved": 0, "is_disabled": 0, "rental_uris": {"android": "https://dc.lft.to/lastmile_qr_scan", "ios": "https://dc.lft.to/lastmile_qr_scan"}, "name": "c37b26724b3196b698fdff085038a860", "type": "electric_scooter"}, {"fusion_lat": 0.0, "bike_id": "fc92b60e89e1a2a9eeaf695f1d2ebc19", "fusion_lon": 0.0, "lon": -77.01854816666666, "lat": 38.9149325, "is_reserved": 0, "is_disabled": 0, "rental_uris": {"android": "https://dc.lft.to/lastmile_qr_scan", "ios": "https://dc.lft.to/lastmile_qr_scan"}, "name": "fc92b60e89e1a2a9eeaf695f1d2ebc19", "type": "electric_scooter"}, {"fusion_lat": 0.0, "bike_id": "40fcaac1fd0623f133cd0cbd1d53a13c", "fusion_lon": 0.0, "lon": -77.03532683333333, "lat": 38.90838133333333, "is_reserved": 0, "is_disabled": 0, "rental_uris": {"android": "https://dc.lft.to/lastmile_qr_scan", "ios": "https://dc.lft.to/lastmile_qr_scan"}, "name": "40fcaac1fd0623f133cd0cbd1d53a13c", "type": "electric_scooter"}, {"fusion_lat": 0.0, "bike_id": "74ce8b731c904a055c7eecb7e6c59b15", "fusion_lon": 0.0, "lon": -77.04867466666667, "lat": 38.913303166666665, "is_reserved": 0, "is_disabled": 0, "rental_uris": {"android": "https://dc.lft.to/lastmile_qr_scan", "ios": "https://dc.lft.to/lastmile_qr_scan"}, "name": "74ce8b731c904a055c7eecb7e6c59b15", "type": "electric_scooter"}, {"fusion_lat": 0.0, "bike_id": "7842fea70bf060cb446c448a1d77e6e3", "fusion_lon": 0.0, "lon": -77.0424955, "lat": 38.90015416666667, "is_reserved": 0, "is_disabled": 0, "rental_uris": {"android": "https://dc.lft.to/lastmile_qr_scan", "ios": "https://dc.lft.to/lastmile_qr_scan"}, "name": "7842fea70bf060cb446c448a1d77e6e3", "type": "electric_scooter"}, {"fusion_lat": 0.0, "bike_id": "f1ddd8e9f8bca768e5ad247a0b206d55", "fusion_lon": 0.0, "lon": -77.01069633333333, "lat": 38.89624333333333, "is_reserved": 0, "is_disabled": 0, "rental_uris": {"android": "https://dc.lft.to/lastmile_qr_scan", "ios": "https://dc.lft.to/lastmile_qr_scan"}, "name": "f1ddd8e9f8bca768e5ad247a0b206d55", "type": "electric_scooter"}, {"fusion_lat": 0.0, "bike_id": "02c2c4e6b3df51dda42353c6548d4806", "fusion_lon": 0.0, "lon": -77.03176533333334, "lat": 38.924892, "is_reserved": 0, "is_disabled": 0, "rental_uris": {"android": "https://dc.lft.to/lastmile_qr_scan", "ios": "https://dc.lft.to/lastmile_qr_scan"}, "name": "02c2c4e6b3df51dda42353c6548d4806", "type": "electric_scooter"}, {"fusion_lat": 0.0, "bike_id": "e64124f0ac14d43acae33e477077a1fc", "fusion_lon": 0.0, "lon": -77.04864516666666, "lat": 38.90720866666667, "is_reserved": 0, "is_disabled": 0, "rental_uris": {"android": "https://dc.lft.to/lastmile_qr_scan", "ios": "https://dc.lft.to/lastmile_qr_scan"}, "name": "e64124f0ac14d43acae33e477077a1fc", "type": "electric_scooter"}, {"fusion_lat": 0.0, "bike_id": "c39c4b10c306d16d2ee7162e27208005", "fusion_lon": 0.0, "lon": -77.01737333333334, "lat": 38.887484666666666, "is_reserved": 0, "is_disabled": 0, "rental_uris": {"android": "https://dc.lft.to/lastmile_qr_scan", "ios": "https://dc.lft.to/lastmile_qr_scan"}, "name": "c39c4b10c306d16d2ee7162e27208005", "type": "electric_scooter"}, {"fusion_lat": 0.0, "bike_id": "cc8d7a596796a1093d0ccbceed080fb8", "fusion_lon": 0.0, "lon": -77.0327625, "lat": 38.89893083333333, "is_reserved": 0, "is_disabled": 0, "rental_uris": {"android": "https://dc.lft.to/lastmile_qr_scan", "ios": "https://dc.lft.to/lastmile_qr_scan"}, "name": "cc8d7a596796a1093d0ccbceed080fb8", "type": "electric_scooter"}, {"fusion_lat": 0.0, "bike_id": "3b9aee6e6295f6441bed6aced67d9e5a", "fusion_lon": 0.0, "lon": -76.98796933333334, "lat": 38.89242983333333, "is_reserved": 0, "is_disabled": 0, "rental_uris": {"android": "https://dc.lft.to/lastmile_qr_scan", "ios": "https://dc.lft.to/lastmile_qr_scan"}, "name": "3b9aee6e6295f6441bed6aced67d9e5a", "type": "electric_scooter"}, {"fusion_lat": 0.0, "bike_id": "0e517fb6a32fe45979b6c9939ab0566f", "fusion_lon": 0.0, "lon": -77.02426533333333, "lat": 38.90566916666667, "is_reserved": 0, "is_disabled": 0, "rental_uris": {"android": "https://dc.lft.to/lastmile_qr_scan", "ios": "https://dc.lft.to/lastmile_qr_scan"}, "name": "0e517fb6a32fe45979b6c9939ab0566f", "type": "electric_scooter"}, {"fusion_lat": 0.0, "bike_id": "a8c8981d2e6823d1a2d1e4c605c662a3", "fusion_lon": 0.0, "lon": -77.03175683333333, "lat": 38.896286333333336, "is_reserved": 0, "is_disabled": 0, "rental_uris": {"android": "https://dc.lft.to/lastmile_qr_scan", "ios": "https://dc.lft.to/lastmile_qr_scan"}, "name": "a8c8981d2e6823d1a2d1e4c605c662a3", "type": "electric_scooter"}, {"fusion_lat": 0.0, "bike_id": "b5a695ab4506c2939b2931fa07af78ab", "fusion_lon": 0.0, "lon": -77.00645633333333, "lat": 38.87165733333333, "is_reserved": 0, "is_disabled": 0, "rental_uris": {"android": "https://dc.lft.to/lastmile_qr_scan", "ios": "https://dc.lft.to/lastmile_qr_scan"}, "name": "b5a695ab4506c2939b2931fa07af78ab", "type": "electric_scooter"}, {"fusion_lat": 0.0, "bike_id": "0e948b32d2571707850bad60774822f6", "fusion_lon": 0.0, "lon": -77.0222605, "lat": 38.92236333333334, "is_reserved": 0, "is_disabled": 0, "rental_uris": {"android": "https://dc.lft.to/lastmile_qr_scan", "ios": "https://dc.lft.to/lastmile_qr_scan"}, "name": "0e948b32d2571707850bad60774822f6", "type": "electric_scooter"}, {"fusion_lat": 0.0, "bike_id": "17328a6c0270d6c67cc9ce12ad55f920", "fusion_lon": 0.0, "lon": -77.03189166666667, "lat": 38.9305535, "is_reserved": 0, "is_disabled": 0, "rental_uris": {"android": "https://dc.lft.to/lastmile_qr_scan", "ios": "https://dc.lft.to/lastmile_qr_scan"}, "name": "17328a6c0270d6c67cc9ce12ad55f920", "type": "electric_scooter"}, {"fusion_lat": 0.0, "bike_id": "0e6e6ff9b84cafa2b5bdba8f581bbeb3", "fusion_lon": 0.0, "lon": -77.06887883333333, "lat": 38.903937, "is_reserved": 0, "is_disabled": 0, "rental_uris": {"android": "https://dc.lft.to/lastmile_qr_scan", "ios": "https://dc.lft.to/lastmile_qr_scan"}, "name": "0e6e6ff9b84cafa2b5bdba8f581bbeb3", "type": "electric_bike"}, {"fusion_lat": 0.0, "bike_id": "c89a6f02ae8aa17423b659aaa52b46f3", "fusion_lon": 0.0, "lon": -77.001218, "lat": 38.874439833333334, "is_reserved": 0, "is_disabled": 0, "rental_uris": {"android": "https://dc.lft.to/lastmile_qr_scan", "ios": "https://dc.lft.to/lastmile_qr_scan"}, "name": "c89a6f02ae8aa17423b659aaa52b46f3", "type": "electric_scooter"}, {"fusion_lat": 0.0, "bike_id": "4b85e828ad8a432c4b09059f285f1589", "fusion_lon": 0.0, "lon": -77.04075516666667, "lat": 38.909604333333334, "is_reserved": 0, "is_disabled": 0, "rental_uris": {"android": "https://dc.lft.to/lastmile_qr_scan", "ios": "https://dc.lft.to/lastmile_qr_scan"}, "name": "4b85e828ad8a432c4b09059f285f1589", "type": "electric_scooter"}, {"fusion_lat": 0.0, "bike_id": "a6542169180d11350ac7853f4cb5b151", "fusion_lon": 0.0, "lon": -77.03049183333333, "lat": 38.884243833333336, "is_reserved": 0, "is_disabled": 0, "rental_uris": {"android": "https://dc.lft.to/lastmile_qr_scan", "ios": "https://dc.lft.to/lastmile_qr_scan"}, "name": "a6542169180d11350ac7853f4cb5b151", "type": "electric_scooter"}, {"fusion_lat": 0.0, "bike_id": "bcc811361d4d5645776d362b7758377c", "fusion_lon": 0.0, "lon": -77.03953966666667, "lat": 38.90247883333333, "is_reserved": 0, "is_disabled": 0, "rental_uris": {"android": "https://dc.lft.to/lastmile_qr_scan", "ios": "https://dc.lft.to/lastmile_qr_scan"}, "name": "bcc811361d4d5645776d362b7758377c", "type": "electric_scooter"}, {"fusion_lat": 0.0, "bike_id": "b3d25d1df62e3d7255b5471568e7b54e", "fusion_lon": 0.0, "lon": -77.03350116666667, "lat": 38.92447666666666, "is_reserved": 0, "is_disabled": 0, "rental_uris": {"android": "https://dc.lft.to/lastmile_qr_scan", "ios": "https://dc.lft.to/lastmile_qr_scan"}, "name": "b3d25d1df62e3d7255b5471568e7b54e", "type": "electric_scooter"}, {"fusion_lat": 0.0, "bike_id": "b93172883318b0d644cb9d51fa546857", "fusion_lon": 0.0, "lon": -76.95753633333334, "lat": 38.884275833333334, "is_reserved": 0, "is_disabled": 0, "rental_uris": {"android": "https://dc.lft.to/lastmile_qr_scan", "ios": "https://dc.lft.to/lastmile_qr_scan"}, "name": "b93172883318b0d644cb9d51fa546857", "type": "electric_scooter"}, {"fusion_lat": 0.0, "bike_id": "e5e45b0057d510a150c1a2a47280f81e", "fusion_lon": 0.0, "lon": -77.031652, "lat": 38.90286416666667, "is_reserved": 0, "is_disabled": 0, "rental_uris": {"android": "https://dc.lft.to/lastmile_qr_scan", "ios": "https://dc.lft.to/lastmile_qr_scan"}, "name": "e5e45b0057d510a150c1a2a47280f81e", "type": "electric_scooter"}, {"fusion_lat": 0.0, "bike_id": "6cd1482ad92fb1a2b90d922f146f620b", "fusion_lon": 0.0, "lon": -77.034606, "lat": 38.908790833333335, "is_reserved": 0, "is_disabled": 0, "rental_uris": {"android": "https://dc.lft.to/lastmile_qr_scan", "ios": "https://dc.lft.to/lastmile_qr_scan"}, "name": "6cd1482ad92fb1a2b90d922f146f620b", "type": "electric_scooter"}, {"fusion_lat": 0.0, "bike_id": "91406d18c6834ba547a229a5bb10b0c4", "fusion_lon": 0.0, "lon": -76.98924533333333, "lat": 38.901866166666665, "is_reserved": 0, "is_disabled": 0, "rental_uris": {"android": "https://dc.lft.to/lastmile_qr_scan", "ios": "https://dc.lft.to/lastmile_qr_scan"}, "name": "91406d18c6834ba547a229a5bb10b0c4", "type": "electric_scooter"}, {"fusion_lat": 0.0, "bike_id": "3d964e63b972e3c79da55d0601ae69f8", "fusion_lon": 0.0, "lon": -77.04411983333334, "lat": 38.90912933333333, "is_reserved": 0, "is_disabled": 0, "rental_uris": {"android": "https://dc.lft.to/lastmile_qr_scan", "ios": "https://dc.lft.to/lastmile_qr_scan"}, "name": "3d964e63b972e3c79da55d0601ae69f8", "type": "electric_scooter"}, {"fusion_lat": 0.0, "bike_id": "fae3997a0e8e8cc6a975921b6f9f21dd", "fusion_lon": 0.0, "lon": -77.0320145, "lat": 38.91248816666667, "is_reserved": 0, "is_disabled": 0, "rental_uris": {"android": "https://dc.lft.to/lastmile_qr_scan", "ios": "https://dc.lft.to/lastmile_qr_scan"}, "name": "fae3997a0e8e8cc6a975921b6f9f21dd", "type": "electric_scooter"}, {"fusion_lat": 0.0, "bike_id": "1824a82bb9d30a365da241c938fedbd0", "fusion_lon": 0.0, "lon": -76.9936985, "lat": 38.86148266666667, "is_reserved": 0, "is_disabled": 0, "rental_uris": {"android": "https://dc.lft.to/lastmile_qr_scan", "ios": "https://dc.lft.to/lastmile_qr_scan"}, "name": "1824a82bb9d30a365da241c938fedbd0", "type": "electric_scooter"}, {"fusion_lat": 0.0, "bike_id": "ab2fef9c7ae3dca832e1f6351dae215f", "fusion_lon": 0.0, "lon": -77.0578235, "lat": 38.905156166666664, "is_reserved": 0, "is_disabled": 0, "rental_uris": {"android": "https://dc.lft.to/lastmile_qr_scan", "ios": "https://dc.lft.to/lastmile_qr_scan"}, "name": "ab2fef9c7ae3dca832e1f6351dae215f", "type": "electric_scooter"}, {"fusion_lat": 0.0, "bike_id": "36a19f7e1965642b5ce9e7fe7e75951b", "fusion_lon": 0.0, "lon": -76.9356825, "lat": 38.89023816666667, "is_reserved": 0, "is_disabled": 0, "rental_uris": {"android": "https://dc.lft.to/lastmile_qr_scan", "ios": "https://dc.lft.to/lastmile_qr_scan"}, "name": "36a19f7e1965642b5ce9e7fe7e75951b", "type": "electric_scooter"}, {"fusion_lat": 0.0, "bike_id": "945cb17ccc58c2d9d70ab6502fa1d81f", "fusion_lon": 0.0, "lon": -77.03798816666666, "lat": 38.90662533333333, "is_reserved": 0, "is_disabled": 0, "rental_uris": {"android": "https://dc.lft.to/lastmile_qr_scan", "ios": "https://dc.lft.to/lastmile_qr_scan"}, "name": "945cb17ccc58c2d9d70ab6502fa1d81f", "type": "electric_scooter"}, {"fusion_lat": 0.0, "bike_id": "0374ceb3e239a8f7130eb08a8acd189a", "fusion_lon": 0.0, "lon": -77.037437, "lat": 38.91808066666667, "is_reserved": 0, "is_disabled": 0, "rental_uris": {"android": "https://dc.lft.to/lastmile_qr_scan", "ios": "https://dc.lft.to/lastmile_qr_scan"}, "name": "0374ceb3e239a8f7130eb08a8acd189a", "type": "electric_scooter"}, {"fusion_lat": 0.0, "bike_id": "37900e1ebab32a71d7f4099047e31107", "fusion_lon": 0.0, "lon": -77.01736966666667, "lat": 38.8874655, "is_reserved": 0, "is_disabled": 0, "rental_uris": {"android": "https://dc.lft.to/lastmile_qr_scan", "ios": "https://dc.lft.to/lastmile_qr_scan"}, "name": "37900e1ebab32a71d7f4099047e31107", "type": "electric_scooter"}, {"fusion_lat": 0.0, "bike_id": "928a40013a05bf9bc03c554b4fbcce57", "fusion_lon": 0.0, "lon": -76.9885225, "lat": 38.86733816666667, "is_reserved": 0, "is_disabled": 0, "rental_uris": {"android": "https://dc.lft.to/lastmile_qr_scan", "ios": "https://dc.lft.to/lastmile_qr_scan"}, "name": "928a40013a05bf9bc03c554b4fbcce57", "type": "electric_scooter"}, {"fusion_lat": 0.0, "bike_id": "f80e7f6672c16c1903da182bcfab37c9", "fusion_lon": 0.0, "lon": -77.04076983333333, "lat": 38.9054625, "is_reserved": 0, "is_disabled": 0, "rental_uris": {"android": "https://dc.lft.to/lastmile_qr_scan", "ios": "https://dc.lft.to/lastmile_qr_scan"}, "name": "f80e7f6672c16c1903da182bcfab37c9", "type": "electric_scooter"}, {"fusion_lat": 0.0, "bike_id": "dacd82e2f52498a58f807a33e0ee259e", "fusion_lon": 0.0, "lon": -77.033057, "lat": 38.898128166666666, "is_reserved": 0, "is_disabled": 0, "rental_uris": {"android": "https://dc.lft.to/lastmile_qr_scan", "ios": "https://dc.lft.to/lastmile_qr_scan"}, "name": "dacd82e2f52498a58f807a33e0ee259e", "type": "electric_scooter"}, {"fusion_lat": 0.0, "bike_id": "bfd8d03731ad830ee3446ce265d100db", "fusion_lon": 0.0, "lon": -76.99366616666667, "lat": 38.879743833333336, "is_reserved": 0, "is_disabled": 0, "rental_uris": {"android": "https://dc.lft.to/lastmile_qr_scan", "ios": "https://dc.lft.to/lastmile_qr_scan"}, "name": "bfd8d03731ad830ee3446ce265d100db", "type": "electric_scooter"}, {"fusion_lat": 0.0, "bike_id": "063123c9fe68b0b6491ddd4b1c9a507e", "fusion_lon": 0.0, "lon": -77.02209183333333, "lat": 38.8789775, "is_reserved": 0, "is_disabled": 0, "rental_uris": {"android": "https://dc.lft.to/lastmile_qr_scan", "ios": "https://dc.lft.to/lastmile_qr_scan"}, "name": "063123c9fe68b0b6491ddd4b1c9a507e", "type": "electric_scooter"}, {"fusion_lat": 0.0, "bike_id": "5da5b30ec08f98c5b0cbc3c6d0c332eb", "fusion_lon": 0.0, "lon": -76.9900165, "lat": 38.86508883333333, "is_reserved": 0, "is_disabled": 0, "rental_uris": {"android": "https://dc.lft.to/lastmile_qr_scan", "ios": "https://dc.lft.to/lastmile_qr_scan"}, "name": "5da5b30ec08f98c5b0cbc3c6d0c332eb", "type": "electric_scooter"}, {"fusion_lat": 0.0, "bike_id": "34eaef4e7bc88b98604b29ee62495dfb", "fusion_lon": 0.0, "lon": -77.03354066666667, "lat": 38.89738033333333, "is_reserved": 0, "is_disabled": 0, "rental_uris": {"android": "https://dc.lft.to/lastmile_qr_scan", "ios": "https://dc.lft.to/lastmile_qr_scan"}, "name": "34eaef4e7bc88b98604b29ee62495dfb", "type": "electric_scooter"}, {"fusion_lat": 0.0, "bike_id": "7636f56e14427c20632cdc4397319a35", "fusion_lon": 0.0, "lon": -77.027351, "lat": 38.8971025, "is_reserved": 0, "is_disabled": 0, "rental_uris": {"android": "https://dc.lft.to/lastmile_qr_scan", "ios": "https://dc.lft.to/lastmile_qr_scan"}, "name": "7636f56e14427c20632cdc4397319a35", "type": "electric_scooter"}, {"fusion_lat": 0.0, "bike_id": "f3dcb03c8536b753e1342aa61757b0e2", "fusion_lon": 0.0, "lon": -77.03219483333334, "lat": 38.892235, "is_reserved": 0, "is_disabled": 0, "rental_uris": {"android": "https://dc.lft.to/lastmile_qr_scan", "ios": "https://dc.lft.to/lastmile_qr_scan"}, "name": "f3dcb03c8536b753e1342aa61757b0e2", "type": "electric_scooter"}, {"fusion_lat": 0.0, "bike_id": "ee51bfb75c9e1f02b0008715d04e86a7", "fusion_lon": 0.0, "lon": -77.03186183333334, "lat": 38.917465, "is_reserved": 0, "is_disabled": 0, "rental_uris": {"android": "https://dc.lft.to/lastmile_qr_scan", "ios": "https://dc.lft.to/lastmile_qr_scan"}, "name": "ee51bfb75c9e1f02b0008715d04e86a7", "type": "electric_scooter"}, {"fusion_lat": 0.0, "bike_id": "25c06772e81a7e333a6e6998bc647625", "fusion_lon": 0.0, "lon": -77.03686733333333, "lat": 38.918101, "is_reserved": 0, "is_disabled": 0, "rental_uris": {"android": "https://dc.lft.to/lastmile_qr_scan", "ios": "https://dc.lft.to/lastmile_qr_scan"}, "name": "25c06772e81a7e333a6e6998bc647625", "type": "electric_scooter"}, {"fusion_lat": 0.0, "bike_id": "2001ae8caafdae6fbb379d430a0b796a", "fusion_lon": 0.0, "lon": -76.99779883333333, "lat": 38.844253333333334, "is_reserved": 0, "is_disabled": 0, "rental_uris": {"android": "https://dc.lft.to/lastmile_qr_scan", "ios": "https://dc.lft.to/lastmile_qr_scan"}, "name": "2001ae8caafdae6fbb379d430a0b796a", "type": "electric_scooter"}, {"fusion_lat": 0.0, "bike_id": "24cecc9db37fef118c7f138f38f1bc40", "fusion_lon": 0.0, "lon": -76.995055, "lat": 38.933759, "is_reserved": 0, "is_disabled": 0, "rental_uris": {"android": "https://dc.lft.to/lastmile_qr_scan", "ios": "https://dc.lft.to/lastmile_qr_scan"}, "name": "24cecc9db37fef118c7f138f38f1bc40", "type": "electric_scooter"}, {"fusion_lat": 0.0, "bike_id": "f6c01107fd0f8ea928e7b79d5d1f2f57", "fusion_lon": 0.0, "lon": -77.06928816666667, "lat": 38.9555885, "is_reserved": 0, "is_disabled": 0, "rental_uris": {"android": "https://dc.lft.to/lastmile_qr_scan", "ios": "https://dc.lft.to/lastmile_qr_scan"}, "name": "f6c01107fd0f8ea928e7b79d5d1f2f57", "type": "electric_bike"}, {"fusion_lat": 0.0, "bike_id": "04936d9850e3d5533ff86c6c2910009e", "fusion_lon": 0.0, "lon": -77.06052466666667, "lat": 38.805732666666664, "is_reserved": 0, "is_disabled": 0, "rental_uris": {"android": "https://dc.lft.to/lastmile_qr_scan", "ios": "https://dc.lft.to/lastmile_qr_scan"}, "name": "04936d9850e3d5533ff86c6c2910009e", "type": "electric_bike"}, {"fusion_lat": 0.0, "bike_id": "c854ee2c0ccf00cb7d0794c49dcb7408", "fusion_lon": 0.0, "lon": -76.976186, "lat": 38.92651266666667, "is_reserved": 0, "is_disabled": 0, "rental_uris": {"android": "https://dc.lft.to/lastmile_qr_scan", "ios": "https://dc.lft.to/lastmile_qr_scan"}, "name": "c854ee2c0ccf00cb7d0794c49dcb7408", "type": "electric_scooter"}, {"fusion_lat": 0.0, "bike_id": "2fba2cab2e5103bd705a8c0a29ccbffd", "fusion_lon": 0.0, "lon": -77.01823366666666, "lat": 38.9226965, "is_reserved": 0, "is_disabled": 0, "rental_uris": {"android": "https://dc.lft.to/lastmile_qr_scan", "ios": "https://dc.lft.to/lastmile_qr_scan"}, "name": "2fba2cab2e5103bd705a8c0a29ccbffd", "type": "electric_scooter"}, {"fusion_lat": 0.0, "bike_id": "3eb9bdd76e02417824063e2e58fd607e", "fusion_lon": 0.0, "lon": -76.977387, "lat": 38.865095833333335, "is_reserved": 0, "is_disabled": 0, "rental_uris": {"android": "https://dc.lft.to/lastmile_qr_scan", "ios": "https://dc.lft.to/lastmile_qr_scan"}, "name": "3eb9bdd76e02417824063e2e58fd607e", "type": "electric_bike"}, {"fusion_lat": 0.0, "bike_id": "26767efff635f4e48598caf5f9bb2f9a", "fusion_lon": 0.0, "lon": -77.0880665, "lat": 38.91175583333333, "is_reserved": 0, "is_disabled": 0, "rental_uris": {"android": "https://dc.lft.to/lastmile_qr_scan", "ios": "https://dc.lft.to/lastmile_qr_scan"}, "name": "26767efff635f4e48598caf5f9bb2f9a", "type": "electric_bike"}, {"fusion_lat": 0.0, "bike_id": "5b5c710854a8ae9ca76172b218261442", "fusion_lon": 0.0, "lon": -77.04158633333333, "lat": 38.91487766666667, "is_reserved": 0, "is_disabled": 0, "rental_uris": {"android": "https://dc.lft.to/lastmile_qr_scan", "ios": "https://dc.lft.to/lastmile_qr_scan"}, "name": "5b5c710854a8ae9ca76172b218261442", "type": "electric_scooter"}, {"fusion_lat": 0.0, "bike_id": "04e96e1f1117a3d817900c1a4dd34fad", "fusion_lon": 0.0, "lon": -76.9523185, "lat": 38.891014166666665, "is_reserved": 0, "is_disabled": 0, "rental_uris": {"android": "https://dc.lft.to/lastmile_qr_scan", "ios": "https://dc.lft.to/lastmile_qr_scan"}, "name": "04e96e1f1117a3d817900c1a4dd34fad", "type": "electric_scooter"}, {"fusion_lat": 0.0, "bike_id": "55a1b51b8e9dadf316f5859f0ffabcf8", "fusion_lon": 0.0, "lon": -77.00524116666666, "lat": 38.88052883333334, "is_reserved": 0, "is_disabled": 0, "rental_uris": {"android": "https://dc.lft.to/lastmile_qr_scan", "ios": "https://dc.lft.to/lastmile_qr_scan"}, "name": "55a1b51b8e9dadf316f5859f0ffabcf8", "type": "electric_scooter"}, {"fusion_lat": 0.0, "bike_id": "c5b95dd07befdec97f702e1ab3fb6fdd", "fusion_lon": 0.0, "lon": -77.039195, "lat": 38.9280375, "is_reserved": 0, "is_disabled": 0, "rental_uris": {"android": "https://dc.lft.to/lastmile_qr_scan", "ios": "https://dc.lft.to/lastmile_qr_scan"}, "name": "c5b95dd07befdec97f702e1ab3fb6fdd", "type": "electric_scooter"}, {"fusion_lat": 0.0, "bike_id": "517ca7fd088865eb1d9188e3df47eed9", "fusion_lon": 0.0, "lon": -76.99241616666667, "lat": 38.894862833333335, "is_reserved": 0, "is_disabled": 0, "rental_uris": {"android": "https://dc.lft.to/lastmile_qr_scan", "ios": "https://dc.lft.to/lastmile_qr_scan"}, "name": "517ca7fd088865eb1d9188e3df47eed9", "type": "electric_scooter"}, {"fusion_lat": 0.0, "bike_id": "ef85564c7c3b63065ac0e8c16838b40a", "fusion_lon": 0.0, "lon": -77.04101333333334, "lat": 38.9104325, "is_reserved": 0, "is_disabled": 0, "rental_uris": {"android": "https://dc.lft.to/lastmile_qr_scan", "ios": "https://dc.lft.to/lastmile_qr_scan"}, "name": "ef85564c7c3b63065ac0e8c16838b40a", "type": "electric_scooter"}, {"fusion_lat": 0.0, "bike_id": "866783a9e449effa77b5d5bd2b754bf8", "fusion_lon": 0.0, "lon": -76.982381, "lat": 38.8886555, "is_reserved": 0, "is_disabled": 0, "rental_uris": {"android": "https://dc.lft.to/lastmile_qr_scan", "ios": "https://dc.lft.to/lastmile_qr_scan"}, "name": "866783a9e449effa77b5d5bd2b754bf8", "type": "electric_scooter"}, {"fusion_lat": 0.0, "bike_id": "a7946374dabb8ac515352e6557e1067a", "fusion_lon": 0.0, "lon": -77.0415635, "lat": 38.912488833333335, "is_reserved": 0, "is_disabled": 0, "rental_uris": {"android": "https://dc.lft.to/lastmile_qr_scan", "ios": "https://dc.lft.to/lastmile_qr_scan"}, "name": "a7946374dabb8ac515352e6557e1067a", "type": "electric_scooter"}, {"fusion_lat": 0.0, "bike_id": "6aae3c4bc554dd62fcf0b7f59d4de37d", "fusion_lon": 0.0, "lon": -77.0480185, "lat": 38.91408933333334, "is_reserved": 0, "is_disabled": 0, "rental_uris": {"android": "https://dc.lft.to/lastmile_qr_scan", "ios": "https://dc.lft.to/lastmile_qr_scan"}, "name": "6aae3c4bc554dd62fcf0b7f59d4de37d", "type": "electric_scooter"}, {"fusion_lat": 0.0, "bike_id": "9e2168666f3b777e3264dccb7d6f3bd8", "fusion_lon": 0.0, "lon": -77.05047333333333, "lat": 38.92383866666667, "is_reserved": 0, "is_disabled": 0, "rental_uris": {"android": "https://dc.lft.to/lastmile_qr_scan", "ios": "https://dc.lft.to/lastmile_qr_scan"}, "name": "9e2168666f3b777e3264dccb7d6f3bd8", "type": "electric_scooter"}, {"fusion_lat": 0.0, "bike_id": "d4d2f5e87ec756a517c4929e51c77c00", "fusion_lon": 0.0, "lon": -77.05524533333333, "lat": 38.926649, "is_reserved": 0, "is_disabled": 0, "rental_uris": {"android": "https://dc.lft.to/lastmile_qr_scan", "ios": "https://dc.lft.to/lastmile_qr_scan"}, "name": "d4d2f5e87ec756a517c4929e51c77c00", "type": "electric_scooter"}, {"fusion_lat": 0.0, "bike_id": "ebc2f478aa33abf05d40bd36afbe9b64", "fusion_lon": 0.0, "lon": -77.04181616666666, "lat": 38.8922675, "is_reserved": 0, "is_disabled": 0, "rental_uris": {"android": "https://dc.lft.to/lastmile_qr_scan", "ios": "https://dc.lft.to/lastmile_qr_scan"}, "name": "ebc2f478aa33abf05d40bd36afbe9b64", "type": "electric_scooter"}, {"fusion_lat": 0.0, "bike_id": "4762b6c63efa7761c859775950fa6449", "fusion_lon": 0.0, "lon": -77.03827233333334, "lat": 38.912653166666665, "is_reserved": 0, "is_disabled": 0, "rental_uris": {"android": "https://dc.lft.to/lastmile_qr_scan", "ios": "https://dc.lft.to/lastmile_qr_scan"}, "name": "4762b6c63efa7761c859775950fa6449", "type": "electric_scooter"}, {"fusion_lat": 0.0, "bike_id": "c36b0a82a57d474a994f3ff183874784", "fusion_lon": 0.0, "lon": -77.0178225, "lat": 38.885990166666666, "is_reserved": 0, "is_disabled": 0, "rental_uris": {"android": "https://dc.lft.to/lastmile_qr_scan", "ios": "https://dc.lft.to/lastmile_qr_scan"}, "name": "c36b0a82a57d474a994f3ff183874784", "type": "electric_scooter"}, {"fusion_lat": 0.0, "bike_id": "3c7a38171068f358d3b9d23c987c4863", "fusion_lon": 0.0, "lon": -76.99928566666667, "lat": 38.84315933333333, "is_reserved": 0, "is_disabled": 0, "rental_uris": {"android": "https://dc.lft.to/lastmile_qr_scan", "ios": "https://dc.lft.to/lastmile_qr_scan"}, "name": "3c7a38171068f358d3b9d23c987c4863", "type": "electric_scooter"}, {"fusion_lat": 0.0, "bike_id": "a687f83669012277adf6bb7945cab406", "fusion_lon": 0.0, "lon": -77.1144755, "lat": 38.882012833333334, "is_reserved": 0, "is_disabled": 0, "rental_uris": {"android": "https://dc.lft.to/lastmile_qr_scan", "ios": "https://dc.lft.to/lastmile_qr_scan"}, "name": "a687f83669012277adf6bb7945cab406", "type": "electric_bike"}, {"fusion_lat": 0.0, "bike_id": "0556dfbdbd0a3eaeb430acdf0fd7755a", "fusion_lon": 0.0, "lon": -77.0486515, "lat": 38.8922395, "is_reserved": 0, "is_disabled": 0, "rental_uris": {"android": "https://dc.lft.to/lastmile_qr_scan", "ios": "https://dc.lft.to/lastmile_qr_scan"}, "name": "0556dfbdbd0a3eaeb430acdf0fd7755a", "type": "electric_scooter"}, {"fusion_lat": 0.0, "bike_id": "0bb133c3935d98d43877cc6a9bf0b847", "fusion_lon": 0.0, "lon": -77.02053633333334, "lat": 38.9575535, "is_reserved": 0, "is_disabled": 0, "rental_uris": {"android": "https://dc.lft.to/lastmile_qr_scan", "ios": "https://dc.lft.to/lastmile_qr_scan"}, "name": "0bb133c3935d98d43877cc6a9bf0b847", "type": "electric_bike"}, {"fusion_lat": 0.0, "bike_id": "768230f0d3846ea9e44f7d4a8ee4ef6b", "fusion_lon": 0.0, "lon": -77.04501983333333, "lat": 38.90371866666667, "is_reserved": 0, "is_disabled": 0, "rental_uris": {"android": "https://dc.lft.to/lastmile_qr_scan", "ios": "https://dc.lft.to/lastmile_qr_scan"}, "name": "768230f0d3846ea9e44f7d4a8ee4ef6b", "type": "electric_scooter"}, {"fusion_lat": 0.0, "bike_id": "504610b3f4ec2f3044150a3f21388862", "fusion_lon": 0.0, "lon": -77.01045766666667, "lat": 38.89743683333333, "is_reserved": 0, "is_disabled": 0, "rental_uris": {"android": "https://dc.lft.to/lastmile_qr_scan", "ios": "https://dc.lft.to/lastmile_qr_scan"}, "name": "504610b3f4ec2f3044150a3f21388862", "type": "electric_scooter"}, {"fusion_lat": 0.0, "bike_id": "4f26ca958a9f391f47ed33c92659fd3f", "fusion_lon": 0.0, "lon": -77.05391783333333, "lat": 38.92761516666667, "is_reserved": 0, "is_disabled": 0, "rental_uris": {"android": "https://dc.lft.to/lastmile_qr_scan", "ios": "https://dc.lft.to/lastmile_qr_scan"}, "name": "4f26ca958a9f391f47ed33c92659fd3f", "type": "electric_scooter"}, {"fusion_lat": 0.0, "bike_id": "d8d83b1da7c5e2b5a5b3f87f94f9e5c3", "fusion_lon": 0.0, "lon": -77.01825233333334, "lat": 38.922683666666664, "is_reserved": 0, "is_disabled": 0, "rental_uris": {"android": "https://dc.lft.to/lastmile_qr_scan", "ios": "https://dc.lft.to/lastmile_qr_scan"}, "name": "d8d83b1da7c5e2b5a5b3f87f94f9e5c3", "type": "electric_scooter"}, {"fusion_lat": 0.0, "bike_id": "724501d05000d58f5fc9556dd33fd297", "fusion_lon": 0.0, "lon": -77.0411765, "lat": 38.90210666666667, "is_reserved": 0, "is_disabled": 0, "rental_uris": {"android": "https://dc.lft.to/lastmile_qr_scan", "ios": "https://dc.lft.to/lastmile_qr_scan"}, "name": "724501d05000d58f5fc9556dd33fd297", "type": "electric_scooter"}, {"fusion_lat": 0.0, "bike_id": "45c46b009bbe03677ed7cd36247a201d", "fusion_lon": 0.0, "lon": -77.0345055, "lat": 38.90452533333333, "is_reserved": 0, "is_disabled": 0, "rental_uris": {"android": "https://dc.lft.to/lastmile_qr_scan", "ios": "https://dc.lft.to/lastmile_qr_scan"}, "name": "45c46b009bbe03677ed7cd36247a201d", "type": "electric_scooter"}, {"fusion_lat": 0.0, "bike_id": "e4afc2ae29426fdbc23b0891638ed642", "fusion_lon": 0.0, "lon": -76.9305565, "lat": 38.898549333333335, "is_reserved": 0, "is_disabled": 0, "rental_uris": {"android": "https://dc.lft.to/lastmile_qr_scan", "ios": "https://dc.lft.to/lastmile_qr_scan"}, "name": "e4afc2ae29426fdbc23b0891638ed642", "type": "electric_scooter"}, {"fusion_lat": 0.0, "bike_id": "44dc05e895d661b7504f5ed7c440506f", "fusion_lon": 0.0, "lon": -77.04520133333334, "lat": 38.902120333333336, "is_reserved": 0, "is_disabled": 0, "rental_uris": {"android": "https://dc.lft.to/lastmile_qr_scan", "ios": "https://dc.lft.to/lastmile_qr_scan"}, "name": "44dc05e895d661b7504f5ed7c440506f", "type": "electric_scooter"}, {"fusion_lat": 0.0, "bike_id": "ad89604a84ed82b053d35a5ea9dc4c72", "fusion_lon": 0.0, "lon": -77.0243635, "lat": 38.9374965, "is_reserved": 0, "is_disabled": 0, "rental_uris": {"android": "https://dc.lft.to/lastmile_qr_scan", "ios": "https://dc.lft.to/lastmile_qr_scan"}, "name": "ad89604a84ed82b053d35a5ea9dc4c72", "type": "electric_scooter"}, {"fusion_lat": 0.0, "bike_id": "1a9556033cb0d6e1c42ba642c57f2a5c", "fusion_lon": 0.0, "lon": -76.9870725, "lat": 38.86703166666667, "is_reserved": 0, "is_disabled": 0, "rental_uris": {"android": "https://dc.lft.to/lastmile_qr_scan", "ios": "https://dc.lft.to/lastmile_qr_scan"}, "name": "1a9556033cb0d6e1c42ba642c57f2a5c", "type": "electric_scooter"}, {"fusion_lat": 0.0, "bike_id": "60608d06a4c4a1b3054a32cffda22161", "fusion_lon": 0.0, "lon": -76.98227383333334, "lat": 38.86893166666667, "is_reserved": 0, "is_disabled": 0, "rental_uris": {"android": "https://dc.lft.to/lastmile_qr_scan", "ios": "https://dc.lft.to/lastmile_qr_scan"}, "name": "60608d06a4c4a1b3054a32cffda22161", "type": "electric_scooter"}, {"fusion_lat": 0.0, "bike_id": "97713ed69b2738f1b6efddde1bd6869b", "fusion_lon": 0.0, "lon": -77.041574, "lat": 38.8958705, "is_reserved": 0, "is_disabled": 0, "rental_uris": {"android": "https://dc.lft.to/lastmile_qr_scan", "ios": "https://dc.lft.to/lastmile_qr_scan"}, "name": "97713ed69b2738f1b6efddde1bd6869b", "type": "electric_bike"}, {"fusion_lat": 0.0, "bike_id": "cded6d9a32947a162f139049be6fcaa8", "fusion_lon": 0.0, "lon": -76.99194416666667, "lat": 38.86290983333333, "is_reserved": 0, "is_disabled": 0, "rental_uris": {"android": "https://dc.lft.to/lastmile_qr_scan", "ios": "https://dc.lft.to/lastmile_qr_scan"}, "name": "cded6d9a32947a162f139049be6fcaa8", "type": "electric_scooter"}, {"fusion_lat": 0.0, "bike_id": "670f7c0d3f0400a237a3bc1451d2f2fe", "fusion_lon": 0.0, "lon": -77.03268783333333, "lat": 38.9199145, "is_reserved": 0, "is_disabled": 0, "rental_uris": {"android": "https://dc.lft.to/lastmile_qr_scan", "ios": "https://dc.lft.to/lastmile_qr_scan"}, "name": "670f7c0d3f0400a237a3bc1451d2f2fe", "type": "electric_scooter"}, {"fusion_lat": 0.0, "bike_id": "5374eea079d87a776bfebd37e9c10e7e", "fusion_lon": 0.0, "lon": -77.00125466666667, "lat": 38.878186166666666, "is_reserved": 0, "is_disabled": 0, "rental_uris": {"android": "https://dc.lft.to/lastmile_qr_scan", "ios": "https://dc.lft.to/lastmile_qr_scan"}, "name": "5374eea079d87a776bfebd37e9c10e7e", "type": "electric_scooter"}, {"fusion_lat": 0.0, "bike_id": "7dee38f3f23c59838593f622dcb815cd", "fusion_lon": 0.0, "lon": -77.044576, "lat": 38.91877683333333, "is_reserved": 0, "is_disabled": 0, "rental_uris": {"android": "https://dc.lft.to/lastmile_qr_scan", "ios": "https://dc.lft.to/lastmile_qr_scan"}, "name": "7dee38f3f23c59838593f622dcb815cd", "type": "electric_scooter"}, {"fusion_lat": 0.0, "bike_id": "30211fec3301fb0b6e12b1f03dc8b967", "fusion_lon": 0.0, "lon": -77.0168285, "lat": 38.877091, "is_reserved": 0, "is_disabled": 0, "rental_uris": {"android": "https://dc.lft.to/lastmile_qr_scan", "ios": "https://dc.lft.to/lastmile_qr_scan"}, "name": "30211fec3301fb0b6e12b1f03dc8b967", "type": "electric_scooter"}, {"fusion_lat": 0.0, "bike_id": "6d007421a5acba8e5c7d1dcdb5ad044b", "fusion_lon": 0.0, "lon": -77.03447016666667, "lat": 38.9073415, "is_reserved": 0, "is_disabled": 0, "rental_uris": {"android": "https://dc.lft.to/lastmile_qr_scan", "ios": "https://dc.lft.to/lastmile_qr_scan"}, "name": "6d007421a5acba8e5c7d1dcdb5ad044b", "type": "electric_scooter"}, {"fusion_lat": 0.0, "bike_id": "aa735b266570d7d8fe84b899f3f3b0f5", "fusion_lon": 0.0, "lon": -76.94622766666667, "lat": 38.83233, "is_reserved": 0, "is_disabled": 0, "rental_uris": {"android": "https://dc.lft.to/lastmile_qr_scan", "ios": "https://dc.lft.to/lastmile_qr_scan"}, "name": "aa735b266570d7d8fe84b899f3f3b0f5", "type": "electric_bike"}, {"fusion_lat": 0.0, "bike_id": "a6d4273a7417999f8d9780f8e07585de", "fusion_lon": 0.0, "lon": -77.02829466666667, "lat": 38.92245966666667, "is_reserved": 0, "is_disabled": 0, "rental_uris": {"android": "https://dc.lft.to/lastmile_qr_scan", "ios": "https://dc.lft.to/lastmile_qr_scan"}, "name": "a6d4273a7417999f8d9780f8e07585de", "type": "electric_scooter"}, {"fusion_lat": 0.0, "bike_id": "3f7b5a6eabfa859453770fc756d4b56e", "fusion_lon": 0.0, "lon": -77.033384, "lat": 38.8922245, "is_reserved": 0, "is_disabled": 0, "rental_uris": {"android": "https://dc.lft.to/lastmile_qr_scan", "ios": "https://dc.lft.to/lastmile_qr_scan"}, "name": "3f7b5a6eabfa859453770fc756d4b56e", "type": "electric_scooter"}, {"fusion_lat": 0.0, "bike_id": "b70423a74faef28588ba45e653bb824f", "fusion_lon": 0.0, "lon": -76.93276533333334, "lat": 38.95423266666667, "is_reserved": 0, "is_disabled": 0, "rental_uris": {"android": "https://dc.lft.to/lastmile_qr_scan", "ios": "https://dc.lft.to/lastmile_qr_scan"}, "name": "b70423a74faef28588ba45e653bb824f", "type": "electric_bike"}, {"fusion_lat": 0.0, "bike_id": "e4132809bef35d801e052e682c9caa24", "fusion_lon": 0.0, "lon": -77.03630516666666, "lat": 38.9155435, "is_reserved": 0, "is_disabled": 0, "rental_uris": {"android": "https://dc.lft.to/lastmile_qr_scan", "ios": "https://dc.lft.to/lastmile_qr_scan"}, "name": "e4132809bef35d801e052e682c9caa24", "type": "electric_scooter"}, {"fusion_lat": 0.0, "bike_id": "51acd5e7243083f8ad8f98eef06b8120", "fusion_lon": 0.0, "lon": -77.0209315, "lat": 38.922423333333334, "is_reserved": 0, "is_disabled": 0, "rental_uris": {"android": "https://dc.lft.to/lastmile_qr_scan", "ios": "https://dc.lft.to/lastmile_qr_scan"}, "name": "51acd5e7243083f8ad8f98eef06b8120", "type": "electric_scooter"}, {"fusion_lat": 0.0, "bike_id": "ade534aae6f579bbd3f30263c2ee8021", "fusion_lon": 0.0, "lon": -77.01998033333334, "lat": 38.898647, "is_reserved": 0, "is_disabled": 0, "rental_uris": {"android": "https://dc.lft.to/lastmile_qr_scan", "ios": "https://dc.lft.to/lastmile_qr_scan"}, "name": "ade534aae6f579bbd3f30263c2ee8021", "type": "electric_scooter"}, {"fusion_lat": 0.0, "bike_id": "488b80d31e192758933c619e782baa61", "fusion_lon": 0.0, "lon": -77.01966216666666, "lat": 38.9026615, "is_reserved": 0, "is_disabled": 0, "rental_uris": {"android": "https://dc.lft.to/lastmile_qr_scan", "ios": "https://dc.lft.to/lastmile_qr_scan"}, "name": "488b80d31e192758933c619e782baa61", "type": "electric_scooter"}, {"fusion_lat": 0.0, "bike_id": "12e2cffabc7bec0cfeb10d7ade834026", "fusion_lon": 0.0, "lon": -77.06190583333333, "lat": 38.94441533333333, "is_reserved": 0, "is_disabled": 0, "rental_uris": {"android": "https://dc.lft.to/lastmile_qr_scan", "ios": "https://dc.lft.to/lastmile_qr_scan"}, "name": "12e2cffabc7bec0cfeb10d7ade834026", "type": "electric_scooter"}, {"fusion_lat": 0.0, "bike_id": "605ecbfa3ae92bbd37b466a6d3842090", "fusion_lon": 0.0, "lon": -77.0610195, "lat": 38.90524666666666, "is_reserved": 0, "is_disabled": 0, "rental_uris": {"android": "https://dc.lft.to/lastmile_qr_scan", "ios": "https://dc.lft.to/lastmile_qr_scan"}, "name": "605ecbfa3ae92bbd37b466a6d3842090", "type": "electric_scooter"}, {"fusion_lat": 0.0, "bike_id": "511e46955f1eecc4eedc1d15ada36ceb", "fusion_lon": 0.0, "lon": -77.04431366666667, "lat": 38.92161733333333, "is_reserved": 0, "is_disabled": 0, "rental_uris": {"android": "https://dc.lft.to/lastmile_qr_scan", "ios": "https://dc.lft.to/lastmile_qr_scan"}, "name": "511e46955f1eecc4eedc1d15ada36ceb", "type": "electric_scooter"}, {"fusion_lat": 0.0, "bike_id": "bb69ee95b4c847a7957a87e3f16fb6d8", "fusion_lon": 0.0, "lon": -77.041482, "lat": 38.906389833333336, "is_reserved": 0, "is_disabled": 0, "rental_uris": {"android": "https://dc.lft.to/lastmile_qr_scan", "ios": "https://dc.lft.to/lastmile_qr_scan"}, "name": "bb69ee95b4c847a7957a87e3f16fb6d8", "type": "electric_scooter"}, {"fusion_lat": 0.0, "bike_id": "482ff6e610d9c60759c55f2e8c1e370f", "fusion_lon": 0.0, "lon": -77.03307616666666, "lat": 38.90968766666667, "is_reserved": 0, "is_disabled": 0, "rental_uris": {"android": "https://dc.lft.to/lastmile_qr_scan", "ios": "https://dc.lft.to/lastmile_qr_scan"}, "name": "482ff6e610d9c60759c55f2e8c1e370f", "type": "electric_scooter"}, {"fusion_lat": 0.0, "bike_id": "4902f48199995a66ef1b444b679735cd", "fusion_lon": 0.0, "lon": -76.97858183333334, "lat": 38.871958666666664, "is_reserved": 0, "is_disabled": 0, "rental_uris": {"android": "https://dc.lft.to/lastmile_qr_scan", "ios": "https://dc.lft.to/lastmile_qr_scan"}, "name": "4902f48199995a66ef1b444b679735cd", "type": "electric_scooter"}, {"fusion_lat": 0.0, "bike_id": "9798266dc6804093522b6ca6d638e295", "fusion_lon": 0.0, "lon": -77.0152955, "lat": 38.8874435, "is_reserved": 0, "is_disabled": 0, "rental_uris": {"android": "https://dc.lft.to/lastmile_qr_scan", "ios": "https://dc.lft.to/lastmile_qr_scan"}, "name": "9798266dc6804093522b6ca6d638e295", "type": "electric_scooter"}, {"fusion_lat": 0.0, "bike_id": "30c2c77998e90dfa6d44e58e2f84bcc1", "fusion_lon": 0.0, "lon": -76.98083483333333, "lat": 38.9070695, "is_reserved": 0, "is_disabled": 0, "rental_uris": {"android": "https://dc.lft.to/lastmile_qr_scan", "ios": "https://dc.lft.to/lastmile_qr_scan"}, "name": "30c2c77998e90dfa6d44e58e2f84bcc1", "type": "electric_scooter"}, {"fusion_lat": 0.0, "bike_id": "34378e2697578b62d71ef1a4329112fe", "fusion_lon": 0.0, "lon": -77.02673316666667, "lat": 38.917001166666665, "is_reserved": 0, "is_disabled": 0, "rental_uris": {"android": "https://dc.lft.to/lastmile_qr_scan", "ios": "https://dc.lft.to/lastmile_qr_scan"}, "name": "34378e2697578b62d71ef1a4329112fe", "type": "electric_scooter"}, {"fusion_lat": 0.0, "bike_id": "42bed36adcd38f03ac805acf1ed65b07", "fusion_lon": 0.0, "lon": -77.04088833333333, "lat": 38.911781166666664, "is_reserved": 0, "is_disabled": 0, "rental_uris": {"android": "https://dc.lft.to/lastmile_qr_scan", "ios": "https://dc.lft.to/lastmile_qr_scan"}, "name": "42bed36adcd38f03ac805acf1ed65b07", "type": "electric_scooter"}, {"fusion_lat": 0.0, "bike_id": "fc596698e27555b10f36f9f9445338ad", "fusion_lon": 0.0, "lon": -77.03842183333333, "lat": 38.91320233333333, "is_reserved": 0, "is_disabled": 0, "rental_uris": {"android": "https://dc.lft.to/lastmile_qr_scan", "ios": "https://dc.lft.to/lastmile_qr_scan"}, "name": "fc596698e27555b10f36f9f9445338ad", "type": "electric_scooter"}, {"fusion_lat": 0.0, "bike_id": "68c8b76cf517b3e1fc2db54dc96bbef0", "fusion_lon": 0.0, "lon": -77.03315866666667, "lat": 38.89841966666667, "is_reserved": 0, "is_disabled": 0, "rental_uris": {"android": "https://dc.lft.to/lastmile_qr_scan", "ios": "https://dc.lft.to/lastmile_qr_scan"}, "name": "68c8b76cf517b3e1fc2db54dc96bbef0", "type": "electric_scooter"}, {"fusion_lat": 0.0, "bike_id": "8260e44830e6a123fa09e2d4fcfb82cb", "fusion_lon": 0.0, "lon": -77.025498, "lat": 38.93087583333333, "is_reserved": 0, "is_disabled": 0, "rental_uris": {"android": "https://dc.lft.to/lastmile_qr_scan", "ios": "https://dc.lft.to/lastmile_qr_scan"}, "name": "8260e44830e6a123fa09e2d4fcfb82cb", "type": "electric_scooter"}, {"fusion_lat": 0.0, "bike_id": "550efb5b15204b0fb5389d7f4286cfd2", "fusion_lon": 0.0, "lon": -76.93729866666666, "lat": 38.89013333333333, "is_reserved": 0, "is_disabled": 0, "rental_uris": {"android": "https://dc.lft.to/lastmile_qr_scan", "ios": "https://dc.lft.to/lastmile_qr_scan"}, "name": "550efb5b15204b0fb5389d7f4286cfd2", "type": "electric_scooter"}, {"fusion_lat": 0.0, "bike_id": "fea2858beb6862a358405f6d90558fd4", "fusion_lon": 0.0, "lon": -77.04647233333333, "lat": 38.89829066666667, "is_reserved": 0, "is_disabled": 0, "rental_uris": {"android": "https://dc.lft.to/lastmile_qr_scan", "ios": "https://dc.lft.to/lastmile_qr_scan"}, "name": "fea2858beb6862a358405f6d90558fd4", "type": "electric_scooter"}, {"fusion_lat": 0.0, "bike_id": "00d519f998468678ad301767b2d36107", "fusion_lon": 0.0, "lon": -76.99000666666667, "lat": 38.865057, "is_reserved": 0, "is_disabled": 0, "rental_uris": {"android": "https://dc.lft.to/lastmile_qr_scan", "ios": "https://dc.lft.to/lastmile_qr_scan"}, "name": "00d519f998468678ad301767b2d36107", "type": "electric_scooter"}, {"fusion_lat": 0.0, "bike_id": "53cba897ced68e5bac58e52026d2f4d0", "fusion_lon": 0.0, "lon": -76.98896433333333, "lat": 38.866669333333334, "is_reserved": 0, "is_disabled": 0, "rental_uris": {"android": "https://dc.lft.to/lastmile_qr_scan", "ios": "https://dc.lft.to/lastmile_qr_scan"}, "name": "53cba897ced68e5bac58e52026d2f4d0", "type": "electric_scooter"}, {"fusion_lat": 0.0, "bike_id": "d3896b3a5bb169115c3c7e9c380ab8f8", "fusion_lon": 0.0, "lon": -77.02689133333334, "lat": 38.8954825, "is_reserved": 0, "is_disabled": 0, "rental_uris": {"android": "https://dc.lft.to/lastmile_qr_scan", "ios": "https://dc.lft.to/lastmile_qr_scan"}, "name": "d3896b3a5bb169115c3c7e9c380ab8f8", "type": "electric_scooter"}, {"fusion_lat": 0.0, "bike_id": "6ea193b91a55579665a8de49a4b349e2", "fusion_lon": 0.0, "lon": -77.10836783333333, "lat": 38.81200883333333, "is_reserved": 0, "is_disabled": 0, "rental_uris": {"android": "https://dc.lft.to/lastmile_qr_scan", "ios": "https://dc.lft.to/lastmile_qr_scan"}, "name": "6ea193b91a55579665a8de49a4b349e2", "type": "electric_bike"}, {"fusion_lat": 0.0, "bike_id": "f6e87d0cda3a496a2fe42df8761a37bd", "fusion_lon": 0.0, "lon": -77.049064, "lat": 38.89733483333333, "is_reserved": 0, "is_disabled": 0, "rental_uris": {"android": "https://dc.lft.to/lastmile_qr_scan", "ios": "https://dc.lft.to/lastmile_qr_scan"}, "name": "f6e87d0cda3a496a2fe42df8761a37bd", "type": "electric_scooter"}, {"fusion_lat": 0.0, "bike_id": "57b71ff85b970e579ea0d23e5830eac8", "fusion_lon": 0.0, "lon": -77.0676605, "lat": 38.903585166666666, "is_reserved": 0, "is_disabled": 0, "rental_uris": {"android": "https://dc.lft.to/lastmile_qr_scan", "ios": "https://dc.lft.to/lastmile_qr_scan"}, "name": "57b71ff85b970e579ea0d23e5830eac8", "type": "electric_scooter"}, {"fusion_lat": 0.0, "bike_id": "903913ad47f882a1353bdc270a5f20da", "fusion_lon": 0.0, "lon": -76.96908516666667, "lat": 38.8461375, "is_reserved": 0, "is_disabled": 0, "rental_uris": {"android": "https://dc.lft.to/lastmile_qr_scan", "ios": "https://dc.lft.to/lastmile_qr_scan"}, "name": "903913ad47f882a1353bdc270a5f20da", "type": "electric_bike"}, {"fusion_lat": 0.0, "bike_id": "12cf1a6708b09ce9be2800b7b9d961c2", "fusion_lon": 0.0, "lon": -77.023193, "lat": 38.927654833333335, "is_reserved": 0, "is_disabled": 0, "rental_uris": {"android": "https://dc.lft.to/lastmile_qr_scan", "ios": "https://dc.lft.to/lastmile_qr_scan"}, "name": "12cf1a6708b09ce9be2800b7b9d961c2", "type": "electric_scooter"}, {"fusion_lat": 0.0, "bike_id": "d191feb766c3b9c8b813975cd830b099", "fusion_lon": 0.0, "lon": -76.9614815, "lat": 38.883618, "is_reserved": 0, "is_disabled": 0, "rental_uris": {"android": "https://dc.lft.to/lastmile_qr_scan", "ios": "https://dc.lft.to/lastmile_qr_scan"}, "name": "d191feb766c3b9c8b813975cd830b099", "type": "electric_scooter"}, {"fusion_lat": 0.0, "bike_id": "68c55708e40050ee8dfde11049b93381", "fusion_lon": 0.0, "lon": -77.045163, "lat": 38.90553516666667, "is_reserved": 0, "is_disabled": 0, "rental_uris": {"android": "https://dc.lft.to/lastmile_qr_scan", "ios": "https://dc.lft.to/lastmile_qr_scan"}, "name": "68c55708e40050ee8dfde11049b93381", "type": "electric_scooter"}, {"fusion_lat": 0.0, "bike_id": "21577719bc4fcb03f2f22cb7315a451f", "fusion_lon": 0.0, "lon": -77.032604, "lat": 38.937731166666666, "is_reserved": 0, "is_disabled": 0, "rental_uris": {"android": "https://dc.lft.to/lastmile_qr_scan", "ios": "https://dc.lft.to/lastmile_qr_scan"}, "name": "21577719bc4fcb03f2f22cb7315a451f", "type": "electric_scooter"}, {"fusion_lat": 0.0, "bike_id": "a5a0524dbead559f3df2fd16cf3b5b14", "fusion_lon": 0.0, "lon": -77.03641133333333, "lat": 38.91342483333333, "is_reserved": 0, "is_disabled": 0, "rental_uris": {"android": "https://dc.lft.to/lastmile_qr_scan", "ios": "https://dc.lft.to/lastmile_qr_scan"}, "name": "a5a0524dbead559f3df2fd16cf3b5b14", "type": "electric_scooter"}, {"fusion_lat": 0.0, "bike_id": "c49589c5e5c2bb16afa375ebce282b38", "fusion_lon": 0.0, "lon": -77.04658316666666, "lat": 38.89653033333333, "is_reserved": 0, "is_disabled": 0, "rental_uris": {"android": "https://dc.lft.to/lastmile_qr_scan", "ios": "https://dc.lft.to/lastmile_qr_scan"}, "name": "c49589c5e5c2bb16afa375ebce282b38", "type": "electric_scooter"}, {"fusion_lat": 0.0, "bike_id": "7b8c7b6cdb773b198c772e3dc554a147", "fusion_lon": 0.0, "lon": -77.02981416666667, "lat": 38.930659, "is_reserved": 0, "is_disabled": 0, "rental_uris": {"android": "https://dc.lft.to/lastmile_qr_scan", "ios": "https://dc.lft.to/lastmile_qr_scan"}, "name": "7b8c7b6cdb773b198c772e3dc554a147", "type": "electric_scooter"}, {"fusion_lat": 0.0, "bike_id": "c7e79d0591f1607a035747012293913c", "fusion_lon": 0.0, "lon": -77.033771, "lat": 38.9247015, "is_reserved": 0, "is_disabled": 0, "rental_uris": {"android": "https://dc.lft.to/lastmile_qr_scan", "ios": "https://dc.lft.to/lastmile_qr_scan"}, "name": "c7e79d0591f1607a035747012293913c", "type": "electric_scooter"}, {"fusion_lat": 0.0, "bike_id": "340c4bbd0c9644cce0de991d1ba0f0df", "fusion_lon": 0.0, "lon": -77.00277633333333, "lat": 38.957133166666665, "is_reserved": 0, "is_disabled": 0, "rental_uris": {"android": "https://dc.lft.to/lastmile_qr_scan", "ios": "https://dc.lft.to/lastmile_qr_scan"}, "name": "340c4bbd0c9644cce0de991d1ba0f0df", "type": "electric_bike"}, {"fusion_lat": 0.0, "bike_id": "99a7299adbd198e6ba08a78a4a6eff53", "fusion_lon": 0.0, "lon": -77.03309016666667, "lat": 38.89814716666667, "is_reserved": 0, "is_disabled": 0, "rental_uris": {"android": "https://dc.lft.to/lastmile_qr_scan", "ios": "https://dc.lft.to/lastmile_qr_scan"}, "name": "99a7299adbd198e6ba08a78a4a6eff53", "type": "electric_scooter"}, {"fusion_lat": 0.0, "bike_id": "26fb29f6672243989592edb22085a985", "fusion_lon": 0.0, "lon": -77.034416, "lat": 38.91803516666667, "is_reserved": 0, "is_disabled": 0, "rental_uris": {"android": "https://dc.lft.to/lastmile_qr_scan", "ios": "https://dc.lft.to/lastmile_qr_scan"}, "name": "26fb29f6672243989592edb22085a985", "type": "electric_scooter"}, {"fusion_lat": 0.0, "bike_id": "3f4b0e6797577da61c327dc9135f9803", "fusion_lon": 0.0, "lon": -77.04657666666667, "lat": 38.90015866666667, "is_reserved": 0, "is_disabled": 0, "rental_uris": {"android": "https://dc.lft.to/lastmile_qr_scan", "ios": "https://dc.lft.to/lastmile_qr_scan"}, "name": "3f4b0e6797577da61c327dc9135f9803", "type": "electric_scooter"}, {"fusion_lat": 0.0, "bike_id": "7dc9e70b775667d71243f372ae279fbd", "fusion_lon": 0.0, "lon": -77.0271505, "lat": 38.934718333333336, "is_reserved": 0, "is_disabled": 0, "rental_uris": {"android": "https://dc.lft.to/lastmile_qr_scan", "ios": "https://dc.lft.to/lastmile_qr_scan"}, "name": "7dc9e70b775667d71243f372ae279fbd", "type": "electric_scooter"}, {"fusion_lat": 0.0, "bike_id": "83c344196e08c5a9f16b9b48040ac730", "fusion_lon": 0.0, "lon": -76.987374, "lat": 38.9002145, "is_reserved": 0, "is_disabled": 0, "rental_uris": {"android": "https://dc.lft.to/lastmile_qr_scan", "ios": "https://dc.lft.to/lastmile_qr_scan"}, "name": "83c344196e08c5a9f16b9b48040ac730", "type": "electric_scooter"}, {"fusion_lat": 0.0, "bike_id": "21be1c82a2b57b84f701e18ace6c5405", "fusion_lon": 0.0, "lon": -77.124895, "lat": 38.82787033333334, "is_reserved": 0, "is_disabled": 0, "rental_uris": {"android": "https://dc.lft.to/lastmile_qr_scan", "ios": "https://dc.lft.to/lastmile_qr_scan"}, "name": "21be1c82a2b57b84f701e18ace6c5405", "type": "electric_bike"}, {"fusion_lat": 0.0, "bike_id": "13943f10457a5b704a4217f42e68e5b1", "fusion_lon": 0.0, "lon": -77.07591916666667, "lat": 38.912169666666664, "is_reserved": 0, "is_disabled": 0, "rental_uris": {"android": "https://dc.lft.to/lastmile_qr_scan", "ios": "https://dc.lft.to/lastmile_qr_scan"}, "name": "13943f10457a5b704a4217f42e68e5b1", "type": "electric_scooter"}, {"fusion_lat": 0.0, "bike_id": "7404553939830365641db3d226eafadc", "fusion_lon": 0.0, "lon": -77.02710316666666, "lat": 38.92468266666667, "is_reserved": 0, "is_disabled": 0, "rental_uris": {"android": "https://dc.lft.to/lastmile_qr_scan", "ios": "https://dc.lft.to/lastmile_qr_scan"}, "name": "7404553939830365641db3d226eafadc", "type": "electric_scooter"}, {"fusion_lat": 0.0, "bike_id": "33a800f09d1792727b352fb30b2812e5", "fusion_lon": 0.0, "lon": -77.04062883333333, "lat": 38.90124216666667, "is_reserved": 0, "is_disabled": 0, "rental_uris": {"android": "https://dc.lft.to/lastmile_qr_scan", "ios": "https://dc.lft.to/lastmile_qr_scan"}, "name": "33a800f09d1792727b352fb30b2812e5", "type": "electric_scooter"}, {"fusion_lat": 0.0, "bike_id": "418c1744f6542731d8608c7cca84cabb", "fusion_lon": 0.0, "lon": -76.99853333333333, "lat": 38.84162083333333, "is_reserved": 0, "is_disabled": 0, "rental_uris": {"android": "https://dc.lft.to/lastmile_qr_scan", "ios": "https://dc.lft.to/lastmile_qr_scan"}, "name": "418c1744f6542731d8608c7cca84cabb", "type": "electric_scooter"}, {"fusion_lat": 0.0, "bike_id": "f6699e6a8d1087518eb33ec4ad218a66", "fusion_lon": 0.0, "lon": -77.0350435, "lat": 38.9188005, "is_reserved": 0, "is_disabled": 0, "rental_uris": {"android": "https://dc.lft.to/lastmile_qr_scan", "ios": "https://dc.lft.to/lastmile_qr_scan"}, "name": "f6699e6a8d1087518eb33ec4ad218a66", "type": "electric_scooter"}, {"fusion_lat": 0.0, "bike_id": "366a59e34f20667430c0e57bc1330377", "fusion_lon": 0.0, "lon": -77.022257, "lat": 38.92613733333334, "is_reserved": 0, "is_disabled": 0, "rental_uris": {"android": "https://dc.lft.to/lastmile_qr_scan", "ios": "https://dc.lft.to/lastmile_qr_scan"}, "name": "366a59e34f20667430c0e57bc1330377", "type": "electric_scooter"}, {"fusion_lat": 0.0, "bike_id": "43592f4a5cd7f302686b72331057fc0a", "fusion_lon": 0.0, "lon": -76.955753, "lat": 38.887669833333334, "is_reserved": 0, "is_disabled": 0, "rental_uris": {"android": "https://dc.lft.to/lastmile_qr_scan", "ios": "https://dc.lft.to/lastmile_qr_scan"}, "name": "43592f4a5cd7f302686b72331057fc0a", "type": "electric_scooter"}, {"fusion_lat": 0.0, "bike_id": "3692d5b8b2dc6755ad2b0b3d4d54f754", "fusion_lon": 0.0, "lon": -77.04318366666666, "lat": 38.9095195, "is_reserved": 0, "is_disabled": 0, "rental_uris": {"android": "https://dc.lft.to/lastmile_qr_scan", "ios": "https://dc.lft.to/lastmile_qr_scan"}, "name": "3692d5b8b2dc6755ad2b0b3d4d54f754", "type": "electric_scooter"}, {"fusion_lat": 0.0, "bike_id": "4331c82c977c98460d2155c3e7f1d998", "fusion_lon": 0.0, "lon": -76.98546516666667, "lat": 38.9201875, "is_reserved": 0, "is_disabled": 0, "rental_uris": {"android": "https://dc.lft.to/lastmile_qr_scan", "ios": "https://dc.lft.to/lastmile_qr_scan"}, "name": "4331c82c977c98460d2155c3e7f1d998", "type": "electric_scooter"}, {"fusion_lat": 0.0, "bike_id": "6b32d026f509caaa09205f1ec5b55fdb", "fusion_lon": 0.0, "lon": -77.044759, "lat": 38.89746933333333, "is_reserved": 0, "is_disabled": 0, "rental_uris": {"android": "https://dc.lft.to/lastmile_qr_scan", "ios": "https://dc.lft.to/lastmile_qr_scan"}, "name": "6b32d026f509caaa09205f1ec5b55fdb", "type": "electric_scooter"}, {"fusion_lat": 0.0, "bike_id": "0f976658d4af0a7d6739d2f0e67fda1a", "fusion_lon": 0.0, "lon": -77.03248666666667, "lat": 38.904602, "is_reserved": 0, "is_disabled": 0, "rental_uris": {"android": "https://dc.lft.to/lastmile_qr_scan", "ios": "https://dc.lft.to/lastmile_qr_scan"}, "name": "0f976658d4af0a7d6739d2f0e67fda1a", "type": "electric_scooter"}, {"fusion_lat": 0.0, "bike_id": "e91b68105d1cba3968c3d6094ddbbfd6", "fusion_lon": 0.0, "lon": -77.04388433333334, "lat": 39.047169, "is_reserved": 0, "is_disabled": 0, "rental_uris": {"android": "https://dc.lft.to/lastmile_qr_scan", "ios": "https://dc.lft.to/lastmile_qr_scan"}, "name": "e91b68105d1cba3968c3d6094ddbbfd6", "type": "electric_bike"}, {"fusion_lat": 0.0, "bike_id": "3aed67da94cf70ff9efe6d29856acf2f", "fusion_lon": 0.0, "lon": -77.0734395, "lat": 38.90995366666667, "is_reserved": 0, "is_disabled": 0, "rental_uris": {"android": "https://dc.lft.to/lastmile_qr_scan", "ios": "https://dc.lft.to/lastmile_qr_scan"}, "name": "3aed67da94cf70ff9efe6d29856acf2f", "type": "electric_scooter"}, {"fusion_lat": 0.0, "bike_id": "331f480c845dab2b41a4a31ffa5c1517", "fusion_lon": 0.0, "lon": -77.02842183333334, "lat": 38.925782166666664, "is_reserved": 0, "is_disabled": 0, "rental_uris": {"android": "https://dc.lft.to/lastmile_qr_scan", "ios": "https://dc.lft.to/lastmile_qr_scan"}, "name": "331f480c845dab2b41a4a31ffa5c1517", "type": "electric_scooter"}, {"fusion_lat": 0.0, "bike_id": "726cf643560ff577ed2b7ce398b32f97", "fusion_lon": 0.0, "lon": -77.0539375, "lat": 38.927979, "is_reserved": 0, "is_disabled": 0, "rental_uris": {"android": "https://dc.lft.to/lastmile_qr_scan", "ios": "https://dc.lft.to/lastmile_qr_scan"}, "name": "726cf643560ff577ed2b7ce398b32f97", "type": "electric_scooter"}, {"fusion_lat": 0.0, "bike_id": "6c1681e8b31cfdd7876f94758a937256", "fusion_lon": 0.0, "lon": -77.02280216666666, "lat": 38.9257345, "is_reserved": 0, "is_disabled": 0, "rental_uris": {"android": "https://dc.lft.to/lastmile_qr_scan", "ios": "https://dc.lft.to/lastmile_qr_scan"}, "name": "6c1681e8b31cfdd7876f94758a937256", "type": "electric_scooter"}, {"fusion_lat": 0.0, "bike_id": "c7c5ec3575d56c1fcf96ffc04070cffa", "fusion_lon": 0.0, "lon": -76.9732275, "lat": 38.90478733333333, "is_reserved": 0, "is_disabled": 0, "rental_uris": {"android": "https://dc.lft.to/lastmile_qr_scan", "ios": "https://dc.lft.to/lastmile_qr_scan"}, "name": "c7c5ec3575d56c1fcf96ffc04070cffa", "type": "electric_bike"}, {"fusion_lat": 0.0, "bike_id": "6f3f265dc442d6051fed214fc0adeece", "fusion_lon": 0.0, "lon": -77.04798583333333, "lat": 38.89220433333333, "is_reserved": 0, "is_disabled": 0, "rental_uris": {"android": "https://dc.lft.to/lastmile_qr_scan", "ios": "https://dc.lft.to/lastmile_qr_scan"}, "name": "6f3f265dc442d6051fed214fc0adeece", "type": "electric_scooter"}, {"fusion_lat": 0.0, "bike_id": "b485d281c436ec27377336c668a839cd", "fusion_lon": 0.0, "lon": -76.99790783333333, "lat": 38.956439, "is_reserved": 0, "is_disabled": 0, "rental_uris": {"android": "https://dc.lft.to/lastmile_qr_scan", "ios": "https://dc.lft.to/lastmile_qr_scan"}, "name": "b485d281c436ec27377336c668a839cd", "type": "electric_bike"}, {"fusion_lat": 0.0, "bike_id": "04ddb06599660b0d901bbda1c8f7c32f", "fusion_lon": 0.0, "lon": -77.014581, "lat": 38.92668716666667, "is_reserved": 0, "is_disabled": 0, "rental_uris": {"android": "https://dc.lft.to/lastmile_qr_scan", "ios": "https://dc.lft.to/lastmile_qr_scan"}, "name": "04ddb06599660b0d901bbda1c8f7c32f", "type": "electric_scooter"}, {"fusion_lat": 0.0, "bike_id": "3a59091749012da41f88987db01c98c2", "fusion_lon": 0.0, "lon": -77.0328325, "lat": 38.90156016666667, "is_reserved": 0, "is_disabled": 0, "rental_uris": {"android": "https://dc.lft.to/lastmile_qr_scan", "ios": "https://dc.lft.to/lastmile_qr_scan"}, "name": "3a59091749012da41f88987db01c98c2", "type": "electric_scooter"}, {"fusion_lat": 0.0, "bike_id": "e7006e8abf3af63739c289e2972d36d9", "fusion_lon": 0.0, "lon": -77.04294183333333, "lat": 38.92059, "is_reserved": 0, "is_disabled": 0, "rental_uris": {"android": "https://dc.lft.to/lastmile_qr_scan", "ios": "https://dc.lft.to/lastmile_qr_scan"}, "name": "e7006e8abf3af63739c289e2972d36d9", "type": "electric_scooter"}, {"fusion_lat": 0.0, "bike_id": "da628a5bf4ebbb58d46d8d6d2c179019", "fusion_lon": 0.0, "lon": -77.05014, "lat": 38.905161, "is_reserved": 0, "is_disabled": 0, "rental_uris": {"android": "https://dc.lft.to/lastmile_qr_scan", "ios": "https://dc.lft.to/lastmile_qr_scan"}, "name": "da628a5bf4ebbb58d46d8d6d2c179019", "type": "electric_scooter"}, {"fusion_lat": 0.0, "bike_id": "5f8a71f501fda0046e8b18a97f53493c", "fusion_lon": 0.0, "lon": -77.0448885, "lat": 38.9037445, "is_reserved": 0, "is_disabled": 0, "rental_uris": {"android": "https://dc.lft.to/lastmile_qr_scan", "ios": "https://dc.lft.to/lastmile_qr_scan"}, "name": "5f8a71f501fda0046e8b18a97f53493c", "type": "electric_scooter"}, {"fusion_lat": 0.0, "bike_id": "c3aab2e69bd369eb706f5f60cd69bc89", "fusion_lon": 0.0, "lon": -77.02390383333334, "lat": 38.881329666666666, "is_reserved": 0, "is_disabled": 0, "rental_uris": {"android": "https://dc.lft.to/lastmile_qr_scan", "ios": "https://dc.lft.to/lastmile_qr_scan"}, "name": "c3aab2e69bd369eb706f5f60cd69bc89", "type": "electric_scooter"}, {"fusion_lat": 0.0, "bike_id": "18299e310cb5c43d240368d8f0ef2c0f", "fusion_lon": 0.0, "lon": -77.04153016666666, "lat": 38.91914383333334, "is_reserved": 0, "is_disabled": 0, "rental_uris": {"android": "https://dc.lft.to/lastmile_qr_scan", "ios": "https://dc.lft.to/lastmile_qr_scan"}, "name": "18299e310cb5c43d240368d8f0ef2c0f", "type": "electric_scooter"}, {"fusion_lat": 0.0, "bike_id": "18c426b992db44615c68c68ed5c92449", "fusion_lon": 0.0, "lon": -77.04466, "lat": 38.91267466666667, "is_reserved": 0, "is_disabled": 0, "rental_uris": {"android": "https://dc.lft.to/lastmile_qr_scan", "ios": "https://dc.lft.to/lastmile_qr_scan"}, "name": "18c426b992db44615c68c68ed5c92449", "type": "electric_scooter"}, {"fusion_lat": 0.0, "bike_id": "7d4bf926c7319fb66ceab2f2b77cc0a1", "fusion_lon": 0.0, "lon": -77.043423, "lat": 38.9005, "is_reserved": 0, "is_disabled": 0, "rental_uris": {"android": "https://dc.lft.to/lastmile_qr_scan", "ios": "https://dc.lft.to/lastmile_qr_scan"}, "name": "7d4bf926c7319fb66ceab2f2b77cc0a1", "type": "electric_scooter"}, {"fusion_lat": 0.0, "bike_id": "b5dcaf93decb90bb1363dcd7127262fa", "fusion_lon": 0.0, "lon": -77.06331466666667, "lat": 38.92107683333333, "is_reserved": 0, "is_disabled": 0, "rental_uris": {"android": "https://dc.lft.to/lastmile_qr_scan", "ios": "https://dc.lft.to/lastmile_qr_scan"}, "name": "b5dcaf93decb90bb1363dcd7127262fa", "type": "electric_scooter"}, {"fusion_lat": 0.0, "bike_id": "c8bbf2005ebbe52503eafb7c523fa3bc", "fusion_lon": 0.0, "lon": -77.02569666666666, "lat": 38.882962, "is_reserved": 0, "is_disabled": 0, "rental_uris": {"android": "https://dc.lft.to/lastmile_qr_scan", "ios": "https://dc.lft.to/lastmile_qr_scan"}, "name": "c8bbf2005ebbe52503eafb7c523fa3bc", "type": "electric_scooter"}, {"fusion_lat": 0.0, "bike_id": "c3a7ced8ed144aa77528c39926468f01", "fusion_lon": 0.0, "lon": -77.029, "lat": 38.91703616666667, "is_reserved": 0, "is_disabled": 0, "rental_uris": {"android": "https://dc.lft.to/lastmile_qr_scan", "ios": "https://dc.lft.to/lastmile_qr_scan"}, "name": "c3a7ced8ed144aa77528c39926468f01", "type": "electric_scooter"}, {"fusion_lat": 0.0, "bike_id": "0366c056bc04b108ebaa4ec9398ceaa3", "fusion_lon": 0.0, "lon": -77.03517366666667, "lat": 38.92260866666667, "is_reserved": 0, "is_disabled": 0, "rental_uris": {"android": "https://dc.lft.to/lastmile_qr_scan", "ios": "https://dc.lft.to/lastmile_qr_scan"}, "name": "0366c056bc04b108ebaa4ec9398ceaa3", "type": "electric_scooter"}, {"fusion_lat": 0.0, "bike_id": "7eea253a2ba50018ecd194f247eb49fe", "fusion_lon": 0.0, "lon": -77.05949433333333, "lat": 38.9184215, "is_reserved": 0, "is_disabled": 0, "rental_uris": {"android": "https://dc.lft.to/lastmile_qr_scan", "ios": "https://dc.lft.to/lastmile_qr_scan"}, "name": "7eea253a2ba50018ecd194f247eb49fe", "type": "electric_scooter"}, {"fusion_lat": 0.0, "bike_id": "be4d430abbf1b52ecedec24226427988", "fusion_lon": 0.0, "lon": -77.03944583333333, "lat": 38.89986016666667, "is_reserved": 0, "is_disabled": 0, "rental_uris": {"android": "https://dc.lft.to/lastmile_qr_scan", "ios": "https://dc.lft.to/lastmile_qr_scan"}, "name": "be4d430abbf1b52ecedec24226427988", "type": "electric_scooter"}, {"fusion_lat": 0.0, "bike_id": "04ccfe87bbf8ea40abde3daf40ad7f75", "fusion_lon": 0.0, "lon": -77.023715, "lat": 38.91962866666667, "is_reserved": 0, "is_disabled": 0, "rental_uris": {"android": "https://dc.lft.to/lastmile_qr_scan", "ios": "https://dc.lft.to/lastmile_qr_scan"}, "name": "04ccfe87bbf8ea40abde3daf40ad7f75", "type": "electric_scooter"}, {"fusion_lat": 0.0, "bike_id": "c0ab6a494e6b9fbb61466bb70b3b5780", "fusion_lon": 0.0, "lon": -77.02154533333334, "lat": 38.894830166666665, "is_reserved": 0, "is_disabled": 0, "rental_uris": {"android": "https://dc.lft.to/lastmile_qr_scan", "ios": "https://dc.lft.to/lastmile_qr_scan"}, "name": "c0ab6a494e6b9fbb61466bb70b3b5780", "type": "electric_scooter"}, {"fusion_lat": 0.0, "bike_id": "ca10ee852be98161ddbcaf572d0d16a3", "fusion_lon": 0.0, "lon": -77.03930916666667, "lat": 38.924952833333336, "is_reserved": 0, "is_disabled": 0, "rental_uris": {"android": "https://dc.lft.to/lastmile_qr_scan", "ios": "https://dc.lft.to/lastmile_qr_scan"}, "name": "ca10ee852be98161ddbcaf572d0d16a3", "type": "electric_scooter"}, {"fusion_lat": 0.0, "bike_id": "88b00fa031426e199a0c96221135f4df", "fusion_lon": 0.0, "lon": -76.94631966666667, "lat": 38.898345666666664, "is_reserved": 0, "is_disabled": 0, "rental_uris": {"android": "https://dc.lft.to/lastmile_qr_scan", "ios": "https://dc.lft.to/lastmile_qr_scan"}, "name": "88b00fa031426e199a0c96221135f4df", "type": "electric_scooter"}, {"fusion_lat": 0.0, "bike_id": "c1ae753cd0f34d56e5a825fcd94d2273", "fusion_lon": 0.0, "lon": -77.18125533333334, "lat": 38.93230466666667, "is_reserved": 0, "is_disabled": 0, "rental_uris": {"android": "https://dc.lft.to/lastmile_qr_scan", "ios": "https://dc.lft.to/lastmile_qr_scan"}, "name": "c1ae753cd0f34d56e5a825fcd94d2273", "type": "electric_bike"}, {"fusion_lat": 0.0, "bike_id": "795376759e2815fcddef4580a4984f87", "fusion_lon": 0.0, "lon": -76.96818083333334, "lat": 38.84718483333333, "is_reserved": 0, "is_disabled": 0, "rental_uris": {"android": "https://dc.lft.to/lastmile_qr_scan", "ios": "https://dc.lft.to/lastmile_qr_scan"}, "name": "795376759e2815fcddef4580a4984f87", "type": "electric_scooter"}, {"fusion_lat": 0.0, "bike_id": "e79723edb87b31b854839fe048b0a0b6", "fusion_lon": 0.0, "lon": -76.965197, "lat": 38.87475083333333, "is_reserved": 0, "is_disabled": 0, "rental_uris": {"android": "https://dc.lft.to/lastmile_qr_scan", "ios": "https://dc.lft.to/lastmile_qr_scan"}, "name": "e79723edb87b31b854839fe048b0a0b6", "type": "electric_scooter"}, {"fusion_lat": 0.0, "bike_id": "f314ac60c59d853d598cf2eaf7d98262", "fusion_lon": 0.0, "lon": -77.04779916666666, "lat": 38.904943833333334, "is_reserved": 0, "is_disabled": 0, "rental_uris": {"android": "https://dc.lft.to/lastmile_qr_scan", "ios": "https://dc.lft.to/lastmile_qr_scan"}, "name": "f314ac60c59d853d598cf2eaf7d98262", "type": "electric_scooter"}, {"fusion_lat": 0.0, "bike_id": "afcad821e573e2d67d34106102c1bbc3", "fusion_lon": 0.0, "lon": -77.04665566666667, "lat": 38.903116, "is_reserved": 0, "is_disabled": 0, "rental_uris": {"android": "https://dc.lft.to/lastmile_qr_scan", "ios": "https://dc.lft.to/lastmile_qr_scan"}, "name": "afcad821e573e2d67d34106102c1bbc3", "type": "electric_scooter"}, {"fusion_lat": 0.0, "bike_id": "fb07ddf1e172cd8bf827c957012b1e33", "fusion_lon": 0.0, "lon": -77.023097, "lat": 38.92788133333333, "is_reserved": 0, "is_disabled": 0, "rental_uris": {"android": "https://dc.lft.to/lastmile_qr_scan", "ios": "https://dc.lft.to/lastmile_qr_scan"}, "name": "fb07ddf1e172cd8bf827c957012b1e33", "type": "electric_scooter"}, {"fusion_lat": 0.0, "bike_id": "bc6a19dae5e1425f171ef8948f884099", "fusion_lon": 0.0, "lon": -77.036922, "lat": 38.91810483333333, "is_reserved": 0, "is_disabled": 0, "rental_uris": {"android": "https://dc.lft.to/lastmile_qr_scan", "ios": "https://dc.lft.to/lastmile_qr_scan"}, "name": "bc6a19dae5e1425f171ef8948f884099", "type": "electric_scooter"}, {"fusion_lat": 0.0, "bike_id": "056ff8e8e2931b4099648470c2a3f2b6", "fusion_lon": 0.0, "lon": -77.0256025, "lat": 38.933514833333334, "is_reserved": 0, "is_disabled": 0, "rental_uris": {"android": "https://dc.lft.to/lastmile_qr_scan", "ios": "https://dc.lft.to/lastmile_qr_scan"}, "name": "056ff8e8e2931b4099648470c2a3f2b6", "type": "electric_scooter"}, {"fusion_lat": 0.0, "bike_id": "a52bc53a5da76c375cdb63b7c4b05f8f", "fusion_lon": 0.0, "lon": -77.02649883333333, "lat": 38.938625333333334, "is_reserved": 0, "is_disabled": 0, "rental_uris": {"android": "https://dc.lft.to/lastmile_qr_scan", "ios": "https://dc.lft.to/lastmile_qr_scan"}, "name": "a52bc53a5da76c375cdb63b7c4b05f8f", "type": "electric_scooter"}, {"fusion_lat": 0.0, "bike_id": "bbf84af8c82d0a96f3c2e8e8f5ca8116", "fusion_lon": 0.0, "lon": -77.03265783333333, "lat": 38.92877133333333, "is_reserved": 0, "is_disabled": 0, "rental_uris": {"android": "https://dc.lft.to/lastmile_qr_scan", "ios": "https://dc.lft.to/lastmile_qr_scan"}, "name": "bbf84af8c82d0a96f3c2e8e8f5ca8116", "type": "electric_scooter"}, {"fusion_lat": 0.0, "bike_id": "6f2ff4dc8faad5136537f8a5b467dddf", "fusion_lon": 0.0, "lon": -76.998826, "lat": 38.92056383333333, "is_reserved": 0, "is_disabled": 0, "rental_uris": {"android": "https://dc.lft.to/lastmile_qr_scan", "ios": "https://dc.lft.to/lastmile_qr_scan"}, "name": "6f2ff4dc8faad5136537f8a5b467dddf", "type": "electric_scooter"}, {"fusion_lat": 0.0, "bike_id": "7a7c3614c07d28623b0243271b337bfa", "fusion_lon": 0.0, "lon": -77.00123716666667, "lat": 38.873810166666665, "is_reserved": 0, "is_disabled": 0, "rental_uris": {"android": "https://dc.lft.to/lastmile_qr_scan", "ios": "https://dc.lft.to/lastmile_qr_scan"}, "name": "7a7c3614c07d28623b0243271b337bfa", "type": "electric_scooter"}, {"fusion_lat": 0.0, "bike_id": "3613cd8ca56b4b3ec50807b64aa6bd99", "fusion_lon": 0.0, "lon": -76.99351483333334, "lat": 38.8450735, "is_reserved": 0, "is_disabled": 0, "rental_uris": {"android": "https://dc.lft.to/lastmile_qr_scan", "ios": "https://dc.lft.to/lastmile_qr_scan"}, "name": "3613cd8ca56b4b3ec50807b64aa6bd99", "type": "electric_bike"}, {"fusion_lat": 0.0, "bike_id": "e112dd22f84edc418218d19c67ba7d0a", "fusion_lon": 0.0, "lon": -77.031081, "lat": 38.9156475, "is_reserved": 0, "is_disabled": 0, "rental_uris": {"android": "https://dc.lft.to/lastmile_qr_scan", "ios": "https://dc.lft.to/lastmile_qr_scan"}, "name": "e112dd22f84edc418218d19c67ba7d0a", "type": "electric_scooter"}, {"fusion_lat": 0.0, "bike_id": "d43bdfff0a41a987ae8feff87a77454c", "fusion_lon": 0.0, "lon": -77.05890616666667, "lat": 38.90315833333333, "is_reserved": 0, "is_disabled": 0, "rental_uris": {"android": "https://dc.lft.to/lastmile_qr_scan", "ios": "https://dc.lft.to/lastmile_qr_scan"}, "name": "d43bdfff0a41a987ae8feff87a77454c", "type": "electric_scooter"}, {"fusion_lat": 0.0, "bike_id": "4b31cfe64db6cfd3ab3376db92ad848c", "fusion_lon": 0.0, "lon": -76.983658, "lat": 38.915492, "is_reserved": 0, "is_disabled": 0, "rental_uris": {"android": "https://dc.lft.to/lastmile_qr_scan", "ios": "https://dc.lft.to/lastmile_qr_scan"}, "name": "4b31cfe64db6cfd3ab3376db92ad848c", "type": "electric_scooter"}, {"fusion_lat": 0.0, "bike_id": "5d9eff3258f874f597e008bb6451a2f2", "fusion_lon": 0.0, "lon": -77.081719, "lat": 38.855732, "is_reserved": 0, "is_disabled": 0, "rental_uris": {"android": "https://dc.lft.to/lastmile_qr_scan", "ios": "https://dc.lft.to/lastmile_qr_scan"}, "name": "5d9eff3258f874f597e008bb6451a2f2", "type": "electric_bike"}, {"fusion_lat": 0.0, "bike_id": "3a7b00088f69685e6c7acaaade63d80a", "fusion_lon": 0.0, "lon": -77.032192, "lat": 38.892215, "is_reserved": 0, "is_disabled": 0, "rental_uris": {"android": "https://dc.lft.to/lastmile_qr_scan", "ios": "https://dc.lft.to/lastmile_qr_scan"}, "name": "3a7b00088f69685e6c7acaaade63d80a", "type": "electric_scooter"}, {"fusion_lat": 0.0, "bike_id": "ba22806f85a3fad7483d06ebc7c09034", "fusion_lon": 0.0, "lon": -77.04862916666667, "lat": 38.906469, "is_reserved": 0, "is_disabled": 0, "rental_uris": {"android": "https://dc.lft.to/lastmile_qr_scan", "ios": "https://dc.lft.to/lastmile_qr_scan"}, "name": "ba22806f85a3fad7483d06ebc7c09034", "type": "electric_scooter"}, {"fusion_lat": 0.0, "bike_id": "f30d4ed381e21e066d9f86eb5a8345cf", "fusion_lon": 0.0, "lon": -77.06937866666667, "lat": 38.95217783333333, "is_reserved": 0, "is_disabled": 0, "rental_uris": {"android": "https://dc.lft.to/lastmile_qr_scan", "ios": "https://dc.lft.to/lastmile_qr_scan"}, "name": "f30d4ed381e21e066d9f86eb5a8345cf", "type": "electric_scooter"}, {"fusion_lat": 0.0, "bike_id": "774ca84e7a78976304e05d2310177007", "fusion_lon": 0.0, "lon": -77.02587083333333, "lat": 38.903436, "is_reserved": 0, "is_disabled": 0, "rental_uris": {"android": "https://dc.lft.to/lastmile_qr_scan", "ios": "https://dc.lft.to/lastmile_qr_scan"}, "name": "774ca84e7a78976304e05d2310177007", "type": "electric_scooter"}, {"fusion_lat": 0.0, "bike_id": "0fbf78d1a4eaa2c7bd4586ad03762301", "fusion_lon": 0.0, "lon": -76.93029416666667, "lat": 38.900124, "is_reserved": 0, "is_disabled": 0, "rental_uris": {"android": "https://dc.lft.to/lastmile_qr_scan", "ios": "https://dc.lft.to/lastmile_qr_scan"}, "name": "0fbf78d1a4eaa2c7bd4586ad03762301", "type": "electric_scooter"}, {"fusion_lat": 0.0, "bike_id": "7a65b6351589dd1a8f6598ab4615cce7", "fusion_lon": 0.0, "lon": -77.0241595, "lat": 38.91826566666667, "is_reserved": 0, "is_disabled": 0, "rental_uris": {"android": "https://dc.lft.to/lastmile_qr_scan", "ios": "https://dc.lft.to/lastmile_qr_scan"}, "name": "7a65b6351589dd1a8f6598ab4615cce7", "type": "electric_scooter"}, {"fusion_lat": 0.0, "bike_id": "38cbdacf294b5e8dc72514a626fe8ad9", "fusion_lon": 0.0, "lon": -77.04462466666666, "lat": 38.90561, "is_reserved": 0, "is_disabled": 0, "rental_uris": {"android": "https://dc.lft.to/lastmile_qr_scan", "ios": "https://dc.lft.to/lastmile_qr_scan"}, "name": "38cbdacf294b5e8dc72514a626fe8ad9", "type": "electric_scooter"}, {"fusion_lat": 0.0, "bike_id": "d00dde498bbc1ccf8718eef2754a296f", "fusion_lon": 0.0, "lon": -77.0350055, "lat": 38.92149716666667, "is_reserved": 0, "is_disabled": 0, "rental_uris": {"android": "https://dc.lft.to/lastmile_qr_scan", "ios": "https://dc.lft.to/lastmile_qr_scan"}, "name": "d00dde498bbc1ccf8718eef2754a296f", "type": "electric_scooter"}, {"fusion_lat": 0.0, "bike_id": "ca6e99a65dd1d3a913603407c64ebc6f", "fusion_lon": 0.0, "lon": -77.02107466666666, "lat": 38.92181216666667, "is_reserved": 0, "is_disabled": 0, "rental_uris": {"android": "https://dc.lft.to/lastmile_qr_scan", "ios": "https://dc.lft.to/lastmile_qr_scan"}, "name": "ca6e99a65dd1d3a913603407c64ebc6f", "type": "electric_scooter"}, {"fusion_lat": 0.0, "bike_id": "2412c17a6f5d733833122a6081362d7f", "fusion_lon": 0.0, "lon": -77.02813283333333, "lat": 38.9317035, "is_reserved": 0, "is_disabled": 0, "rental_uris": {"android": "https://dc.lft.to/lastmile_qr_scan", "ios": "https://dc.lft.to/lastmile_qr_scan"}, "name": "2412c17a6f5d733833122a6081362d7f", "type": "electric_scooter"}, {"fusion_lat": 0.0, "bike_id": "0c74b80eee924929a7d50f4716b33fdb", "fusion_lon": 0.0, "lon": -76.900809, "lat": 38.887472333333335, "is_reserved": 0, "is_disabled": 0, "rental_uris": {"android": "https://dc.lft.to/lastmile_qr_scan", "ios": "https://dc.lft.to/lastmile_qr_scan"}, "name": "0c74b80eee924929a7d50f4716b33fdb", "type": "electric_bike"}, {"fusion_lat": 0.0, "bike_id": "3c2bf1d0550b6b4418d6c7c06457955b", "fusion_lon": 0.0, "lon": -77.04110416666667, "lat": 38.91041283333333, "is_reserved": 0, "is_disabled": 0, "rental_uris": {"android": "https://dc.lft.to/lastmile_qr_scan", "ios": "https://dc.lft.to/lastmile_qr_scan"}, "name": "3c2bf1d0550b6b4418d6c7c06457955b", "type": "electric_scooter"}, {"fusion_lat": 0.0, "bike_id": "3c8f258a253bc4acd060601edd9af771", "fusion_lon": 0.0, "lon": -77.03502066666667, "lat": 38.92147533333333, "is_reserved": 0, "is_disabled": 0, "rental_uris": {"android": "https://dc.lft.to/lastmile_qr_scan", "ios": "https://dc.lft.to/lastmile_qr_scan"}, "name": "3c8f258a253bc4acd060601edd9af771", "type": "electric_scooter"}, {"fusion_lat": 0.0, "bike_id": "ab444220c6d2620efc5bc15d58153d1d", "fusion_lon": 0.0, "lon": -77.01493983333333, "lat": 38.892210666666664, "is_reserved": 0, "is_disabled": 0, "rental_uris": {"android": "https://dc.lft.to/lastmile_qr_scan", "ios": "https://dc.lft.to/lastmile_qr_scan"}, "name": "ab444220c6d2620efc5bc15d58153d1d", "type": "electric_scooter"}, {"fusion_lat": 0.0, "bike_id": "fabbd6106851168c40b9c311a12aba2a", "fusion_lon": 0.0, "lon": -77.03608266666667, "lat": 38.93685033333333, "is_reserved": 0, "is_disabled": 0, "rental_uris": {"android": "https://dc.lft.to/lastmile_qr_scan", "ios": "https://dc.lft.to/lastmile_qr_scan"}, "name": "fabbd6106851168c40b9c311a12aba2a", "type": "electric_scooter"}, {"fusion_lat": 0.0, "bike_id": "861d4c9abcbbb47117f9a690a13575fd", "fusion_lon": 0.0, "lon": -77.07620883333334, "lat": 38.96576983333333, "is_reserved": 0, "is_disabled": 0, "rental_uris": {"android": "https://dc.lft.to/lastmile_qr_scan", "ios": "https://dc.lft.to/lastmile_qr_scan"}, "name": "861d4c9abcbbb47117f9a690a13575fd", "type": "electric_bike"}, {"fusion_lat": 0.0, "bike_id": "2cc47f5460957ffe7d262169fb025216", "fusion_lon": 0.0, "lon": -77.11708383333334, "lat": 38.867468833333334, "is_reserved": 0, "is_disabled": 0, "rental_uris": {"android": "https://dc.lft.to/lastmile_qr_scan", "ios": "https://dc.lft.to/lastmile_qr_scan"}, "name": "2cc47f5460957ffe7d262169fb025216", "type": "electric_bike"}, {"fusion_lat": 0.0, "bike_id": "3fd8f1c0ff9f5d0dd02b8fc2431d5189", "fusion_lon": 0.0, "lon": -77.02219483333333, "lat": 38.93551516666667, "is_reserved": 0, "is_disabled": 0, "rental_uris": {"android": "https://dc.lft.to/lastmile_qr_scan", "ios": "https://dc.lft.to/lastmile_qr_scan"}, "name": "3fd8f1c0ff9f5d0dd02b8fc2431d5189", "type": "electric_scooter"}, {"fusion_lat": 0.0, "bike_id": "ba54311eaa1baaa4c6613b3bea6e3f61", "fusion_lon": 0.0, "lon": -77.028655, "lat": 38.9213965, "is_reserved": 0, "is_disabled": 0, "rental_uris": {"android": "https://dc.lft.to/lastmile_qr_scan", "ios": "https://dc.lft.to/lastmile_qr_scan"}, "name": "ba54311eaa1baaa4c6613b3bea6e3f61", "type": "electric_bike"}, {"fusion_lat": 0.0, "bike_id": "1b50c4f0994cb8dc2afc5a07dd73b6b0", "fusion_lon": 0.0, "lon": -77.04477366666667, "lat": 38.902497333333336, "is_reserved": 0, "is_disabled": 0, "rental_uris": {"android": "https://dc.lft.to/lastmile_qr_scan", "ios": "https://dc.lft.to/lastmile_qr_scan"}, "name": "1b50c4f0994cb8dc2afc5a07dd73b6b0", "type": "electric_scooter"}, {"fusion_lat": 0.0, "bike_id": "148a334baa4f9914abb52a82fdc5216a", "fusion_lon": 0.0, "lon": -77.03206666666667, "lat": 38.907103166666666, "is_reserved": 0, "is_disabled": 0, "rental_uris": {"android": "https://dc.lft.to/lastmile_qr_scan", "ios": "https://dc.lft.to/lastmile_qr_scan"}, "name": "148a334baa4f9914abb52a82fdc5216a", "type": "electric_scooter"}, {"fusion_lat": 0.0, "bike_id": "b2221f58b5038b3c9c8fca0bcd4cad58", "fusion_lon": 0.0, "lon": -77.03206066666667, "lat": 38.91134366666667, "is_reserved": 0, "is_disabled": 0, "rental_uris": {"android": "https://dc.lft.to/lastmile_qr_scan", "ios": "https://dc.lft.to/lastmile_qr_scan"}, "name": "b2221f58b5038b3c9c8fca0bcd4cad58", "type": "electric_scooter"}, {"fusion_lat": 0.0, "bike_id": "ff699902099ec0df5620ba1f9af7d054", "fusion_lon": 0.0, "lon": -77.02382666666666, "lat": 38.917326333333335, "is_reserved": 0, "is_disabled": 0, "rental_uris": {"android": "https://dc.lft.to/lastmile_qr_scan", "ios": "https://dc.lft.to/lastmile_qr_scan"}, "name": "ff699902099ec0df5620ba1f9af7d054", "type": "electric_scooter"}, {"fusion_lat": 0.0, "bike_id": "5230423f83a2c31562d66254a084b972", "fusion_lon": 0.0, "lon": -77.04190466666667, "lat": 38.89984833333333, "is_reserved": 0, "is_disabled": 0, "rental_uris": {"android": "https://dc.lft.to/lastmile_qr_scan", "ios": "https://dc.lft.to/lastmile_qr_scan"}, "name": "5230423f83a2c31562d66254a084b972", "type": "electric_scooter"}, {"fusion_lat": 0.0, "bike_id": "60f0e1547fc04049a35512c837ac868d", "fusion_lon": 0.0, "lon": -77.02581933333333, "lat": 38.918161166666664, "is_reserved": 0, "is_disabled": 0, "rental_uris": {"android": "https://dc.lft.to/lastmile_qr_scan", "ios": "https://dc.lft.to/lastmile_qr_scan"}, "name": "60f0e1547fc04049a35512c837ac868d", "type": "electric_scooter"}, {"fusion_lat": 0.0, "bike_id": "04a196f8299c40e7df7782a547c29c2a", "fusion_lon": 0.0, "lon": -77.04485983333333, "lat": 38.9223795, "is_reserved": 0, "is_disabled": 0, "rental_uris": {"android": "https://dc.lft.to/lastmile_qr_scan", "ios": "https://dc.lft.to/lastmile_qr_scan"}, "name": "04a196f8299c40e7df7782a547c29c2a", "type": "electric_scooter"}, {"fusion_lat": 0.0, "bike_id": "c917497e7a465c43ef305f00e5a0df39", "fusion_lon": 0.0, "lon": -77.0231705, "lat": 38.8949665, "is_reserved": 0, "is_disabled": 0, "rental_uris": {"android": "https://dc.lft.to/lastmile_qr_scan", "ios": "https://dc.lft.to/lastmile_qr_scan"}, "name": "c917497e7a465c43ef305f00e5a0df39", "type": "electric_scooter"}, {"fusion_lat": 0.0, "bike_id": "87b4ee6bb89570e847ceb17835d9cf21", "fusion_lon": 0.0, "lon": -77.03223583333333, "lat": 38.925885, "is_reserved": 0, "is_disabled": 0, "rental_uris": {"android": "https://dc.lft.to/lastmile_qr_scan", "ios": "https://dc.lft.to/lastmile_qr_scan"}, "name": "87b4ee6bb89570e847ceb17835d9cf21", "type": "electric_scooter"}, {"fusion_lat": 0.0, "bike_id": "ce1ab4e80728512afd912ea114a340be", "fusion_lon": 0.0, "lon": -77.01410933333334, "lat": 38.881194666666666, "is_reserved": 0, "is_disabled": 0, "rental_uris": {"android": "https://dc.lft.to/lastmile_qr_scan", "ios": "https://dc.lft.to/lastmile_qr_scan"}, "name": "ce1ab4e80728512afd912ea114a340be", "type": "electric_scooter"}, {"fusion_lat": 0.0, "bike_id": "2bacff96ff27b016e0f1bf1fb7cd64ae", "fusion_lon": 0.0, "lon": -77.0308625, "lat": 38.9106725, "is_reserved": 0, "is_disabled": 0, "rental_uris": {"android": "https://dc.lft.to/lastmile_qr_scan", "ios": "https://dc.lft.to/lastmile_qr_scan"}, "name": "2bacff96ff27b016e0f1bf1fb7cd64ae", "type": "electric_scooter"}, {"fusion_lat": 0.0, "bike_id": "43fb607b5ebaa9b39b1dd6051dd755e6", "fusion_lon": 0.0, "lon": -76.99794933333334, "lat": 38.82910483333333, "is_reserved": 0, "is_disabled": 0, "rental_uris": {"android": "https://dc.lft.to/lastmile_qr_scan", "ios": "https://dc.lft.to/lastmile_qr_scan"}, "name": "43fb607b5ebaa9b39b1dd6051dd755e6", "type": "electric_bike"}, {"fusion_lat": 0.0, "bike_id": "a45764d3f4e9d472c8defc37e12f712d", "fusion_lon": 0.0, "lon": -76.95744483333333, "lat": 38.884296666666664, "is_reserved": 0, "is_disabled": 0, "rental_uris": {"android": "https://dc.lft.to/lastmile_qr_scan", "ios": "https://dc.lft.to/lastmile_qr_scan"}, "name": "a45764d3f4e9d472c8defc37e12f712d", "type": "electric_scooter"}, {"fusion_lat": 0.0, "bike_id": "bf52cecc70d013f7dae1cf1b28544a09", "fusion_lon": 0.0, "lon": -77.0219895, "lat": 38.9247475, "is_reserved": 0, "is_disabled": 0, "rental_uris": {"android": "https://dc.lft.to/lastmile_qr_scan", "ios": "https://dc.lft.to/lastmile_qr_scan"}, "name": "bf52cecc70d013f7dae1cf1b28544a09", "type": "electric_scooter"}, {"fusion_lat": 0.0, "bike_id": "18851f3364d9a70df97cf9005f84987c", "fusion_lon": 0.0, "lon": -77.020986, "lat": 38.9326595, "is_reserved": 0, "is_disabled": 0, "rental_uris": {"android": "https://dc.lft.to/lastmile_qr_scan", "ios": "https://dc.lft.to/lastmile_qr_scan"}, "name": "18851f3364d9a70df97cf9005f84987c", "type": "electric_scooter"}, {"fusion_lat": 0.0, "bike_id": "9c8606800dbbc3cc5ecea32814391ace", "fusion_lon": 0.0, "lon": -77.0045485, "lat": 38.87661466666667, "is_reserved": 0, "is_disabled": 0, "rental_uris": {"android": "https://dc.lft.to/lastmile_qr_scan", "ios": "https://dc.lft.to/lastmile_qr_scan"}, "name": "9c8606800dbbc3cc5ecea32814391ace", "type": "electric_scooter"}, {"fusion_lat": 0.0, "bike_id": "56eba03a6bc75109a6f18c90001e4609", "fusion_lon": 0.0, "lon": -76.99941716666666, "lat": 38.90624833333333, "is_reserved": 0, "is_disabled": 0, "rental_uris": {"android": "https://dc.lft.to/lastmile_qr_scan", "ios": "https://dc.lft.to/lastmile_qr_scan"}, "name": "56eba03a6bc75109a6f18c90001e4609", "type": "electric_scooter"}, {"fusion_lat": 0.0, "bike_id": "8d02d7fffe7060c8bbfefea27e56d27c", "fusion_lon": 0.0, "lon": -77.0091305, "lat": 38.898959833333336, "is_reserved": 0, "is_disabled": 0, "rental_uris": {"android": "https://dc.lft.to/lastmile_qr_scan", "ios": "https://dc.lft.to/lastmile_qr_scan"}, "name": "8d02d7fffe7060c8bbfefea27e56d27c", "type": "electric_scooter"}, {"fusion_lat": 0.0, "bike_id": "723d357d6e4e621a2de2d70bf481ab31", "fusion_lon": 0.0, "lon": -76.993856, "lat": 38.89197216666667, "is_reserved": 0, "is_disabled": 0, "rental_uris": {"android": "https://dc.lft.to/lastmile_qr_scan", "ios": "https://dc.lft.to/lastmile_qr_scan"}, "name": "723d357d6e4e621a2de2d70bf481ab31", "type": "electric_scooter"}, {"fusion_lat": 0.0, "bike_id": "a2bcc5803427982044702d68a03c2a78", "fusion_lon": 0.0, "lon": -77.01228133333333, "lat": 38.892941, "is_reserved": 0, "is_disabled": 0, "rental_uris": {"android": "https://dc.lft.to/lastmile_qr_scan", "ios": "https://dc.lft.to/lastmile_qr_scan"}, "name": "a2bcc5803427982044702d68a03c2a78", "type": "electric_scooter"}, {"fusion_lat": 0.0, "bike_id": "613d7f391ada9c290ca5bc6691ad5375", "fusion_lon": 0.0, "lon": -77.022355, "lat": 38.892227166666665, "is_reserved": 0, "is_disabled": 0, "rental_uris": {"android": "https://dc.lft.to/lastmile_qr_scan", "ios": "https://dc.lft.to/lastmile_qr_scan"}, "name": "613d7f391ada9c290ca5bc6691ad5375", "type": "electric_scooter"}, {"fusion_lat": 0.0, "bike_id": "c9680081a5b6458ca7591499e3da9e49", "fusion_lon": 0.0, "lon": -76.94883416666667, "lat": 38.89510583333333, "is_reserved": 0, "is_disabled": 0, "rental_uris": {"android": "https://dc.lft.to/lastmile_qr_scan", "ios": "https://dc.lft.to/lastmile_qr_scan"}, "name": "c9680081a5b6458ca7591499e3da9e49", "type": "electric_scooter"}, {"fusion_lat": 0.0, "bike_id": "7a019d90ce5ee2e1a1a5c1f820b6bbb4", "fusion_lon": 0.0, "lon": -77.0466025, "lat": 38.897798, "is_reserved": 0, "is_disabled": 0, "rental_uris": {"android": "https://dc.lft.to/lastmile_qr_scan", "ios": "https://dc.lft.to/lastmile_qr_scan"}, "name": "7a019d90ce5ee2e1a1a5c1f820b6bbb4", "type": "electric_scooter"}, {"fusion_lat": 0.0, "bike_id": "106148f803ac4422a2c4dde632dbfbe8", "fusion_lon": 0.0, "lon": -77.04031766666667, "lat": 38.90601566666667, "is_reserved": 0, "is_disabled": 0, "rental_uris": {"android": "https://dc.lft.to/lastmile_qr_scan", "ios": "https://dc.lft.to/lastmile_qr_scan"}, "name": "106148f803ac4422a2c4dde632dbfbe8", "type": "electric_scooter"}, {"fusion_lat": 0.0, "bike_id": "9e75286a036abd215990da5cff6c341d", "fusion_lon": 0.0, "lon": -77.02347216666666, "lat": 38.935386, "is_reserved": 0, "is_disabled": 0, "rental_uris": {"android": "https://dc.lft.to/lastmile_qr_scan", "ios": "https://dc.lft.to/lastmile_qr_scan"}, "name": "9e75286a036abd215990da5cff6c341d", "type": "electric_scooter"}, {"fusion_lat": 0.0, "bike_id": "bfc845d77ff014d55e28d780cfe6e5e2", "fusion_lon": 0.0, "lon": -77.04458466666667, "lat": 38.90788583333333, "is_reserved": 0, "is_disabled": 0, "rental_uris": {"android": "https://dc.lft.to/lastmile_qr_scan", "ios": "https://dc.lft.to/lastmile_qr_scan"}, "name": "bfc845d77ff014d55e28d780cfe6e5e2", "type": "electric_scooter"}, {"fusion_lat": 0.0, "bike_id": "fba91e2b22171e7bb9e57a594c1cc867", "fusion_lon": 0.0, "lon": -77.05806116666666, "lat": 38.823930833333335, "is_reserved": 0, "is_disabled": 0, "rental_uris": {"android": "https://dc.lft.to/lastmile_qr_scan", "ios": "https://dc.lft.to/lastmile_qr_scan"}, "name": "fba91e2b22171e7bb9e57a594c1cc867", "type": "electric_bike"}, {"fusion_lat": 0.0, "bike_id": "ee66dda91217d2bf1239a0c408c30642", "fusion_lon": 0.0, "lon": -77.05465616666666, "lat": 38.92919766666667, "is_reserved": 0, "is_disabled": 0, "rental_uris": {"android": "https://dc.lft.to/lastmile_qr_scan", "ios": "https://dc.lft.to/lastmile_qr_scan"}, "name": "ee66dda91217d2bf1239a0c408c30642", "type": "electric_scooter"}, {"fusion_lat": 0.0, "bike_id": "ce0f9cabe9cc9ac4208b7bd76876ad8f", "fusion_lon": 0.0, "lon": -77.02602966666667, "lat": 38.89263616666667, "is_reserved": 0, "is_disabled": 0, "rental_uris": {"android": "https://dc.lft.to/lastmile_qr_scan", "ios": "https://dc.lft.to/lastmile_qr_scan"}, "name": "ce0f9cabe9cc9ac4208b7bd76876ad8f", "type": "electric_scooter"}, {"fusion_lat": 0.0, "bike_id": "ff9a0452f486ebbf64423567e25c3a35", "fusion_lon": 0.0, "lon": -76.94919616666667, "lat": 38.8935655, "is_reserved": 0, "is_disabled": 0, "rental_uris": {"android": "https://dc.lft.to/lastmile_qr_scan", "ios": "https://dc.lft.to/lastmile_qr_scan"}, "name": "ff9a0452f486ebbf64423567e25c3a35", "type": "electric_scooter"}, {"fusion_lat": 0.0, "bike_id": "e5ddb09eb35d1610be54bedf8983a338", "fusion_lon": 0.0, "lon": -77.07430833333333, "lat": 38.99945833333334, "is_reserved": 0, "is_disabled": 0, "rental_uris": {"android": "https://dc.lft.to/lastmile_qr_scan", "ios": "https://dc.lft.to/lastmile_qr_scan"}, "name": "e5ddb09eb35d1610be54bedf8983a338", "type": "electric_bike"}, {"fusion_lat": 0.0, "bike_id": "9331280e4fb7cb11f9ad5cc0cafc4bef", "fusion_lon": 0.0, "lon": -77.03657016666666, "lat": 38.923444833333335, "is_reserved": 0, "is_disabled": 0, "rental_uris": {"android": "https://dc.lft.to/lastmile_qr_scan", "ios": "https://dc.lft.to/lastmile_qr_scan"}, "name": "9331280e4fb7cb11f9ad5cc0cafc4bef", "type": "electric_scooter"}, {"fusion_lat": 0.0, "bike_id": "04c35e9a1b7aa7f9c7732216438a1695", "fusion_lon": 0.0, "lon": -76.98713616666667, "lat": 38.8662955, "is_reserved": 0, "is_disabled": 0, "rental_uris": {"android": "https://dc.lft.to/lastmile_qr_scan", "ios": "https://dc.lft.to/lastmile_qr_scan"}, "name": "04c35e9a1b7aa7f9c7732216438a1695", "type": "electric_scooter"}, {"fusion_lat": 0.0, "bike_id": "ecc6f904f39534e1387b908906ae93f4", "fusion_lon": 0.0, "lon": -76.99941633333333, "lat": 38.907004, "is_reserved": 0, "is_disabled": 0, "rental_uris": {"android": "https://dc.lft.to/lastmile_qr_scan", "ios": "https://dc.lft.to/lastmile_qr_scan"}, "name": "ecc6f904f39534e1387b908906ae93f4", "type": "electric_scooter"}, {"fusion_lat": 0.0, "bike_id": "3cefc4ca07bdaff0e0214e6b17971295", "fusion_lon": 0.0, "lon": -77.05043983333333, "lat": 38.9053335, "is_reserved": 0, "is_disabled": 0, "rental_uris": {"android": "https://dc.lft.to/lastmile_qr_scan", "ios": "https://dc.lft.to/lastmile_qr_scan"}, "name": "3cefc4ca07bdaff0e0214e6b17971295", "type": "electric_scooter"}, {"fusion_lat": 0.0, "bike_id": "21cb43518fb4be2b750570d6688bdf5a", "fusion_lon": 0.0, "lon": -77.04255816666667, "lat": 38.90985283333333, "is_reserved": 0, "is_disabled": 0, "rental_uris": {"android": "https://dc.lft.to/lastmile_qr_scan", "ios": "https://dc.lft.to/lastmile_qr_scan"}, "name": "21cb43518fb4be2b750570d6688bdf5a", "type": "electric_scooter"}, {"fusion_lat": 0.0, "bike_id": "6f8104d154c3df494ae37ac47316772a", "fusion_lon": 0.0, "lon": -77.02887533333333, "lat": 38.932814666666665, "is_reserved": 0, "is_disabled": 0, "rental_uris": {"android": "https://dc.lft.to/lastmile_qr_scan", "ios": "https://dc.lft.to/lastmile_qr_scan"}, "name": "6f8104d154c3df494ae37ac47316772a", "type": "electric_scooter"}, {"fusion_lat": 0.0, "bike_id": "86645632a913f1127dceb9a033abcab5", "fusion_lon": 0.0, "lon": -77.04848983333333, "lat": 38.904946, "is_reserved": 0, "is_disabled": 0, "rental_uris": {"android": "https://dc.lft.to/lastmile_qr_scan", "ios": "https://dc.lft.to/lastmile_qr_scan"}, "name": "86645632a913f1127dceb9a033abcab5", "type": "electric_scooter"}, {"fusion_lat": 0.0, "bike_id": "ac28a534211654740fdb59c24fefff53", "fusion_lon": 0.0, "lon": -77.05319883333334, "lat": 38.90656366666666, "is_reserved": 0, "is_disabled": 0, "rental_uris": {"android": "https://dc.lft.to/lastmile_qr_scan", "ios": "https://dc.lft.to/lastmile_qr_scan"}, "name": "ac28a534211654740fdb59c24fefff53", "type": "electric_scooter"}, {"fusion_lat": 0.0, "bike_id": "1b4fe004428256ee7e468f00cb1baecb", "fusion_lon": 0.0, "lon": -76.93364616666666, "lat": 38.89914383333333, "is_reserved": 0, "is_disabled": 0, "rental_uris": {"android": "https://dc.lft.to/lastmile_qr_scan", "ios": "https://dc.lft.to/lastmile_qr_scan"}, "name": "1b4fe004428256ee7e468f00cb1baecb", "type": "electric_scooter"}, {"fusion_lat": 0.0, "bike_id": "0fb9105295177ee0eeb69f111a0fbfd7", "fusion_lon": 0.0, "lon": -76.98810116666667, "lat": 38.90046233333333, "is_reserved": 0, "is_disabled": 0, "rental_uris": {"android": "https://dc.lft.to/lastmile_qr_scan", "ios": "https://dc.lft.to/lastmile_qr_scan"}, "name": "0fb9105295177ee0eeb69f111a0fbfd7", "type": "electric_scooter"}, {"fusion_lat": 0.0, "bike_id": "34019164627c98d2eecfde50cb96e80d", "fusion_lon": 0.0, "lon": -77.040098, "lat": 38.907778, "is_reserved": 0, "is_disabled": 0, "rental_uris": {"android": "https://dc.lft.to/lastmile_qr_scan", "ios": "https://dc.lft.to/lastmile_qr_scan"}, "name": "34019164627c98d2eecfde50cb96e80d", "type": "electric_scooter"}, {"fusion_lat": 0.0, "bike_id": "4da811ab83d486f9dc8e8e8074c4e29d", "fusion_lon": 0.0, "lon": -76.94879116666667, "lat": 38.894280333333334, "is_reserved": 0, "is_disabled": 0, "rental_uris": {"android": "https://dc.lft.to/lastmile_qr_scan", "ios": "https://dc.lft.to/lastmile_qr_scan"}, "name": "4da811ab83d486f9dc8e8e8074c4e29d", "type": "electric_scooter"}, {"fusion_lat": 0.0, "bike_id": "de210faeeaa337793697b8440ee8b8ab", "fusion_lon": 0.0, "lon": -77.027027, "lat": 38.9498975, "is_reserved": 0, "is_disabled": 0, "rental_uris": {"android": "https://dc.lft.to/lastmile_qr_scan", "ios": "https://dc.lft.to/lastmile_qr_scan"}, "name": "de210faeeaa337793697b8440ee8b8ab", "type": "electric_scooter"}, {"fusion_lat": 0.0, "bike_id": "674e54475d2c9e496cb84a20e36dfdc1", "fusion_lon": 0.0, "lon": -77.021728, "lat": 38.887273, "is_reserved": 0, "is_disabled": 0, "rental_uris": {"android": "https://dc.lft.to/lastmile_qr_scan", "ios": "https://dc.lft.to/lastmile_qr_scan"}, "name": "674e54475d2c9e496cb84a20e36dfdc1", "type": "electric_scooter"}, {"fusion_lat": 0.0, "bike_id": "6bcab0f167afa78e79a5adbbf83792f3", "fusion_lon": 0.0, "lon": -76.995646, "lat": 38.8518, "is_reserved": 0, "is_disabled": 0, "rental_uris": {"android": "https://dc.lft.to/lastmile_qr_scan", "ios": "https://dc.lft.to/lastmile_qr_scan"}, "name": "6bcab0f167afa78e79a5adbbf83792f3", "type": "electric_bike"}, {"fusion_lat": 0.0, "bike_id": "0425699719fc48cee791df2e14c500cb", "fusion_lon": 0.0, "lon": -77.037581, "lat": 38.907811833333334, "is_reserved": 0, "is_disabled": 0, "rental_uris": {"android": "https://dc.lft.to/lastmile_qr_scan", "ios": "https://dc.lft.to/lastmile_qr_scan"}, "name": "0425699719fc48cee791df2e14c500cb", "type": "electric_scooter"}, {"fusion_lat": 0.0, "bike_id": "7e49b65b24da986434db77c5959f57e6", "fusion_lon": 0.0, "lon": -76.97766633333333, "lat": 38.951545333333335, "is_reserved": 0, "is_disabled": 0, "rental_uris": {"android": "https://dc.lft.to/lastmile_qr_scan", "ios": "https://dc.lft.to/lastmile_qr_scan"}, "name": "7e49b65b24da986434db77c5959f57e6", "type": "electric_bike"},