{"data": {"bikes": [{"bike_id": "96f3a708a8b54724a1e1b621eee26e76", "type": "electric_scooter", "is_disabled": 0, "lat": 38.90239666666667, "rental_uris": {"ios": "https://dc.lft.to/lastmile_qr_scan", "android": "https://dc.lft.to/lastmile_qr_scan"}, "is_reserved": 0, "fusion_lon": 0.0, "fusion_lat": 0.0, "lon": -77.04330816666666, "name": "96f3a708a8b54724a1e1b621eee26e76"}, {"bike_id": "7cad08fef0e05075ff52bd786d3b751c", "type": "electric_scooter", "is_disabled": 0, "lat": 38.8995625, "rental_uris": {"ios": "https://dc.lft.to/lastmile_qr_scan", "android": "https://dc.lft.to/lastmile_qr_scan"}, "is_reserved": 0, "fusion_lon": 0.0, "fusion_lat": 0.0, "lon": -77.0259055, "name": "7cad08fef0e05075ff52bd786d3b751c"}, {"bike_id": "e7e901e84c93176dd506ea52aa2012de", "type": "electric_scooter", "is_disabled": 0, "lat": 38.903264166666666, "rental_uris": {"ios": "https://dc.lft.to/lastmile_qr_scan", "android": "https://dc.lft.to/lastmile_qr_scan"}, "is_reserved": 0, "fusion_lon": 0.0, "fusion_lat": 0.0, "lon": -77.02193883333334, "name": "e7e901e84c93176dd506ea52aa2012de"}, {"bike_id": "2e69f528296aabf0e6c8d5e8c22e9182", "type": "electric_scooter", "is_disabled": 0, "lat": 38.876292166666666, "rental_uris": {"ios": "https://dc.lft.to/lastmile_qr_scan", "android": "https://dc.lft.to/lastmile_qr_scan"}, "is_reserved": 0, "fusion_lon": 0.0, "fusion_lat": 0.0, "lon": -76.96526883333334, "name": "2e69f528296aabf0e6c8d5e8c22e9182"}, {"bike_id": "92955d71cbf7bd1f30a5926e9086e632", "type": "electric_scooter", "is_disabled": 0, "lat": 38.907152333333336, "rental_uris": {"ios": "https://dc.lft.to/lastmile_qr_scan", "android": "https://dc.lft.to/lastmile_qr_scan"}, "is_reserved": 0, "fusion_lon": 0.0, "fusion_lat": 0.0, "lon": -77.04489116666667, "name": "92955d71cbf7bd1f30a5926e9086e632"}, {"bike_id": "95208b50c85773c5acbe72057cc06417", "type": "electric_scooter", "is_disabled": 0, "lat": 38.93041383333333, "rental_uris": {"ios": "https://dc.lft.to/lastmile_qr_scan", "android": "https://dc.lft.to/lastmile_qr_scan"}, "is_reserved": 0, "fusion_lon": 0.0, "fusion_lat": 0.0, "lon": -77.029582, "name": "95208b50c85773c5acbe72057cc06417"}, {"bike_id": "5e09430a3ce8ca660ee3e1ed62e901f5", "type": "electric_scooter", "is_disabled": 0, "lat": 38.9205455, "rental_uris": {"ios": "https://dc.lft.to/lastmile_qr_scan", "android": "https://dc.lft.to/lastmile_qr_scan"}, "is_reserved": 0, "fusion_lon": 0.0, "fusion_lat": 0.0, "lon": -76.998742, "name": "5e09430a3ce8ca660ee3e1ed62e901f5"}, {"bike_id": "d52c53abbdf39488d75f198dc6fe7726", "type": "electric_scooter", "is_disabled": 0, "lat": 38.9561445, "rental_uris": {"ios": "https://dc.lft.to/lastmile_qr_scan", "android": "https://dc.lft.to/lastmile_qr_scan"}, "is_reserved": 0, "fusion_lon": 0.0, "fusion_lat": 0.0, "lon": -77.01021716666666, "name": "d52c53abbdf39488d75f198dc6fe7726"}, {"bike_id": "d2fab6edca74825233722856d10152ad", "type": "electric_scooter", "is_disabled": 0, "lat": 38.94016416666667, "rental_uris": {"ios": "https://dc.lft.to/lastmile_qr_scan", "android": "https://dc.lft.to/lastmile_qr_scan"}, "is_reserved": 0, "fusion_lon": 0.0, "fusion_lat": 0.0, "lon": -77.02640416666667, "name": "d2fab6edca74825233722856d10152ad"}, {"bike_id": "22a684334174a7c8b516e78a7c0dcfe2", "type": "electric_scooter", "is_disabled": 0, "lat": 38.917233833333334, "rental_uris": {"ios": "https://dc.lft.to/lastmile_qr_scan", "android": "https://dc.lft.to/lastmile_qr_scan"}, "is_reserved": 0, "fusion_lon": 0.0, "fusion_lat": 0.0, "lon": -77.019087, "name": "22a684334174a7c8b516e78a7c0dcfe2"}, {"bike_id": "64e540216e19c3ce44e2f5c1d81fc17d", "type": "electric_scooter", "is_disabled": 0, "lat": 38.87677466666667, "rental_uris": {"ios": "https://dc.lft.to/lastmile_qr_scan", "android": "https://dc.lft.to/lastmile_qr_scan"}, "is_reserved": 0, "fusion_lon": 0.0, "fusion_lat": 0.0, "lon": -77.00808766666667, "name": "64e540216e19c3ce44e2f5c1d81fc17d"}, {"bike_id": "f834a3cf965df6c991d28fcd22d3b053", "type": "electric_scooter", "is_disabled": 0, "lat": 38.93958266666667, "rental_uris": {"ios": "https://dc.lft.to/lastmile_qr_scan", "android": "https://dc.lft.to/lastmile_qr_scan"}, "is_reserved": 0, "fusion_lon": 0.0, "fusion_lat": 0.0, "lon": -77.060698, "name": "f834a3cf965df6c991d28fcd22d3b053"}, {"bike_id": "9e5f931b2b7b8c5e50f0804dc7dfa752", "type": "electric_scooter", "is_disabled": 0, "lat": 38.9038975, "rental_uris": {"ios": "https://dc.lft.to/lastmile_qr_scan", "android": "https://dc.lft.to/lastmile_qr_scan"}, "is_reserved": 0, "fusion_lon": 0.0, "fusion_lat": 0.0, "lon": -77.00886033333333, "name": "9e5f931b2b7b8c5e50f0804dc7dfa752"}, {"bike_id": "f093a1d5badc7dad90850a19d3dab5c6", "type": "electric_scooter", "is_disabled": 0, "lat": 38.957342, "rental_uris": {"ios": "https://dc.lft.to/lastmile_qr_scan", "android": "https://dc.lft.to/lastmile_qr_scan"}, "is_reserved": 0, "fusion_lon": 0.0, "fusion_lat": 0.0, "lon": -77.02798716666666, "name": "f093a1d5badc7dad90850a19d3dab5c6"}, {"bike_id": "ba1993e41f8950b8637d4d4b766b26b0", "type": "electric_scooter", "is_disabled": 0, "lat": 38.9218015, "rental_uris": {"ios": "https://dc.lft.to/lastmile_qr_scan", "android": "https://dc.lft.to/lastmile_qr_scan"}, "is_reserved": 0, "fusion_lon": 0.0, "fusion_lat": 0.0, "lon": -76.99788583333333, "name": "ba1993e41f8950b8637d4d4b766b26b0"}, {"bike_id": "066506c92e9ebf8ceb95dede95ab5498", "type": "electric_scooter", "is_disabled": 0, "lat": 38.914839, "rental_uris": {"ios": "https://dc.lft.to/lastmile_qr_scan", "android": "https://dc.lft.to/lastmile_qr_scan"}, "is_reserved": 0, "fusion_lon": 0.0, "fusion_lat": 0.0, "lon": -77.00286016666666, "name": "066506c92e9ebf8ceb95dede95ab5498"}, {"bike_id": "05df63d90623062fdda2f6ee2a058126", "type": "electric_scooter", "is_disabled": 0, "lat": 38.8650555, "rental_uris": {"ios": "https://dc.lft.to/lastmile_qr_scan", "android": "https://dc.lft.to/lastmile_qr_scan"}, "is_reserved": 0, "fusion_lon": 0.0, "fusion_lat": 0.0, "lon": -76.98998316666666, "name": "05df63d90623062fdda2f6ee2a058126"}, {"bike_id": "21814587afe762680a1424a5caa41ae4", "type": "electric_scooter", "is_disabled": 0, "lat": 38.87495466666667, "rental_uris": {"ios": "https://dc.lft.to/lastmile_qr_scan", "android": "https://dc.lft.to/lastmile_qr_scan"}, "is_reserved": 0, "fusion_lon": 0.0, "fusion_lat": 0.0, "lon": -77.00096316666666, "name": "21814587afe762680a1424a5caa41ae4"}, {"bike_id": "a080b93b79883606ae2a46c11e733aef", "type": "electric_scooter", "is_disabled": 0, "lat": 38.91565683333334, "rental_uris": {"ios": "https://dc.lft.to/lastmile_qr_scan", "android": "https://dc.lft.to/lastmile_qr_scan"}, "is_reserved": 0, "fusion_lon": 0.0, "fusion_lat": 0.0, "lon": -77.0257155, "name": "a080b93b79883606ae2a46c11e733aef"}, {"bike_id": "3456b9f33165452215bd43882d75a9a2", "type": "electric_scooter", "is_disabled": 0, "lat": 38.91846266666667, "rental_uris": {"ios": "https://dc.lft.to/lastmile_qr_scan", "android": "https://dc.lft.to/lastmile_qr_scan"}, "is_reserved": 0, "fusion_lon": 0.0, "fusion_lat": 0.0, "lon": -76.96553516666667, "name": "3456b9f33165452215bd43882d75a9a2"}, {"bike_id": "fcf2e2bfb8b217c6252cedb268f21fed", "type": "electric_scooter", "is_disabled": 0, "lat": 38.909704833333336, "rental_uris": {"ios": "https://dc.lft.to/lastmile_qr_scan", "android": "https://dc.lft.to/lastmile_qr_scan"}, "is_reserved": 0, "fusion_lon": 0.0, "fusion_lat": 0.0, "lon": -77.03238783333333, "name": "fcf2e2bfb8b217c6252cedb268f21fed"}, {"bike_id": "9b4119aa2c35c67eba78550197bd29b4", "type": "electric_scooter", "is_disabled": 0, "lat": 38.919126, "rental_uris": {"ios": "https://dc.lft.to/lastmile_qr_scan", "android": "https://dc.lft.to/lastmile_qr_scan"}, "is_reserved": 0, "fusion_lon": 0.0, "fusion_lat": 0.0, "lon": -77.03202233333333, "name": "9b4119aa2c35c67eba78550197bd29b4"}, {"bike_id": "0d959e0a21c5b6d3cbe2750be32c2cee", "type": "electric_scooter", "is_disabled": 0, "lat": 38.91637583333333, "rental_uris": {"ios": "https://dc.lft.to/lastmile_qr_scan", "android": "https://dc.lft.to/lastmile_qr_scan"}, "is_reserved": 0, "fusion_lon": 0.0, "fusion_lat": 0.0, "lon": -77.00044883333334, "name": "0d959e0a21c5b6d3cbe2750be32c2cee"}, {"bike_id": "b22e33dc4ba1c982ee4bf37913597dbd", "type": "electric_scooter", "is_disabled": 0, "lat": 38.9042335, "rental_uris": {"ios": "https://dc.lft.to/lastmile_qr_scan", "android": "https://dc.lft.to/lastmile_qr_scan"}, "is_reserved": 0, "fusion_lon": 0.0, "fusion_lat": 0.0, "lon": -76.99068083333333, "name": "b22e33dc4ba1c982ee4bf37913597dbd"}, {"bike_id": "26549aad8750bbc43e6a2d288509106e", "type": "electric_scooter", "is_disabled": 0, "lat": 38.89804266666667, "rental_uris": {"ios": "https://dc.lft.to/lastmile_qr_scan", "android": "https://dc.lft.to/lastmile_qr_scan"}, "is_reserved": 0, "fusion_lon": 0.0, "fusion_lat": 0.0, "lon": -77.02478266666667, "name": "26549aad8750bbc43e6a2d288509106e"}, {"bike_id": "1eab2b0cc536fb3bd1bd9ce718a13145", "type": "electric_scooter", "is_disabled": 0, "lat": 38.891972833333334, "rental_uris": {"ios": "https://dc.lft.to/lastmile_qr_scan", "android": "https://dc.lft.to/lastmile_qr_scan"}, "is_reserved": 0, "fusion_lon": 0.0, "fusion_lat": 0.0, "lon": -76.99943783333333, "name": "1eab2b0cc536fb3bd1bd9ce718a13145"}, {"bike_id": "cec1a663a1d2f7b095aa61fd5728d0e0", "type": "electric_scooter", "is_disabled": 0, "lat": 38.904003, "rental_uris": {"ios": "https://dc.lft.to/lastmile_qr_scan", "android": "https://dc.lft.to/lastmile_qr_scan"}, "is_reserved": 0, "fusion_lon": 0.0, "fusion_lat": 0.0, "lon": -77.067739, "name": "cec1a663a1d2f7b095aa61fd5728d0e0"}, {"bike_id": "585eb575b4e9ad150f21d90afce2b0ff", "type": "electric_scooter", "is_disabled": 0, "lat": 38.956541, "rental_uris": {"ios": "https://dc.lft.to/lastmile_qr_scan", "android": "https://dc.lft.to/lastmile_qr_scan"}, "is_reserved": 0, "fusion_lon": 0.0, "fusion_lat": 0.0, "lon": -77.0196145, "name": "585eb575b4e9ad150f21d90afce2b0ff"}, {"bike_id": "1be5ce27795d01a9f3c60b9aea10aff6", "type": "electric_scooter", "is_disabled": 0, "lat": 38.86213433333333, "rental_uris": {"ios": "https://dc.lft.to/lastmile_qr_scan", "android": "https://dc.lft.to/lastmile_qr_scan"}, "is_reserved": 0, "fusion_lon": 0.0, "fusion_lat": 0.0, "lon": -76.99470083333334, "name": "1be5ce27795d01a9f3c60b9aea10aff6"}, {"bike_id": "f075d78efb879bfc1cfcff497f9b1f41", "type": "electric_scooter", "is_disabled": 0, "lat": 38.9061195, "rental_uris": {"ios": "https://dc.lft.to/lastmile_qr_scan", "android": "https://dc.lft.to/lastmile_qr_scan"}, "is_reserved": 0, "fusion_lon": 0.0, "fusion_lat": 0.0, "lon": -77.01621016666667, "name": "f075d78efb879bfc1cfcff497f9b1f41"}, {"bike_id": "f41644d4da42c019bb3e1b2b74a92838", "type": "electric_scooter", "is_disabled": 0, "lat": 38.92855383333333, "rental_uris": {"ios": "https://dc.lft.to/lastmile_qr_scan", "android": "https://dc.lft.to/lastmile_qr_scan"}, "is_reserved": 0, "fusion_lon": 0.0, "fusion_lat": 0.0, "lon": -77.0357755, "name": "f41644d4da42c019bb3e1b2b74a92838"}, {"bike_id": "707bc99a0fb0a44309bb5eecbaaca73d", "type": "electric_scooter", "is_disabled": 0, "lat": 38.90142483333333, "rental_uris": {"ios": "https://dc.lft.to/lastmile_qr_scan", "android": "https://dc.lft.to/lastmile_qr_scan"}, "is_reserved": 0, "fusion_lon": 0.0, "fusion_lat": 0.0, "lon": -77.038691, "name": "707bc99a0fb0a44309bb5eecbaaca73d"}, {"bike_id": "e358179e68aef8f2e9b3a04835dd7a5b", "type": "electric_scooter", "is_disabled": 0, "lat": 38.908293666666665, "rental_uris": {"ios": "https://dc.lft.to/lastmile_qr_scan", "android": "https://dc.lft.to/lastmile_qr_scan"}, "is_reserved": 0, "fusion_lon": 0.0, "fusion_lat": 0.0, "lon": -77.02716083333334, "name": "e358179e68aef8f2e9b3a04835dd7a5b"}, {"bike_id": "928a7bace71d606ebf6797f69c8884c5", "type": "electric_scooter", "is_disabled": 0, "lat": 38.914737333333335, "rental_uris": {"ios": "https://dc.lft.to/lastmile_qr_scan", "android": "https://dc.lft.to/lastmile_qr_scan"}, "is_reserved": 0, "fusion_lon": 0.0, "fusion_lat": 0.0, "lon": -77.032117, "name": "928a7bace71d606ebf6797f69c8884c5"}, {"bike_id": "f2c8055355a92071e9739adab2977eae", "type": "electric_scooter", "is_disabled": 0, "lat": 38.92313816666667, "rental_uris": {"ios": "https://dc.lft.to/lastmile_qr_scan", "android": "https://dc.lft.to/lastmile_qr_scan"}, "is_reserved": 0, "fusion_lon": 0.0, "fusion_lat": 0.0, "lon": -77.0417895, "name": "f2c8055355a92071e9739adab2977eae"}, {"bike_id": "3080076bd9e05cfca00b8e0fc4c49d82", "type": "electric_scooter", "is_disabled": 0, "lat": 38.911353, "rental_uris": {"ios": "https://dc.lft.to/lastmile_qr_scan", "android": "https://dc.lft.to/lastmile_qr_scan"}, "is_reserved": 0, "fusion_lon": 0.0, "fusion_lat": 0.0, "lon": -77.02812683333333, "name": "3080076bd9e05cfca00b8e0fc4c49d82"}, {"bike_id": "95b0471788722d7849dee58c68404e32", "type": "electric_scooter", "is_disabled": 0, "lat": 38.890359833333335, "rental_uris": {"ios": "https://dc.lft.to/lastmile_qr_scan", "android": "https://dc.lft.to/lastmile_qr_scan"}, "is_reserved": 0, "fusion_lon": 0.0, "fusion_lat": 0.0, "lon": -76.9374915, "name": "95b0471788722d7849dee58c68404e32"}, {"bike_id": "7a3b3eff9a28be9bc26b9f02b7915687", "type": "electric_scooter", "is_disabled": 0, "lat": 38.9153105, "rental_uris": {"ios": "https://dc.lft.to/lastmile_qr_scan", "android": "https://dc.lft.to/lastmile_qr_scan"}, "is_reserved": 0, "fusion_lon": 0.0, "fusion_lat": 0.0, "lon": -77.02001316666667, "name": "7a3b3eff9a28be9bc26b9f02b7915687"}, {"bike_id": "b2fa5d1ea75d8f72d9abc15af1338e63", "type": "electric_scooter", "is_disabled": 0, "lat": 38.909573333333334, "rental_uris": {"ios": "https://dc.lft.to/lastmile_qr_scan", "android": "https://dc.lft.to/lastmile_qr_scan"}, "is_reserved": 0, "fusion_lon": 0.0, "fusion_lat": 0.0, "lon": -77.048626, "name": "b2fa5d1ea75d8f72d9abc15af1338e63"}, {"bike_id": "cb675b4002d63750ecdc12ac3ce2d507", "type": "electric_scooter", "is_disabled": 0, "lat": 38.90049633333334, "rental_uris": {"ios": "https://dc.lft.to/lastmile_qr_scan", "android": "https://dc.lft.to/lastmile_qr_scan"}, "is_reserved": 0, "fusion_lon": 0.0, "fusion_lat": 0.0, "lon": -77.00061633333334, "name": "cb675b4002d63750ecdc12ac3ce2d507"}, {"bike_id": "4b95e0d72144ad92e43d768d9577e742", "type": "electric_bike", "is_disabled": 0, "lat": 38.99588283333333, "rental_uris": {"ios": "https://dc.lft.to/lastmile_qr_scan", "android": "https://dc.lft.to/lastmile_qr_scan"}, "is_reserved": 0, "fusion_lon": 0.0, "fusion_lat": 0.0, "lon": -77.02677366666667, "name": "4b95e0d72144ad92e43d768d9577e742"}, {"bike_id": "e60bc169052b46eaa2d1b1b52d01b2e1", "type": "electric_scooter", "is_disabled": 0, "lat": 38.933083833333335, "rental_uris": {"ios": "https://dc.lft.to/lastmile_qr_scan", "android": "https://dc.lft.to/lastmile_qr_scan"}, "is_reserved": 0, "fusion_lon": 0.0, "fusion_lat": 0.0, "lon": -77.03260916666666, "name": "e60bc169052b46eaa2d1b1b52d01b2e1"}, {"bike_id": "2e9e0eac2a0d1a39a0167fc4eba5aeac", "type": "electric_scooter", "is_disabled": 0, "lat": 38.91300283333333, "rental_uris": {"ios": "https://dc.lft.to/lastmile_qr_scan", "android": "https://dc.lft.to/lastmile_qr_scan"}, "is_reserved": 0, "fusion_lon": 0.0, "fusion_lat": 0.0, "lon": -77.04549466666667, "name": "2e9e0eac2a0d1a39a0167fc4eba5aeac"}, {"bike_id": "503bcf8b2bf42f77979ddaf00c246132", "type": "electric_scooter", "is_disabled": 0, "lat": 38.910305666666666, "rental_uris": {"ios": "https://dc.lft.to/lastmile_qr_scan", "android": "https://dc.lft.to/lastmile_qr_scan"}, "is_reserved": 0, "fusion_lon": 0.0, "fusion_lat": 0.0, "lon": -77.00756583333333, "name": "503bcf8b2bf42f77979ddaf00c246132"}, {"bike_id": "4ac2304968842f2776b8424c7452e04c", "type": "electric_scooter", "is_disabled": 0, "lat": 38.91420383333333, "rental_uris": {"ios": "https://dc.lft.to/lastmile_qr_scan", "android": "https://dc.lft.to/lastmile_qr_scan"}, "is_reserved": 0, "fusion_lon": 0.0, "fusion_lat": 0.0, "lon": -77.0480785, "name": "4ac2304968842f2776b8424c7452e04c"}, {"bike_id": "0b2e5e8c16890cc47b43f4636459f65d", "type": "electric_scooter", "is_disabled": 0, "lat": 38.89241616666666, "rental_uris": {"ios": "https://dc.lft.to/lastmile_qr_scan", "android": "https://dc.lft.to/lastmile_qr_scan"}, "is_reserved": 0, "fusion_lon": 0.0, "fusion_lat": 0.0, "lon": -77.0220375, "name": "0b2e5e8c16890cc47b43f4636459f65d"}, {"bike_id": "d9d7157ecf75ede3cdcb2f3a75e64f00", "type": "electric_scooter", "is_disabled": 0, "lat": 38.86660166666667, "rental_uris": {"ios": "https://dc.lft.to/lastmile_qr_scan", "android": "https://dc.lft.to/lastmile_qr_scan"}, "is_reserved": 0, "fusion_lon": 0.0, "fusion_lat": 0.0, "lon": -76.98884816666667, "name": "d9d7157ecf75ede3cdcb2f3a75e64f00"}, {"bike_id": "c40c6d7291fdb240beb6745b0d72e70f", "type": "electric_bike", "is_disabled": 0, "lat": 38.872721, "rental_uris": {"ios": "https://dc.lft.to/lastmile_qr_scan", "android": "https://dc.lft.to/lastmile_qr_scan"}, "is_reserved": 0, "fusion_lon": 0.0, "fusion_lat": 0.0, "lon": -77.23248716666667, "name": "c40c6d7291fdb240beb6745b0d72e70f"}, {"bike_id": "a84ccdd5b6347322edc2f1d1e9f7a643", "type": "electric_scooter", "is_disabled": 0, "lat": 38.93401683333333, "rental_uris": {"ios": "https://dc.lft.to/lastmile_qr_scan", "android": "https://dc.lft.to/lastmile_qr_scan"}, "is_reserved": 0, "fusion_lon": 0.0, "fusion_lat": 0.0, "lon": -77.022108, "name": "a84ccdd5b6347322edc2f1d1e9f7a643"}, {"bike_id": "5ba2bb9e0faafa054bf9175e2a133e5e", "type": "electric_bike", "is_disabled": 0, "lat": 38.91013216666666, "rental_uris": {"ios": "https://dc.lft.to/lastmile_qr_scan", "android": "https://dc.lft.to/lastmile_qr_scan"}, "is_reserved": 0, "fusion_lon": 0.0, "fusion_lat": 0.0, "lon": -77.22798283333333, "name": "5ba2bb9e0faafa054bf9175e2a133e5e"}, {"bike_id": "27fdb238c550d08a26cffa13bf29978e", "type": "electric_scooter", "is_disabled": 0, "lat": 38.8698345, "rental_uris": {"ios": "https://dc.lft.to/lastmile_qr_scan", "android": "https://dc.lft.to/lastmile_qr_scan"}, "is_reserved": 0, "fusion_lon": 0.0, "fusion_lat": 0.0, "lon": -76.9816775, "name": "27fdb238c550d08a26cffa13bf29978e"}, {"bike_id": "4e2b50d67cb5695a68bb788d31e01b56", "type": "electric_bike", "is_disabled": 0, "lat": 38.8806305, "rental_uris": {"ios": "https://dc.lft.to/lastmile_qr_scan", "android": "https://dc.lft.to/lastmile_qr_scan"}, "is_reserved": 0, "fusion_lon": 0.0, "fusion_lat": 0.0, "lon": -76.96242166666667, "name": "4e2b50d67cb5695a68bb788d31e01b56"}, {"bike_id": "2c643e64176665e934f694105808400e", "type": "electric_scooter", "is_disabled": 0, "lat": 38.924412333333336, "rental_uris": {"ios": "https://dc.lft.to/lastmile_qr_scan", "android": "https://dc.lft.to/lastmile_qr_scan"}, "is_reserved": 0, "fusion_lon": 0.0, "fusion_lat": 0.0, "lon": -77.04030333333333, "name": "2c643e64176665e934f694105808400e"}, {"bike_id": "3260f1d8dd83693a0653eba77745b3e0", "type": "electric_scooter", "is_disabled": 0, "lat": 38.92306816666667, "rental_uris": {"ios": "https://dc.lft.to/lastmile_qr_scan", "android": "https://dc.lft.to/lastmile_qr_scan"}, "is_reserved": 0, "fusion_lon": 0.0, "fusion_lat": 0.0, "lon": -77.04153283333333, "name": "3260f1d8dd83693a0653eba77745b3e0"}, {"bike_id": "6cf1420fde45c39e96bd4a3f3e32ecd3", "type": "electric_scooter", "is_disabled": 0, "lat": 38.902336166666664, "rental_uris": {"ios": "https://dc.lft.to/lastmile_qr_scan", "android": "https://dc.lft.to/lastmile_qr_scan"}, "is_reserved": 0, "fusion_lon": 0.0, "fusion_lat": 0.0, "lon": -77.04036533333333, "name": "6cf1420fde45c39e96bd4a3f3e32ecd3"}, {"bike_id": "eb4a6a85780128aa8148c10b0cd68e6d", "type": "electric_scooter", "is_disabled": 0, "lat": 38.90030216666667, "rental_uris": {"ios": "https://dc.lft.to/lastmile_qr_scan", "android": "https://dc.lft.to/lastmile_qr_scan"}, "is_reserved": 0, "fusion_lon": 0.0, "fusion_lat": 0.0, "lon": -77.00188383333334, "name": "eb4a6a85780128aa8148c10b0cd68e6d"}, {"bike_id": "8983f98d2cfe764dba814091ee974be9", "type": "electric_scooter", "is_disabled": 0, "lat": 38.9479165, "rental_uris": {"ios": "https://dc.lft.to/lastmile_qr_scan", "android": "https://dc.lft.to/lastmile_qr_scan"}, "is_reserved": 0, "fusion_lon": 0.0, "fusion_lat": 0.0, "lon": -77.021339, "name": "8983f98d2cfe764dba814091ee974be9"}, {"bike_id": "272fac261f9e0e0bf660d575f149b615", "type": "electric_scooter", "is_disabled": 0, "lat": 38.912203, "rental_uris": {"ios": "https://dc.lft.to/lastmile_qr_scan", "android": "https://dc.lft.to/lastmile_qr_scan"}, "is_reserved": 0, "fusion_lon": 0.0, "fusion_lat": 0.0, "lon": -77.03839833333333, "name": "272fac261f9e0e0bf660d575f149b615"}, {"bike_id": "1b5ffbd6e0b138a5e8bf74a6690bd1dc", "type": "electric_scooter", "is_disabled": 0, "lat": 38.887104, "rental_uris": {"ios": "https://dc.lft.to/lastmile_qr_scan", "android": "https://dc.lft.to/lastmile_qr_scan"}, "is_reserved": 0, "fusion_lon": 0.0, "fusion_lat": 0.0, "lon": -77.02205633333334, "name": "1b5ffbd6e0b138a5e8bf74a6690bd1dc"}, {"bike_id": "726af305787ef14154ce669c99fd23d2", "type": "electric_scooter", "is_disabled": 0, "lat": 38.915594, "rental_uris": {"ios": "https://dc.lft.to/lastmile_qr_scan", "android": "https://dc.lft.to/lastmile_qr_scan"}, "is_reserved": 0, "fusion_lon": 0.0, "fusion_lat": 0.0, "lon": -77.03177633333334, "name": "726af305787ef14154ce669c99fd23d2"}, {"bike_id": "c3f83d32ccbfe75a7e44be2de466d9d6", "type": "electric_scooter", "is_disabled": 0, "lat": 38.917622, "rental_uris": {"ios": "https://dc.lft.to/lastmile_qr_scan", "android": "https://dc.lft.to/lastmile_qr_scan"}, "is_reserved": 0, "fusion_lon": 0.0, "fusion_lat": 0.0, "lon": -77.02397816666667, "name": "c3f83d32ccbfe75a7e44be2de466d9d6"}, {"bike_id": "76c29772656b77d7c9366df9cb662459", "type": "electric_scooter", "is_disabled": 0, "lat": 38.922962, "rental_uris": {"ios": "https://dc.lft.to/lastmile_qr_scan", "android": "https://dc.lft.to/lastmile_qr_scan"}, "is_reserved": 0, "fusion_lon": 0.0, "fusion_lat": 0.0, "lon": -77.073221, "name": "76c29772656b77d7c9366df9cb662459"}, {"bike_id": "d6fc7811c268c0e18d61ff499cc43a3a", "type": "electric_scooter", "is_disabled": 0, "lat": 38.892974333333335, "rental_uris": {"ios": "https://dc.lft.to/lastmile_qr_scan", "android": "https://dc.lft.to/lastmile_qr_scan"}, "is_reserved": 0, "fusion_lon": 0.0, "fusion_lat": 0.0, "lon": -77.04873083333334, "name": "d6fc7811c268c0e18d61ff499cc43a3a"}, {"bike_id": "942f7fb1bd3dd3fb09cc38fc366afc63", "type": "electric_scooter", "is_disabled": 0, "lat": 38.8922015, "rental_uris": {"ios": "https://dc.lft.to/lastmile_qr_scan", "android": "https://dc.lft.to/lastmile_qr_scan"}, "is_reserved": 0, "fusion_lon": 0.0, "fusion_lat": 0.0, "lon": -77.02913616666666, "name": "942f7fb1bd3dd3fb09cc38fc366afc63"}, {"bike_id": "138547fb0fb1a0a8f5cb6b40ac6d4b7c", "type": "electric_scooter", "is_disabled": 0, "lat": 38.9183215, "rental_uris": {"ios": "https://dc.lft.to/lastmile_qr_scan", "android": "https://dc.lft.to/lastmile_qr_scan"}, "is_reserved": 0, "fusion_lon": 0.0, "fusion_lat": 0.0, "lon": -77.0394065, "name": "138547fb0fb1a0a8f5cb6b40ac6d4b7c"}, {"bike_id": "593dce0e959317f097807fcbc328fa6c", "type": "electric_scooter", "is_disabled": 0, "lat": 38.93687116666667, "rental_uris": {"ios": "https://dc.lft.to/lastmile_qr_scan", "android": "https://dc.lft.to/lastmile_qr_scan"}, "is_reserved": 0, "fusion_lon": 0.0, "fusion_lat": 0.0, "lon": -77.06616816666667, "name": "593dce0e959317f097807fcbc328fa6c"}, {"bike_id": "a9d8652b798084016024ff0487e43ef9", "type": "electric_scooter", "is_disabled": 0, "lat": 38.922164333333335, "rental_uris": {"ios": "https://dc.lft.to/lastmile_qr_scan", "android": "https://dc.lft.to/lastmile_qr_scan"}, "is_reserved": 0, "fusion_lon": 0.0, "fusion_lat": 0.0, "lon": -77.04241383333333, "name": "a9d8652b798084016024ff0487e43ef9"}, {"bike_id": "03d94e668c61c15d3c19223a6195fd00", "type": "electric_scooter", "is_disabled": 0, "lat": 38.917710166666666, "rental_uris": {"ios": "https://dc.lft.to/lastmile_qr_scan", "android": "https://dc.lft.to/lastmile_qr_scan"}, "is_reserved": 0, "fusion_lon": 0.0, "fusion_lat": 0.0, "lon": -77.04060366666667, "name": "03d94e668c61c15d3c19223a6195fd00"}, {"bike_id": "61f571fcb7d41d06daaf47db6e211749", "type": "electric_scooter", "is_disabled": 0, "lat": 38.89243183333333, "rental_uris": {"ios": "https://dc.lft.to/lastmile_qr_scan", "android": "https://dc.lft.to/lastmile_qr_scan"}, "is_reserved": 0, "fusion_lon": 0.0, "fusion_lat": 0.0, "lon": -77.01721033333334, "name": "61f571fcb7d41d06daaf47db6e211749"}, {"bike_id": "82cbd52bdd4a1d5eefdeee3350f53b7c", "type": "electric_scooter", "is_disabled": 0, "lat": 38.90893716666667, "rental_uris": {"ios": "https://dc.lft.to/lastmile_qr_scan", "android": "https://dc.lft.to/lastmile_qr_scan"}, "is_reserved": 0, "fusion_lon": 0.0, "fusion_lat": 0.0, "lon": -77.04497583333334, "name": "82cbd52bdd4a1d5eefdeee3350f53b7c"}, {"bike_id": "69af608d366df5c73edd599c25ef00db", "type": "electric_scooter", "is_disabled": 0, "lat": 38.90210833333333, "rental_uris": {"ios": "https://dc.lft.to/lastmile_qr_scan", "android": "https://dc.lft.to/lastmile_qr_scan"}, "is_reserved": 0, "fusion_lon": 0.0, "fusion_lat": 0.0, "lon": -77.01569416666666, "name": "69af608d366df5c73edd599c25ef00db"}, {"bike_id": "bfdde53d7e6069e24ebb8b246c3e4037", "type": "electric_scooter", "is_disabled": 0, "lat": 38.905717333333335, "rental_uris": {"ios": "https://dc.lft.to/lastmile_qr_scan", "android": "https://dc.lft.to/lastmile_qr_scan"}, "is_reserved": 0, "fusion_lon": 0.0, "fusion_lat": 0.0, "lon": -77.042425, "name": "bfdde53d7e6069e24ebb8b246c3e4037"}, {"bike_id": "a353dc800b251769aee188a6f0048e40", "type": "electric_scooter", "is_disabled": 0, "lat": 38.893587833333335, "rental_uris": {"ios": "https://dc.lft.to/lastmile_qr_scan", "android": "https://dc.lft.to/lastmile_qr_scan"}, "is_reserved": 0, "fusion_lon": 0.0, "fusion_lat": 0.0, "lon": -76.94932133333333, "name": "a353dc800b251769aee188a6f0048e40"}, {"bike_id": "a15c766de4599248b7632d915ee9a2a5", "type": "electric_scooter", "is_disabled": 0, "lat": 38.88863116666667, "rental_uris": {"ios": "https://dc.lft.to/lastmile_qr_scan", "android": "https://dc.lft.to/lastmile_qr_scan"}, "is_reserved": 0, "fusion_lon": 0.0, "fusion_lat": 0.0, "lon": -76.991407, "name": "a15c766de4599248b7632d915ee9a2a5"}, {"bike_id": "212c34c2fde90f19614c469038af7890", "type": "electric_scooter", "is_disabled": 0, "lat": 38.90558033333333, "rental_uris": {"ios": "https://dc.lft.to/lastmile_qr_scan", "android": "https://dc.lft.to/lastmile_qr_scan"}, "is_reserved": 0, "fusion_lon": 0.0, "fusion_lat": 0.0, "lon": -77.06530233333334, "name": "212c34c2fde90f19614c469038af7890"}, {"bike_id": "2f283f460d356170a3e9386853520b42", "type": "electric_scooter", "is_disabled": 0, "lat": 38.919638666666664, "rental_uris": {"ios": "https://dc.lft.to/lastmile_qr_scan", "android": "https://dc.lft.to/lastmile_qr_scan"}, "is_reserved": 0, "fusion_lon": 0.0, "fusion_lat": 0.0, "lon": -77.04273083333334, "name": "2f283f460d356170a3e9386853520b42"}, {"bike_id": "df5796033e93295498fd028309928895", "type": "electric_scooter", "is_disabled": 0, "lat": 38.911801833333335, "rental_uris": {"ios": "https://dc.lft.to/lastmile_qr_scan", "android": "https://dc.lft.to/lastmile_qr_scan"}, "is_reserved": 0, "fusion_lon": 0.0, "fusion_lat": 0.0, "lon": -77.03186216666667, "name": "df5796033e93295498fd028309928895"}, {"bike_id": "c33b63ed48a775688730e757b8d478d8", "type": "electric_scooter", "is_disabled": 0, "lat": 38.846398666666666, "rental_uris": {"ios": "https://dc.lft.to/lastmile_qr_scan", "android": "https://dc.lft.to/lastmile_qr_scan"}, "is_reserved": 0, "fusion_lon": 0.0, "fusion_lat": 0.0, "lon": -76.99128316666666, "name": "c33b63ed48a775688730e757b8d478d8"}, {"bike_id": "a3d8bc63b22fe85852654c5d5d0ed2b9", "type": "electric_bike", "is_disabled": 0, "lat": 38.82174633333333, "rental_uris": {"ios": "https://dc.lft.to/lastmile_qr_scan", "android": "https://dc.lft.to/lastmile_qr_scan"}, "is_reserved": 0, "fusion_lon": 0.0, "fusion_lat": 0.0, "lon": -76.99510983333333, "name": "a3d8bc63b22fe85852654c5d5d0ed2b9"}, {"bike_id": "5486119720dc2842ccce6f430ac19e53", "type": "electric_bike", "is_disabled": 0, "lat": 38.8960955, "rental_uris": {"ios": "https://dc.lft.to/lastmile_qr_scan", "android": "https://dc.lft.to/lastmile_qr_scan"}, "is_reserved": 0, "fusion_lon": 0.0, "fusion_lat": 0.0, "lon": -77.03000833333333, "name": "5486119720dc2842ccce6f430ac19e53"}, {"bike_id": "5775e7f6ee23001f941ed33b73154a1c", "type": "electric_scooter", "is_disabled": 0, "lat": 38.89226033333333, "rental_uris": {"ios": "https://dc.lft.to/lastmile_qr_scan", "android": "https://dc.lft.to/lastmile_qr_scan"}, "is_reserved": 0, "fusion_lon": 0.0, "fusion_lat": 0.0, "lon": -77.03228066666667, "name": "5775e7f6ee23001f941ed33b73154a1c"}, {"bike_id": "7b1cc527f9777f73b9efb53f6f53ae4b", "type": "electric_scooter", "is_disabled": 0, "lat": 38.8835435, "rental_uris": {"ios": "https://dc.lft.to/lastmile_qr_scan", "android": "https://dc.lft.to/lastmile_qr_scan"}, "is_reserved": 0, "fusion_lon": 0.0, "fusion_lat": 0.0, "lon": -76.99489133333333, "name": "7b1cc527f9777f73b9efb53f6f53ae4b"}, {"bike_id": "11e2d956315cbcbcfa91e0db0269d224", "type": "electric_scooter", "is_disabled": 0, "lat": 38.930746666666664, "rental_uris": {"ios": "https://dc.lft.to/lastmile_qr_scan", "android": "https://dc.lft.to/lastmile_qr_scan"}, "is_reserved": 0, "fusion_lon": 0.0, "fusion_lat": 0.0, "lon": -77.02548316666666, "name": "11e2d956315cbcbcfa91e0db0269d224"}, {"bike_id": "e0a3e6f8fd35fb9d07e6f6720d2f816c", "type": "electric_bike", "is_disabled": 0, "lat": 39.043144166666664, "rental_uris": {"ios": "https://dc.lft.to/lastmile_qr_scan", "android": "https://dc.lft.to/lastmile_qr_scan"}, "is_reserved": 0, "fusion_lon": 0.0, "fusion_lat": 0.0, "lon": -77.05159433333333, "name": "e0a3e6f8fd35fb9d07e6f6720d2f816c"}, {"bike_id": "f247e79e893ad7ed8f38e2ed2c50f8ca", "type": "electric_scooter", "is_disabled": 0, "lat": 38.871625, "rental_uris": {"ios": "https://dc.lft.to/lastmile_qr_scan", "android": "https://dc.lft.to/lastmile_qr_scan"}, "is_reserved": 0, "fusion_lon": 0.0, "fusion_lat": 0.0, "lon": -77.01350366666667, "name": "f247e79e893ad7ed8f38e2ed2c50f8ca"}, {"bike_id": "cc41d5c674cba8d0216d79322c14c08e", "type": "electric_scooter", "is_disabled": 0, "lat": 38.924619166666666, "rental_uris": {"ios": "https://dc.lft.to/lastmile_qr_scan", "android": "https://dc.lft.to/lastmile_qr_scan"}, "is_reserved": 0, "fusion_lon": 0.0, "fusion_lat": 0.0, "lon": -77.02267033333334, "name": "cc41d5c674cba8d0216d79322c14c08e"}, {"bike_id": "a4ebc6bfa98fddfd1fabdce207c7799b", "type": "electric_scooter", "is_disabled": 0, "lat": 38.918384833333334, "rental_uris": {"ios": "https://dc.lft.to/lastmile_qr_scan", "android": "https://dc.lft.to/lastmile_qr_scan"}, "is_reserved": 0, "fusion_lon": 0.0, "fusion_lat": 0.0, "lon": -77.0394615, "name": "a4ebc6bfa98fddfd1fabdce207c7799b"}, {"bike_id": "39d6165f8dc8d682c4c8592af0caf18d", "type": "electric_scooter", "is_disabled": 0, "lat": 38.90368316666667, "rental_uris": {"ios": "https://dc.lft.to/lastmile_qr_scan", "android": "https://dc.lft.to/lastmile_qr_scan"}, "is_reserved": 0, "fusion_lon": 0.0, "fusion_lat": 0.0, "lon": -76.99942766666666, "name": "39d6165f8dc8d682c4c8592af0caf18d"}, {"bike_id": "9bdc0493346bee9cd30e3bd982b3a9db", "type": "electric_scooter", "is_disabled": 0, "lat": 38.8893405, "rental_uris": {"ios": "https://dc.lft.to/lastmile_qr_scan", "android": "https://dc.lft.to/lastmile_qr_scan"}, "is_reserved": 0, "fusion_lon": 0.0, "fusion_lat": 0.0, "lon": -76.935806, "name": "9bdc0493346bee9cd30e3bd982b3a9db"}, {"bike_id": "f5f3e285a25ea99927734d30df07a629", "type": "electric_scooter", "is_disabled": 0, "lat": 38.916937833333336, "rental_uris": {"ios": "https://dc.lft.to/lastmile_qr_scan", "android": "https://dc.lft.to/lastmile_qr_scan"}, "is_reserved": 0, "fusion_lon": 0.0, "fusion_lat": 0.0, "lon": -77.03212333333333, "name": "f5f3e285a25ea99927734d30df07a629"}, {"bike_id": "a2e9701c4af58362951f792a31327e7c", "type": "electric_scooter", "is_disabled": 0, "lat": 38.911397666666666, "rental_uris": {"ios": "https://dc.lft.to/lastmile_qr_scan", "android": "https://dc.lft.to/lastmile_qr_scan"}, "is_reserved": 0, "fusion_lon": 0.0, "fusion_lat": 0.0, "lon": -77.065321, "name": "a2e9701c4af58362951f792a31327e7c"}, {"bike_id": "2aa6d5c4f6f46cc983393b2608b6089b", "type": "electric_scooter", "is_disabled": 0, "lat": 38.90381933333333, "rental_uris": {"ios": "https://dc.lft.to/lastmile_qr_scan", "android": "https://dc.lft.to/lastmile_qr_scan"}, "is_reserved": 0, "fusion_lon": 0.0, "fusion_lat": 0.0, "lon": -77.06857983333333, "name": "2aa6d5c4f6f46cc983393b2608b6089b"}, {"bike_id": "e534cb709ca5c79f7bac86019169553a", "type": "electric_scooter", "is_disabled": 0, "lat": 38.897988, "rental_uris": {"ios": "https://dc.lft.to/lastmile_qr_scan", "android": "https://dc.lft.to/lastmile_qr_scan"}, "is_reserved": 0, "fusion_lon": 0.0, "fusion_lat": 0.0, "lon": -77.023737, "name": "e534cb709ca5c79f7bac86019169553a"}, {"bike_id": "7d4e4202c1fb0feb986dbf824093f233", "type": "electric_scooter", "is_disabled": 0, "lat": 38.937193, "rental_uris": {"ios": "https://dc.lft.to/lastmile_qr_scan", "android": "https://dc.lft.to/lastmile_qr_scan"}, "is_reserved": 0, "fusion_lon": 0.0, "fusion_lat": 0.0, "lon": -76.990501, "name": "7d4e4202c1fb0feb986dbf824093f233"}, {"bike_id": "99a96528136a85a086a4f4c39974dfae", "type": "electric_scooter", "is_disabled": 0, "lat": 38.91272333333333, "rental_uris": {"ios": "https://dc.lft.to/lastmile_qr_scan", "android": "https://dc.lft.to/lastmile_qr_scan"}, "is_reserved": 0, "fusion_lon": 0.0, "fusion_lat": 0.0, "lon": -77.05159466666667, "name": "99a96528136a85a086a4f4c39974dfae"}, {"bike_id": "3672f0107965f8495d57020034bf84e0", "type": "electric_scooter", "is_disabled": 0, "lat": 38.920184666666664, "rental_uris": {"ios": "https://dc.lft.to/lastmile_qr_scan", "android": "https://dc.lft.to/lastmile_qr_scan"}, "is_reserved": 0, "fusion_lon": 0.0, "fusion_lat": 0.0, "lon": -77.02005783333334, "name": "3672f0107965f8495d57020034bf84e0"}, {"bike_id": "b23261776c82a612eddbfc2cbc102222", "type": "electric_scooter", "is_disabled": 0, "lat": 38.882698166666664, "rental_uris": {"ios": "https://dc.lft.to/lastmile_qr_scan", "android": "https://dc.lft.to/lastmile_qr_scan"}, "is_reserved": 0, "fusion_lon": 0.0, "fusion_lat": 0.0, "lon": -76.99251116666667, "name": "b23261776c82a612eddbfc2cbc102222"}, {"bike_id": "4572ce4bc26fc6b9fa37ecf7642ec5f6", "type": "electric_scooter", "is_disabled": 0, "lat": 38.92156, "rental_uris": {"ios": "https://dc.lft.to/lastmile_qr_scan", "android": "https://dc.lft.to/lastmile_qr_scan"}, "is_reserved": 0, "fusion_lon": 0.0, "fusion_lat": 0.0, "lon": -77.03318133333333, "name": "4572ce4bc26fc6b9fa37ecf7642ec5f6"}, {"bike_id": "63f7d5071a51e49ae2181007400f6cfe", "type": "electric_scooter", "is_disabled": 0, "lat": 38.913266, "rental_uris": {"ios": "https://dc.lft.to/lastmile_qr_scan", "android": "https://dc.lft.to/lastmile_qr_scan"}, "is_reserved": 0, "fusion_lon": 0.0, "fusion_lat": 0.0, "lon": -77.03178583333333, "name": "63f7d5071a51e49ae2181007400f6cfe"}, {"bike_id": "81c9e434ee914960bc6a701b0dce06b4", "type": "electric_scooter", "is_disabled": 0, "lat": 38.93154083333334, "rental_uris": {"ios": "https://dc.lft.to/lastmile_qr_scan", "android": "https://dc.lft.to/lastmile_qr_scan"}, "is_reserved": 0, "fusion_lon": 0.0, "fusion_lat": 0.0, "lon": -77.03342766666667, "name": "81c9e434ee914960bc6a701b0dce06b4"}, {"bike_id": "b3ce756b790282d5f04536643b0e622d", "type": "electric_scooter", "is_disabled": 0, "lat": 38.94331433333333, "rental_uris": {"ios": "https://dc.lft.to/lastmile_qr_scan", "android": "https://dc.lft.to/lastmile_qr_scan"}, "is_reserved": 0, "fusion_lon": 0.0, "fusion_lat": 0.0, "lon": -77.01481266666667, "name": "b3ce756b790282d5f04536643b0e622d"}, {"bike_id": "3d2b47063843080d204dda561ac995fc", "type": "electric_scooter", "is_disabled": 0, "lat": 38.909786, "rental_uris": {"ios": "https://dc.lft.to/lastmile_qr_scan", "android": "https://dc.lft.to/lastmile_qr_scan"}, "is_reserved": 0, "fusion_lon": 0.0, "fusion_lat": 0.0, "lon": -77.04632716666667, "name": "3d2b47063843080d204dda561ac995fc"}, {"bike_id": "5da289f1af7a629f5649b1f32cf70cfa", "type": "electric_scooter", "is_disabled": 0, "lat": 38.8994755, "rental_uris": {"ios": "https://dc.lft.to/lastmile_qr_scan", "android": "https://dc.lft.to/lastmile_qr_scan"}, "is_reserved": 0, "fusion_lon": 0.0, "fusion_lat": 0.0, "lon": -77.00340916666667, "name": "5da289f1af7a629f5649b1f32cf70cfa"}, {"bike_id": "dfaddd174593fb823004e714ab08abc1", "type": "electric_scooter", "is_disabled": 0, "lat": 38.9182685, "rental_uris": {"ios": "https://dc.lft.to/lastmile_qr_scan", "android": "https://dc.lft.to/lastmile_qr_scan"}, "is_reserved": 0, "fusion_lon": 0.0, "fusion_lat": 0.0, "lon": -77.04942, "name": "dfaddd174593fb823004e714ab08abc1"}, {"bike_id": "8e617ff955c376dcfd4fad013f2c728e", "type": "electric_bike", "is_disabled": 0, "lat": 39.05282116666667, "rental_uris": {"ios": "https://dc.lft.to/lastmile_qr_scan", "android": "https://dc.lft.to/lastmile_qr_scan"}, "is_reserved": 0, "fusion_lon": 0.0, "fusion_lat": 0.0, "lon": -77.08071916666667, "name": "8e617ff955c376dcfd4fad013f2c728e"}, {"bike_id": "b910b58c26dc47d97bc2fa469c68cfa3", "type": "electric_scooter", "is_disabled": 0, "lat": 38.867005666666664, "rental_uris": {"ios": "https://dc.lft.to/lastmile_qr_scan", "android": "https://dc.lft.to/lastmile_qr_scan"}, "is_reserved": 0, "fusion_lon": 0.0, "fusion_lat": 0.0, "lon": -76.98716883333333, "name": "b910b58c26dc47d97bc2fa469c68cfa3"}, {"bike_id": "1fcf24663e4bff773fe7b92ec669785a", "type": "electric_scooter", "is_disabled": 0, "lat": 38.9170235, "rental_uris": {"ios": "https://dc.lft.to/lastmile_qr_scan", "android": "https://dc.lft.to/lastmile_qr_scan"}, "is_reserved": 0, "fusion_lon": 0.0, "fusion_lat": 0.0, "lon": -77.00655416666666, "name": "1fcf24663e4bff773fe7b92ec669785a"}, {"bike_id": "816dca1151d1ae283219859261ad6ec4", "type": "electric_scooter", "is_disabled": 0, "lat": 38.9312785, "rental_uris": {"ios": "https://dc.lft.to/lastmile_qr_scan", "android": "https://dc.lft.to/lastmile_qr_scan"}, "is_reserved": 0, "fusion_lon": 0.0, "fusion_lat": 0.0, "lon": -76.99573383333333, "name": "816dca1151d1ae283219859261ad6ec4"}, {"bike_id": "6559c57e8cd30bb8324468037d71654f", "type": "electric_scooter", "is_disabled": 0, "lat": 38.91682633333333, "rental_uris": {"ios": "https://dc.lft.to/lastmile_qr_scan", "android": "https://dc.lft.to/lastmile_qr_scan"}, "is_reserved": 0, "fusion_lon": 0.0, "fusion_lat": 0.0, "lon": -77.02950266666667, "name": "6559c57e8cd30bb8324468037d71654f"}, {"bike_id": "ab342cd73d0dac3375c3c193e4e2c84a", "type": "electric_scooter", "is_disabled": 0, "lat": 38.933399333333334, "rental_uris": {"ios": "https://dc.lft.to/lastmile_qr_scan", "android": "https://dc.lft.to/lastmile_qr_scan"}, "is_reserved": 0, "fusion_lon": 0.0, "fusion_lat": 0.0, "lon": -77.0205835, "name": "ab342cd73d0dac3375c3c193e4e2c84a"}, {"bike_id": "376ef9a9a3809a299e3ebb50e4fbb9e1", "type": "electric_scooter", "is_disabled": 0, "lat": 38.9071365, "rental_uris": {"ios": "https://dc.lft.to/lastmile_qr_scan", "android": "https://dc.lft.to/lastmile_qr_scan"}, "is_reserved": 0, "fusion_lon": 0.0, "fusion_lat": 0.0, "lon": -77.02390716666666, "name": "376ef9a9a3809a299e3ebb50e4fbb9e1"}, {"bike_id": "3b1bdc709cb7c49df2bb6eea7f4e2d1d", "type": "electric_scooter", "is_disabled": 0, "lat": 38.9474835, "rental_uris": {"ios": "https://dc.lft.to/lastmile_qr_scan", "android": "https://dc.lft.to/lastmile_qr_scan"}, "is_reserved": 0, "fusion_lon": 0.0, "fusion_lat": 0.0, "lon": -77.075903, "name": "3b1bdc709cb7c49df2bb6eea7f4e2d1d"}, {"bike_id": "d738fe17b27b9d8332672262f639d80f", "type": "electric_scooter", "is_disabled": 0, "lat": 38.9084635, "rental_uris": {"ios": "https://dc.lft.to/lastmile_qr_scan", "android": "https://dc.lft.to/lastmile_qr_scan"}, "is_reserved": 0, "fusion_lon": 0.0, "fusion_lat": 0.0, "lon": -77.0233625, "name": "d738fe17b27b9d8332672262f639d80f"}, {"bike_id": "9f78597645b52f9d265df1e2ba9a5a15", "type": "electric_scooter", "is_disabled": 0, "lat": 38.8870975, "rental_uris": {"ios": "https://dc.lft.to/lastmile_qr_scan", "android": "https://dc.lft.to/lastmile_qr_scan"}, "is_reserved": 0, "fusion_lon": 0.0, "fusion_lat": 0.0, "lon": -77.02211216666667, "name": "9f78597645b52f9d265df1e2ba9a5a15"}, {"bike_id": "b3cbc359a1facb8839233e3a829dad69", "type": "electric_scooter", "is_disabled": 0, "lat": 38.90611583333333, "rental_uris": {"ios": "https://dc.lft.to/lastmile_qr_scan", "android": "https://dc.lft.to/lastmile_qr_scan"}, "is_reserved": 0, "fusion_lon": 0.0, "fusion_lat": 0.0, "lon": -77.06299766666666, "name": "b3cbc359a1facb8839233e3a829dad69"}, {"bike_id": "2070e300159393496f504c58c8badcb4", "type": "electric_scooter", "is_disabled": 0, "lat": 38.9181955, "rental_uris": {"ios": "https://dc.lft.to/lastmile_qr_scan", "android": "https://dc.lft.to/lastmile_qr_scan"}, "is_reserved": 0, "fusion_lon": 0.0, "fusion_lat": 0.0, "lon": -77.02709333333334, "name": "2070e300159393496f504c58c8badcb4"}, {"bike_id": "142f2e499d3566bdf6ad9d23621bf02c", "type": "electric_scooter", "is_disabled": 0, "lat": 38.89220316666667, "rental_uris": {"ios": "https://dc.lft.to/lastmile_qr_scan", "android": "https://dc.lft.to/lastmile_qr_scan"}, "is_reserved": 0, "fusion_lon": 0.0, "fusion_lat": 0.0, "lon": -77.04651666666666, "name": "142f2e499d3566bdf6ad9d23621bf02c"}, {"bike_id": "5a5fc494e1a5c3b70c7e0ddd7135fb7e", "type": "electric_scooter", "is_disabled": 0, "lat": 38.8922325, "rental_uris": {"ios": "https://dc.lft.to/lastmile_qr_scan", "android": "https://dc.lft.to/lastmile_qr_scan"}, "is_reserved": 0, "fusion_lon": 0.0, "fusion_lat": 0.0, "lon": -77.04190166666666, "name": "5a5fc494e1a5c3b70c7e0ddd7135fb7e"}, {"bike_id": "6338b5342874d3ec5deb09de96630800", "type": "electric_scooter", "is_disabled": 0, "lat": 38.921626, "rental_uris": {"ios": "https://dc.lft.to/lastmile_qr_scan", "android": "https://dc.lft.to/lastmile_qr_scan"}, "is_reserved": 0, "fusion_lon": 0.0, "fusion_lat": 0.0, "lon": -77.03847083333334, "name": "6338b5342874d3ec5deb09de96630800"}, {"bike_id": "4868363a35578696a58a8b61e850ebed", "type": "electric_scooter", "is_disabled": 0, "lat": 38.886606666666665, "rental_uris": {"ios": "https://dc.lft.to/lastmile_qr_scan", "android": "https://dc.lft.to/lastmile_qr_scan"}, "is_reserved": 0, "fusion_lon": 0.0, "fusion_lat": 0.0, "lon": -77.03382183333333, "name": "4868363a35578696a58a8b61e850ebed"}, {"bike_id": "ea150d40b518a036171ad0f2a3e07282", "type": "electric_scooter", "is_disabled": 0, "lat": 38.926709833333334, "rental_uris": {"ios": "https://dc.lft.to/lastmile_qr_scan", "android": "https://dc.lft.to/lastmile_qr_scan"}, "is_reserved": 0, "fusion_lon": 0.0, "fusion_lat": 0.0, "lon": -77.0147665, "name": "ea150d40b518a036171ad0f2a3e07282"}, {"bike_id": "fa4fee292e4e072c47cf1ccb0013549f", "type": "electric_scooter", "is_disabled": 0, "lat": 38.896927833333336, "rental_uris": {"ios": "https://dc.lft.to/lastmile_qr_scan", "android": "https://dc.lft.to/lastmile_qr_scan"}, "is_reserved": 0, "fusion_lon": 0.0, "fusion_lat": 0.0, "lon": -76.99966083333334, "name": "fa4fee292e4e072c47cf1ccb0013549f"}, {"bike_id": "871df664667063b1efd0d9572b5f4b96", "type": "electric_scooter", "is_disabled": 0, "lat": 38.887262166666666, "rental_uris": {"ios": "https://dc.lft.to/lastmile_qr_scan", "android": "https://dc.lft.to/lastmile_qr_scan"}, "is_reserved": 0, "fusion_lon": 0.0, "fusion_lat": 0.0, "lon": -76.98353783333333, "name": "871df664667063b1efd0d9572b5f4b96"}, {"bike_id": "65908bf8ee8aa48c92e6e3a6ef37684b", "type": "electric_scooter", "is_disabled": 0, "lat": 38.91325233333333, "rental_uris": {"ios": "https://dc.lft.to/lastmile_qr_scan", "android": "https://dc.lft.to/lastmile_qr_scan"}, "is_reserved": 0, "fusion_lon": 0.0, "fusion_lat": 0.0, "lon": -77.026896, "name": "65908bf8ee8aa48c92e6e3a6ef37684b"}, {"bike_id": "d353124d6c033a7ab91cee7052141d4c", "type": "electric_scooter", "is_disabled": 0, "lat": 38.923905500000004, "rental_uris": {"ios": "https://dc.lft.to/lastmile_qr_scan", "android": "https://dc.lft.to/lastmile_qr_scan"}, "is_reserved": 0, "fusion_lon": 0.0, "fusion_lat": 0.0, "lon": -77.02974416666666, "name": "d353124d6c033a7ab91cee7052141d4c"}, {"bike_id": "9e3fa384444ea4e0cc7381d031d2fca1", "type": "electric_scooter", "is_disabled": 0, "lat": 38.8973545, "rental_uris": {"ios": "https://dc.lft.to/lastmile_qr_scan", "android": "https://dc.lft.to/lastmile_qr_scan"}, "is_reserved": 0, "fusion_lon": 0.0, "fusion_lat": 0.0, "lon": -77.045283, "name": "9e3fa384444ea4e0cc7381d031d2fca1"}, {"bike_id": "ec42c4bb8184f2332b5ed8d720715101", "type": "electric_scooter", "is_disabled": 0, "lat": 38.9363835, "rental_uris": {"ios": "https://dc.lft.to/lastmile_qr_scan", "android": "https://dc.lft.to/lastmile_qr_scan"}, "is_reserved": 0, "fusion_lon": 0.0, "fusion_lat": 0.0, "lon": -77.0588905, "name": "ec42c4bb8184f2332b5ed8d720715101"}, {"bike_id": "998a0e8419c0d91df9ea3e10ed5b10c6", "type": "electric_scooter", "is_disabled": 0, "lat": 38.920175666666665, "rental_uris": {"ios": "https://dc.lft.to/lastmile_qr_scan", "android": "https://dc.lft.to/lastmile_qr_scan"}, "is_reserved": 0, "fusion_lon": 0.0, "fusion_lat": 0.0, "lon": -77.01315033333333, "name": "998a0e8419c0d91df9ea3e10ed5b10c6"}, {"bike_id": "bdb3cd10232f1af56f2308d9d5221534", "type": "electric_scooter", "is_disabled": 0, "lat": 38.94211516666667, "rental_uris": {"ios": "https://dc.lft.to/lastmile_qr_scan", "android": "https://dc.lft.to/lastmile_qr_scan"}, "is_reserved": 0, "fusion_lon": 0.0, "fusion_lat": 0.0, "lon": -77.02578616666666, "name": "bdb3cd10232f1af56f2308d9d5221534"}, {"bike_id": "22bdbb7665ca86aad86888001d4b88d7", "type": "electric_scooter", "is_disabled": 0, "lat": 38.909535166666664, "rental_uris": {"ios": "https://dc.lft.to/lastmile_qr_scan", "android": "https://dc.lft.to/lastmile_qr_scan"}, "is_reserved": 0, "fusion_lon": 0.0, "fusion_lat": 0.0, "lon": -77.03226366666667, "name": "22bdbb7665ca86aad86888001d4b88d7"}, {"bike_id": "2029a5a98a0c9994a91aa53e2b385e05", "type": "electric_scooter", "is_disabled": 0, "lat": 38.916344, "rental_uris": {"ios": "https://dc.lft.to/lastmile_qr_scan", "android": "https://dc.lft.to/lastmile_qr_scan"}, "is_reserved": 0, "fusion_lon": 0.0, "fusion_lat": 0.0, "lon": -77.03042916666666, "name": "2029a5a98a0c9994a91aa53e2b385e05"}, {"bike_id": "44f9139ee46e1d00fbe9de778003b254", "type": "electric_scooter", "is_disabled": 0, "lat": 38.920108, "rental_uris": {"ios": "https://dc.lft.to/lastmile_qr_scan", "android": "https://dc.lft.to/lastmile_qr_scan"}, "is_reserved": 0, "fusion_lon": 0.0, "fusion_lat": 0.0, "lon": -77.02466016666666, "name": "44f9139ee46e1d00fbe9de778003b254"}, {"bike_id": "4947abb6885f177f60d9992ffac410e5", "type": "electric_scooter", "is_disabled": 0, "lat": 38.90677866666667, "rental_uris": {"ios": "https://dc.lft.to/lastmile_qr_scan", "android": "https://dc.lft.to/lastmile_qr_scan"}, "is_reserved": 0, "fusion_lon": 0.0, "fusion_lat": 0.0, "lon": -77.02696016666667, "name": "4947abb6885f177f60d9992ffac410e5"}, {"bike_id": "fdbce9cf3a24cef95ef22705b8626af1", "type": "electric_scooter", "is_disabled": 0, "lat": 38.91666583333333, "rental_uris": {"ios": "https://dc.lft.to/lastmile_qr_scan", "android": "https://dc.lft.to/lastmile_qr_scan"}, "is_reserved": 0, "fusion_lon": 0.0, "fusion_lat": 0.0, "lon": -77.02383333333333, "name": "fdbce9cf3a24cef95ef22705b8626af1"}, {"bike_id": "7eec6155bb6434a896778fc158d675b2", "type": "electric_scooter", "is_disabled": 0, "lat": 38.91034616666666, "rental_uris": {"ios": "https://dc.lft.to/lastmile_qr_scan", "android": "https://dc.lft.to/lastmile_qr_scan"}, "is_reserved": 0, "fusion_lon": 0.0, "fusion_lat": 0.0, "lon": -77.03803966666666, "name": "7eec6155bb6434a896778fc158d675b2"}, {"bike_id": "64910f18cdcb8c1cdaaf07a72ea00ea2", "type": "electric_scooter", "is_disabled": 0, "lat": 38.912469333333334, "rental_uris": {"ios": "https://dc.lft.to/lastmile_qr_scan", "android": "https://dc.lft.to/lastmile_qr_scan"}, "is_reserved": 0, "fusion_lon": 0.0, "fusion_lat": 0.0, "lon": -77.02223983333333, "name": "64910f18cdcb8c1cdaaf07a72ea00ea2"}, {"bike_id": "09d4cacf7d61aa58bb03b65e9bbd6410", "type": "electric_scooter", "is_disabled": 0, "lat": 38.942911, "rental_uris": {"ios": "https://dc.lft.to/lastmile_qr_scan", "android": "https://dc.lft.to/lastmile_qr_scan"}, "is_reserved": 0, "fusion_lon": 0.0, "fusion_lat": 0.0, "lon": -77.02170366666667, "name": "09d4cacf7d61aa58bb03b65e9bbd6410"}, {"bike_id": "7bac8aa348c5a6b292ddc51af71327d1", "type": "electric_scooter", "is_disabled": 0, "lat": 38.90237066666667, "rental_uris": {"ios": "https://dc.lft.to/lastmile_qr_scan", "android": "https://dc.lft.to/lastmile_qr_scan"}, "is_reserved": 0, "fusion_lon": 0.0, "fusion_lat": 0.0, "lon": -77.02938983333334, "name": "7bac8aa348c5a6b292ddc51af71327d1"}, {"bike_id": "b2c1fe4bb5f23e1cc2c6574f6a04f1af", "type": "electric_scooter", "is_disabled": 0, "lat": 38.9097365, "rental_uris": {"ios": "https://dc.lft.to/lastmile_qr_scan", "android": "https://dc.lft.to/lastmile_qr_scan"}, "is_reserved": 0, "fusion_lon": 0.0, "fusion_lat": 0.0, "lon": -77.03630016666666, "name": "b2c1fe4bb5f23e1cc2c6574f6a04f1af"}, {"bike_id": "778e6632ac505c511e66a8cc8fbccb74", "type": "electric_scooter", "is_disabled": 0, "lat": 38.895014, "rental_uris": {"ios": "https://dc.lft.to/lastmile_qr_scan", "android": "https://dc.lft.to/lastmile_qr_scan"}, "is_reserved": 0, "fusion_lon": 0.0, "fusion_lat": 0.0, "lon": -77.010877, "name": "778e6632ac505c511e66a8cc8fbccb74"}, {"bike_id": "ecccf33bc596d836ae9a95b92fc06cc0", "type": "electric_scooter", "is_disabled": 0, "lat": 38.919034333333336, "rental_uris": {"ios": "https://dc.lft.to/lastmile_qr_scan", "android": "https://dc.lft.to/lastmile_qr_scan"}, "is_reserved": 0, "fusion_lon": 0.0, "fusion_lat": 0.0, "lon": -77.036993, "name": "ecccf33bc596d836ae9a95b92fc06cc0"}, {"bike_id": "f8605fff3376282f1f97b56675d90a3d", "type": "electric_scooter", "is_disabled": 0, "lat": 38.907149, "rental_uris": {"ios": "https://dc.lft.to/lastmile_qr_scan", "android": "https://dc.lft.to/lastmile_qr_scan"}, "is_reserved": 0, "fusion_lon": 0.0, "fusion_lat": 0.0, "lon": -77.02392916666666, "name": "f8605fff3376282f1f97b56675d90a3d"}, {"bike_id": "392d0e2123b12ad646e1a8eb8977ef4c", "type": "electric_scooter", "is_disabled": 0, "lat": 38.90721666666666, "rental_uris": {"ios": "https://dc.lft.to/lastmile_qr_scan", "android": "https://dc.lft.to/lastmile_qr_scan"}, "is_reserved": 0, "fusion_lon": 0.0, "fusion_lat": 0.0, "lon": -77.02624783333333, "name": "392d0e2123b12ad646e1a8eb8977ef4c"}, {"bike_id": "06dde9d1303dfe8a75b5b5e6111a36f4", "type": "electric_scooter", "is_disabled": 0, "lat": 38.940784666666666, "rental_uris": {"ios": "https://dc.lft.to/lastmile_qr_scan", "android": "https://dc.lft.to/lastmile_qr_scan"}, "is_reserved": 0, "fusion_lon": 0.0, "fusion_lat": 0.0, "lon": -77.061083, "name": "06dde9d1303dfe8a75b5b5e6111a36f4"}, {"bike_id": "952afdc7557e451569adebc7fcf1c5c9", "type": "electric_scooter", "is_disabled": 0, "lat": 38.9133045, "rental_uris": {"ios": "https://dc.lft.to/lastmile_qr_scan", "android": "https://dc.lft.to/lastmile_qr_scan"}, "is_reserved": 0, "fusion_lon": 0.0, "fusion_lat": 0.0, "lon": -77.04524816666667, "name": "952afdc7557e451569adebc7fcf1c5c9"}, {"bike_id": "7fd7ae44d6e5594afdb74a775134961e", "type": "electric_bike", "is_disabled": 0, "lat": 38.8236855, "rental_uris": {"ios": "https://dc.lft.to/lastmile_qr_scan", "android": "https://dc.lft.to/lastmile_qr_scan"}, "is_reserved": 0, "fusion_lon": 0.0, "fusion_lat": 0.0, "lon": -77.00219333333334, "name": "7fd7ae44d6e5594afdb74a775134961e"}, {"bike_id": "dbaacbe84d6e2a035651de5334f8c30d", "type": "electric_bike", "is_disabled": 0, "lat": 38.859353, "rental_uris": {"ios": "https://dc.lft.to/lastmile_qr_scan", "android": "https://dc.lft.to/lastmile_qr_scan"}, "is_reserved": 0, "fusion_lon": 0.0, "fusion_lat": 0.0, "lon": -77.11830766666667, "name": "dbaacbe84d6e2a035651de5334f8c30d"}, {"bike_id": "f87c5a2f78c7f74966ec2373e9af3a7f", "type": "electric_scooter", "is_disabled": 0, "lat": 38.89236783333333, "rental_uris": {"ios": "https://dc.lft.to/lastmile_qr_scan", "android": "https://dc.lft.to/lastmile_qr_scan"}, "is_reserved": 0, "fusion_lon": 0.0, "fusion_lat": 0.0, "lon": -77.02604183333334, "name": "f87c5a2f78c7f74966ec2373e9af3a7f"}, {"bike_id": "d7ebdc077da956d770caf21577148279", "type": "electric_scooter", "is_disabled": 0, "lat": 38.9164735, "rental_uris": {"ios": "https://dc.lft.to/lastmile_qr_scan", "android": "https://dc.lft.to/lastmile_qr_scan"}, "is_reserved": 0, "fusion_lon": 0.0, "fusion_lat": 0.0, "lon": -77.02185383333334, "name": "d7ebdc077da956d770caf21577148279"}, {"bike_id": "60a15a13c6311d0ce073329246c88252", "type": "electric_scooter", "is_disabled": 0, "lat": 38.91995383333333, "rental_uris": {"ios": "https://dc.lft.to/lastmile_qr_scan", "android": "https://dc.lft.to/lastmile_qr_scan"}, "is_reserved": 0, "fusion_lon": 0.0, "fusion_lat": 0.0, "lon": -77.01779816666667, "name": "60a15a13c6311d0ce073329246c88252"}, {"bike_id": "d5a30c503d075906721f585baae08bc2", "type": "electric_scooter", "is_disabled": 0, "lat": 38.9160775, "rental_uris": {"ios": "https://dc.lft.to/lastmile_qr_scan", "android": "https://dc.lft.to/lastmile_qr_scan"}, "is_reserved": 0, "fusion_lon": 0.0, "fusion_lat": 0.0, "lon": -77.03398316666667, "name": "d5a30c503d075906721f585baae08bc2"}, {"bike_id": "51ba19bc9d97de1cb1794e422fa87021", "type": "electric_scooter", "is_disabled": 0, "lat": 38.92067733333333, "rental_uris": {"ios": "https://dc.lft.to/lastmile_qr_scan", "android": "https://dc.lft.to/lastmile_qr_scan"}, "is_reserved": 0, "fusion_lon": 0.0, "fusion_lat": 0.0, "lon": -77.04699516666666, "name": "51ba19bc9d97de1cb1794e422fa87021"}, {"bike_id": "5d9a651b9a57dfcad5ab241b3be0323d", "type": "electric_scooter", "is_disabled": 0, "lat": 38.86504733333334, "rental_uris": {"ios": "https://dc.lft.to/lastmile_qr_scan", "android": "https://dc.lft.to/lastmile_qr_scan"}, "is_reserved": 0, "fusion_lon": 0.0, "fusion_lat": 0.0, "lon": -76.99001466666667, "name": "5d9a651b9a57dfcad5ab241b3be0323d"}, {"bike_id": "870436cc6c2379cc4491968979dffaf6", "type": "electric_scooter", "is_disabled": 0, "lat": 38.92258616666667, "rental_uris": {"ios": "https://dc.lft.to/lastmile_qr_scan", "android": "https://dc.lft.to/lastmile_qr_scan"}, "is_reserved": 0, "fusion_lon": 0.0, "fusion_lat": 0.0, "lon": -77.0352045, "name": "870436cc6c2379cc4491968979dffaf6"}, {"bike_id": "c46aa8a519183294df1a27adc39ae536", "type": "electric_scooter", "is_disabled": 0, "lat": 38.91955, "rental_uris": {"ios": "https://dc.lft.to/lastmile_qr_scan", "android": "https://dc.lft.to/lastmile_qr_scan"}, "is_reserved": 0, "fusion_lon": 0.0, "fusion_lat": 0.0, "lon": -77.04150616666666, "name": "c46aa8a519183294df1a27adc39ae536"}, {"bike_id": "a437beb99acdfef639cbaa96860598b1", "type": "electric_scooter", "is_disabled": 0, "lat": 38.923977666666666, "rental_uris": {"ios": "https://dc.lft.to/lastmile_qr_scan", "android": "https://dc.lft.to/lastmile_qr_scan"}, "is_reserved": 0, "fusion_lon": 0.0, "fusion_lat": 0.0, "lon": -77.04473116666666, "name": "a437beb99acdfef639cbaa96860598b1"}, {"bike_id": "61f3bc8587073e52b303ac0757b35688", "type": "electric_scooter", "is_disabled": 0, "lat": 38.9055855, "rental_uris": {"ios": "https://dc.lft.to/lastmile_qr_scan", "android": "https://dc.lft.to/lastmile_qr_scan"}, "is_reserved": 0, "fusion_lon": 0.0, "fusion_lat": 0.0, "lon": -77.02198266666667, "name": "61f3bc8587073e52b303ac0757b35688"}, {"bike_id": "036989b22b944e06ad6ade6067c74da8", "type": "electric_bike", "is_disabled": 0, "lat": 38.800243333333334, "rental_uris": {"ios": "https://dc.lft.to/lastmile_qr_scan", "android": "https://dc.lft.to/lastmile_qr_scan"}, "is_reserved": 0, "fusion_lon": 0.0, "fusion_lat": 0.0, "lon": -77.063317, "name": "036989b22b944e06ad6ade6067c74da8"}, {"bike_id": "dd2ce7cac505c1f0d2ac0fa1eb34583b", "type": "electric_scooter", "is_disabled": 0, "lat": 38.910574833333335, "rental_uris": {"ios": "https://dc.lft.to/lastmile_qr_scan", "android": "https://dc.lft.to/lastmile_qr_scan"}, "is_reserved": 0, "fusion_lon": 0.0, "fusion_lat": 0.0, "lon": -77.04093283333333, "name": "dd2ce7cac505c1f0d2ac0fa1eb34583b"}, {"bike_id": "fe1843292779863ce365ae39f6112c17", "type": "electric_scooter", "is_disabled": 0, "lat": 38.9193045, "rental_uris": {"ios": "https://dc.lft.to/lastmile_qr_scan", "android": "https://dc.lft.to/lastmile_qr_scan"}, "is_reserved": 0, "fusion_lon": 0.0, "fusion_lat": 0.0, "lon": -77.02514583333334, "name": "fe1843292779863ce365ae39f6112c17"}, {"bike_id": "13b0840238a7cd5cf6026ecd3846ba36", "type": "electric_scooter", "is_disabled": 0, "lat": 38.911044, "rental_uris": {"ios": "https://dc.lft.to/lastmile_qr_scan", "android": "https://dc.lft.to/lastmile_qr_scan"}, "is_reserved": 0, "fusion_lon": 0.0, "fusion_lat": 0.0, "lon": -77.04214483333334, "name": "13b0840238a7cd5cf6026ecd3846ba36"}, {"bike_id": "55526c8779c198519a99fb39b588a1a9", "type": "electric_scooter", "is_disabled": 0, "lat": 38.87094783333333, "rental_uris": {"ios": "https://dc.lft.to/lastmile_qr_scan", "android": "https://dc.lft.to/lastmile_qr_scan"}, "is_reserved": 0, "fusion_lon": 0.0, "fusion_lat": 0.0, "lon": -77.0119855, "name": "55526c8779c198519a99fb39b588a1a9"}, {"bike_id": "c29688ef28e70f11a31536089e100f46", "type": "electric_scooter", "is_disabled": 0, "lat": 38.9067915, "rental_uris": {"ios": "https://dc.lft.to/lastmile_qr_scan", "android": "https://dc.lft.to/lastmile_qr_scan"}, "is_reserved": 0, "fusion_lon": 0.0, "fusion_lat": 0.0, "lon": -77.02696166666666, "name": "c29688ef28e70f11a31536089e100f46"}, {"bike_id": "6c6f94cfdddc0c1a756f28c55cba0210", "type": "electric_scooter", "is_disabled": 0, "lat": 38.916006833333334, "rental_uris": {"ios": "https://dc.lft.to/lastmile_qr_scan", "android": "https://dc.lft.to/lastmile_qr_scan"}, "is_reserved": 0, "fusion_lon": 0.0, "fusion_lat": 0.0, "lon": -77.06805983333334, "name": "6c6f94cfdddc0c1a756f28c55cba0210"}, {"bike_id": "8f620c54bb1b0ec71a1bd9909eff2800", "type": "electric_scooter", "is_disabled": 0, "lat": 38.9057585, "rental_uris": {"ios": "https://dc.lft.to/lastmile_qr_scan", "android": "https://dc.lft.to/lastmile_qr_scan"}, "is_reserved": 0, "fusion_lon": 0.0, "fusion_lat": 0.0, "lon": -76.9763035, "name": "8f620c54bb1b0ec71a1bd9909eff2800"}, {"bike_id": "4d32bb0f245efac0c67d915330db319c", "type": "electric_scooter", "is_disabled": 0, "lat": 38.88279716666667, "rental_uris": {"ios": "https://dc.lft.to/lastmile_qr_scan", "android": "https://dc.lft.to/lastmile_qr_scan"}, "is_reserved": 0, "fusion_lon": 0.0, "fusion_lat": 0.0, "lon": -76.9292255, "name": "4d32bb0f245efac0c67d915330db319c"}, {"bike_id": "d91e982d7b55251ab067eda1e9e67e03", "type": "electric_scooter", "is_disabled": 0, "lat": 38.92256183333333, "rental_uris": {"ios": "https://dc.lft.to/lastmile_qr_scan", "android": "https://dc.lft.to/lastmile_qr_scan"}, "is_reserved": 0, "fusion_lon": 0.0, "fusion_lat": 0.0, "lon": -77.043011, "name": "d91e982d7b55251ab067eda1e9e67e03"}, {"bike_id": "3fa9c63eda524c261c22586a8647005f", "type": "electric_scooter", "is_disabled": 0, "lat": 38.918842166666664, "rental_uris": {"ios": "https://dc.lft.to/lastmile_qr_scan", "android": "https://dc.lft.to/lastmile_qr_scan"}, "is_reserved": 0, "fusion_lon": 0.0, "fusion_lat": 0.0, "lon": -77.0357605, "name": "3fa9c63eda524c261c22586a8647005f"}, {"bike_id": "c85055d818b3da364535b5a7da3d137b", "type": "electric_scooter", "is_disabled": 0, "lat": 38.91833783333333, "rental_uris": {"ios": "https://dc.lft.to/lastmile_qr_scan", "android": "https://dc.lft.to/lastmile_qr_scan"}, "is_reserved": 0, "fusion_lon": 0.0, "fusion_lat": 0.0, "lon": -77.031803, "name": "c85055d818b3da364535b5a7da3d137b"}, {"bike_id": "fd4092ca9b82321823bf977bb956d3b1", "type": "electric_scooter", "is_disabled": 0, "lat": 38.907738, "rental_uris": {"ios": "https://dc.lft.to/lastmile_qr_scan", "android": "https://dc.lft.to/lastmile_qr_scan"}, "is_reserved": 0, "fusion_lon": 0.0, "fusion_lat": 0.0, "lon": -77.02955866666667, "name": "fd4092ca9b82321823bf977bb956d3b1"}, {"bike_id": "559b642938fc0987020b4792cdba40fb", "type": "electric_bike", "is_disabled": 0, "lat": 38.919184666666666, "rental_uris": {"ios": "https://dc.lft.to/lastmile_qr_scan", "android": "https://dc.lft.to/lastmile_qr_scan"}, "is_reserved": 0, "fusion_lon": 0.0, "fusion_lat": 0.0, "lon": -77.07025533333334, "name": "559b642938fc0987020b4792cdba40fb"}, {"bike_id": "38200e692ffdcc94b67c4e67d475ccd8", "type": "electric_scooter", "is_disabled": 0, "lat": 38.9248015, "rental_uris": {"ios": "https://dc.lft.to/lastmile_qr_scan", "android": "https://dc.lft.to/lastmile_qr_scan"}, "is_reserved": 0, "fusion_lon": 0.0, "fusion_lat": 0.0, "lon": -77.03102866666667, "name": "38200e692ffdcc94b67c4e67d475ccd8"}, {"bike_id": "100e592c951c12c46c11f4cca6415a56", "type": "electric_scooter", "is_disabled": 0, "lat": 38.89851866666667, "rental_uris": {"ios": "https://dc.lft.to/lastmile_qr_scan", "android": "https://dc.lft.to/lastmile_qr_scan"}, "is_reserved": 0, "fusion_lon": 0.0, "fusion_lat": 0.0, "lon": -77.02619383333334, "name": "100e592c951c12c46c11f4cca6415a56"}, {"bike_id": "0962325c0732b16f2e5ceada3682abbd", "type": "electric_scooter", "is_disabled": 0, "lat": 38.88393933333333, "rental_uris": {"ios": "https://dc.lft.to/lastmile_qr_scan", "android": "https://dc.lft.to/lastmile_qr_scan"}, "is_reserved": 0, "fusion_lon": 0.0, "fusion_lat": 0.0, "lon": -76.95373533333333, "name": "0962325c0732b16f2e5ceada3682abbd"}, {"bike_id": "096c354f18e6cbdf3cf56b1fa59c4b28", "type": "electric_scooter", "is_disabled": 0, "lat": 38.9381905, "rental_uris": {"ios": "https://dc.lft.to/lastmile_qr_scan", "android": "https://dc.lft.to/lastmile_qr_scan"}, "is_reserved": 0, "fusion_lon": 0.0, "fusion_lat": 0.0, "lon": -77.02707633333333, "name": "096c354f18e6cbdf3cf56b1fa59c4b28"}, {"bike_id": "b5cfc8d9aa68b31532133cc67f61cad1", "type": "electric_scooter", "is_disabled": 0, "lat": 38.937486666666665, "rental_uris": {"ios": "https://dc.lft.to/lastmile_qr_scan", "android": "https://dc.lft.to/lastmile_qr_scan"}, "is_reserved": 0, "fusion_lon": 0.0, "fusion_lat": 0.0, "lon": -77.0243925, "name": "b5cfc8d9aa68b31532133cc67f61cad1"}, {"bike_id": "40e2bf24d414ea0efe87b22b81b3b67c", "type": "electric_scooter", "is_disabled": 0, "lat": 38.894807, "rental_uris": {"ios": "https://dc.lft.to/lastmile_qr_scan", "android": "https://dc.lft.to/lastmile_qr_scan"}, "is_reserved": 0, "fusion_lon": 0.0, "fusion_lat": 0.0, "lon": -76.99515416666667, "name": "40e2bf24d414ea0efe87b22b81b3b67c"}, {"bike_id": "2b958fa68d03bf6664a23e0502780533", "type": "electric_bike", "is_disabled": 0, "lat": 38.9228135, "rental_uris": {"ios": "https://dc.lft.to/lastmile_qr_scan", "android": "https://dc.lft.to/lastmile_qr_scan"}, "is_reserved": 0, "fusion_lon": 0.0, "fusion_lat": 0.0, "lon": -77.0224085, "name": "2b958fa68d03bf6664a23e0502780533"}, {"bike_id": "c8b5fca8e53b80768b878061c0850073", "type": "electric_scooter", "is_disabled": 0, "lat": 38.92256916666667, "rental_uris": {"ios": "https://dc.lft.to/lastmile_qr_scan", "android": "https://dc.lft.to/lastmile_qr_scan"}, "is_reserved": 0, "fusion_lon": 0.0, "fusion_lat": 0.0, "lon": -77.01967833333333, "name": "c8b5fca8e53b80768b878061c0850073"}, {"bike_id": "41899f5c209098e72b32d48b2835097a", "type": "electric_scooter", "is_disabled": 0, "lat": 38.89721816666667, "rental_uris": {"ios": "https://dc.lft.to/lastmile_qr_scan", "android": "https://dc.lft.to/lastmile_qr_scan"}, "is_reserved": 0, "fusion_lon": 0.0, "fusion_lat": 0.0, "lon": -76.9884145, "name": "41899f5c209098e72b32d48b2835097a"}, {"bike_id": "eee8ad4c2df7e8e4158f5e511d8fe4b3", "type": "electric_bike", "is_disabled": 0, "lat": 38.9295495, "rental_uris": {"ios": "https://dc.lft.to/lastmile_qr_scan", "android": "https://dc.lft.to/lastmile_qr_scan"}, "is_reserved": 0, "fusion_lon": 0.0, "fusion_lat": 0.0, "lon": -77.023361, "name": "eee8ad4c2df7e8e4158f5e511d8fe4b3"}, {"bike_id": "7a31f4fee1985aa253d222a511c83a2b", "type": "electric_scooter", "is_disabled": 0, "lat": 38.9337435, "rental_uris": {"ios": "https://dc.lft.to/lastmile_qr_scan", "android": "https://dc.lft.to/lastmile_qr_scan"}, "is_reserved": 0, "fusion_lon": 0.0, "fusion_lat": 0.0, "lon": -77.05729416666667, "name": "7a31f4fee1985aa253d222a511c83a2b"}, {"bike_id": "e182386bae08f1af984602857775f34d", "type": "electric_scooter", "is_disabled": 0, "lat": 38.90527733333333, "rental_uris": {"ios": "https://dc.lft.to/lastmile_qr_scan", "android": "https://dc.lft.to/lastmile_qr_scan"}, "is_reserved": 0, "fusion_lon": 0.0, "fusion_lat": 0.0, "lon": -76.98620983333333, "name": "e182386bae08f1af984602857775f34d"}, {"bike_id": "33b924ac790f2caef37b1a443086b27e", "type": "electric_scooter", "is_disabled": 0, "lat": 38.8669795, "rental_uris": {"ios": "https://dc.lft.to/lastmile_qr_scan", "android": "https://dc.lft.to/lastmile_qr_scan"}, "is_reserved": 0, "fusion_lon": 0.0, "fusion_lat": 0.0, "lon": -76.98713666666667, "name": "33b924ac790f2caef37b1a443086b27e"}, {"bike_id": "99ead977c40d40b63dc661cd86c9326f", "type": "electric_scooter", "is_disabled": 0, "lat": 38.862133, "rental_uris": {"ios": "https://dc.lft.to/lastmile_qr_scan", "android": "https://dc.lft.to/lastmile_qr_scan"}, "is_reserved": 0, "fusion_lon": 0.0, "fusion_lat": 0.0, "lon": -76.9947215, "name": "99ead977c40d40b63dc661cd86c9326f"}, {"bike_id": "6fcd7f3b6d1a64ff787b126d41f5ee71", "type": "electric_bike", "is_disabled": 0, "lat": 38.829457166666664, "rental_uris": {"ios": "https://dc.lft.to/lastmile_qr_scan", "android": "https://dc.lft.to/lastmile_qr_scan"}, "is_reserved": 0, "fusion_lon": 0.0, "fusion_lat": 0.0, "lon": -77.12350916666666, "name": "6fcd7f3b6d1a64ff787b126d41f5ee71"}, {"bike_id": "67cc64ba2d693d72e47aaf2aa526ab56", "type": "electric_scooter", "is_disabled": 0, "lat": 38.9216475, "rental_uris": {"ios": "https://dc.lft.to/lastmile_qr_scan", "android": "https://dc.lft.to/lastmile_qr_scan"}, "is_reserved": 0, "fusion_lon": 0.0, "fusion_lat": 0.0, "lon": -77.0384625, "name": "67cc64ba2d693d72e47aaf2aa526ab56"}, {"bike_id": "b2e6be69dfacde557241c469287aefbb", "type": "electric_scooter", "is_disabled": 0, "lat": 38.91563216666667, "rental_uris": {"ios": "https://dc.lft.to/lastmile_qr_scan", "android": "https://dc.lft.to/lastmile_qr_scan"}, "is_reserved": 0, "fusion_lon": 0.0, "fusion_lat": 0.0, "lon": -77.03947333333333, "name": "b2e6be69dfacde557241c469287aefbb"}, {"bike_id": "036340a978846a98031725747105e3a7", "type": "electric_scooter", "is_disabled": 0, "lat": 38.857553, "rental_uris": {"ios": "https://dc.lft.to/lastmile_qr_scan", "android": "https://dc.lft.to/lastmile_qr_scan"}, "is_reserved": 0, "fusion_lon": 0.0, "fusion_lat": 0.0, "lon": -76.99306233333333, "name": "036340a978846a98031725747105e3a7"}, {"bike_id": "dd19d0a15a15965f84936c40ef17f52b", "type": "electric_scooter", "is_disabled": 0, "lat": 38.916967666666665, "rental_uris": {"ios": "https://dc.lft.to/lastmile_qr_scan", "android": "https://dc.lft.to/lastmile_qr_scan"}, "is_reserved": 0, "fusion_lon": 0.0, "fusion_lat": 0.0, "lon": -77.02598433333333, "name": "dd19d0a15a15965f84936c40ef17f52b"}, {"bike_id": "4760331030300556f2872c5059dc1c53", "type": "electric_bike", "is_disabled": 0, "lat": 38.9321645, "rental_uris": {"ios": "https://dc.lft.to/lastmile_qr_scan", "android": "https://dc.lft.to/lastmile_qr_scan"}, "is_reserved": 0, "fusion_lon": 0.0, "fusion_lat": 0.0, "lon": -76.99503383333334, "name": "4760331030300556f2872c5059dc1c53"}, {"bike_id": "4d21015c07459da90750c7d70bc452fa", "type": "electric_scooter", "is_disabled": 0, "lat": 38.93993583333334, "rental_uris": {"ios": "https://dc.lft.to/lastmile_qr_scan", "android": "https://dc.lft.to/lastmile_qr_scan"}, "is_reserved": 0, "fusion_lon": 0.0, "fusion_lat": 0.0, "lon": -77.01747183333333, "name": "4d21015c07459da90750c7d70bc452fa"}, {"bike_id": "c6c5b7777e036f169ad7e0067710d261", "type": "electric_scooter", "is_disabled": 0, "lat": 38.90521783333333, "rental_uris": {"ios": "https://dc.lft.to/lastmile_qr_scan", "android": "https://dc.lft.to/lastmile_qr_scan"}, "is_reserved": 0, "fusion_lon": 0.0, "fusion_lat": 0.0, "lon": -77.06448583333334, "name": "c6c5b7777e036f169ad7e0067710d261"}, {"bike_id": "85861991cf3d0928fb3a219c52c1b25e", "type": "electric_scooter", "is_disabled": 0, "lat": 38.925978666666666, "rental_uris": {"ios": "https://dc.lft.to/lastmile_qr_scan", "android": "https://dc.lft.to/lastmile_qr_scan"}, "is_reserved": 0, "fusion_lon": 0.0, "fusion_lat": 0.0, "lon": -77.02387116666667, "name": "85861991cf3d0928fb3a219c52c1b25e"}, {"bike_id": "c097e421edfad62b103eb674a711c529", "type": "electric_scooter", "is_disabled": 0, "lat": 38.90943716666666, "rental_uris": {"ios": "https://dc.lft.to/lastmile_qr_scan", "android": "https://dc.lft.to/lastmile_qr_scan"}, "is_reserved": 0, "fusion_lon": 0.0, "fusion_lat": 0.0, "lon": -77.05560183333333, "name": "c097e421edfad62b103eb674a711c529"}, {"bike_id": "d3cb6e9d7081a5c3c35164ceca16ac65", "type": "electric_scooter", "is_disabled": 0, "lat": 38.91416666666667, "rental_uris": {"ios": "https://dc.lft.to/lastmile_qr_scan", "android": "https://dc.lft.to/lastmile_qr_scan"}, "is_reserved": 0, "fusion_lon": 0.0, "fusion_lat": 0.0, "lon": -77.02216033333333, "name": "d3cb6e9d7081a5c3c35164ceca16ac65"}, {"bike_id": "8c82441acd92b2f0d8e8d78ff538893a", "type": "electric_scooter", "is_disabled": 0, "lat": 38.927676, "rental_uris": {"ios": "https://dc.lft.to/lastmile_qr_scan", "android": "https://dc.lft.to/lastmile_qr_scan"}, "is_reserved": 0, "fusion_lon": 0.0, "fusion_lat": 0.0, "lon": -76.96093933333333, "name": "8c82441acd92b2f0d8e8d78ff538893a"}, {"bike_id": "86160401b83dac9678dd5fcb8c5025e1", "type": "electric_scooter", "is_disabled": 0, "lat": 38.9005495, "rental_uris": {"ios": "https://dc.lft.to/lastmile_qr_scan", "android": "https://dc.lft.to/lastmile_qr_scan"}, "is_reserved": 0, "fusion_lon": 0.0, "fusion_lat": 0.0, "lon": -77.016844, "name": "86160401b83dac9678dd5fcb8c5025e1"}, {"bike_id": "21301030348a0126d2abc150deccc00a", "type": "electric_scooter", "is_disabled": 0, "lat": 38.867345, "rental_uris": {"ios": "https://dc.lft.to/lastmile_qr_scan", "android": "https://dc.lft.to/lastmile_qr_scan"}, "is_reserved": 0, "fusion_lon": 0.0, "fusion_lat": 0.0, "lon": -76.978644, "name": "21301030348a0126d2abc150deccc00a"}, {"bike_id": "fdc14f84c4fbff748c655a4c54147748", "type": "electric_scooter", "is_disabled": 0, "lat": 38.923188, "rental_uris": {"ios": "https://dc.lft.to/lastmile_qr_scan", "android": "https://dc.lft.to/lastmile_qr_scan"}, "is_reserved": 0, "fusion_lon": 0.0, "fusion_lat": 0.0, "lon": -77.03815083333333, "name": "fdc14f84c4fbff748c655a4c54147748"}, {"bike_id": "f998b71af4eb7851dd1d253ac381c975", "type": "electric_scooter", "is_disabled": 0, "lat": 38.90032933333333, "rental_uris": {"ios": "https://dc.lft.to/lastmile_qr_scan", "android": "https://dc.lft.to/lastmile_qr_scan"}, "is_reserved": 0, "fusion_lon": 0.0, "fusion_lat": 0.0, "lon": -77.033286, "name": "f998b71af4eb7851dd1d253ac381c975"}, {"bike_id": "eedc14880cbb9e4bdb67655ccf773075", "type": "electric_scooter", "is_disabled": 0, "lat": 38.91636466666667, "rental_uris": {"ios": "https://dc.lft.to/lastmile_qr_scan", "android": "https://dc.lft.to/lastmile_qr_scan"}, "is_reserved": 0, "fusion_lon": 0.0, "fusion_lat": 0.0, "lon": -77.02547083333333, "name": "eedc14880cbb9e4bdb67655ccf773075"}, {"bike_id": "33e5e8c0b244f45ca9b619bccad7dd33", "type": "electric_scooter", "is_disabled": 0, "lat": 38.897334666666666, "rental_uris": {"ios": "https://dc.lft.to/lastmile_qr_scan", "android": "https://dc.lft.to/lastmile_qr_scan"}, "is_reserved": 0, "fusion_lon": 0.0, "fusion_lat": 0.0, "lon": -76.94722916666667, "name": "33e5e8c0b244f45ca9b619bccad7dd33"}, {"bike_id": "78e526b26d13710bdf435527d83c1270", "type": "electric_scooter", "is_disabled": 0, "lat": 38.952167333333335, "rental_uris": {"ios": "https://dc.lft.to/lastmile_qr_scan", "android": "https://dc.lft.to/lastmile_qr_scan"}, "is_reserved": 0, "fusion_lon": 0.0, "fusion_lat": 0.0, "lon": -77.07068616666666, "name": "78e526b26d13710bdf435527d83c1270"}, {"bike_id": "5af291e0477c40ad7943501121700e5f", "type": "electric_scooter", "is_disabled": 0, "lat": 38.9018825, "rental_uris": {"ios": "https://dc.lft.to/lastmile_qr_scan", "android": "https://dc.lft.to/lastmile_qr_scan"}, "is_reserved": 0, "fusion_lon": 0.0, "fusion_lat": 0.0, "lon": -77.02015366666667, "name": "5af291e0477c40ad7943501121700e5f"}, {"bike_id": "5ad89769745521a66a561ee68a69be1d", "type": "electric_scooter", "is_disabled": 0, "lat": 38.89809366666667, "rental_uris": {"ios": "https://dc.lft.to/lastmile_qr_scan", "android": "https://dc.lft.to/lastmile_qr_scan"}, "is_reserved": 0, "fusion_lon": 0.0, "fusion_lat": 0.0, "lon": -77.02194833333333, "name": "5ad89769745521a66a561ee68a69be1d"}, {"bike_id": "baab3c6fbbf603387ea53f054e4b4f1a", "type": "electric_scooter", "is_disabled": 0, "lat": 38.964429833333334, "rental_uris": {"ios": "https://dc.lft.to/lastmile_qr_scan", "android": "https://dc.lft.to/lastmile_qr_scan"}, "is_reserved": 0, "fusion_lon": 0.0, "fusion_lat": 0.0, "lon": -77.02061433333333, "name": "baab3c6fbbf603387ea53f054e4b4f1a"}, {"bike_id": "308555cfac11d7ddb82a50b3bfb1fcb7", "type": "electric_scooter", "is_disabled": 0, "lat": 38.92183333333333, "rental_uris": {"ios": "https://dc.lft.to/lastmile_qr_scan", "android": "https://dc.lft.to/lastmile_qr_scan"}, "is_reserved": 0, "fusion_lon": 0.0, "fusion_lat": 0.0, "lon": -77.042277, "name": "308555cfac11d7ddb82a50b3bfb1fcb7"}, {"bike_id": "c41591e45404647dc7c05fe58f46c6a0", "type": "electric_scooter", "is_disabled": 0, "lat": 38.91696616666667, "rental_uris": {"ios": "https://dc.lft.to/lastmile_qr_scan", "android": "https://dc.lft.to/lastmile_qr_scan"}, "is_reserved": 0, "fusion_lon": 0.0, "fusion_lat": 0.0, "lon": -77.02921333333333, "name": "c41591e45404647dc7c05fe58f46c6a0"}, {"bike_id": "319f29706df3667be071cfa0ab7fe240", "type": "electric_scooter", "is_disabled": 0, "lat": 38.91821733333333, "rental_uris": {"ios": "https://dc.lft.to/lastmile_qr_scan", "android": "https://dc.lft.to/lastmile_qr_scan"}, "is_reserved": 0, "fusion_lon": 0.0, "fusion_lat": 0.0, "lon": -77.03166433333334, "name": "319f29706df3667be071cfa0ab7fe240"}, {"bike_id": "4d7f26f4466d32a957c2dbee3b56b33f", "type": "electric_scooter", "is_disabled": 0, "lat": 38.917477, "rental_uris": {"ios": "https://dc.lft.to/lastmile_qr_scan", "android": "https://dc.lft.to/lastmile_qr_scan"}, "is_reserved": 0, "fusion_lon": 0.0, "fusion_lat": 0.0, "lon": -77.03183, "name": "4d7f26f4466d32a957c2dbee3b56b33f"}, {"bike_id": "e47f4eafdc0dab35863d4047b12b11b3", "type": "electric_scooter", "is_disabled": 0, "lat": 38.905124, "rental_uris": {"ios": "https://dc.lft.to/lastmile_qr_scan", "android": "https://dc.lft.to/lastmile_qr_scan"}, "is_reserved": 0, "fusion_lon": 0.0, "fusion_lat": 0.0, "lon": -77.06761716666666, "name": "e47f4eafdc0dab35863d4047b12b11b3"}, {"bike_id": "942f7130892c99fe06097bc1380f850a", "type": "electric_scooter", "is_disabled": 0, "lat": 38.89893133333333, "rental_uris": {"ios": "https://dc.lft.to/lastmile_qr_scan", "android": "https://dc.lft.to/lastmile_qr_scan"}, "is_reserved": 0, "fusion_lon": 0.0, "fusion_lat": 0.0, "lon": -76.9769705, "name": "942f7130892c99fe06097bc1380f850a"}, {"bike_id": "633d5d50a955d0f46df2f4e60b5d5eda", "type": "electric_bike", "is_disabled": 0, "lat": 38.910166833333335, "rental_uris": {"ios": "https://dc.lft.to/lastmile_qr_scan", "android": "https://dc.lft.to/lastmile_qr_scan"}, "is_reserved": 0, "fusion_lon": 0.0, "fusion_lat": 0.0, "lon": -77.0444605, "name": "633d5d50a955d0f46df2f4e60b5d5eda"}, {"bike_id": "f7f697327f8b771947c530957dea5fb4", "type": "electric_scooter", "is_disabled": 0, "lat": 38.914554833333334, "rental_uris": {"ios": "https://dc.lft.to/lastmile_qr_scan", "android": "https://dc.lft.to/lastmile_qr_scan"}, "is_reserved": 0, "fusion_lon": 0.0, "fusion_lat": 0.0, "lon": -77.07107816666667, "name": "f7f697327f8b771947c530957dea5fb4"}, {"bike_id": "796a4e62b7a67eb08a2076a1cf70bf5c", "type": "electric_scooter", "is_disabled": 0, "lat": 38.89836066666667, "rental_uris": {"ios": "https://dc.lft.to/lastmile_qr_scan", "android": "https://dc.lft.to/lastmile_qr_scan"}, "is_reserved": 0, "fusion_lon": 0.0, "fusion_lat": 0.0, "lon": -77.031784, "name": "796a4e62b7a67eb08a2076a1cf70bf5c"}, {"bike_id": "34a73899420205d1df4c3e65cf1635aa", "type": "electric_scooter", "is_disabled": 0, "lat": 38.925386333333336, "rental_uris": {"ios": "https://dc.lft.to/lastmile_qr_scan", "android": "https://dc.lft.to/lastmile_qr_scan"}, "is_reserved": 0, "fusion_lon": 0.0, "fusion_lat": 0.0, "lon": -77.04119433333334, "name": "34a73899420205d1df4c3e65cf1635aa"}, {"bike_id": "63731f3877472f09a3e1ac9776e9ac62", "type": "electric_scooter", "is_disabled": 0, "lat": 38.916782833333336, "rental_uris": {"ios": "https://dc.lft.to/lastmile_qr_scan", "android": "https://dc.lft.to/lastmile_qr_scan"}, "is_reserved": 0, "fusion_lon": 0.0, "fusion_lat": 0.0, "lon": -77.03200683333333, "name": "63731f3877472f09a3e1ac9776e9ac62"}, {"bike_id": "e097d2d3f367c9053336973f953817ba", "type": "electric_bike", "is_disabled": 0, "lat": 38.8193985, "rental_uris": {"ios": "https://dc.lft.to/lastmile_qr_scan", "android": "https://dc.lft.to/lastmile_qr_scan"}, "is_reserved": 0, "fusion_lon": 0.0, "fusion_lat": 0.0, "lon": -77.00202366666667, "name": "e097d2d3f367c9053336973f953817ba"}, {"bike_id": "2fecfed96d035f157ae85e44582e0937", "type": "electric_scooter", "is_disabled": 0, "lat": 38.921983833333336, "rental_uris": {"ios": "https://dc.lft.to/lastmile_qr_scan", "android": "https://dc.lft.to/lastmile_qr_scan"}, "is_reserved": 0, "fusion_lon": 0.0, "fusion_lat": 0.0, "lon": -77.0202605, "name": "2fecfed96d035f157ae85e44582e0937"}, {"bike_id": "1db81de143204bfca80f0ccec50ac89f", "type": "electric_scooter", "is_disabled": 0, "lat": 38.95652883333333, "rental_uris": {"ios": "https://dc.lft.to/lastmile_qr_scan", "android": "https://dc.lft.to/lastmile_qr_scan"}, "is_reserved": 0, "fusion_lon": 0.0, "fusion_lat": 0.0, "lon": -77.02403633333333, "name": "1db81de143204bfca80f0ccec50ac89f"}, {"bike_id": "0ed47aff9aeb8023795c13e2c95ffc24", "type": "electric_scooter", "is_disabled": 0, "lat": 38.894869, "rental_uris": {"ios": "https://dc.lft.to/lastmile_qr_scan", "android": "https://dc.lft.to/lastmile_qr_scan"}, "is_reserved": 0, "fusion_lon": 0.0, "fusion_lat": 0.0, "lon": -77.00222966666666, "name": "0ed47aff9aeb8023795c13e2c95ffc24"}, {"bike_id": "5ba72374b803e967dc57fb8bccf68b92", "type": "electric_scooter", "is_disabled": 0, "lat": 38.89605916666667, "rental_uris": {"ios": "https://dc.lft.to/lastmile_qr_scan", "android": "https://dc.lft.to/lastmile_qr_scan"}, "is_reserved": 0, "fusion_lon": 0.0, "fusion_lat": 0.0, "lon": -77.00928683333333, "name": "5ba72374b803e967dc57fb8bccf68b92"}, {"bike_id": "a9da7ba6d0c86e3ab2133ed08f6fd954", "type": "electric_scooter", "is_disabled": 0, "lat": 38.908435, "rental_uris": {"ios": "https://dc.lft.to/lastmile_qr_scan", "android": "https://dc.lft.to/lastmile_qr_scan"}, "is_reserved": 0, "fusion_lon": 0.0, "fusion_lat": 0.0, "lon": -77.02692066666667, "name": "a9da7ba6d0c86e3ab2133ed08f6fd954"}, {"bike_id": "690e1641a340972063adaed964560d9c", "type": "electric_scooter", "is_disabled": 0, "lat": 38.923369, "rental_uris": {"ios": "https://dc.lft.to/lastmile_qr_scan", "android": "https://dc.lft.to/lastmile_qr_scan"}, "is_reserved": 0, "fusion_lon": 0.0, "fusion_lat": 0.0, "lon": -77.0529995, "name": "690e1641a340972063adaed964560d9c"}, {"bike_id": "e52c436a6771f36c7c7a711284793ecb", "type": "electric_scooter", "is_disabled": 0, "lat": 38.909804666666666, "rental_uris": {"ios": "https://dc.lft.to/lastmile_qr_scan", "android": "https://dc.lft.to/lastmile_qr_scan"}, "is_reserved": 0, "fusion_lon": 0.0, "fusion_lat": 0.0, "lon": -77.0320475, "name": "e52c436a6771f36c7c7a711284793ecb"}, {"bike_id": "1ea02129e809a3d2c7abf7a8f130755f", "type": "electric_scooter", "is_disabled": 0, "lat": 38.89235016666667, "rental_uris": {"ios": "https://dc.lft.to/lastmile_qr_scan", "android": "https://dc.lft.to/lastmile_qr_scan"}, "is_reserved": 0, "fusion_lon": 0.0, "fusion_lat": 0.0, "lon": -77.0499715, "name": "1ea02129e809a3d2c7abf7a8f130755f"}, {"bike_id": "2ecf08ca3ad2fe591f0a71ed92cef529", "type": "electric_scooter", "is_disabled": 0, "lat": 38.942112, "rental_uris": {"ios": "https://dc.lft.to/lastmile_qr_scan", "android": "https://dc.lft.to/lastmile_qr_scan"}, "is_reserved": 0, "fusion_lon": 0.0, "fusion_lat": 0.0, "lon": -77.0258185, "name": "2ecf08ca3ad2fe591f0a71ed92cef529"}, {"bike_id": "813d001819880bf5fd9689dffc43ada6", "type": "electric_scooter", "is_disabled": 0, "lat": 38.911181, "rental_uris": {"ios": "https://dc.lft.to/lastmile_qr_scan", "android": "https://dc.lft.to/lastmile_qr_scan"}, "is_reserved": 0, "fusion_lon": 0.0, "fusion_lat": 0.0, "lon": -77.04334733333333, "name": "813d001819880bf5fd9689dffc43ada6"}, {"bike_id": "85e1df9780aec7d3e55006fd39d9c0e5", "type": "electric_scooter", "is_disabled": 0, "lat": 38.92342133333333, "rental_uris": {"ios": "https://dc.lft.to/lastmile_qr_scan", "android": "https://dc.lft.to/lastmile_qr_scan"}, "is_reserved": 0, "fusion_lon": 0.0, "fusion_lat": 0.0, "lon": -77.0511885, "name": "85e1df9780aec7d3e55006fd39d9c0e5"}, {"bike_id": "8c297ef923c6ccf78cde27f84f1006cc", "type": "electric_scooter", "is_disabled": 0, "lat": 38.947906833333334, "rental_uris": {"ios": "https://dc.lft.to/lastmile_qr_scan", "android": "https://dc.lft.to/lastmile_qr_scan"}, "is_reserved": 0, "fusion_lon": 0.0, "fusion_lat": 0.0, "lon": -77.07934183333333, "name": "8c297ef923c6ccf78cde27f84f1006cc"}, {"bike_id": "6bb6625ade6985fd18cf71d7fabd8639", "type": "electric_scooter", "is_disabled": 0, "lat": 38.91119316666666, "rental_uris": {"ios": "https://dc.lft.to/lastmile_qr_scan", "android": "https://dc.lft.to/lastmile_qr_scan"}, "is_reserved": 0, "fusion_lon": 0.0, "fusion_lat": 0.0, "lon": -77.032574, "name": "6bb6625ade6985fd18cf71d7fabd8639"}, {"bike_id": "3d3afc6fbc8626a02c1b4a06123799e3", "type": "electric_scooter", "is_disabled": 0, "lat": 38.93586466666667, "rental_uris": {"ios": "https://dc.lft.to/lastmile_qr_scan", "android": "https://dc.lft.to/lastmile_qr_scan"}, "is_reserved": 0, "fusion_lon": 0.0, "fusion_lat": 0.0, "lon": -77.05812533333334, "name": "3d3afc6fbc8626a02c1b4a06123799e3"}, {"bike_id": "9d4ad71ad4702fb259661c8d096e2e0d", "type": "electric_bike", "is_disabled": 0, "lat": 39.05635733333333, "rental_uris": {"ios": "https://dc.lft.to/lastmile_qr_scan", "android": "https://dc.lft.to/lastmile_qr_scan"}, "is_reserved": 0, "fusion_lon": 0.0, "fusion_lat": 0.0, "lon": -77.12520483333333, "name": "9d4ad71ad4702fb259661c8d096e2e0d"}, {"bike_id": "8a70bf6b3329c4e9ab843521c53f4280", "type": "electric_scooter", "is_disabled": 0, "lat": 38.877493333333334, "rental_uris": {"ios": "https://dc.lft.to/lastmile_qr_scan", "android": "https://dc.lft.to/lastmile_qr_scan"}, "is_reserved": 0, "fusion_lon": 0.0, "fusion_lat": 0.0, "lon": -76.9972365, "name": "8a70bf6b3329c4e9ab843521c53f4280"}, {"bike_id": "77aea89e09fd980a06b8baf38b60352d", "type": "electric_scooter", "is_disabled": 0, "lat": 38.92018066666667, "rental_uris": {"ios": "https://dc.lft.to/lastmile_qr_scan", "android": "https://dc.lft.to/lastmile_qr_scan"}, "is_reserved": 0, "fusion_lon": 0.0, "fusion_lat": 0.0, "lon": -77.04194366666667, "name": "77aea89e09fd980a06b8baf38b60352d"}, {"bike_id": "aac7a296ca522014ad402e9945119a05", "type": "electric_scooter", "is_disabled": 0, "lat": 38.86830366666667, "rental_uris": {"ios": "https://dc.lft.to/lastmile_qr_scan", "android": "https://dc.lft.to/lastmile_qr_scan"}, "is_reserved": 0, "fusion_lon": 0.0, "fusion_lat": 0.0, "lon": -77.01148866666666, "name": "aac7a296ca522014ad402e9945119a05"}, {"bike_id": "bc2b3b91da1f21e4ed2bca98dd673bbe", "type": "electric_scooter", "is_disabled": 0, "lat": 38.893434666666664, "rental_uris": {"ios": "https://dc.lft.to/lastmile_qr_scan", "android": "https://dc.lft.to/lastmile_qr_scan"}, "is_reserved": 0, "fusion_lon": 0.0, "fusion_lat": 0.0, "lon": -76.99269966666667, "name": "bc2b3b91da1f21e4ed2bca98dd673bbe"}, {"bike_id": "b5b4f0f1ebeb5164dd9a4817d69ec504", "type": "electric_scooter", "is_disabled": 0, "lat": 38.916923833333335, "rental_uris": {"ios": "https://dc.lft.to/lastmile_qr_scan", "android": "https://dc.lft.to/lastmile_qr_scan"}, "is_reserved": 0, "fusion_lon": 0.0, "fusion_lat": 0.0, "lon": -77.02343083333334, "name": "b5b4f0f1ebeb5164dd9a4817d69ec504"}, {"bike_id": "b1755fd6eb99b417b8d3749a7484f21e", "type": "electric_scooter", "is_disabled": 0, "lat": 38.90962316666667, "rental_uris": {"ios": "https://dc.lft.to/lastmile_qr_scan", "android": "https://dc.lft.to/lastmile_qr_scan"}, "is_reserved": 0, "fusion_lon": 0.0, "fusion_lat": 0.0, "lon": -77.03226066666667, "name": "b1755fd6eb99b417b8d3749a7484f21e"}, {"bike_id": "abdd37b44434b9b5a7db14c8335b6e06", "type": "electric_scooter", "is_disabled": 0, "lat": 38.9071365, "rental_uris": {"ios": "https://dc.lft.to/lastmile_qr_scan", "android": "https://dc.lft.to/lastmile_qr_scan"}, "is_reserved": 0, "fusion_lon": 0.0, "fusion_lat": 0.0, "lon": -77.043523, "name": "abdd37b44434b9b5a7db14c8335b6e06"}, {"bike_id": "6670e99e77fe9fa6e4c587bde85416a4", "type": "electric_bike", "is_disabled": 0, "lat": 38.908297166666664, "rental_uris": {"ios": "https://dc.lft.to/lastmile_qr_scan", "android": "https://dc.lft.to/lastmile_qr_scan"}, "is_reserved": 0, "fusion_lon": 0.0, "fusion_lat": 0.0, "lon": -76.9415625, "name": "6670e99e77fe9fa6e4c587bde85416a4"}, {"bike_id": "1b7faac63e461d07ffeb772a8183fdbc", "type": "electric_scooter", "is_disabled": 0, "lat": 38.95706716666667, "rental_uris": {"ios": "https://dc.lft.to/lastmile_qr_scan", "android": "https://dc.lft.to/lastmile_qr_scan"}, "is_reserved": 0, "fusion_lon": 0.0, "fusion_lat": 0.0, "lon": -77.07741816666666, "name": "1b7faac63e461d07ffeb772a8183fdbc"}, {"bike_id": "fe58ba25eac71fbeb4f0557b0d679f5b", "type": "electric_scooter", "is_disabled": 0, "lat": 38.908389166666666, "rental_uris": {"ios": "https://dc.lft.to/lastmile_qr_scan", "android": "https://dc.lft.to/lastmile_qr_scan"}, "is_reserved": 0, "fusion_lon": 0.0, "fusion_lat": 0.0, "lon": -77.02201766666667, "name": "fe58ba25eac71fbeb4f0557b0d679f5b"}, {"bike_id": "e6df192e4ed63afda5cbbfb2abe430e6", "type": "electric_bike", "is_disabled": 0, "lat": 38.881338166666666, "rental_uris": {"ios": "https://dc.lft.to/lastmile_qr_scan", "android": "https://dc.lft.to/lastmile_qr_scan"}, "is_reserved": 0, "fusion_lon": 0.0, "fusion_lat": 0.0, "lon": -77.09349383333333, "name": "e6df192e4ed63afda5cbbfb2abe430e6"}, {"bike_id": "4bcafa34c237917be9562de5337710d6", "type": "electric_bike", "is_disabled": 0, "lat": 39.054946666666666, "rental_uris": {"ios": "https://dc.lft.to/lastmile_qr_scan", "android": "https://dc.lft.to/lastmile_qr_scan"}, "is_reserved": 0, "fusion_lon": 0.0, "fusion_lat": 0.0, "lon": -77.11786916666667, "name": "4bcafa34c237917be9562de5337710d6"}, {"bike_id": "b429bbf77a1f716fc7810e9a00319e28", "type": "electric_bike", "is_disabled": 0, "lat": 39.03743016666667, "rental_uris": {"ios": "https://dc.lft.to/lastmile_qr_scan", "android": "https://dc.lft.to/lastmile_qr_scan"}, "is_reserved": 0, "fusion_lon": 0.0, "fusion_lat": 0.0, "lon": -77.0548085, "name": "b429bbf77a1f716fc7810e9a00319e28"}, {"bike_id": "db578facf685055b491cb37dc1ecdb24", "type": "electric_scooter", "is_disabled": 0, "lat": 38.86697, "rental_uris": {"ios": "https://dc.lft.to/lastmile_qr_scan", "android": "https://dc.lft.to/lastmile_qr_scan"}, "is_reserved": 0, "fusion_lon": 0.0, "fusion_lat": 0.0, "lon": -76.98539283333334, "name": "db578facf685055b491cb37dc1ecdb24"}, {"bike_id": "7011247ffd39d9b2ba3471a526058dd9", "type": "electric_scooter", "is_disabled": 0, "lat": 38.9246825, "rental_uris": {"ios": "https://dc.lft.to/lastmile_qr_scan", "android": "https://dc.lft.to/lastmile_qr_scan"}, "is_reserved": 0, "fusion_lon": 0.0, "fusion_lat": 0.0, "lon": -77.02835166666667, "name": "7011247ffd39d9b2ba3471a526058dd9"}, {"bike_id": "9865bb346a873c23a0e00eac22fb5857", "type": "electric_scooter", "is_disabled": 0, "lat": 38.912656, "rental_uris": {"ios": "https://dc.lft.to/lastmile_qr_scan", "android": "https://dc.lft.to/lastmile_qr_scan"}, "is_reserved": 0, "fusion_lon": 0.0, "fusion_lat": 0.0, "lon": -77.0114165, "name": "9865bb346a873c23a0e00eac22fb5857"}, {"bike_id": "1c9d61c55faa325b73a30e9c7a889201", "type": "electric_scooter", "is_disabled": 0, "lat": 38.915551, "rental_uris": {"ios": "https://dc.lft.to/lastmile_qr_scan", "android": "https://dc.lft.to/lastmile_qr_scan"}, "is_reserved": 0, "fusion_lon": 0.0, "fusion_lat": 0.0, "lon": -77.02049366666667, "name": "1c9d61c55faa325b73a30e9c7a889201"}, {"bike_id": "a5efa5040540f45422214814eee3180d", "type": "electric_scooter", "is_disabled": 0, "lat": 38.893524, "rental_uris": {"ios": "https://dc.lft.to/lastmile_qr_scan", "android": "https://dc.lft.to/lastmile_qr_scan"}, "is_reserved": 0, "fusion_lon": 0.0, "fusion_lat": 0.0, "lon": -77.022157, "name": "a5efa5040540f45422214814eee3180d"}, {"bike_id": "10ef17025ae41b930b69484e76f3bd5c", "type": "electric_scooter", "is_disabled": 0, "lat": 38.917122666666664, "rental_uris": {"ios": "https://dc.lft.to/lastmile_qr_scan", "android": "https://dc.lft.to/lastmile_qr_scan"}, "is_reserved": 0, "fusion_lon": 0.0, "fusion_lat": 0.0, "lon": -77.03866266666667, "name": "10ef17025ae41b930b69484e76f3bd5c"}, {"bike_id": "940c253a50615a92970e34a7fce8f2db", "type": "electric_scooter", "is_disabled": 0, "lat": 38.89785333333333, "rental_uris": {"ios": "https://dc.lft.to/lastmile_qr_scan", "android": "https://dc.lft.to/lastmile_qr_scan"}, "is_reserved": 0, "fusion_lon": 0.0, "fusion_lat": 0.0, "lon": -76.947335, "name": "940c253a50615a92970e34a7fce8f2db"}, {"bike_id": "af34a91a56015689d708aac5537455dc", "type": "electric_scooter", "is_disabled": 0, "lat": 38.8637505, "rental_uris": {"ios": "https://dc.lft.to/lastmile_qr_scan", "android": "https://dc.lft.to/lastmile_qr_scan"}, "is_reserved": 0, "fusion_lon": 0.0, "fusion_lat": 0.0, "lon": -76.99061283333333, "name": "af34a91a56015689d708aac5537455dc"}, {"bike_id": "3c0ab6ecf2c636e4f6d078ffcc0bfa7d", "type": "electric_bike", "is_disabled": 0, "lat": 38.853625, "rental_uris": {"ios": "https://dc.lft.to/lastmile_qr_scan", "android": "https://dc.lft.to/lastmile_qr_scan"}, "is_reserved": 0, "fusion_lon": 0.0, "fusion_lat": 0.0, "lon": -77.13454566666667, "name": "3c0ab6ecf2c636e4f6d078ffcc0bfa7d"}, {"bike_id": "e21ce0fa642745587eca52c4e87ee45e", "type": "electric_scooter", "is_disabled": 0, "lat": 38.90739333333333, "rental_uris": {"ios": "https://dc.lft.to/lastmile_qr_scan", "android": "https://dc.lft.to/lastmile_qr_scan"}, "is_reserved": 0, "fusion_lon": 0.0, "fusion_lat": 0.0, "lon": -77.02184633333333, "name": "e21ce0fa642745587eca52c4e87ee45e"}, {"bike_id": "556d63f63158ece2505e1d7525b5231d", "type": "electric_scooter", "is_disabled": 0, "lat": 38.89740883333333, "rental_uris": {"ios": "https://dc.lft.to/lastmile_qr_scan", "android": "https://dc.lft.to/lastmile_qr_scan"}, "is_reserved": 0, "fusion_lon": 0.0, "fusion_lat": 0.0, "lon": -77.00362933333334, "name": "556d63f63158ece2505e1d7525b5231d"}, {"bike_id": "c607f4114d3380c1826442d7ef925b35", "type": "electric_scooter", "is_disabled": 0, "lat": 38.94293, "rental_uris": {"ios": "https://dc.lft.to/lastmile_qr_scan", "android": "https://dc.lft.to/lastmile_qr_scan"}, "is_reserved": 0, "fusion_lon": 0.0, "fusion_lat": 0.0, "lon": -77.02169716666667, "name": "c607f4114d3380c1826442d7ef925b35"}, {"bike_id": "e56423e2861482982c4004e8bdc377c2", "type": "electric_scooter", "is_disabled": 0, "lat": 38.91744766666667, "rental_uris": {"ios": "https://dc.lft.to/lastmile_qr_scan", "android": "https://dc.lft.to/lastmile_qr_scan"}, "is_reserved": 0, "fusion_lon": 0.0, "fusion_lat": 0.0, "lon": -77.04066683333333, "name": "e56423e2861482982c4004e8bdc377c2"}, {"bike_id": "f52f77fa9a00a197fccbdf0ac2004f5a", "type": "electric_scooter", "is_disabled": 0, "lat": 38.89597033333333, "rental_uris": {"ios": "https://dc.lft.to/lastmile_qr_scan", "android": "https://dc.lft.to/lastmile_qr_scan"}, "is_reserved": 0, "fusion_lon": 0.0, "fusion_lat": 0.0, "lon": -77.005055, "name": "f52f77fa9a00a197fccbdf0ac2004f5a"}, {"bike_id": "aaac0d42696d0b8f3766bfb7ae2e25df", "type": "electric_scooter", "is_disabled": 0, "lat": 38.9251765, "rental_uris": {"ios": "https://dc.lft.to/lastmile_qr_scan", "android": "https://dc.lft.to/lastmile_qr_scan"}, "is_reserved": 0, "fusion_lon": 0.0, "fusion_lat": 0.0, "lon": -77.05126433333334, "name": "aaac0d42696d0b8f3766bfb7ae2e25df"}, {"bike_id": "33c52e9d596c98a468e5c35eee3eaaad", "type": "electric_scooter", "is_disabled": 0, "lat": 38.90196666666667, "rental_uris": {"ios": "https://dc.lft.to/lastmile_qr_scan", "android": "https://dc.lft.to/lastmile_qr_scan"}, "is_reserved": 0, "fusion_lon": 0.0, "fusion_lat": 0.0, "lon": -77.02170783333334, "name": "33c52e9d596c98a468e5c35eee3eaaad"}, {"bike_id": "af518d036d3520c35ce1f776c71218e6", "type": "electric_scooter", "is_disabled": 0, "lat": 38.89750566666667, "rental_uris": {"ios": "https://dc.lft.to/lastmile_qr_scan", "android": "https://dc.lft.to/lastmile_qr_scan"}, "is_reserved": 0, "fusion_lon": 0.0, "fusion_lat": 0.0, "lon": -76.97971583333333, "name": "af518d036d3520c35ce1f776c71218e6"}, {"bike_id": "6c5724e8559e6e2f6953b0c065bd9d61", "type": "electric_scooter", "is_disabled": 0, "lat": 38.91184916666667, "rental_uris": {"ios": "https://dc.lft.to/lastmile_qr_scan", "android": "https://dc.lft.to/lastmile_qr_scan"}, "is_reserved": 0, "fusion_lon": 0.0, "fusion_lat": 0.0, "lon": -77.0111785, "name": "6c5724e8559e6e2f6953b0c065bd9d61"}, {"bike_id": "ba0cc5c58857ef0ff9f95fa39cf77ec1", "type": "electric_scooter", "is_disabled": 0, "lat": 38.900617, "rental_uris": {"ios": "https://dc.lft.to/lastmile_qr_scan", "android": "https://dc.lft.to/lastmile_qr_scan"}, "is_reserved": 0, "fusion_lon": 0.0, "fusion_lat": 0.0, "lon": -77.017157, "name": "ba0cc5c58857ef0ff9f95fa39cf77ec1"}, {"bike_id": "26e87655edaf23ad2ba1167fde23f912", "type": "electric_scooter", "is_disabled": 0, "lat": 38.927498666666665, "rental_uris": {"ios": "https://dc.lft.to/lastmile_qr_scan", "android": "https://dc.lft.to/lastmile_qr_scan"}, "is_reserved": 0, "fusion_lon": 0.0, "fusion_lat": 0.0, "lon": -77.02533266666667, "name": "26e87655edaf23ad2ba1167fde23f912"}, {"bike_id": "ad75bfcfe8ae3ff37b1c82026b5c0958", "type": "electric_scooter", "is_disabled": 0, "lat": 38.93871133333333, "rental_uris": {"ios": "https://dc.lft.to/lastmile_qr_scan", "android": "https://dc.lft.to/lastmile_qr_scan"}, "is_reserved": 0, "fusion_lon": 0.0, "fusion_lat": 0.0, "lon": -77.0265025, "name": "ad75bfcfe8ae3ff37b1c82026b5c0958"}, {"bike_id": "b54636c853b82f58746817c59c51c4cc", "type": "electric_scooter", "is_disabled": 0, "lat": 38.93335416666667, "rental_uris": {"ios": "https://dc.lft.to/lastmile_qr_scan", "android": "https://dc.lft.to/lastmile_qr_scan"}, "is_reserved": 0, "fusion_lon": 0.0, "fusion_lat": 0.0, "lon": -77.039867, "name": "b54636c853b82f58746817c59c51c4cc"}, {"bike_id": "b34d914f2dc434c1861bd75b83ecae2d", "type": "electric_scooter", "is_disabled": 0, "lat": 38.919565, "rental_uris": {"ios": "https://dc.lft.to/lastmile_qr_scan", "android": "https://dc.lft.to/lastmile_qr_scan"}, "is_reserved": 0, "fusion_lon": 0.0, "fusion_lat": 0.0, "lon": -77.02479933333333, "name": "b34d914f2dc434c1861bd75b83ecae2d"}, {"bike_id": "2279d3a28b43afc500caa74d3e24719d", "type": "electric_bike", "is_disabled": 0, "lat": 38.854139833333335, "rental_uris": {"ios": "https://dc.lft.to/lastmile_qr_scan", "android": "https://dc.lft.to/lastmile_qr_scan"}, "is_reserved": 0, "fusion_lon": 0.0, "fusion_lat": 0.0, "lon": -77.12075583333333, "name": "2279d3a28b43afc500caa74d3e24719d"}, {"bike_id": "560fa7cd28459c9c2f1d4eb19006831f", "type": "electric_scooter", "is_disabled": 0, "lat": 38.9042135, "rental_uris": {"ios": "https://dc.lft.to/lastmile_qr_scan", "android": "https://dc.lft.to/lastmile_qr_scan"}, "is_reserved": 0, "fusion_lon": 0.0, "fusion_lat": 0.0, "lon": -76.97376016666666, "name": "560fa7cd28459c9c2f1d4eb19006831f"}, {"bike_id": "51b36fb82664dc8ef200cc3f016578a6", "type": "electric_scooter", "is_disabled": 0, "lat": 38.89832366666667, "rental_uris": {"ios": "https://dc.lft.to/lastmile_qr_scan", "android": "https://dc.lft.to/lastmile_qr_scan"}, "is_reserved": 0, "fusion_lon": 0.0, "fusion_lat": 0.0, "lon": -77.03190483333333, "name": "51b36fb82664dc8ef200cc3f016578a6"}, {"bike_id": "d81781bc764e9736c22f8fc74feb5e50", "type": "electric_scooter", "is_disabled": 0, "lat": 38.90778516666666, "rental_uris": {"ios": "https://dc.lft.to/lastmile_qr_scan", "android": "https://dc.lft.to/lastmile_qr_scan"}, "is_reserved": 0, "fusion_lon": 0.0, "fusion_lat": 0.0, "lon": -77.00214583333333, "name": "d81781bc764e9736c22f8fc74feb5e50"}, {"bike_id": "4c547f0457959902dc028f194f70ccfa", "type": "electric_scooter", "is_disabled": 0, "lat": 38.897224333333334, "rental_uris": {"ios": "https://dc.lft.to/lastmile_qr_scan", "android": "https://dc.lft.to/lastmile_qr_scan"}, "is_reserved": 0, "fusion_lon": 0.0, "fusion_lat": 0.0, "lon": -77.02712816666667, "name": "4c547f0457959902dc028f194f70ccfa"}, {"bike_id": "3e5fd7a514b0893c0d52e0b110b6c260", "type": "electric_scooter", "is_disabled": 0, "lat": 38.901726, "rental_uris": {"ios": "https://dc.lft.to/lastmile_qr_scan", "android": "https://dc.lft.to/lastmile_qr_scan"}, "is_reserved": 0, "fusion_lon": 0.0, "fusion_lat": 0.0, "lon": -76.98452266666666, "name": "3e5fd7a514b0893c0d52e0b110b6c260"}, {"bike_id": "3a6ca843654069b55c17272e2495facb", "type": "electric_scooter", "is_disabled": 0, "lat": 38.90044816666666, "rental_uris": {"ios": "https://dc.lft.to/lastmile_qr_scan", "android": "https://dc.lft.to/lastmile_qr_scan"}, "is_reserved": 0, "fusion_lon": 0.0, "fusion_lat": 0.0, "lon": -76.9882825, "name": "3a6ca843654069b55c17272e2495facb"}, {"bike_id": "e15133ecaf62672122a0a81f2a291f6f", "type": "electric_scooter", "is_disabled": 0, "lat": 38.9181375, "rental_uris": {"ios": "https://dc.lft.to/lastmile_qr_scan", "android": "https://dc.lft.to/lastmile_qr_scan"}, "is_reserved": 0, "fusion_lon": 0.0, "fusion_lat": 0.0, "lon": -77.02709116666666, "name": "e15133ecaf62672122a0a81f2a291f6f"}, {"bike_id": "6d89c89920df0464d1f4f7ec79d7dc38", "type": "electric_scooter", "is_disabled": 0, "lat": 38.924544, "rental_uris": {"ios": "https://dc.lft.to/lastmile_qr_scan", "android": "https://dc.lft.to/lastmile_qr_scan"}, "is_reserved": 0, "fusion_lon": 0.0, "fusion_lat": 0.0, "lon": -77.02412566666666, "name": "6d89c89920df0464d1f4f7ec79d7dc38"}, {"bike_id": "9950e0f68892658696f6dcad8db463f7", "type": "electric_scooter", "is_disabled": 0, "lat": 38.9187585, "rental_uris": {"ios": "https://dc.lft.to/lastmile_qr_scan", "android": "https://dc.lft.to/lastmile_qr_scan"}, "is_reserved": 0, "fusion_lon": 0.0, "fusion_lat": 0.0, "lon": -77.04466116666667, "name": "9950e0f68892658696f6dcad8db463f7"}, {"bike_id": "7951cec947502b41414a7a3ab75e2f30", "type": "electric_scooter", "is_disabled": 0, "lat": 38.86659316666667, "rental_uris": {"ios": "https://dc.lft.to/lastmile_qr_scan", "android": "https://dc.lft.to/lastmile_qr_scan"}, "is_reserved": 0, "fusion_lon": 0.0, "fusion_lat": 0.0, "lon": -76.988866, "name": "7951cec947502b41414a7a3ab75e2f30"}, {"bike_id": "a64e98acdaf39b73b677654b5a814a50", "type": "electric_scooter", "is_disabled": 0, "lat": 38.86565183333333, "rental_uris": {"ios": "https://dc.lft.to/lastmile_qr_scan", "android": "https://dc.lft.to/lastmile_qr_scan"}, "is_reserved": 0, "fusion_lon": 0.0, "fusion_lat": 0.0, "lon": -76.98216116666667, "name": "a64e98acdaf39b73b677654b5a814a50"},