{"data": {"bikes": [{"is_disabled": 0, "fusion_lon": 0.0, "fusion_lat": 0.0, "lat": 39.052666333333335, "type": "electric_bike", "lon": -77.04379916666667, "bike_id": "57d9dcb8c0eeed5293f40c8962a1b732", "rental_uris": {"android": "https://dc.lft.to/lastmile_qr_scan", "ios": "https://dc.lft.to/lastmile_qr_scan"}, "name": "57d9dcb8c0eeed5293f40c8962a1b732", "is_reserved": 0}, {"is_disabled": 0, "fusion_lon": 0.0, "fusion_lat": 0.0, "lat": 38.91980866666667, "type": "electric_scooter", "lon": -77.04174383333333, "bike_id": "e25e4b8d516d050f764c3be7cfc55b14", "rental_uris": {"android": "https://dc.lft.to/lastmile_qr_scan", "ios": "https://dc.lft.to/lastmile_qr_scan"}, "name": "e25e4b8d516d050f764c3be7cfc55b14", "is_reserved": 0}, {"is_disabled": 0, "fusion_lon": 0.0, "fusion_lat": 0.0, "lat": 38.917039833333334, "type": "electric_scooter", "lon": -77.0011375, "bike_id": "f160f225bc860ff6484ce4a95d31560d", "rental_uris": {"android": "https://dc.lft.to/lastmile_qr_scan", "ios": "https://dc.lft.to/lastmile_qr_scan"}, "name": "f160f225bc860ff6484ce4a95d31560d", "is_reserved": 0}, {"is_disabled": 0, "fusion_lon": 0.0, "fusion_lat": 0.0, "lat": 38.9369725, "type": "electric_scooter", "lon": -77.05599983333333, "bike_id": "17957657d677eebc59c843ece134db8c", "rental_uris": {"android": "https://dc.lft.to/lastmile_qr_scan", "ios": "https://dc.lft.to/lastmile_qr_scan"}, "name": "17957657d677eebc59c843ece134db8c", "is_reserved": 0}, {"is_disabled": 0, "fusion_lon": 0.0, "fusion_lat": 0.0, "lat": 38.9178025, "type": "electric_scooter", "lon": -77.0177615, "bike_id": "a57e41a488e283b00201796bb8cd5644", "rental_uris": {"android": "https://dc.lft.to/lastmile_qr_scan", "ios": "https://dc.lft.to/lastmile_qr_scan"}, "name": "a57e41a488e283b00201796bb8cd5644", "is_reserved": 0}, {"is_disabled": 0, "fusion_lon": 0.0, "fusion_lat": 0.0, "lat": 38.88454133333333, "type": "electric_bike", "lon": -76.91634816666667, "bike_id": "3ffdf996e7632ee089d1c506a1da1325", "rental_uris": {"android": "https://dc.lft.to/lastmile_qr_scan", "ios": "https://dc.lft.to/lastmile_qr_scan"}, "name": "3ffdf996e7632ee089d1c506a1da1325", "is_reserved": 0}, {"is_disabled": 0, "fusion_lon": 0.0, "fusion_lat": 0.0, "lat": 38.948919333333336, "type": "electric_bike", "lon": -76.96375366666666, "bike_id": "bdaf1c6abb814213f081662b9cf3bc8c", "rental_uris": {"android": "https://dc.lft.to/lastmile_qr_scan", "ios": "https://dc.lft.to/lastmile_qr_scan"}, "name": "bdaf1c6abb814213f081662b9cf3bc8c", "is_reserved": 0}, {"is_disabled": 0, "fusion_lon": 0.0, "fusion_lat": 0.0, "lat": 38.90555, "type": "electric_scooter", "lon": -77.00088416666667, "bike_id": "f2dc3f8ad883a53f4dfd81383d7d83ee", "rental_uris": {"android": "https://dc.lft.to/lastmile_qr_scan", "ios": "https://dc.lft.to/lastmile_qr_scan"}, "name": "f2dc3f8ad883a53f4dfd81383d7d83ee", "is_reserved": 0}, {"is_disabled": 0, "fusion_lon": 0.0, "fusion_lat": 0.0, "lat": 38.90470333333333, "type": "electric_scooter", "lon": -76.99202883333334, "bike_id": "b3a2eb38d724bcb5d55dfbe3fc3063d0", "rental_uris": {"android": "https://dc.lft.to/lastmile_qr_scan", "ios": "https://dc.lft.to/lastmile_qr_scan"}, "name": "b3a2eb38d724bcb5d55dfbe3fc3063d0", "is_reserved": 0}, {"is_disabled": 0, "fusion_lon": 0.0, "fusion_lat": 0.0, "lat": 38.91462533333333, "type": "electric_scooter", "lon": -77.0142945, "bike_id": "b2b39ba10f1d5c064a81c0a13625fcdc", "rental_uris": {"android": "https://dc.lft.to/lastmile_qr_scan", "ios": "https://dc.lft.to/lastmile_qr_scan"}, "name": "b2b39ba10f1d5c064a81c0a13625fcdc", "is_reserved": 0}, {"is_disabled": 0, "fusion_lon": 0.0, "fusion_lat": 0.0, "lat": 38.9021705, "type": "electric_scooter", "lon": -77.02441183333333, "bike_id": "d0a23dc0f16e60bb811339cdce9a52e0", "rental_uris": {"android": "https://dc.lft.to/lastmile_qr_scan", "ios": "https://dc.lft.to/lastmile_qr_scan"}, "name": "d0a23dc0f16e60bb811339cdce9a52e0", "is_reserved": 0}, {"is_disabled": 0, "fusion_lon": 0.0, "fusion_lat": 0.0, "lat": 38.9143, "type": "electric_scooter", "lon": -77.028115, "bike_id": "7b868a1d0af80e0231e69ae05afe0ea3", "rental_uris": {"android": "https://dc.lft.to/lastmile_qr_scan", "ios": "https://dc.lft.to/lastmile_qr_scan"}, "name": "7b868a1d0af80e0231e69ae05afe0ea3", "is_reserved": 0}, {"is_disabled": 0, "fusion_lon": 0.0, "fusion_lat": 0.0, "lat": 38.9223215, "type": "electric_scooter", "lon": -77.0233295, "bike_id": "2342fa34a7373b86ecc016adcbb8b3aa", "rental_uris": {"android": "https://dc.lft.to/lastmile_qr_scan", "ios": "https://dc.lft.to/lastmile_qr_scan"}, "name": "2342fa34a7373b86ecc016adcbb8b3aa", "is_reserved": 0}, {"is_disabled": 0, "fusion_lon": 0.0, "fusion_lat": 0.0, "lat": 38.92261033333333, "type": "electric_scooter", "lon": -77.07131683333333, "bike_id": "6dedb487cdfe8b71f1cfdd514ccbbe79", "rental_uris": {"android": "https://dc.lft.to/lastmile_qr_scan", "ios": "https://dc.lft.to/lastmile_qr_scan"}, "name": "6dedb487cdfe8b71f1cfdd514ccbbe79", "is_reserved": 0}, {"is_disabled": 0, "fusion_lon": 0.0, "fusion_lat": 0.0, "lat": 38.9164165, "type": "electric_scooter", "lon": -77.031927, "bike_id": "18819d0664be995f49aee5375916143a", "rental_uris": {"android": "https://dc.lft.to/lastmile_qr_scan", "ios": "https://dc.lft.to/lastmile_qr_scan"}, "name": "18819d0664be995f49aee5375916143a", "is_reserved": 0}, {"is_disabled": 0, "fusion_lon": 0.0, "fusion_lat": 0.0, "lat": 38.89843166666667, "type": "electric_scooter", "lon": -77.02931766666667, "bike_id": "f34b80566d69291caa4f1db0964a8a0c", "rental_uris": {"android": "https://dc.lft.to/lastmile_qr_scan", "ios": "https://dc.lft.to/lastmile_qr_scan"}, "name": "f34b80566d69291caa4f1db0964a8a0c", "is_reserved": 0}, {"is_disabled": 0, "fusion_lon": 0.0, "fusion_lat": 0.0, "lat": 38.907781166666666, "type": "electric_scooter", "lon": -76.94127016666667, "bike_id": "d36c3cc0639cb85f23c94ddc7cb92ca9", "rental_uris": {"android": "https://dc.lft.to/lastmile_qr_scan", "ios": "https://dc.lft.to/lastmile_qr_scan"}, "name": "d36c3cc0639cb85f23c94ddc7cb92ca9", "is_reserved": 0}, {"is_disabled": 0, "fusion_lon": 0.0, "fusion_lat": 0.0, "lat": 38.895009333333334, "type": "electric_scooter", "lon": -76.9487905, "bike_id": "39879aa7781fb7aaa77c21e90c27555d", "rental_uris": {"android": "https://dc.lft.to/lastmile_qr_scan", "ios": "https://dc.lft.to/lastmile_qr_scan"}, "name": "39879aa7781fb7aaa77c21e90c27555d", "is_reserved": 0}, {"is_disabled": 0, "fusion_lon": 0.0, "fusion_lat": 0.0, "lat": 38.86351833333333, "type": "electric_scooter", "lon": -76.99066266666667, "bike_id": "3cb1a1d15c92541d93709ed55ffb5979", "rental_uris": {"android": "https://dc.lft.to/lastmile_qr_scan", "ios": "https://dc.lft.to/lastmile_qr_scan"}, "name": "3cb1a1d15c92541d93709ed55ffb5979", "is_reserved": 0}, {"is_disabled": 0, "fusion_lon": 0.0, "fusion_lat": 0.0, "lat": 38.9127, "type": "electric_scooter", "lon": -77.0321895, "bike_id": "0cf85e86e7c8bd02247c2324f453998a", "rental_uris": {"android": "https://dc.lft.to/lastmile_qr_scan", "ios": "https://dc.lft.to/lastmile_qr_scan"}, "name": "0cf85e86e7c8bd02247c2324f453998a", "is_reserved": 0}, {"is_disabled": 0, "fusion_lon": 0.0, "fusion_lat": 0.0, "lat": 38.919385, "type": "electric_scooter", "lon": -77.08136316666666, "bike_id": "fcfc08f2eefb51cac202a28500aae1b8", "rental_uris": {"android": "https://dc.lft.to/lastmile_qr_scan", "ios": "https://dc.lft.to/lastmile_qr_scan"}, "name": "fcfc08f2eefb51cac202a28500aae1b8", "is_reserved": 0}, {"is_disabled": 0, "fusion_lon": 0.0, "fusion_lat": 0.0, "lat": 38.922184333333334, "type": "electric_scooter", "lon": -77.042468, "bike_id": "cc7082291aefa5b819f91a140bb18fca", "rental_uris": {"android": "https://dc.lft.to/lastmile_qr_scan", "ios": "https://dc.lft.to/lastmile_qr_scan"}, "name": "cc7082291aefa5b819f91a140bb18fca", "is_reserved": 0}, {"is_disabled": 0, "fusion_lon": 0.0, "fusion_lat": 0.0, "lat": 39.09588516666667, "type": "electric_bike", "lon": -77.14776633333334, "bike_id": "f25e146aeea6bdf0603999e13c9f4bc1", "rental_uris": {"android": "https://dc.lft.to/lastmile_qr_scan", "ios": "https://dc.lft.to/lastmile_qr_scan"}, "name": "f25e146aeea6bdf0603999e13c9f4bc1", "is_reserved": 0}, {"is_disabled": 0, "fusion_lon": 0.0, "fusion_lat": 0.0, "lat": 38.900370333333335, "type": "electric_scooter", "lon": -76.99266516666667, "bike_id": "03bbe4bf0e97cf7f4ae29514a5caca3e", "rental_uris": {"android": "https://dc.lft.to/lastmile_qr_scan", "ios": "https://dc.lft.to/lastmile_qr_scan"}, "name": "03bbe4bf0e97cf7f4ae29514a5caca3e", "is_reserved": 0}, {"is_disabled": 0, "fusion_lon": 0.0, "fusion_lat": 0.0, "lat": 38.85553816666667, "type": "electric_bike", "lon": -77.10714983333334, "bike_id": "324b73f59ff57458c1461189bb577100", "rental_uris": {"android": "https://dc.lft.to/lastmile_qr_scan", "ios": "https://dc.lft.to/lastmile_qr_scan"}, "name": "324b73f59ff57458c1461189bb577100", "is_reserved": 0}, {"is_disabled": 0, "fusion_lon": 0.0, "fusion_lat": 0.0, "lat": 38.999358666666666, "type": "electric_bike", "lon": -77.00122533333334, "bike_id": "2c484b38d753a35a48b949aaae3f3373", "rental_uris": {"android": "https://dc.lft.to/lastmile_qr_scan", "ios": "https://dc.lft.to/lastmile_qr_scan"}, "name": "2c484b38d753a35a48b949aaae3f3373", "is_reserved": 0}, {"is_disabled": 0, "fusion_lon": 0.0, "fusion_lat": 0.0, "lat": 38.91912683333334, "type": "electric_scooter", "lon": -77.024202, "bike_id": "24482ed1198bf3710403ec8a4ef357ec", "rental_uris": {"android": "https://dc.lft.to/lastmile_qr_scan", "ios": "https://dc.lft.to/lastmile_qr_scan"}, "name": "24482ed1198bf3710403ec8a4ef357ec", "is_reserved": 0}, {"is_disabled": 0, "fusion_lon": 0.0, "fusion_lat": 0.0, "lat": 38.922417833333334, "type": "electric_scooter", "lon": -77.07322433333333, "bike_id": "001dd3b53f0122cb89ba5e02a5132242", "rental_uris": {"android": "https://dc.lft.to/lastmile_qr_scan", "ios": "https://dc.lft.to/lastmile_qr_scan"}, "name": "001dd3b53f0122cb89ba5e02a5132242", "is_reserved": 0}, {"is_disabled": 0, "fusion_lon": 0.0, "fusion_lat": 0.0, "lat": 38.89830333333333, "type": "electric_scooter", "lon": -76.9462925, "bike_id": "850fc50177d14cc0635f6032364dd522", "rental_uris": {"android": "https://dc.lft.to/lastmile_qr_scan", "ios": "https://dc.lft.to/lastmile_qr_scan"}, "name": "850fc50177d14cc0635f6032364dd522", "is_reserved": 0}, {"is_disabled": 0, "fusion_lon": 0.0, "fusion_lat": 0.0, "lat": 38.856515333333334, "type": "electric_bike", "lon": -77.08530133333333, "bike_id": "3da0c958daf8f9e88710353381b7c08b", "rental_uris": {"android": "https://dc.lft.to/lastmile_qr_scan", "ios": "https://dc.lft.to/lastmile_qr_scan"}, "name": "3da0c958daf8f9e88710353381b7c08b", "is_reserved": 0}, {"is_disabled": 0, "fusion_lon": 0.0, "fusion_lat": 0.0, "lat": 38.918246833333335, "type": "electric_scooter", "lon": -77.024363, "bike_id": "4eeeb27a18169683775b5d864e65df8f", "rental_uris": {"android": "https://dc.lft.to/lastmile_qr_scan", "ios": "https://dc.lft.to/lastmile_qr_scan"}, "name": "4eeeb27a18169683775b5d864e65df8f", "is_reserved": 0}, {"is_disabled": 0, "fusion_lon": 0.0, "fusion_lat": 0.0, "lat": 38.90700183333333, "type": "electric_scooter", "lon": -77.01045616666667, "bike_id": "7085c100491ceb959319ffac0f749e66", "rental_uris": {"android": "https://dc.lft.to/lastmile_qr_scan", "ios": "https://dc.lft.to/lastmile_qr_scan"}, "name": "7085c100491ceb959319ffac0f749e66", "is_reserved": 0}, {"is_disabled": 0, "fusion_lon": 0.0, "fusion_lat": 0.0, "lat": 38.916976166666664, "type": "electric_scooter", "lon": -77.02722183333333, "bike_id": "6ed8468ceb1833c9bdb5f67a55985ce3", "rental_uris": {"android": "https://dc.lft.to/lastmile_qr_scan", "ios": "https://dc.lft.to/lastmile_qr_scan"}, "name": "6ed8468ceb1833c9bdb5f67a55985ce3", "is_reserved": 0}, {"is_disabled": 0, "fusion_lon": 0.0, "fusion_lat": 0.0, "lat": 38.91907466666667, "type": "electric_scooter", "lon": -77.029692, "bike_id": "906df2689945d270fdcff4e87e686d91", "rental_uris": {"android": "https://dc.lft.to/lastmile_qr_scan", "ios": "https://dc.lft.to/lastmile_qr_scan"}, "name": "906df2689945d270fdcff4e87e686d91", "is_reserved": 0}, {"is_disabled": 0, "fusion_lon": 0.0, "fusion_lat": 0.0, "lat": 38.892228, "type": "electric_scooter", "lon": -77.04686116666667, "bike_id": "d7871874df95d52e658980fd023e25d7", "rental_uris": {"android": "https://dc.lft.to/lastmile_qr_scan", "ios": "https://dc.lft.to/lastmile_qr_scan"}, "name": "d7871874df95d52e658980fd023e25d7", "is_reserved": 0}, {"is_disabled": 0, "fusion_lon": 0.0, "fusion_lat": 0.0, "lat": 38.88604816666667, "type": "electric_scooter", "lon": -77.00590866666667, "bike_id": "a49d7da19e0276fe87219a5b3a2a27a8", "rental_uris": {"android": "https://dc.lft.to/lastmile_qr_scan", "ios": "https://dc.lft.to/lastmile_qr_scan"}, "name": "a49d7da19e0276fe87219a5b3a2a27a8", "is_reserved": 0}, {"is_disabled": 0, "fusion_lon": 0.0, "fusion_lat": 0.0, "lat": 38.916956, "type": "electric_scooter", "lon": -77.01179366666666, "bike_id": "3fd33e9350ddf9b81a69e1e52929edcd", "rental_uris": {"android": "https://dc.lft.to/lastmile_qr_scan", "ios": "https://dc.lft.to/lastmile_qr_scan"}, "name": "3fd33e9350ddf9b81a69e1e52929edcd", "is_reserved": 0}, {"is_disabled": 0, "fusion_lon": 0.0, "fusion_lat": 0.0, "lat": 38.870506, "type": "electric_scooter", "lon": -76.9808495, "bike_id": "4d2d73fcea5a7f5b00ed49a1fd65a36b", "rental_uris": {"android": "https://dc.lft.to/lastmile_qr_scan", "ios": "https://dc.lft.to/lastmile_qr_scan"}, "name": "4d2d73fcea5a7f5b00ed49a1fd65a36b", "is_reserved": 0}, {"is_disabled": 0, "fusion_lon": 0.0, "fusion_lat": 0.0, "lat": 38.91336883333334, "type": "electric_scooter", "lon": -77.0317145, "bike_id": "d5acfac4c8091bc1274b7d6f01b83839", "rental_uris": {"android": "https://dc.lft.to/lastmile_qr_scan", "ios": "https://dc.lft.to/lastmile_qr_scan"}, "name": "d5acfac4c8091bc1274b7d6f01b83839", "is_reserved": 0}, {"is_disabled": 0, "fusion_lon": 0.0, "fusion_lat": 0.0, "lat": 38.84928433333333, "type": "electric_bike", "lon": -77.10004883333333, "bike_id": "ea706883c21f625e08b4c9a9154744a2", "rental_uris": {"android": "https://dc.lft.to/lastmile_qr_scan", "ios": "https://dc.lft.to/lastmile_qr_scan"}, "name": "ea706883c21f625e08b4c9a9154744a2", "is_reserved": 0}, {"is_disabled": 0, "fusion_lon": 0.0, "fusion_lat": 0.0, "lat": 38.916519, "type": "electric_scooter", "lon": -77.0218155, "bike_id": "89d04f5a232cfb6479d7843bbe7d3acd", "rental_uris": {"android": "https://dc.lft.to/lastmile_qr_scan", "ios": "https://dc.lft.to/lastmile_qr_scan"}, "name": "89d04f5a232cfb6479d7843bbe7d3acd", "is_reserved": 0}, {"is_disabled": 0, "fusion_lon": 0.0, "fusion_lat": 0.0, "lat": 38.900404, "type": "electric_scooter", "lon": -76.990335, "bike_id": "d44df4b160c9b992552c2f375b540245", "rental_uris": {"android": "https://dc.lft.to/lastmile_qr_scan", "ios": "https://dc.lft.to/lastmile_qr_scan"}, "name": "d44df4b160c9b992552c2f375b540245", "is_reserved": 0}, {"is_disabled": 0, "fusion_lon": 0.0, "fusion_lat": 0.0, "lat": 38.95633466666666, "type": "electric_scooter", "lon": -77.09101433333333, "bike_id": "c45f052f5b8e84e512106d59291cfd1b", "rental_uris": {"android": "https://dc.lft.to/lastmile_qr_scan", "ios": "https://dc.lft.to/lastmile_qr_scan"}, "name": "c45f052f5b8e84e512106d59291cfd1b", "is_reserved": 0}, {"is_disabled": 0, "fusion_lon": 0.0, "fusion_lat": 0.0, "lat": 38.91326516666667, "type": "electric_scooter", "lon": -77.03250233333333, "bike_id": "9f5c958bc6fadb2e2e160b5e5c9740d2", "rental_uris": {"android": "https://dc.lft.to/lastmile_qr_scan", "ios": "https://dc.lft.to/lastmile_qr_scan"}, "name": "9f5c958bc6fadb2e2e160b5e5c9740d2", "is_reserved": 0}, {"is_disabled": 0, "fusion_lon": 0.0, "fusion_lat": 0.0, "lat": 38.926800666666665, "type": "electric_scooter", "lon": -77.03099266666666, "bike_id": "95806df7a1ff28ec820f1aa97f599da6", "rental_uris": {"android": "https://dc.lft.to/lastmile_qr_scan", "ios": "https://dc.lft.to/lastmile_qr_scan"}, "name": "95806df7a1ff28ec820f1aa97f599da6", "is_reserved": 0}, {"is_disabled": 0, "fusion_lon": 0.0, "fusion_lat": 0.0, "lat": 38.8918925, "type": "electric_scooter", "lon": -76.9883, "bike_id": "660d2f3c825a83d635ae0de9f8fc150c", "rental_uris": {"android": "https://dc.lft.to/lastmile_qr_scan", "ios": "https://dc.lft.to/lastmile_qr_scan"}, "name": "660d2f3c825a83d635ae0de9f8fc150c", "is_reserved": 0}, {"is_disabled": 0, "fusion_lon": 0.0, "fusion_lat": 0.0, "lat": 38.91823983333333, "type": "electric_scooter", "lon": -77.02436483333334, "bike_id": "50e4c33a9421128ae2c0094976a2fa41", "rental_uris": {"android": "https://dc.lft.to/lastmile_qr_scan", "ios": "https://dc.lft.to/lastmile_qr_scan"}, "name": "50e4c33a9421128ae2c0094976a2fa41", "is_reserved": 0}, {"is_disabled": 0, "fusion_lon": 0.0, "fusion_lat": 0.0, "lat": 38.917952166666666, "type": "electric_scooter", "lon": -77.036569, "bike_id": "306468cc7a814fabd8a1fa4eb9a2c93c", "rental_uris": {"android": "https://dc.lft.to/lastmile_qr_scan", "ios": "https://dc.lft.to/lastmile_qr_scan"}, "name": "306468cc7a814fabd8a1fa4eb9a2c93c", "is_reserved": 0}, {"is_disabled": 0, "fusion_lon": 0.0, "fusion_lat": 0.0, "lat": 38.91405, "type": "electric_scooter", "lon": -77.008044, "bike_id": "aa28ba6358ebcece528baf18acd9ac09", "rental_uris": {"android": "https://dc.lft.to/lastmile_qr_scan", "ios": "https://dc.lft.to/lastmile_qr_scan"}, "name": "aa28ba6358ebcece528baf18acd9ac09", "is_reserved": 0}, {"is_disabled": 0, "fusion_lon": 0.0, "fusion_lat": 0.0, "lat": 38.91017733333333, "type": "electric_scooter", "lon": -77.04401833333333, "bike_id": "9b5735a899b6c5173cea6f6605fab9d7", "rental_uris": {"android": "https://dc.lft.to/lastmile_qr_scan", "ios": "https://dc.lft.to/lastmile_qr_scan"}, "name": "9b5735a899b6c5173cea6f6605fab9d7", "is_reserved": 0}, {"is_disabled": 0, "fusion_lon": 0.0, "fusion_lat": 0.0, "lat": 38.900544833333335, "type": "electric_scooter", "lon": -77.04913583333334, "bike_id": "63e0a15096a03cca6921964b9f115933", "rental_uris": {"android": "https://dc.lft.to/lastmile_qr_scan", "ios": "https://dc.lft.to/lastmile_qr_scan"}, "name": "63e0a15096a03cca6921964b9f115933", "is_reserved": 0}, {"is_disabled": 0, "fusion_lon": 0.0, "fusion_lat": 0.0, "lat": 38.930760166666666, "type": "electric_scooter", "lon": -77.0340165, "bike_id": "7805e3197e1fa745fd8c7dfb3ca1d0d7", "rental_uris": {"android": "https://dc.lft.to/lastmile_qr_scan", "ios": "https://dc.lft.to/lastmile_qr_scan"}, "name": "7805e3197e1fa745fd8c7dfb3ca1d0d7", "is_reserved": 0}, {"is_disabled": 0, "fusion_lon": 0.0, "fusion_lat": 0.0, "lat": 38.8925665, "type": "electric_bike", "lon": -76.99702683333334, "bike_id": "a2d7550b7e2a527c6696a791dcaff89d", "rental_uris": {"android": "https://dc.lft.to/lastmile_qr_scan", "ios": "https://dc.lft.to/lastmile_qr_scan"}, "name": "a2d7550b7e2a527c6696a791dcaff89d", "is_reserved": 0}, {"is_disabled": 0, "fusion_lon": 0.0, "fusion_lat": 0.0, "lat": 38.98822966666667, "type": "electric_bike", "lon": -76.98754466666666, "bike_id": "9f42588f6b3f80786ab545621fe33186", "rental_uris": {"android": "https://dc.lft.to/lastmile_qr_scan", "ios": "https://dc.lft.to/lastmile_qr_scan"}, "name": "9f42588f6b3f80786ab545621fe33186", "is_reserved": 0}, {"is_disabled": 0, "fusion_lon": 0.0, "fusion_lat": 0.0, "lat": 38.8827885, "type": "electric_scooter", "lon": -76.9877655, "bike_id": "e3e3c6a00ab5a826397ce5f464cc88ec", "rental_uris": {"android": "https://dc.lft.to/lastmile_qr_scan", "ios": "https://dc.lft.to/lastmile_qr_scan"}, "name": "e3e3c6a00ab5a826397ce5f464cc88ec", "is_reserved": 0}, {"is_disabled": 0, "fusion_lon": 0.0, "fusion_lat": 0.0, "lat": 38.90496133333333, "type": "electric_scooter", "lon": -77.056821, "bike_id": "840122e4b2ac86447a5ed6ef3d816db3", "rental_uris": {"android": "https://dc.lft.to/lastmile_qr_scan", "ios": "https://dc.lft.to/lastmile_qr_scan"}, "name": "840122e4b2ac86447a5ed6ef3d816db3", "is_reserved": 0}, {"is_disabled": 0, "fusion_lon": 0.0, "fusion_lat": 0.0, "lat": 38.916811333333335, "type": "electric_scooter", "lon": -77.028066, "bike_id": "763fedd2568a8a446dc3cbb9b7051286", "rental_uris": {"android": "https://dc.lft.to/lastmile_qr_scan", "ios": "https://dc.lft.to/lastmile_qr_scan"}, "name": "763fedd2568a8a446dc3cbb9b7051286", "is_reserved": 0}, {"is_disabled": 0, "fusion_lon": 0.0, "fusion_lat": 0.0, "lat": 38.92750616666667, "type": "electric_scooter", "lon": -77.0335885, "bike_id": "c1f94af9d0ffc6b41c2ed4fd3dcdc660", "rental_uris": {"android": "https://dc.lft.to/lastmile_qr_scan", "ios": "https://dc.lft.to/lastmile_qr_scan"}, "name": "c1f94af9d0ffc6b41c2ed4fd3dcdc660", "is_reserved": 0}, {"is_disabled": 0, "fusion_lon": 0.0, "fusion_lat": 0.0, "lat": 38.901542, "type": "electric_scooter", "lon": -77.05307116666667, "bike_id": "34f244b74f63245cfff4862e1da27e8e", "rental_uris": {"android": "https://dc.lft.to/lastmile_qr_scan", "ios": "https://dc.lft.to/lastmile_qr_scan"}, "name": "34f244b74f63245cfff4862e1da27e8e", "is_reserved": 0}, {"is_disabled": 0, "fusion_lon": 0.0, "fusion_lat": 0.0, "lat": 38.920328166666664, "type": "electric_scooter", "lon": -77.02584516666667, "bike_id": "ff0b32c4edc2303d14c96c232ab79403", "rental_uris": {"android": "https://dc.lft.to/lastmile_qr_scan", "ios": "https://dc.lft.to/lastmile_qr_scan"}, "name": "ff0b32c4edc2303d14c96c232ab79403", "is_reserved": 0}, {"is_disabled": 0, "fusion_lon": 0.0, "fusion_lat": 0.0, "lat": 38.908996333333334, "type": "electric_scooter", "lon": -76.99866783333333, "bike_id": "d7206b5bb54b40de598a50a910b74811", "rental_uris": {"android": "https://dc.lft.to/lastmile_qr_scan", "ios": "https://dc.lft.to/lastmile_qr_scan"}, "name": "d7206b5bb54b40de598a50a910b74811", "is_reserved": 0}, {"is_disabled": 0, "fusion_lon": 0.0, "fusion_lat": 0.0, "lat": 38.9257985, "type": "electric_scooter", "lon": -76.9949265, "bike_id": "926d3a15cd622a6d63417e69ab9186ae", "rental_uris": {"android": "https://dc.lft.to/lastmile_qr_scan", "ios": "https://dc.lft.to/lastmile_qr_scan"}, "name": "926d3a15cd622a6d63417e69ab9186ae", "is_reserved": 0}, {"is_disabled": 0, "fusion_lon": 0.0, "fusion_lat": 0.0, "lat": 38.913616166666664, "type": "electric_scooter", "lon": -77.04177083333333, "bike_id": "a5f063ad25fe41df65683bb939270731", "rental_uris": {"android": "https://dc.lft.to/lastmile_qr_scan", "ios": "https://dc.lft.to/lastmile_qr_scan"}, "name": "a5f063ad25fe41df65683bb939270731", "is_reserved": 0}, {"is_disabled": 0, "fusion_lon": 0.0, "fusion_lat": 0.0, "lat": 38.92341033333334, "type": "electric_scooter", "lon": -77.0509675, "bike_id": "1c2f2744b63cd99e52dbb8a8bffd8826", "rental_uris": {"android": "https://dc.lft.to/lastmile_qr_scan", "ios": "https://dc.lft.to/lastmile_qr_scan"}, "name": "1c2f2744b63cd99e52dbb8a8bffd8826", "is_reserved": 0}, {"is_disabled": 0, "fusion_lon": 0.0, "fusion_lat": 0.0, "lat": 38.941999, "type": "electric_scooter", "lon": -77.025775, "bike_id": "46fdd71cf0ee5c8eb59e0d99dfb6ed21", "rental_uris": {"android": "https://dc.lft.to/lastmile_qr_scan", "ios": "https://dc.lft.to/lastmile_qr_scan"}, "name": "46fdd71cf0ee5c8eb59e0d99dfb6ed21", "is_reserved": 0}, {"is_disabled": 0, "fusion_lon": 0.0, "fusion_lat": 0.0, "lat": 38.88983916666667, "type": "electric_scooter", "lon": -77.00249466666666, "bike_id": "b1941a58f7ad71eeb26eac4e84767e7d", "rental_uris": {"android": "https://dc.lft.to/lastmile_qr_scan", "ios": "https://dc.lft.to/lastmile_qr_scan"}, "name": "b1941a58f7ad71eeb26eac4e84767e7d", "is_reserved": 0}, {"is_disabled": 0, "fusion_lon": 0.0, "fusion_lat": 0.0, "lat": 38.911109, "type": "electric_scooter", "lon": -77.03832383333334, "bike_id": "66aab1c0d35a39f157f12671286db0e0", "rental_uris": {"android": "https://dc.lft.to/lastmile_qr_scan", "ios": "https://dc.lft.to/lastmile_qr_scan"}, "name": "66aab1c0d35a39f157f12671286db0e0", "is_reserved": 0}, {"is_disabled": 0, "fusion_lon": 0.0, "fusion_lat": 0.0, "lat": 38.90526633333333, "type": "electric_scooter", "lon": -77.050044, "bike_id": "0b4010099202197a9a04da3d604261a1", "rental_uris": {"android": "https://dc.lft.to/lastmile_qr_scan", "ios": "https://dc.lft.to/lastmile_qr_scan"}, "name": "0b4010099202197a9a04da3d604261a1", "is_reserved": 0}, {"is_disabled": 0, "fusion_lon": 0.0, "fusion_lat": 0.0, "lat": 39.02686083333333, "type": "electric_bike", "lon": -77.12596833333333, "bike_id": "c29e9f845ad2860d68df101b03576c9d", "rental_uris": {"android": "https://dc.lft.to/lastmile_qr_scan", "ios": "https://dc.lft.to/lastmile_qr_scan"}, "name": "c29e9f845ad2860d68df101b03576c9d", "is_reserved": 0}, {"is_disabled": 0, "fusion_lon": 0.0, "fusion_lat": 0.0, "lat": 38.90636816666667, "type": "electric_scooter", "lon": -76.9856505, "bike_id": "f7ffc76fa81581e3d0dc33c1831f7ea6", "rental_uris": {"android": "https://dc.lft.to/lastmile_qr_scan", "ios": "https://dc.lft.to/lastmile_qr_scan"}, "name": "f7ffc76fa81581e3d0dc33c1831f7ea6", "is_reserved": 0}, {"is_disabled": 0, "fusion_lon": 0.0, "fusion_lat": 0.0, "lat": 38.88500233333333, "type": "electric_scooter", "lon": -77.003227, "bike_id": "77d9a3f0d60d1b23a2a70fb5b33b5f02", "rental_uris": {"android": "https://dc.lft.to/lastmile_qr_scan", "ios": "https://dc.lft.to/lastmile_qr_scan"}, "name": "77d9a3f0d60d1b23a2a70fb5b33b5f02", "is_reserved": 0}, {"is_disabled": 0, "fusion_lon": 0.0, "fusion_lat": 0.0, "lat": 38.917148, "type": "electric_scooter", "lon": -77.09809883333334, "bike_id": "100f6af16b5bf8fc9cdc5252ee6a6a00", "rental_uris": {"android": "https://dc.lft.to/lastmile_qr_scan", "ios": "https://dc.lft.to/lastmile_qr_scan"}, "name": "100f6af16b5bf8fc9cdc5252ee6a6a00", "is_reserved": 0}, {"is_disabled": 0, "fusion_lon": 0.0, "fusion_lat": 0.0, "lat": 38.9169805, "type": "electric_scooter", "lon": -77.03470416666667, "bike_id": "c25c79e516cf78ae92a281423222374c", "rental_uris": {"android": "https://dc.lft.to/lastmile_qr_scan", "ios": "https://dc.lft.to/lastmile_qr_scan"}, "name": "c25c79e516cf78ae92a281423222374c", "is_reserved": 0}, {"is_disabled": 0, "fusion_lon": 0.0, "fusion_lat": 0.0, "lat": 38.9171505, "type": "electric_scooter", "lon": -77.02611283333333, "bike_id": "2578ebc5a4b70cfc415e275dd0f6c677", "rental_uris": {"android": "https://dc.lft.to/lastmile_qr_scan", "ios": "https://dc.lft.to/lastmile_qr_scan"}, "name": "2578ebc5a4b70cfc415e275dd0f6c677", "is_reserved": 0}, {"is_disabled": 0, "fusion_lon": 0.0, "fusion_lat": 0.0, "lat": 38.895223, "type": "electric_scooter", "lon": -77.00918316666667, "bike_id": "64013179b7f4252c327bb289fe591948", "rental_uris": {"android": "https://dc.lft.to/lastmile_qr_scan", "ios": "https://dc.lft.to/lastmile_qr_scan"}, "name": "64013179b7f4252c327bb289fe591948", "is_reserved": 0}, {"is_disabled": 0, "fusion_lon": 0.0, "fusion_lat": 0.0, "lat": 38.91153933333333, "type": "electric_scooter", "lon": -77.02381033333333, "bike_id": "1be24a37a02e2006cc3893804730d11f", "rental_uris": {"android": "https://dc.lft.to/lastmile_qr_scan", "ios": "https://dc.lft.to/lastmile_qr_scan"}, "name": "1be24a37a02e2006cc3893804730d11f", "is_reserved": 0}, {"is_disabled": 0, "fusion_lon": 0.0, "fusion_lat": 0.0, "lat": 38.865003, "type": "electric_scooter", "lon": -76.9897945, "bike_id": "84d4fe5447929718fc8edd70045d5651", "rental_uris": {"android": "https://dc.lft.to/lastmile_qr_scan", "ios": "https://dc.lft.to/lastmile_qr_scan"}, "name": "84d4fe5447929718fc8edd70045d5651", "is_reserved": 0}, {"is_disabled": 0, "fusion_lon": 0.0, "fusion_lat": 0.0, "lat": 38.916064666666664, "type": "electric_scooter", "lon": -77.03201583333333, "bike_id": "8c7fff380d33f812143d8cdfd0545115", "rental_uris": {"android": "https://dc.lft.to/lastmile_qr_scan", "ios": "https://dc.lft.to/lastmile_qr_scan"}, "name": "8c7fff380d33f812143d8cdfd0545115", "is_reserved": 0}, {"is_disabled": 0, "fusion_lon": 0.0, "fusion_lat": 0.0, "lat": 38.9180325, "type": "electric_scooter", "lon": -77.03436716666667, "bike_id": "a21eef38487a168c88507595b82c5f68", "rental_uris": {"android": "https://dc.lft.to/lastmile_qr_scan", "ios": "https://dc.lft.to/lastmile_qr_scan"}, "name": "a21eef38487a168c88507595b82c5f68", "is_reserved": 0}, {"is_disabled": 0, "fusion_lon": 0.0, "fusion_lat": 0.0, "lat": 38.918157666666666, "type": "electric_scooter", "lon": -77.0319265, "bike_id": "b0f2eb8033a4f4dcd584c483acb768ab", "rental_uris": {"android": "https://dc.lft.to/lastmile_qr_scan", "ios": "https://dc.lft.to/lastmile_qr_scan"}, "name": "b0f2eb8033a4f4dcd584c483acb768ab", "is_reserved": 0}, {"is_disabled": 0, "fusion_lon": 0.0, "fusion_lat": 0.0, "lat": 38.802959666666666, "type": "electric_bike", "lon": -77.0398405, "bike_id": "1b59c3bcedadbebfae6e8ba33789a1f3", "rental_uris": {"android": "https://dc.lft.to/lastmile_qr_scan", "ios": "https://dc.lft.to/lastmile_qr_scan"}, "name": "1b59c3bcedadbebfae6e8ba33789a1f3", "is_reserved": 0}, {"is_disabled": 0, "fusion_lon": 0.0, "fusion_lat": 0.0, "lat": 38.9207875, "type": "electric_scooter", "lon": -77.02559033333333, "bike_id": "46769f34de7ec0f534ca03e9555448cb", "rental_uris": {"android": "https://dc.lft.to/lastmile_qr_scan", "ios": "https://dc.lft.to/lastmile_qr_scan"}, "name": "46769f34de7ec0f534ca03e9555448cb", "is_reserved": 0}, {"is_disabled": 0, "fusion_lon": 0.0, "fusion_lat": 0.0, "lat": 38.8843795, "type": "electric_scooter", "lon": -77.023876, "bike_id": "4a5cd4d31ad7cf3c4de1eb9ab83ab3bc", "rental_uris": {"android": "https://dc.lft.to/lastmile_qr_scan", "ios": "https://dc.lft.to/lastmile_qr_scan"}, "name": "4a5cd4d31ad7cf3c4de1eb9ab83ab3bc", "is_reserved": 0}, {"is_disabled": 0, "fusion_lon": 0.0, "fusion_lat": 0.0, "lat": 38.90673783333333, "type": "electric_scooter", "lon": -77.0238935, "bike_id": "c43bdc879e25c6cb59113bc75d501eae", "rental_uris": {"android": "https://dc.lft.to/lastmile_qr_scan", "ios": "https://dc.lft.to/lastmile_qr_scan"}, "name": "c43bdc879e25c6cb59113bc75d501eae", "is_reserved": 0}, {"is_disabled": 0, "fusion_lon": 0.0, "fusion_lat": 0.0, "lat": 38.901365166666665, "type": "electric_scooter", "lon": -77.03950716666667, "bike_id": "215b133b0142d2252de2c1def4eca5ca", "rental_uris": {"android": "https://dc.lft.to/lastmile_qr_scan", "ios": "https://dc.lft.to/lastmile_qr_scan"}, "name": "215b133b0142d2252de2c1def4eca5ca", "is_reserved": 0}, {"is_disabled": 0, "fusion_lon": 0.0, "fusion_lat": 0.0, "lat": 38.930786, "type": "electric_scooter", "lon": -77.033957, "bike_id": "4047bde20b61544ef11496ee15f69bdc", "rental_uris": {"android": "https://dc.lft.to/lastmile_qr_scan", "ios": "https://dc.lft.to/lastmile_qr_scan"}, "name": "4047bde20b61544ef11496ee15f69bdc", "is_reserved": 0}, {"is_disabled": 0, "fusion_lon": 0.0, "fusion_lat": 0.0, "lat": 38.907146833333336, "type": "electric_scooter", "lon": -77.04526633333333, "bike_id": "2a33a38039e58a74af1ed2b43c2f9312", "rental_uris": {"android": "https://dc.lft.to/lastmile_qr_scan", "ios": "https://dc.lft.to/lastmile_qr_scan"}, "name": "2a33a38039e58a74af1ed2b43c2f9312", "is_reserved": 0}, {"is_disabled": 0, "fusion_lon": 0.0, "fusion_lat": 0.0, "lat": 38.917343333333335, "type": "electric_scooter", "lon": -77.0229965, "bike_id": "6ced05d87d40690b246e9190fc84fde5", "rental_uris": {"android": "https://dc.lft.to/lastmile_qr_scan", "ios": "https://dc.lft.to/lastmile_qr_scan"}, "name": "6ced05d87d40690b246e9190fc84fde5", "is_reserved": 0}, {"is_disabled": 0, "fusion_lon": 0.0, "fusion_lat": 0.0, "lat": 38.90691016666667, "type": "electric_scooter", "lon": -77.03722216666667, "bike_id": "bcd4bfd7d3bd25ff30b86c07f95d399f", "rental_uris": {"android": "https://dc.lft.to/lastmile_qr_scan", "ios": "https://dc.lft.to/lastmile_qr_scan"}, "name": "bcd4bfd7d3bd25ff30b86c07f95d399f", "is_reserved": 0}, {"is_disabled": 0, "fusion_lon": 0.0, "fusion_lat": 0.0, "lat": 38.919462, "type": "electric_scooter", "lon": -77.013767, "bike_id": "b059d3e0c40be77b8a32433f37f22086", "rental_uris": {"android": "https://dc.lft.to/lastmile_qr_scan", "ios": "https://dc.lft.to/lastmile_qr_scan"}, "name": "b059d3e0c40be77b8a32433f37f22086", "is_reserved": 0}, {"is_disabled": 0, "fusion_lon": 0.0, "fusion_lat": 0.0, "lat": 38.92228733333334, "type": "electric_scooter", "lon": -77.03313783333333, "bike_id": "4dedfd5bfe357ebd5e74593fe8d5dbf5", "rental_uris": {"android": "https://dc.lft.to/lastmile_qr_scan", "ios": "https://dc.lft.to/lastmile_qr_scan"}, "name": "4dedfd5bfe357ebd5e74593fe8d5dbf5", "is_reserved": 0}, {"is_disabled": 0, "fusion_lon": 0.0, "fusion_lat": 0.0, "lat": 38.91925166666667, "type": "electric_scooter", "lon": -77.03188316666666, "bike_id": "ff4efaf29f606a26463a540c1c84c381", "rental_uris": {"android": "https://dc.lft.to/lastmile_qr_scan", "ios": "https://dc.lft.to/lastmile_qr_scan"}, "name": "ff4efaf29f606a26463a540c1c84c381", "is_reserved": 0}, {"is_disabled": 0, "fusion_lon": 0.0, "fusion_lat": 0.0, "lat": 38.907352333333336, "type": "electric_scooter", "lon": -77.04495316666667, "bike_id": "100e8e1a4b98cc9a8e646b948890de63", "rental_uris": {"android": "https://dc.lft.to/lastmile_qr_scan", "ios": "https://dc.lft.to/lastmile_qr_scan"}, "name": "100e8e1a4b98cc9a8e646b948890de63", "is_reserved": 0}, {"is_disabled": 0, "fusion_lon": 0.0, "fusion_lat": 0.0, "lat": 38.8873945, "type": "electric_scooter", "lon": -77.015331, "bike_id": "12148eab461739e21a8a034faead53ed", "rental_uris": {"android": "https://dc.lft.to/lastmile_qr_scan", "ios": "https://dc.lft.to/lastmile_qr_scan"}, "name": "12148eab461739e21a8a034faead53ed", "is_reserved": 0}, {"is_disabled": 0, "fusion_lon": 0.0, "fusion_lat": 0.0, "lat": 38.900303666666666, "type": "electric_scooter", "lon": -77.00788416666667, "bike_id": "c9bb35fc3dc1d0775addc8a75b488573", "rental_uris": {"android": "https://dc.lft.to/lastmile_qr_scan", "ios": "https://dc.lft.to/lastmile_qr_scan"}, "name": "c9bb35fc3dc1d0775addc8a75b488573", "is_reserved": 0}, {"is_disabled": 0, "fusion_lon": 0.0, "fusion_lat": 0.0, "lat": 38.902154, "type": "electric_scooter", "lon": -77.0243425, "bike_id": "b61ed0ec1978d922727494480ac724ac", "rental_uris": {"android": "https://dc.lft.to/lastmile_qr_scan", "ios": "https://dc.lft.to/lastmile_qr_scan"}, "name": "b61ed0ec1978d922727494480ac724ac", "is_reserved": 0}, {"is_disabled": 0, "fusion_lon": 0.0, "fusion_lat": 0.0, "lat": 38.89697983333333, "type": "electric_scooter", "lon": -77.02137266666666, "bike_id": "06b00d28642780077630866924a06f26", "rental_uris": {"android": "https://dc.lft.to/lastmile_qr_scan", "ios": "https://dc.lft.to/lastmile_qr_scan"}, "name": "06b00d28642780077630866924a06f26", "is_reserved": 0}, {"is_disabled": 0, "fusion_lon": 0.0, "fusion_lat": 0.0, "lat": 38.885342666666666, "type": "electric_scooter", "lon": -76.92705066666667, "bike_id": "c82845bf50dbf5d740d39afc0a25d05f", "rental_uris": {"android": "https://dc.lft.to/lastmile_qr_scan", "ios": "https://dc.lft.to/lastmile_qr_scan"}, "name": "c82845bf50dbf5d740d39afc0a25d05f", "is_reserved": 0}, {"is_disabled": 0, "fusion_lon": 0.0, "fusion_lat": 0.0, "lat": 38.93024166666667, "type": "electric_scooter", "lon": -77.03452133333333, "bike_id": "2823e31e7c8d81b9ba37c1409de6896a", "rental_uris": {"android": "https://dc.lft.to/lastmile_qr_scan", "ios": "https://dc.lft.to/lastmile_qr_scan"}, "name": "2823e31e7c8d81b9ba37c1409de6896a", "is_reserved": 0}, {"is_disabled": 0, "fusion_lon": 0.0, "fusion_lat": 0.0, "lat": 38.82777866666667, "type": "electric_bike", "lon": -77.11076866666667, "bike_id": "8bac7db2b6f505d1a0945db86d796918", "rental_uris": {"android": "https://dc.lft.to/lastmile_qr_scan", "ios": "https://dc.lft.to/lastmile_qr_scan"}, "name": "8bac7db2b6f505d1a0945db86d796918", "is_reserved": 0}, {"is_disabled": 0, "fusion_lon": 0.0, "fusion_lat": 0.0, "lat": 38.93966133333333, "type": "electric_scooter", "lon": -77.032793, "bike_id": "c39d58ca0c729638d742ea872139344c", "rental_uris": {"android": "https://dc.lft.to/lastmile_qr_scan", "ios": "https://dc.lft.to/lastmile_qr_scan"}, "name": "c39d58ca0c729638d742ea872139344c", "is_reserved": 0}, {"is_disabled": 0, "fusion_lon": 0.0, "fusion_lat": 0.0, "lat": 38.89739, "type": "electric_scooter", "lon": -77.00049666666666, "bike_id": "2c0998db6d1ef2d3bb7124709d5fecad", "rental_uris": {"android": "https://dc.lft.to/lastmile_qr_scan", "ios": "https://dc.lft.to/lastmile_qr_scan"}, "name": "2c0998db6d1ef2d3bb7124709d5fecad", "is_reserved": 0}, {"is_disabled": 0, "fusion_lon": 0.0, "fusion_lat": 0.0, "lat": 38.956147, "type": "electric_scooter", "lon": -77.02756966666666, "bike_id": "8050100495d20e06b6216beb5984d429", "rental_uris": {"android": "https://dc.lft.to/lastmile_qr_scan", "ios": "https://dc.lft.to/lastmile_qr_scan"}, "name": "8050100495d20e06b6216beb5984d429", "is_reserved": 0}, {"is_disabled": 0, "fusion_lon": 0.0, "fusion_lat": 0.0, "lat": 38.877914, "type": "electric_bike", "lon": -76.9949295, "bike_id": "e22b8c8001f8081c9296986679383997", "rental_uris": {"android": "https://dc.lft.to/lastmile_qr_scan", "ios": "https://dc.lft.to/lastmile_qr_scan"}, "name": "e22b8c8001f8081c9296986679383997", "is_reserved": 0}, {"is_disabled": 0, "fusion_lon": 0.0, "fusion_lat": 0.0, "lat": 38.8244715, "type": "electric_bike", "lon": -77.07041816666667, "bike_id": "895674c21db4ca3fbb4c3ac80cead492", "rental_uris": {"android": "https://dc.lft.to/lastmile_qr_scan", "ios": "https://dc.lft.to/lastmile_qr_scan"}, "name": "895674c21db4ca3fbb4c3ac80cead492", "is_reserved": 0}, {"is_disabled": 0, "fusion_lon": 0.0, "fusion_lat": 0.0, "lat": 38.89834783333333, "type": "electric_scooter", "lon": -76.94633883333333, "bike_id": "8cb3068558cf57dbaca09864a8a7a6a0", "rental_uris": {"android": "https://dc.lft.to/lastmile_qr_scan", "ios": "https://dc.lft.to/lastmile_qr_scan"}, "name": "8cb3068558cf57dbaca09864a8a7a6a0", "is_reserved": 0}, {"is_disabled": 0, "fusion_lon": 0.0, "fusion_lat": 0.0, "lat": 38.9021025, "type": "electric_scooter", "lon": -77.02432833333333, "bike_id": "016870293449f3353110ce863cc57161", "rental_uris": {"android": "https://dc.lft.to/lastmile_qr_scan", "ios": "https://dc.lft.to/lastmile_qr_scan"}, "name": "016870293449f3353110ce863cc57161", "is_reserved": 0}, {"is_disabled": 0, "fusion_lon": 0.0, "fusion_lat": 0.0, "lat": 38.92791966666667, "type": "electric_scooter", "lon": -77.053575, "bike_id": "149bff0d7f20ca4984df9404fa38d960", "rental_uris": {"android": "https://dc.lft.to/lastmile_qr_scan", "ios": "https://dc.lft.to/lastmile_qr_scan"}, "name": "149bff0d7f20ca4984df9404fa38d960", "is_reserved": 0}, {"is_disabled": 0, "fusion_lon": 0.0, "fusion_lat": 0.0, "lat": 38.89714516666667, "type": "electric_scooter", "lon": -77.0118945, "bike_id": "6442f5d8b76d73db61fc249c16e4c801", "rental_uris": {"android": "https://dc.lft.to/lastmile_qr_scan", "ios": "https://dc.lft.to/lastmile_qr_scan"}, "name": "6442f5d8b76d73db61fc249c16e4c801", "is_reserved": 0}, {"is_disabled": 0, "fusion_lon": 0.0, "fusion_lat": 0.0, "lat": 38.897319833333334, "type": "electric_scooter", "lon": -77.03043983333333, "bike_id": "e4f1b06a3d28eda7823336f36c205af8", "rental_uris": {"android": "https://dc.lft.to/lastmile_qr_scan", "ios": "https://dc.lft.to/lastmile_qr_scan"}, "name": "e4f1b06a3d28eda7823336f36c205af8", "is_reserved": 0}, {"is_disabled": 0, "fusion_lon": 0.0, "fusion_lat": 0.0, "lat": 38.91986883333333, "type": "electric_bike", "lon": -76.97312933333333, "bike_id": "83080edb15ce12198313b86035f173e8", "rental_uris": {"android": "https://dc.lft.to/lastmile_qr_scan", "ios": "https://dc.lft.to/lastmile_qr_scan"}, "name": "83080edb15ce12198313b86035f173e8", "is_reserved": 0}, {"is_disabled": 0, "fusion_lon": 0.0, "fusion_lat": 0.0, "lat": 38.933722, "type": "electric_scooter", "lon": -77.07252433333333, "bike_id": "4a12988312dca0da077eb5a6c8ada9ae", "rental_uris": {"android": "https://dc.lft.to/lastmile_qr_scan", "ios": "https://dc.lft.to/lastmile_qr_scan"}, "name": "4a12988312dca0da077eb5a6c8ada9ae", "is_reserved": 0}, {"is_disabled": 0, "fusion_lon": 0.0, "fusion_lat": 0.0, "lat": 38.8962585, "type": "electric_scooter", "lon": -77.00911483333333, "bike_id": "c00dc54af4a6503b0b866150a41289e5", "rental_uris": {"android": "https://dc.lft.to/lastmile_qr_scan", "ios": "https://dc.lft.to/lastmile_qr_scan"}, "name": "c00dc54af4a6503b0b866150a41289e5", "is_reserved": 0}, {"is_disabled": 0, "fusion_lon": 0.0, "fusion_lat": 0.0, "lat": 38.90854616666667, "type": "electric_scooter", "lon": -77.0452365, "bike_id": "c4ed2020ecd338328e77874357d17e72", "rental_uris": {"android": "https://dc.lft.to/lastmile_qr_scan", "ios": "https://dc.lft.to/lastmile_qr_scan"}, "name": "c4ed2020ecd338328e77874357d17e72", "is_reserved": 0}, {"is_disabled": 0, "fusion_lon": 0.0, "fusion_lat": 0.0, "lat": 38.90462816666667, "type": "electric_scooter", "lon": -77.03574916666666, "bike_id": "36bf84276444f2d2cedcd22e3d4afc21", "rental_uris": {"android": "https://dc.lft.to/lastmile_qr_scan", "ios": "https://dc.lft.to/lastmile_qr_scan"}, "name": "36bf84276444f2d2cedcd22e3d4afc21", "is_reserved": 0}, {"is_disabled": 0, "fusion_lon": 0.0, "fusion_lat": 0.0, "lat": 38.881273666666665, "type": "electric_scooter", "lon": -77.027136, "bike_id": "e4c318153acd37dc0d114143c74018a6", "rental_uris": {"android": "https://dc.lft.to/lastmile_qr_scan", "ios": "https://dc.lft.to/lastmile_qr_scan"}, "name": "e4c318153acd37dc0d114143c74018a6", "is_reserved": 0}, {"is_disabled": 0, "fusion_lon": 0.0, "fusion_lat": 0.0, "lat": 38.905595166666664, "type": "electric_scooter", "lon": -77.005549, "bike_id": "5aaa15cfa2ca496f54e5c688560b6f74", "rental_uris": {"android": "https://dc.lft.to/lastmile_qr_scan", "ios": "https://dc.lft.to/lastmile_qr_scan"}, "name": "5aaa15cfa2ca496f54e5c688560b6f74", "is_reserved": 0}, {"is_disabled": 0, "fusion_lon": 0.0, "fusion_lat": 0.0, "lat": 38.902171833333334, "type": "electric_scooter", "lon": -77.0223405, "bike_id": "7c786879a9d164e580fba45fc186d88c", "rental_uris": {"android": "https://dc.lft.to/lastmile_qr_scan", "ios": "https://dc.lft.to/lastmile_qr_scan"}, "name": "7c786879a9d164e580fba45fc186d88c", "is_reserved": 0}, {"is_disabled": 0, "fusion_lon": 0.0, "fusion_lat": 0.0, "lat": 38.90835833333333, "type": "electric_scooter", "lon": -77.03182116666666, "bike_id": "abb30c3da7c26c536e70ab8b66e95ee4", "rental_uris": {"android": "https://dc.lft.to/lastmile_qr_scan", "ios": "https://dc.lft.to/lastmile_qr_scan"}, "name": "abb30c3da7c26c536e70ab8b66e95ee4", "is_reserved": 0}, {"is_disabled": 0, "fusion_lon": 0.0, "fusion_lat": 0.0, "lat": 38.97538683333333, "type": "electric_bike", "lon": -76.99531166666667, "bike_id": "2b772b15ec1e20507c3d977e7d48b960", "rental_uris": {"android": "https://dc.lft.to/lastmile_qr_scan", "ios": "https://dc.lft.to/lastmile_qr_scan"}, "name": "2b772b15ec1e20507c3d977e7d48b960", "is_reserved": 0}, {"is_disabled": 0, "fusion_lon": 0.0, "fusion_lat": 0.0, "lat": 38.9159155, "type": "electric_bike", "lon": -76.97147783333334, "bike_id": "150e21e2c9ec6ef47e905a943210c232", "rental_uris": {"android": "https://dc.lft.to/lastmile_qr_scan", "ios": "https://dc.lft.to/lastmile_qr_scan"}, "name": "150e21e2c9ec6ef47e905a943210c232", "is_reserved": 0}, {"is_disabled": 0, "fusion_lon": 0.0, "fusion_lat": 0.0, "lat": 38.93581866666667, "type": "electric_bike", "lon": -77.08262466666666, "bike_id": "899f8f0dc77ead50f326210559477bcd", "rental_uris": {"android": "https://dc.lft.to/lastmile_qr_scan", "ios": "https://dc.lft.to/lastmile_qr_scan"}, "name": "899f8f0dc77ead50f326210559477bcd", "is_reserved": 0}, {"is_disabled": 0, "fusion_lon": 0.0, "fusion_lat": 0.0, "lat": 38.871348, "type": "electric_scooter", "lon": -77.00750983333333, "bike_id": "c6ef398949eff3b9e89059c295aa2492", "rental_uris": {"android": "https://dc.lft.to/lastmile_qr_scan", "ios": "https://dc.lft.to/lastmile_qr_scan"}, "name": "c6ef398949eff3b9e89059c295aa2492", "is_reserved": 0}, {"is_disabled": 0, "fusion_lon": 0.0, "fusion_lat": 0.0, "lat": 38.89795266666667, "type": "electric_scooter", "lon": -77.029414, "bike_id": "83c12fe29f84c464796c819c9de1ec63", "rental_uris": {"android": "https://dc.lft.to/lastmile_qr_scan", "ios": "https://dc.lft.to/lastmile_qr_scan"}, "name": "83c12fe29f84c464796c819c9de1ec63", "is_reserved": 0}, {"is_disabled": 0, "fusion_lon": 0.0, "fusion_lat": 0.0, "lat": 38.912586833333336, "type": "electric_scooter", "lon": -77.02230033333333, "bike_id": "374a96bfa5938c2ee7c03c9a6fe3cef0", "rental_uris": {"android": "https://dc.lft.to/lastmile_qr_scan", "ios": "https://dc.lft.to/lastmile_qr_scan"}, "name": "374a96bfa5938c2ee7c03c9a6fe3cef0", "is_reserved": 0}, {"is_disabled": 0, "fusion_lon": 0.0, "fusion_lat": 0.0, "lat": 39.000175666666664, "type": "electric_bike", "lon": -76.8728685, "bike_id": "371beb43da69769606e3f3791adae293", "rental_uris": {"android": "https://dc.lft.to/lastmile_qr_scan", "ios": "https://dc.lft.to/lastmile_qr_scan"}, "name": "371beb43da69769606e3f3791adae293", "is_reserved": 0}, {"is_disabled": 0, "fusion_lon": 0.0, "fusion_lat": 0.0, "lat": 38.90435733333333, "type": "electric_scooter", "lon": -77.02204383333333, "bike_id": "289d997effd75ecf472d21f9b2e6a666", "rental_uris": {"android": "https://dc.lft.to/lastmile_qr_scan", "ios": "https://dc.lft.to/lastmile_qr_scan"}, "name": "289d997effd75ecf472d21f9b2e6a666", "is_reserved": 0}, {"is_disabled": 0, "fusion_lon": 0.0, "fusion_lat": 0.0, "lat": 38.909659166666664, "type": "electric_scooter", "lon": -77.011083, "bike_id": "e25a7945047ffce042e107f3c188f931", "rental_uris": {"android": "https://dc.lft.to/lastmile_qr_scan", "ios": "https://dc.lft.to/lastmile_qr_scan"}, "name": "e25a7945047ffce042e107f3c188f931", "is_reserved": 0}, {"is_disabled": 0, "fusion_lon": 0.0, "fusion_lat": 0.0, "lat": 38.828743, "type": "electric_bike", "lon": -77.11222833333333, "bike_id": "898135220092e5a69fa5469223bb3fd2", "rental_uris": {"android": "https://dc.lft.to/lastmile_qr_scan", "ios": "https://dc.lft.to/lastmile_qr_scan"}, "name": "898135220092e5a69fa5469223bb3fd2", "is_reserved": 0}, {"is_disabled": 0, "fusion_lon": 0.0, "fusion_lat": 0.0, "lat": 38.915609333333336, "type": "electric_scooter", "lon": -77.03170866666666, "bike_id": "01f459fbf8a40d844d73e3cb1a6313ea", "rental_uris": {"android": "https://dc.lft.to/lastmile_qr_scan", "ios": "https://dc.lft.to/lastmile_qr_scan"}, "name": "01f459fbf8a40d844d73e3cb1a6313ea", "is_reserved": 0}, {"is_disabled": 0, "fusion_lon": 0.0, "fusion_lat": 0.0, "lat": 38.9419865, "type": "electric_scooter", "lon": -77.02579483333334, "bike_id": "067a58f1a0a5c371cdb9e083bdf991fc", "rental_uris": {"android": "https://dc.lft.to/lastmile_qr_scan", "ios": "https://dc.lft.to/lastmile_qr_scan"}, "name": "067a58f1a0a5c371cdb9e083bdf991fc", "is_reserved": 0}, {"is_disabled": 0, "fusion_lon": 0.0, "fusion_lat": 0.0, "lat": 38.90032566666667, "type": "electric_scooter", "lon": -76.98502083333334, "bike_id": "2250ab9b1fa9bb735a55a80aa7aa4067", "rental_uris": {"android": "https://dc.lft.to/lastmile_qr_scan", "ios": "https://dc.lft.to/lastmile_qr_scan"}, "name": "2250ab9b1fa9bb735a55a80aa7aa4067", "is_reserved": 0}, {"is_disabled": 0, "fusion_lon": 0.0, "fusion_lat": 0.0, "lat": 38.84424816666667, "type": "electric_scooter", "lon": -76.99776033333333, "bike_id": "1601b0d4ee4fe1de115f7c6f03886c1a", "rental_uris": {"android": "https://dc.lft.to/lastmile_qr_scan", "ios": "https://dc.lft.to/lastmile_qr_scan"}, "name": "1601b0d4ee4fe1de115f7c6f03886c1a", "is_reserved": 0}, {"is_disabled": 0, "fusion_lon": 0.0, "fusion_lat": 0.0, "lat": 38.896825666666665, "type": "electric_scooter", "lon": -77.0049945, "bike_id": "9219d3dbb8cad65e227b0ea7437d840c", "rental_uris": {"android": "https://dc.lft.to/lastmile_qr_scan", "ios": "https://dc.lft.to/lastmile_qr_scan"}, "name": "9219d3dbb8cad65e227b0ea7437d840c", "is_reserved": 0}, {"is_disabled": 0, "fusion_lon": 0.0, "fusion_lat": 0.0, "lat": 38.89500483333333, "type": "electric_scooter", "lon": -76.94878016666667, "bike_id": "a61875fc5a050b8ecfc926970f461617", "rental_uris": {"android": "https://dc.lft.to/lastmile_qr_scan", "ios": "https://dc.lft.to/lastmile_qr_scan"}, "name": "a61875fc5a050b8ecfc926970f461617", "is_reserved": 0}, {"is_disabled": 0, "fusion_lon": 0.0, "fusion_lat": 0.0, "lat": 38.88119283333333, "type": "electric_scooter", "lon": -77.00094833333333, "bike_id": "a5602813557646475ecec0f58aac040e", "rental_uris": {"android": "https://dc.lft.to/lastmile_qr_scan", "ios": "https://dc.lft.to/lastmile_qr_scan"}, "name": "a5602813557646475ecec0f58aac040e", "is_reserved": 0}, {"is_disabled": 0, "fusion_lon": 0.0, "fusion_lat": 0.0, "lat": 38.89365333333333, "type": "electric_scooter", "lon": -77.022628, "bike_id": "dabaf1b3c5ce4295857b5d63b736ed7f", "rental_uris": {"android": "https://dc.lft.to/lastmile_qr_scan", "ios": "https://dc.lft.to/lastmile_qr_scan"}, "name": "dabaf1b3c5ce4295857b5d63b736ed7f", "is_reserved": 0}, {"is_disabled": 0, "fusion_lon": 0.0, "fusion_lat": 0.0, "lat": 38.9097315, "type": "electric_scooter", "lon": -77.03867233333334, "bike_id": "ab263f0573f50ae19eaa991c326d15ad", "rental_uris": {"android": "https://dc.lft.to/lastmile_qr_scan", "ios": "https://dc.lft.to/lastmile_qr_scan"}, "name": "ab263f0573f50ae19eaa991c326d15ad", "is_reserved": 0}, {"is_disabled": 0, "fusion_lon": 0.0, "fusion_lat": 0.0, "lat": 38.898798, "type": "electric_scooter", "lon": -76.93157233333334, "bike_id": "17cfec86b23f5d712e0416f1f2d763b3", "rental_uris": {"android": "https://dc.lft.to/lastmile_qr_scan", "ios": "https://dc.lft.to/lastmile_qr_scan"}, "name": "17cfec86b23f5d712e0416f1f2d763b3", "is_reserved": 0}, {"is_disabled": 0, "fusion_lon": 0.0, "fusion_lat": 0.0, "lat": 38.91180966666667, "type": "electric_scooter", "lon": -77.04533766666667, "bike_id": "ad9cacbb8405e4a93e7b9f1683479395", "rental_uris": {"android": "https://dc.lft.to/lastmile_qr_scan", "ios": "https://dc.lft.to/lastmile_qr_scan"}, "name": "ad9cacbb8405e4a93e7b9f1683479395", "is_reserved": 0}, {"is_disabled": 0, "fusion_lon": 0.0, "fusion_lat": 0.0, "lat": 38.9008355, "type": "electric_bike", "lon": -77.05321466666666, "bike_id": "35ffd824153319f74536e1328d149d3c", "rental_uris": {"android": "https://dc.lft.to/lastmile_qr_scan", "ios": "https://dc.lft.to/lastmile_qr_scan"}, "name": "35ffd824153319f74536e1328d149d3c", "is_reserved": 0}, {"is_disabled": 0, "fusion_lon": 0.0, "fusion_lat": 0.0, "lat": 38.92329933333333, "type": "electric_scooter", "lon": -77.03510483333334, "bike_id": "9101a0aeb3fea49da72ceb76105497f5", "rental_uris": {"android": "https://dc.lft.to/lastmile_qr_scan", "ios": "https://dc.lft.to/lastmile_qr_scan"}, "name": "9101a0aeb3fea49da72ceb76105497f5", "is_reserved": 0}, {"is_disabled": 0, "fusion_lon": 0.0, "fusion_lat": 0.0, "lat": 38.90197, "type": "electric_scooter", "lon": -77.06120383333334, "bike_id": "4bd4d3f60367da640806593feaf89348", "rental_uris": {"android": "https://dc.lft.to/lastmile_qr_scan", "ios": "https://dc.lft.to/lastmile_qr_scan"}, "name": "4bd4d3f60367da640806593feaf89348", "is_reserved": 0}, {"is_disabled": 0, "fusion_lon": 0.0, "fusion_lat": 0.0, "lat": 38.928918, "type": "electric_scooter", "lon": -76.98454166666667, "bike_id": "a880201fe2c6080ba7582b69341168a8", "rental_uris": {"android": "https://dc.lft.to/lastmile_qr_scan", "ios": "https://dc.lft.to/lastmile_qr_scan"}, "name": "a880201fe2c6080ba7582b69341168a8", "is_reserved": 0}, {"is_disabled": 0, "fusion_lon": 0.0, "fusion_lat": 0.0, "lat": 39.105649666666665, "type": "electric_bike", "lon": -77.152646, "bike_id": "c5298374a08a4266f22dda1e3172e174", "rental_uris": {"android": "https://dc.lft.to/lastmile_qr_scan", "ios": "https://dc.lft.to/lastmile_qr_scan"}, "name": "c5298374a08a4266f22dda1e3172e174", "is_reserved": 0}, {"is_disabled": 0, "fusion_lon": 0.0, "fusion_lat": 0.0, "lat": 38.914013, "type": "electric_scooter", "lon": -77.03138266666667, "bike_id": "1bcbf8ff4aed62062132831639ee8836", "rental_uris": {"android": "https://dc.lft.to/lastmile_qr_scan", "ios": "https://dc.lft.to/lastmile_qr_scan"}, "name": "1bcbf8ff4aed62062132831639ee8836", "is_reserved": 0}, {"is_disabled": 0, "fusion_lon": 0.0, "fusion_lat": 0.0, "lat": 38.921812, "type": "electric_scooter", "lon": -76.99759316666666, "bike_id": "870ea7f6a3cf45f4d5958e905bed6693", "rental_uris": {"android": "https://dc.lft.to/lastmile_qr_scan", "ios": "https://dc.lft.to/lastmile_qr_scan"}, "name": "870ea7f6a3cf45f4d5958e905bed6693", "is_reserved": 0}, {"is_disabled": 0, "fusion_lon": 0.0, "fusion_lat": 0.0, "lat": 38.92444916666667, "type": "electric_bike", "lon": -76.96832283333333, "bike_id": "deb221e776edbe498f9e13c7bdd526d9", "rental_uris": {"android": "https://dc.lft.to/lastmile_qr_scan", "ios": "https://dc.lft.to/lastmile_qr_scan"}, "name": "deb221e776edbe498f9e13c7bdd526d9", "is_reserved": 0}, {"is_disabled": 0, "fusion_lon": 0.0, "fusion_lat": 0.0, "lat": 38.92145633333333, "type": "electric_scooter", "lon": -77.034402, "bike_id": "fcdc6c6d569929a6419ceec14467809c", "rental_uris": {"android": "https://dc.lft.to/lastmile_qr_scan", "ios": "https://dc.lft.to/lastmile_qr_scan"}, "name": "fcdc6c6d569929a6419ceec14467809c", "is_reserved": 0}, {"is_disabled": 0, "fusion_lon": 0.0, "fusion_lat": 0.0, "lat": 38.893708833333335, "type": "electric_scooter", "lon": -76.9499705, "bike_id": "6230f1aae4e74b622116005be2b6660e", "rental_uris": {"android": "https://dc.lft.to/lastmile_qr_scan", "ios": "https://dc.lft.to/lastmile_qr_scan"}, "name": "6230f1aae4e74b622116005be2b6660e", "is_reserved": 0}, {"is_disabled": 0, "fusion_lon": 0.0, "fusion_lat": 0.0, "lat": 38.91124833333333, "type": "electric_scooter", "lon": -77.02188016666666, "bike_id": "57aca434d50779d8dc1687c8df91d7eb", "rental_uris": {"android": "https://dc.lft.to/lastmile_qr_scan", "ios": "https://dc.lft.to/lastmile_qr_scan"}, "name": "57aca434d50779d8dc1687c8df91d7eb", "is_reserved": 0}, {"is_disabled": 0, "fusion_lon": 0.0, "fusion_lat": 0.0, "lat": 38.918146, "type": "electric_scooter", "lon": -77.027173, "bike_id": "416b3a17628c17a034cf2ac77a76cca2", "rental_uris": {"android": "https://dc.lft.to/lastmile_qr_scan", "ios": "https://dc.lft.to/lastmile_qr_scan"}, "name": "416b3a17628c17a034cf2ac77a76cca2", "is_reserved": 0}, {"is_disabled": 0, "fusion_lon": 0.0, "fusion_lat": 0.0, "lat": 38.91711683333333, "type": "electric_scooter", "lon": -77.0260955, "bike_id": "b00085b4aed8a4080867bd33213a29d2", "rental_uris": {"android": "https://dc.lft.to/lastmile_qr_scan", "ios": "https://dc.lft.to/lastmile_qr_scan"}, "name": "b00085b4aed8a4080867bd33213a29d2", "is_reserved": 0}, {"is_disabled": 0, "fusion_lon": 0.0, "fusion_lat": 0.0, "lat": 38.952034833333336, "type": "electric_scooter", "lon": -77.02750133333333, "bike_id": "dae3c7572bc235312fd5a65fb5cac1d0", "rental_uris": {"android": "https://dc.lft.to/lastmile_qr_scan", "ios": "https://dc.lft.to/lastmile_qr_scan"}, "name": "dae3c7572bc235312fd5a65fb5cac1d0", "is_reserved": 0}, {"is_disabled": 0, "fusion_lon": 0.0, "fusion_lat": 0.0, "lat": 38.91802533333333, "type": "electric_scooter", "lon": -77.034355, "bike_id": "027c67b9f186bd3a2b1b1778ee027e7b", "rental_uris": {"android": "https://dc.lft.to/lastmile_qr_scan", "ios": "https://dc.lft.to/lastmile_qr_scan"}, "name": "027c67b9f186bd3a2b1b1778ee027e7b", "is_reserved": 0}, {"is_disabled": 0, "fusion_lon": 0.0, "fusion_lat": 0.0, "lat": 38.931242, "type": "electric_scooter", "lon": -77.057135, "bike_id": "5ca9ac1f6dc324d5441c3f0510308f1d", "rental_uris": {"android": "https://dc.lft.to/lastmile_qr_scan", "ios": "https://dc.lft.to/lastmile_qr_scan"}, "name": "5ca9ac1f6dc324d5441c3f0510308f1d", "is_reserved": 0}, {"is_disabled": 0, "fusion_lon": 0.0, "fusion_lat": 0.0, "lat": 38.82730166666666, "type": "electric_bike", "lon": -77.00867083333333, "bike_id": "42b0a9d34d02738f48418edcd445d4d5", "rental_uris": {"android": "https://dc.lft.to/lastmile_qr_scan", "ios": "https://dc.lft.to/lastmile_qr_scan"}, "name": "42b0a9d34d02738f48418edcd445d4d5", "is_reserved": 0}, {"is_disabled": 0, "fusion_lon": 0.0, "fusion_lat": 0.0, "lat": 38.900362333333334, "type": "electric_scooter", "lon": -76.99012666666667, "bike_id": "1dc71f7d93c958b699ad07c9f1b62283", "rental_uris": {"android": "https://dc.lft.to/lastmile_qr_scan", "ios": "https://dc.lft.to/lastmile_qr_scan"}, "name": "1dc71f7d93c958b699ad07c9f1b62283", "is_reserved": 0}, {"is_disabled": 0, "fusion_lon": 0.0, "fusion_lat": 0.0, "lat": 38.893686333333335, "type": "electric_scooter", "lon": -77.02262083333333, "bike_id": "ec512a6485f1084048afa1217b3efc1a", "rental_uris": {"android": "https://dc.lft.to/lastmile_qr_scan", "ios": "https://dc.lft.to/lastmile_qr_scan"}, "name": "ec512a6485f1084048afa1217b3efc1a", "is_reserved": 0}, {"is_disabled": 0, "fusion_lon": 0.0, "fusion_lat": 0.0, "lat": 38.935270333333335, "type": "electric_scooter", "lon": -77.02386916666667, "bike_id": "02ddc9cd0359f04fc8c8806c507d8be1", "rental_uris": {"android": "https://dc.lft.to/lastmile_qr_scan", "ios": "https://dc.lft.to/lastmile_qr_scan"}, "name": "02ddc9cd0359f04fc8c8806c507d8be1", "is_reserved": 0}, {"is_disabled": 0, "fusion_lon": 0.0, "fusion_lat": 0.0, "lat": 38.90584616666666, "type": "electric_scooter", "lon": -77.051391, "bike_id": "55cea04d02fe90b9753ec4f017e39efb", "rental_uris": {"android": "https://dc.lft.to/lastmile_qr_scan", "ios": "https://dc.lft.to/lastmile_qr_scan"}, "name": "55cea04d02fe90b9753ec4f017e39efb", "is_reserved": 0}, {"is_disabled": 0, "fusion_lon": 0.0, "fusion_lat": 0.0, "lat": 38.895042333333336, "type": "electric_scooter", "lon": -76.94877516666666, "bike_id": "c09860a372619018668aa8fa9e0d9a42", "rental_uris": {"android": "https://dc.lft.to/lastmile_qr_scan", "ios": "https://dc.lft.to/lastmile_qr_scan"}, "name": "c09860a372619018668aa8fa9e0d9a42", "is_reserved": 0}, {"is_disabled": 0, "fusion_lon": 0.0, "fusion_lat": 0.0, "lat": 38.91476, "type": "electric_scooter", "lon": -77.01192666666667, "bike_id": "02c80eddaca65ef72bbcbe2829ade146", "rental_uris": {"android": "https://dc.lft.to/lastmile_qr_scan", "ios": "https://dc.lft.to/lastmile_qr_scan"}, "name": "02c80eddaca65ef72bbcbe2829ade146", "is_reserved": 0}, {"is_disabled": 0, "fusion_lon": 0.0, "fusion_lat": 0.0, "lat": 38.8707205, "type": "electric_bike", "lon": -77.110525, "bike_id": "f59585ae9e3ae0fac8a8b87e5f3e097c", "rental_uris": {"android": "https://dc.lft.to/lastmile_qr_scan", "ios": "https://dc.lft.to/lastmile_qr_scan"}, "name": "f59585ae9e3ae0fac8a8b87e5f3e097c", "is_reserved": 0}, {"is_disabled": 0, "fusion_lon": 0.0, "fusion_lat": 0.0, "lat": 38.89748316666667, "type": "electric_scooter", "lon": -77.04813933333334, "bike_id": "1ad789b7e54b5bf5fd3e8a6bb18b85f6", "rental_uris": {"android": "https://dc.lft.to/lastmile_qr_scan", "ios": "https://dc.lft.to/lastmile_qr_scan"}, "name": "1ad789b7e54b5bf5fd3e8a6bb18b85f6", "is_reserved": 0}, {"is_disabled": 0, "fusion_lon": 0.0, "fusion_lat": 0.0, "lat": 39.03881416666667, "type": "electric_bike", "lon": -77.10907466666667, "bike_id": "241cdd8fac434c66e3e04e96e83ff20f", "rental_uris": {"android": "https://dc.lft.to/lastmile_qr_scan", "ios": "https://dc.lft.to/lastmile_qr_scan"}, "name": "241cdd8fac434c66e3e04e96e83ff20f", "is_reserved": 0}, {"is_disabled": 0, "fusion_lon": 0.0, "fusion_lat": 0.0, "lat": 38.93666983333333, "type": "electric_bike", "lon": -76.95200516666667, "bike_id": "aac8ca42c2139d04f360f4228383d02a", "rental_uris": {"android": "https://dc.lft.to/lastmile_qr_scan", "ios": "https://dc.lft.to/lastmile_qr_scan"}, "name": "aac8ca42c2139d04f360f4228383d02a", "is_reserved": 0}, {"is_disabled": 0, "fusion_lon": 0.0, "fusion_lat": 0.0, "lat": 38.90946733333333, "type": "electric_scooter", "lon": -77.04739916666666, "bike_id": "2b4a28c3c6a9d8058d18865b1d5b45d2", "rental_uris": {"android": "https://dc.lft.to/lastmile_qr_scan", "ios": "https://dc.lft.to/lastmile_qr_scan"}, "name": "2b4a28c3c6a9d8058d18865b1d5b45d2", "is_reserved": 0}, {"is_disabled": 0, "fusion_lon": 0.0, "fusion_lat": 0.0, "lat": 38.95321666666667, "type": "electric_scooter", "lon": -77.06852983333333, "bike_id": "c4dc2f94076b09447c01f24aa8262765", "rental_uris": {"android": "https://dc.lft.to/lastmile_qr_scan", "ios": "https://dc.lft.to/lastmile_qr_scan"}, "name": "c4dc2f94076b09447c01f24aa8262765", "is_reserved": 0}, {"is_disabled": 0, "fusion_lon": 0.0, "fusion_lat": 0.0, "lat": 38.91023466666667, "type": "electric_scooter", "lon": -77.04249833333333, "bike_id": "ac4167cadcfbdaf597aa5b7414f1ab0e", "rental_uris": {"android": "https://dc.lft.to/lastmile_qr_scan", "ios": "https://dc.lft.to/lastmile_qr_scan"}, "name": "ac4167cadcfbdaf597aa5b7414f1ab0e", "is_reserved": 0}, {"is_disabled": 0, "fusion_lon": 0.0, "fusion_lat": 0.0, "lat": 38.92577633333333, "type": "electric_scooter", "lon": -77.04013516666667, "bike_id": "008ce33879118ef02919b9e175628d39", "rental_uris": {"android": "https://dc.lft.to/lastmile_qr_scan", "ios": "https://dc.lft.to/lastmile_qr_scan"}, "name": "008ce33879118ef02919b9e175628d39", "is_reserved": 0}, {"is_disabled": 0, "fusion_lon": 0.0, "fusion_lat": 0.0, "lat": 38.885782, "type": "electric_scooter", "lon": -76.9190885, "bike_id": "6fbf9d7c29c594f559cb9a661b468eb5", "rental_uris": {"android": "https://dc.lft.to/lastmile_qr_scan", "ios": "https://dc.lft.to/lastmile_qr_scan"}, "name": "6fbf9d7c29c594f559cb9a661b468eb5", "is_reserved": 0}, {"is_disabled": 0, "fusion_lon": 0.0, "fusion_lat": 0.0, "lat": 38.88315083333333, "type": "electric_scooter", "lon": -77.00578616666667, "bike_id": "71df21be9dce3e76a772a46bdfeab605", "rental_uris": {"android": "https://dc.lft.to/lastmile_qr_scan", "ios": "https://dc.lft.to/lastmile_qr_scan"}, "name": "71df21be9dce3e76a772a46bdfeab605", "is_reserved": 0}, {"is_disabled": 0, "fusion_lon": 0.0, "fusion_lat": 0.0, "lat": 38.911926666666666, "type": "electric_scooter", "lon": -77.03715516666666, "bike_id": "9942aea18fd86cc5a81b069c621fe466", "rental_uris": {"android": "https://dc.lft.to/lastmile_qr_scan", "ios": "https://dc.lft.to/lastmile_qr_scan"}, "name": "9942aea18fd86cc5a81b069c621fe466", "is_reserved": 0}, {"is_disabled": 0, "fusion_lon": 0.0, "fusion_lat": 0.0, "lat": 38.917977666666665, "type": "electric_scooter", "lon": -77.027129, "bike_id": "1c38aed37ad45c4c6e39cb5b673e1620", "rental_uris": {"android": "https://dc.lft.to/lastmile_qr_scan", "ios": "https://dc.lft.to/lastmile_qr_scan"}, "name": "1c38aed37ad45c4c6e39cb5b673e1620", "is_reserved": 0}, {"is_disabled": 0, "fusion_lon": 0.0, "fusion_lat": 0.0, "lat": 38.91926383333333, "type": "electric_scooter", "lon": -77.03188716666666, "bike_id": "47d79ef2da5a9b3f9a6473d6e644617f", "rental_uris": {"android": "https://dc.lft.to/lastmile_qr_scan", "ios": "https://dc.lft.to/lastmile_qr_scan"}, "name": "47d79ef2da5a9b3f9a6473d6e644617f", "is_reserved": 0}, {"is_disabled": 0, "fusion_lon": 0.0, "fusion_lat": 0.0, "lat": 38.89394983333333, "type": "electric_scooter", "lon": -76.94994716666666, "bike_id": "5e9a833f2e5804f98b560792c05f9e2f", "rental_uris": {"android": "https://dc.lft.to/lastmile_qr_scan", "ios": "https://dc.lft.to/lastmile_qr_scan"}, "name": "5e9a833f2e5804f98b560792c05f9e2f", "is_reserved": 0}, {"is_disabled": 0, "fusion_lon": 0.0, "fusion_lat": 0.0, "lat": 38.905277, "type": "electric_scooter", "lon": -77.06784783333333, "bike_id": "c996ff07c7a3c3228f714e02a8026cd1", "rental_uris": {"android": "https://dc.lft.to/lastmile_qr_scan", "ios": "https://dc.lft.to/lastmile_qr_scan"}, "name": "c996ff07c7a3c3228f714e02a8026cd1", "is_reserved": 0}, {"is_disabled": 0, "fusion_lon": 0.0, "fusion_lat": 0.0, "lat": 38.91823183333333, "type": "electric_scooter", "lon": -77.03185583333334, "bike_id": "0a679f3ca0413124fc06cd2d11cfb166", "rental_uris": {"android": "https://dc.lft.to/lastmile_qr_scan", "ios": "https://dc.lft.to/lastmile_qr_scan"}, "name": "0a679f3ca0413124fc06cd2d11cfb166", "is_reserved": 0}, {"is_disabled": 0, "fusion_lon": 0.0, "fusion_lat": 0.0, "lat": 38.926392666666665, "type": "electric_scooter", "lon": -77.03367883333334, "bike_id": "444dc5467ed53bae1d5415cc70b09717", "rental_uris": {"android": "https://dc.lft.to/lastmile_qr_scan", "ios": "https://dc.lft.to/lastmile_qr_scan"}, "name": "444dc5467ed53bae1d5415cc70b09717", "is_reserved": 0}, {"is_disabled": 0, "fusion_lon": 0.0, "fusion_lat": 0.0, "lat": 38.939060166666664, "type": "electric_scooter", "lon": -77.03348, "bike_id": "c570116da1ba567f0cc0f9f6e50295b5", "rental_uris": {"android": "https://dc.lft.to/lastmile_qr_scan", "ios": "https://dc.lft.to/lastmile_qr_scan"}, "name": "c570116da1ba567f0cc0f9f6e50295b5", "is_reserved": 0}, {"is_disabled": 0, "fusion_lon": 0.0, "fusion_lat": 0.0, "lat": 38.852143833333336, "type": "electric_bike", "lon": -77.12761516666667, "bike_id": "7fd0ad720eb50cb2e3007a3778268e6a", "rental_uris": {"android": "https://dc.lft.to/lastmile_qr_scan", "ios": "https://dc.lft.to/lastmile_qr_scan"}, "name": "7fd0ad720eb50cb2e3007a3778268e6a", "is_reserved": 0}, {"is_disabled": 0, "fusion_lon": 0.0, "fusion_lat": 0.0, "lat": 38.902555666666665, "type": "electric_scooter", "lon": -77.06186266666667, "bike_id": "4bac3044d1a51ca09e05e1d6bb731c4f", "rental_uris": {"android": "https://dc.lft.to/lastmile_qr_scan", "ios": "https://dc.lft.to/lastmile_qr_scan"}, "name": "4bac3044d1a51ca09e05e1d6bb731c4f", "is_reserved": 0}, {"is_disabled": 0, "fusion_lon": 0.0, "fusion_lat": 0.0, "lat": 38.8921995, "type": "electric_scooter", "lon": -77.04337083333333, "bike_id": "6bcaa8919ab5dface0b75993a7c56ca0", "rental_uris": {"android": "https://dc.lft.to/lastmile_qr_scan", "ios": "https://dc.lft.to/lastmile_qr_scan"}, "name": "6bcaa8919ab5dface0b75993a7c56ca0", "is_reserved": 0}, {"is_disabled": 0, "fusion_lon": 0.0, "fusion_lat": 0.0, "lat": 38.89753866666667, "type": "electric_scooter", "lon": -77.05129283333333, "bike_id": "18ec638127b4c7f5d30e77bb1155bfbf", "rental_uris": {"android": "https://dc.lft.to/lastmile_qr_scan", "ios": "https://dc.lft.to/lastmile_qr_scan"}, "name": "18ec638127b4c7f5d30e77bb1155bfbf", "is_reserved": 0}, {"is_disabled": 0, "fusion_lon": 0.0, "fusion_lat": 0.0, "lat": 38.91422416666666, "type": "electric_scooter", "lon": -77.01417616666667, "bike_id": "f88bba2aa53f7356d0e284f046b86d84", "rental_uris": {"android": "https://dc.lft.to/lastmile_qr_scan", "ios": "https://dc.lft.to/lastmile_qr_scan"}, "name": "f88bba2aa53f7356d0e284f046b86d84", "is_reserved": 0}, {"is_disabled": 0, "fusion_lon": 0.0, "fusion_lat": 0.0, "lat": 38.884918666666664, "type": "electric_scooter", "lon": -77.0072545, "bike_id": "e2630a753697c3a4d7d1b42072367cce", "rental_uris": {"android": "https://dc.lft.to/lastmile_qr_scan", "ios": "https://dc.lft.to/lastmile_qr_scan"}, "name": "e2630a753697c3a4d7d1b42072367cce", "is_reserved": 0}, {"is_disabled": 0, "fusion_lon": 0.0, "fusion_lat": 0.0, "lat": 38.9002805, "type": "electric_scooter", "lon": -76.99973033333333, "bike_id": "be6a99e08bc3e2f74640a9462cde48b8", "rental_uris": {"android": "https://dc.lft.to/lastmile_qr_scan", "ios": "https://dc.lft.to/lastmile_qr_scan"}, "name": "be6a99e08bc3e2f74640a9462cde48b8", "is_reserved": 0}, {"is_disabled": 0, "fusion_lon": 0.0, "fusion_lat": 0.0, "lat": 38.916537166666664, "type": "electric_scooter", "lon": -77.01913916666666, "bike_id": "5be3b421e4ac5c3831194a1fe3d90b88", "rental_uris": {"android": "https://dc.lft.to/lastmile_qr_scan", "ios": "https://dc.lft.to/lastmile_qr_scan"}, "name": "5be3b421e4ac5c3831194a1fe3d90b88", "is_reserved": 0}, {"is_disabled": 0, "fusion_lon": 0.0, "fusion_lat": 0.0, "lat": 38.91640983333333, "type": "electric_scooter", "lon": -77.03214616666666, "bike_id": "8702a39dd542c8f425e1def4cd9b4c35", "rental_uris": {"android": "https://dc.lft.to/lastmile_qr_scan", "ios": "https://dc.lft.to/lastmile_qr_scan"}, "name": "8702a39dd542c8f425e1def4cd9b4c35", "is_reserved": 0}, {"is_disabled": 0, "fusion_lon": 0.0, "fusion_lat": 0.0, "lat": 38.96264266666667, "type": "electric_scooter", "lon": -77.02769483333333, "bike_id": "4bd6b0734c676aee9970ff38598f8922", "rental_uris": {"android": "https://dc.lft.to/lastmile_qr_scan", "ios": "https://dc.lft.to/lastmile_qr_scan"}, "name": "4bd6b0734c676aee9970ff38598f8922", "is_reserved": 0}, {"is_disabled": 0, "fusion_lon": 0.0, "fusion_lat": 0.0, "lat": 38.883471666666665, "type": "electric_scooter", "lon": -76.92784716666667, "bike_id": "b86933e19a6d1232b28a95463aa4b3c6", "rental_uris": {"android": "https://dc.lft.to/lastmile_qr_scan", "ios": "https://dc.lft.to/lastmile_qr_scan"}, "name": "b86933e19a6d1232b28a95463aa4b3c6", "is_reserved": 0}, {"is_disabled": 0, "fusion_lon": 0.0, "fusion_lat": 0.0, "lat": 38.892573, "type": "electric_scooter", "lon": -76.941531, "bike_id": "0b5a7e94aefb53b250770c0502d971b3", "rental_uris": {"android": "https://dc.lft.to/lastmile_qr_scan", "ios": "https://dc.lft.to/lastmile_qr_scan"}, "name": "0b5a7e94aefb53b250770c0502d971b3", "is_reserved": 0}, {"is_disabled": 0, "fusion_lon": 0.0, "fusion_lat": 0.0, "lat": 38.902586, "type": "electric_scooter", "lon": -77.01762416666666, "bike_id": "e06021b385b356cb6b7f1bb6e110d104", "rental_uris": {"android": "https://dc.lft.to/lastmile_qr_scan", "ios": "https://dc.lft.to/lastmile_qr_scan"}, "name": "e06021b385b356cb6b7f1bb6e110d104", "is_reserved": 0}, {"is_disabled": 0, "fusion_lon": 0.0, "fusion_lat": 0.0, "lat": 38.913789333333334, "type": "electric_scooter", "lon": -77.02969816666666, "bike_id": "723a91f9937fbeed007f42d0bc9179c1", "rental_uris": {"android": "https://dc.lft.to/lastmile_qr_scan", "ios": "https://dc.lft.to/lastmile_qr_scan"}, "name": "723a91f9937fbeed007f42d0bc9179c1", "is_reserved": 0}, {"is_disabled": 0, "fusion_lon": 0.0, "fusion_lat": 0.0, "lat": 38.90819716666667, "type": "electric_scooter", "lon": -77.03343733333334, "bike_id": "e5decb6f8970cd2461213ee7a8178df6", "rental_uris": {"android": "https://dc.lft.to/lastmile_qr_scan", "ios": "https://dc.lft.to/lastmile_qr_scan"}, "name": "e5decb6f8970cd2461213ee7a8178df6", "is_reserved": 0}, {"is_disabled": 0, "fusion_lon": 0.0, "fusion_lat": 0.0, "lat": 38.90115683333333, "type": "electric_scooter", "lon": -77.0406485, "bike_id": "ba598dc8cb5230d7d8ab457eb88d4134", "rental_uris": {"android": "https://dc.lft.to/lastmile_qr_scan", "ios": "https://dc.lft.to/lastmile_qr_scan"}, "name": "ba598dc8cb5230d7d8ab457eb88d4134", "is_reserved": 0}, {"is_disabled": 0, "fusion_lon": 0.0, "fusion_lat": 0.0, "lat": 38.926984, "type": "electric_scooter", "lon": -76.97210433333333, "bike_id": "4d5b7ff477019d677bfd6e90d7a6ed30", "rental_uris": {"android": "https://dc.lft.to/lastmile_qr_scan", "ios": "https://dc.lft.to/lastmile_qr_scan"}, "name": "4d5b7ff477019d677bfd6e90d7a6ed30", "is_reserved": 0}, {"is_disabled": 0, "fusion_lon": 0.0, "fusion_lat": 0.0, "lat": 38.8316375, "type": "electric_bike", "lon": -76.99765616666667, "bike_id": "d1892bd7f7f5a418f293df44a65c8f01", "rental_uris": {"android": "https://dc.lft.to/lastmile_qr_scan", "ios": "https://dc.lft.to/lastmile_qr_scan"}, "name": "d1892bd7f7f5a418f293df44a65c8f01", "is_reserved": 0}, {"is_disabled": 0, "fusion_lon": 0.0, "fusion_lat": 0.0, "lat": 38.90648133333333, "type": "electric_scooter", "lon": -77.02542716666666, "bike_id": "15496adcc67a158803e16ce0f2838fab", "rental_uris": {"android": "https://dc.lft.to/lastmile_qr_scan", "ios": "https://dc.lft.to/lastmile_qr_scan"}, "name": "15496adcc67a158803e16ce0f2838fab", "is_reserved": 0}, {"is_disabled": 0, "fusion_lon": 0.0, "fusion_lat": 0.0, "lat": 38.91113416666666, "type": "electric_scooter", "lon": -77.028623, "bike_id": "6c4259b072fc93011d51e27c12cc419c", "rental_uris": {"android": "https://dc.lft.to/lastmile_qr_scan", "ios": "https://dc.lft.to/lastmile_qr_scan"}, "name": "6c4259b072fc93011d51e27c12cc419c", "is_reserved": 0}, {"is_disabled": 0, "fusion_lon": 0.0, "fusion_lat": 0.0, "lat": 38.92932416666667, "type": "electric_scooter", "lon": -77.03277316666667, "bike_id": "d6a572109350bfa99cdb21767d3267a4", "rental_uris": {"android": "https://dc.lft.to/lastmile_qr_scan", "ios": "https://dc.lft.to/lastmile_qr_scan"}, "name": "d6a572109350bfa99cdb21767d3267a4", "is_reserved": 0}, {"is_disabled": 0, "fusion_lon": 0.0, "fusion_lat": 0.0, "lat": 38.909909666666664, "type": "electric_scooter", "lon": -77.02196033333334, "bike_id": "84d39e199c5a263b08ddbac34dca6769", "rental_uris": {"android": "https://dc.lft.to/lastmile_qr_scan", "ios": "https://dc.lft.to/lastmile_qr_scan"}, "name": "84d39e199c5a263b08ddbac34dca6769", "is_reserved": 0}, {"is_disabled": 0, "fusion_lon": 0.0, "fusion_lat": 0.0, "lat": 38.960388333333334, "type": "electric_bike", "lon": -76.92713333333333, "bike_id": "5e8adb00bfacf410d845a1a486cb2504", "rental_uris": {"android": "https://dc.lft.to/lastmile_qr_scan", "ios": "https://dc.lft.to/lastmile_qr_scan"}, "name": "5e8adb00bfacf410d845a1a486cb2504", "is_reserved": 0}, {"is_disabled": 0, "fusion_lon": 0.0, "fusion_lat": 0.0, "lat": 38.8973125, "type": "electric_scooter", "lon": -77.02504316666666, "bike_id": "939c512f235b95b4a93903a9544aa0e9", "rental_uris": {"android": "https://dc.lft.to/lastmile_qr_scan", "ios": "https://dc.lft.to/lastmile_qr_scan"}, "name": "939c512f235b95b4a93903a9544aa0e9", "is_reserved": 0}, {"is_disabled": 0, "fusion_lon": 0.0, "fusion_lat": 0.0, "lat": 38.908522833333336, "type": "electric_scooter", "lon": -77.06345583333334, "bike_id": "6d2a7b5653abf93841070cf37a6fc989", "rental_uris": {"android": "https://dc.lft.to/lastmile_qr_scan", "ios": "https://dc.lft.to/lastmile_qr_scan"}, "name": "6d2a7b5653abf93841070cf37a6fc989", "is_reserved": 0}, {"is_disabled": 0, "fusion_lon": 0.0, "fusion_lat": 0.0, "lat": 38.89730316666667, "type": "electric_scooter", "lon": -77.02507116666666, "bike_id": "e9f765344f1347afd8fc8ce39197dccb", "rental_uris": {"android": "https://dc.lft.to/lastmile_qr_scan", "ios": "https://dc.lft.to/lastmile_qr_scan"}, "name": "e9f765344f1347afd8fc8ce39197dccb", "is_reserved": 0}, {"is_disabled": 0, "fusion_lon": 0.0, "fusion_lat": 0.0, "lat": 38.858675, "type": "electric_scooter", "lon": -76.9902455, "bike_id": "ce975bf4d1e8cbb3c8a5b96dc6bdc096", "rental_uris": {"android": "https://dc.lft.to/lastmile_qr_scan", "ios": "https://dc.lft.to/lastmile_qr_scan"}, "name": "ce975bf4d1e8cbb3c8a5b96dc6bdc096", "is_reserved": 0}, {"is_disabled": 0, "fusion_lon": 0.0, "fusion_lat": 0.0, "lat": 38.91886016666667, "type": "electric_scooter", "lon": -77.04169016666667, "bike_id": "2c31ff550e263f41800a99701c8cfb79", "rental_uris": {"android": "https://dc.lft.to/lastmile_qr_scan", "ios": "https://dc.lft.to/lastmile_qr_scan"}, "name": "2c31ff550e263f41800a99701c8cfb79", "is_reserved": 0}, {"is_disabled": 0, "fusion_lon": 0.0, "fusion_lat": 0.0, "lat": 38.90232866666667, "type": "electric_scooter", "lon": -77.03881983333333, "bike_id": "3214cd9cd3d02df1717b7e0fdd1cd9f4", "rental_uris": {"android": "https://dc.lft.to/lastmile_qr_scan", "ios": "https://dc.lft.to/lastmile_qr_scan"}, "name": "3214cd9cd3d02df1717b7e0fdd1cd9f4", "is_reserved": 0}, {"is_disabled": 0, "fusion_lon": 0.0, "fusion_lat": 0.0, "lat": 38.92611316666667, "type": "electric_scooter", "lon": -77.0216225, "bike_id": "33eda815f303014af670ff5804e39032", "rental_uris": {"android": "https://dc.lft.to/lastmile_qr_scan", "ios": "https://dc.lft.to/lastmile_qr_scan"}, "name": "33eda815f303014af670ff5804e39032", "is_reserved": 0}, {"is_disabled": 0, "fusion_lon": 0.0, "fusion_lat": 0.0, "lat": 38.972476, "type": "electric_bike", "lon": -76.99272833333333, "bike_id": "598f1cd13901be6878e3036e04165ef2", "rental_uris": {"android": "https://dc.lft.to/lastmile_qr_scan", "ios": "https://dc.lft.to/lastmile_qr_scan"}, "name": "598f1cd13901be6878e3036e04165ef2", "is_reserved": 0}, {"is_disabled": 0, "fusion_lon": 0.0, "fusion_lat": 0.0, "lat": 38.9198705, "type": "electric_scooter", "lon": -76.973108, "bike_id": "c244fc85424fa73e978de05f4a02f8d5", "rental_uris": {"android": "https://dc.lft.to/lastmile_qr_scan", "ios": "https://dc.lft.to/lastmile_qr_scan"}, "name": "c244fc85424fa73e978de05f4a02f8d5", "is_reserved": 0}, {"is_disabled": 0, "fusion_lon": 0.0, "fusion_lat": 0.0, "lat": 38.92017583333333, "type": "electric_scooter", "lon": -77.03123566666666, "bike_id": "a7836f5151defcf5905d4230843a92a3", "rental_uris": {"android": "https://dc.lft.to/lastmile_qr_scan", "ios": "https://dc.lft.to/lastmile_qr_scan"}, "name": "a7836f5151defcf5905d4230843a92a3", "is_reserved": 0}, {"is_disabled": 0, "fusion_lon": 0.0, "fusion_lat": 0.0, "lat": 38.893736833333335, "type": "electric_scooter", "lon": -76.97818733333334, "bike_id": "2bc637fe83125d643aa16e2ad911df88", "rental_uris": {"android": "https://dc.lft.to/lastmile_qr_scan", "ios": "https://dc.lft.to/lastmile_qr_scan"}, "name": "2bc637fe83125d643aa16e2ad911df88", "is_reserved": 0}, {"is_disabled": 0, "fusion_lon": 0.0, "fusion_lat": 0.0, "lat": 38.9052905, "type": "electric_scooter", "lon": -77.05453866666667, "bike_id": "6dfc31516da8261973a681d7a8efc9d0", "rental_uris": {"android": "https://dc.lft.to/lastmile_qr_scan", "ios": "https://dc.lft.to/lastmile_qr_scan"}, "name": "6dfc31516da8261973a681d7a8efc9d0", "is_reserved": 0}, {"is_disabled": 0, "fusion_lon": 0.0, "fusion_lat": 0.0, "lat": 38.8952795, "type": "electric_scooter", "lon": -77.00196066666666, "bike_id": "089b9c9c4927b583feed65e1d560ea71", "rental_uris": {"android": "https://dc.lft.to/lastmile_qr_scan", "ios": "https://dc.lft.to/lastmile_qr_scan"}, "name": "089b9c9c4927b583feed65e1d560ea71", "is_reserved": 0}, {"is_disabled": 0, "fusion_lon": 0.0, "fusion_lat": 0.0, "lat": 38.913811, "type": "electric_scooter", "lon": -77.02968483333333, "bike_id": "43e5195a3db307d5c00d2d39365a30a7", "rental_uris": {"android": "https://dc.lft.to/lastmile_qr_scan", "ios": "https://dc.lft.to/lastmile_qr_scan"}, "name": "43e5195a3db307d5c00d2d39365a30a7", "is_reserved": 0}, {"is_disabled": 0, "fusion_lon": 0.0, "fusion_lat": 0.0, "lat": 38.842899333333335, "type": "electric_scooter", "lon": -76.99947966666667, "bike_id": "c80687746637c38ba331e837de3989e0", "rental_uris": {"android": "https://dc.lft.to/lastmile_qr_scan", "ios": "https://dc.lft.to/lastmile_qr_scan"}, "name": "c80687746637c38ba331e837de3989e0", "is_reserved": 0}, {"is_disabled": 0, "fusion_lon": 0.0, "fusion_lat": 0.0, "lat": 38.92127966666666, "type": "electric_scooter", "lon": -76.99574566666666, "bike_id": "f432d4f9cabeb880e2077353301b6288", "rental_uris": {"android": "https://dc.lft.to/lastmile_qr_scan", "ios": "https://dc.lft.to/lastmile_qr_scan"}, "name": "f432d4f9cabeb880e2077353301b6288", "is_reserved": 0}, {"is_disabled": 0, "fusion_lon": 0.0, "fusion_lat": 0.0, "lat": 38.95784366666667, "type": "electric_scooter", "lon": -77.0258105, "bike_id": "11bfca0701f5f7ce61d8cff0b0bea036", "rental_uris": {"android": "https://dc.lft.to/lastmile_qr_scan", "ios": "https://dc.lft.to/lastmile_qr_scan"}, "name": "11bfca0701f5f7ce61d8cff0b0bea036", "is_reserved": 0}, {"is_disabled": 0, "fusion_lon": 0.0, "fusion_lat": 0.0, "lat": 38.907326, "type": "electric_scooter", "lon": -77.03461483333334, "bike_id": "b666b489f41a74b79b9603b28f80b79e", "rental_uris": {"android": "https://dc.lft.to/lastmile_qr_scan", "ios": "https://dc.lft.to/lastmile_qr_scan"}, "name": "b666b489f41a74b79b9603b28f80b79e", "is_reserved": 0}, {"is_disabled": 0, "fusion_lon": 0.0, "fusion_lat": 0.0, "lat": 38.90381766666667, "type": "electric_scooter", "lon": -77.0184295, "bike_id": "458b3d727aa4f1b4d335a7fa253c0fda", "rental_uris": {"android": "https://dc.lft.to/lastmile_qr_scan", "ios": "https://dc.lft.to/lastmile_qr_scan"}, "name": "458b3d727aa4f1b4d335a7fa253c0fda", "is_reserved": 0}, {"is_disabled": 0, "fusion_lon": 0.0, "fusion_lat": 0.0, "lat": 38.8869675, "type": "electric_scooter", "lon": -76.9535335, "bike_id": "d5384804fa24fe0364b61233d5fc8159", "rental_uris": {"android": "https://dc.lft.to/lastmile_qr_scan", "ios": "https://dc.lft.to/lastmile_qr_scan"}, "name": "d5384804fa24fe0364b61233d5fc8159", "is_reserved": 0}, {"is_disabled": 0, "fusion_lon": 0.0, "fusion_lat": 0.0, "lat": 38.9006475, "type": "electric_scooter", "lon": -76.98684316666667, "bike_id": "ac5bd74296705313a512dfbe233caa52", "rental_uris": {"android": "https://dc.lft.to/lastmile_qr_scan", "ios": "https://dc.lft.to/lastmile_qr_scan"}, "name": "ac5bd74296705313a512dfbe233caa52", "is_reserved": 0}, {"is_disabled": 0, "fusion_lon": 0.0, "fusion_lat": 0.0, "lat": 38.9141365, "type": "electric_scooter", "lon": -77.042477, "bike_id": "c180f1968c43a4d5de755f885822ac22", "rental_uris": {"android": "https://dc.lft.to/lastmile_qr_scan", "ios": "https://dc.lft.to/lastmile_qr_scan"}, "name": "c180f1968c43a4d5de755f885822ac22", "is_reserved": 0}, {"is_disabled": 0, "fusion_lon": 0.0, "fusion_lat": 0.0, "lat": 38.90300533333333, "type": "electric_scooter", "lon": -77.02114683333333, "bike_id": "86baec946cd42c73a3528d46db6d69ff", "rental_uris": {"android": "https://dc.lft.to/lastmile_qr_scan", "ios": "https://dc.lft.to/lastmile_qr_scan"}, "name": "86baec946cd42c73a3528d46db6d69ff", "is_reserved": 0}, {"is_disabled": 0, "fusion_lon": 0.0, "fusion_lat": 0.0, "lat": 38.909531666666666, "type": "electric_scooter", "lon": -77.04773483333334, "bike_id": "3ad78a47f8346b5d7e3151954fa56997", "rental_uris": {"android": "https://dc.lft.to/lastmile_qr_scan", "ios": "https://dc.lft.to/lastmile_qr_scan"}, "name": "3ad78a47f8346b5d7e3151954fa56997", "is_reserved": 0}, {"is_disabled": 0, "fusion_lon": 0.0, "fusion_lat": 0.0, "lat": 38.90272383333333, "type": "electric_scooter", "lon": -77.040531, "bike_id": "56da870710a1b5dec6c37c546681e02b", "rental_uris": {"android": "https://dc.lft.to/lastmile_qr_scan", "ios": "https://dc.lft.to/lastmile_qr_scan"}, "name": "56da870710a1b5dec6c37c546681e02b", "is_reserved": 0}, {"is_disabled": 0, "fusion_lon": 0.0, "fusion_lat": 0.0, "lat": 38.9375525, "type": "electric_scooter", "lon": -77.02493033333333, "bike_id": "08650a5c4db158511de0b70f60940d78", "rental_uris": {"android": "https://dc.lft.to/lastmile_qr_scan", "ios": "https://dc.lft.to/lastmile_qr_scan"}, "name": "08650a5c4db158511de0b70f60940d78", "is_reserved": 0}, {"is_disabled": 0, "fusion_lon": 0.0, "fusion_lat": 0.0, "lat": 38.87319933333333, "type": "electric_scooter", "lon": -77.00178316666667, "bike_id": "984629277b581c24d67dcac1df0d9a93", "rental_uris": {"android": "https://dc.lft.to/lastmile_qr_scan", "ios": "https://dc.lft.to/lastmile_qr_scan"}, "name": "984629277b581c24d67dcac1df0d9a93", "is_reserved": 0}, {"is_disabled": 0, "fusion_lon": 0.0, "fusion_lat": 0.0, "lat": 38.92964583333333, "type": "electric_bike", "lon": -77.05631283333334, "bike_id": "c1349cedc1f03cf900e0480662db0468", "rental_uris": {"android": "https://dc.lft.to/lastmile_qr_scan", "ios": "https://dc.lft.to/lastmile_qr_scan"}, "name": "c1349cedc1f03cf900e0480662db0468", "is_reserved": 0}, {"is_disabled": 0, "fusion_lon": 0.0, "fusion_lat": 0.0, "lat": 38.89996466666667, "type": "electric_scooter", "lon": -77.03979966666667, "bike_id": "63685c108ea49ea0114cbdc964dda051", "rental_uris": {"android": "https://dc.lft.to/lastmile_qr_scan", "ios": "https://dc.lft.to/lastmile_qr_scan"}, "name": "63685c108ea49ea0114cbdc964dda051", "is_reserved": 0}, {"is_disabled": 0, "fusion_lon": 0.0, "fusion_lat": 0.0, "lat": 38.91704383333333, "type": "electric_scooter", "lon": -77.03472666666667, "bike_id": "0bc1fe2afe95bd90956a6f169179c90a", "rental_uris": {"android": "https://dc.lft.to/lastmile_qr_scan", "ios": "https://dc.lft.to/lastmile_qr_scan"}, "name": "0bc1fe2afe95bd90956a6f169179c90a", "is_reserved": 0}, {"is_disabled": 0, "fusion_lon": 0.0, "fusion_lat": 0.0, "lat": 38.9099275, "type": "electric_scooter", "lon": -77.02200733333333, "bike_id": "23f26c209b29c216ba0ef24ffe68d997", "rental_uris": {"android": "https://dc.lft.to/lastmile_qr_scan", "ios": "https://dc.lft.to/lastmile_qr_scan"}, "name": "23f26c209b29c216ba0ef24ffe68d997", "is_reserved": 0}, {"is_disabled": 0, "fusion_lon": 0.0, "fusion_lat": 0.0, "lat": 38.903418, "type": "electric_scooter", "lon": -77.02602133333333, "bike_id": "47148f5da2259550572ce27827fb0721", "rental_uris": {"android": "https://dc.lft.to/lastmile_qr_scan", "ios": "https://dc.lft.to/lastmile_qr_scan"}, "name": "47148f5da2259550572ce27827fb0721", "is_reserved": 0}, {"is_disabled": 0, "fusion_lon": 0.0, "fusion_lat": 0.0, "lat": 38.92476283333333, "type": "electric_scooter", "lon": -77.07300533333333, "bike_id": "9232cba22cd94672e804d286c5ca312f", "rental_uris": {"android": "https://dc.lft.to/lastmile_qr_scan", "ios": "https://dc.lft.to/lastmile_qr_scan"}, "name": "9232cba22cd94672e804d286c5ca312f", "is_reserved": 0}, {"is_disabled": 0, "fusion_lon": 0.0, "fusion_lat": 0.0, "lat": 38.91597133333333, "type": "electric_scooter", "lon": -77.02399333333334, "bike_id": "95e26483bcd91c1a8b49c16bc05ce5ba", "rental_uris": {"android": "https://dc.lft.to/lastmile_qr_scan", "ios": "https://dc.lft.to/lastmile_qr_scan"}, "name": "95e26483bcd91c1a8b49c16bc05ce5ba", "is_reserved": 0}, {"is_disabled": 0, "fusion_lon": 0.0, "fusion_lat": 0.0, "lat": 38.920973833333335, "type": "electric_scooter", "lon": -77.01771533333333, "bike_id": "1e96c23f976ee8e1805582ebd1972299", "rental_uris": {"android": "https://dc.lft.to/lastmile_qr_scan", "ios": "https://dc.lft.to/lastmile_qr_scan"}, "name": "1e96c23f976ee8e1805582ebd1972299", "is_reserved": 0}, {"is_disabled": 0, "fusion_lon": 0.0, "fusion_lat": 0.0, "lat": 38.8775825, "type": "electric_bike", "lon": -76.97993333333334, "bike_id": "60c8025f38b5ac8e1127b3782015f5fa", "rental_uris": {"android": "https://dc.lft.to/lastmile_qr_scan", "ios": "https://dc.lft.to/lastmile_qr_scan"}, "name": "60c8025f38b5ac8e1127b3782015f5fa", "is_reserved": 0}, {"is_disabled": 0, "fusion_lon": 0.0, "fusion_lat": 0.0, "lat": 38.9035325, "type": "electric_scooter", "lon": -77.059169, "bike_id": "5ed63f4a70fe6ff20852425b82e31be0", "rental_uris": {"android": "https://dc.lft.to/lastmile_qr_scan", "ios": "https://dc.lft.to/lastmile_qr_scan"}, "name": "5ed63f4a70fe6ff20852425b82e31be0", "is_reserved": 0}, {"is_disabled": 0, "fusion_lon": 0.0, "fusion_lat": 0.0, "lat": 38.93473683333333, "type": "electric_scooter", "lon": -77.07268083333334, "bike_id": "5d6ea3f8005e082808e88e2956deb41a", "rental_uris": {"android": "https://dc.lft.to/lastmile_qr_scan", "ios": "https://dc.lft.to/lastmile_qr_scan"}, "name": "5d6ea3f8005e082808e88e2956deb41a", "is_reserved": 0}, {"is_disabled": 0, "fusion_lon": 0.0, "fusion_lat": 0.0, "lat": 38.91970083333333, "type": "electric_scooter", "lon": -77.04127333333334, "bike_id": "bccd7fe40c972e7b7c3832b40726a24c", "rental_uris": {"android": "https://dc.lft.to/lastmile_qr_scan", "ios": "https://dc.lft.to/lastmile_qr_scan"}, "name": "bccd7fe40c972e7b7c3832b40726a24c", "is_reserved": 0}, {"is_disabled": 0, "fusion_lon": 0.0, "fusion_lat": 0.0, "lat": 38.9228355, "type": "electric_scooter", "lon": -77.04471716666667, "bike_id": "f6358604c4a5752d57e49cb1cc5695b4", "rental_uris": {"android": "https://dc.lft.to/lastmile_qr_scan", "ios": "https://dc.lft.to/lastmile_qr_scan"}, "name": "f6358604c4a5752d57e49cb1cc5695b4", "is_reserved": 0}, {"is_disabled": 0, "fusion_lon": 0.0, "fusion_lat": 0.0, "lat": 38.939594666666665, "type": "electric_bike", "lon": -77.36094483333333, "bike_id": "941c16af65270e36dcdf598c5198745f", "rental_uris": {"android": "https://dc.lft.to/lastmile_qr_scan", "ios": "https://dc.lft.to/lastmile_qr_scan"}, "name": "941c16af65270e36dcdf598c5198745f", "is_reserved": 0}, {"is_disabled": 0, "fusion_lon": 0.0, "fusion_lat": 0.0, "lat": 38.87584366666667, "type": "electric_scooter", "lon": -77.00413866666666, "bike_id": "a8b55514cbbf12d92651b72733be0dcb", "rental_uris": {"android": "https://dc.lft.to/lastmile_qr_scan", "ios": "https://dc.lft.to/lastmile_qr_scan"}, "name": "a8b55514cbbf12d92651b72733be0dcb", "is_reserved": 0}, {"is_disabled": 0, "fusion_lon": 0.0, "fusion_lat": 0.0, "lat": 38.92906883333333, "type": "electric_scooter", "lon": -77.03238716666667, "bike_id": "12fe4ed40bd39f58a84e58ec6ae2bc39", "rental_uris": {"android": "https://dc.lft.to/lastmile_qr_scan", "ios": "https://dc.lft.to/lastmile_qr_scan"}, "name": "12fe4ed40bd39f58a84e58ec6ae2bc39", "is_reserved": 0}, {"is_disabled": 0, "fusion_lon": 0.0, "fusion_lat": 0.0, "lat": 38.89549066666667, "type": "electric_scooter", "lon": -77.04837933333333, "bike_id": "35dccb0a5659ffb02d061d09c0d009be", "rental_uris": {"android": "https://dc.lft.to/lastmile_qr_scan", "ios": "https://dc.lft.to/lastmile_qr_scan"}, "name": "35dccb0a5659ffb02d061d09c0d009be", "is_reserved": 0}, {"is_disabled": 0, "fusion_lon": 0.0, "fusion_lat": 0.0, "lat": 38.928520166666665, "type": "electric_scooter", "lon": -77.036058, "bike_id": "06d2b77128796109c35542033aca964f", "rental_uris": {"android": "https://dc.lft.to/lastmile_qr_scan", "ios": "https://dc.lft.to/lastmile_qr_scan"}, "name": "06d2b77128796109c35542033aca964f", "is_reserved": 0}, {"is_disabled": 0, "fusion_lon": 0.0, "fusion_lat": 0.0, "lat": 38.919227666666664, "type": "electric_scooter", "lon": -77.03190283333333, "bike_id": "918dd7e91293aa43afffae4eace05c72", "rental_uris": {"android": "https://dc.lft.to/lastmile_qr_scan", "ios": "https://dc.lft.to/lastmile_qr_scan"}, "name": "918dd7e91293aa43afffae4eace05c72", "is_reserved": 0}, {"is_disabled": 0, "fusion_lon": 0.0, "fusion_lat": 0.0, "lat": 38.920343, "type": "electric_scooter", "lon": -77.02583383333334, "bike_id": "ef69b5bf221ebca03dab6d1d0ad0247d", "rental_uris": {"android": "https://dc.lft.to/lastmile_qr_scan", "ios": "https://dc.lft.to/lastmile_qr_scan"}, "name": "ef69b5bf221ebca03dab6d1d0ad0247d", "is_reserved": 0}, {"is_disabled": 0, "fusion_lon": 0.0, "fusion_lat": 0.0, "lat": 38.92606033333333, "type": "electric_scooter", "lon": -77.02155316666666, "bike_id": "3aa30c56b7d9e5c232840fba3079377f", "rental_uris": {"android": "https://dc.lft.to/lastmile_qr_scan", "ios": "https://dc.lft.to/lastmile_qr_scan"}, "name": "3aa30c56b7d9e5c232840fba3079377f", "is_reserved": 0}, {"is_disabled": 0, "fusion_lon": 0.0, "fusion_lat": 0.0, "lat": 38.859168, "type": "electric_scooter", "lon": -76.98784466666666, "bike_id": "7e3ad2395c9551b957bc040b5964051a", "rental_uris": {"android": "https://dc.lft.to/lastmile_qr_scan", "ios": "https://dc.lft.to/lastmile_qr_scan"}, "name": "7e3ad2395c9551b957bc040b5964051a", "is_reserved": 0}, {"is_disabled": 0, "fusion_lon": 0.0, "fusion_lat": 0.0, "lat": 38.872289, "type": "electric_scooter", "lon": -77.0057445, "bike_id": "18504c343e1454339753852cd5e9942c", "rental_uris": {"android": "https://dc.lft.to/lastmile_qr_scan", "ios": "https://dc.lft.to/lastmile_qr_scan"}, "name": "18504c343e1454339753852cd5e9942c", "is_reserved": 0}, {"is_disabled": 0, "fusion_lon": 0.0, "fusion_lat": 0.0, "lat": 38.91548383333333, "type": "electric_scooter", "lon": -77.04157083333334, "bike_id": "1bb52b1412f5a725119c5b100c816029", "rental_uris": {"android": "https://dc.lft.to/lastmile_qr_scan", "ios": "https://dc.lft.to/lastmile_qr_scan"}, "name": "1bb52b1412f5a725119c5b100c816029", "is_reserved": 0}, {"is_disabled": 0, "fusion_lon": 0.0, "fusion_lat": 0.0, "lat": 38.9168295, "type": "electric_scooter", "lon": -77.023348, "bike_id": "cfb41d7e25ecedf7c61af8bf8068b68a", "rental_uris": {"android": "https://dc.lft.to/lastmile_qr_scan", "ios": "https://dc.lft.to/lastmile_qr_scan"}, "name": "cfb41d7e25ecedf7c61af8bf8068b68a", "is_reserved": 0}, {"is_disabled": 0, "fusion_lon": 0.0, "fusion_lat": 0.0, "lat": 38.9297725, "type": "electric_scooter", "lon": -77.03469033333333, "bike_id": "bce46285b48f6ca15fbc71a8a0ce6753", "rental_uris": {"android": "https://dc.lft.to/lastmile_qr_scan", "ios": "https://dc.lft.to/lastmile_qr_scan"}, "name": "bce46285b48f6ca15fbc71a8a0ce6753", "is_reserved": 0}, {"is_disabled": 0, "fusion_lon": 0.0, "fusion_lat": 0.0, "lat": 38.928282833333334, "type": "electric_scooter", "lon": -77.01414533333333, "bike_id": "40a51c621df7d8fda43172bcc189d364", "rental_uris": {"android": "https://dc.lft.to/lastmile_qr_scan", "ios": "https://dc.lft.to/lastmile_qr_scan"}, "name": "40a51c621df7d8fda43172bcc189d364", "is_reserved": 0}, {"is_disabled": 0, "fusion_lon": 0.0, "fusion_lat": 0.0, "lat": 38.911152333333334, "type": "electric_scooter", "lon": -77.04726733333334, "bike_id": "d7e2c50da62840b2a661fa59e28b8a5c", "rental_uris": {"android": "https://dc.lft.to/lastmile_qr_scan", "ios": "https://dc.lft.to/lastmile_qr_scan"}, "name": "d7e2c50da62840b2a661fa59e28b8a5c", "is_reserved": 0}, {"is_disabled": 0, "fusion_lon": 0.0, "fusion_lat": 0.0, "lat": 38.813294666666664, "type": "electric_bike", "lon": -77.050813, "bike_id": "dd6b4d14e50bb9c39366f8d5e6926cae", "rental_uris": {"android": "https://dc.lft.to/lastmile_qr_scan", "ios": "https://dc.lft.to/lastmile_qr_scan"}, "name": "dd6b4d14e50bb9c39366f8d5e6926cae", "is_reserved": 0}, {"is_disabled": 0, "fusion_lon": 0.0, "fusion_lat": 0.0, "lat": 38.97258166666667, "type": "electric_bike", "lon": -76.99167249999999, "bike_id": "2e01aa71e919ddd2357639cd1ac121bd", "rental_uris": {"android": "https://dc.lft.to/lastmile_qr_scan", "ios": "https://dc.lft.to/lastmile_qr_scan"}, "name": "2e01aa71e919ddd2357639cd1ac121bd", "is_reserved": 0}, {"is_disabled": 0, "fusion_lon": 0.0, "fusion_lat": 0.0, "lat": 38.89428866666667, "type": "electric_scooter", "lon": -77.01100916666667, "bike_id": "dbd6f34d1e1b5ea86fe050de93230257", "rental_uris": {"android": "https://dc.lft.to/lastmile_qr_scan", "ios": "https://dc.lft.to/lastmile_qr_scan"}, "name": "dbd6f34d1e1b5ea86fe050de93230257", "is_reserved": 0}, {"is_disabled": 0, "fusion_lon": 0.0, "fusion_lat": 0.0, "lat": 38.920285, "type": "electric_scooter", "lon": -77.0128895, "bike_id": "abe80f7ebed7b9fd1929aa03d67f9015", "rental_uris": {"android": "https://dc.lft.to/lastmile_qr_scan", "ios": "https://dc.lft.to/lastmile_qr_scan"}, "name": "abe80f7ebed7b9fd1929aa03d67f9015", "is_reserved": 0}, {"is_disabled": 0, "fusion_lon": 0.0, "fusion_lat": 0.0, "lat": 38.913405, "type": "electric_scooter", "lon": -77.04167283333334, "bike_id": "e6cae1163d95f0c4b89bfe8f7c9782bd", "rental_uris": {"android": "https://dc.lft.to/lastmile_qr_scan", "ios": "https://dc.lft.to/lastmile_qr_scan"}, "name": "e6cae1163d95f0c4b89bfe8f7c9782bd", "is_reserved": 0}, {"is_disabled": 0, "fusion_lon": 0.0, "fusion_lat": 0.0, "lat": 38.897462166666664, "type": "electric_scooter", "lon": -77.0100195, "bike_id": "75df770f154fea9d57c49fda0bb25cd1", "rental_uris": {"android": "https://dc.lft.to/lastmile_qr_scan", "ios": "https://dc.lft.to/lastmile_qr_scan"}, "name": "75df770f154fea9d57c49fda0bb25cd1", "is_reserved": 0}, {"is_disabled": 0, "fusion_lon": 0.0, "fusion_lat": 0.0, "lat": 38.900178833333335, "type": "electric_scooter", "lon": -76.9996715, "bike_id": "0d2e6caf82a9609e83dbf6c0c646ef5f", "rental_uris": {"android": "https://dc.lft.to/lastmile_qr_scan", "ios": "https://dc.lft.to/lastmile_qr_scan"}, "name": "0d2e6caf82a9609e83dbf6c0c646ef5f", "is_reserved": 0}, {"is_disabled": 0, "fusion_lon": 0.0, "fusion_lat": 0.0, "lat": 38.83938066666666, "type": "electric_bike", "lon": -77.07907483333334, "bike_id": "46b09befbe53a740000f00e228297bcb", "rental_uris": {"android": "https://dc.lft.to/lastmile_qr_scan", "ios": "https://dc.lft.to/lastmile_qr_scan"}, "name": "46b09befbe53a740000f00e228297bcb", "is_reserved": 0}, {"is_disabled": 0, "fusion_lon": 0.0, "fusion_lat": 0.0, "lat": 38.899653, "type": "electric_scooter", "lon": -77.016057, "bike_id": "dc3e48189c17fa145f05688d01df198b", "rental_uris": {"android": "https://dc.lft.to/lastmile_qr_scan", "ios": "https://dc.lft.to/lastmile_qr_scan"}, "name": "dc3e48189c17fa145f05688d01df198b", "is_reserved": 0}, {"is_disabled": 0, "fusion_lon": 0.0, "fusion_lat": 0.0, "lat": 38.9111155, "type": "electric_scooter", "lon": -76.99766083333333, "bike_id": "870b98d2dff4045f802422e1f11dde47", "rental_uris": {"android": "https://dc.lft.to/lastmile_qr_scan", "ios": "https://dc.lft.to/lastmile_qr_scan"}, "name": "870b98d2dff4045f802422e1f11dde47", "is_reserved": 0}, {"is_disabled": 0, "fusion_lon": 0.0, "fusion_lat": 0.0, "lat": 38.917962, "type": "electric_scooter", "lon": -77.03653983333334, "bike_id": "a5369caaac09b75f460474648bde43dc", "rental_uris": {"android": "https://dc.lft.to/lastmile_qr_scan", "ios": "https://dc.lft.to/lastmile_qr_scan"}, "name": "a5369caaac09b75f460474648bde43dc", "is_reserved": 0}, {"is_disabled": 0, "fusion_lon": 0.0, "fusion_lat": 0.0, "lat": 38.915860333333335, "type": "electric_scooter", "lon": -77.01639533333334, "bike_id": "ecb277a7c1ed6e09a0b32037b8b0c711", "rental_uris": {"android": "https://dc.lft.to/lastmile_qr_scan", "ios": "https://dc.lft.to/lastmile_qr_scan"}, "name": "ecb277a7c1ed6e09a0b32037b8b0c711", "is_reserved": 0}, {"is_disabled": 0, "fusion_lon": 0.0, "fusion_lat": 0.0, "lat": 38.908324666666665, "type": "electric_scooter", "lon": -76.99682066666666, "bike_id": "7d35aee597f84ba9b18ffe582e2875f5", "rental_uris": {"android": "https://dc.lft.to/lastmile_qr_scan", "ios": "https://dc.lft.to/lastmile_qr_scan"}, "name": "7d35aee597f84ba9b18ffe582e2875f5", "is_reserved": 0}, {"is_disabled": 0, "fusion_lon": 0.0, "fusion_lat": 0.0, "lat": 38.879825333333336, "type": "electric_bike", "lon": -76.91597316666666, "bike_id": "ce5c21a47f6bdea7654493ed041d4f20", "rental_uris": {"android": "https://dc.lft.to/lastmile_qr_scan", "ios": "https://dc.lft.to/lastmile_qr_scan"}, "name": "ce5c21a47f6bdea7654493ed041d4f20", "is_reserved": 0}, {"is_disabled": 0, "fusion_lon": 0.0, "fusion_lat": 0.0, "lat": 38.888176666666666, "type": "electric_scooter", "lon": -77.0149475, "bike_id": "542aeda6acfb8ecb3d821015a3ddf2c6", "rental_uris": {"android": "https://dc.lft.to/lastmile_qr_scan", "ios": "https://dc.lft.to/lastmile_qr_scan"}, "name": "542aeda6acfb8ecb3d821015a3ddf2c6", "is_reserved": 0}, {"is_disabled": 0, "fusion_lon": 0.0, "fusion_lat": 0.0, "lat": 38.92108133333333, "type": "electric_scooter", "lon": -77.04372233333333, "bike_id": "1dc9007f795e0e547ce5509b5103b4c3", "rental_uris": {"android": "https://dc.lft.to/lastmile_qr_scan", "ios": "https://dc.lft.to/lastmile_qr_scan"}, "name": "1dc9007f795e0e547ce5509b5103b4c3", "is_reserved": 0}, {"is_disabled": 0, "fusion_lon": 0.0, "fusion_lat": 0.0, "lat": 38.973712666666664, "type": "electric_scooter", "lon": -77.018503, "bike_id": "53fc5e263440d221378447a9b6b41e78", "rental_uris": {"android": "https://dc.lft.to/lastmile_qr_scan", "ios": "https://dc.lft.to/lastmile_qr_scan"}, "name": "53fc5e263440d221378447a9b6b41e78", "is_reserved": 0}, {"is_disabled": 0, "fusion_lon": 0.0, "fusion_lat": 0.0, "lat": 38.966476, "type": "electric_bike", "lon": -76.93020416666667, "bike_id": "19928e278934b9262f63e7f74ae35574", "rental_uris": {"android": "https://dc.lft.to/lastmile_qr_scan", "ios": "https://dc.lft.to/lastmile_qr_scan"}, "name": "19928e278934b9262f63e7f74ae35574", "is_reserved": 0}, {"is_disabled": 0, "fusion_lon": 0.0, "fusion_lat": 0.0, "lat": 38.90267716666666, "type": "electric_scooter", "lon": -77.03456883333334, "bike_id": "a8ee6f136ea9f39c48204cc53539222e", "rental_uris": {"android": "https://dc.lft.to/lastmile_qr_scan", "ios": "https://dc.lft.to/lastmile_qr_scan"}, "name": "a8ee6f136ea9f39c48204cc53539222e", "is_reserved": 0}, {"is_disabled": 0, "fusion_lon": 0.0, "fusion_lat": 0.0, "lat": 38.897439, "type": "electric_scooter", "lon": -77.02724033333334, "bike_id": "092dea88de1a3fd307de5ca5c099ad12", "rental_uris": {"android": "https://dc.lft.to/lastmile_qr_scan", "ios": "https://dc.lft.to/lastmile_qr_scan"}, "name": "092dea88de1a3fd307de5ca5c099ad12", "is_reserved": 0}, {"is_disabled": 0, "fusion_lon": 0.0, "fusion_lat": 0.0, "lat": 38.906236, "type": "electric_scooter", "lon": -77.05148433333333, "bike_id": "d8f35d6070a95d6dba11d2e883f82cb3", "rental_uris": {"android": "https://dc.lft.to/lastmile_qr_scan", "ios": "https://dc.lft.to/lastmile_qr_scan"}, "name": "d8f35d6070a95d6dba11d2e883f82cb3", "is_reserved": 0}, {"is_disabled": 0, "fusion_lon": 0.0, "fusion_lat": 0.0, "lat": 38.91151416666666, "type": "electric_scooter", "lon": -77.087898, "bike_id": "5dca2bae5210ef33bdd4a8254955a0e6", "rental_uris": {"android": "https://dc.lft.to/lastmile_qr_scan", "ios": "https://dc.lft.to/lastmile_qr_scan"}, "name": "5dca2bae5210ef33bdd4a8254955a0e6", "is_reserved": 0}, {"is_disabled": 0, "fusion_lon": 0.0, "fusion_lat": 0.0, "lat": 38.92759083333333, "type": "electric_scooter", "lon": -77.029171, "bike_id": "57ff83cbd541e48a7a20d43786cbd814", "rental_uris": {"android": "https://dc.lft.to/lastmile_qr_scan", "ios": "https://dc.lft.to/lastmile_qr_scan"}, "name": "57ff83cbd541e48a7a20d43786cbd814", "is_reserved": 0},