{"data": {"bikes": [{"fusion_lat": 0.0, "name": "6b9a6cb40274c5655a4ebe513c6040ae", "is_disabled": 0, "rental_uris": {"android": "https://dc.lft.to/lastmile_qr_scan", "ios": "https://dc.lft.to/lastmile_qr_scan"}, "fusion_lon": 0.0, "lat": 38.920813833333334, "bike_id": "6b9a6cb40274c5655a4ebe513c6040ae", "type": "electric_scooter", "is_reserved": 0, "lon": -77.01398566666667}, {"fusion_lat": 0.0, "name": "698746a2c3c4ac4fd1782883bf3fc94f", "is_disabled": 0, "rental_uris": {"android": "https://dc.lft.to/lastmile_qr_scan", "ios": "https://dc.lft.to/lastmile_qr_scan"}, "fusion_lon": 0.0, "lat": 38.905751333333335, "bike_id": "698746a2c3c4ac4fd1782883bf3fc94f", "type": "electric_scooter", "is_reserved": 0, "lon": -77.04292483333333}, {"fusion_lat": 0.0, "name": "b3e76f339706019695b5fe87993ee3d4", "is_disabled": 0, "rental_uris": {"android": "https://dc.lft.to/lastmile_qr_scan", "ios": "https://dc.lft.to/lastmile_qr_scan"}, "fusion_lon": 0.0, "lat": 38.85331433333333, "bike_id": "b3e76f339706019695b5fe87993ee3d4", "type": "electric_scooter", "is_reserved": 0, "lon": -76.9802335}, {"fusion_lat": 0.0, "name": "3cca7365dea401a0ab342b1ce93e1447", "is_disabled": 0, "rental_uris": {"android": "https://dc.lft.to/lastmile_qr_scan", "ios": "https://dc.lft.to/lastmile_qr_scan"}, "fusion_lon": 0.0, "lat": 38.90113383333333, "bike_id": "3cca7365dea401a0ab342b1ce93e1447", "type": "electric_scooter", "is_reserved": 0, "lon": -77.04204966666667}, {"fusion_lat": 0.0, "name": "ce7a6f90e9115801cdd8eb6a9740e228", "is_disabled": 0, "rental_uris": {"android": "https://dc.lft.to/lastmile_qr_scan", "ios": "https://dc.lft.to/lastmile_qr_scan"}, "fusion_lon": 0.0, "lat": 38.93470216666667, "bike_id": "ce7a6f90e9115801cdd8eb6a9740e228", "type": "electric_scooter", "is_reserved": 0, "lon": -77.07211966666667}, {"fusion_lat": 0.0, "name": "b691afbca3aff7d1d8e4d51e2a9a1b4c", "is_disabled": 0, "rental_uris": {"android": "https://dc.lft.to/lastmile_qr_scan", "ios": "https://dc.lft.to/lastmile_qr_scan"}, "fusion_lon": 0.0, "lat": 38.902237, "bike_id": "b691afbca3aff7d1d8e4d51e2a9a1b4c", "type": "electric_scooter", "is_reserved": 0, "lon": -77.04560233333333}, {"fusion_lat": 0.0, "name": "e8e0cf7e123a9e9f5f16132727e9b653", "is_disabled": 0, "rental_uris": {"android": "https://dc.lft.to/lastmile_qr_scan", "ios": "https://dc.lft.to/lastmile_qr_scan"}, "fusion_lon": 0.0, "lat": 38.90088633333333, "bike_id": "e8e0cf7e123a9e9f5f16132727e9b653", "type": "electric_scooter", "is_reserved": 0, "lon": -76.98334633333333}, {"fusion_lat": 0.0, "name": "829383a52ae99f6b3a4a9177e40219eb", "is_disabled": 0, "rental_uris": {"android": "https://dc.lft.to/lastmile_qr_scan", "ios": "https://dc.lft.to/lastmile_qr_scan"}, "fusion_lon": 0.0, "lat": 38.895013, "bike_id": "829383a52ae99f6b3a4a9177e40219eb", "type": "electric_scooter", "is_reserved": 0, "lon": -77.003352}, {"fusion_lat": 0.0, "name": "1caf85b48f5468bad8638b7edae6e856", "is_disabled": 0, "rental_uris": {"android": "https://dc.lft.to/lastmile_qr_scan", "ios": "https://dc.lft.to/lastmile_qr_scan"}, "fusion_lon": 0.0, "lat": 38.90728683333333, "bike_id": "1caf85b48f5468bad8638b7edae6e856", "type": "electric_scooter", "is_reserved": 0, "lon": -77.043424}, {"fusion_lat": 0.0, "name": "a79767ef63c27c7a0d0316f2a1c30d37", "is_disabled": 0, "rental_uris": {"android": "https://dc.lft.to/lastmile_qr_scan", "ios": "https://dc.lft.to/lastmile_qr_scan"}, "fusion_lon": 0.0, "lat": 38.919296333333335, "bike_id": "a79767ef63c27c7a0d0316f2a1c30d37", "type": "electric_scooter", "is_reserved": 0, "lon": -77.026629}, {"fusion_lat": 0.0, "name": "f00c71711d6f676e61f33144f7cda8e7", "is_disabled": 0, "rental_uris": {"android": "https://dc.lft.to/lastmile_qr_scan", "ios": "https://dc.lft.to/lastmile_qr_scan"}, "fusion_lon": 0.0, "lat": 38.90068433333333, "bike_id": "f00c71711d6f676e61f33144f7cda8e7", "type": "electric_scooter", "is_reserved": 0, "lon": -77.01607533333333}, {"fusion_lat": 0.0, "name": "451e1c8d503f87cd483e909c62b49a60", "is_disabled": 0, "rental_uris": {"android": "https://dc.lft.to/lastmile_qr_scan", "ios": "https://dc.lft.to/lastmile_qr_scan"}, "fusion_lon": 0.0, "lat": 38.92292916666667, "bike_id": "451e1c8d503f87cd483e909c62b49a60", "type": "electric_scooter", "is_reserved": 0, "lon": -77.04218583333333}, {"fusion_lat": 0.0, "name": "3eecfdbc2007bb46cc2ef9c9c6a275da", "is_disabled": 0, "rental_uris": {"android": "https://dc.lft.to/lastmile_qr_scan", "ios": "https://dc.lft.to/lastmile_qr_scan"}, "fusion_lon": 0.0, "lat": 38.91010966666666, "bike_id": "3eecfdbc2007bb46cc2ef9c9c6a275da", "type": "electric_scooter", "is_reserved": 0, "lon": -77.05281416666666}, {"fusion_lat": 0.0, "name": "d4207667b9cb8b4a695cfd2f1442ae59", "is_disabled": 0, "rental_uris": {"android": "https://dc.lft.to/lastmile_qr_scan", "ios": "https://dc.lft.to/lastmile_qr_scan"}, "fusion_lon": 0.0, "lat": 38.883984, "bike_id": "d4207667b9cb8b4a695cfd2f1442ae59", "type": "electric_scooter", "is_reserved": 0, "lon": -76.93043483333334}, {"fusion_lat": 0.0, "name": "75296147718f35b433e3d578b6557a5d", "is_disabled": 0, "rental_uris": {"android": "https://dc.lft.to/lastmile_qr_scan", "ios": "https://dc.lft.to/lastmile_qr_scan"}, "fusion_lon": 0.0, "lat": 38.9302635, "bike_id": "75296147718f35b433e3d578b6557a5d", "type": "electric_scooter", "is_reserved": 0, "lon": -77.03797483333334}, {"fusion_lat": 0.0, "name": "0f925968b00e1dc2f6926fccdec9e5e8", "is_disabled": 0, "rental_uris": {"android": "https://dc.lft.to/lastmile_qr_scan", "ios": "https://dc.lft.to/lastmile_qr_scan"}, "fusion_lon": 0.0, "lat": 38.897581833333334, "bike_id": "0f925968b00e1dc2f6926fccdec9e5e8", "type": "electric_scooter", "is_reserved": 0, "lon": -77.0020905}, {"fusion_lat": 0.0, "name": "9dfbf6ba28dea7cd216e2201fba77de4", "is_disabled": 0, "rental_uris": {"android": "https://dc.lft.to/lastmile_qr_scan", "ios": "https://dc.lft.to/lastmile_qr_scan"}, "fusion_lon": 0.0, "lat": 38.88358916666667, "bike_id": "9dfbf6ba28dea7cd216e2201fba77de4", "type": "electric_scooter", "is_reserved": 0, "lon": -77.01356516666667}, {"fusion_lat": 0.0, "name": "d0b92dec769298b5c7883644f118096a", "is_disabled": 0, "rental_uris": {"android": "https://dc.lft.to/lastmile_qr_scan", "ios": "https://dc.lft.to/lastmile_qr_scan"}, "fusion_lon": 0.0, "lat": 38.90682533333333, "bike_id": "d0b92dec769298b5c7883644f118096a", "type": "electric_scooter", "is_reserved": 0, "lon": -77.071927}, {"fusion_lat": 0.0, "name": "8af5df3b3965eb38088be04e84d29d73", "is_disabled": 0, "rental_uris": {"android": "https://dc.lft.to/lastmile_qr_scan", "ios": "https://dc.lft.to/lastmile_qr_scan"}, "fusion_lon": 0.0, "lat": 38.90198816666667, "bike_id": "8af5df3b3965eb38088be04e84d29d73", "type": "electric_scooter", "is_reserved": 0, "lon": -77.05080383333333}, {"fusion_lat": 0.0, "name": "6338211eae6a0574a9d49b053d7f23ac", "is_disabled": 0, "rental_uris": {"android": "https://dc.lft.to/lastmile_qr_scan", "ios": "https://dc.lft.to/lastmile_qr_scan"}, "fusion_lon": 0.0, "lat": 38.9213065, "bike_id": "6338211eae6a0574a9d49b053d7f23ac", "type": "electric_scooter", "is_reserved": 0, "lon": -77.00407216666666}, {"fusion_lat": 0.0, "name": "b76425ea044f22bc8b41c389f3954ba1", "is_disabled": 0, "rental_uris": {"android": "https://dc.lft.to/lastmile_qr_scan", "ios": "https://dc.lft.to/lastmile_qr_scan"}, "fusion_lon": 0.0, "lat": 38.8381185, "bike_id": "b76425ea044f22bc8b41c389f3954ba1", "type": "electric_bike", "is_reserved": 0, "lon": -77.09525116666667}, {"fusion_lat": 0.0, "name": "4ce312542cb1cbd35768836cf5c227a6", "is_disabled": 0, "rental_uris": {"android": "https://dc.lft.to/lastmile_qr_scan", "ios": "https://dc.lft.to/lastmile_qr_scan"}, "fusion_lon": 0.0, "lat": 38.905542, "bike_id": "4ce312542cb1cbd35768836cf5c227a6", "type": "electric_scooter", "is_reserved": 0, "lon": -77.05813583333334}, {"fusion_lat": 0.0, "name": "060a25f9d220fe1d5bf943ff250c3efe", "is_disabled": 0, "rental_uris": {"android": "https://dc.lft.to/lastmile_qr_scan", "ios": "https://dc.lft.to/lastmile_qr_scan"}, "fusion_lon": 0.0, "lat": 38.978795833333336, "bike_id": "060a25f9d220fe1d5bf943ff250c3efe", "type": "electric_bike", "is_reserved": 0, "lon": -77.060348}, {"fusion_lat": 0.0, "name": "c2ce0d4767394a0ce93bb343cbc901a5", "is_disabled": 0, "rental_uris": {"android": "https://dc.lft.to/lastmile_qr_scan", "ios": "https://dc.lft.to/lastmile_qr_scan"}, "fusion_lon": 0.0, "lat": 38.933079166666666, "bike_id": "c2ce0d4767394a0ce93bb343cbc901a5", "type": "electric_scooter", "is_reserved": 0, "lon": -77.0307175}, {"fusion_lat": 0.0, "name": "410a8fb65c2299cdc2f6f5740dd48c3a", "is_disabled": 0, "rental_uris": {"android": "https://dc.lft.to/lastmile_qr_scan", "ios": "https://dc.lft.to/lastmile_qr_scan"}, "fusion_lon": 0.0, "lat": 38.87474816666667, "bike_id": "410a8fb65c2299cdc2f6f5740dd48c3a", "type": "electric_scooter", "is_reserved": 0, "lon": -77.00603583333333}, {"fusion_lat": 0.0, "name": "3e59e3c5566ea147fd069a75b25c3cf8", "is_disabled": 0, "rental_uris": {"android": "https://dc.lft.to/lastmile_qr_scan", "ios": "https://dc.lft.to/lastmile_qr_scan"}, "fusion_lon": 0.0, "lat": 38.874547666666665, "bike_id": "3e59e3c5566ea147fd069a75b25c3cf8", "type": "electric_scooter", "is_reserved": 0, "lon": -77.009283}, {"fusion_lat": 0.0, "name": "0e47967f20988ee7b094a72be231afb0", "is_disabled": 0, "rental_uris": {"android": "https://dc.lft.to/lastmile_qr_scan", "ios": "https://dc.lft.to/lastmile_qr_scan"}, "fusion_lon": 0.0, "lat": 38.905764, "bike_id": "0e47967f20988ee7b094a72be231afb0", "type": "electric_scooter", "is_reserved": 0, "lon": -77.04284383333334}, {"fusion_lat": 0.0, "name": "80c618f7885eae024c1e0e451d7cec13", "is_disabled": 0, "rental_uris": {"android": "https://dc.lft.to/lastmile_qr_scan", "ios": "https://dc.lft.to/lastmile_qr_scan"}, "fusion_lon": 0.0, "lat": 38.92145266666667, "bike_id": "80c618f7885eae024c1e0e451d7cec13", "type": "electric_scooter", "is_reserved": 0, "lon": -77.0434515}, {"fusion_lat": 0.0, "name": "96720076143394593f380d33795f9f1a", "is_disabled": 0, "rental_uris": {"android": "https://dc.lft.to/lastmile_qr_scan", "ios": "https://dc.lft.to/lastmile_qr_scan"}, "fusion_lon": 0.0, "lat": 38.924086833333334, "bike_id": "96720076143394593f380d33795f9f1a", "type": "electric_scooter", "is_reserved": 0, "lon": -77.0446785}, {"fusion_lat": 0.0, "name": "dceda01209ae59c97094064ecd89f40d", "is_disabled": 0, "rental_uris": {"android": "https://dc.lft.to/lastmile_qr_scan", "ios": "https://dc.lft.to/lastmile_qr_scan"}, "fusion_lon": 0.0, "lat": 38.905485166666665, "bike_id": "dceda01209ae59c97094064ecd89f40d", "type": "electric_scooter", "is_reserved": 0, "lon": -77.0057}, {"fusion_lat": 0.0, "name": "0eb4bf91f2da84b9bc899cf5bb2fd896", "is_disabled": 0, "rental_uris": {"android": "https://dc.lft.to/lastmile_qr_scan", "ios": "https://dc.lft.to/lastmile_qr_scan"}, "fusion_lon": 0.0, "lat": 38.90645416666667, "bike_id": "0eb4bf91f2da84b9bc899cf5bb2fd896", "type": "electric_scooter", "is_reserved": 0, "lon": -77.06296166666667}, {"fusion_lat": 0.0, "name": "98fb8564dbba86e845dee81bd66a7e45", "is_disabled": 0, "rental_uris": {"android": "https://dc.lft.to/lastmile_qr_scan", "ios": "https://dc.lft.to/lastmile_qr_scan"}, "fusion_lon": 0.0, "lat": 38.91847033333333, "bike_id": "98fb8564dbba86e845dee81bd66a7e45", "type": "electric_scooter", "is_reserved": 0, "lon": -77.02448}, {"fusion_lat": 0.0, "name": "e077f60239e6246007a2aa5274772aad", "is_disabled": 0, "rental_uris": {"android": "https://dc.lft.to/lastmile_qr_scan", "ios": "https://dc.lft.to/lastmile_qr_scan"}, "fusion_lon": 0.0, "lat": 38.91762583333333, "bike_id": "e077f60239e6246007a2aa5274772aad", "type": "electric_scooter", "is_reserved": 0, "lon": -77.0231095}, {"fusion_lat": 0.0, "name": "efc15aa421572be26013eebc46f0b5fd", "is_disabled": 0, "rental_uris": {"android": "https://dc.lft.to/lastmile_qr_scan", "ios": "https://dc.lft.to/lastmile_qr_scan"}, "fusion_lon": 0.0, "lat": 38.91239, "bike_id": "efc15aa421572be26013eebc46f0b5fd", "type": "electric_scooter", "is_reserved": 0, "lon": -77.04500516666667}, {"fusion_lat": 0.0, "name": "48506e76124577cbcef4a4d47dd274e1", "is_disabled": 0, "rental_uris": {"android": "https://dc.lft.to/lastmile_qr_scan", "ios": "https://dc.lft.to/lastmile_qr_scan"}, "fusion_lon": 0.0, "lat": 38.9638405, "bike_id": "48506e76124577cbcef4a4d47dd274e1", "type": "electric_bike", "is_reserved": 0, "lon": -76.95046066666667}, {"fusion_lat": 0.0, "name": "9fb37d6f2f434cd633ca29a36c453579", "is_disabled": 0, "rental_uris": {"android": "https://dc.lft.to/lastmile_qr_scan", "ios": "https://dc.lft.to/lastmile_qr_scan"}, "fusion_lon": 0.0, "lat": 38.9080625, "bike_id": "9fb37d6f2f434cd633ca29a36c453579", "type": "electric_scooter", "is_reserved": 0, "lon": -77.03445666666667}, {"fusion_lat": 0.0, "name": "22ec73a86e079c66aba0e4b3ec356fdd", "is_disabled": 0, "rental_uris": {"android": "https://dc.lft.to/lastmile_qr_scan", "ios": "https://dc.lft.to/lastmile_qr_scan"}, "fusion_lon": 0.0, "lat": 38.9252725, "bike_id": "22ec73a86e079c66aba0e4b3ec356fdd", "type": "electric_scooter", "is_reserved": 0, "lon": -77.052463}, {"fusion_lat": 0.0, "name": "6675374cbcbe086abd77eb157d4217c8", "is_disabled": 0, "rental_uris": {"android": "https://dc.lft.to/lastmile_qr_scan", "ios": "https://dc.lft.to/lastmile_qr_scan"}, "fusion_lon": 0.0, "lat": 38.918443, "bike_id": "6675374cbcbe086abd77eb157d4217c8", "type": "electric_scooter", "is_reserved": 0, "lon": -77.03535133333334}, {"fusion_lat": 0.0, "name": "ba8c40dab78e446f13394e0e11f6398b", "is_disabled": 0, "rental_uris": {"android": "https://dc.lft.to/lastmile_qr_scan", "ios": "https://dc.lft.to/lastmile_qr_scan"}, "fusion_lon": 0.0, "lat": 38.892171166666664, "bike_id": "ba8c40dab78e446f13394e0e11f6398b", "type": "electric_scooter", "is_reserved": 0, "lon": -76.95746583333333}, {"fusion_lat": 0.0, "name": "a74b1dd0849940dd2d3efe51b91594a4", "is_disabled": 0, "rental_uris": {"android": "https://dc.lft.to/lastmile_qr_scan", "ios": "https://dc.lft.to/lastmile_qr_scan"}, "fusion_lon": 0.0, "lat": 38.91714016666667, "bike_id": "a74b1dd0849940dd2d3efe51b91594a4", "type": "electric_scooter", "is_reserved": 0, "lon": -77.02407966666667}, {"fusion_lat": 0.0, "name": "ea0599eab2ac2abe335b156af46aaa73", "is_disabled": 0, "rental_uris": {"android": "https://dc.lft.to/lastmile_qr_scan", "ios": "https://dc.lft.to/lastmile_qr_scan"}, "fusion_lon": 0.0, "lat": 38.89573866666667, "bike_id": "ea0599eab2ac2abe335b156af46aaa73", "type": "electric_scooter", "is_reserved": 0, "lon": -76.983243}, {"fusion_lat": 0.0, "name": "09a245e9bd00acce75df381048838b15", "is_disabled": 0, "rental_uris": {"android": "https://dc.lft.to/lastmile_qr_scan", "ios": "https://dc.lft.to/lastmile_qr_scan"}, "fusion_lon": 0.0, "lat": 38.933606, "bike_id": "09a245e9bd00acce75df381048838b15", "type": "electric_scooter", "is_reserved": 0, "lon": -77.073065}, {"fusion_lat": 0.0, "name": "4181f676c7778bdf696072b7d02dce36", "is_disabled": 0, "rental_uris": {"android": "https://dc.lft.to/lastmile_qr_scan", "ios": "https://dc.lft.to/lastmile_qr_scan"}, "fusion_lon": 0.0, "lat": 38.908011, "bike_id": "4181f676c7778bdf696072b7d02dce36", "type": "electric_scooter", "is_reserved": 0, "lon": -77.04285933333334}, {"fusion_lat": 0.0, "name": "4fdffed50498dfb89254c3c8389ee68d", "is_disabled": 0, "rental_uris": {"android": "https://dc.lft.to/lastmile_qr_scan", "ios": "https://dc.lft.to/lastmile_qr_scan"}, "fusion_lon": 0.0, "lat": 38.92762783333333, "bike_id": "4fdffed50498dfb89254c3c8389ee68d", "type": "electric_scooter", "is_reserved": 0, "lon": -77.02456816666667}, {"fusion_lat": 0.0, "name": "64ee5d005d69d4c9f92662e0f813a721", "is_disabled": 0, "rental_uris": {"android": "https://dc.lft.to/lastmile_qr_scan", "ios": "https://dc.lft.to/lastmile_qr_scan"}, "fusion_lon": 0.0, "lat": 38.94414833333333, "bike_id": "64ee5d005d69d4c9f92662e0f813a721", "type": "electric_scooter", "is_reserved": 0, "lon": -77.06326383333334}, {"fusion_lat": 0.0, "name": "fd5be21ecadee3fbf818346f929f6c76", "is_disabled": 0, "rental_uris": {"android": "https://dc.lft.to/lastmile_qr_scan", "ios": "https://dc.lft.to/lastmile_qr_scan"}, "fusion_lon": 0.0, "lat": 38.903295166666666, "bike_id": "fd5be21ecadee3fbf818346f929f6c76", "type": "electric_bike", "is_reserved": 0, "lon": -76.975335}, {"fusion_lat": 0.0, "name": "765c77cbc0a954183979ff147971311e", "is_disabled": 0, "rental_uris": {"android": "https://dc.lft.to/lastmile_qr_scan", "ios": "https://dc.lft.to/lastmile_qr_scan"}, "fusion_lon": 0.0, "lat": 38.91706666666666, "bike_id": "765c77cbc0a954183979ff147971311e", "type": "electric_scooter", "is_reserved": 0, "lon": -77.04008466666667}, {"fusion_lat": 0.0, "name": "02b228cdb7e911481d8ce62bb33edc4f", "is_disabled": 0, "rental_uris": {"android": "https://dc.lft.to/lastmile_qr_scan", "ios": "https://dc.lft.to/lastmile_qr_scan"}, "fusion_lon": 0.0, "lat": 38.92131633333333, "bike_id": "02b228cdb7e911481d8ce62bb33edc4f", "type": "electric_scooter", "is_reserved": 0, "lon": -77.0180245}, {"fusion_lat": 0.0, "name": "fcdc16fed143b38ddb98fc022ff83156", "is_disabled": 0, "rental_uris": {"android": "https://dc.lft.to/lastmile_qr_scan", "ios": "https://dc.lft.to/lastmile_qr_scan"}, "fusion_lon": 0.0, "lat": 38.910286, "bike_id": "fcdc16fed143b38ddb98fc022ff83156", "type": "electric_scooter", "is_reserved": 0, "lon": -77.03312016666666}, {"fusion_lat": 0.0, "name": "913bcede166ee9dfd3cfd5311f9c6a3f", "is_disabled": 0, "rental_uris": {"android": "https://dc.lft.to/lastmile_qr_scan", "ios": "https://dc.lft.to/lastmile_qr_scan"}, "fusion_lon": 0.0, "lat": 38.91123183333333, "bike_id": "913bcede166ee9dfd3cfd5311f9c6a3f", "type": "electric_scooter", "is_reserved": 0, "lon": -77.04498133333334}, {"fusion_lat": 0.0, "name": "a19778bda7918777ae6dc1a0f6106217", "is_disabled": 0, "rental_uris": {"android": "https://dc.lft.to/lastmile_qr_scan", "ios": "https://dc.lft.to/lastmile_qr_scan"}, "fusion_lon": 0.0, "lat": 38.858082833333334, "bike_id": "a19778bda7918777ae6dc1a0f6106217", "type": "electric_bike", "is_reserved": 0, "lon": -77.0514155}, {"fusion_lat": 0.0, "name": "cf5215f8535547b7cf9abf74494b8fc6", "is_disabled": 0, "rental_uris": {"android": "https://dc.lft.to/lastmile_qr_scan", "ios": "https://dc.lft.to/lastmile_qr_scan"}, "fusion_lon": 0.0, "lat": 38.842827166666666, "bike_id": "cf5215f8535547b7cf9abf74494b8fc6", "type": "electric_bike", "is_reserved": 0, "lon": -77.044977}, {"fusion_lat": 0.0, "name": "9310a18f9b8a26e113819c7efecb568d", "is_disabled": 0, "rental_uris": {"android": "https://dc.lft.to/lastmile_qr_scan", "ios": "https://dc.lft.to/lastmile_qr_scan"}, "fusion_lon": 0.0, "lat": 38.88683666666667, "bike_id": "9310a18f9b8a26e113819c7efecb568d", "type": "electric_bike", "is_reserved": 0, "lon": -77.16248766666666}, {"fusion_lat": 0.0, "name": "a4f251613ce2ef6bb5225781f2ceabdf", "is_disabled": 0, "rental_uris": {"android": "https://dc.lft.to/lastmile_qr_scan", "ios": "https://dc.lft.to/lastmile_qr_scan"}, "fusion_lon": 0.0, "lat": 38.943393666666665, "bike_id": "a4f251613ce2ef6bb5225781f2ceabdf", "type": "electric_scooter", "is_reserved": 0, "lon": -77.03249866666667}, {"fusion_lat": 0.0, "name": "dfdc3664dadb61df01bfa5491bf70153", "is_disabled": 0, "rental_uris": {"android": "https://dc.lft.to/lastmile_qr_scan", "ios": "https://dc.lft.to/lastmile_qr_scan"}, "fusion_lon": 0.0, "lat": 38.8921585, "bike_id": "dfdc3664dadb61df01bfa5491bf70153", "type": "electric_scooter", "is_reserved": 0, "lon": -77.02634966666666}, {"fusion_lat": 0.0, "name": "600c7091c9912dca4d354e4c2e5d9c24", "is_disabled": 0, "rental_uris": {"android": "https://dc.lft.to/lastmile_qr_scan", "ios": "https://dc.lft.to/lastmile_qr_scan"}, "fusion_lon": 0.0, "lat": 38.900291833333334, "bike_id": "600c7091c9912dca4d354e4c2e5d9c24", "type": "electric_scooter", "is_reserved": 0, "lon": -76.99349916666667}, {"fusion_lat": 0.0, "name": "3e778d777a8cc2bdc4388ac9aa154a22", "is_disabled": 0, "rental_uris": {"android": "https://dc.lft.to/lastmile_qr_scan", "ios": "https://dc.lft.to/lastmile_qr_scan"}, "fusion_lon": 0.0, "lat": 38.903268833333335, "bike_id": "3e778d777a8cc2bdc4388ac9aa154a22", "type": "electric_scooter", "is_reserved": 0, "lon": -77.0448605}, {"fusion_lat": 0.0, "name": "16fa81c537453af010926f81d022e420", "is_disabled": 0, "rental_uris": {"android": "https://dc.lft.to/lastmile_qr_scan", "ios": "https://dc.lft.to/lastmile_qr_scan"}, "fusion_lon": 0.0, "lat": 38.92248033333333, "bike_id": "16fa81c537453af010926f81d022e420", "type": "electric_scooter", "is_reserved": 0, "lon": -77.03086216666667}, {"fusion_lat": 0.0, "name": "ac5d3be86282524e2c2c3a5d14cd07fc", "is_disabled": 0, "rental_uris": {"android": "https://dc.lft.to/lastmile_qr_scan", "ios": "https://dc.lft.to/lastmile_qr_scan"}, "fusion_lon": 0.0, "lat": 38.87765366666667, "bike_id": "ac5d3be86282524e2c2c3a5d14cd07fc", "type": "electric_scooter", "is_reserved": 0, "lon": -77.00354083333333}, {"fusion_lat": 0.0, "name": "ddafeae5dd8696e2aec7a453c806c627", "is_disabled": 0, "rental_uris": {"android": "https://dc.lft.to/lastmile_qr_scan", "ios": "https://dc.lft.to/lastmile_qr_scan"}, "fusion_lon": 0.0, "lat": 38.90898266666667, "bike_id": "ddafeae5dd8696e2aec7a453c806c627", "type": "electric_scooter", "is_reserved": 0, "lon": -77.04298433333334}, {"fusion_lat": 0.0, "name": "4465de928b097932d8419695eb5bc898", "is_disabled": 0, "rental_uris": {"android": "https://dc.lft.to/lastmile_qr_scan", "ios": "https://dc.lft.to/lastmile_qr_scan"}, "fusion_lon": 0.0, "lat": 38.905319666666664, "bike_id": "4465de928b097932d8419695eb5bc898", "type": "electric_bike", "is_reserved": 0, "lon": -76.99814733333334}, {"fusion_lat": 0.0, "name": "d1a12eb3a37b3ea677bc656b071ff6bc", "is_disabled": 0, "rental_uris": {"android": "https://dc.lft.to/lastmile_qr_scan", "ios": "https://dc.lft.to/lastmile_qr_scan"}, "fusion_lon": 0.0, "lat": 38.91224066666667, "bike_id": "d1a12eb3a37b3ea677bc656b071ff6bc", "type": "electric_scooter", "is_reserved": 0, "lon": -77.0190125}, {"fusion_lat": 0.0, "name": "ecc2956ae5e20d3dfa3e685b32ae908e", "is_disabled": 0, "rental_uris": {"android": "https://dc.lft.to/lastmile_qr_scan", "ios": "https://dc.lft.to/lastmile_qr_scan"}, "fusion_lon": 0.0, "lat": 38.89560433333333, "bike_id": "ecc2956ae5e20d3dfa3e685b32ae908e", "type": "electric_scooter", "is_reserved": 0, "lon": -76.94882483333333}, {"fusion_lat": 0.0, "name": "8253717c12132538b4cdda7ffa571e65", "is_disabled": 0, "rental_uris": {"android": "https://dc.lft.to/lastmile_qr_scan", "ios": "https://dc.lft.to/lastmile_qr_scan"}, "fusion_lon": 0.0, "lat": 38.9305695, "bike_id": "8253717c12132538b4cdda7ffa571e65", "type": "electric_scooter", "is_reserved": 0, "lon": -77.03801066666666}, {"fusion_lat": 0.0, "name": "d36ba0aa042bd3118e56544783ab69a4", "is_disabled": 0, "rental_uris": {"android": "https://dc.lft.to/lastmile_qr_scan", "ios": "https://dc.lft.to/lastmile_qr_scan"}, "fusion_lon": 0.0, "lat": 38.89725583333333, "bike_id": "d36ba0aa042bd3118e56544783ab69a4", "type": "electric_scooter", "is_reserved": 0, "lon": -77.01921466666667}, {"fusion_lat": 0.0, "name": "177f8edb884dee4be81d619ce670468a", "is_disabled": 0, "rental_uris": {"android": "https://dc.lft.to/lastmile_qr_scan", "ios": "https://dc.lft.to/lastmile_qr_scan"}, "fusion_lon": 0.0, "lat": 38.9301415, "bike_id": "177f8edb884dee4be81d619ce670468a", "type": "electric_scooter", "is_reserved": 0, "lon": -77.03258733333334}, {"fusion_lat": 0.0, "name": "fbd5f88231dd6d2e52977eadf4e8d9b5", "is_disabled": 0, "rental_uris": {"android": "https://dc.lft.to/lastmile_qr_scan", "ios": "https://dc.lft.to/lastmile_qr_scan"}, "fusion_lon": 0.0, "lat": 38.899953833333335, "bike_id": "fbd5f88231dd6d2e52977eadf4e8d9b5", "type": "electric_scooter", "is_reserved": 0, "lon": -77.00688633333333}, {"fusion_lat": 0.0, "name": "517d12d8b746d50e257f985eb7d78964", "is_disabled": 0, "rental_uris": {"android": "https://dc.lft.to/lastmile_qr_scan", "ios": "https://dc.lft.to/lastmile_qr_scan"}, "fusion_lon": 0.0, "lat": 38.892211333333336, "bike_id": "517d12d8b746d50e257f985eb7d78964", "type": "electric_scooter", "is_reserved": 0, "lon": -77.0230955}, {"fusion_lat": 0.0, "name": "4180c96b93bdab970c69f458bc9f6401", "is_disabled": 0, "rental_uris": {"android": "https://dc.lft.to/lastmile_qr_scan", "ios": "https://dc.lft.to/lastmile_qr_scan"}, "fusion_lon": 0.0, "lat": 38.90030433333333, "bike_id": "4180c96b93bdab970c69f458bc9f6401", "type": "electric_scooter", "is_reserved": 0, "lon": -76.99630966666666}, {"fusion_lat": 0.0, "name": "2d2f3fd7fd772f5d4342490abb2cc40d", "is_disabled": 0, "rental_uris": {"android": "https://dc.lft.to/lastmile_qr_scan", "ios": "https://dc.lft.to/lastmile_qr_scan"}, "fusion_lon": 0.0, "lat": 38.9016565, "bike_id": "2d2f3fd7fd772f5d4342490abb2cc40d", "type": "electric_scooter", "is_reserved": 0, "lon": -77.0259435}, {"fusion_lat": 0.0, "name": "b53d44754bf00bf5883a70129838c554", "is_disabled": 0, "rental_uris": {"android": "https://dc.lft.to/lastmile_qr_scan", "ios": "https://dc.lft.to/lastmile_qr_scan"}, "fusion_lon": 0.0, "lat": 38.905696, "bike_id": "b53d44754bf00bf5883a70129838c554", "type": "electric_scooter", "is_reserved": 0, "lon": -77.04664266666667}, {"fusion_lat": 0.0, "name": "4191533d7a21208e6d24f3c864b1c1f7", "is_disabled": 0, "rental_uris": {"android": "https://dc.lft.to/lastmile_qr_scan", "ios": "https://dc.lft.to/lastmile_qr_scan"}, "fusion_lon": 0.0, "lat": 38.93416916666666, "bike_id": "4191533d7a21208e6d24f3c864b1c1f7", "type": "electric_scooter", "is_reserved": 0, "lon": -77.02211916666667}, {"fusion_lat": 0.0, "name": "ada78a41673611d64825403873d3ec6a", "is_disabled": 0, "rental_uris": {"android": "https://dc.lft.to/lastmile_qr_scan", "ios": "https://dc.lft.to/lastmile_qr_scan"}, "fusion_lon": 0.0, "lat": 38.93175566666667, "bike_id": "ada78a41673611d64825403873d3ec6a", "type": "electric_scooter", "is_reserved": 0, "lon": -77.03312333333334}, {"fusion_lat": 0.0, "name": "0bb6ead368f807287a5ac47a3f950680", "is_disabled": 0, "rental_uris": {"android": "https://dc.lft.to/lastmile_qr_scan", "ios": "https://dc.lft.to/lastmile_qr_scan"}, "fusion_lon": 0.0, "lat": 38.95418866666667, "bike_id": "0bb6ead368f807287a5ac47a3f950680", "type": "electric_scooter", "is_reserved": 0, "lon": -77.02765233333334}, {"fusion_lat": 0.0, "name": "d70a94a07b151985dd461e0e64bf857e", "is_disabled": 0, "rental_uris": {"android": "https://dc.lft.to/lastmile_qr_scan", "ios": "https://dc.lft.to/lastmile_qr_scan"}, "fusion_lon": 0.0, "lat": 38.904853, "bike_id": "d70a94a07b151985dd461e0e64bf857e", "type": "electric_scooter", "is_reserved": 0, "lon": -76.94961366666666}, {"fusion_lat": 0.0, "name": "a0b23a73f26dbd0d3ba01ed2caba77fc", "is_disabled": 0, "rental_uris": {"android": "https://dc.lft.to/lastmile_qr_scan", "ios": "https://dc.lft.to/lastmile_qr_scan"}, "fusion_lon": 0.0, "lat": 38.909082166666664, "bike_id": "a0b23a73f26dbd0d3ba01ed2caba77fc", "type": "electric_scooter", "is_reserved": 0, "lon": -77.04403116666667}, {"fusion_lat": 0.0, "name": "05fd71732c3c34192462f54382a4cd67", "is_disabled": 0, "rental_uris": {"android": "https://dc.lft.to/lastmile_qr_scan", "ios": "https://dc.lft.to/lastmile_qr_scan"}, "fusion_lon": 0.0, "lat": 38.893504, "bike_id": "05fd71732c3c34192462f54382a4cd67", "type": "electric_scooter", "is_reserved": 0, "lon": -76.98659216666667}, {"fusion_lat": 0.0, "name": "d99151f5d8b8f5242201726fd8060785", "is_disabled": 0, "rental_uris": {"android": "https://dc.lft.to/lastmile_qr_scan", "ios": "https://dc.lft.to/lastmile_qr_scan"}, "fusion_lon": 0.0, "lat": 38.91624866666667, "bike_id": "d99151f5d8b8f5242201726fd8060785", "type": "electric_scooter", "is_reserved": 0, "lon": -77.05076683333333}, {"fusion_lat": 0.0, "name": "92d693b1f670a11f7c9248acdd36f45f", "is_disabled": 0, "rental_uris": {"android": "https://dc.lft.to/lastmile_qr_scan", "ios": "https://dc.lft.to/lastmile_qr_scan"}, "fusion_lon": 0.0, "lat": 38.91786916666667, "bike_id": "92d693b1f670a11f7c9248acdd36f45f", "type": "electric_scooter", "is_reserved": 0, "lon": -77.01686383333333}, {"fusion_lat": 0.0, "name": "d440237235e82a0affccae7566efd1bd", "is_disabled": 0, "rental_uris": {"android": "https://dc.lft.to/lastmile_qr_scan", "ios": "https://dc.lft.to/lastmile_qr_scan"}, "fusion_lon": 0.0, "lat": 38.89888466666667, "bike_id": "d440237235e82a0affccae7566efd1bd", "type": "electric_scooter", "is_reserved": 0, "lon": -77.00150083333334}, {"fusion_lat": 0.0, "name": "7912b6ef0672d3faadd7a4c78b1102df", "is_disabled": 0, "rental_uris": {"android": "https://dc.lft.to/lastmile_qr_scan", "ios": "https://dc.lft.to/lastmile_qr_scan"}, "fusion_lon": 0.0, "lat": 38.9050435, "bike_id": "7912b6ef0672d3faadd7a4c78b1102df", "type": "electric_scooter", "is_reserved": 0, "lon": -76.98489016666667}, {"fusion_lat": 0.0, "name": "f0e6c9b4f1cc65566e136d3d7531cdc5", "is_disabled": 0, "rental_uris": {"android": "https://dc.lft.to/lastmile_qr_scan", "ios": "https://dc.lft.to/lastmile_qr_scan"}, "fusion_lon": 0.0, "lat": 38.91108216666667, "bike_id": "f0e6c9b4f1cc65566e136d3d7531cdc5", "type": "electric_scooter", "is_reserved": 0, "lon": -77.02109366666667}, {"fusion_lat": 0.0, "name": "9b7b5f869a582d745847d568e676ee17", "is_disabled": 0, "rental_uris": {"android": "https://dc.lft.to/lastmile_qr_scan", "ios": "https://dc.lft.to/lastmile_qr_scan"}, "fusion_lon": 0.0, "lat": 38.94433166666666, "bike_id": "9b7b5f869a582d745847d568e676ee17", "type": "electric_bike", "is_reserved": 0, "lon": -77.02606866666666}, {"fusion_lat": 0.0, "name": "d311c2ab9f8acdf6b69cc8621ea42580", "is_disabled": 0, "rental_uris": {"android": "https://dc.lft.to/lastmile_qr_scan", "ios": "https://dc.lft.to/lastmile_qr_scan"}, "fusion_lon": 0.0, "lat": 38.9247125, "bike_id": "d311c2ab9f8acdf6b69cc8621ea42580", "type": "electric_scooter", "is_reserved": 0, "lon": -77.030959}, {"fusion_lat": 0.0, "name": "da6f881c2446519e566d36a5ddb73777", "is_disabled": 0, "rental_uris": {"android": "https://dc.lft.to/lastmile_qr_scan", "ios": "https://dc.lft.to/lastmile_qr_scan"}, "fusion_lon": 0.0, "lat": 38.92142333333334, "bike_id": "da6f881c2446519e566d36a5ddb73777", "type": "electric_scooter", "is_reserved": 0, "lon": -77.01802633333334}, {"fusion_lat": 0.0, "name": "2a5362ea879320ac32c31ae8ba3b0861", "is_disabled": 0, "rental_uris": {"android": "https://dc.lft.to/lastmile_qr_scan", "ios": "https://dc.lft.to/lastmile_qr_scan"}, "fusion_lon": 0.0, "lat": 38.92363566666667, "bike_id": "2a5362ea879320ac32c31ae8ba3b0861", "type": "electric_scooter", "is_reserved": 0, "lon": -77.0503285}, {"fusion_lat": 0.0, "name": "3f48f680f2d1e24fab7a48a30f46729c", "is_disabled": 0, "rental_uris": {"android": "https://dc.lft.to/lastmile_qr_scan", "ios": "https://dc.lft.to/lastmile_qr_scan"}, "fusion_lon": 0.0, "lat": 38.9544615, "bike_id": "3f48f680f2d1e24fab7a48a30f46729c", "type": "electric_scooter", "is_reserved": 0, "lon": -77.00787833333334}, {"fusion_lat": 0.0, "name": "c7fcca5c42fb4b10777e52a22d7a1f0d", "is_disabled": 0, "rental_uris": {"android": "https://dc.lft.to/lastmile_qr_scan", "ios": "https://dc.lft.to/lastmile_qr_scan"}, "fusion_lon": 0.0, "lat": 38.96118766666667, "bike_id": "c7fcca5c42fb4b10777e52a22d7a1f0d", "type": "electric_scooter", "is_reserved": 0, "lon": -77.0280465}, {"fusion_lat": 0.0, "name": "d32ff0b192137b88fb04621416129690", "is_disabled": 0, "rental_uris": {"android": "https://dc.lft.to/lastmile_qr_scan", "ios": "https://dc.lft.to/lastmile_qr_scan"}, "fusion_lon": 0.0, "lat": 38.93443583333333, "bike_id": "d32ff0b192137b88fb04621416129690", "type": "electric_scooter", "is_reserved": 0, "lon": -77.05776966666667}, {"fusion_lat": 0.0, "name": "e8055b6e87aa72fa29bc5e011cab4eef", "is_disabled": 0, "rental_uris": {"android": "https://dc.lft.to/lastmile_qr_scan", "ios": "https://dc.lft.to/lastmile_qr_scan"}, "fusion_lon": 0.0, "lat": 38.90871816666667, "bike_id": "e8055b6e87aa72fa29bc5e011cab4eef", "type": "electric_scooter", "is_reserved": 0, "lon": -76.99799533333334}, {"fusion_lat": 0.0, "name": "146c6f4322849e8a63bdae7a0197a18a", "is_disabled": 0, "rental_uris": {"android": "https://dc.lft.to/lastmile_qr_scan", "ios": "https://dc.lft.to/lastmile_qr_scan"}, "fusion_lon": 0.0, "lat": 38.90699933333333, "bike_id": "146c6f4322849e8a63bdae7a0197a18a", "type": "electric_scooter", "is_reserved": 0, "lon": -76.98856549999999}, {"fusion_lat": 0.0, "name": "95506c5e458d96ff2b1afb52d637ab77", "is_disabled": 0, "rental_uris": {"android": "https://dc.lft.to/lastmile_qr_scan", "ios": "https://dc.lft.to/lastmile_qr_scan"}, "fusion_lon": 0.0, "lat": 38.92451666666667, "bike_id": "95506c5e458d96ff2b1afb52d637ab77", "type": "electric_scooter", "is_reserved": 0, "lon": -76.9710895}, {"fusion_lat": 0.0, "name": "f023f15560c9c4b4047049791c22a348", "is_disabled": 0, "rental_uris": {"android": "https://dc.lft.to/lastmile_qr_scan", "ios": "https://dc.lft.to/lastmile_qr_scan"}, "fusion_lon": 0.0, "lat": 38.890915, "bike_id": "f023f15560c9c4b4047049791c22a348", "type": "electric_scooter", "is_reserved": 0, "lon": -76.919302}, {"fusion_lat": 0.0, "name": "01e4a107545435135381c47c5f661e20", "is_disabled": 0, "rental_uris": {"android": "https://dc.lft.to/lastmile_qr_scan", "ios": "https://dc.lft.to/lastmile_qr_scan"}, "fusion_lon": 0.0, "lat": 38.932240166666666, "bike_id": "01e4a107545435135381c47c5f661e20", "type": "electric_scooter", "is_reserved": 0, "lon": -76.99496216666667}, {"fusion_lat": 0.0, "name": "7603a4e2f234fe51c9fbeb732faa8421", "is_disabled": 0, "rental_uris": {"android": "https://dc.lft.to/lastmile_qr_scan", "ios": "https://dc.lft.to/lastmile_qr_scan"}, "fusion_lon": 0.0, "lat": 38.906610666666666, "bike_id": "7603a4e2f234fe51c9fbeb732faa8421", "type": "electric_scooter", "is_reserved": 0, "lon": -77.009669}, {"fusion_lat": 0.0, "name": "7672588e02bb6feaf5d13f0d3afafb6f", "is_disabled": 0, "rental_uris": {"android": "https://dc.lft.to/lastmile_qr_scan", "ios": "https://dc.lft.to/lastmile_qr_scan"}, "fusion_lon": 0.0, "lat": 38.902557333333334, "bike_id": "7672588e02bb6feaf5d13f0d3afafb6f", "type": "electric_scooter", "is_reserved": 0, "lon": -77.01914633333334}, {"fusion_lat": 0.0, "name": "d63be7ba3e850682acccde3b65e83cd1", "is_disabled": 0, "rental_uris": {"android": "https://dc.lft.to/lastmile_qr_scan", "ios": "https://dc.lft.to/lastmile_qr_scan"}, "fusion_lon": 0.0, "lat": 38.9349155, "bike_id": "d63be7ba3e850682acccde3b65e83cd1", "type": "electric_scooter", "is_reserved": 0, "lon": -77.0727355}, {"fusion_lat": 0.0, "name": "1fc4839350d8927b2c7832b55064852f", "is_disabled": 0, "rental_uris": {"android": "https://dc.lft.to/lastmile_qr_scan", "ios": "https://dc.lft.to/lastmile_qr_scan"}, "fusion_lon": 0.0, "lat": 38.836284, "bike_id": "1fc4839350d8927b2c7832b55064852f", "type": "electric_bike", "is_reserved": 0, "lon": -77.06949333333333}, {"fusion_lat": 0.0, "name": "0ba696ac04674021272f7d5c1c1a716c", "is_disabled": 0, "rental_uris": {"android": "https://dc.lft.to/lastmile_qr_scan", "ios": "https://dc.lft.to/lastmile_qr_scan"}, "fusion_lon": 0.0, "lat": 38.91856533333333, "bike_id": "0ba696ac04674021272f7d5c1c1a716c", "type": "electric_bike", "is_reserved": 0, "lon": -76.96093116666667}, {"fusion_lat": 0.0, "name": "5117f76f1ab1132dc6cb8641bb6d223a", "is_disabled": 0, "rental_uris": {"android": "https://dc.lft.to/lastmile_qr_scan", "ios": "https://dc.lft.to/lastmile_qr_scan"}, "fusion_lon": 0.0, "lat": 38.906860333333334, "bike_id": "5117f76f1ab1132dc6cb8641bb6d223a", "type": "electric_scooter", "is_reserved": 0, "lon": -76.95193583333334}, {"fusion_lat": 0.0, "name": "26127d5c169d39c3fa39299162ca4ae6", "is_disabled": 0, "rental_uris": {"android": "https://dc.lft.to/lastmile_qr_scan", "ios": "https://dc.lft.to/lastmile_qr_scan"}, "fusion_lon": 0.0, "lat": 38.905612166666664, "bike_id": "26127d5c169d39c3fa39299162ca4ae6", "type": "electric_scooter", "is_reserved": 0, "lon": -77.02097833333333}, {"fusion_lat": 0.0, "name": "0d9f93a5d50d6e0504f2ac0bf1d8c3b4", "is_disabled": 0, "rental_uris": {"android": "https://dc.lft.to/lastmile_qr_scan", "ios": "https://dc.lft.to/lastmile_qr_scan"}, "fusion_lon": 0.0, "lat": 38.907126833333336, "bike_id": "0d9f93a5d50d6e0504f2ac0bf1d8c3b4", "type": "electric_scooter", "is_reserved": 0, "lon": -77.02385666666666}, {"fusion_lat": 0.0, "name": "350de5c9bba26aa29678ab7d50b55f86", "is_disabled": 0, "rental_uris": {"android": "https://dc.lft.to/lastmile_qr_scan", "ios": "https://dc.lft.to/lastmile_qr_scan"}, "fusion_lon": 0.0, "lat": 38.911077666666664, "bike_id": "350de5c9bba26aa29678ab7d50b55f86", "type": "electric_scooter", "is_reserved": 0, "lon": -77.02161433333333}, {"fusion_lat": 0.0, "name": "dcfa87ddca3e9236fcd1a2ab245caf36", "is_disabled": 0, "rental_uris": {"android": "https://dc.lft.to/lastmile_qr_scan", "ios": "https://dc.lft.to/lastmile_qr_scan"}, "fusion_lon": 0.0, "lat": 38.91404033333333, "bike_id": "dcfa87ddca3e9236fcd1a2ab245caf36", "type": "electric_scooter", "is_reserved": 0, "lon": -77.0457305}, {"fusion_lat": 0.0, "name": "770eef54b12db25e7539f81229241edd", "is_disabled": 0, "rental_uris": {"android": "https://dc.lft.to/lastmile_qr_scan", "ios": "https://dc.lft.to/lastmile_qr_scan"}, "fusion_lon": 0.0, "lat": 38.90212016666667, "bike_id": "770eef54b12db25e7539f81229241edd", "type": "electric_scooter", "is_reserved": 0, "lon": -77.04621833333333}, {"fusion_lat": 0.0, "name": "e8f0f719cd149100d3d221e399d5384e", "is_disabled": 0, "rental_uris": {"android": "https://dc.lft.to/lastmile_qr_scan", "ios": "https://dc.lft.to/lastmile_qr_scan"}, "fusion_lon": 0.0, "lat": 38.90065033333333, "bike_id": "e8f0f719cd149100d3d221e399d5384e", "type": "electric_scooter", "is_reserved": 0, "lon": -76.933891}, {"fusion_lat": 0.0, "name": "0f6352a15696ff7c4084399bfd4da2d6", "is_disabled": 0, "rental_uris": {"android": "https://dc.lft.to/lastmile_qr_scan", "ios": "https://dc.lft.to/lastmile_qr_scan"}, "fusion_lon": 0.0, "lat": 38.90077016666667, "bike_id": "0f6352a15696ff7c4084399bfd4da2d6", "type": "electric_scooter", "is_reserved": 0, "lon": -77.04662866666666}, {"fusion_lat": 0.0, "name": "fa24c0fa0684f8618d1baab0b157137f", "is_disabled": 0, "rental_uris": {"android": "https://dc.lft.to/lastmile_qr_scan", "ios": "https://dc.lft.to/lastmile_qr_scan"}, "fusion_lon": 0.0, "lat": 38.91211066666666, "bike_id": "fa24c0fa0684f8618d1baab0b157137f", "type": "electric_scooter", "is_reserved": 0, "lon": -77.03217866666667}, {"fusion_lat": 0.0, "name": "64f452ae26b85c5fbcb8f756afe9706d", "is_disabled": 0, "rental_uris": {"android": "https://dc.lft.to/lastmile_qr_scan", "ios": "https://dc.lft.to/lastmile_qr_scan"}, "fusion_lon": 0.0, "lat": 38.905228666666666, "bike_id": "64f452ae26b85c5fbcb8f756afe9706d", "type": "electric_scooter", "is_reserved": 0, "lon": -77.04785166666667}, {"fusion_lat": 0.0, "name": "10f4b51193b3abf4e51f226c0fa6674d", "is_disabled": 0, "rental_uris": {"android": "https://dc.lft.to/lastmile_qr_scan", "ios": "https://dc.lft.to/lastmile_qr_scan"}, "fusion_lon": 0.0, "lat": 38.92329266666667, "bike_id": "10f4b51193b3abf4e51f226c0fa6674d", "type": "electric_scooter", "is_reserved": 0, "lon": -77.0358145}, {"fusion_lat": 0.0, "name": "b85e567a0b5f9e397861df21bf9d0480", "is_disabled": 0, "rental_uris": {"android": "https://dc.lft.to/lastmile_qr_scan", "ios": "https://dc.lft.to/lastmile_qr_scan"}, "fusion_lon": 0.0, "lat": 38.8763565, "bike_id": "b85e567a0b5f9e397861df21bf9d0480", "type": "electric_scooter", "is_reserved": 0, "lon": -77.00120333333334}, {"fusion_lat": 0.0, "name": "b59516576c32d57e98e202be578f19c2", "is_disabled": 0, "rental_uris": {"android": "https://dc.lft.to/lastmile_qr_scan", "ios": "https://dc.lft.to/lastmile_qr_scan"}, "fusion_lon": 0.0, "lat": 38.898263166666666, "bike_id": "b59516576c32d57e98e202be578f19c2", "type": "electric_scooter", "is_reserved": 0, "lon": -76.94639233333334}, {"fusion_lat": 0.0, "name": "405a9f4c273818155d78c64a3790ec4a", "is_disabled": 0, "rental_uris": {"android": "https://dc.lft.to/lastmile_qr_scan", "ios": "https://dc.lft.to/lastmile_qr_scan"}, "fusion_lon": 0.0, "lat": 38.906279, "bike_id": "405a9f4c273818155d78c64a3790ec4a", "type": "electric_scooter", "is_reserved": 0, "lon": -77.0261515}, {"fusion_lat": 0.0, "name": "bd58429ce46226fafc461660e32e358b", "is_disabled": 0, "rental_uris": {"android": "https://dc.lft.to/lastmile_qr_scan", "ios": "https://dc.lft.to/lastmile_qr_scan"}, "fusion_lon": 0.0, "lat": 38.90509333333333, "bike_id": "bd58429ce46226fafc461660e32e358b", "type": "electric_scooter", "is_reserved": 0, "lon": -77.04829583333333}, {"fusion_lat": 0.0, "name": "fb0b0a01cb6d78e54d9aa8924412f518", "is_disabled": 0, "rental_uris": {"android": "https://dc.lft.to/lastmile_qr_scan", "ios": "https://dc.lft.to/lastmile_qr_scan"}, "fusion_lon": 0.0, "lat": 38.923769666666665, "bike_id": "fb0b0a01cb6d78e54d9aa8924412f518", "type": "electric_scooter", "is_reserved": 0, "lon": -77.052571}, {"fusion_lat": 0.0, "name": "970d1b8a22cf217231cdbd2067e36285", "is_disabled": 0, "rental_uris": {"android": "https://dc.lft.to/lastmile_qr_scan", "ios": "https://dc.lft.to/lastmile_qr_scan"}, "fusion_lon": 0.0, "lat": 38.90734233333333, "bike_id": "970d1b8a22cf217231cdbd2067e36285", "type": "electric_scooter", "is_reserved": 0, "lon": -77.0433195}, {"fusion_lat": 0.0, "name": "f3e6ebcf4f3e29ce4791201e0fe87b59", "is_disabled": 0, "rental_uris": {"android": "https://dc.lft.to/lastmile_qr_scan", "ios": "https://dc.lft.to/lastmile_qr_scan"}, "fusion_lon": 0.0, "lat": 38.95372116666667, "bike_id": "f3e6ebcf4f3e29ce4791201e0fe87b59", "type": "electric_scooter", "is_reserved": 0, "lon": -76.998414}, {"fusion_lat": 0.0, "name": "7f95c15dbe989f95baf98a088deb0b4c", "is_disabled": 0, "rental_uris": {"android": "https://dc.lft.to/lastmile_qr_scan", "ios": "https://dc.lft.to/lastmile_qr_scan"}, "fusion_lon": 0.0, "lat": 38.924315666666665, "bike_id": "7f95c15dbe989f95baf98a088deb0b4c", "type": "electric_scooter", "is_reserved": 0, "lon": -77.03545166666666}, {"fusion_lat": 0.0, "name": "6adc4ea3456be1ddb7bea0272cf86da0", "is_disabled": 0, "rental_uris": {"android": "https://dc.lft.to/lastmile_qr_scan", "ios": "https://dc.lft.to/lastmile_qr_scan"}, "fusion_lon": 0.0, "lat": 38.934981666666665, "bike_id": "6adc4ea3456be1ddb7bea0272cf86da0", "type": "electric_scooter", "is_reserved": 0, "lon": -77.03638366666667}, {"fusion_lat": 0.0, "name": "f2db8b9519b488c8ad7ebc1e41996fe3", "is_disabled": 0, "rental_uris": {"android": "https://dc.lft.to/lastmile_qr_scan", "ios": "https://dc.lft.to/lastmile_qr_scan"}, "fusion_lon": 0.0, "lat": 38.8921165, "bike_id": "f2db8b9519b488c8ad7ebc1e41996fe3", "type": "electric_scooter", "is_reserved": 0, "lon": -77.02662316666667}, {"fusion_lat": 0.0, "name": "3f9dbebae5241dc1efd2d70f9473f1fa", "is_disabled": 0, "rental_uris": {"android": "https://dc.lft.to/lastmile_qr_scan", "ios": "https://dc.lft.to/lastmile_qr_scan"}, "fusion_lon": 0.0, "lat": 38.917097, "bike_id": "3f9dbebae5241dc1efd2d70f9473f1fa", "type": "electric_scooter", "is_reserved": 0, "lon": -77.0229335}, {"fusion_lat": 0.0, "name": "1f9ed26b5e8501f0b1c096c65cd50b1d", "is_disabled": 0, "rental_uris": {"android": "https://dc.lft.to/lastmile_qr_scan", "ios": "https://dc.lft.to/lastmile_qr_scan"}, "fusion_lon": 0.0, "lat": 38.89749033333333, "bike_id": "1f9ed26b5e8501f0b1c096c65cd50b1d", "type": "electric_scooter", "is_reserved": 0, "lon": -77.0269025}, {"fusion_lat": 0.0, "name": "ecd9872f64ef18046a9a7c622071d755", "is_disabled": 0, "rental_uris": {"android": "https://dc.lft.to/lastmile_qr_scan", "ios": "https://dc.lft.to/lastmile_qr_scan"}, "fusion_lon": 0.0, "lat": 38.92863116666667, "bike_id": "ecd9872f64ef18046a9a7c622071d755", "type": "electric_scooter", "is_reserved": 0, "lon": -77.03346683333334}, {"fusion_lat": 0.0, "name": "6495e4e5afba9370ca1cf028363631ca", "is_disabled": 0, "rental_uris": {"android": "https://dc.lft.to/lastmile_qr_scan", "ios": "https://dc.lft.to/lastmile_qr_scan"}, "fusion_lon": 0.0, "lat": 38.900063, "bike_id": "6495e4e5afba9370ca1cf028363631ca", "type": "electric_scooter", "is_reserved": 0, "lon": -77.04493583333333}, {"fusion_lat": 0.0, "name": "611154affdcdcf335738bd8027209431", "is_disabled": 0, "rental_uris": {"android": "https://dc.lft.to/lastmile_qr_scan", "ios": "https://dc.lft.to/lastmile_qr_scan"}, "fusion_lon": 0.0, "lat": 38.9357155, "bike_id": "611154affdcdcf335738bd8027209431", "type": "electric_scooter", "is_reserved": 0, "lon": -77.01932066666667}, {"fusion_lat": 0.0, "name": "afd53d4aa55bd0814fb1674dd9a85bd6", "is_disabled": 0, "rental_uris": {"android": "https://dc.lft.to/lastmile_qr_scan", "ios": "https://dc.lft.to/lastmile_qr_scan"}, "fusion_lon": 0.0, "lat": 38.91609166666667, "bike_id": "afd53d4aa55bd0814fb1674dd9a85bd6", "type": "electric_scooter", "is_reserved": 0, "lon": -77.04585983333334}, {"fusion_lat": 0.0, "name": "6619638a8f7149e2790d97eca8cb3aad", "is_disabled": 0, "rental_uris": {"android": "https://dc.lft.to/lastmile_qr_scan", "ios": "https://dc.lft.to/lastmile_qr_scan"}, "fusion_lon": 0.0, "lat": 38.906750333333335, "bike_id": "6619638a8f7149e2790d97eca8cb3aad", "type": "electric_scooter", "is_reserved": 0, "lon": -76.9996435}, {"fusion_lat": 0.0, "name": "088de860ed0ff3826a45437ac15cb531", "is_disabled": 0, "rental_uris": {"android": "https://dc.lft.to/lastmile_qr_scan", "ios": "https://dc.lft.to/lastmile_qr_scan"}, "fusion_lon": 0.0, "lat": 38.9135145, "bike_id": "088de860ed0ff3826a45437ac15cb531", "type": "electric_scooter", "is_reserved": 0, "lon": -77.020572}, {"fusion_lat": 0.0, "name": "d854731d4972cde0e9c13afbe97007c1", "is_disabled": 0, "rental_uris": {"android": "https://dc.lft.to/lastmile_qr_scan", "ios": "https://dc.lft.to/lastmile_qr_scan"}, "fusion_lon": 0.0, "lat": 38.9222895, "bike_id": "d854731d4972cde0e9c13afbe97007c1", "type": "electric_bike", "is_reserved": 0, "lon": -77.0234265}, {"fusion_lat": 0.0, "name": "a9f1fa9764b9f2ef77c06d5313ce3a38", "is_disabled": 0, "rental_uris": {"android": "https://dc.lft.to/lastmile_qr_scan", "ios": "https://dc.lft.to/lastmile_qr_scan"}, "fusion_lon": 0.0, "lat": 38.892274666666665, "bike_id": "a9f1fa9764b9f2ef77c06d5313ce3a38", "type": "electric_scooter", "is_reserved": 0, "lon": -77.04867933333334}, {"fusion_lat": 0.0, "name": "cde23dde6305f6fb05d2e867a5335bf7", "is_disabled": 0, "rental_uris": {"android": "https://dc.lft.to/lastmile_qr_scan", "ios": "https://dc.lft.to/lastmile_qr_scan"}, "fusion_lon": 0.0, "lat": 38.900242, "bike_id": "cde23dde6305f6fb05d2e867a5335bf7", "type": "electric_scooter", "is_reserved": 0, "lon": -76.97401016666667}, {"fusion_lat": 0.0, "name": "89e1b451e3bd3062433d2fa300f9c8a9", "is_disabled": 0, "rental_uris": {"android": "https://dc.lft.to/lastmile_qr_scan", "ios": "https://dc.lft.to/lastmile_qr_scan"}, "fusion_lon": 0.0, "lat": 38.91518966666667, "bike_id": "89e1b451e3bd3062433d2fa300f9c8a9", "type": "electric_scooter", "is_reserved": 0, "lon": -77.0122615}, {"fusion_lat": 0.0, "name": "9cd27503484cf62848ddd45881fce980", "is_disabled": 0, "rental_uris": {"android": "https://dc.lft.to/lastmile_qr_scan", "ios": "https://dc.lft.to/lastmile_qr_scan"}, "fusion_lon": 0.0, "lat": 38.887557, "bike_id": "9cd27503484cf62848ddd45881fce980", "type": "electric_scooter", "is_reserved": 0, "lon": -77.03357533333333}, {"fusion_lat": 0.0, "name": "1bb1a7c2107e954eadced862b426335b", "is_disabled": 0, "rental_uris": {"android": "https://dc.lft.to/lastmile_qr_scan", "ios": "https://dc.lft.to/lastmile_qr_scan"}, "fusion_lon": 0.0, "lat": 38.917023, "bike_id": "1bb1a7c2107e954eadced862b426335b", "type": "electric_scooter", "is_reserved": 0, "lon": -77.02623716666666}, {"fusion_lat": 0.0, "name": "a00971ea22f6cc44d8879a5340b2a2aa", "is_disabled": 0, "rental_uris": {"android": "https://dc.lft.to/lastmile_qr_scan", "ios": "https://dc.lft.to/lastmile_qr_scan"}, "fusion_lon": 0.0, "lat": 38.929642333333334, "bike_id": "a00971ea22f6cc44d8879a5340b2a2aa", "type": "electric_scooter", "is_reserved": 0, "lon": -77.05525966666667}, {"fusion_lat": 0.0, "name": "d4e7cd06deea8c837ca95f6f14b19ec1", "is_disabled": 0, "rental_uris": {"android": "https://dc.lft.to/lastmile_qr_scan", "ios": "https://dc.lft.to/lastmile_qr_scan"}, "fusion_lon": 0.0, "lat": 38.8983995, "bike_id": "d4e7cd06deea8c837ca95f6f14b19ec1", "type": "electric_scooter", "is_reserved": 0, "lon": -77.02490233333333}, {"fusion_lat": 0.0, "name": "18c19446ca653759a92ac3ea96aef05c", "is_disabled": 0, "rental_uris": {"android": "https://dc.lft.to/lastmile_qr_scan", "ios": "https://dc.lft.to/lastmile_qr_scan"}, "fusion_lon": 0.0, "lat": 38.92334833333334, "bike_id": "18c19446ca653759a92ac3ea96aef05c", "type": "electric_scooter", "is_reserved": 0, "lon": -77.05678566666667}, {"fusion_lat": 0.0, "name": "8c8296d97d74ae4a60f9a38867c331d5", "is_disabled": 0, "rental_uris": {"android": "https://dc.lft.to/lastmile_qr_scan", "ios": "https://dc.lft.to/lastmile_qr_scan"}, "fusion_lon": 0.0, "lat": 38.916089666666664, "bike_id": "8c8296d97d74ae4a60f9a38867c331d5", "type": "electric_scooter", "is_reserved": 0, "lon": -77.0231645}, {"fusion_lat": 0.0, "name": "b2f3e566e93b8e46c1dfa50ea9830bbb", "is_disabled": 0, "rental_uris": {"android": "https://dc.lft.to/lastmile_qr_scan", "ios": "https://dc.lft.to/lastmile_qr_scan"}, "fusion_lon": 0.0, "lat": 38.909384833333334, "bike_id": "b2f3e566e93b8e46c1dfa50ea9830bbb", "type": "electric_scooter", "is_reserved": 0, "lon": -76.9877365}, {"fusion_lat": 0.0, "name": "386c22609c6fc219c7137b5d5ba09f91", "is_disabled": 0, "rental_uris": {"android": "https://dc.lft.to/lastmile_qr_scan", "ios": "https://dc.lft.to/lastmile_qr_scan"}, "fusion_lon": 0.0, "lat": 38.92280733333333, "bike_id": "386c22609c6fc219c7137b5d5ba09f91", "type": "electric_scooter", "is_reserved": 0, "lon": -77.02339816666667}, {"fusion_lat": 0.0, "name": "591f0027e41a15862ae3d879447b1c87", "is_disabled": 0, "rental_uris": {"android": "https://dc.lft.to/lastmile_qr_scan", "ios": "https://dc.lft.to/lastmile_qr_scan"}, "fusion_lon": 0.0, "lat": 38.910025833333336, "bike_id": "591f0027e41a15862ae3d879447b1c87", "type": "electric_scooter", "is_reserved": 0, "lon": -77.0347255}, {"fusion_lat": 0.0, "name": "b8d28c22609633c3fedd3e06792024ac", "is_disabled": 0, "rental_uris": {"android": "https://dc.lft.to/lastmile_qr_scan", "ios": "https://dc.lft.to/lastmile_qr_scan"}, "fusion_lon": 0.0, "lat": 38.906346166666665, "bike_id": "b8d28c22609633c3fedd3e06792024ac", "type": "electric_scooter", "is_reserved": 0, "lon": -77.02532283333333}, {"fusion_lat": 0.0, "name": "528da5dc180ce2410b37a8f514bf43c3", "is_disabled": 0, "rental_uris": {"android": "https://dc.lft.to/lastmile_qr_scan", "ios": "https://dc.lft.to/lastmile_qr_scan"}, "fusion_lon": 0.0, "lat": 38.92142466666667, "bike_id": "528da5dc180ce2410b37a8f514bf43c3", "type": "electric_scooter", "is_reserved": 0, "lon": -77.0434675}, {"fusion_lat": 0.0, "name": "b1f2a3418361c641de67dea15176d895", "is_disabled": 0, "rental_uris": {"android": "https://dc.lft.to/lastmile_qr_scan", "ios": "https://dc.lft.to/lastmile_qr_scan"}, "fusion_lon": 0.0, "lat": 38.912782666666665, "bike_id": "b1f2a3418361c641de67dea15176d895", "type": "electric_scooter", "is_reserved": 0, "lon": -77.0385015}, {"fusion_lat": 0.0, "name": "eb45eec566f823ca42e1470002a26e1c", "is_disabled": 0, "rental_uris": {"android": "https://dc.lft.to/lastmile_qr_scan", "ios": "https://dc.lft.to/lastmile_qr_scan"}, "fusion_lon": 0.0, "lat": 38.93583666666667, "bike_id": "eb45eec566f823ca42e1470002a26e1c", "type": "electric_scooter", "is_reserved": 0, "lon": -77.03351466666666}, {"fusion_lat": 0.0, "name": "d9cc6f2a2dfa452247070f84b4915f71", "is_disabled": 0, "rental_uris": {"android": "https://dc.lft.to/lastmile_qr_scan", "ios": "https://dc.lft.to/lastmile_qr_scan"}, "fusion_lon": 0.0, "lat": 38.88322933333333, "bike_id": "d9cc6f2a2dfa452247070f84b4915f71", "type": "electric_scooter", "is_reserved": 0, "lon": -77.01384983333334}, {"fusion_lat": 0.0, "name": "df0bd7a544085265cf5e6a5fd37499bc", "is_disabled": 0, "rental_uris": {"android": "https://dc.lft.to/lastmile_qr_scan", "ios": "https://dc.lft.to/lastmile_qr_scan"}, "fusion_lon": 0.0, "lat": 38.885442166666664, "bike_id": "df0bd7a544085265cf5e6a5fd37499bc", "type": "electric_scooter", "is_reserved": 0, "lon": -77.0220175}, {"fusion_lat": 0.0, "name": "cdb96ab7e0e264a0ef7d90788185e6de", "is_disabled": 0, "rental_uris": {"android": "https://dc.lft.to/lastmile_qr_scan", "ios": "https://dc.lft.to/lastmile_qr_scan"}, "fusion_lon": 0.0, "lat": 38.92072916666667, "bike_id": "cdb96ab7e0e264a0ef7d90788185e6de", "type": "electric_scooter", "is_reserved": 0, "lon": -77.02321816666667}, {"fusion_lat": 0.0, "name": "38a97644dd2311074b73c484194c908f", "is_disabled": 0, "rental_uris": {"android": "https://dc.lft.to/lastmile_qr_scan", "ios": "https://dc.lft.to/lastmile_qr_scan"}, "fusion_lon": 0.0, "lat": 38.89987716666667, "bike_id": "38a97644dd2311074b73c484194c908f", "type": "electric_scooter", "is_reserved": 0, "lon": -76.9927475}, {"fusion_lat": 0.0, "name": "bf25214172f9184a302942a03c47dd1c", "is_disabled": 0, "rental_uris": {"android": "https://dc.lft.to/lastmile_qr_scan", "ios": "https://dc.lft.to/lastmile_qr_scan"}, "fusion_lon": 0.0, "lat": 38.9066355, "bike_id": "bf25214172f9184a302942a03c47dd1c", "type": "electric_scooter", "is_reserved": 0, "lon": -77.03871533333333}, {"fusion_lat": 0.0, "name": "3be3041f4cc265cd2140421e6248f112", "is_disabled": 0, "rental_uris": {"android": "https://dc.lft.to/lastmile_qr_scan", "ios": "https://dc.lft.to/lastmile_qr_scan"}, "fusion_lon": 0.0, "lat": 38.9051775, "bike_id": "3be3041f4cc265cd2140421e6248f112", "type": "electric_scooter", "is_reserved": 0, "lon": -77.0294345}, {"fusion_lat": 0.0, "name": "18bfc203ef1628a304c3ef996b84f309", "is_disabled": 0, "rental_uris": {"android": "https://dc.lft.to/lastmile_qr_scan", "ios": "https://dc.lft.to/lastmile_qr_scan"}, "fusion_lon": 0.0, "lat": 38.902481333333334, "bike_id": "18bfc203ef1628a304c3ef996b84f309", "type": "electric_scooter", "is_reserved": 0, "lon": -77.01890433333334}, {"fusion_lat": 0.0, "name": "4f8f52df9ea43f7d5b36477e14a3ceb6", "is_disabled": 0, "rental_uris": {"android": "https://dc.lft.to/lastmile_qr_scan", "ios": "https://dc.lft.to/lastmile_qr_scan"}, "fusion_lon": 0.0, "lat": 38.90106166666666, "bike_id": "4f8f52df9ea43f7d5b36477e14a3ceb6", "type": "electric_scooter", "is_reserved": 0, "lon": -77.02606266666666}, {"fusion_lat": 0.0, "name": "a7a9bca4748bb7c9b886bcd8634919bb", "is_disabled": 0, "rental_uris": {"android": "https://dc.lft.to/lastmile_qr_scan", "ios": "https://dc.lft.to/lastmile_qr_scan"}, "fusion_lon": 0.0, "lat": 38.904664, "bike_id": "a7a9bca4748bb7c9b886bcd8634919bb", "type": "electric_scooter", "is_reserved": 0, "lon": -77.03560933333333}, {"fusion_lat": 0.0, "name": "eaab2e567b67c3f8869c6acad27379c1", "is_disabled": 0, "rental_uris": {"android": "https://dc.lft.to/lastmile_qr_scan", "ios": "https://dc.lft.to/lastmile_qr_scan"}, "fusion_lon": 0.0, "lat": 38.90967116666667, "bike_id": "eaab2e567b67c3f8869c6acad27379c1", "type": "electric_scooter", "is_reserved": 0, "lon": -77.03425533333333}, {"fusion_lat": 0.0, "name": "fe63f7b102eff8bc8b114b3aa1fc8eea", "is_disabled": 0, "rental_uris": {"android": "https://dc.lft.to/lastmile_qr_scan", "ios": "https://dc.lft.to/lastmile_qr_scan"}, "fusion_lon": 0.0, "lat": 38.91971516666667, "bike_id": "fe63f7b102eff8bc8b114b3aa1fc8eea", "type": "electric_scooter", "is_reserved": 0, "lon": -77.02391816666666}, {"fusion_lat": 0.0, "name": "a61c683e8fcfca40a4a868e0f172e6dc", "is_disabled": 0, "rental_uris": {"android": "https://dc.lft.to/lastmile_qr_scan", "ios": "https://dc.lft.to/lastmile_qr_scan"}, "fusion_lon": 0.0, "lat": 38.931980833333334, "bike_id": "a61c683e8fcfca40a4a868e0f172e6dc", "type": "electric_scooter", "is_reserved": 0, "lon": -77.035058}, {"fusion_lat": 0.0, "name": "f03f18ba62fb1cca4b53e5ed68967d95", "is_disabled": 0, "rental_uris": {"android": "https://dc.lft.to/lastmile_qr_scan", "ios": "https://dc.lft.to/lastmile_qr_scan"}, "fusion_lon": 0.0, "lat": 38.89731583333333, "bike_id": "f03f18ba62fb1cca4b53e5ed68967d95", "type": "electric_scooter", "is_reserved": 0, "lon": -77.04427683333333}, {"fusion_lat": 0.0, "name": "8ebaae880bb665f6981327912c277fe6", "is_disabled": 0, "rental_uris": {"android": "https://dc.lft.to/lastmile_qr_scan", "ios": "https://dc.lft.to/lastmile_qr_scan"}, "fusion_lon": 0.0, "lat": 38.92761633333333, "bike_id": "8ebaae880bb665f6981327912c277fe6", "type": "electric_scooter", "is_reserved": 0, "lon": -77.05273383333333}, {"fusion_lat": 0.0, "name": "d6d8a4aebfc841fccb52ebbed539e9c1", "is_disabled": 0, "rental_uris": {"android": "https://dc.lft.to/lastmile_qr_scan", "ios": "https://dc.lft.to/lastmile_qr_scan"}, "fusion_lon": 0.0, "lat": 38.93753316666667, "bike_id": "d6d8a4aebfc841fccb52ebbed539e9c1", "type": "electric_scooter", "is_reserved": 0, "lon": -77.03252333333333}, {"fusion_lat": 0.0, "name": "de932f02d318e9f0c595d29613d0cea1", "is_disabled": 0, "rental_uris": {"android": "https://dc.lft.to/lastmile_qr_scan", "ios": "https://dc.lft.to/lastmile_qr_scan"}, "fusion_lon": 0.0, "lat": 38.900226333333336, "bike_id": "de932f02d318e9f0c595d29613d0cea1", "type": "electric_scooter", "is_reserved": 0, "lon": -76.988195}, {"fusion_lat": 0.0, "name": "7232b3fd4a7a63815de7b1778749cf44", "is_disabled": 0, "rental_uris": {"android": "https://dc.lft.to/lastmile_qr_scan", "ios": "https://dc.lft.to/lastmile_qr_scan"}, "fusion_lon": 0.0, "lat": 38.92526216666667, "bike_id": "7232b3fd4a7a63815de7b1778749cf44", "type": "electric_scooter", "is_reserved": 0, "lon": -77.0504095}, {"fusion_lat": 0.0, "name": "164f4e3d4eb3c5103208dfa04b4d346c", "is_disabled": 0, "rental_uris": {"android": "https://dc.lft.to/lastmile_qr_scan", "ios": "https://dc.lft.to/lastmile_qr_scan"}, "fusion_lon": 0.0, "lat": 38.90721683333334, "bike_id": "164f4e3d4eb3c5103208dfa04b4d346c", "type": "electric_scooter", "is_reserved": 0, "lon": -77.02408166666666}, {"fusion_lat": 0.0, "name": "eef42ad0d0c1a0a9ce25243783686692", "is_disabled": 0, "rental_uris": {"android": "https://dc.lft.to/lastmile_qr_scan", "ios": "https://dc.lft.to/lastmile_qr_scan"}, "fusion_lon": 0.0, "lat": 38.927831166666664, "bike_id": "eef42ad0d0c1a0a9ce25243783686692", "type": "electric_scooter", "is_reserved": 0, "lon": -77.0531915}, {"fusion_lat": 0.0, "name": "8af34c29638d8af48e17b61c0787a669", "is_disabled": 0, "rental_uris": {"android": "https://dc.lft.to/lastmile_qr_scan", "ios": "https://dc.lft.to/lastmile_qr_scan"}, "fusion_lon": 0.0, "lat": 38.90616933333333, "bike_id": "8af34c29638d8af48e17b61c0787a669", "type": "electric_scooter", "is_reserved": 0, "lon": -77.00581566666666}, {"fusion_lat": 0.0, "name": "ea0e566b46d2f47ba97f0145902da521", "is_disabled": 0, "rental_uris": {"android": "https://dc.lft.to/lastmile_qr_scan", "ios": "https://dc.lft.to/lastmile_qr_scan"}, "fusion_lon": 0.0, "lat": 38.921477333333335, "bike_id": "ea0e566b46d2f47ba97f0145902da521", "type": "electric_scooter", "is_reserved": 0, "lon": -77.01920416666667}, {"fusion_lat": 0.0, "name": "0b93b9f317f9f5439401786702fbf416", "is_disabled": 0, "rental_uris": {"android": "https://dc.lft.to/lastmile_qr_scan", "ios": "https://dc.lft.to/lastmile_qr_scan"}, "fusion_lon": 0.0, "lat": 38.9268615, "bike_id": "0b93b9f317f9f5439401786702fbf416", "type": "electric_scooter", "is_reserved": 0, "lon": -77.02547}, {"fusion_lat": 0.0, "name": "01071e56e70284738bf29b45dc6b540a", "is_disabled": 0, "rental_uris": {"android": "https://dc.lft.to/lastmile_qr_scan", "ios": "https://dc.lft.to/lastmile_qr_scan"}, "fusion_lon": 0.0, "lat": 38.807547, "bike_id": "01071e56e70284738bf29b45dc6b540a", "type": "electric_bike", "is_reserved": 0, "lon": -77.0945765}, {"fusion_lat": 0.0, "name": "918431ff5b30d860cdf4991bd0c63cec", "is_disabled": 0, "rental_uris": {"android": "https://dc.lft.to/lastmile_qr_scan", "ios": "https://dc.lft.to/lastmile_qr_scan"}, "fusion_lon": 0.0, "lat": 38.88298616666667, "bike_id": "918431ff5b30d860cdf4991bd0c63cec", "type": "electric_scooter", "is_reserved": 0, "lon": -76.94848566666667}, {"fusion_lat": 0.0, "name": "7ec3237165efe449807590cf422cdca0", "is_disabled": 0, "rental_uris": {"android": "https://dc.lft.to/lastmile_qr_scan", "ios": "https://dc.lft.to/lastmile_qr_scan"}, "fusion_lon": 0.0, "lat": 38.85416983333333, "bike_id": "7ec3237165efe449807590cf422cdca0", "type": "electric_bike", "is_reserved": 0, "lon": -77.1208035}, {"fusion_lat": 0.0, "name": "c2c2be557b0c00fb2f0ad9b576e68e0c", "is_disabled": 0, "rental_uris": {"android": "https://dc.lft.to/lastmile_qr_scan", "ios": "https://dc.lft.to/lastmile_qr_scan"}, "fusion_lon": 0.0, "lat": 38.907656833333334, "bike_id": "c2c2be557b0c00fb2f0ad9b576e68e0c", "type": "electric_scooter", "is_reserved": 0, "lon": -77.038363}, {"fusion_lat": 0.0, "name": "cdd47b8a5624a664ff0202093cf3663c", "is_disabled": 0, "rental_uris": {"android": "https://dc.lft.to/lastmile_qr_scan", "ios": "https://dc.lft.to/lastmile_qr_scan"}, "fusion_lon": 0.0, "lat": 38.909097833333334, "bike_id": "cdd47b8a5624a664ff0202093cf3663c", "type": "electric_scooter", "is_reserved": 0, "lon": -77.06423783333334}, {"fusion_lat": 0.0, "name": "fcc9efa513ec30888de0db5083098c3a", "is_disabled": 0, "rental_uris": {"android": "https://dc.lft.to/lastmile_qr_scan", "ios": "https://dc.lft.to/lastmile_qr_scan"}, "fusion_lon": 0.0, "lat": 38.885078, "bike_id": "fcc9efa513ec30888de0db5083098c3a", "type": "electric_bike", "is_reserved": 0, "lon": -77.0159175}, {"fusion_lat": 0.0, "name": "a03d4504b0a74b66fa6331a74cad4410", "is_disabled": 0, "rental_uris": {"android": "https://dc.lft.to/lastmile_qr_scan", "ios": "https://dc.lft.to/lastmile_qr_scan"}, "fusion_lon": 0.0, "lat": 38.917079, "bike_id": "a03d4504b0a74b66fa6331a74cad4410", "type": "electric_scooter", "is_reserved": 0, "lon": -77.03235383333333}, {"fusion_lat": 0.0, "name": "0d1233ad481be2ab9f25ab41c3a81340", "is_disabled": 0, "rental_uris": {"android": "https://dc.lft.to/lastmile_qr_scan", "ios": "https://dc.lft.to/lastmile_qr_scan"}, "fusion_lon": 0.0, "lat": 38.886634, "bike_id": "0d1233ad481be2ab9f25ab41c3a81340", "type": "electric_scooter", "is_reserved": 0, "lon": -77.01985716666667}, {"fusion_lat": 0.0, "name": "4d8c2dc4513a6eeec409abc93a080652", "is_disabled": 0, "rental_uris": {"android": "https://dc.lft.to/lastmile_qr_scan", "ios": "https://dc.lft.to/lastmile_qr_scan"}, "fusion_lon": 0.0, "lat": 38.909728666666666, "bike_id": "4d8c2dc4513a6eeec409abc93a080652", "type": "electric_scooter", "is_reserved": 0, "lon": -77.04810166666667}, {"fusion_lat": 0.0, "name": "5467440c5d61a016e7a14af643ee5dd2", "is_disabled": 0, "rental_uris": {"android": "https://dc.lft.to/lastmile_qr_scan", "ios": "https://dc.lft.to/lastmile_qr_scan"}, "fusion_lon": 0.0, "lat": 38.9322965, "bike_id": "5467440c5d61a016e7a14af643ee5dd2", "type": "electric_scooter", "is_reserved": 0, "lon": -76.99493883333334}, {"fusion_lat": 0.0, "name": "f6fd94973d58d0b2d99057e0d4d16461", "is_disabled": 0, "rental_uris": {"android": "https://dc.lft.to/lastmile_qr_scan", "ios": "https://dc.lft.to/lastmile_qr_scan"}, "fusion_lon": 0.0, "lat": 38.917044, "bike_id": "f6fd94973d58d0b2d99057e0d4d16461", "type": "electric_scooter", "is_reserved": 0, "lon": -77.03877533333333}, {"fusion_lat": 0.0, "name": "5ea01aeb94f2b04262363b091a4f0da6", "is_disabled": 0, "rental_uris": {"android": "https://dc.lft.to/lastmile_qr_scan", "ios": "https://dc.lft.to/lastmile_qr_scan"}, "fusion_lon": 0.0, "lat": 38.8964975, "bike_id": "5ea01aeb94f2b04262363b091a4f0da6", "type": "electric_scooter", "is_reserved": 0, "lon": -77.02484733333333}, {"fusion_lat": 0.0, "name": "241e09d5026ec4a44d1af51f9950ce82", "is_disabled": 0, "rental_uris": {"android": "https://dc.lft.to/lastmile_qr_scan", "ios": "https://dc.lft.to/lastmile_qr_scan"}, "fusion_lon": 0.0, "lat": 38.92342166666667, "bike_id": "241e09d5026ec4a44d1af51f9950ce82", "type": "electric_scooter", "is_reserved": 0, "lon": -77.05227333333333}, {"fusion_lat": 0.0, "name": "c7f0a727b74a1cfeca7402ae95eeb552", "is_disabled": 0, "rental_uris": {"android": "https://dc.lft.to/lastmile_qr_scan", "ios": "https://dc.lft.to/lastmile_qr_scan"}, "fusion_lon": 0.0, "lat": 38.883625333333335, "bike_id": "c7f0a727b74a1cfeca7402ae95eeb552", "type": "electric_scooter", "is_reserved": 0, "lon": -76.941605}, {"fusion_lat": 0.0, "name": "59cb647e73fc1fe0406ca933a0ee8f28", "is_disabled": 0, "rental_uris": {"android": "https://dc.lft.to/lastmile_qr_scan", "ios": "https://dc.lft.to/lastmile_qr_scan"}, "fusion_lon": 0.0, "lat": 38.9049035, "bike_id": "59cb647e73fc1fe0406ca933a0ee8f28", "type": "electric_bike", "is_reserved": 0, "lon": -76.97453983333334}, {"fusion_lat": 0.0, "name": "9f932870863b040f1a656d779c13bc23", "is_disabled": 0, "rental_uris": {"android": "https://dc.lft.to/lastmile_qr_scan", "ios": "https://dc.lft.to/lastmile_qr_scan"}, "fusion_lon": 0.0, "lat": 38.9158355, "bike_id": "9f932870863b040f1a656d779c13bc23", "type": "electric_scooter", "is_reserved": 0, "lon": -76.9838545}, {"fusion_lat": 0.0, "name": "df790d8336a228af8cb23f5d55ff3975", "is_disabled": 0, "rental_uris": {"android": "https://dc.lft.to/lastmile_qr_scan", "ios": "https://dc.lft.to/lastmile_qr_scan"}, "fusion_lon": 0.0, "lat": 38.90150516666667, "bike_id": "df790d8336a228af8cb23f5d55ff3975", "type": "electric_scooter", "is_reserved": 0, "lon": -77.05905583333333}, {"fusion_lat": 0.0, "name": "083932c7bea6248da04270d84c9ddcc9", "is_disabled": 0, "rental_uris": {"android": "https://dc.lft.to/lastmile_qr_scan", "ios": "https://dc.lft.to/lastmile_qr_scan"}, "fusion_lon": 0.0, "lat": 38.92049016666667, "bike_id": "083932c7bea6248da04270d84c9ddcc9", "type": "electric_bike", "is_reserved": 0, "lon": -76.99826766666666}, {"fusion_lat": 0.0, "name": "6ba4bb4650b81f0fcb4b590abb8d6f56", "is_disabled": 0, "rental_uris": {"android": "https://dc.lft.to/lastmile_qr_scan", "ios": "https://dc.lft.to/lastmile_qr_scan"}, "fusion_lon": 0.0, "lat": 38.9170915, "bike_id": "6ba4bb4650b81f0fcb4b590abb8d6f56", "type": "electric_scooter", "is_reserved": 0, "lon": -77.03237016666667}, {"fusion_lat": 0.0, "name": "5b46366cae3b22c3e23ff5f6699af9f5", "is_disabled": 0, "rental_uris": {"android": "https://dc.lft.to/lastmile_qr_scan", "ios": "https://dc.lft.to/lastmile_qr_scan"}, "fusion_lon": 0.0, "lat": 38.90353133333333, "bike_id": "5b46366cae3b22c3e23ff5f6699af9f5", "type": "electric_scooter", "is_reserved": 0, "lon": -77.03548133333334}, {"fusion_lat": 0.0, "name": "0c37039e55f3bce8148b76ec3d0184fe", "is_disabled": 0, "rental_uris": {"android": "https://dc.lft.to/lastmile_qr_scan", "ios": "https://dc.lft.to/lastmile_qr_scan"}, "fusion_lon": 0.0, "lat": 38.945040666666664, "bike_id": "0c37039e55f3bce8148b76ec3d0184fe", "type": "electric_scooter", "is_reserved": 0, "lon": -77.03148483333334}, {"fusion_lat": 0.0, "name": "2d9f81ecd0cd079f3ec0613f6b6849e1", "is_disabled": 0, "rental_uris": {"android": "https://dc.lft.to/lastmile_qr_scan", "ios": "https://dc.lft.to/lastmile_qr_scan"}, "fusion_lon": 0.0, "lat": 38.9312905, "bike_id": "2d9f81ecd0cd079f3ec0613f6b6849e1", "type": "electric_bike", "is_reserved": 0, "lon": -77.01977366666667}, {"fusion_lat": 0.0, "name": "e451d0bedc3a1a81b7db6edcd4f5aa23", "is_disabled": 0, "rental_uris": {"android": "https://dc.lft.to/lastmile_qr_scan", "ios": "https://dc.lft.to/lastmile_qr_scan"}, "fusion_lon": 0.0, "lat": 38.9003615, "bike_id": "e451d0bedc3a1a81b7db6edcd4f5aa23", "type": "electric_scooter", "is_reserved": 0, "lon": -77.03312983333333}, {"fusion_lat": 0.0, "name": "f3a7166473195d7728288292d522c7ff", "is_disabled": 0, "rental_uris": {"android": "https://dc.lft.to/lastmile_qr_scan", "ios": "https://dc.lft.to/lastmile_qr_scan"}, "fusion_lon": 0.0, "lat": 38.84359633333333, "bike_id": "f3a7166473195d7728288292d522c7ff", "type": "electric_bike", "is_reserved": 0, "lon": -76.97830083333334}, {"fusion_lat": 0.0, "name": "f34f4dd5a8edf7f1ed708b7b0e5e5404", "is_disabled": 0, "rental_uris": {"android": "https://dc.lft.to/lastmile_qr_scan", "ios": "https://dc.lft.to/lastmile_qr_scan"}, "fusion_lon": 0.0, "lat": 38.903973666666666, "bike_id": "f34f4dd5a8edf7f1ed708b7b0e5e5404", "type": "electric_scooter", "is_reserved": 0, "lon": -77.038395}, {"fusion_lat": 0.0, "name": "07471e0a0aaa08081eb86bae13177466", "is_disabled": 0, "rental_uris": {"android": "https://dc.lft.to/lastmile_qr_scan", "ios": "https://dc.lft.to/lastmile_qr_scan"}, "fusion_lon": 0.0, "lat": 38.898335333333335, "bike_id": "07471e0a0aaa08081eb86bae13177466", "type": "electric_scooter", "is_reserved": 0, "lon": -77.02825333333334}, {"fusion_lat": 0.0, "name": "60f47dbf87b5b70dbe6fb80e609df9a6", "is_disabled": 0, "rental_uris": {"android": "https://dc.lft.to/lastmile_qr_scan", "ios": "https://dc.lft.to/lastmile_qr_scan"}, "fusion_lon": 0.0, "lat": 39.01075783333334, "bike_id": "60f47dbf87b5b70dbe6fb80e609df9a6", "type": "electric_bike", "is_reserved": 0, "lon": -76.91067683333333}, {"fusion_lat": 0.0, "name": "eaf6512caa290efc03aca281303fbad8", "is_disabled": 0, "rental_uris": {"android": "https://dc.lft.to/lastmile_qr_scan", "ios": "https://dc.lft.to/lastmile_qr_scan"}, "fusion_lon": 0.0, "lat": 38.887763166666666, "bike_id": "eaf6512caa290efc03aca281303fbad8", "type": "electric_scooter", "is_reserved": 0, "lon": -77.02941216666666}, {"fusion_lat": 0.0, "name": "e90dc908e1ba328bb179080f2fe4fca8", "is_disabled": 0, "rental_uris": {"android": "https://dc.lft.to/lastmile_qr_scan", "ios": "https://dc.lft.to/lastmile_qr_scan"}, "fusion_lon": 0.0, "lat": 38.93708866666667, "bike_id": "e90dc908e1ba328bb179080f2fe4fca8", "type": "electric_scooter", "is_reserved": 0, "lon": -77.06104233333333}, {"fusion_lat": 0.0, "name": "c307dc363a6a0a723f1faa68a96c91bc", "is_disabled": 0, "rental_uris": {"android": "https://dc.lft.to/lastmile_qr_scan", "ios": "https://dc.lft.to/lastmile_qr_scan"}, "fusion_lon": 0.0, "lat": 38.9002985, "bike_id": "c307dc363a6a0a723f1faa68a96c91bc", "type": "electric_scooter", "is_reserved": 0, "lon": -77.03512016666667}, {"fusion_lat": 0.0, "name": "c0f822783d605bf57bbbfb4ed9e986fb", "is_disabled": 0, "rental_uris": {"android": "https://dc.lft.to/lastmile_qr_scan", "ios": "https://dc.lft.to/lastmile_qr_scan"}, "fusion_lon": 0.0, "lat": 38.945282666666664, "bike_id": "c0f822783d605bf57bbbfb4ed9e986fb", "type": "electric_scooter", "is_reserved": 0, "lon": -77.02092666666667}, {"fusion_lat": 0.0, "name": "7df7ce77b601a86faf7592835732fe48", "is_disabled": 0, "rental_uris": {"android": "https://dc.lft.to/lastmile_qr_scan", "ios": "https://dc.lft.to/lastmile_qr_scan"}, "fusion_lon": 0.0, "lat": 38.9231305, "bike_id": "7df7ce77b601a86faf7592835732fe48", "type": "electric_scooter", "is_reserved": 0, "lon": -77.04042883333334}, {"fusion_lat": 0.0, "name": "ab745bc70f2af5276f9f1bf606298da5", "is_disabled": 0, "rental_uris": {"android": "https://dc.lft.to/lastmile_qr_scan", "ios": "https://dc.lft.to/lastmile_qr_scan"}, "fusion_lon": 0.0, "lat": 38.91950466666667, "bike_id": "ab745bc70f2af5276f9f1bf606298da5", "type": "electric_scooter", "is_reserved": 0, "lon": -77.023901}, {"fusion_lat": 0.0, "name": "3af3a0fe4a90f57518f8c7f9d85d95f4", "is_disabled": 0, "rental_uris": {"android": "https://dc.lft.to/lastmile_qr_scan", "ios": "https://dc.lft.to/lastmile_qr_scan"}, "fusion_lon": 0.0, "lat": 38.8743535, "bike_id": "3af3a0fe4a90f57518f8c7f9d85d95f4", "type": "electric_scooter", "is_reserved": 0, "lon": -77.00052316666667}, {"fusion_lat": 0.0, "name": "a5c5819dc5c09f6879347d575075a1be", "is_disabled": 0, "rental_uris": {"android": "https://dc.lft.to/lastmile_qr_scan", "ios": "https://dc.lft.to/lastmile_qr_scan"}, "fusion_lon": 0.0, "lat": 38.90148716666667, "bike_id": "a5c5819dc5c09f6879347d575075a1be", "type": "electric_scooter", "is_reserved": 0, "lon": -77.02307483333334}, {"fusion_lat": 0.0, "name": "2fbd556de582d801a1a55fb36cf90410", "is_disabled": 0, "rental_uris": {"android": "https://dc.lft.to/lastmile_qr_scan", "ios": "https://dc.lft.to/lastmile_qr_scan"}, "fusion_lon": 0.0, "lat": 38.9189725, "bike_id": "2fbd556de582d801a1a55fb36cf90410", "type": "electric_scooter", "is_reserved": 0, "lon": -77.02397583333334}, {"fusion_lat": 0.0, "name": "1a3baab528e40926db92476a5cd2d4c5", "is_disabled": 0, "rental_uris": {"android": "https://dc.lft.to/lastmile_qr_scan", "ios": "https://dc.lft.to/lastmile_qr_scan"}, "fusion_lon": 0.0, "lat": 38.916915333333336, "bike_id": "1a3baab528e40926db92476a5cd2d4c5", "type": "electric_scooter", "is_reserved": 0, "lon": -77.02429716666667}, {"fusion_lat": 0.0, "name": "bacc1ce6abb65303dbaf4b4b113de25c", "is_disabled": 0, "rental_uris": {"android": "https://dc.lft.to/lastmile_qr_scan", "ios": "https://dc.lft.to/lastmile_qr_scan"}, "fusion_lon": 0.0, "lat": 38.8788715, "bike_id": "bacc1ce6abb65303dbaf4b4b113de25c", "type": "electric_scooter", "is_reserved": 0, "lon": -77.0055705}, {"fusion_lat": 0.0, "name": "e2ea5655bbe379f3382d22f41ac4ab70", "is_disabled": 0, "rental_uris": {"android": "https://dc.lft.to/lastmile_qr_scan", "ios": "https://dc.lft.to/lastmile_qr_scan"}, "fusion_lon": 0.0, "lat": 38.86249183333334, "bike_id": "e2ea5655bbe379f3382d22f41ac4ab70", "type": "electric_bike", "is_reserved": 0, "lon": -76.98336333333333}, {"fusion_lat": 0.0, "name": "eb1fb574c81af434ed59566aa9d63493", "is_disabled": 0, "rental_uris": {"android": "https://dc.lft.to/lastmile_qr_scan", "ios": "https://dc.lft.to/lastmile_qr_scan"}, "fusion_lon": 0.0, "lat": 38.921477, "bike_id": "eb1fb574c81af434ed59566aa9d63493", "type": "electric_scooter", "is_reserved": 0, "lon": -77.04017566666667}, {"fusion_lat": 0.0, "name": "2f664c87e1ba582888b147ef38889ced", "is_disabled": 0, "rental_uris": {"android": "https://dc.lft.to/lastmile_qr_scan", "ios": "https://dc.lft.to/lastmile_qr_scan"}, "fusion_lon": 0.0, "lat": 38.8811465, "bike_id": "2f664c87e1ba582888b147ef38889ced", "type": "electric_scooter", "is_reserved": 0, "lon": -77.02679266666667}, {"fusion_lat": 0.0, "name": "5bbee2680f718600e16ac6f74b44d7df", "is_disabled": 0, "rental_uris": {"android": "https://dc.lft.to/lastmile_qr_scan", "ios": "https://dc.lft.to/lastmile_qr_scan"}, "fusion_lon": 0.0, "lat": 38.857997833333336, "bike_id": "5bbee2680f718600e16ac6f74b44d7df", "type": "electric_bike", "is_reserved": 0, "lon": -76.9873455}, {"fusion_lat": 0.0, "name": "f0fcf759e4529ed6cf2c53ac62be0495", "is_disabled": 0, "rental_uris": {"android": "https://dc.lft.to/lastmile_qr_scan", "ios": "https://dc.lft.to/lastmile_qr_scan"}, "fusion_lon": 0.0, "lat": 38.896052833333336, "bike_id": "f0fcf759e4529ed6cf2c53ac62be0495", "type": "electric_scooter", "is_reserved": 0, "lon": -77.00928483333334}, {"fusion_lat": 0.0, "name": "21e7087446f65a11c52d1d000b89270d", "is_disabled": 0, "rental_uris": {"android": "https://dc.lft.to/lastmile_qr_scan", "ios": "https://dc.lft.to/lastmile_qr_scan"}, "fusion_lon": 0.0, "lat": 38.90570483333333, "bike_id": "21e7087446f65a11c52d1d000b89270d", "type": "electric_scooter", "is_reserved": 0, "lon": -77.0343835}, {"fusion_lat": 0.0, "name": "85f5d6919e0343cdc873ed74fba13571", "is_disabled": 0, "rental_uris": {"android": "https://dc.lft.to/lastmile_qr_scan", "ios": "https://dc.lft.to/lastmile_qr_scan"}, "fusion_lon": 0.0, "lat": 38.892176166666665, "bike_id": "85f5d6919e0343cdc873ed74fba13571", "type": "electric_scooter", "is_reserved": 0, "lon": -77.02634733333333}, {"fusion_lat": 0.0, "name": "0d57356b6ee083d748fbf568b68448a4", "is_disabled": 0, "rental_uris": {"android": "https://dc.lft.to/lastmile_qr_scan", "ios": "https://dc.lft.to/lastmile_qr_scan"}, "fusion_lon": 0.0, "lat": 38.9010695, "bike_id": "0d57356b6ee083d748fbf568b68448a4", "type": "electric_scooter", "is_reserved": 0, "lon": -77.01985466666666}, {"fusion_lat": 0.0, "name": "e9cd47d924011ac4659efd887b4426b9", "is_disabled": 0, "rental_uris": {"android": "https://dc.lft.to/lastmile_qr_scan", "ios": "https://dc.lft.to/lastmile_qr_scan"}, "fusion_lon": 0.0, "lat": 38.941720333333336, "bike_id": "e9cd47d924011ac4659efd887b4426b9", "type": "electric_scooter", "is_reserved": 0, "lon": -77.03660066666667}, {"fusion_lat": 0.0, "name": "430dcd1ab5680eab45df05b6be35f48b", "is_disabled": 0, "rental_uris": {"android": "https://dc.lft.to/lastmile_qr_scan", "ios": "https://dc.lft.to/lastmile_qr_scan"}, "fusion_lon": 0.0, "lat": 38.91821916666667, "bike_id": "430dcd1ab5680eab45df05b6be35f48b", "type": "electric_scooter", "is_reserved": 0, "lon": -77.040004}, {"fusion_lat": 0.0, "name": "3a72593b62052cc78348b8242701764c", "is_disabled": 0, "rental_uris": {"android": "https://dc.lft.to/lastmile_qr_scan", "ios": "https://dc.lft.to/lastmile_qr_scan"}, "fusion_lon": 0.0, "lat": 38.89931883333333, "bike_id": "3a72593b62052cc78348b8242701764c", "type": "electric_scooter", "is_reserved": 0, "lon": -77.02389733333334}, {"fusion_lat": 0.0, "name": "d5962969bbf483cbadb7ba6b0137a231", "is_disabled": 0, "rental_uris": {"android": "https://dc.lft.to/lastmile_qr_scan", "ios": "https://dc.lft.to/lastmile_qr_scan"}, "fusion_lon": 0.0, "lat": 38.91718383333333, "bike_id": "d5962969bbf483cbadb7ba6b0137a231", "type": "electric_scooter", "is_reserved": 0, "lon": -77.0084165}, {"fusion_lat": 0.0, "name": "b301b6e0472dfe116fc4a35e77d21344", "is_disabled": 0, "rental_uris": {"android": "https://dc.lft.to/lastmile_qr_scan", "ios": "https://dc.lft.to/lastmile_qr_scan"}, "fusion_lon": 0.0, "lat": 38.92181083333333, "bike_id": "b301b6e0472dfe116fc4a35e77d21344", "type": "electric_scooter", "is_reserved": 0, "lon": -76.996973}, {"fusion_lat": 0.0, "name": "ee03b3ac5f8d3ce8dd03d903c3fe025f", "is_disabled": 0, "rental_uris": {"android": "https://dc.lft.to/lastmile_qr_scan", "ios": "https://dc.lft.to/lastmile_qr_scan"}, "fusion_lon": 0.0, "lat": 38.92316133333333, "bike_id": "ee03b3ac5f8d3ce8dd03d903c3fe025f", "type": "electric_scooter", "is_reserved": 0, "lon": -77.03748283333333}, {"fusion_lat": 0.0, "name": "4396f54890764e1aa326974c70a29b88", "is_disabled": 0, "rental_uris": {"android": "https://dc.lft.to/lastmile_qr_scan", "ios": "https://dc.lft.to/lastmile_qr_scan"}, "fusion_lon": 0.0, "lat": 38.90266316666667, "bike_id": "4396f54890764e1aa326974c70a29b88", "type": "electric_scooter", "is_reserved": 0, "lon": -77.03660033333334}, {"fusion_lat": 0.0, "name": "9053e561cd0adec05e873af9e0cfe2d8", "is_disabled": 0, "rental_uris": {"android": "https://dc.lft.to/lastmile_qr_scan", "ios": "https://dc.lft.to/lastmile_qr_scan"}, "fusion_lon": 0.0, "lat": 38.8874475, "bike_id": "9053e561cd0adec05e873af9e0cfe2d8", "type": "electric_scooter", "is_reserved": 0, "lon": -77.02141333333333}, {"fusion_lat": 0.0, "name": "d083ab82109ef1655437847b9e972f19", "is_disabled": 0, "rental_uris": {"android": "https://dc.lft.to/lastmile_qr_scan", "ios": "https://dc.lft.to/lastmile_qr_scan"}, "fusion_lon": 0.0, "lat": 38.896698666666666, "bike_id": "d083ab82109ef1655437847b9e972f19", "type": "electric_scooter", "is_reserved": 0, "lon": -77.024631}, {"fusion_lat": 0.0, "name": "e323e84e965cc029e164da24fcbe2d0f", "is_disabled": 0, "rental_uris": {"android": "https://dc.lft.to/lastmile_qr_scan", "ios": "https://dc.lft.to/lastmile_qr_scan"}, "fusion_lon": 0.0, "lat": 38.91396483333333, "bike_id": "e323e84e965cc029e164da24fcbe2d0f", "type": "electric_scooter", "is_reserved": 0, "lon": -77.075584}, {"fusion_lat": 0.0, "name": "227eba09b9d6b5712be7bb11facafaf4", "is_disabled": 0, "rental_uris": {"android": "https://dc.lft.to/lastmile_qr_scan", "ios": "https://dc.lft.to/lastmile_qr_scan"}, "fusion_lon": 0.0, "lat": 38.9228005, "bike_id": "227eba09b9d6b5712be7bb11facafaf4", "type": "electric_scooter", "is_reserved": 0, "lon": -77.03671283333334}, {"fusion_lat": 0.0, "name": "70d498b807da5299bf791020786bf2cb", "is_disabled": 0, "rental_uris": {"android": "https://dc.lft.to/lastmile_qr_scan", "ios": "https://dc.lft.to/lastmile_qr_scan"}, "fusion_lon": 0.0, "lat": 38.917679166666666, "bike_id": "70d498b807da5299bf791020786bf2cb", "type": "electric_scooter", "is_reserved": 0, "lon": -77.035929}, {"fusion_lat": 0.0, "name": "f1a6c1329555a34ea6063a133d3fd201", "is_disabled": 0, "rental_uris": {"android": "https://dc.lft.to/lastmile_qr_scan", "ios": "https://dc.lft.to/lastmile_qr_scan"}, "fusion_lon": 0.0, "lat": 38.899514333333336, "bike_id": "f1a6c1329555a34ea6063a133d3fd201", "type": "electric_scooter", "is_reserved": 0, "lon": -77.05707333333334}, {"fusion_lat": 0.0, "name": "d039b870b899099785c9a194e8301fbb", "is_disabled": 0, "rental_uris": {"android": "https://dc.lft.to/lastmile_qr_scan", "ios": "https://dc.lft.to/lastmile_qr_scan"}, "fusion_lon": 0.0, "lat": 38.915624666666666, "bike_id": "d039b870b899099785c9a194e8301fbb", "type": "electric_scooter", "is_reserved": 0, "lon": -77.01061683333333}, {"fusion_lat": 0.0, "name": "820c1dc7e4440355d80f0a98e5218081", "is_disabled": 0, "rental_uris": {"android": "https://dc.lft.to/lastmile_qr_scan", "ios": "https://dc.lft.to/lastmile_qr_scan"}, "fusion_lon": 0.0, "lat": 38.92076866666667, "bike_id": "820c1dc7e4440355d80f0a98e5218081", "type": "electric_bike", "is_reserved": 0, "lon": -76.98952166666666}, {"fusion_lat": 0.0, "name": "c0a08fc708f3e4d53ae45168fe57b6e6", "is_disabled": 0, "rental_uris": {"android": "https://dc.lft.to/lastmile_qr_scan", "ios": "https://dc.lft.to/lastmile_qr_scan"}, "fusion_lon": 0.0, "lat": 38.9003065, "bike_id": "c0a08fc708f3e4d53ae45168fe57b6e6", "type": "electric_scooter", "is_reserved": 0, "lon": -77.01188216666667}, {"fusion_lat": 0.0, "name": "21c8e6f8c70dd9f0fe75ec428e062b9a", "is_disabled": 0, "rental_uris": {"android": "https://dc.lft.to/lastmile_qr_scan", "ios": "https://dc.lft.to/lastmile_qr_scan"}, "fusion_lon": 0.0, "lat": 38.8873115, "bike_id": "21c8e6f8c70dd9f0fe75ec428e062b9a", "type": "electric_scooter", "is_reserved": 0, "lon": -77.00330483333333}, {"fusion_lat": 0.0, "name": "72aaa9744da0e4181426584b590e67f3", "is_disabled": 0, "rental_uris": {"android": "https://dc.lft.to/lastmile_qr_scan", "ios": "https://dc.lft.to/lastmile_qr_scan"}, "fusion_lon": 0.0, "lat": 38.903812, "bike_id": "72aaa9744da0e4181426584b590e67f3", "type": "electric_scooter", "is_reserved": 0, "lon": -77.01645233333333}, {"fusion_lat": 0.0, "name": "bcc9556ea746c170dd2a9aee548ac40e", "is_disabled": 0, "rental_uris": {"android": "https://dc.lft.to/lastmile_qr_scan", "ios": "https://dc.lft.to/lastmile_qr_scan"}, "fusion_lon": 0.0, "lat": 38.94229833333333, "bike_id": "bcc9556ea746c170dd2a9aee548ac40e", "type": "electric_scooter", "is_reserved": 0, "lon": -77.0138905}, {"fusion_lat": 0.0, "name": "348418c27861cc43e677fe39d05995e0", "is_disabled": 0, "rental_uris": {"android": "https://dc.lft.to/lastmile_qr_scan", "ios": "https://dc.lft.to/lastmile_qr_scan"}, "fusion_lon": 0.0, "lat": 38.902955666666664, "bike_id": "348418c27861cc43e677fe39d05995e0", "type": "electric_scooter", "is_reserved": 0, "lon": -77.0394935}, {"fusion_lat": 0.0, "name": "29805c0dceeba861384825e41054338c", "is_disabled": 0, "rental_uris": {"android": "https://dc.lft.to/lastmile_qr_scan", "ios": "https://dc.lft.to/lastmile_qr_scan"}, "fusion_lon": 0.0, "lat": 38.899632, "bike_id": "29805c0dceeba861384825e41054338c", "type": "electric_scooter", "is_reserved": 0, "lon": -76.98712933333333}, {"fusion_lat": 0.0, "name": "150558848e404f4bcc5aa903f1c6bb3c", "is_disabled": 0, "rental_uris": {"android": "https://dc.lft.to/lastmile_qr_scan", "ios": "https://dc.lft.to/lastmile_qr_scan"}, "fusion_lon": 0.0, "lat": 38.8969905, "bike_id": "150558848e404f4bcc5aa903f1c6bb3c", "type": "electric_scooter", "is_reserved": 0, "lon": -77.02770883333334}, {"fusion_lat": 0.0, "name": "30e2b015ad65d6de7bcd776a071802cf", "is_disabled": 0, "rental_uris": {"android": "https://dc.lft.to/lastmile_qr_scan", "ios": "https://dc.lft.to/lastmile_qr_scan"}, "fusion_lon": 0.0, "lat": 38.8874325, "bike_id": "30e2b015ad65d6de7bcd776a071802cf", "type": "electric_scooter", "is_reserved": 0, "lon": -77.01787616666667}, {"fusion_lat": 0.0, "name": "1bac8bcbfed1d24c014e9db783508cce", "is_disabled": 0, "rental_uris": {"android": "https://dc.lft.to/lastmile_qr_scan", "ios": "https://dc.lft.to/lastmile_qr_scan"}, "fusion_lon": 0.0, "lat": 38.915854333333336, "bike_id": "1bac8bcbfed1d24c014e9db783508cce", "type": "electric_scooter", "is_reserved": 0, "lon": -76.98393933333334}, {"fusion_lat": 0.0, "name": "928cbe938bf8007520861eee830f2eb2", "is_disabled": 0, "rental_uris": {"android": "https://dc.lft.to/lastmile_qr_scan", "ios": "https://dc.lft.to/lastmile_qr_scan"}, "fusion_lon": 0.0, "lat": 38.903185666666666, "bike_id": "928cbe938bf8007520861eee830f2eb2", "type": "electric_scooter", "is_reserved": 0, "lon": -77.0059515}, {"fusion_lat": 0.0, "name": "bd1c6d417e59e2091f9f18c216db4c36", "is_disabled": 0, "rental_uris": {"android": "https://dc.lft.to/lastmile_qr_scan", "ios": "https://dc.lft.to/lastmile_qr_scan"}, "fusion_lon": 0.0, "lat": 38.8815875, "bike_id": "bd1c6d417e59e2091f9f18c216db4c36", "type": "electric_scooter", "is_reserved": 0, "lon": -77.02773233333333}, {"fusion_lat": 0.0, "name": "bf03fcebe9f8151f828d9fa1a3b55897", "is_disabled": 0, "rental_uris": {"android": "https://dc.lft.to/lastmile_qr_scan", "ios": "https://dc.lft.to/lastmile_qr_scan"}, "fusion_lon": 0.0, "lat": 38.92084883333333, "bike_id": "bf03fcebe9f8151f828d9fa1a3b55897", "type": "electric_scooter", "is_reserved": 0, "lon": -77.02524033333333}, {"fusion_lat": 0.0, "name": "0bcab21a7071e2aab9721621f321b4ae", "is_disabled": 0, "rental_uris": {"android": "https://dc.lft.to/lastmile_qr_scan", "ios": "https://dc.lft.to/lastmile_qr_scan"}, "fusion_lon": 0.0, "lat": 38.887268166666665, "bike_id": "0bcab21a7071e2aab9721621f321b4ae", "type": "electric_scooter", "is_reserved": 0, "lon": -76.98359583333334}, {"fusion_lat": 0.0, "name": "df197dcf7a9756c7151497777aa315e7", "is_disabled": 0, "rental_uris": {"android": "https://dc.lft.to/lastmile_qr_scan", "ios": "https://dc.lft.to/lastmile_qr_scan"}, "fusion_lon": 0.0, "lat": 38.919987, "bike_id": "df197dcf7a9756c7151497777aa315e7", "type": "electric_scooter", "is_reserved": 0, "lon": -77.032814}, {"fusion_lat": 0.0, "name": "7635191b5c7e2b4b290f57307b553776", "is_disabled": 0, "rental_uris": {"android": "https://dc.lft.to/lastmile_qr_scan", "ios": "https://dc.lft.to/lastmile_qr_scan"}, "fusion_lon": 0.0, "lat": 38.898283, "bike_id": "7635191b5c7e2b4b290f57307b553776", "type": "electric_scooter", "is_reserved": 0, "lon": -77.02518766666667}, {"fusion_lat": 0.0, "name": "c6c61e7a17699f3a077cd456fbeb0d8a", "is_disabled": 0, "rental_uris": {"android": "https://dc.lft.to/lastmile_qr_scan", "ios": "https://dc.lft.to/lastmile_qr_scan"}, "fusion_lon": 0.0, "lat": 38.9079435, "bike_id": "c6c61e7a17699f3a077cd456fbeb0d8a", "type": "electric_scooter", "is_reserved": 0, "lon": -77.01115166666666}, {"fusion_lat": 0.0, "name": "b3e9522ac1b0541820116e6d69027001", "is_disabled": 0, "rental_uris": {"android": "https://dc.lft.to/lastmile_qr_scan", "ios": "https://dc.lft.to/lastmile_qr_scan"}, "fusion_lon": 0.0, "lat": 38.965917, "bike_id": "b3e9522ac1b0541820116e6d69027001", "type": "electric_scooter", "is_reserved": 0, "lon": -77.01595866666666}, {"fusion_lat": 0.0, "name": "f101ab50dab68d96537a57c7397cee13", "is_disabled": 0, "rental_uris": {"android": "https://dc.lft.to/lastmile_qr_scan", "ios": "https://dc.lft.to/lastmile_qr_scan"}, "fusion_lon": 0.0, "lat": 38.9024455, "bike_id": "f101ab50dab68d96537a57c7397cee13", "type": "electric_scooter", "is_reserved": 0, "lon": -77.02600316666667}, {"fusion_lat": 0.0, "name": "5be7a2c1e3ab7960d47250301ae771c3", "is_disabled": 0, "rental_uris": {"android": "https://dc.lft.to/lastmile_qr_scan", "ios": "https://dc.lft.to/lastmile_qr_scan"}, "fusion_lon": 0.0, "lat": 38.89058283333333, "bike_id": "5be7a2c1e3ab7960d47250301ae771c3", "type": "electric_scooter", "is_reserved": 0, "lon": -77.02748783333334}, {"fusion_lat": 0.0, "name": "5e9e83861c81af86f687f7391912be49", "is_disabled": 0, "rental_uris": {"android": "https://dc.lft.to/lastmile_qr_scan", "ios": "https://dc.lft.to/lastmile_qr_scan"}, "fusion_lon": 0.0, "lat": 38.920907666666665, "bike_id": "5e9e83861c81af86f687f7391912be49", "type": "electric_scooter", "is_reserved": 0, "lon": -76.99516016666666}, {"fusion_lat": 0.0, "name": "e7beb79a798f75d0f9741d7af49598e7", "is_disabled": 0, "rental_uris": {"android": "https://dc.lft.to/lastmile_qr_scan", "ios": "https://dc.lft.to/lastmile_qr_scan"}, "fusion_lon": 0.0, "lat": 38.912876, "bike_id": "e7beb79a798f75d0f9741d7af49598e7", "type": "electric_scooter", "is_reserved": 0, "lon": -77.04522233333333}, {"fusion_lat": 0.0, "name": "12051984e659e528987129e2e4e90a2b", "is_disabled": 0, "rental_uris": {"android": "https://dc.lft.to/lastmile_qr_scan", "ios": "https://dc.lft.to/lastmile_qr_scan"}, "fusion_lon": 0.0, "lat": 38.93384966666667, "bike_id": "12051984e659e528987129e2e4e90a2b", "type": "electric_scooter", "is_reserved": 0, "lon": -77.03894516666666}, {"fusion_lat": 0.0, "name": "c69b37ab79177e7697a5d0e367a2bc02", "is_disabled": 0, "rental_uris": {"android": "https://dc.lft.to/lastmile_qr_scan", "ios": "https://dc.lft.to/lastmile_qr_scan"}, "fusion_lon": 0.0, "lat": 38.9262775, "bike_id": "c69b37ab79177e7697a5d0e367a2bc02", "type": "electric_scooter", "is_reserved": 0, "lon": -77.035064}, {"fusion_lat": 0.0, "name": "31554b9fec9ea02c8538be567e98f17a", "is_disabled": 0, "rental_uris": {"android": "https://dc.lft.to/lastmile_qr_scan", "ios": "https://dc.lft.to/lastmile_qr_scan"}, "fusion_lon": 0.0, "lat": 38.91002866666667, "bike_id": "31554b9fec9ea02c8538be567e98f17a", "type": "electric_scooter", "is_reserved": 0, "lon": -77.04912316666666}, {"fusion_lat": 0.0, "name": "cfc1a8ea639a57b902d2b927d862f742", "is_disabled": 0, "rental_uris": {"android": "https://dc.lft.to/lastmile_qr_scan", "ios": "https://dc.lft.to/lastmile_qr_scan"}, "fusion_lon": 0.0, "lat": 38.920885, "bike_id": "cfc1a8ea639a57b902d2b927d862f742", "type": "electric_scooter", "is_reserved": 0, "lon": -77.02415283333333}, {"fusion_lat": 0.0, "name": "28504dc1b143fc2ee3a9457772b9fa80", "is_disabled": 0, "rental_uris": {"android": "https://dc.lft.to/lastmile_qr_scan", "ios": "https://dc.lft.to/lastmile_qr_scan"}, "fusion_lon": 0.0, "lat": 38.90753816666667, "bike_id": "28504dc1b143fc2ee3a9457772b9fa80", "type": "electric_scooter", "is_reserved": 0, "lon": -77.03591483333334}, {"fusion_lat": 0.0, "name": "f3ef45eb155b6c273836de6ce7367073", "is_disabled": 0, "rental_uris": {"android": "https://dc.lft.to/lastmile_qr_scan", "ios": "https://dc.lft.to/lastmile_qr_scan"}, "fusion_lon": 0.0, "lat": 38.930639666666664, "bike_id": "f3ef45eb155b6c273836de6ce7367073", "type": "electric_scooter", "is_reserved": 0, "lon": -77.03214283333334}, {"fusion_lat": 0.0, "name": "101d1fdfa6bc07db9451550712883a0b", "is_disabled": 0, "rental_uris": {"android": "https://dc.lft.to/lastmile_qr_scan", "ios": "https://dc.lft.to/lastmile_qr_scan"}, "fusion_lon": 0.0, "lat": 38.91531616666666, "bike_id": "101d1fdfa6bc07db9451550712883a0b", "type": "electric_scooter", "is_reserved": 0, "lon": -77.07483666666667}, {"fusion_lat": 0.0, "name": "481135489f34a872f596ebe2781acd2e", "is_disabled": 0, "rental_uris": {"android": "https://dc.lft.to/lastmile_qr_scan", "ios": "https://dc.lft.to/lastmile_qr_scan"}, "fusion_lon": 0.0, "lat": 38.923476666666666, "bike_id": "481135489f34a872f596ebe2781acd2e", "type": "electric_scooter", "is_reserved": 0, "lon": -77.0415875}, {"fusion_lat": 0.0, "name": "bb0e40daf89ed18f4d2e1d2a261a362d", "is_disabled": 0, "rental_uris": {"android": "https://dc.lft.to/lastmile_qr_scan", "ios": "https://dc.lft.to/lastmile_qr_scan"}, "fusion_lon": 0.0, "lat": 38.919724333333335, "bike_id": "bb0e40daf89ed18f4d2e1d2a261a362d", "type": "electric_scooter", "is_reserved": 0, "lon": -77.02397}, {"fusion_lat": 0.0, "name": "19c5d7574302f067f754b29ac05048b9", "is_disabled": 0, "rental_uris": {"android": "https://dc.lft.to/lastmile_qr_scan", "ios": "https://dc.lft.to/lastmile_qr_scan"}, "fusion_lon": 0.0, "lat": 38.89349133333333, "bike_id": "19c5d7574302f067f754b29ac05048b9", "type": "electric_scooter", "is_reserved": 0, "lon": -77.0397145}, {"fusion_lat": 0.0, "name": "b3628654de5a9eb21265c9cf504bd39f", "is_disabled": 0, "rental_uris": {"android": "https://dc.lft.to/lastmile_qr_scan", "ios": "https://dc.lft.to/lastmile_qr_scan"}, "fusion_lon": 0.0, "lat": 38.907394333333336, "bike_id": "b3628654de5a9eb21265c9cf504bd39f", "type": "electric_scooter", "is_reserved": 0, "lon": -77.04329916666667}, {"fusion_lat": 0.0, "name": "994076371a2529e7fbfc8f9121b8ba63", "is_disabled": 0, "rental_uris": {"android": "https://dc.lft.to/lastmile_qr_scan", "ios": "https://dc.lft.to/lastmile_qr_scan"}, "fusion_lon": 0.0, "lat": 38.90731183333333, "bike_id": "994076371a2529e7fbfc8f9121b8ba63", "type": "electric_scooter", "is_reserved": 0, "lon": -77.04343583333333}, {"fusion_lat": 0.0, "name": "a8aba379bed83505d6756dc288fc4a70", "is_disabled": 0, "rental_uris": {"android": "https://dc.lft.to/lastmile_qr_scan", "ios": "https://dc.lft.to/lastmile_qr_scan"}, "fusion_lon": 0.0, "lat": 38.930071833333336, "bike_id": "a8aba379bed83505d6756dc288fc4a70", "type": "electric_scooter", "is_reserved": 0, "lon": -77.0552805}, {"fusion_lat": 0.0, "name": "96fdf7365ab7764b7b6714c9cce1d0b3", "is_disabled": 0, "rental_uris": {"android": "https://dc.lft.to/lastmile_qr_scan", "ios": "https://dc.lft.to/lastmile_qr_scan"}, "fusion_lon": 0.0, "lat": 38.90126083333333, "bike_id": "96fdf7365ab7764b7b6714c9cce1d0b3", "type": "electric_scooter", "is_reserved": 0, "lon": -77.00212816666667}, {"fusion_lat": 0.0, "name": "36c91ccc696e6730881192f1c7066c6b", "is_disabled": 0, "rental_uris": {"android": "https://dc.lft.to/lastmile_qr_scan", "ios": "https://dc.lft.to/lastmile_qr_scan"}, "fusion_lon": 0.0, "lat": 38.93013166666667, "bike_id": "36c91ccc696e6730881192f1c7066c6b", "type": "electric_scooter", "is_reserved": 0, "lon": -77.0327975}, {"fusion_lat": 0.0, "name": "8b219992d09da20fce25adbbb72f27cd", "is_disabled": 0, "rental_uris": {"android": "https://dc.lft.to/lastmile_qr_scan", "ios": "https://dc.lft.to/lastmile_qr_scan"}, "fusion_lon": 0.0, "lat": 38.909879, "bike_id": "8b219992d09da20fce25adbbb72f27cd", "type": "electric_scooter", "is_reserved": 0, "lon": -77.04675166666667}, {"fusion_lat": 0.0, "name": "9718fba6148d03d2163936f0adc43af5", "is_disabled": 0, "rental_uris": {"android": "https://dc.lft.to/lastmile_qr_scan", "ios": "https://dc.lft.to/lastmile_qr_scan"}, "fusion_lon": 0.0, "lat": 38.90549266666667, "bike_id": "9718fba6148d03d2163936f0adc43af5", "type": "electric_scooter", "is_reserved": 0, "lon": -77.04654466666666}, {"fusion_lat": 0.0, "name": "a41ed796ab7c14414af8ab670a4cada5", "is_disabled": 0, "rental_uris": {"android": "https://dc.lft.to/lastmile_qr_scan", "ios": "https://dc.lft.to/lastmile_qr_scan"}, "fusion_lon": 0.0, "lat": 38.9353815, "bike_id": "a41ed796ab7c14414af8ab670a4cada5", "type": "electric_scooter", "is_reserved": 0, "lon": -77.05746983333333}, {"fusion_lat": 0.0, "name": "e2f2a3fdd38e46115bbf33a65a81776e", "is_disabled": 0, "rental_uris": {"android": "https://dc.lft.to/lastmile_qr_scan", "ios": "https://dc.lft.to/lastmile_qr_scan"}, "fusion_lon": 0.0, "lat": 38.938632166666665, "bike_id": "e2f2a3fdd38e46115bbf33a65a81776e", "type": "electric_scooter", "is_reserved": 0, "lon": -77.034355}, {"fusion_lat": 0.0, "name": "cc842ef94eca0458e2e6f03c39c73286", "is_disabled": 0, "rental_uris": {"android": "https://dc.lft.to/lastmile_qr_scan", "ios": "https://dc.lft.to/lastmile_qr_scan"}, "fusion_lon": 0.0, "lat": 38.904749, "bike_id": "cc842ef94eca0458e2e6f03c39c73286", "type": "electric_scooter", "is_reserved": 0, "lon": -77.04865633333333}, {"fusion_lat": 0.0, "name": "1117ea28899643cc78e66452c5c2c084", "is_disabled": 0, "rental_uris": {"android": "https://dc.lft.to/lastmile_qr_scan", "ios": "https://dc.lft.to/lastmile_qr_scan"}, "fusion_lon": 0.0, "lat": 38.91692883333333, "bike_id": "1117ea28899643cc78e66452c5c2c084", "type": "electric_scooter", "is_reserved": 0, "lon": -77.03389816666666}, {"fusion_lat": 0.0, "name": "dc8f1475c81fef297e6fe8c65abc1283", "is_disabled": 0, "rental_uris": {"android": "https://dc.lft.to/lastmile_qr_scan", "ios": "https://dc.lft.to/lastmile_qr_scan"}, "fusion_lon": 0.0, "lat": 38.911372, "bike_id": "dc8f1475c81fef297e6fe8c65abc1283", "type": "electric_scooter", "is_reserved": 0, "lon": -77.03209616666666}, {"fusion_lat": 0.0, "name": "891dfd9cd733aa888f7113a5975faa5a", "is_disabled": 0, "rental_uris": {"android": "https://dc.lft.to/lastmile_qr_scan", "ios": "https://dc.lft.to/lastmile_qr_scan"}, "fusion_lon": 0.0, "lat": 38.89899666666667, "bike_id": "891dfd9cd733aa888f7113a5975faa5a", "type": "electric_scooter", "is_reserved": 0, "lon": -76.93350483333333}, {"fusion_lat": 0.0, "name": "beac5a0a2387e8175c58d0ab6b0f436b", "is_disabled": 0, "rental_uris": {"android": "https://dc.lft.to/lastmile_qr_scan", "ios": "https://dc.lft.to/lastmile_qr_scan"}, "fusion_lon": 0.0, "lat": 38.894979666666664, "bike_id": "beac5a0a2387e8175c58d0ab6b0f436b", "type": "electric_scooter", "is_reserved": 0, "lon": -77.00214733333334}, {"fusion_lat": 0.0, "name": "74f82383bc99a4d20ccc782a9378d0a4", "is_disabled": 0, "rental_uris": {"android": "https://dc.lft.to/lastmile_qr_scan", "ios": "https://dc.lft.to/lastmile_qr_scan"}, "fusion_lon": 0.0, "lat": 38.912119833333335, "bike_id": "74f82383bc99a4d20ccc782a9378d0a4", "type": "electric_scooter", "is_reserved": 0, "lon": -77.01982833333334}, {"fusion_lat": 0.0, "name": "7087838b8bd68f322d91130aa5cec9e4", "is_disabled": 0, "rental_uris": {"android": "https://dc.lft.to/lastmile_qr_scan", "ios": "https://dc.lft.to/lastmile_qr_scan"}, "fusion_lon": 0.0, "lat": 38.967521833333336, "bike_id": "7087838b8bd68f322d91130aa5cec9e4", "type": "electric_bike", "is_reserved": 0, "lon": -76.98227516666667}, {"fusion_lat": 0.0, "name": "a62fa0f36bef9471e2758569c5c1336b", "is_disabled": 0, "rental_uris": {"android": "https://dc.lft.to/lastmile_qr_scan", "ios": "https://dc.lft.to/lastmile_qr_scan"}, "fusion_lon": 0.0, "lat": 38.90960783333333, "bike_id": "a62fa0f36bef9471e2758569c5c1336b", "type": "electric_scooter", "is_reserved": 0, "lon": -77.0395085}, {"fusion_lat": 0.0, "name": "e5e532234b7b56bf305c031e9e9ef4d4", "is_disabled": 0, "rental_uris": {"android": "https://dc.lft.to/lastmile_qr_scan", "ios": "https://dc.lft.to/lastmile_qr_scan"}, "fusion_lon": 0.0, "lat": 38.8560805, "bike_id": "e5e532234b7b56bf305c031e9e9ef4d4", "type": "electric_bike", "is_reserved": 0, "lon": -77.10809883333333}, {"fusion_lat": 0.0, "name": "7e4b9b53ea7c400419f23ee580f4a777", "is_disabled": 0, "rental_uris": {"android": "https://dc.lft.to/lastmile_qr_scan", "ios": "https://dc.lft.to/lastmile_qr_scan"}, "fusion_lon": 0.0, "lat": 38.914694833333336, "bike_id": "7e4b9b53ea7c400419f23ee580f4a777", "type": "electric_scooter", "is_reserved": 0, "lon": -77.015579}, {"fusion_lat": 0.0, "name": "f235128bb4194299ff75d1da0192e935", "is_disabled": 0, "rental_uris": {"android": "https://dc.lft.to/lastmile_qr_scan", "ios": "https://dc.lft.to/lastmile_qr_scan"}, "fusion_lon": 0.0, "lat": 38.877664333333335, "bike_id": "f235128bb4194299ff75d1da0192e935", "type": "electric_scooter", "is_reserved": 0, "lon": -77.0034995}, {"fusion_lat": 0.0, "name": "e5b13447b002686e79d10c81a9b8ff2f", "is_disabled": 0, "rental_uris": {"android": "https://dc.lft.to/lastmile_qr_scan", "ios": "https://dc.lft.to/lastmile_qr_scan"}, "fusion_lon": 0.0, "lat": 38.91227716666667, "bike_id": "e5b13447b002686e79d10c81a9b8ff2f", "type": "electric_scooter", "is_reserved": 0, "lon": -77.04784283333333}, {"fusion_lat": 0.0, "name": "b9d4fd85483698d31e2eee4ebfbd1ead", "is_disabled": 0, "rental_uris": {"android": "https://dc.lft.to/lastmile_qr_scan", "ios": "https://dc.lft.to/lastmile_qr_scan"}, "fusion_lon": 0.0, "lat": 38.90514483333333, "bike_id": "b9d4fd85483698d31e2eee4ebfbd1ead", "type": "electric_scooter", "is_reserved": 0, "lon": -77.017193}, {"fusion_lat": 0.0, "name": "5275dfdd5cffaa24a09d6da64c091ac0", "is_disabled": 0, "rental_uris": {"android": "https://dc.lft.to/lastmile_qr_scan", "ios": "https://dc.lft.to/lastmile_qr_scan"}, "fusion_lon": 0.0, "lat": 38.899199833333334, "bike_id": "5275dfdd5cffaa24a09d6da64c091ac0", "type": "electric_scooter", "is_reserved": 0, "lon": -77.05138883333333},