{"data": {"bikes": [{"is_disabled": 0, "fusion_lon": 0.0, "fusion_lat": 0.0, "lat": 38.9187795, "type": "electric_scooter", "lon": -77.04173033333333, "bike_id": "b8c464b8591786330fb0642bbdf8239e", "rental_uris": {"android": "https://dc.lft.to/lastmile_qr_scan", "ios": "https://dc.lft.to/lastmile_qr_scan"}, "name": "b8c464b8591786330fb0642bbdf8239e", "is_reserved": 0}, {"is_disabled": 0, "fusion_lon": 0.0, "fusion_lat": 0.0, "lat": 38.907869166666664, "type": "electric_scooter", "lon": -77.04340016666667, "bike_id": "a28d5c42dbbbb08869ff2aced9e29613", "rental_uris": {"android": "https://dc.lft.to/lastmile_qr_scan", "ios": "https://dc.lft.to/lastmile_qr_scan"}, "name": "a28d5c42dbbbb08869ff2aced9e29613", "is_reserved": 0}, {"is_disabled": 0, "fusion_lon": 0.0, "fusion_lat": 0.0, "lat": 38.9094185, "type": "electric_scooter", "lon": -77.0152885, "bike_id": "2a728f5d26cd0cd118696f2d7f1a1ab8", "rental_uris": {"android": "https://dc.lft.to/lastmile_qr_scan", "ios": "https://dc.lft.to/lastmile_qr_scan"}, "name": "2a728f5d26cd0cd118696f2d7f1a1ab8", "is_reserved": 0}, {"is_disabled": 0, "fusion_lon": 0.0, "fusion_lat": 0.0, "lat": 38.9225845, "type": "electric_scooter", "lon": -77.03522883333333, "bike_id": "64bba21b6f787d853d2e5c01502106cd", "rental_uris": {"android": "https://dc.lft.to/lastmile_qr_scan", "ios": "https://dc.lft.to/lastmile_qr_scan"}, "name": "64bba21b6f787d853d2e5c01502106cd", "is_reserved": 0}, {"is_disabled": 0, "fusion_lon": 0.0, "fusion_lat": 0.0, "lat": 38.8864075, "type": "electric_scooter", "lon": -77.02251983333333, "bike_id": "cf4c1fb5fd21afd86fc37d7dc18226e8", "rental_uris": {"android": "https://dc.lft.to/lastmile_qr_scan", "ios": "https://dc.lft.to/lastmile_qr_scan"}, "name": "cf4c1fb5fd21afd86fc37d7dc18226e8", "is_reserved": 0}, {"is_disabled": 0, "fusion_lon": 0.0, "fusion_lat": 0.0, "lat": 38.89217766666667, "type": "electric_scooter", "lon": -77.01558633333333, "bike_id": "204d64ec17bd949ca79b2ac73d36e0dc", "rental_uris": {"android": "https://dc.lft.to/lastmile_qr_scan", "ios": "https://dc.lft.to/lastmile_qr_scan"}, "name": "204d64ec17bd949ca79b2ac73d36e0dc", "is_reserved": 0}, {"is_disabled": 0, "fusion_lon": 0.0, "fusion_lat": 0.0, "lat": 38.89262883333333, "type": "electric_scooter", "lon": -76.941539, "bike_id": "eae9cfb1047d7a957e53101f0a8980f1", "rental_uris": {"android": "https://dc.lft.to/lastmile_qr_scan", "ios": "https://dc.lft.to/lastmile_qr_scan"}, "name": "eae9cfb1047d7a957e53101f0a8980f1", "is_reserved": 0}, {"is_disabled": 0, "fusion_lon": 0.0, "fusion_lat": 0.0, "lat": 38.90956033333333, "type": "electric_scooter", "lon": -77.02171183333333, "bike_id": "0fd515a1e4a3df64ea336c4c46b13723", "rental_uris": {"android": "https://dc.lft.to/lastmile_qr_scan", "ios": "https://dc.lft.to/lastmile_qr_scan"}, "name": "0fd515a1e4a3df64ea336c4c46b13723", "is_reserved": 0}, {"is_disabled": 0, "fusion_lon": 0.0, "fusion_lat": 0.0, "lat": 38.92439916666667, "type": "electric_scooter", "lon": -77.02611166666667, "bike_id": "3972a184712c4f7c55721dff76e01399", "rental_uris": {"android": "https://dc.lft.to/lastmile_qr_scan", "ios": "https://dc.lft.to/lastmile_qr_scan"}, "name": "3972a184712c4f7c55721dff76e01399", "is_reserved": 0}, {"is_disabled": 0, "fusion_lon": 0.0, "fusion_lat": 0.0, "lat": 38.89725883333333, "type": "electric_scooter", "lon": -77.04716916666666, "bike_id": "ec6bd726c05c0f9d9b8803c7f55ca31b", "rental_uris": {"android": "https://dc.lft.to/lastmile_qr_scan", "ios": "https://dc.lft.to/lastmile_qr_scan"}, "name": "ec6bd726c05c0f9d9b8803c7f55ca31b", "is_reserved": 0}, {"is_disabled": 0, "fusion_lon": 0.0, "fusion_lat": 0.0, "lat": 38.92103133333333, "type": "electric_scooter", "lon": -77.043892, "bike_id": "3409b1149ec9cc69f11c57986d973c75", "rental_uris": {"android": "https://dc.lft.to/lastmile_qr_scan", "ios": "https://dc.lft.to/lastmile_qr_scan"}, "name": "3409b1149ec9cc69f11c57986d973c75", "is_reserved": 0}, {"is_disabled": 0, "fusion_lon": 0.0, "fusion_lat": 0.0, "lat": 38.906481166666666, "type": "electric_scooter", "lon": -77.01188283333333, "bike_id": "fed934ede10ed0c26b6b998d9f36bf02", "rental_uris": {"android": "https://dc.lft.to/lastmile_qr_scan", "ios": "https://dc.lft.to/lastmile_qr_scan"}, "name": "fed934ede10ed0c26b6b998d9f36bf02", "is_reserved": 0}, {"is_disabled": 0, "fusion_lon": 0.0, "fusion_lat": 0.0, "lat": 38.846174500000004, "type": "electric_scooter", "lon": -76.99630483333334, "bike_id": "89e5ad58764441f73ddc38b65a322201", "rental_uris": {"android": "https://dc.lft.to/lastmile_qr_scan", "ios": "https://dc.lft.to/lastmile_qr_scan"}, "name": "89e5ad58764441f73ddc38b65a322201", "is_reserved": 0}, {"is_disabled": 0, "fusion_lon": 0.0, "fusion_lat": 0.0, "lat": 38.8953075, "type": "electric_scooter", "lon": -77.03210466666667, "bike_id": "b28af82a943e8f9fc977abdf3251da45", "rental_uris": {"android": "https://dc.lft.to/lastmile_qr_scan", "ios": "https://dc.lft.to/lastmile_qr_scan"}, "name": "b28af82a943e8f9fc977abdf3251da45", "is_reserved": 0}, {"is_disabled": 0, "fusion_lon": 0.0, "fusion_lat": 0.0, "lat": 38.96731466666667, "type": "electric_scooter", "lon": -77.02760733333334, "bike_id": "0be3c9e097c4ec136660b7865d27511e", "rental_uris": {"android": "https://dc.lft.to/lastmile_qr_scan", "ios": "https://dc.lft.to/lastmile_qr_scan"}, "name": "0be3c9e097c4ec136660b7865d27511e", "is_reserved": 0}, {"is_disabled": 0, "fusion_lon": 0.0, "fusion_lat": 0.0, "lat": 38.923772166666666, "type": "electric_scooter", "lon": -77.029013, "bike_id": "d17f490c5a3f3a4d4896cbc4cefa68de", "rental_uris": {"android": "https://dc.lft.to/lastmile_qr_scan", "ios": "https://dc.lft.to/lastmile_qr_scan"}, "name": "d17f490c5a3f3a4d4896cbc4cefa68de", "is_reserved": 0}, {"is_disabled": 0, "fusion_lon": 0.0, "fusion_lat": 0.0, "lat": 38.92090316666667, "type": "electric_scooter", "lon": -77.034816, "bike_id": "d8df97976638109a0760d1acb875ee65", "rental_uris": {"android": "https://dc.lft.to/lastmile_qr_scan", "ios": "https://dc.lft.to/lastmile_qr_scan"}, "name": "d8df97976638109a0760d1acb875ee65", "is_reserved": 0}, {"is_disabled": 0, "fusion_lon": 0.0, "fusion_lat": 0.0, "lat": 38.93092266666667, "type": "electric_scooter", "lon": -77.03112616666667, "bike_id": "da2176d98db2669958a596da97813951", "rental_uris": {"android": "https://dc.lft.to/lastmile_qr_scan", "ios": "https://dc.lft.to/lastmile_qr_scan"}, "name": "da2176d98db2669958a596da97813951", "is_reserved": 0}, {"is_disabled": 0, "fusion_lon": 0.0, "fusion_lat": 0.0, "lat": 38.94575316666667, "type": "electric_bike", "lon": -76.98775833333333, "bike_id": "3eb6fd9fcdaa8a116eec74c75bd7ca8b", "rental_uris": {"android": "https://dc.lft.to/lastmile_qr_scan", "ios": "https://dc.lft.to/lastmile_qr_scan"}, "name": "3eb6fd9fcdaa8a116eec74c75bd7ca8b", "is_reserved": 0}, {"is_disabled": 0, "fusion_lon": 0.0, "fusion_lat": 0.0, "lat": 38.9475315, "type": "electric_scooter", "lon": -77.017942, "bike_id": "d57346eff8786bc0bb9a2b81bc4fee93", "rental_uris": {"android": "https://dc.lft.to/lastmile_qr_scan", "ios": "https://dc.lft.to/lastmile_qr_scan"}, "name": "d57346eff8786bc0bb9a2b81bc4fee93", "is_reserved": 0}, {"is_disabled": 0, "fusion_lon": 0.0, "fusion_lat": 0.0, "lat": 38.910471, "type": "electric_scooter", "lon": -77.06451266666667, "bike_id": "b79c0e954a2af592af22f722799e3ef6", "rental_uris": {"android": "https://dc.lft.to/lastmile_qr_scan", "ios": "https://dc.lft.to/lastmile_qr_scan"}, "name": "b79c0e954a2af592af22f722799e3ef6", "is_reserved": 0}, {"is_disabled": 0, "fusion_lon": 0.0, "fusion_lat": 0.0, "lat": 38.874011833333334, "type": "electric_scooter", "lon": -77.00207866666666, "bike_id": "7f17dc6df177a5792939e483797274cc", "rental_uris": {"android": "https://dc.lft.to/lastmile_qr_scan", "ios": "https://dc.lft.to/lastmile_qr_scan"}, "name": "7f17dc6df177a5792939e483797274cc", "is_reserved": 0}, {"is_disabled": 0, "fusion_lon": 0.0, "fusion_lat": 0.0, "lat": 38.907885666666665, "type": "electric_scooter", "lon": -77.00149383333333, "bike_id": "f3b27ea13b42bb8e0c2a96dd3e1f0cf0", "rental_uris": {"android": "https://dc.lft.to/lastmile_qr_scan", "ios": "https://dc.lft.to/lastmile_qr_scan"}, "name": "f3b27ea13b42bb8e0c2a96dd3e1f0cf0", "is_reserved": 0}, {"is_disabled": 0, "fusion_lon": 0.0, "fusion_lat": 0.0, "lat": 38.90940033333333, "type": "electric_scooter", "lon": -77.03201166666666, "bike_id": "ccfadffac89283a39a37ca9121859073", "rental_uris": {"android": "https://dc.lft.to/lastmile_qr_scan", "ios": "https://dc.lft.to/lastmile_qr_scan"}, "name": "ccfadffac89283a39a37ca9121859073", "is_reserved": 0}, {"is_disabled": 0, "fusion_lon": 0.0, "fusion_lat": 0.0, "lat": 38.90416066666667, "type": "electric_scooter", "lon": -77.02879533333333, "bike_id": "3453ee789de0b80debb817fade83c6f0", "rental_uris": {"android": "https://dc.lft.to/lastmile_qr_scan", "ios": "https://dc.lft.to/lastmile_qr_scan"}, "name": "3453ee789de0b80debb817fade83c6f0", "is_reserved": 0}, {"is_disabled": 0, "fusion_lon": 0.0, "fusion_lat": 0.0, "lat": 38.936408, "type": "electric_bike", "lon": -76.954514, "bike_id": "a35f0a41e5273ecdefd56c0c4bf4a692", "rental_uris": {"android": "https://dc.lft.to/lastmile_qr_scan", "ios": "https://dc.lft.to/lastmile_qr_scan"}, "name": "a35f0a41e5273ecdefd56c0c4bf4a692", "is_reserved": 0}, {"is_disabled": 0, "fusion_lon": 0.0, "fusion_lat": 0.0, "lat": 38.904342, "type": "electric_scooter", "lon": -77.0347005, "bike_id": "81bf2b9e2e0d8be815f934c8a76de151", "rental_uris": {"android": "https://dc.lft.to/lastmile_qr_scan", "ios": "https://dc.lft.to/lastmile_qr_scan"}, "name": "81bf2b9e2e0d8be815f934c8a76de151", "is_reserved": 0}, {"is_disabled": 0, "fusion_lon": 0.0, "fusion_lat": 0.0, "lat": 38.92351816666667, "type": "electric_scooter", "lon": -77.03235416666666, "bike_id": "e132fd1bc3803a9845160ed5c22967a6", "rental_uris": {"android": "https://dc.lft.to/lastmile_qr_scan", "ios": "https://dc.lft.to/lastmile_qr_scan"}, "name": "e132fd1bc3803a9845160ed5c22967a6", "is_reserved": 0}, {"is_disabled": 0, "fusion_lon": 0.0, "fusion_lat": 0.0, "lat": 38.90480816666667, "type": "electric_scooter", "lon": -77.035827, "bike_id": "d6b38851a9f9c03a8a1c34891f9d6cdc", "rental_uris": {"android": "https://dc.lft.to/lastmile_qr_scan", "ios": "https://dc.lft.to/lastmile_qr_scan"}, "name": "d6b38851a9f9c03a8a1c34891f9d6cdc", "is_reserved": 0}, {"is_disabled": 0, "fusion_lon": 0.0, "fusion_lat": 0.0, "lat": 38.911007166666664, "type": "electric_scooter", "lon": -77.02190483333334, "bike_id": "df3b1926d38bd64e263f076df9d2ab67", "rental_uris": {"android": "https://dc.lft.to/lastmile_qr_scan", "ios": "https://dc.lft.to/lastmile_qr_scan"}, "name": "df3b1926d38bd64e263f076df9d2ab67", "is_reserved": 0}, {"is_disabled": 0, "fusion_lon": 0.0, "fusion_lat": 0.0, "lat": 38.9257075, "type": "electric_scooter", "lon": -76.99492816666667, "bike_id": "eafbfd78d46b82924bbe781162e7f7d8", "rental_uris": {"android": "https://dc.lft.to/lastmile_qr_scan", "ios": "https://dc.lft.to/lastmile_qr_scan"}, "name": "eafbfd78d46b82924bbe781162e7f7d8", "is_reserved": 0}, {"is_disabled": 0, "fusion_lon": 0.0, "fusion_lat": 0.0, "lat": 38.89566666666666, "type": "electric_bike", "lon": -77.12736116666666, "bike_id": "09d62199816c0946509e9472cffa0fd0", "rental_uris": {"android": "https://dc.lft.to/lastmile_qr_scan", "ios": "https://dc.lft.to/lastmile_qr_scan"}, "name": "09d62199816c0946509e9472cffa0fd0", "is_reserved": 0}, {"is_disabled": 0, "fusion_lon": 0.0, "fusion_lat": 0.0, "lat": 38.90790233333333, "type": "electric_scooter", "lon": -77.04984716666667, "bike_id": "930621cba7db38a77bb236550bbfe7a8", "rental_uris": {"android": "https://dc.lft.to/lastmile_qr_scan", "ios": "https://dc.lft.to/lastmile_qr_scan"}, "name": "930621cba7db38a77bb236550bbfe7a8", "is_reserved": 0}, {"is_disabled": 0, "fusion_lon": 0.0, "fusion_lat": 0.0, "lat": 38.92309433333333, "type": "electric_scooter", "lon": -77.0420645, "bike_id": "f0bfb77d57b9858cd4bafd9d1d09c7c4", "rental_uris": {"android": "https://dc.lft.to/lastmile_qr_scan", "ios": "https://dc.lft.to/lastmile_qr_scan"}, "name": "f0bfb77d57b9858cd4bafd9d1d09c7c4", "is_reserved": 0}, {"is_disabled": 0, "fusion_lon": 0.0, "fusion_lat": 0.0, "lat": 38.919976166666665, "type": "electric_scooter", "lon": -77.03278433333334, "bike_id": "cdaf77a782929a9635de837022726d73", "rental_uris": {"android": "https://dc.lft.to/lastmile_qr_scan", "ios": "https://dc.lft.to/lastmile_qr_scan"}, "name": "cdaf77a782929a9635de837022726d73", "is_reserved": 0}, {"is_disabled": 0, "fusion_lon": 0.0, "fusion_lat": 0.0, "lat": 38.89638216666667, "type": "electric_scooter", "lon": -77.01197683333334, "bike_id": "561b9ad99f5249aded84612e15d2b3ad", "rental_uris": {"android": "https://dc.lft.to/lastmile_qr_scan", "ios": "https://dc.lft.to/lastmile_qr_scan"}, "name": "561b9ad99f5249aded84612e15d2b3ad", "is_reserved": 0}, {"is_disabled": 0, "fusion_lon": 0.0, "fusion_lat": 0.0, "lat": 38.9199865, "type": "electric_scooter", "lon": -77.0254175, "bike_id": "d00652f463a54ab6eefcfc87d7e4532d", "rental_uris": {"android": "https://dc.lft.to/lastmile_qr_scan", "ios": "https://dc.lft.to/lastmile_qr_scan"}, "name": "d00652f463a54ab6eefcfc87d7e4532d", "is_reserved": 0}, {"is_disabled": 0, "fusion_lon": 0.0, "fusion_lat": 0.0, "lat": 38.9056025, "type": "electric_scooter", "lon": -77.03641933333333, "bike_id": "c0bc26aa272f708f9b0d58f493cfb45c", "rental_uris": {"android": "https://dc.lft.to/lastmile_qr_scan", "ios": "https://dc.lft.to/lastmile_qr_scan"}, "name": "c0bc26aa272f708f9b0d58f493cfb45c", "is_reserved": 0}, {"is_disabled": 0, "fusion_lon": 0.0, "fusion_lat": 0.0, "lat": 38.89236233333333, "type": "electric_scooter", "lon": -77.02589, "bike_id": "71420f67a6cd2a4298cc90720ac00cf6", "rental_uris": {"android": "https://dc.lft.to/lastmile_qr_scan", "ios": "https://dc.lft.to/lastmile_qr_scan"}, "name": "71420f67a6cd2a4298cc90720ac00cf6", "is_reserved": 0}, {"is_disabled": 0, "fusion_lon": 0.0, "fusion_lat": 0.0, "lat": 38.922628333333336, "type": "electric_scooter", "lon": -77.04124516666667, "bike_id": "2f2b88c666b8d21ff0ce341420e5eca1", "rental_uris": {"android": "https://dc.lft.to/lastmile_qr_scan", "ios": "https://dc.lft.to/lastmile_qr_scan"}, "name": "2f2b88c666b8d21ff0ce341420e5eca1", "is_reserved": 0}, {"is_disabled": 0, "fusion_lon": 0.0, "fusion_lat": 0.0, "lat": 38.937795333333334, "type": "electric_scooter", "lon": -77.01883816666667, "bike_id": "74e87369e80781f0be1a33b6f2f1ad84", "rental_uris": {"android": "https://dc.lft.to/lastmile_qr_scan", "ios": "https://dc.lft.to/lastmile_qr_scan"}, "name": "74e87369e80781f0be1a33b6f2f1ad84", "is_reserved": 0}, {"is_disabled": 0, "fusion_lon": 0.0, "fusion_lat": 0.0, "lat": 38.92221583333333, "type": "electric_scooter", "lon": -77.03292716666667, "bike_id": "ba35e96f283e18c7e19067505fac98f6", "rental_uris": {"android": "https://dc.lft.to/lastmile_qr_scan", "ios": "https://dc.lft.to/lastmile_qr_scan"}, "name": "ba35e96f283e18c7e19067505fac98f6", "is_reserved": 0}, {"is_disabled": 0, "fusion_lon": 0.0, "fusion_lat": 0.0, "lat": 38.88740266666667, "type": "electric_scooter", "lon": -77.015394, "bike_id": "3a77ec5646ecca06fb73fa3bd1c9946b", "rental_uris": {"android": "https://dc.lft.to/lastmile_qr_scan", "ios": "https://dc.lft.to/lastmile_qr_scan"}, "name": "3a77ec5646ecca06fb73fa3bd1c9946b", "is_reserved": 0}, {"is_disabled": 0, "fusion_lon": 0.0, "fusion_lat": 0.0, "lat": 38.90700483333333, "type": "electric_scooter", "lon": -76.98691383333333, "bike_id": "f21dd34204b3ef0c2fc3d20d0fb36923", "rental_uris": {"android": "https://dc.lft.to/lastmile_qr_scan", "ios": "https://dc.lft.to/lastmile_qr_scan"}, "name": "f21dd34204b3ef0c2fc3d20d0fb36923", "is_reserved": 0}, {"is_disabled": 0, "fusion_lon": 0.0, "fusion_lat": 0.0, "lat": 38.928643, "type": "electric_scooter", "lon": -77.01403583333334, "bike_id": "9f8fa5ad1846766d600aaba854aaeadb", "rental_uris": {"android": "https://dc.lft.to/lastmile_qr_scan", "ios": "https://dc.lft.to/lastmile_qr_scan"}, "name": "9f8fa5ad1846766d600aaba854aaeadb", "is_reserved": 0}, {"is_disabled": 0, "fusion_lon": 0.0, "fusion_lat": 0.0, "lat": 38.925337999999996, "type": "electric_scooter", "lon": -77.07658266666667, "bike_id": "0d24cd09330b7bb2745fdfef5dbb9859", "rental_uris": {"android": "https://dc.lft.to/lastmile_qr_scan", "ios": "https://dc.lft.to/lastmile_qr_scan"}, "name": "0d24cd09330b7bb2745fdfef5dbb9859", "is_reserved": 0}, {"is_disabled": 0, "fusion_lon": 0.0, "fusion_lat": 0.0, "lat": 38.9043345, "type": "electric_scooter", "lon": -77.03435066666667, "bike_id": "ee1bff649728388115856d0efeea21ab", "rental_uris": {"android": "https://dc.lft.to/lastmile_qr_scan", "ios": "https://dc.lft.to/lastmile_qr_scan"}, "name": "ee1bff649728388115856d0efeea21ab", "is_reserved": 0}, {"is_disabled": 0, "fusion_lon": 0.0, "fusion_lat": 0.0, "lat": 38.894682333333336, "type": "electric_scooter", "lon": -76.9941645, "bike_id": "b22d27e8c40fd13dc8f4922295dbddf9", "rental_uris": {"android": "https://dc.lft.to/lastmile_qr_scan", "ios": "https://dc.lft.to/lastmile_qr_scan"}, "name": "b22d27e8c40fd13dc8f4922295dbddf9", "is_reserved": 0}, {"is_disabled": 0, "fusion_lon": 0.0, "fusion_lat": 0.0, "lat": 38.899530666666664, "type": "electric_scooter", "lon": -77.04789833333334, "bike_id": "ced5f3734256b6e0cdc88f0ce64cc294", "rental_uris": {"android": "https://dc.lft.to/lastmile_qr_scan", "ios": "https://dc.lft.to/lastmile_qr_scan"}, "name": "ced5f3734256b6e0cdc88f0ce64cc294", "is_reserved": 0}, {"is_disabled": 0, "fusion_lon": 0.0, "fusion_lat": 0.0, "lat": 38.911788333333334, "type": "electric_scooter", "lon": -77.018764, "bike_id": "2e2f2ee3d2d1c935c3c0cea16460e4d8", "rental_uris": {"android": "https://dc.lft.to/lastmile_qr_scan", "ios": "https://dc.lft.to/lastmile_qr_scan"}, "name": "2e2f2ee3d2d1c935c3c0cea16460e4d8", "is_reserved": 0}, {"is_disabled": 0, "fusion_lon": 0.0, "fusion_lat": 0.0, "lat": 38.90830616666667, "type": "electric_scooter", "lon": -76.9969055, "bike_id": "3a6b265172285469845207888dce2774", "rental_uris": {"android": "https://dc.lft.to/lastmile_qr_scan", "ios": "https://dc.lft.to/lastmile_qr_scan"}, "name": "3a6b265172285469845207888dce2774", "is_reserved": 0}, {"is_disabled": 0, "fusion_lon": 0.0, "fusion_lat": 0.0, "lat": 39.030013333333336, "type": "electric_bike", "lon": -77.1065285, "bike_id": "674bd61299c6d4883daf95f33535744b", "rental_uris": {"android": "https://dc.lft.to/lastmile_qr_scan", "ios": "https://dc.lft.to/lastmile_qr_scan"}, "name": "674bd61299c6d4883daf95f33535744b", "is_reserved": 0}, {"is_disabled": 0, "fusion_lon": 0.0, "fusion_lat": 0.0, "lat": 38.905168833333335, "type": "electric_scooter", "lon": -77.05084916666667, "bike_id": "887d34899e834e49bf2a6fb93c430ae5", "rental_uris": {"android": "https://dc.lft.to/lastmile_qr_scan", "ios": "https://dc.lft.to/lastmile_qr_scan"}, "name": "887d34899e834e49bf2a6fb93c430ae5", "is_reserved": 0}, {"is_disabled": 0, "fusion_lon": 0.0, "fusion_lat": 0.0, "lat": 38.92886566666667, "type": "electric_scooter", "lon": -77.03232216666666, "bike_id": "e6c6ceda65f1126e823a8cc81e331c17", "rental_uris": {"android": "https://dc.lft.to/lastmile_qr_scan", "ios": "https://dc.lft.to/lastmile_qr_scan"}, "name": "e6c6ceda65f1126e823a8cc81e331c17", "is_reserved": 0}, {"is_disabled": 0, "fusion_lon": 0.0, "fusion_lat": 0.0, "lat": 38.899535166666666, "type": "electric_scooter", "lon": -77.05223816666667, "bike_id": "ca9457a0905f85612b4a7519914ffd1b", "rental_uris": {"android": "https://dc.lft.to/lastmile_qr_scan", "ios": "https://dc.lft.to/lastmile_qr_scan"}, "name": "ca9457a0905f85612b4a7519914ffd1b", "is_reserved": 0}, {"is_disabled": 0, "fusion_lon": 0.0, "fusion_lat": 0.0, "lat": 38.9248165, "type": "electric_scooter", "lon": -77.02722616666667, "bike_id": "d56db743518e0b77ae2d99a9953e387c", "rental_uris": {"android": "https://dc.lft.to/lastmile_qr_scan", "ios": "https://dc.lft.to/lastmile_qr_scan"}, "name": "d56db743518e0b77ae2d99a9953e387c", "is_reserved": 0}, {"is_disabled": 0, "fusion_lon": 0.0, "fusion_lat": 0.0, "lat": 38.903702333333335, "type": "electric_scooter", "lon": -77.0419525, "bike_id": "e2924a50a3f9283a5f95f8b61bb5776a", "rental_uris": {"android": "https://dc.lft.to/lastmile_qr_scan", "ios": "https://dc.lft.to/lastmile_qr_scan"}, "name": "e2924a50a3f9283a5f95f8b61bb5776a", "is_reserved": 0}, {"is_disabled": 0, "fusion_lon": 0.0, "fusion_lat": 0.0, "lat": 38.8429, "type": "electric_scooter", "lon": -76.99946683333333, "bike_id": "b8f32b56392632a984bc1afd2bb3504a", "rental_uris": {"android": "https://dc.lft.to/lastmile_qr_scan", "ios": "https://dc.lft.to/lastmile_qr_scan"}, "name": "b8f32b56392632a984bc1afd2bb3504a", "is_reserved": 0}, {"is_disabled": 0, "fusion_lon": 0.0, "fusion_lat": 0.0, "lat": 38.98561983333333, "type": "electric_bike", "lon": -76.9883025, "bike_id": "6c0e6a55e8ae0cf9ccfa23b75c6449a5", "rental_uris": {"android": "https://dc.lft.to/lastmile_qr_scan", "ios": "https://dc.lft.to/lastmile_qr_scan"}, "name": "6c0e6a55e8ae0cf9ccfa23b75c6449a5", "is_reserved": 0}, {"is_disabled": 0, "fusion_lon": 0.0, "fusion_lat": 0.0, "lat": 38.94032283333333, "type": "electric_scooter", "lon": -77.025181, "bike_id": "1dc742b5a84605fd9ea55eaa840c0580", "rental_uris": {"android": "https://dc.lft.to/lastmile_qr_scan", "ios": "https://dc.lft.to/lastmile_qr_scan"}, "name": "1dc742b5a84605fd9ea55eaa840c0580", "is_reserved": 0}, {"is_disabled": 0, "fusion_lon": 0.0, "fusion_lat": 0.0, "lat": 38.907086666666665, "type": "electric_scooter", "lon": -77.0240875, "bike_id": "5d902a5ce4682ae7e42e04c990e165a4", "rental_uris": {"android": "https://dc.lft.to/lastmile_qr_scan", "ios": "https://dc.lft.to/lastmile_qr_scan"}, "name": "5d902a5ce4682ae7e42e04c990e165a4", "is_reserved": 0}, {"is_disabled": 0, "fusion_lon": 0.0, "fusion_lat": 0.0, "lat": 38.9125745, "type": "electric_scooter", "lon": -77.0315295, "bike_id": "6c12b10efd0be85cd6dd40ad89634ff6", "rental_uris": {"android": "https://dc.lft.to/lastmile_qr_scan", "ios": "https://dc.lft.to/lastmile_qr_scan"}, "name": "6c12b10efd0be85cd6dd40ad89634ff6", "is_reserved": 0}, {"is_disabled": 0, "fusion_lon": 0.0, "fusion_lat": 0.0, "lat": 38.93173383333333, "type": "electric_scooter", "lon": -77.02816433333334, "bike_id": "b71668b2c7209e08797a4f8e2a707295", "rental_uris": {"android": "https://dc.lft.to/lastmile_qr_scan", "ios": "https://dc.lft.to/lastmile_qr_scan"}, "name": "b71668b2c7209e08797a4f8e2a707295", "is_reserved": 0}, {"is_disabled": 0, "fusion_lon": 0.0, "fusion_lat": 0.0, "lat": 38.911147666666665, "type": "electric_scooter", "lon": -77.03722816666667, "bike_id": "a2a2f9d9f0545f35467e9c7e1d8fce45", "rental_uris": {"android": "https://dc.lft.to/lastmile_qr_scan", "ios": "https://dc.lft.to/lastmile_qr_scan"}, "name": "a2a2f9d9f0545f35467e9c7e1d8fce45", "is_reserved": 0}, {"is_disabled": 0, "fusion_lon": 0.0, "fusion_lat": 0.0, "lat": 38.908536166666664, "type": "electric_scooter", "lon": -77.02346383333334, "bike_id": "c064a4c71ae3eeb34a9af711c9630f2d", "rental_uris": {"android": "https://dc.lft.to/lastmile_qr_scan", "ios": "https://dc.lft.to/lastmile_qr_scan"}, "name": "c064a4c71ae3eeb34a9af711c9630f2d", "is_reserved": 0}, {"is_disabled": 0, "fusion_lon": 0.0, "fusion_lat": 0.0, "lat": 38.8850735, "type": "electric_scooter", "lon": -77.02497766666667, "bike_id": "12604021b735b6170b6d5f14c1e420f5", "rental_uris": {"android": "https://dc.lft.to/lastmile_qr_scan", "ios": "https://dc.lft.to/lastmile_qr_scan"}, "name": "12604021b735b6170b6d5f14c1e420f5", "is_reserved": 0}, {"is_disabled": 0, "fusion_lon": 0.0, "fusion_lat": 0.0, "lat": 38.932265666666666, "type": "electric_scooter", "lon": -76.99933766666666, "bike_id": "d2277c9515b2027594ce6c8cc619a284", "rental_uris": {"android": "https://dc.lft.to/lastmile_qr_scan", "ios": "https://dc.lft.to/lastmile_qr_scan"}, "name": "d2277c9515b2027594ce6c8cc619a284", "is_reserved": 0}, {"is_disabled": 0, "fusion_lon": 0.0, "fusion_lat": 0.0, "lat": 38.932398666666664, "type": "electric_scooter", "lon": -77.0285055, "bike_id": "591803fa146b32b8e317b5f0c19497fa", "rental_uris": {"android": "https://dc.lft.to/lastmile_qr_scan", "ios": "https://dc.lft.to/lastmile_qr_scan"}, "name": "591803fa146b32b8e317b5f0c19497fa", "is_reserved": 0}, {"is_disabled": 0, "fusion_lon": 0.0, "fusion_lat": 0.0, "lat": 38.91251616666667, "type": "electric_scooter", "lon": -77.03750166666667, "bike_id": "5d61fbe10fad70a4392e86c2eeff7821", "rental_uris": {"android": "https://dc.lft.to/lastmile_qr_scan", "ios": "https://dc.lft.to/lastmile_qr_scan"}, "name": "5d61fbe10fad70a4392e86c2eeff7821", "is_reserved": 0}, {"is_disabled": 0, "fusion_lon": 0.0, "fusion_lat": 0.0, "lat": 38.93851316666667, "type": "electric_scooter", "lon": -77.02471816666667, "bike_id": "ea3d83d30185c88ad41226f1f1fb7e7d", "rental_uris": {"android": "https://dc.lft.to/lastmile_qr_scan", "ios": "https://dc.lft.to/lastmile_qr_scan"}, "name": "ea3d83d30185c88ad41226f1f1fb7e7d", "is_reserved": 0}, {"is_disabled": 0, "fusion_lon": 0.0, "fusion_lat": 0.0, "lat": 38.88732516666666, "type": "electric_scooter", "lon": -77.02829766666666, "bike_id": "601a6eeff7a5228f43756a92aba14fff", "rental_uris": {"android": "https://dc.lft.to/lastmile_qr_scan", "ios": "https://dc.lft.to/lastmile_qr_scan"}, "name": "601a6eeff7a5228f43756a92aba14fff", "is_reserved": 0}, {"is_disabled": 0, "fusion_lon": 0.0, "fusion_lat": 0.0, "lat": 38.92620566666667, "type": "electric_scooter", "lon": -77.05705, "bike_id": "2f08e658644aa956f64db934dc2fd920", "rental_uris": {"android": "https://dc.lft.to/lastmile_qr_scan", "ios": "https://dc.lft.to/lastmile_qr_scan"}, "name": "2f08e658644aa956f64db934dc2fd920", "is_reserved": 0}, {"is_disabled": 0, "fusion_lon": 0.0, "fusion_lat": 0.0, "lat": 38.936028, "type": "electric_scooter", "lon": -77.0585605, "bike_id": "1ae1fbfbb5a4c158fc76e938417dddcb", "rental_uris": {"android": "https://dc.lft.to/lastmile_qr_scan", "ios": "https://dc.lft.to/lastmile_qr_scan"}, "name": "1ae1fbfbb5a4c158fc76e938417dddcb", "is_reserved": 0}, {"is_disabled": 0, "fusion_lon": 0.0, "fusion_lat": 0.0, "lat": 38.90545133333333, "type": "electric_scooter", "lon": -76.98782033333333, "bike_id": "e24ed598d980657449130eb63507de2e", "rental_uris": {"android": "https://dc.lft.to/lastmile_qr_scan", "ios": "https://dc.lft.to/lastmile_qr_scan"}, "name": "e24ed598d980657449130eb63507de2e", "is_reserved": 0}, {"is_disabled": 0, "fusion_lon": 0.0, "fusion_lat": 0.0, "lat": 38.959595, "type": "electric_bike", "lon": -76.98156916666667, "bike_id": "9d8959cb05ac8248b9d23c1f30ad0f21", "rental_uris": {"android": "https://dc.lft.to/lastmile_qr_scan", "ios": "https://dc.lft.to/lastmile_qr_scan"}, "name": "9d8959cb05ac8248b9d23c1f30ad0f21", "is_reserved": 0}, {"is_disabled": 0, "fusion_lon": 0.0, "fusion_lat": 0.0, "lat": 38.89873816666667, "type": "electric_scooter", "lon": -76.93190283333334, "bike_id": "b894f4b7ed2d0e6e7cd8fc395bc001d4", "rental_uris": {"android": "https://dc.lft.to/lastmile_qr_scan", "ios": "https://dc.lft.to/lastmile_qr_scan"}, "name": "b894f4b7ed2d0e6e7cd8fc395bc001d4", "is_reserved": 0}, {"is_disabled": 0, "fusion_lon": 0.0, "fusion_lat": 0.0, "lat": 38.910425833333335, "type": "electric_scooter", "lon": -77.04054366666666, "bike_id": "0f38587393e44f80475323d35b2eb6ba", "rental_uris": {"android": "https://dc.lft.to/lastmile_qr_scan", "ios": "https://dc.lft.to/lastmile_qr_scan"}, "name": "0f38587393e44f80475323d35b2eb6ba", "is_reserved": 0}, {"is_disabled": 0, "fusion_lon": 0.0, "fusion_lat": 0.0, "lat": 38.887669, "type": "electric_scooter", "lon": -76.95671316666666, "bike_id": "d40e93ade2d107437126f203c535b317", "rental_uris": {"android": "https://dc.lft.to/lastmile_qr_scan", "ios": "https://dc.lft.to/lastmile_qr_scan"}, "name": "d40e93ade2d107437126f203c535b317", "is_reserved": 0}, {"is_disabled": 0, "fusion_lon": 0.0, "fusion_lat": 0.0, "lat": 38.90501, "type": "electric_scooter", "lon": -76.98848783333334, "bike_id": "3a9249ab90a4fe87d64a338d27bf5753", "rental_uris": {"android": "https://dc.lft.to/lastmile_qr_scan", "ios": "https://dc.lft.to/lastmile_qr_scan"}, "name": "3a9249ab90a4fe87d64a338d27bf5753", "is_reserved": 0}, {"is_disabled": 0, "fusion_lon": 0.0, "fusion_lat": 0.0, "lat": 38.91192183333333, "type": "electric_scooter", "lon": -77.00468, "bike_id": "3ccbff5e8e06a49bffa740b4974889da", "rental_uris": {"android": "https://dc.lft.to/lastmile_qr_scan", "ios": "https://dc.lft.to/lastmile_qr_scan"}, "name": "3ccbff5e8e06a49bffa740b4974889da", "is_reserved": 0}, {"is_disabled": 0, "fusion_lon": 0.0, "fusion_lat": 0.0, "lat": 38.91560333333334, "type": "electric_scooter", "lon": -77.023712, "bike_id": "2719b86d237dcfc2ef350779ea25ff1b", "rental_uris": {"android": "https://dc.lft.to/lastmile_qr_scan", "ios": "https://dc.lft.to/lastmile_qr_scan"}, "name": "2719b86d237dcfc2ef350779ea25ff1b", "is_reserved": 0}, {"is_disabled": 0, "fusion_lon": 0.0, "fusion_lat": 0.0, "lat": 38.913987, "type": "electric_scooter", "lon": -77.01308033333333, "bike_id": "bb4878d8f2dfdb9329bfad3dff2016df", "rental_uris": {"android": "https://dc.lft.to/lastmile_qr_scan", "ios": "https://dc.lft.to/lastmile_qr_scan"}, "name": "bb4878d8f2dfdb9329bfad3dff2016df", "is_reserved": 0}, {"is_disabled": 0, "fusion_lon": 0.0, "fusion_lat": 0.0, "lat": 38.897339333333335, "type": "electric_scooter", "lon": -77.04716383333333, "bike_id": "29c58b0fc5295a4efe14493a2d994592", "rental_uris": {"android": "https://dc.lft.to/lastmile_qr_scan", "ios": "https://dc.lft.to/lastmile_qr_scan"}, "name": "29c58b0fc5295a4efe14493a2d994592", "is_reserved": 0}, {"is_disabled": 0, "fusion_lon": 0.0, "fusion_lat": 0.0, "lat": 38.91760683333333, "type": "electric_scooter", "lon": -77.03206933333334, "bike_id": "efe08437880a9443911859eacb2fc824", "rental_uris": {"android": "https://dc.lft.to/lastmile_qr_scan", "ios": "https://dc.lft.to/lastmile_qr_scan"}, "name": "efe08437880a9443911859eacb2fc824", "is_reserved": 0}, {"is_disabled": 0, "fusion_lon": 0.0, "fusion_lat": 0.0, "lat": 38.852097666666666, "type": "electric_bike", "lon": -77.12754933333333, "bike_id": "1574fd94193dd9d5ec614e69bf8e4882", "rental_uris": {"android": "https://dc.lft.to/lastmile_qr_scan", "ios": "https://dc.lft.to/lastmile_qr_scan"}, "name": "1574fd94193dd9d5ec614e69bf8e4882", "is_reserved": 0}, {"is_disabled": 0, "fusion_lon": 0.0, "fusion_lat": 0.0, "lat": 38.892533, "type": "electric_scooter", "lon": -76.998452, "bike_id": "89777052a525b699b07c138bcf0bb936", "rental_uris": {"android": "https://dc.lft.to/lastmile_qr_scan", "ios": "https://dc.lft.to/lastmile_qr_scan"}, "name": "89777052a525b699b07c138bcf0bb936", "is_reserved": 0}, {"is_disabled": 0, "fusion_lon": 0.0, "fusion_lat": 0.0, "lat": 38.94496216666667, "type": "electric_bike", "lon": -77.006802, "bike_id": "5af106ccca4d77be07800ee176fa01bb", "rental_uris": {"android": "https://dc.lft.to/lastmile_qr_scan", "ios": "https://dc.lft.to/lastmile_qr_scan"}, "name": "5af106ccca4d77be07800ee176fa01bb", "is_reserved": 0}, {"is_disabled": 0, "fusion_lon": 0.0, "fusion_lat": 0.0, "lat": 38.865943, "type": "electric_bike", "lon": -76.9322605, "bike_id": "360031ef038f4b92fbe1b7ecf8329174", "rental_uris": {"android": "https://dc.lft.to/lastmile_qr_scan", "ios": "https://dc.lft.to/lastmile_qr_scan"}, "name": "360031ef038f4b92fbe1b7ecf8329174", "is_reserved": 0}, {"is_disabled": 0, "fusion_lon": 0.0, "fusion_lat": 0.0, "lat": 38.91560466666667, "type": "electric_scooter", "lon": -77.03873766666666, "bike_id": "822d8db12c7591aa055438ccec9bc701", "rental_uris": {"android": "https://dc.lft.to/lastmile_qr_scan", "ios": "https://dc.lft.to/lastmile_qr_scan"}, "name": "822d8db12c7591aa055438ccec9bc701", "is_reserved": 0}, {"is_disabled": 0, "fusion_lon": 0.0, "fusion_lat": 0.0, "lat": 38.93174033333333, "type": "electric_scooter", "lon": -77.02819316666667, "bike_id": "b5e13728089b612cc8befbeb612d749f", "rental_uris": {"android": "https://dc.lft.to/lastmile_qr_scan", "ios": "https://dc.lft.to/lastmile_qr_scan"}, "name": "b5e13728089b612cc8befbeb612d749f", "is_reserved": 0}, {"is_disabled": 0, "fusion_lon": 0.0, "fusion_lat": 0.0, "lat": 38.8974545, "type": "electric_scooter", "lon": -77.0513755, "bike_id": "c32bcd914bf5f5bb3685d50796721a16", "rental_uris": {"android": "https://dc.lft.to/lastmile_qr_scan", "ios": "https://dc.lft.to/lastmile_qr_scan"}, "name": "c32bcd914bf5f5bb3685d50796721a16", "is_reserved": 0}, {"is_disabled": 0, "fusion_lon": 0.0, "fusion_lat": 0.0, "lat": 38.93247783333333, "type": "electric_bike", "lon": -76.9952565, "bike_id": "7be145846d97f71a615dcb88e455721a", "rental_uris": {"android": "https://dc.lft.to/lastmile_qr_scan", "ios": "https://dc.lft.to/lastmile_qr_scan"}, "name": "7be145846d97f71a615dcb88e455721a", "is_reserved": 0}, {"is_disabled": 0, "fusion_lon": 0.0, "fusion_lat": 0.0, "lat": 38.90798233333334, "type": "electric_scooter", "lon": -77.04408333333333, "bike_id": "57f3e1f58042ec0a1f0dbd66616ee55d", "rental_uris": {"android": "https://dc.lft.to/lastmile_qr_scan", "ios": "https://dc.lft.to/lastmile_qr_scan"}, "name": "57f3e1f58042ec0a1f0dbd66616ee55d", "is_reserved": 0}, {"is_disabled": 0, "fusion_lon": 0.0, "fusion_lat": 0.0, "lat": 38.89961816666667, "type": "electric_scooter", "lon": -76.98714333333334, "bike_id": "182a43ccead6ed79c62dd290ecd11887", "rental_uris": {"android": "https://dc.lft.to/lastmile_qr_scan", "ios": "https://dc.lft.to/lastmile_qr_scan"}, "name": "182a43ccead6ed79c62dd290ecd11887", "is_reserved": 0}, {"is_disabled": 0, "fusion_lon": 0.0, "fusion_lat": 0.0, "lat": 38.9171325, "type": "electric_scooter", "lon": -77.03235333333333, "bike_id": "98f945f416b0806d6fa6a30f42a6a56e", "rental_uris": {"android": "https://dc.lft.to/lastmile_qr_scan", "ios": "https://dc.lft.to/lastmile_qr_scan"}, "name": "98f945f416b0806d6fa6a30f42a6a56e", "is_reserved": 0}, {"is_disabled": 0, "fusion_lon": 0.0, "fusion_lat": 0.0, "lat": 38.915372, "type": "electric_scooter", "lon": -77.01976166666667, "bike_id": "d6f8b44c5e7d8ad96be7e804f29254fc", "rental_uris": {"android": "https://dc.lft.to/lastmile_qr_scan", "ios": "https://dc.lft.to/lastmile_qr_scan"}, "name": "d6f8b44c5e7d8ad96be7e804f29254fc", "is_reserved": 0}, {"is_disabled": 0, "fusion_lon": 0.0, "fusion_lat": 0.0, "lat": 38.89249783333333, "type": "electric_scooter", "lon": -77.03190266666667, "bike_id": "29c888d1522cbf080104796281d6c8ac", "rental_uris": {"android": "https://dc.lft.to/lastmile_qr_scan", "ios": "https://dc.lft.to/lastmile_qr_scan"}, "name": "29c888d1522cbf080104796281d6c8ac", "is_reserved": 0}, {"is_disabled": 0, "fusion_lon": 0.0, "fusion_lat": 0.0, "lat": 38.90038783333333, "type": "electric_scooter", "lon": -77.01234633333333, "bike_id": "cb9a4810f43c2f512263c42f194e6a83", "rental_uris": {"android": "https://dc.lft.to/lastmile_qr_scan", "ios": "https://dc.lft.to/lastmile_qr_scan"}, "name": "cb9a4810f43c2f512263c42f194e6a83", "is_reserved": 0}, {"is_disabled": 0, "fusion_lon": 0.0, "fusion_lat": 0.0, "lat": 38.933938833333336, "type": "electric_scooter", "lon": -77.02730416666667, "bike_id": "df36dbe055e998c83ec4774c1191da0c", "rental_uris": {"android": "https://dc.lft.to/lastmile_qr_scan", "ios": "https://dc.lft.to/lastmile_qr_scan"}, "name": "df36dbe055e998c83ec4774c1191da0c", "is_reserved": 0}, {"is_disabled": 0, "fusion_lon": 0.0, "fusion_lat": 0.0, "lat": 38.895036, "type": "electric_scooter", "lon": -77.02830283333333, "bike_id": "bf9f93a1c42394c57b3ce71d04a40a3e", "rental_uris": {"android": "https://dc.lft.to/lastmile_qr_scan", "ios": "https://dc.lft.to/lastmile_qr_scan"}, "name": "bf9f93a1c42394c57b3ce71d04a40a3e", "is_reserved": 0}, {"is_disabled": 0, "fusion_lon": 0.0, "fusion_lat": 0.0, "lat": 38.9172815, "type": "electric_scooter", "lon": -77.0416635, "bike_id": "d8a215dbbee8687c12e4bb05c823d8b3", "rental_uris": {"android": "https://dc.lft.to/lastmile_qr_scan", "ios": "https://dc.lft.to/lastmile_qr_scan"}, "name": "d8a215dbbee8687c12e4bb05c823d8b3", "is_reserved": 0}, {"is_disabled": 0, "fusion_lon": 0.0, "fusion_lat": 0.0, "lat": 38.900504, "type": "electric_scooter", "lon": -77.03451316666667, "bike_id": "0d5157110badc37f79acfd46f3e892e3", "rental_uris": {"android": "https://dc.lft.to/lastmile_qr_scan", "ios": "https://dc.lft.to/lastmile_qr_scan"}, "name": "0d5157110badc37f79acfd46f3e892e3", "is_reserved": 0}, {"is_disabled": 0, "fusion_lon": 0.0, "fusion_lat": 0.0, "lat": 38.96601416666667, "type": "electric_bike", "lon": -76.98329566666666, "bike_id": "c25a2e81bdcef4e6a485ec0b2bb26101", "rental_uris": {"android": "https://dc.lft.to/lastmile_qr_scan", "ios": "https://dc.lft.to/lastmile_qr_scan"}, "name": "c25a2e81bdcef4e6a485ec0b2bb26101", "is_reserved": 0}, {"is_disabled": 0, "fusion_lon": 0.0, "fusion_lat": 0.0, "lat": 38.8484355, "type": "electric_bike", "lon": -77.08049183333334, "bike_id": "bae17856aeb8ab37ce781b38d1e85a38", "rental_uris": {"android": "https://dc.lft.to/lastmile_qr_scan", "ios": "https://dc.lft.to/lastmile_qr_scan"}, "name": "bae17856aeb8ab37ce781b38d1e85a38", "is_reserved": 0}, {"is_disabled": 0, "fusion_lon": 0.0, "fusion_lat": 0.0, "lat": 38.8967785, "type": "electric_scooter", "lon": -76.94712366666667, "bike_id": "32619db36e6055aa915cde38cc29764d", "rental_uris": {"android": "https://dc.lft.to/lastmile_qr_scan", "ios": "https://dc.lft.to/lastmile_qr_scan"}, "name": "32619db36e6055aa915cde38cc29764d", "is_reserved": 0}, {"is_disabled": 0, "fusion_lon": 0.0, "fusion_lat": 0.0, "lat": 38.93564833333333, "type": "electric_scooter", "lon": -77.07351066666666, "bike_id": "c1de4555c10cc4db273b39e89fc3dc52", "rental_uris": {"android": "https://dc.lft.to/lastmile_qr_scan", "ios": "https://dc.lft.to/lastmile_qr_scan"}, "name": "c1de4555c10cc4db273b39e89fc3dc52", "is_reserved": 0}, {"is_disabled": 0, "fusion_lon": 0.0, "fusion_lat": 0.0, "lat": 38.90845766666666, "type": "electric_scooter", "lon": -77.02385633333333, "bike_id": "8f03dc11300d9e0a5b955850268bc145", "rental_uris": {"android": "https://dc.lft.to/lastmile_qr_scan", "ios": "https://dc.lft.to/lastmile_qr_scan"}, "name": "8f03dc11300d9e0a5b955850268bc145", "is_reserved": 0}, {"is_disabled": 0, "fusion_lon": 0.0, "fusion_lat": 0.0, "lat": 38.90270316666667, "type": "electric_scooter", "lon": -77.03653483333333, "bike_id": "87c92cb9e963d43f01b011608f8212ee", "rental_uris": {"android": "https://dc.lft.to/lastmile_qr_scan", "ios": "https://dc.lft.to/lastmile_qr_scan"}, "name": "87c92cb9e963d43f01b011608f8212ee", "is_reserved": 0}, {"is_disabled": 0, "fusion_lon": 0.0, "fusion_lat": 0.0, "lat": 38.902037, "type": "electric_scooter", "lon": -77.02109383333334, "bike_id": "3be236bf9a4af1f36e385abb26d23e5c", "rental_uris": {"android": "https://dc.lft.to/lastmile_qr_scan", "ios": "https://dc.lft.to/lastmile_qr_scan"}, "name": "3be236bf9a4af1f36e385abb26d23e5c", "is_reserved": 0}, {"is_disabled": 0, "fusion_lon": 0.0, "fusion_lat": 0.0, "lat": 38.875734, "type": "electric_scooter", "lon": -77.0198775, "bike_id": "9a90ceac904d693936e79416ca9b4fd8", "rental_uris": {"android": "https://dc.lft.to/lastmile_qr_scan", "ios": "https://dc.lft.to/lastmile_qr_scan"}, "name": "9a90ceac904d693936e79416ca9b4fd8", "is_reserved": 0}, {"is_disabled": 0, "fusion_lon": 0.0, "fusion_lat": 0.0, "lat": 38.917886, "type": "electric_scooter", "lon": -77.03654883333333, "bike_id": "7e8e8cc7b1d0055f02d9ea33a2805d01", "rental_uris": {"android": "https://dc.lft.to/lastmile_qr_scan", "ios": "https://dc.lft.to/lastmile_qr_scan"}, "name": "7e8e8cc7b1d0055f02d9ea33a2805d01", "is_reserved": 0}, {"is_disabled": 0, "fusion_lon": 0.0, "fusion_lat": 0.0, "lat": 38.90554433333333, "type": "electric_scooter", "lon": -77.03364733333333, "bike_id": "4994c3b5daba1e79d5394686a01f6472", "rental_uris": {"android": "https://dc.lft.to/lastmile_qr_scan", "ios": "https://dc.lft.to/lastmile_qr_scan"}, "name": "4994c3b5daba1e79d5394686a01f6472", "is_reserved": 0}, {"is_disabled": 0, "fusion_lon": 0.0, "fusion_lat": 0.0, "lat": 38.8886005, "type": "electric_scooter", "lon": -76.9773725, "bike_id": "f53aec18e52585a39a44e5af981dcbe9", "rental_uris": {"android": "https://dc.lft.to/lastmile_qr_scan", "ios": "https://dc.lft.to/lastmile_qr_scan"}, "name": "f53aec18e52585a39a44e5af981dcbe9", "is_reserved": 0}, {"is_disabled": 0, "fusion_lon": 0.0, "fusion_lat": 0.0, "lat": 38.895087333333336, "type": "electric_scooter", "lon": -77.02214433333333, "bike_id": "a7d7a69356dba505021ac1e02d0f9802", "rental_uris": {"android": "https://dc.lft.to/lastmile_qr_scan", "ios": "https://dc.lft.to/lastmile_qr_scan"}, "name": "a7d7a69356dba505021ac1e02d0f9802", "is_reserved": 0}, {"is_disabled": 0, "fusion_lon": 0.0, "fusion_lat": 0.0, "lat": 38.928858166666664, "type": "electric_scooter", "lon": -77.0333245, "bike_id": "4370dc4d28e9527f61e36b617285f3b1", "rental_uris": {"android": "https://dc.lft.to/lastmile_qr_scan", "ios": "https://dc.lft.to/lastmile_qr_scan"}, "name": "4370dc4d28e9527f61e36b617285f3b1", "is_reserved": 0}, {"is_disabled": 0, "fusion_lon": 0.0, "fusion_lat": 0.0, "lat": 38.89301433333333, "type": "electric_scooter", "lon": -77.019672, "bike_id": "1b7989c56aac2cb4c00dac35fd58478e", "rental_uris": {"android": "https://dc.lft.to/lastmile_qr_scan", "ios": "https://dc.lft.to/lastmile_qr_scan"}, "name": "1b7989c56aac2cb4c00dac35fd58478e", "is_reserved": 0}, {"is_disabled": 0, "fusion_lon": 0.0, "fusion_lat": 0.0, "lat": 38.827267666666664, "type": "electric_bike", "lon": -77.00864883333334, "bike_id": "0674a099f39884d1110a1e7e40f8e739", "rental_uris": {"android": "https://dc.lft.to/lastmile_qr_scan", "ios": "https://dc.lft.to/lastmile_qr_scan"}, "name": "0674a099f39884d1110a1e7e40f8e739", "is_reserved": 0}, {"is_disabled": 0, "fusion_lon": 0.0, "fusion_lat": 0.0, "lat": 38.901509833333336, "type": "electric_scooter", "lon": -77.041528, "bike_id": "e624d299d1c0eac1ccb8a411a01d9ddd", "rental_uris": {"android": "https://dc.lft.to/lastmile_qr_scan", "ios": "https://dc.lft.to/lastmile_qr_scan"}, "name": "e624d299d1c0eac1ccb8a411a01d9ddd", "is_reserved": 0}, {"is_disabled": 0, "fusion_lon": 0.0, "fusion_lat": 0.0, "lat": 38.83120616666667, "type": "electric_bike", "lon": -77.04321883333333, "bike_id": "d385537b5f04d5c530336b8a99f4cb96", "rental_uris": {"android": "https://dc.lft.to/lastmile_qr_scan", "ios": "https://dc.lft.to/lastmile_qr_scan"}, "name": "d385537b5f04d5c530336b8a99f4cb96", "is_reserved": 0}, {"is_disabled": 0, "fusion_lon": 0.0, "fusion_lat": 0.0, "lat": 38.91966633333333, "type": "electric_scooter", "lon": -77.04180566666666, "bike_id": "f26a7943a979c902314fd1bb233f925b", "rental_uris": {"android": "https://dc.lft.to/lastmile_qr_scan", "ios": "https://dc.lft.to/lastmile_qr_scan"}, "name": "f26a7943a979c902314fd1bb233f925b", "is_reserved": 0}, {"is_disabled": 0, "fusion_lon": 0.0, "fusion_lat": 0.0, "lat": 38.899478, "type": "electric_scooter", "lon": -77.03356566666666, "bike_id": "ecd4066a4578e96cf2ce730b5c9d4dd8", "rental_uris": {"android": "https://dc.lft.to/lastmile_qr_scan", "ios": "https://dc.lft.to/lastmile_qr_scan"}, "name": "ecd4066a4578e96cf2ce730b5c9d4dd8", "is_reserved": 0}, {"is_disabled": 0, "fusion_lon": 0.0, "fusion_lat": 0.0, "lat": 38.90719266666667, "type": "electric_scooter", "lon": -77.034819, "bike_id": "2b8b94844913f1ad6932b0127d7bd2fc", "rental_uris": {"android": "https://dc.lft.to/lastmile_qr_scan", "ios": "https://dc.lft.to/lastmile_qr_scan"}, "name": "2b8b94844913f1ad6932b0127d7bd2fc", "is_reserved": 0}, {"is_disabled": 0, "fusion_lon": 0.0, "fusion_lat": 0.0, "lat": 38.901316, "type": "electric_scooter", "lon": -77.04168283333334, "bike_id": "ef3e2ae7002d1b16f5cdd3428c6130c1", "rental_uris": {"android": "https://dc.lft.to/lastmile_qr_scan", "ios": "https://dc.lft.to/lastmile_qr_scan"}, "name": "ef3e2ae7002d1b16f5cdd3428c6130c1", "is_reserved": 0}, {"is_disabled": 0, "fusion_lon": 0.0, "fusion_lat": 0.0, "lat": 38.937027666666665, "type": "electric_scooter", "lon": -77.055972, "bike_id": "ff44379616d401506635b8a2f2c33f50", "rental_uris": {"android": "https://dc.lft.to/lastmile_qr_scan", "ios": "https://dc.lft.to/lastmile_qr_scan"}, "name": "ff44379616d401506635b8a2f2c33f50", "is_reserved": 0}, {"is_disabled": 0, "fusion_lon": 0.0, "fusion_lat": 0.0, "lat": 38.897305333333335, "type": "electric_scooter", "lon": -77.02273383333333, "bike_id": "2b1ce37d5bfa919262a83092a5f5bf53", "rental_uris": {"android": "https://dc.lft.to/lastmile_qr_scan", "ios": "https://dc.lft.to/lastmile_qr_scan"}, "name": "2b1ce37d5bfa919262a83092a5f5bf53", "is_reserved": 0}, {"is_disabled": 0, "fusion_lon": 0.0, "fusion_lat": 0.0, "lat": 38.87052883333333, "type": "electric_scooter", "lon": -76.98082366666667, "bike_id": "bc4433826653f294ebb72968bc958613", "rental_uris": {"android": "https://dc.lft.to/lastmile_qr_scan", "ios": "https://dc.lft.to/lastmile_qr_scan"}, "name": "bc4433826653f294ebb72968bc958613", "is_reserved": 0}, {"is_disabled": 0, "fusion_lon": 0.0, "fusion_lat": 0.0, "lat": 38.916967666666665, "type": "electric_scooter", "lon": -77.0116835, "bike_id": "0566dbebce59498ec8b4fd93e6ecfde9", "rental_uris": {"android": "https://dc.lft.to/lastmile_qr_scan", "ios": "https://dc.lft.to/lastmile_qr_scan"}, "name": "0566dbebce59498ec8b4fd93e6ecfde9", "is_reserved": 0}, {"is_disabled": 0, "fusion_lon": 0.0, "fusion_lat": 0.0, "lat": 38.91232483333334, "type": "electric_scooter", "lon": -77.04481616666666, "bike_id": "975adcdcdfdc0ce249d6717b20c1d699", "rental_uris": {"android": "https://dc.lft.to/lastmile_qr_scan", "ios": "https://dc.lft.to/lastmile_qr_scan"}, "name": "975adcdcdfdc0ce249d6717b20c1d699", "is_reserved": 0}, {"is_disabled": 0, "fusion_lon": 0.0, "fusion_lat": 0.0, "lat": 38.886853333333335, "type": "electric_scooter", "lon": -76.988002, "bike_id": "91ef3bc1c839b2045061499cee077244", "rental_uris": {"android": "https://dc.lft.to/lastmile_qr_scan", "ios": "https://dc.lft.to/lastmile_qr_scan"}, "name": "91ef3bc1c839b2045061499cee077244", "is_reserved": 0}, {"is_disabled": 0, "fusion_lon": 0.0, "fusion_lat": 0.0, "lat": 38.8859515, "type": "electric_scooter", "lon": -77.00588816666667, "bike_id": "0e4e4f3d992ba711fa64eb88a343f494", "rental_uris": {"android": "https://dc.lft.to/lastmile_qr_scan", "ios": "https://dc.lft.to/lastmile_qr_scan"}, "name": "0e4e4f3d992ba711fa64eb88a343f494", "is_reserved": 0}, {"is_disabled": 0, "fusion_lon": 0.0, "fusion_lat": 0.0, "lat": 38.95636, "type": "electric_scooter", "lon": -77.09103183333333, "bike_id": "5db3a6d02ab06fc0ee80095445cc77cf", "rental_uris": {"android": "https://dc.lft.to/lastmile_qr_scan", "ios": "https://dc.lft.to/lastmile_qr_scan"}, "name": "5db3a6d02ab06fc0ee80095445cc77cf", "is_reserved": 0}, {"is_disabled": 0, "fusion_lon": 0.0, "fusion_lat": 0.0, "lat": 38.84932633333333, "type": "electric_bike", "lon": -77.10010966666667, "bike_id": "b67a3bdca5e13267714b98b58aedbbc1", "rental_uris": {"android": "https://dc.lft.to/lastmile_qr_scan", "ios": "https://dc.lft.to/lastmile_qr_scan"}, "name": "b67a3bdca5e13267714b98b58aedbbc1", "is_reserved": 0}, {"is_disabled": 0, "fusion_lon": 0.0, "fusion_lat": 0.0, "lat": 38.894831833333335, "type": "electric_scooter", "lon": -76.94871466666666, "bike_id": "163ce8f5aecfba884c11d7198782a56b", "rental_uris": {"android": "https://dc.lft.to/lastmile_qr_scan", "ios": "https://dc.lft.to/lastmile_qr_scan"}, "name": "163ce8f5aecfba884c11d7198782a56b", "is_reserved": 0}, {"is_disabled": 0, "fusion_lon": 0.0, "fusion_lat": 0.0, "lat": 38.90550733333333, "type": "electric_scooter", "lon": -77.03246416666667, "bike_id": "809badfe8a2bd6805aeb3bed6f297733", "rental_uris": {"android": "https://dc.lft.to/lastmile_qr_scan", "ios": "https://dc.lft.to/lastmile_qr_scan"}, "name": "809badfe8a2bd6805aeb3bed6f297733", "is_reserved": 0}, {"is_disabled": 0, "fusion_lon": 0.0, "fusion_lat": 0.0, "lat": 38.85646466666667, "type": "electric_bike", "lon": -77.085279, "bike_id": "13870699d7842683a4bf613b4f50de85", "rental_uris": {"android": "https://dc.lft.to/lastmile_qr_scan", "ios": "https://dc.lft.to/lastmile_qr_scan"}, "name": "13870699d7842683a4bf613b4f50de85", "is_reserved": 0}, {"is_disabled": 0, "fusion_lon": 0.0, "fusion_lat": 0.0, "lat": 38.9119055, "type": "electric_scooter", "lon": -77.04163483333333, "bike_id": "e8c32a269d83d5419dcd02c4cd219859", "rental_uris": {"android": "https://dc.lft.to/lastmile_qr_scan", "ios": "https://dc.lft.to/lastmile_qr_scan"}, "name": "e8c32a269d83d5419dcd02c4cd219859", "is_reserved": 0}, {"is_disabled": 0, "fusion_lon": 0.0, "fusion_lat": 0.0, "lat": 38.866052833333335, "type": "electric_scooter", "lon": -77.01073183333334, "bike_id": "e690ca6f0a083574c77e669ea4bda38b", "rental_uris": {"android": "https://dc.lft.to/lastmile_qr_scan", "ios": "https://dc.lft.to/lastmile_qr_scan"}, "name": "e690ca6f0a083574c77e669ea4bda38b", "is_reserved": 0}, {"is_disabled": 0, "fusion_lon": 0.0, "fusion_lat": 0.0, "lat": 38.889702, "type": "electric_bike", "lon": -76.94865166666666, "bike_id": "4b3a5fa771b1ee5ea58095bed0603086", "rental_uris": {"android": "https://dc.lft.to/lastmile_qr_scan", "ios": "https://dc.lft.to/lastmile_qr_scan"}, "name": "4b3a5fa771b1ee5ea58095bed0603086", "is_reserved": 0}, {"is_disabled": 0, "fusion_lon": 0.0, "fusion_lat": 0.0, "lat": 38.888207666666666, "type": "electric_bike", "lon": -77.12735633333334, "bike_id": "bf843b33dfc31357f3a86a06c3cc45d2", "rental_uris": {"android": "https://dc.lft.to/lastmile_qr_scan", "ios": "https://dc.lft.to/lastmile_qr_scan"}, "name": "bf843b33dfc31357f3a86a06c3cc45d2", "is_reserved": 0}, {"is_disabled": 0, "fusion_lon": 0.0, "fusion_lat": 0.0, "lat": 38.918377666666665, "type": "electric_scooter", "lon": -77.02307616666667, "bike_id": "242d26fa10e70aeab5dec056611a699d", "rental_uris": {"android": "https://dc.lft.to/lastmile_qr_scan", "ios": "https://dc.lft.to/lastmile_qr_scan"}, "name": "242d26fa10e70aeab5dec056611a699d", "is_reserved": 0}, {"is_disabled": 0, "fusion_lon": 0.0, "fusion_lat": 0.0, "lat": 38.90793216666667, "type": "electric_scooter", "lon": -77.03251666666667, "bike_id": "ddf0c1f7f99d7a822ab3632b5ab5343f", "rental_uris": {"android": "https://dc.lft.to/lastmile_qr_scan", "ios": "https://dc.lft.to/lastmile_qr_scan"}, "name": "ddf0c1f7f99d7a822ab3632b5ab5343f", "is_reserved": 0}, {"is_disabled": 0, "fusion_lon": 0.0, "fusion_lat": 0.0, "lat": 38.903565666666665, "type": "electric_scooter", "lon": -77.04372416666666, "bike_id": "e796d4e90305c95179e8548764f40a9d", "rental_uris": {"android": "https://dc.lft.to/lastmile_qr_scan", "ios": "https://dc.lft.to/lastmile_qr_scan"}, "name": "e796d4e90305c95179e8548764f40a9d", "is_reserved": 0}, {"is_disabled": 0, "fusion_lon": 0.0, "fusion_lat": 0.0, "lat": 38.9757345, "type": "electric_bike", "lon": -76.964096, "bike_id": "446b0460100b9cb7ad8aeb3d560a35da", "rental_uris": {"android": "https://dc.lft.to/lastmile_qr_scan", "ios": "https://dc.lft.to/lastmile_qr_scan"}, "name": "446b0460100b9cb7ad8aeb3d560a35da", "is_reserved": 0}, {"is_disabled": 0, "fusion_lon": 0.0, "fusion_lat": 0.0, "lat": 38.9329045, "type": "electric_scooter", "lon": -77.02390783333334, "bike_id": "00b0953878f2bd6abef3097cf48ff3a3", "rental_uris": {"android": "https://dc.lft.to/lastmile_qr_scan", "ios": "https://dc.lft.to/lastmile_qr_scan"}, "name": "00b0953878f2bd6abef3097cf48ff3a3", "is_reserved": 0}, {"is_disabled": 0, "fusion_lon": 0.0, "fusion_lat": 0.0, "lat": 38.992268, "type": "electric_bike", "lon": -76.8777525, "bike_id": "6509079a0c5156bac7a468a7ddddfbe9", "rental_uris": {"android": "https://dc.lft.to/lastmile_qr_scan", "ios": "https://dc.lft.to/lastmile_qr_scan"}, "name": "6509079a0c5156bac7a468a7ddddfbe9", "is_reserved": 0}, {"is_disabled": 0, "fusion_lon": 0.0, "fusion_lat": 0.0, "lat": 38.887390333333336, "type": "electric_scooter", "lon": -77.02857033333333, "bike_id": "be9ba0f5c873da04385e3d4a1260e07c", "rental_uris": {"android": "https://dc.lft.to/lastmile_qr_scan", "ios": "https://dc.lft.to/lastmile_qr_scan"}, "name": "be9ba0f5c873da04385e3d4a1260e07c", "is_reserved": 0}, {"is_disabled": 0, "fusion_lon": 0.0, "fusion_lat": 0.0, "lat": 38.90831433333334, "type": "electric_bike", "lon": -76.9415835, "bike_id": "19bc872db93a82a266f3de0fc0c5ad57", "rental_uris": {"android": "https://dc.lft.to/lastmile_qr_scan", "ios": "https://dc.lft.to/lastmile_qr_scan"}, "name": "19bc872db93a82a266f3de0fc0c5ad57", "is_reserved": 0}, {"is_disabled": 0, "fusion_lon": 0.0, "fusion_lat": 0.0, "lat": 38.91819866666667, "type": "electric_scooter", "lon": -77.040112, "bike_id": "dc0934cf00be73dbfd2400873bd466ff", "rental_uris": {"android": "https://dc.lft.to/lastmile_qr_scan", "ios": "https://dc.lft.to/lastmile_qr_scan"}, "name": "dc0934cf00be73dbfd2400873bd466ff", "is_reserved": 0}, {"is_disabled": 0, "fusion_lon": 0.0, "fusion_lat": 0.0, "lat": 38.925505666666666, "type": "electric_scooter", "lon": -77.0529505, "bike_id": "0ca7bc22d214d4fda097fd0d9752214e", "rental_uris": {"android": "https://dc.lft.to/lastmile_qr_scan", "ios": "https://dc.lft.to/lastmile_qr_scan"}, "name": "0ca7bc22d214d4fda097fd0d9752214e", "is_reserved": 0}, {"is_disabled": 0, "fusion_lon": 0.0, "fusion_lat": 0.0, "lat": 38.8287455, "type": "electric_bike", "lon": -77.11218133333334, "bike_id": "841c12508a4636af5d46ea0d9c2add0b", "rental_uris": {"android": "https://dc.lft.to/lastmile_qr_scan", "ios": "https://dc.lft.to/lastmile_qr_scan"}, "name": "841c12508a4636af5d46ea0d9c2add0b", "is_reserved": 0}, {"is_disabled": 0, "fusion_lon": 0.0, "fusion_lat": 0.0, "lat": 38.917078, "type": "electric_scooter", "lon": -77.02842416666667, "bike_id": "8a82fd11fd71d5fcddf8404d982586ae", "rental_uris": {"android": "https://dc.lft.to/lastmile_qr_scan", "ios": "https://dc.lft.to/lastmile_qr_scan"}, "name": "8a82fd11fd71d5fcddf8404d982586ae", "is_reserved": 0}, {"is_disabled": 0, "fusion_lon": 0.0, "fusion_lat": 0.0, "lat": 38.91571966666667, "type": "electric_scooter", "lon": -77.03237333333334, "bike_id": "7b925b358ef635bd043add6f6a428cf3", "rental_uris": {"android": "https://dc.lft.to/lastmile_qr_scan", "ios": "https://dc.lft.to/lastmile_qr_scan"}, "name": "7b925b358ef635bd043add6f6a428cf3", "is_reserved": 0}, {"is_disabled": 0, "fusion_lon": 0.0, "fusion_lat": 0.0, "lat": 38.9025415, "type": "electric_scooter", "lon": -77.06093266666667, "bike_id": "f3478523be15c083c2b7a5b7d3782f60", "rental_uris": {"android": "https://dc.lft.to/lastmile_qr_scan", "ios": "https://dc.lft.to/lastmile_qr_scan"}, "name": "f3478523be15c083c2b7a5b7d3782f60", "is_reserved": 0}, {"is_disabled": 0, "fusion_lon": 0.0, "fusion_lat": 0.0, "lat": 38.921230666666666, "type": "electric_scooter", "lon": -77.02178216666667, "bike_id": "07ea9b123574d44eae3fda1ed7b88252", "rental_uris": {"android": "https://dc.lft.to/lastmile_qr_scan", "ios": "https://dc.lft.to/lastmile_qr_scan"}, "name": "07ea9b123574d44eae3fda1ed7b88252", "is_reserved": 0}, {"is_disabled": 0, "fusion_lon": 0.0, "fusion_lat": 0.0, "lat": 39.00018, "type": "electric_bike", "lon": -76.87286016666667, "bike_id": "31032fcdacbe9df4bf4b0b927a21bf71", "rental_uris": {"android": "https://dc.lft.to/lastmile_qr_scan", "ios": "https://dc.lft.to/lastmile_qr_scan"}, "name": "31032fcdacbe9df4bf4b0b927a21bf71", "is_reserved": 0}, {"is_disabled": 0, "fusion_lon": 0.0, "fusion_lat": 0.0, "lat": 38.90018633333333, "type": "electric_scooter", "lon": -77.04340533333334, "bike_id": "654517341786fa076d13a321b642ab89", "rental_uris": {"android": "https://dc.lft.to/lastmile_qr_scan", "ios": "https://dc.lft.to/lastmile_qr_scan"}, "name": "654517341786fa076d13a321b642ab89", "is_reserved": 0}, {"is_disabled": 0, "fusion_lon": 0.0, "fusion_lat": 0.0, "lat": 38.9133155, "type": "electric_scooter", "lon": -77.0327005, "bike_id": "3172c032392439599c7411becd64b3d2", "rental_uris": {"android": "https://dc.lft.to/lastmile_qr_scan", "ios": "https://dc.lft.to/lastmile_qr_scan"}, "name": "3172c032392439599c7411becd64b3d2", "is_reserved": 0}, {"is_disabled": 0, "fusion_lon": 0.0, "fusion_lat": 0.0, "lat": 38.91799366666667, "type": "electric_scooter", "lon": -77.03464316666667, "bike_id": "d6bcd1ec652c138d5811bc5ccd03bdf1", "rental_uris": {"android": "https://dc.lft.to/lastmile_qr_scan", "ios": "https://dc.lft.to/lastmile_qr_scan"}, "name": "d6bcd1ec652c138d5811bc5ccd03bdf1", "is_reserved": 0}, {"is_disabled": 0, "fusion_lon": 0.0, "fusion_lat": 0.0, "lat": 38.884044, "type": "electric_scooter", "lon": -76.95418083333334, "bike_id": "b829880314265d8accb85c57881acac3", "rental_uris": {"android": "https://dc.lft.to/lastmile_qr_scan", "ios": "https://dc.lft.to/lastmile_qr_scan"}, "name": "b829880314265d8accb85c57881acac3", "is_reserved": 0}, {"is_disabled": 0, "fusion_lon": 0.0, "fusion_lat": 0.0, "lat": 38.90637916666667, "type": "electric_scooter", "lon": -77.04884916666667, "bike_id": "2cc442b22bd655790d97e4bcbdacb6c2", "rental_uris": {"android": "https://dc.lft.to/lastmile_qr_scan", "ios": "https://dc.lft.to/lastmile_qr_scan"}, "name": "2cc442b22bd655790d97e4bcbdacb6c2", "is_reserved": 0}, {"is_disabled": 0, "fusion_lon": 0.0, "fusion_lat": 0.0, "lat": 38.91481016666667, "type": "electric_scooter", "lon": -77.03468483333333, "bike_id": "1ab0d345c2c3c9c1a587976fd0207e0a", "rental_uris": {"android": "https://dc.lft.to/lastmile_qr_scan", "ios": "https://dc.lft.to/lastmile_qr_scan"}, "name": "1ab0d345c2c3c9c1a587976fd0207e0a", "is_reserved": 0}, {"is_disabled": 0, "fusion_lon": 0.0, "fusion_lat": 0.0, "lat": 39.0884285, "type": "electric_bike", "lon": -77.17803233333333, "bike_id": "8a69ef9e1453c35c40cd983522ec0dce", "rental_uris": {"android": "https://dc.lft.to/lastmile_qr_scan", "ios": "https://dc.lft.to/lastmile_qr_scan"}, "name": "8a69ef9e1453c35c40cd983522ec0dce", "is_reserved": 0}, {"is_disabled": 0, "fusion_lon": 0.0, "fusion_lat": 0.0, "lat": 38.89205966666667, "type": "electric_scooter", "lon": -76.988069, "bike_id": "785db83a81319693598015ce414a165c", "rental_uris": {"android": "https://dc.lft.to/lastmile_qr_scan", "ios": "https://dc.lft.to/lastmile_qr_scan"}, "name": "785db83a81319693598015ce414a165c", "is_reserved": 0}, {"is_disabled": 0, "fusion_lon": 0.0, "fusion_lat": 0.0, "lat": 38.92278983333333, "type": "electric_scooter", "lon": -77.02976183333334, "bike_id": "957ea9d2df7165a44253052643dd6184", "rental_uris": {"android": "https://dc.lft.to/lastmile_qr_scan", "ios": "https://dc.lft.to/lastmile_qr_scan"}, "name": "957ea9d2df7165a44253052643dd6184", "is_reserved": 0}, {"is_disabled": 0, "fusion_lon": 0.0, "fusion_lat": 0.0, "lat": 38.923879166666666, "type": "electric_scooter", "lon": -77.040783, "bike_id": "5ae5983c856fd27c7b63918beda1cebb", "rental_uris": {"android": "https://dc.lft.to/lastmile_qr_scan", "ios": "https://dc.lft.to/lastmile_qr_scan"}, "name": "5ae5983c856fd27c7b63918beda1cebb", "is_reserved": 0}, {"is_disabled": 0, "fusion_lon": 0.0, "fusion_lat": 0.0, "lat": 38.859911, "type": "electric_bike", "lon": -76.9705625, "bike_id": "682242469db48e59b68e49bc56bc2907", "rental_uris": {"android": "https://dc.lft.to/lastmile_qr_scan", "ios": "https://dc.lft.to/lastmile_qr_scan"}, "name": "682242469db48e59b68e49bc56bc2907", "is_reserved": 0}, {"is_disabled": 0, "fusion_lon": 0.0, "fusion_lat": 0.0, "lat": 38.8826835, "type": "electric_scooter", "lon": -77.016327, "bike_id": "ed45c954cac0d0170e39a2dd0c69e76c", "rental_uris": {"android": "https://dc.lft.to/lastmile_qr_scan", "ios": "https://dc.lft.to/lastmile_qr_scan"}, "name": "ed45c954cac0d0170e39a2dd0c69e76c", "is_reserved": 0}, {"is_disabled": 0, "fusion_lon": 0.0, "fusion_lat": 0.0, "lat": 38.885957, "type": "electric_scooter", "lon": -77.00587166666666, "bike_id": "aa584a73ed1a4a2187d25156838b228b", "rental_uris": {"android": "https://dc.lft.to/lastmile_qr_scan", "ios": "https://dc.lft.to/lastmile_qr_scan"}, "name": "aa584a73ed1a4a2187d25156838b228b", "is_reserved": 0}, {"is_disabled": 0, "fusion_lon": 0.0, "fusion_lat": 0.0, "lat": 38.99451916666666, "type": "electric_bike", "lon": -76.90818216666666, "bike_id": "ba27b96510e1418107e7c88e54807d9f", "rental_uris": {"android": "https://dc.lft.to/lastmile_qr_scan", "ios": "https://dc.lft.to/lastmile_qr_scan"}, "name": "ba27b96510e1418107e7c88e54807d9f", "is_reserved": 0}, {"is_disabled": 0, "fusion_lon": 0.0, "fusion_lat": 0.0, "lat": 38.914669833333335, "type": "electric_scooter", "lon": -77.0279715, "bike_id": "93396e6d72c98b3eb9c542af18a3a982", "rental_uris": {"android": "https://dc.lft.to/lastmile_qr_scan", "ios": "https://dc.lft.to/lastmile_qr_scan"}, "name": "93396e6d72c98b3eb9c542af18a3a982", "is_reserved": 0}, {"is_disabled": 0, "fusion_lon": 0.0, "fusion_lat": 0.0, "lat": 38.901334, "type": "electric_scooter", "lon": -76.95168916666667, "bike_id": "579ea0371924202efb31ddd78ea4e953", "rental_uris": {"android": "https://dc.lft.to/lastmile_qr_scan", "ios": "https://dc.lft.to/lastmile_qr_scan"}, "name": "579ea0371924202efb31ddd78ea4e953", "is_reserved": 0}, {"is_disabled": 0, "fusion_lon": 0.0, "fusion_lat": 0.0, "lat": 38.901976833333336, "type": "electric_scooter", "lon": -77.024102, "bike_id": "9c68c367d42a824f35a3e2dfc3b30891", "rental_uris": {"android": "https://dc.lft.to/lastmile_qr_scan", "ios": "https://dc.lft.to/lastmile_qr_scan"}, "name": "9c68c367d42a824f35a3e2dfc3b30891", "is_reserved": 0}, {"is_disabled": 0, "fusion_lon": 0.0, "fusion_lat": 0.0, "lat": 38.880130666666666, "type": "electric_bike", "lon": -76.91592483333334, "bike_id": "b5ef1f9751d87589f78a4992767dd31c", "rental_uris": {"android": "https://dc.lft.to/lastmile_qr_scan", "ios": "https://dc.lft.to/lastmile_qr_scan"}, "name": "b5ef1f9751d87589f78a4992767dd31c", "is_reserved": 0}, {"is_disabled": 0, "fusion_lon": 0.0, "fusion_lat": 0.0, "lat": 38.868905833333336, "type": "electric_scooter", "lon": -76.98314483333333, "bike_id": "174e2695cbc837cebd6f97ce45d5866c", "rental_uris": {"android": "https://dc.lft.to/lastmile_qr_scan", "ios": "https://dc.lft.to/lastmile_qr_scan"}, "name": "174e2695cbc837cebd6f97ce45d5866c", "is_reserved": 0}, {"is_disabled": 0, "fusion_lon": 0.0, "fusion_lat": 0.0, "lat": 38.926718666666666, "type": "electric_scooter", "lon": -77.03216666666667, "bike_id": "45f76f2b68b08734adf6d81ddbaefb9a", "rental_uris": {"android": "https://dc.lft.to/lastmile_qr_scan", "ios": "https://dc.lft.to/lastmile_qr_scan"}, "name": "45f76f2b68b08734adf6d81ddbaefb9a", "is_reserved": 0}, {"is_disabled": 0, "fusion_lon": 0.0, "fusion_lat": 0.0, "lat": 38.86355566666667, "type": "electric_scooter", "lon": -76.990652, "bike_id": "292d56260b6e810c5a4b4878982095b7", "rental_uris": {"android": "https://dc.lft.to/lastmile_qr_scan", "ios": "https://dc.lft.to/lastmile_qr_scan"}, "name": "292d56260b6e810c5a4b4878982095b7", "is_reserved": 0}, {"is_disabled": 0, "fusion_lon": 0.0, "fusion_lat": 0.0, "lat": 38.94008983333333, "type": "electric_scooter", "lon": -77.06044083333333, "bike_id": "9581a4d3058aeceb8461145d155c85cc", "rental_uris": {"android": "https://dc.lft.to/lastmile_qr_scan", "ios": "https://dc.lft.to/lastmile_qr_scan"}, "name": "9581a4d3058aeceb8461145d155c85cc", "is_reserved": 0}, {"is_disabled": 0, "fusion_lon": 0.0, "fusion_lat": 0.0, "lat": 38.86561183333333, "type": "electric_bike", "lon": -76.97317266666667, "bike_id": "27ed9ac52c1b2aeaca5de7f5b48917ef", "rental_uris": {"android": "https://dc.lft.to/lastmile_qr_scan", "ios": "https://dc.lft.to/lastmile_qr_scan"}, "name": "27ed9ac52c1b2aeaca5de7f5b48917ef", "is_reserved": 0}, {"is_disabled": 0, "fusion_lon": 0.0, "fusion_lat": 0.0, "lat": 38.94493766666667, "type": "electric_bike", "lon": -76.986625, "bike_id": "a9b0141bf60b6a2bfadd507be899e967", "rental_uris": {"android": "https://dc.lft.to/lastmile_qr_scan", "ios": "https://dc.lft.to/lastmile_qr_scan"}, "name": "a9b0141bf60b6a2bfadd507be899e967", "is_reserved": 0}, {"is_disabled": 0, "fusion_lon": 0.0, "fusion_lat": 0.0, "lat": 38.92633033333333, "type": "electric_scooter", "lon": -77.038674, "bike_id": "ac38124ca54f1f877acb27b37d82dc26", "rental_uris": {"android": "https://dc.lft.to/lastmile_qr_scan", "ios": "https://dc.lft.to/lastmile_qr_scan"}, "name": "ac38124ca54f1f877acb27b37d82dc26", "is_reserved": 0}, {"is_disabled": 0, "fusion_lon": 0.0, "fusion_lat": 0.0, "lat": 38.89563066666667, "type": "electric_scooter", "lon": -77.02311916666666, "bike_id": "6650ad0cda4bf54772e111dfed187339", "rental_uris": {"android": "https://dc.lft.to/lastmile_qr_scan", "ios": "https://dc.lft.to/lastmile_qr_scan"}, "name": "6650ad0cda4bf54772e111dfed187339", "is_reserved": 0}, {"is_disabled": 0, "fusion_lon": 0.0, "fusion_lat": 0.0, "lat": 38.924261333333334, "type": "electric_scooter", "lon": -77.04484983333333, "bike_id": "0272d644f1daaee8f7a774234eca518c", "rental_uris": {"android": "https://dc.lft.to/lastmile_qr_scan", "ios": "https://dc.lft.to/lastmile_qr_scan"}, "name": "0272d644f1daaee8f7a774234eca518c", "is_reserved": 0}, {"is_disabled": 0, "fusion_lon": 0.0, "fusion_lat": 0.0, "lat": 38.894724, "type": "electric_scooter", "lon": -77.022844, "bike_id": "b0e3c58940dc2bd7a19af41bba3f7eb4", "rental_uris": {"android": "https://dc.lft.to/lastmile_qr_scan", "ios": "https://dc.lft.to/lastmile_qr_scan"}, "name": "b0e3c58940dc2bd7a19af41bba3f7eb4", "is_reserved": 0}, {"is_disabled": 0, "fusion_lon": 0.0, "fusion_lat": 0.0, "lat": 38.911794, "type": "electric_scooter", "lon": -77.0269825, "bike_id": "e2624f0bedeefd4db233736df13e04aa", "rental_uris": {"android": "https://dc.lft.to/lastmile_qr_scan", "ios": "https://dc.lft.to/lastmile_qr_scan"}, "name": "e2624f0bedeefd4db233736df13e04aa", "is_reserved": 0}, {"is_disabled": 0, "fusion_lon": 0.0, "fusion_lat": 0.0, "lat": 38.935472833333336, "type": "electric_scooter", "lon": -77.058145, "bike_id": "244525ea32323f3673eca728d23ab61e", "rental_uris": {"android": "https://dc.lft.to/lastmile_qr_scan", "ios": "https://dc.lft.to/lastmile_qr_scan"}, "name": "244525ea32323f3673eca728d23ab61e", "is_reserved": 0}, {"is_disabled": 0, "fusion_lon": 0.0, "fusion_lat": 0.0, "lat": 38.932423, "type": "electric_scooter", "lon": -77.03278883333333, "bike_id": "8ba495cc8124eb61846fe40d249c4406", "rental_uris": {"android": "https://dc.lft.to/lastmile_qr_scan", "ios": "https://dc.lft.to/lastmile_qr_scan"}, "name": "8ba495cc8124eb61846fe40d249c4406", "is_reserved": 0}, {"is_disabled": 0, "fusion_lon": 0.0, "fusion_lat": 0.0, "lat": 38.919238666666665, "type": "electric_scooter", "lon": -77.02503166666666, "bike_id": "7cae15b576de597f3c725a749468fa64", "rental_uris": {"android": "https://dc.lft.to/lastmile_qr_scan", "ios": "https://dc.lft.to/lastmile_qr_scan"}, "name": "7cae15b576de597f3c725a749468fa64", "is_reserved": 0}, {"is_disabled": 0, "fusion_lon": 0.0, "fusion_lat": 0.0, "lat": 38.928118833333336, "type": "electric_scooter", "lon": -77.023479, "bike_id": "316c421ac2dce7bf77709f2b8026462d", "rental_uris": {"android": "https://dc.lft.to/lastmile_qr_scan", "ios": "https://dc.lft.to/lastmile_qr_scan"}, "name": "316c421ac2dce7bf77709f2b8026462d", "is_reserved": 0}, {"is_disabled": 0, "fusion_lon": 0.0, "fusion_lat": 0.0, "lat": 38.89986833333333, "type": "electric_scooter", "lon": -76.99741666666667, "bike_id": "a5345c651e199defeed71a2e89e09de6", "rental_uris": {"android": "https://dc.lft.to/lastmile_qr_scan", "ios": "https://dc.lft.to/lastmile_qr_scan"}, "name": "a5345c651e199defeed71a2e89e09de6", "is_reserved": 0}, {"is_disabled": 0, "fusion_lon": 0.0, "fusion_lat": 0.0, "lat": 38.9012805, "type": "electric_scooter", "lon": -77.00319216666666, "bike_id": "fe5b74caf597e113553c41a44341bcf1", "rental_uris": {"android": "https://dc.lft.to/lastmile_qr_scan", "ios": "https://dc.lft.to/lastmile_qr_scan"}, "name": "fe5b74caf597e113553c41a44341bcf1", "is_reserved": 0}, {"is_disabled": 0, "fusion_lon": 0.0, "fusion_lat": 0.0, "lat": 38.87677083333333, "type": "electric_bike", "lon": -77.01444316666667, "bike_id": "ce7545fd84e72ad2044381493aa09d26", "rental_uris": {"android": "https://dc.lft.to/lastmile_qr_scan", "ios": "https://dc.lft.to/lastmile_qr_scan"}, "name": "ce7545fd84e72ad2044381493aa09d26", "is_reserved": 0}, {"is_disabled": 0, "fusion_lon": 0.0, "fusion_lat": 0.0, "lat": 38.898243, "type": "electric_scooter", "lon": -77.02909183333334, "bike_id": "177e4b8c36de29b93ea9345326e61575", "rental_uris": {"android": "https://dc.lft.to/lastmile_qr_scan", "ios": "https://dc.lft.to/lastmile_qr_scan"}, "name": "177e4b8c36de29b93ea9345326e61575", "is_reserved": 0}, {"is_disabled": 0, "fusion_lon": 0.0, "fusion_lat": 0.0, "lat": 38.904621, "type": "electric_scooter", "lon": -77.048653, "bike_id": "8062b89ce6172e7d1144f6c13d325a6c", "rental_uris": {"android": "https://dc.lft.to/lastmile_qr_scan", "ios": "https://dc.lft.to/lastmile_qr_scan"}, "name": "8062b89ce6172e7d1144f6c13d325a6c", "is_reserved": 0}, {"is_disabled": 0, "fusion_lon": 0.0, "fusion_lat": 0.0, "lat": 38.912197666666664, "type": "electric_scooter", "lon": -77.038371, "bike_id": "eed82b5c282a39901ee6a3b6364eaaf9", "rental_uris": {"android": "https://dc.lft.to/lastmile_qr_scan", "ios": "https://dc.lft.to/lastmile_qr_scan"}, "name": "eed82b5c282a39901ee6a3b6364eaaf9", "is_reserved": 0}, {"is_disabled": 0, "fusion_lon": 0.0, "fusion_lat": 0.0, "lat": 39.058094833333335, "type": "electric_bike", "lon": -77.126256, "bike_id": "c4d863168d397859e917e2803f0be377", "rental_uris": {"android": "https://dc.lft.to/lastmile_qr_scan", "ios": "https://dc.lft.to/lastmile_qr_scan"}, "name": "c4d863168d397859e917e2803f0be377", "is_reserved": 0}, {"is_disabled": 0, "fusion_lon": 0.0, "fusion_lat": 0.0, "lat": 38.941737333333336, "type": "electric_bike", "lon": -77.0018175, "bike_id": "c14a25bf691d6794dda2fbdf0dd12074", "rental_uris": {"android": "https://dc.lft.to/lastmile_qr_scan", "ios": "https://dc.lft.to/lastmile_qr_scan"}, "name": "c14a25bf691d6794dda2fbdf0dd12074", "is_reserved": 0}, {"is_disabled": 0, "fusion_lon": 0.0, "fusion_lat": 0.0, "lat": 38.90377383333333, "type": "electric_scooter", "lon": -77.025861, "bike_id": "57027e03980f5d93b833178b4565ae13", "rental_uris": {"android": "https://dc.lft.to/lastmile_qr_scan", "ios": "https://dc.lft.to/lastmile_qr_scan"}, "name": "57027e03980f5d93b833178b4565ae13", "is_reserved": 0}, {"is_disabled": 0, "fusion_lon": 0.0, "fusion_lat": 0.0, "lat": 38.91100316666667, "type": "electric_scooter", "lon": -77.03185766666667, "bike_id": "ebaf8e5165480a827ea283e3f3895aa7", "rental_uris": {"android": "https://dc.lft.to/lastmile_qr_scan", "ios": "https://dc.lft.to/lastmile_qr_scan"}, "name": "ebaf8e5165480a827ea283e3f3895aa7", "is_reserved": 0}, {"is_disabled": 0, "fusion_lon": 0.0, "fusion_lat": 0.0, "lat": 38.929699, "type": "electric_scooter", "lon": -77.0053355, "bike_id": "f0efcffd4cd90eade0cd08859ef4aaa9", "rental_uris": {"android": "https://dc.lft.to/lastmile_qr_scan", "ios": "https://dc.lft.to/lastmile_qr_scan"}, "name": "f0efcffd4cd90eade0cd08859ef4aaa9", "is_reserved": 0}, {"is_disabled": 0, "fusion_lon": 0.0, "fusion_lat": 0.0, "lat": 38.9132225, "type": "electric_scooter", "lon": -77.03242783333333, "bike_id": "d2e4f108ebbd603cd05591aae310df55", "rental_uris": {"android": "https://dc.lft.to/lastmile_qr_scan", "ios": "https://dc.lft.to/lastmile_qr_scan"}, "name": "d2e4f108ebbd603cd05591aae310df55", "is_reserved": 0}, {"is_disabled": 0, "fusion_lon": 0.0, "fusion_lat": 0.0, "lat": 38.860375833333336, "type": "electric_bike", "lon": -77.05633133333333, "bike_id": "8a7feaa235d1e7a825e23e604c931c28", "rental_uris": {"android": "https://dc.lft.to/lastmile_qr_scan", "ios": "https://dc.lft.to/lastmile_qr_scan"}, "name": "8a7feaa235d1e7a825e23e604c931c28", "is_reserved": 0}, {"is_disabled": 0, "fusion_lon": 0.0, "fusion_lat": 0.0, "lat": 38.89189366666667, "type": "electric_scooter", "lon": -76.9883105, "bike_id": "57d76d72452de7933a73f99385985db9", "rental_uris": {"android": "https://dc.lft.to/lastmile_qr_scan", "ios": "https://dc.lft.to/lastmile_qr_scan"}, "name": "57d76d72452de7933a73f99385985db9", "is_reserved": 0}, {"is_disabled": 0, "fusion_lon": 0.0, "fusion_lat": 0.0, "lat": 38.93489316666667, "type": "electric_scooter", "lon": -77.02421816666667, "bike_id": "628ff9efd09014b2728e9dcbe2afb4b5", "rental_uris": {"android": "https://dc.lft.to/lastmile_qr_scan", "ios": "https://dc.lft.to/lastmile_qr_scan"}, "name": "628ff9efd09014b2728e9dcbe2afb4b5", "is_reserved": 0}, {"is_disabled": 0, "fusion_lon": 0.0, "fusion_lat": 0.0, "lat": 38.86780916666667, "type": "electric_bike", "lon": -77.01186033333333, "bike_id": "058745a1e6297e1a246cc50dca506f36", "rental_uris": {"android": "https://dc.lft.to/lastmile_qr_scan", "ios": "https://dc.lft.to/lastmile_qr_scan"}, "name": "058745a1e6297e1a246cc50dca506f36", "is_reserved": 0}, {"is_disabled": 0, "fusion_lon": 0.0, "fusion_lat": 0.0, "lat": 38.90200083333333, "type": "electric_scooter", "lon": -77.06118133333334, "bike_id": "5a2262804c7d7b50116f7d0191eaecd3", "rental_uris": {"android": "https://dc.lft.to/lastmile_qr_scan", "ios": "https://dc.lft.to/lastmile_qr_scan"}, "name": "5a2262804c7d7b50116f7d0191eaecd3", "is_reserved": 0}, {"is_disabled": 0, "fusion_lon": 0.0, "fusion_lat": 0.0, "lat": 38.901303666666664, "type": "electric_scooter", "lon": -77.04165616666667, "bike_id": "7942d671068c6bda968b0551913d1666", "rental_uris": {"android": "https://dc.lft.to/lastmile_qr_scan", "ios": "https://dc.lft.to/lastmile_qr_scan"}, "name": "7942d671068c6bda968b0551913d1666", "is_reserved": 0}, {"is_disabled": 0, "fusion_lon": 0.0, "fusion_lat": 0.0, "lat": 39.11517116666667, "type": "electric_bike", "lon": -77.19545316666667, "bike_id": "fd1427a8a6835d5cb31c4803b83e86d5", "rental_uris": {"android": "https://dc.lft.to/lastmile_qr_scan", "ios": "https://dc.lft.to/lastmile_qr_scan"}, "name": "fd1427a8a6835d5cb31c4803b83e86d5", "is_reserved": 0}, {"is_disabled": 0, "fusion_lon": 0.0, "fusion_lat": 0.0, "lat": 38.857164833333336, "type": "electric_bike", "lon": -76.98113066666667, "bike_id": "fea1f3e8db74d8a402f94cf4616f81ba", "rental_uris": {"android": "https://dc.lft.to/lastmile_qr_scan", "ios": "https://dc.lft.to/lastmile_qr_scan"}, "name": "fea1f3e8db74d8a402f94cf4616f81ba", "is_reserved": 0}, {"is_disabled": 0, "fusion_lon": 0.0, "fusion_lat": 0.0, "lat": 38.9304535, "type": "electric_scooter", "lon": -77.00415316666667, "bike_id": "2d2987cbe990a8f4b23a3572041d49b5", "rental_uris": {"android": "https://dc.lft.to/lastmile_qr_scan", "ios": "https://dc.lft.to/lastmile_qr_scan"}, "name": "2d2987cbe990a8f4b23a3572041d49b5", "is_reserved": 0}, {"is_disabled": 0, "fusion_lon": 0.0, "fusion_lat": 0.0, "lat": 38.9155865, "type": "electric_scooter", "lon": -77.0387305, "bike_id": "b802f461d15b8ba7067bc245d25a7b03", "rental_uris": {"android": "https://dc.lft.to/lastmile_qr_scan", "ios": "https://dc.lft.to/lastmile_qr_scan"}, "name": "b802f461d15b8ba7067bc245d25a7b03", "is_reserved": 0}, {"is_disabled": 0, "fusion_lon": 0.0, "fusion_lat": 0.0, "lat": 38.92861516666667, "type": "electric_scooter", "lon": -77.03428333333333, "bike_id": "50f275d4772609467bdab9bc64dc368d", "rental_uris": {"android": "https://dc.lft.to/lastmile_qr_scan", "ios": "https://dc.lft.to/lastmile_qr_scan"}, "name": "50f275d4772609467bdab9bc64dc368d", "is_reserved": 0}, {"is_disabled": 0, "fusion_lon": 0.0, "fusion_lat": 0.0, "lat": 39.052689666666666, "type": "electric_bike", "lon": -77.0438465, "bike_id": "fd05419700f6a5b65360e326a426eadb", "rental_uris": {"android": "https://dc.lft.to/lastmile_qr_scan", "ios": "https://dc.lft.to/lastmile_qr_scan"}, "name": "fd05419700f6a5b65360e326a426eadb", "is_reserved": 0}, {"is_disabled": 0, "fusion_lon": 0.0, "fusion_lat": 0.0, "lat": 38.92812833333333, "type": "electric_scooter", "lon": -77.023465, "bike_id": "f64797de3d2a483a86435a42662c5ad5", "rental_uris": {"android": "https://dc.lft.to/lastmile_qr_scan", "ios": "https://dc.lft.to/lastmile_qr_scan"}, "name": "f64797de3d2a483a86435a42662c5ad5", "is_reserved": 0}, {"is_disabled": 0, "fusion_lon": 0.0, "fusion_lat": 0.0, "lat": 38.9488785, "type": "electric_bike", "lon": -76.963748, "bike_id": "c6fd860eeebc0a33f7d1a1edf1c4dc26", "rental_uris": {"android": "https://dc.lft.to/lastmile_qr_scan", "ios": "https://dc.lft.to/lastmile_qr_scan"}, "name": "c6fd860eeebc0a33f7d1a1edf1c4dc26", "is_reserved": 0}, {"is_disabled": 0, "fusion_lon": 0.0, "fusion_lat": 0.0, "lat": 38.922306666666664, "type": "electric_scooter", "lon": -77.0434355, "bike_id": "29feb343d691a3c0fa7f79991e5d717f", "rental_uris": {"android": "https://dc.lft.to/lastmile_qr_scan", "ios": "https://dc.lft.to/lastmile_qr_scan"}, "name": "29feb343d691a3c0fa7f79991e5d717f", "is_reserved": 0}, {"is_disabled": 0, "fusion_lon": 0.0, "fusion_lat": 0.0, "lat": 38.93411833333333, "type": "electric_scooter", "lon": -77.01968083333334, "bike_id": "acced7f364a2b4661ba160db88b55b1d", "rental_uris": {"android": "https://dc.lft.to/lastmile_qr_scan", "ios": "https://dc.lft.to/lastmile_qr_scan"}, "name": "acced7f364a2b4661ba160db88b55b1d", "is_reserved": 0}, {"is_disabled": 0, "fusion_lon": 0.0, "fusion_lat": 0.0, "lat": 38.91702433333333, "type": "electric_scooter", "lon": -77.001173, "bike_id": "588dcd65141b4f7b4f92dea13e4c1fcb", "rental_uris": {"android": "https://dc.lft.to/lastmile_qr_scan", "ios": "https://dc.lft.to/lastmile_qr_scan"}, "name": "588dcd65141b4f7b4f92dea13e4c1fcb", "is_reserved": 0}, {"is_disabled": 0, "fusion_lon": 0.0, "fusion_lat": 0.0, "lat": 38.9170355, "type": "electric_bike", "lon": -77.09562716666667, "bike_id": "06ade9aa374b0034fa74822466b4f3fa", "rental_uris": {"android": "https://dc.lft.to/lastmile_qr_scan", "ios": "https://dc.lft.to/lastmile_qr_scan"}, "name": "06ade9aa374b0034fa74822466b4f3fa", "is_reserved": 0}, {"is_disabled": 0, "fusion_lon": 0.0, "fusion_lat": 0.0, "lat": 38.93363166666666, "type": "electric_scooter", "lon": -77.057454, "bike_id": "1fd671aa03321c6ad85ef22149652a69", "rental_uris": {"android": "https://dc.lft.to/lastmile_qr_scan", "ios": "https://dc.lft.to/lastmile_qr_scan"}, "name": "1fd671aa03321c6ad85ef22149652a69", "is_reserved": 0}, {"is_disabled": 0, "fusion_lon": 0.0, "fusion_lat": 0.0, "lat": 38.909719, "type": "electric_scooter", "lon": -77.03946066666667, "bike_id": "316bcd1d221d8b5d94b0e45ef7da3f01", "rental_uris": {"android": "https://dc.lft.to/lastmile_qr_scan", "ios": "https://dc.lft.to/lastmile_qr_scan"}, "name": "316bcd1d221d8b5d94b0e45ef7da3f01", "is_reserved": 0}, {"is_disabled": 0, "fusion_lon": 0.0, "fusion_lat": 0.0, "lat": 38.90932466666667, "type": "electric_scooter", "lon": -77.0320565, "bike_id": "57c6cecb68be14a0da5105991a08e397", "rental_uris": {"android": "https://dc.lft.to/lastmile_qr_scan", "ios": "https://dc.lft.to/lastmile_qr_scan"}, "name": "57c6cecb68be14a0da5105991a08e397", "is_reserved": 0}, {"is_disabled": 0, "fusion_lon": 0.0, "fusion_lat": 0.0, "lat": 38.900240333333336, "type": "electric_scooter", "lon": -77.03375583333333, "bike_id": "a302cfe3c179f2c9585bc97e75402fb9", "rental_uris": {"android": "https://dc.lft.to/lastmile_qr_scan", "ios": "https://dc.lft.to/lastmile_qr_scan"}, "name": "a302cfe3c179f2c9585bc97e75402fb9", "is_reserved": 0}, {"is_disabled": 0, "fusion_lon": 0.0, "fusion_lat": 0.0, "lat": 38.924207833333334, "type": "electric_scooter", "lon": -77.02012466666666, "bike_id": "3ada9b8ad6130289a61c87e6c92c4e30", "rental_uris": {"android": "https://dc.lft.to/lastmile_qr_scan", "ios": "https://dc.lft.to/lastmile_qr_scan"}, "name": "3ada9b8ad6130289a61c87e6c92c4e30", "is_reserved": 0}, {"is_disabled": 0, "fusion_lon": 0.0, "fusion_lat": 0.0, "lat": 38.91727183333333, "type": "electric_scooter", "lon": -77.0345695, "bike_id": "b1e81f26bba7ba18a2124bf0feee701c", "rental_uris": {"android": "https://dc.lft.to/lastmile_qr_scan", "ios": "https://dc.lft.to/lastmile_qr_scan"}, "name": "b1e81f26bba7ba18a2124bf0feee701c", "is_reserved": 0}, {"is_disabled": 0, "fusion_lon": 0.0, "fusion_lat": 0.0, "lat": 38.9211395, "type": "electric_scooter", "lon": -77.036623, "bike_id": "18df3cce5b7d3faa0a6839ab5449ce86", "rental_uris": {"android": "https://dc.lft.to/lastmile_qr_scan", "ios": "https://dc.lft.to/lastmile_qr_scan"}, "name": "18df3cce5b7d3faa0a6839ab5449ce86", "is_reserved": 0}, {"is_disabled": 0, "fusion_lon": 0.0, "fusion_lat": 0.0, "lat": 38.9243685, "type": "electric_bike", "lon": -76.907581, "bike_id": "d04eae7958fa942fd24582a00afbb881", "rental_uris": {"android": "https://dc.lft.to/lastmile_qr_scan", "ios": "https://dc.lft.to/lastmile_qr_scan"}, "name": "d04eae7958fa942fd24582a00afbb881", "is_reserved": 0}, {"is_disabled": 0, "fusion_lon": 0.0, "fusion_lat": 0.0, "lat": 38.907996833333335, "type": "electric_scooter", "lon": -77.001519, "bike_id": "1e94ae2f1c3dc2bde17795a218766aa8", "rental_uris": {"android": "https://dc.lft.to/lastmile_qr_scan", "ios": "https://dc.lft.to/lastmile_qr_scan"}, "name": "1e94ae2f1c3dc2bde17795a218766aa8", "is_reserved": 0}, {"is_disabled": 0, "fusion_lon": 0.0, "fusion_lat": 0.0, "lat": 38.9168305, "type": "electric_scooter", "lon": -77.04140366666667, "bike_id": "f2a9550105ce46458021e5a73d11a503", "rental_uris": {"android": "https://dc.lft.to/lastmile_qr_scan", "ios": "https://dc.lft.to/lastmile_qr_scan"}, "name": "f2a9550105ce46458021e5a73d11a503", "is_reserved": 0}, {"is_disabled": 0, "fusion_lon": 0.0, "fusion_lat": 0.0, "lat": 38.91968216666667, "type": "electric_scooter", "lon": -77.04153366666667, "bike_id": "cf6696a215d8b7c2c1c0c530661f5514", "rental_uris": {"android": "https://dc.lft.to/lastmile_qr_scan", "ios": "https://dc.lft.to/lastmile_qr_scan"}, "name": "cf6696a215d8b7c2c1c0c530661f5514", "is_reserved": 0}, {"is_disabled": 0, "fusion_lon": 0.0, "fusion_lat": 0.0, "lat": 38.919666166666666, "type": "electric_scooter", "lon": -77.04178733333333, "bike_id": "7da17d8e121c290d4646dc932b77382d", "rental_uris": {"android": "https://dc.lft.to/lastmile_qr_scan", "ios": "https://dc.lft.to/lastmile_qr_scan"}, "name": "7da17d8e121c290d4646dc932b77382d", "is_reserved": 0}, {"is_disabled": 0, "fusion_lon": 0.0, "fusion_lat": 0.0, "lat": 38.956130333333334, "type": "electric_scooter", "lon": -77.027622, "bike_id": "a0f407757c1da954d817c92b367cceb9", "rental_uris": {"android": "https://dc.lft.to/lastmile_qr_scan", "ios": "https://dc.lft.to/lastmile_qr_scan"}, "name": "a0f407757c1da954d817c92b367cceb9", "is_reserved": 0}, {"is_disabled": 0, "fusion_lon": 0.0, "fusion_lat": 0.0, "lat": 38.9069885, "type": "electric_scooter", "lon": -77.06306633333334, "bike_id": "b41597727c3263fcff741f9628ff7de2", "rental_uris": {"android": "https://dc.lft.to/lastmile_qr_scan", "ios": "https://dc.lft.to/lastmile_qr_scan"}, "name": "b41597727c3263fcff741f9628ff7de2", "is_reserved": 0}, {"is_disabled": 0, "fusion_lon": 0.0, "fusion_lat": 0.0, "lat": 38.890108, "type": "electric_scooter", "lon": -77.03322083333333, "bike_id": "fe04ddd0110bc5664c17383d542811d3", "rental_uris": {"android": "https://dc.lft.to/lastmile_qr_scan", "ios": "https://dc.lft.to/lastmile_qr_scan"}, "name": "fe04ddd0110bc5664c17383d542811d3", "is_reserved": 0}, {"is_disabled": 0, "fusion_lon": 0.0, "fusion_lat": 0.0, "lat": 38.889152833333334, "type": "electric_scooter", "lon": -76.98009466666667, "bike_id": "979ecc8acdb96bd7cecebdbae2b419a0", "rental_uris": {"android": "https://dc.lft.to/lastmile_qr_scan", "ios": "https://dc.lft.to/lastmile_qr_scan"}, "name": "979ecc8acdb96bd7cecebdbae2b419a0", "is_reserved": 0}, {"is_disabled": 0, "fusion_lon": 0.0, "fusion_lat": 0.0, "lat": 38.917111166666665, "type": "electric_scooter", "lon": -77.02618216666667, "bike_id": "e4f76aec989ecfd944626de372431594", "rental_uris": {"android": "https://dc.lft.to/lastmile_qr_scan", "ios": "https://dc.lft.to/lastmile_qr_scan"}, "name": "e4f76aec989ecfd944626de372431594", "is_reserved": 0}, {"is_disabled": 0, "fusion_lon": 0.0, "fusion_lat": 0.0, "lat": 38.98819683333333, "type": "electric_bike", "lon": -77.02660316666666, "bike_id": "af4f3cd630636930bcc2c2c48fccbb3b", "rental_uris": {"android": "https://dc.lft.to/lastmile_qr_scan", "ios": "https://dc.lft.to/lastmile_qr_scan"}, "name": "af4f3cd630636930bcc2c2c48fccbb3b", "is_reserved": 0}, {"is_disabled": 0, "fusion_lon": 0.0, "fusion_lat": 0.0, "lat": 38.89243866666666, "type": "electric_scooter", "lon": -77.04661533333334, "bike_id": "199be87414068d71a9e719abfe8df3ef", "rental_uris": {"android": "https://dc.lft.to/lastmile_qr_scan", "ios": "https://dc.lft.to/lastmile_qr_scan"}, "name": "199be87414068d71a9e719abfe8df3ef", "is_reserved": 0}, {"is_disabled": 0, "fusion_lon": 0.0, "fusion_lat": 0.0, "lat": 38.953134, "type": "electric_scooter", "lon": -77.03604833333333, "bike_id": "fc6cfbccd9cf96fa9424f25be85e135d", "rental_uris": {"android": "https://dc.lft.to/lastmile_qr_scan", "ios": "https://dc.lft.to/lastmile_qr_scan"}, "name": "fc6cfbccd9cf96fa9424f25be85e135d", "is_reserved": 0}, {"is_disabled": 0, "fusion_lon": 0.0, "fusion_lat": 0.0, "lat": 38.9066455, "type": "electric_scooter", "lon": -77.0417575, "bike_id": "7cfd815735293aad5e23e9a54a2d953e", "rental_uris": {"android": "https://dc.lft.to/lastmile_qr_scan", "ios": "https://dc.lft.to/lastmile_qr_scan"}, "name": "7cfd815735293aad5e23e9a54a2d953e", "is_reserved": 0}, {"is_disabled": 0, "fusion_lon": 0.0, "fusion_lat": 0.0, "lat": 38.934977, "type": "electric_bike", "lon": -77.07279416666667, "bike_id": "a83e9ac443fa4e94618a3031ea909a5d", "rental_uris": {"android": "https://dc.lft.to/lastmile_qr_scan", "ios": "https://dc.lft.to/lastmile_qr_scan"}, "name": "a83e9ac443fa4e94618a3031ea909a5d", "is_reserved": 0}, {"is_disabled": 0, "fusion_lon": 0.0, "fusion_lat": 0.0, "lat": 38.94984916666667, "type": "electric_scooter", "lon": -77.02701416666666, "bike_id": "5dc45a6d7c96e87cde00ff209bad8492", "rental_uris": {"android": "https://dc.lft.to/lastmile_qr_scan", "ios": "https://dc.lft.to/lastmile_qr_scan"}, "name": "5dc45a6d7c96e87cde00ff209bad8492", "is_reserved": 0}, {"is_disabled": 0, "fusion_lon": 0.0, "fusion_lat": 0.0, "lat": 38.8979, "type": "electric_scooter", "lon": -76.93050833333334, "bike_id": "81fb92f28673e224b54d11127b7db56a", "rental_uris": {"android": "https://dc.lft.to/lastmile_qr_scan", "ios": "https://dc.lft.to/lastmile_qr_scan"}, "name": "81fb92f28673e224b54d11127b7db56a", "is_reserved": 0}, {"is_disabled": 0, "fusion_lon": 0.0, "fusion_lat": 0.0, "lat": 38.92480116666667, "type": "electric_scooter", "lon": -77.027279, "bike_id": "747a80a4b455a82f5c8fbb8f651010da", "rental_uris": {"android": "https://dc.lft.to/lastmile_qr_scan", "ios": "https://dc.lft.to/lastmile_qr_scan"}, "name": "747a80a4b455a82f5c8fbb8f651010da", "is_reserved": 0}, {"is_disabled": 0, "fusion_lon": 0.0, "fusion_lat": 0.0, "lat": 38.831497, "type": "electric_bike", "lon": -76.99691716666666, "bike_id": "2406f6c61d6ed1ff78514d58948f631a", "rental_uris": {"android": "https://dc.lft.to/lastmile_qr_scan", "ios": "https://dc.lft.to/lastmile_qr_scan"}, "name": "2406f6c61d6ed1ff78514d58948f631a", "is_reserved": 0}, {"is_disabled": 0, "fusion_lon": 0.0, "fusion_lat": 0.0, "lat": 38.924121166666666, "type": "electric_scooter", "lon": -77.0354925, "bike_id": "237b1ec62a3e5888811bd1c2656bf86a", "rental_uris": {"android": "https://dc.lft.to/lastmile_qr_scan", "ios": "https://dc.lft.to/lastmile_qr_scan"}, "name": "237b1ec62a3e5888811bd1c2656bf86a", "is_reserved": 0}, {"is_disabled": 0, "fusion_lon": 0.0, "fusion_lat": 0.0, "lat": 38.905612, "type": "electric_scooter", "lon": -77.0062065, "bike_id": "21f87beef85e61b3c0494c1b0731d475", "rental_uris": {"android": "https://dc.lft.to/lastmile_qr_scan", "ios": "https://dc.lft.to/lastmile_qr_scan"}, "name": "21f87beef85e61b3c0494c1b0731d475", "is_reserved": 0}, {"is_disabled": 0, "fusion_lon": 0.0, "fusion_lat": 0.0, "lat": 38.88583716666667, "type": "electric_scooter", "lon": -77.012242, "bike_id": "818b46d42c9f8abdd92319ccb9547913", "rental_uris": {"android": "https://dc.lft.to/lastmile_qr_scan", "ios": "https://dc.lft.to/lastmile_qr_scan"}, "name": "818b46d42c9f8abdd92319ccb9547913", "is_reserved": 0}, {"is_disabled": 0, "fusion_lon": 0.0, "fusion_lat": 0.0, "lat": 38.923148, "type": "electric_scooter", "lon": -77.04208583333333, "bike_id": "374cb2e4ea65305ac4e7b22880da99a2", "rental_uris": {"android": "https://dc.lft.to/lastmile_qr_scan", "ios": "https://dc.lft.to/lastmile_qr_scan"}, "name": "374cb2e4ea65305ac4e7b22880da99a2", "is_reserved": 0}, {"is_disabled": 0, "fusion_lon": 0.0, "fusion_lat": 0.0, "lat": 38.898280666666665, "type": "electric_scooter", "lon": -77.03153833333333, "bike_id": "2ca4ba98ee1e058c72c873247d185f84", "rental_uris": {"android": "https://dc.lft.to/lastmile_qr_scan", "ios": "https://dc.lft.to/lastmile_qr_scan"}, "name": "2ca4ba98ee1e058c72c873247d185f84", "is_reserved": 0}, {"is_disabled": 0, "fusion_lon": 0.0, "fusion_lat": 0.0, "lat": 38.940828, "type": "electric_scooter", "lon": -77.06141716666667, "bike_id": "d39c5f644d65929f9ec09d6a5204d4da", "rental_uris": {"android": "https://dc.lft.to/lastmile_qr_scan", "ios": "https://dc.lft.to/lastmile_qr_scan"}, "name": "d39c5f644d65929f9ec09d6a5204d4da", "is_reserved": 0}, {"is_disabled": 0, "fusion_lon": 0.0, "fusion_lat": 0.0, "lat": 38.901198666666666, "type": "electric_scooter", "lon": -77.00319383333333, "bike_id": "79ba7d4433747c3808daad34615c6543", "rental_uris": {"android": "https://dc.lft.to/lastmile_qr_scan", "ios": "https://dc.lft.to/lastmile_qr_scan"}, "name": "79ba7d4433747c3808daad34615c6543", "is_reserved": 0}, {"is_disabled": 0, "fusion_lon": 0.0, "fusion_lat": 0.0, "lat": 38.91827683333333, "type": "electric_scooter", "lon": -77.03656016666666, "bike_id": "7a4e73b278f0b36da0dfb29107b03453", "rental_uris": {"android": "https://dc.lft.to/lastmile_qr_scan", "ios": "https://dc.lft.to/lastmile_qr_scan"}, "name": "7a4e73b278f0b36da0dfb29107b03453", "is_reserved": 0}, {"is_disabled": 0, "fusion_lon": 0.0, "fusion_lat": 0.0, "lat": 38.88987316666667, "type": "electric_scooter", "lon": -77.00339683333333, "bike_id": "f81f9fbd4ddb9ea38ed7c8746686f666", "rental_uris": {"android": "https://dc.lft.to/lastmile_qr_scan", "ios": "https://dc.lft.to/lastmile_qr_scan"}, "name": "f81f9fbd4ddb9ea38ed7c8746686f666", "is_reserved": 0}, {"is_disabled": 0, "fusion_lon": 0.0, "fusion_lat": 0.0, "lat": 38.896361166666665, "type": "electric_scooter", "lon": -77.02657383333333, "bike_id": "8d477a38514801db4929abfc53d351e9", "rental_uris": {"android": "https://dc.lft.to/lastmile_qr_scan", "ios": "https://dc.lft.to/lastmile_qr_scan"}, "name": "8d477a38514801db4929abfc53d351e9", "is_reserved": 0}, {"is_disabled": 0, "fusion_lon": 0.0, "fusion_lat": 0.0, "lat": 38.864622, "type": "electric_scooter", "lon": -76.99614516666666, "bike_id": "b4b87d0ddb893e0ec850c5add61bcf9e", "rental_uris": {"android": "https://dc.lft.to/lastmile_qr_scan", "ios": "https://dc.lft.to/lastmile_qr_scan"}, "name": "b4b87d0ddb893e0ec850c5add61bcf9e", "is_reserved": 0}, {"is_disabled": 0, "fusion_lon": 0.0, "fusion_lat": 0.0, "lat": 38.8952695, "type": "electric_scooter", "lon": -77.02838516666667, "bike_id": "9e0feb86fdb60903dc995fd36f180e95", "rental_uris": {"android": "https://dc.lft.to/lastmile_qr_scan", "ios": "https://dc.lft.to/lastmile_qr_scan"}, "name": "9e0feb86fdb60903dc995fd36f180e95", "is_reserved": 0}, {"is_disabled": 0, "fusion_lon": 0.0, "fusion_lat": 0.0, "lat": 38.88723533333334, "type": "electric_scooter", "lon": -76.99633016666667, "bike_id": "f7c086d8ae8e136c4efe1ddcf83e2772", "rental_uris": {"android": "https://dc.lft.to/lastmile_qr_scan", "ios": "https://dc.lft.to/lastmile_qr_scan"}, "name": "f7c086d8ae8e136c4efe1ddcf83e2772", "is_reserved": 0}, {"is_disabled": 0, "fusion_lon": 0.0, "fusion_lat": 0.0, "lat": 38.87778566666667, "type": "electric_scooter", "lon": -76.93098883333333, "bike_id": "76bd97337f3245ed49d3b2e3388ee9f0", "rental_uris": {"android": "https://dc.lft.to/lastmile_qr_scan", "ios": "https://dc.lft.to/lastmile_qr_scan"}, "name": "76bd97337f3245ed49d3b2e3388ee9f0", "is_reserved": 0}, {"is_disabled": 0, "fusion_lon": 0.0, "fusion_lat": 0.0, "lat": 38.9153385, "type": "electric_scooter", "lon": -77.03205983333334, "bike_id": "d0a54b783c8544aca5712884c5c47bae", "rental_uris": {"android": "https://dc.lft.to/lastmile_qr_scan", "ios": "https://dc.lft.to/lastmile_qr_scan"}, "name": "d0a54b783c8544aca5712884c5c47bae", "is_reserved": 0}, {"is_disabled": 0, "fusion_lon": 0.0, "fusion_lat": 0.0, "lat": 38.885102, "type": "electric_scooter", "lon": -76.99858216666667, "bike_id": "eb783963070384b722e6cddd60c850b4", "rental_uris": {"android": "https://dc.lft.to/lastmile_qr_scan", "ios": "https://dc.lft.to/lastmile_qr_scan"}, "name": "eb783963070384b722e6cddd60c850b4", "is_reserved": 0}, {"is_disabled": 0, "fusion_lon": 0.0, "fusion_lat": 0.0, "lat": 38.988324666666664, "type": "electric_bike", "lon": -76.98761883333333, "bike_id": "2e283a9e0d97a31b81708441069f97aa", "rental_uris": {"android": "https://dc.lft.to/lastmile_qr_scan", "ios": "https://dc.lft.to/lastmile_qr_scan"}, "name": "2e283a9e0d97a31b81708441069f97aa", "is_reserved": 0}, {"is_disabled": 0, "fusion_lon": 0.0, "fusion_lat": 0.0, "lat": 38.906626833333334, "type": "electric_scooter", "lon": -77.04191483333334, "bike_id": "2ac1876eee93668cbdf0e4ecd8b6d8d9", "rental_uris": {"android": "https://dc.lft.to/lastmile_qr_scan", "ios": "https://dc.lft.to/lastmile_qr_scan"}, "name": "2ac1876eee93668cbdf0e4ecd8b6d8d9", "is_reserved": 0}, {"is_disabled": 0, "fusion_lon": 0.0, "fusion_lat": 0.0, "lat": 38.9203375, "type": "electric_scooter", "lon": -77.02586833333334, "bike_id": "b8441734078e68d7a2169659798966f8", "rental_uris": {"android": "https://dc.lft.to/lastmile_qr_scan", "ios": "https://dc.lft.to/lastmile_qr_scan"}, "name": "b8441734078e68d7a2169659798966f8", "is_reserved": 0}, {"is_disabled": 0, "fusion_lon": 0.0, "fusion_lat": 0.0, "lat": 38.90769683333333, "type": "electric_scooter", "lon": -77.02705983333334, "bike_id": "a107f695ee565c5744dcb3b3f658c18d", "rental_uris": {"android": "https://dc.lft.to/lastmile_qr_scan", "ios": "https://dc.lft.to/lastmile_qr_scan"}, "name": "a107f695ee565c5744dcb3b3f658c18d", "is_reserved": 0}, {"is_disabled": 0, "fusion_lon": 0.0, "fusion_lat": 0.0, "lat": 38.86906316666666, "type": "electric_bike", "lon": -77.1318225, "bike_id": "a8ad848a9112838e336011bf45c51fc2", "rental_uris": {"android": "https://dc.lft.to/lastmile_qr_scan", "ios": "https://dc.lft.to/lastmile_qr_scan"}, "name": "a8ad848a9112838e336011bf45c51fc2", "is_reserved": 0}, {"is_disabled": 0, "fusion_lon": 0.0, "fusion_lat": 0.0, "lat": 38.910272, "type": "electric_scooter", "lon": -77.007576, "bike_id": "81317a17326a8bab430c4615cf7f0cdf", "rental_uris": {"android": "https://dc.lft.to/lastmile_qr_scan", "ios": "https://dc.lft.to/lastmile_qr_scan"}, "name": "81317a17326a8bab430c4615cf7f0cdf", "is_reserved": 0}, {"is_disabled": 0, "fusion_lon": 0.0, "fusion_lat": 0.0, "lat": 38.899083833333336, "type": "electric_scooter", "lon": -77.02946266666666, "bike_id": "9ce4f0be53bf10bcc8515216587bd46a", "rental_uris": {"android": "https://dc.lft.to/lastmile_qr_scan", "ios": "https://dc.lft.to/lastmile_qr_scan"}, "name": "9ce4f0be53bf10bcc8515216587bd46a", "is_reserved": 0}, {"is_disabled": 0, "fusion_lon": 0.0, "fusion_lat": 0.0, "lat": 38.947868666666665, "type": "electric_bike", "lon": -77.08065916666666, "bike_id": "e27b2b3954b0d3ae5927732bd12a0ace", "rental_uris": {"android": "https://dc.lft.to/lastmile_qr_scan", "ios": "https://dc.lft.to/lastmile_qr_scan"}, "name": "e27b2b3954b0d3ae5927732bd12a0ace", "is_reserved": 0}, {"is_disabled": 0, "fusion_lon": 0.0, "fusion_lat": 0.0, "lat": 38.919857666666665, "type": "electric_bike", "lon": -76.97311566666667, "bike_id": "774b96d01084def05bf18484085d551f", "rental_uris": {"android": "https://dc.lft.to/lastmile_qr_scan", "ios": "https://dc.lft.to/lastmile_qr_scan"}, "name": "774b96d01084def05bf18484085d551f", "is_reserved": 0}, {"is_disabled": 0, "fusion_lon": 0.0, "fusion_lat": 0.0, "lat": 38.898314, "type": "electric_scooter", "lon": -76.9463425, "bike_id": "9352481ce9454adfabd2aabe9b52b19b", "rental_uris": {"android": "https://dc.lft.to/lastmile_qr_scan", "ios": "https://dc.lft.to/lastmile_qr_scan"}, "name": "9352481ce9454adfabd2aabe9b52b19b", "is_reserved": 0}, {"is_disabled": 0, "fusion_lon": 0.0, "fusion_lat": 0.0, "lat": 38.90291216666667, "type": "electric_scooter", "lon": -77.033708, "bike_id": "44c6222a1cf7f8525d53e68d149ca499", "rental_uris": {"android": "https://dc.lft.to/lastmile_qr_scan", "ios": "https://dc.lft.to/lastmile_qr_scan"}, "name": "44c6222a1cf7f8525d53e68d149ca499", "is_reserved": 0}, {"is_disabled": 0, "fusion_lon": 0.0, "fusion_lat": 0.0, "lat": 38.895637666666666, "type": "electric_scooter", "lon": -77.0231785, "bike_id": "3c197866b7f1de2cdfb22297d7feed67", "rental_uris": {"android": "https://dc.lft.to/lastmile_qr_scan", "ios": "https://dc.lft.to/lastmile_qr_scan"}, "name": "3c197866b7f1de2cdfb22297d7feed67", "is_reserved": 0}, {"is_disabled": 0, "fusion_lon": 0.0, "fusion_lat": 0.0, "lat": 38.902476166666666, "type": "electric_scooter", "lon": -77.03438016666666, "bike_id": "d4b5a8aaf440f3bf779d626953e9cf5f", "rental_uris": {"android": "https://dc.lft.to/lastmile_qr_scan", "ios": "https://dc.lft.to/lastmile_qr_scan"}, "name": "d4b5a8aaf440f3bf779d626953e9cf5f", "is_reserved": 0}, {"is_disabled": 0, "fusion_lon": 0.0, "fusion_lat": 0.0, "lat": 38.88194333333333, "type": "electric_scooter", "lon": -77.01300366666666, "bike_id": "06dced5cc6fc5ce4a982401070c53b8b", "rental_uris": {"android": "https://dc.lft.to/lastmile_qr_scan", "ios": "https://dc.lft.to/lastmile_qr_scan"}, "name": "06dced5cc6fc5ce4a982401070c53b8b", "is_reserved": 0}, {"is_disabled": 0, "fusion_lon": 0.0, "fusion_lat": 0.0, "lat": 38.91588083333333, "type": "electric_bike", "lon": -76.97149033333334, "bike_id": "24703ac67e72e9147275907828456af6", "rental_uris": {"android": "https://dc.lft.to/lastmile_qr_scan", "ios": "https://dc.lft.to/lastmile_qr_scan"}, "name": "24703ac67e72e9147275907828456af6", "is_reserved": 0}, {"is_disabled": 0, "fusion_lon": 0.0, "fusion_lat": 0.0, "lat": 38.97537416666667, "type": "electric_bike", "lon": -76.9953245, "bike_id": "7aa9fc9d462112f5f346fbf6e6609154", "rental_uris": {"android": "https://dc.lft.to/lastmile_qr_scan", "ios": "https://dc.lft.to/lastmile_qr_scan"}, "name": "7aa9fc9d462112f5f346fbf6e6609154", "is_reserved": 0}, {"is_disabled": 0, "fusion_lon": 0.0, "fusion_lat": 0.0, "lat": 38.923317833333336, "type": "electric_scooter", "lon": -77.0431275, "bike_id": "2e6fef48690d67233c3efb951b616d3e", "rental_uris": {"android": "https://dc.lft.to/lastmile_qr_scan", "ios": "https://dc.lft.to/lastmile_qr_scan"}, "name": "2e6fef48690d67233c3efb951b616d3e", "is_reserved": 0}, {"is_disabled": 0, "fusion_lon": 0.0, "fusion_lat": 0.0, "lat": 38.917102666666665, "type": "electric_scooter", "lon": -77.02463383333334, "bike_id": "bb9dbbed7df74adc7afebf9785bf0ce1", "rental_uris": {"android": "https://dc.lft.to/lastmile_qr_scan", "ios": "https://dc.lft.to/lastmile_qr_scan"}, "name": "bb9dbbed7df74adc7afebf9785bf0ce1", "is_reserved": 0}, {"is_disabled": 0, "fusion_lon": 0.0, "fusion_lat": 0.0, "lat": 38.908259, "type": "electric_scooter", "lon": -76.99691166666666, "bike_id": "2b2d2860200ef4745b03d41951b2aadf", "rental_uris": {"android": "https://dc.lft.to/lastmile_qr_scan", "ios": "https://dc.lft.to/lastmile_qr_scan"}, "name": "2b2d2860200ef4745b03d41951b2aadf", "is_reserved": 0}, {"is_disabled": 0, "fusion_lon": 0.0, "fusion_lat": 0.0, "lat": 38.930035833333335, "type": "electric_scooter", "lon": -77.0221095, "bike_id": "2219ecd9005cb1f7d9e762e65f2dc2e7", "rental_uris": {"android": "https://dc.lft.to/lastmile_qr_scan", "ios": "https://dc.lft.to/lastmile_qr_scan"}, "name": "2219ecd9005cb1f7d9e762e65f2dc2e7", "is_reserved": 0}, {"is_disabled": 0, "fusion_lon": 0.0, "fusion_lat": 0.0, "lat": 38.911952, "type": "electric_scooter", "lon": -77.0363155, "bike_id": "49b66072ee77acdc885276bd7a0800d9", "rental_uris": {"android": "https://dc.lft.to/lastmile_qr_scan", "ios": "https://dc.lft.to/lastmile_qr_scan"}, "name": "49b66072ee77acdc885276bd7a0800d9", "is_reserved": 0}, {"is_disabled": 0, "fusion_lon": 0.0, "fusion_lat": 0.0, "lat": 38.89495633333333, "type": "electric_scooter", "lon": -76.94878733333333, "bike_id": "3ecba4c0e2655fdca02e629b9a6b62a8", "rental_uris": {"android": "https://dc.lft.to/lastmile_qr_scan", "ios": "https://dc.lft.to/lastmile_qr_scan"}, "name": "3ecba4c0e2655fdca02e629b9a6b62a8", "is_reserved": 0},