{"data": {"bikes": [{"fusion_lat": 0.0, "lon": -77.0174105, "is_reserved": 0, "bike_id": "edc3c1df59e8c5b9213b3e90a2a92d46", "fusion_lon": 0.0, "rental_uris": {"android": "https://dc.lft.to/lastmile_qr_scan", "ios": "https://dc.lft.to/lastmile_qr_scan"}, "name": "edc3c1df59e8c5b9213b3e90a2a92d46", "type": "electric_scooter", "lat": 38.902576833333335, "is_disabled": 0}, {"fusion_lat": 0.0, "lon": -77.03953316666667, "is_reserved": 0, "bike_id": "68398531f32b47d4c882e4dee57c4030", "fusion_lon": 0.0, "rental_uris": {"android": "https://dc.lft.to/lastmile_qr_scan", "ios": "https://dc.lft.to/lastmile_qr_scan"}, "name": "68398531f32b47d4c882e4dee57c4030", "type": "electric_scooter", "lat": 38.8924155, "is_disabled": 0}, {"fusion_lat": 0.0, "lon": -77.07973066666666, "is_reserved": 0, "bike_id": "229735d00b01515d54187875248a4e59", "fusion_lon": 0.0, "rental_uris": {"android": "https://dc.lft.to/lastmile_qr_scan", "ios": "https://dc.lft.to/lastmile_qr_scan"}, "name": "229735d00b01515d54187875248a4e59", "type": "electric_scooter", "lat": 38.925808833333335, "is_disabled": 0}, {"fusion_lat": 0.0, "lon": -77.00526483333333, "is_reserved": 0, "bike_id": "2e4cf35db53d97bbab55b8c836c3cd20", "fusion_lon": 0.0, "rental_uris": {"android": "https://dc.lft.to/lastmile_qr_scan", "ios": "https://dc.lft.to/lastmile_qr_scan"}, "name": "2e4cf35db53d97bbab55b8c836c3cd20", "type": "electric_scooter", "lat": 38.89680516666667, "is_disabled": 0}, {"fusion_lat": 0.0, "lon": -77.03642883333333, "is_reserved": 0, "bike_id": "773bfc0701af3c4e68298d6838c2290e", "fusion_lon": 0.0, "rental_uris": {"android": "https://dc.lft.to/lastmile_qr_scan", "ios": "https://dc.lft.to/lastmile_qr_scan"}, "name": "773bfc0701af3c4e68298d6838c2290e", "type": "electric_scooter", "lat": 38.922629, "is_disabled": 0}, {"fusion_lat": 0.0, "lon": -77.02088416666666, "is_reserved": 0, "bike_id": "bcfd91afb0259e09303e9a61c47d5cb5", "fusion_lon": 0.0, "rental_uris": {"android": "https://dc.lft.to/lastmile_qr_scan", "ios": "https://dc.lft.to/lastmile_qr_scan"}, "name": "bcfd91afb0259e09303e9a61c47d5cb5", "type": "electric_scooter", "lat": 38.911275, "is_disabled": 0}, {"fusion_lat": 0.0, "lon": -77.051522, "is_reserved": 0, "bike_id": "227b496b9f47150c283564d47ca2b6f2", "fusion_lon": 0.0, "rental_uris": {"android": "https://dc.lft.to/lastmile_qr_scan", "ios": "https://dc.lft.to/lastmile_qr_scan"}, "name": "227b496b9f47150c283564d47ca2b6f2", "type": "electric_scooter", "lat": 38.89949133333333, "is_disabled": 0}, {"fusion_lat": 0.0, "lon": -77.02090066666666, "is_reserved": 0, "bike_id": "1c52e956569550fd71e792365ab9ee35", "fusion_lon": 0.0, "rental_uris": {"android": "https://dc.lft.to/lastmile_qr_scan", "ios": "https://dc.lft.to/lastmile_qr_scan"}, "name": "1c52e956569550fd71e792365ab9ee35", "type": "electric_scooter", "lat": 38.88500883333333, "is_disabled": 0}, {"fusion_lat": 0.0, "lon": -77.0194875, "is_reserved": 0, "bike_id": "1373f65c023b914936168594c779c22f", "fusion_lon": 0.0, "rental_uris": {"android": "https://dc.lft.to/lastmile_qr_scan", "ios": "https://dc.lft.to/lastmile_qr_scan"}, "name": "1373f65c023b914936168594c779c22f", "type": "electric_bike", "lat": 38.924200666666664, "is_disabled": 0}, {"fusion_lat": 0.0, "lon": -76.92736183333334, "is_reserved": 0, "bike_id": "40558812606be95290f964954ad831fc", "fusion_lon": 0.0, "rental_uris": {"android": "https://dc.lft.to/lastmile_qr_scan", "ios": "https://dc.lft.to/lastmile_qr_scan"}, "name": "40558812606be95290f964954ad831fc", "type": "electric_scooter", "lat": 38.889642333333335, "is_disabled": 0}, {"fusion_lat": 0.0, "lon": -76.99508683333333, "is_reserved": 0, "bike_id": "6bca0934b34375abbb22dc9cf9ea87f3", "fusion_lon": 0.0, "rental_uris": {"android": "https://dc.lft.to/lastmile_qr_scan", "ios": "https://dc.lft.to/lastmile_qr_scan"}, "name": "6bca0934b34375abbb22dc9cf9ea87f3", "type": "electric_scooter", "lat": 38.88283666666667, "is_disabled": 0}, {"fusion_lat": 0.0, "lon": -77.01937283333334, "is_reserved": 0, "bike_id": "1344049a229181e5919d80e4d8f1874b", "fusion_lon": 0.0, "rental_uris": {"android": "https://dc.lft.to/lastmile_qr_scan", "ios": "https://dc.lft.to/lastmile_qr_scan"}, "name": "1344049a229181e5919d80e4d8f1874b", "type": "electric_scooter", "lat": 38.9470675, "is_disabled": 0}, {"fusion_lat": 0.0, "lon": -76.9337055, "is_reserved": 0, "bike_id": "2585c9cd8bab337603a337389ba340b6", "fusion_lon": 0.0, "rental_uris": {"android": "https://dc.lft.to/lastmile_qr_scan", "ios": "https://dc.lft.to/lastmile_qr_scan"}, "name": "2585c9cd8bab337603a337389ba340b6", "type": "electric_scooter", "lat": 38.899063, "is_disabled": 0}, {"fusion_lat": 0.0, "lon": -77.04253316666667, "is_reserved": 0, "bike_id": "f90fba806a435b6f25640d059f49ec85", "fusion_lon": 0.0, "rental_uris": {"android": "https://dc.lft.to/lastmile_qr_scan", "ios": "https://dc.lft.to/lastmile_qr_scan"}, "name": "f90fba806a435b6f25640d059f49ec85", "type": "electric_scooter", "lat": 38.925401666666666, "is_disabled": 0}, {"fusion_lat": 0.0, "lon": -77.05853833333333, "is_reserved": 0, "bike_id": "a24dad01186d4e76571b3cb4d562ee42", "fusion_lon": 0.0, "rental_uris": {"android": "https://dc.lft.to/lastmile_qr_scan", "ios": "https://dc.lft.to/lastmile_qr_scan"}, "name": "a24dad01186d4e76571b3cb4d562ee42", "type": "electric_scooter", "lat": 38.93585316666667, "is_disabled": 0}, {"fusion_lat": 0.0, "lon": -77.03665833333334, "is_reserved": 0, "bike_id": "76b8f733871c3f3e2e61d03d707f1089", "fusion_lon": 0.0, "rental_uris": {"android": "https://dc.lft.to/lastmile_qr_scan", "ios": "https://dc.lft.to/lastmile_qr_scan"}, "name": "76b8f733871c3f3e2e61d03d707f1089", "type": "electric_scooter", "lat": 38.90693, "is_disabled": 0}, {"fusion_lat": 0.0, "lon": -76.98287416666666, "is_reserved": 0, "bike_id": "a6aa21d135cde944809d8778c7e799bd", "fusion_lon": 0.0, "rental_uris": {"android": "https://dc.lft.to/lastmile_qr_scan", "ios": "https://dc.lft.to/lastmile_qr_scan"}, "name": "a6aa21d135cde944809d8778c7e799bd", "type": "electric_scooter", "lat": 38.9004415, "is_disabled": 0}, {"fusion_lat": 0.0, "lon": -77.04271466666667, "is_reserved": 0, "bike_id": "420e736b34a98a44895265f417dd54d6", "fusion_lon": 0.0, "rental_uris": {"android": "https://dc.lft.to/lastmile_qr_scan", "ios": "https://dc.lft.to/lastmile_qr_scan"}, "name": "420e736b34a98a44895265f417dd54d6", "type": "electric_scooter", "lat": 38.91341, "is_disabled": 0}, {"fusion_lat": 0.0, "lon": -76.93266516666667, "is_reserved": 0, "bike_id": "9474a37225eed7f854c7a4f69e3f2cae", "fusion_lon": 0.0, "rental_uris": {"android": "https://dc.lft.to/lastmile_qr_scan", "ios": "https://dc.lft.to/lastmile_qr_scan"}, "name": "9474a37225eed7f854c7a4f69e3f2cae", "type": "electric_scooter", "lat": 38.898939166666665, "is_disabled": 0}, {"fusion_lat": 0.0, "lon": -77.006224, "is_reserved": 0, "bike_id": "c47d76c88dc0657161cf79b5e61dbb99", "fusion_lon": 0.0, "rental_uris": {"android": "https://dc.lft.to/lastmile_qr_scan", "ios": "https://dc.lft.to/lastmile_qr_scan"}, "name": "c47d76c88dc0657161cf79b5e61dbb99", "type": "electric_scooter", "lat": 38.90854216666666, "is_disabled": 0}, {"fusion_lat": 0.0, "lon": -77.03220816666666, "is_reserved": 0, "bike_id": "b8f1cee19e9aad5994404fb5a4b384e7", "fusion_lon": 0.0, "rental_uris": {"android": "https://dc.lft.to/lastmile_qr_scan", "ios": "https://dc.lft.to/lastmile_qr_scan"}, "name": "b8f1cee19e9aad5994404fb5a4b384e7", "type": "electric_scooter", "lat": 38.892236833333335, "is_disabled": 0}, {"fusion_lat": 0.0, "lon": -77.03472066666667, "is_reserved": 0, "bike_id": "be495417bf34f63b0433caf132c1c002", "fusion_lon": 0.0, "rental_uris": {"android": "https://dc.lft.to/lastmile_qr_scan", "ios": "https://dc.lft.to/lastmile_qr_scan"}, "name": "be495417bf34f63b0433caf132c1c002", "type": "electric_scooter", "lat": 38.9254215, "is_disabled": 0}, {"fusion_lat": 0.0, "lon": -77.04243833333334, "is_reserved": 0, "bike_id": "637b710d6baca785f63c749aa726de86", "fusion_lon": 0.0, "rental_uris": {"android": "https://dc.lft.to/lastmile_qr_scan", "ios": "https://dc.lft.to/lastmile_qr_scan"}, "name": "637b710d6baca785f63c749aa726de86", "type": "electric_scooter", "lat": 38.9223765, "is_disabled": 0}, {"fusion_lat": 0.0, "lon": -77.044962, "is_reserved": 0, "bike_id": "a272de74abbd3de5e5f030c010d62596", "fusion_lon": 0.0, "rental_uris": {"android": "https://dc.lft.to/lastmile_qr_scan", "ios": "https://dc.lft.to/lastmile_qr_scan"}, "name": "a272de74abbd3de5e5f030c010d62596", "type": "electric_scooter", "lat": 38.90376916666666, "is_disabled": 0}, {"fusion_lat": 0.0, "lon": -77.04438316666666, "is_reserved": 0, "bike_id": "862f067db8938e829c2f2a45ec4c48d1", "fusion_lon": 0.0, "rental_uris": {"android": "https://dc.lft.to/lastmile_qr_scan", "ios": "https://dc.lft.to/lastmile_qr_scan"}, "name": "862f067db8938e829c2f2a45ec4c48d1", "type": "electric_scooter", "lat": 38.9187755, "is_disabled": 0}, {"fusion_lat": 0.0, "lon": -77.03425133333333, "is_reserved": 0, "bike_id": "5c0d23df47e421aafdd9dadb8b852df6", "fusion_lon": 0.0, "rental_uris": {"android": "https://dc.lft.to/lastmile_qr_scan", "ios": "https://dc.lft.to/lastmile_qr_scan"}, "name": "5c0d23df47e421aafdd9dadb8b852df6", "type": "electric_scooter", "lat": 38.90955266666667, "is_disabled": 0}, {"fusion_lat": 0.0, "lon": -77.0338885, "is_reserved": 0, "bike_id": "b3fa0b2375020e43674720013fdf2374", "fusion_lon": 0.0, "rental_uris": {"android": "https://dc.lft.to/lastmile_qr_scan", "ios": "https://dc.lft.to/lastmile_qr_scan"}, "name": "b3fa0b2375020e43674720013fdf2374", "type": "electric_scooter", "lat": 38.93881616666667, "is_disabled": 0}, {"fusion_lat": 0.0, "lon": -76.99782783333333, "is_reserved": 0, "bike_id": "c456616cd7a929eca31f1456378e1d06", "fusion_lon": 0.0, "rental_uris": {"android": "https://dc.lft.to/lastmile_qr_scan", "ios": "https://dc.lft.to/lastmile_qr_scan"}, "name": "c456616cd7a929eca31f1456378e1d06", "type": "electric_scooter", "lat": 38.844269, "is_disabled": 0}, {"fusion_lat": 0.0, "lon": -77.0384055, "is_reserved": 0, "bike_id": "d603565f2a2e6579173d605a8c0014eb", "fusion_lon": 0.0, "rental_uris": {"android": "https://dc.lft.to/lastmile_qr_scan", "ios": "https://dc.lft.to/lastmile_qr_scan"}, "name": "d603565f2a2e6579173d605a8c0014eb", "type": "electric_scooter", "lat": 38.91734816666666, "is_disabled": 0}, {"fusion_lat": 0.0, "lon": -77.04523, "is_reserved": 0, "bike_id": "286377d784e495fb351fbcf3a6873ee0", "fusion_lon": 0.0, "rental_uris": {"android": "https://dc.lft.to/lastmile_qr_scan", "ios": "https://dc.lft.to/lastmile_qr_scan"}, "name": "286377d784e495fb351fbcf3a6873ee0", "type": "electric_bike", "lat": 38.94192133333333, "is_disabled": 0}, {"fusion_lat": 0.0, "lon": -77.02137883333333, "is_reserved": 0, "bike_id": "52c6f331c7efc48f096771c167bfd977", "fusion_lon": 0.0, "rental_uris": {"android": "https://dc.lft.to/lastmile_qr_scan", "ios": "https://dc.lft.to/lastmile_qr_scan"}, "name": "52c6f331c7efc48f096771c167bfd977", "type": "electric_scooter", "lat": 38.924631, "is_disabled": 0}, {"fusion_lat": 0.0, "lon": -77.01729783333333, "is_reserved": 0, "bike_id": "d3fe08480d5e9ce6ab0b5fb4e1750d03", "fusion_lon": 0.0, "rental_uris": {"android": "https://dc.lft.to/lastmile_qr_scan", "ios": "https://dc.lft.to/lastmile_qr_scan"}, "name": "d3fe08480d5e9ce6ab0b5fb4e1750d03", "type": "electric_scooter", "lat": 38.88567883333333, "is_disabled": 0}, {"fusion_lat": 0.0, "lon": -77.046924, "is_reserved": 0, "bike_id": "2c7dcd0b7653ce6b58e702e2cd790539", "fusion_lon": 0.0, "rental_uris": {"android": "https://dc.lft.to/lastmile_qr_scan", "ios": "https://dc.lft.to/lastmile_qr_scan"}, "name": "2c7dcd0b7653ce6b58e702e2cd790539", "type": "electric_scooter", "lat": 38.91571666666667, "is_disabled": 0}, {"fusion_lat": 0.0, "lon": -77.0433665, "is_reserved": 0, "bike_id": "9addc4163320197493f0794f1b77dfd4", "fusion_lon": 0.0, "rental_uris": {"android": "https://dc.lft.to/lastmile_qr_scan", "ios": "https://dc.lft.to/lastmile_qr_scan"}, "name": "9addc4163320197493f0794f1b77dfd4", "type": "electric_scooter", "lat": 38.904169, "is_disabled": 0}, {"fusion_lat": 0.0, "lon": -76.93748816666667, "is_reserved": 0, "bike_id": "835f6763cb26759120f32df4fddd2766", "fusion_lon": 0.0, "rental_uris": {"android": "https://dc.lft.to/lastmile_qr_scan", "ios": "https://dc.lft.to/lastmile_qr_scan"}, "name": "835f6763cb26759120f32df4fddd2766", "type": "electric_scooter", "lat": 38.890461333333334, "is_disabled": 0}, {"fusion_lat": 0.0, "lon": -77.00425983333334, "is_reserved": 0, "bike_id": "bd23c59bb3ecd038c6b8fa3244d03e79", "fusion_lon": 0.0, "rental_uris": {"android": "https://dc.lft.to/lastmile_qr_scan", "ios": "https://dc.lft.to/lastmile_qr_scan"}, "name": "bd23c59bb3ecd038c6b8fa3244d03e79", "type": "electric_scooter", "lat": 38.90575116666667, "is_disabled": 0}, {"fusion_lat": 0.0, "lon": -77.01152666666667, "is_reserved": 0, "bike_id": "791bc0be9a26cf7525fa081c7afb1713", "fusion_lon": 0.0, "rental_uris": {"android": "https://dc.lft.to/lastmile_qr_scan", "ios": "https://dc.lft.to/lastmile_qr_scan"}, "name": "791bc0be9a26cf7525fa081c7afb1713", "type": "electric_scooter", "lat": 38.91108, "is_disabled": 0}, {"fusion_lat": 0.0, "lon": -77.0294065, "is_reserved": 0, "bike_id": "895f96bd06958a4cf41b3c603e9fdcf4", "fusion_lon": 0.0, "rental_uris": {"android": "https://dc.lft.to/lastmile_qr_scan", "ios": "https://dc.lft.to/lastmile_qr_scan"}, "name": "895f96bd06958a4cf41b3c603e9fdcf4", "type": "electric_scooter", "lat": 38.920776833333335, "is_disabled": 0}, {"fusion_lat": 0.0, "lon": -77.05022666666666, "is_reserved": 0, "bike_id": "d066bac9b9f47b40adeae867ae062be0", "fusion_lon": 0.0, "rental_uris": {"android": "https://dc.lft.to/lastmile_qr_scan", "ios": "https://dc.lft.to/lastmile_qr_scan"}, "name": "d066bac9b9f47b40adeae867ae062be0", "type": "electric_scooter", "lat": 38.92353683333333, "is_disabled": 0}, {"fusion_lat": 0.0, "lon": -77.04712333333333, "is_reserved": 0, "bike_id": "35324f6c9a0d6078bcd7e99410be343a", "fusion_lon": 0.0, "rental_uris": {"android": "https://dc.lft.to/lastmile_qr_scan", "ios": "https://dc.lft.to/lastmile_qr_scan"}, "name": "35324f6c9a0d6078bcd7e99410be343a", "type": "electric_scooter", "lat": 38.9219895, "is_disabled": 0}, {"fusion_lat": 0.0, "lon": -77.00333466666666, "is_reserved": 0, "bike_id": "f1481fc16648fc18e91ec66c3a2f19e7", "fusion_lon": 0.0, "rental_uris": {"android": "https://dc.lft.to/lastmile_qr_scan", "ios": "https://dc.lft.to/lastmile_qr_scan"}, "name": "f1481fc16648fc18e91ec66c3a2f19e7", "type": "electric_scooter", "lat": 38.8898665, "is_disabled": 0}, {"fusion_lat": 0.0, "lon": -76.94807733333333, "is_reserved": 0, "bike_id": "c24b75b611bce0b59dc3389c45d75f33", "fusion_lon": 0.0, "rental_uris": {"android": "https://dc.lft.to/lastmile_qr_scan", "ios": "https://dc.lft.to/lastmile_qr_scan"}, "name": "c24b75b611bce0b59dc3389c45d75f33", "type": "electric_bike", "lat": 38.861938333333335, "is_disabled": 0}, {"fusion_lat": 0.0, "lon": -76.99521733333333, "is_reserved": 0, "bike_id": "d38959874213ce0b14bdf8a73f8db9b4", "fusion_lon": 0.0, "rental_uris": {"android": "https://dc.lft.to/lastmile_qr_scan", "ios": "https://dc.lft.to/lastmile_qr_scan"}, "name": "d38959874213ce0b14bdf8a73f8db9b4", "type": "electric_scooter", "lat": 38.896033, "is_disabled": 0}, {"fusion_lat": 0.0, "lon": -77.029783, "is_reserved": 0, "bike_id": "87da38aff7b9b1c22b1ac60dc5c32479", "fusion_lon": 0.0, "rental_uris": {"android": "https://dc.lft.to/lastmile_qr_scan", "ios": "https://dc.lft.to/lastmile_qr_scan"}, "name": "87da38aff7b9b1c22b1ac60dc5c32479", "type": "electric_scooter", "lat": 38.907401, "is_disabled": 0}, {"fusion_lat": 0.0, "lon": -77.02210283333334, "is_reserved": 0, "bike_id": "5ce1aab08ebd62a3e5dfdc49108b8dba", "fusion_lon": 0.0, "rental_uris": {"android": "https://dc.lft.to/lastmile_qr_scan", "ios": "https://dc.lft.to/lastmile_qr_scan"}, "name": "5ce1aab08ebd62a3e5dfdc49108b8dba", "type": "electric_scooter", "lat": 38.895066, "is_disabled": 0}, {"fusion_lat": 0.0, "lon": -77.03745216666667, "is_reserved": 0, "bike_id": "94cb050c11676e0050db9718152abafc", "fusion_lon": 0.0, "rental_uris": {"android": "https://dc.lft.to/lastmile_qr_scan", "ios": "https://dc.lft.to/lastmile_qr_scan"}, "name": "94cb050c11676e0050db9718152abafc", "type": "electric_scooter", "lat": 38.922068833333334, "is_disabled": 0}, {"fusion_lat": 0.0, "lon": -77.02450483333334, "is_reserved": 0, "bike_id": "0430fa16ad8de4fb305fc48875c9117f", "fusion_lon": 0.0, "rental_uris": {"android": "https://dc.lft.to/lastmile_qr_scan", "ios": "https://dc.lft.to/lastmile_qr_scan"}, "name": "0430fa16ad8de4fb305fc48875c9117f", "type": "electric_scooter", "lat": 38.924048166666665, "is_disabled": 0}, {"fusion_lat": 0.0, "lon": -76.997789, "is_reserved": 0, "bike_id": "74131fe1c48fc6f36952608734428a82", "fusion_lon": 0.0, "rental_uris": {"android": "https://dc.lft.to/lastmile_qr_scan", "ios": "https://dc.lft.to/lastmile_qr_scan"}, "name": "74131fe1c48fc6f36952608734428a82", "type": "electric_scooter", "lat": 38.844297833333336, "is_disabled": 0}, {"fusion_lat": 0.0, "lon": -76.98101983333333, "is_reserved": 0, "bike_id": "4dfac4397e1e8fd79b238e170686192f", "fusion_lon": 0.0, "rental_uris": {"android": "https://dc.lft.to/lastmile_qr_scan", "ios": "https://dc.lft.to/lastmile_qr_scan"}, "name": "4dfac4397e1e8fd79b238e170686192f", "type": "electric_scooter", "lat": 38.90391066666667, "is_disabled": 0}, {"fusion_lat": 0.0, "lon": -77.02693, "is_reserved": 0, "bike_id": "4fcaa3c05bcea46696424b2fe5967299", "fusion_lon": 0.0, "rental_uris": {"android": "https://dc.lft.to/lastmile_qr_scan", "ios": "https://dc.lft.to/lastmile_qr_scan"}, "name": "4fcaa3c05bcea46696424b2fe5967299", "type": "electric_scooter", "lat": 38.895665666666666, "is_disabled": 0}, {"fusion_lat": 0.0, "lon": -77.04148316666667, "is_reserved": 0, "bike_id": "8913bb478873632f433d9d73c298ef9b", "fusion_lon": 0.0, "rental_uris": {"android": "https://dc.lft.to/lastmile_qr_scan", "ios": "https://dc.lft.to/lastmile_qr_scan"}, "name": "8913bb478873632f433d9d73c298ef9b", "type": "electric_scooter", "lat": 38.89220683333333, "is_disabled": 0}, {"fusion_lat": 0.0, "lon": -76.99369733333333, "is_reserved": 0, "bike_id": "c8e8297aa054aac77941aaf6b8f7fc4f", "fusion_lon": 0.0, "rental_uris": {"android": "https://dc.lft.to/lastmile_qr_scan", "ios": "https://dc.lft.to/lastmile_qr_scan"}, "name": "c8e8297aa054aac77941aaf6b8f7fc4f", "type": "electric_scooter", "lat": 38.923751333333335, "is_disabled": 0}, {"fusion_lat": 0.0, "lon": -77.04458833333334, "is_reserved": 0, "bike_id": "abd45b1bf83bf09ea60c631b4300eb55", "fusion_lon": 0.0, "rental_uris": {"android": "https://dc.lft.to/lastmile_qr_scan", "ios": "https://dc.lft.to/lastmile_qr_scan"}, "name": "abd45b1bf83bf09ea60c631b4300eb55", "type": "electric_scooter", "lat": 38.90830883333334, "is_disabled": 0}, {"fusion_lat": 0.0, "lon": -77.00962233333334, "is_reserved": 0, "bike_id": "e252ebf6627e0defab467a706d1f3068", "fusion_lon": 0.0, "rental_uris": {"android": "https://dc.lft.to/lastmile_qr_scan", "ios": "https://dc.lft.to/lastmile_qr_scan"}, "name": "e252ebf6627e0defab467a706d1f3068", "type": "electric_scooter", "lat": 38.90783233333333, "is_disabled": 0}, {"fusion_lat": 0.0, "lon": -77.03934166666667, "is_reserved": 0, "bike_id": "b9df8e9633ac266215b3e75e25629c0e", "fusion_lon": 0.0, "rental_uris": {"android": "https://dc.lft.to/lastmile_qr_scan", "ios": "https://dc.lft.to/lastmile_qr_scan"}, "name": "b9df8e9633ac266215b3e75e25629c0e", "type": "electric_scooter", "lat": 38.924917666666666, "is_disabled": 0}, {"fusion_lat": 0.0, "lon": -77.02551466666667, "is_reserved": 0, "bike_id": "c062fbfb8d5c9cec819e2c632c718f0a", "fusion_lon": 0.0, "rental_uris": {"android": "https://dc.lft.to/lastmile_qr_scan", "ios": "https://dc.lft.to/lastmile_qr_scan"}, "name": "c062fbfb8d5c9cec819e2c632c718f0a", "type": "electric_scooter", "lat": 38.924719, "is_disabled": 0}, {"fusion_lat": 0.0, "lon": -76.99842283333334, "is_reserved": 0, "bike_id": "a08143f710c75bd1496fc1d47c63ce19", "fusion_lon": 0.0, "rental_uris": {"android": "https://dc.lft.to/lastmile_qr_scan", "ios": "https://dc.lft.to/lastmile_qr_scan"}, "name": "a08143f710c75bd1496fc1d47c63ce19", "type": "electric_scooter", "lat": 38.890806833333336, "is_disabled": 0}, {"fusion_lat": 0.0, "lon": -77.02304716666667, "is_reserved": 0, "bike_id": "95774281d92c64b0429a535caff11c33", "fusion_lon": 0.0, "rental_uris": {"android": "https://dc.lft.to/lastmile_qr_scan", "ios": "https://dc.lft.to/lastmile_qr_scan"}, "name": "95774281d92c64b0429a535caff11c33", "type": "electric_scooter", "lat": 38.918418333333335, "is_disabled": 0}, {"fusion_lat": 0.0, "lon": -76.98356766666667, "is_reserved": 0, "bike_id": "1b4c8af199d3a8ab0622222642bf7402", "fusion_lon": 0.0, "rental_uris": {"android": "https://dc.lft.to/lastmile_qr_scan", "ios": "https://dc.lft.to/lastmile_qr_scan"}, "name": "1b4c8af199d3a8ab0622222642bf7402", "type": "electric_scooter", "lat": 38.8874315, "is_disabled": 0}, {"fusion_lat": 0.0, "lon": -77.04657166666667, "is_reserved": 0, "bike_id": "f2bcf12353b54b797e951c1f71c4017d", "fusion_lon": 0.0, "rental_uris": {"android": "https://dc.lft.to/lastmile_qr_scan", "ios": "https://dc.lft.to/lastmile_qr_scan"}, "name": "f2bcf12353b54b797e951c1f71c4017d", "type": "electric_scooter", "lat": 38.913658, "is_disabled": 0}, {"fusion_lat": 0.0, "lon": -77.03444083333333, "is_reserved": 0, "bike_id": "c643f03723172905a416fd11d8326b97", "fusion_lon": 0.0, "rental_uris": {"android": "https://dc.lft.to/lastmile_qr_scan", "ios": "https://dc.lft.to/lastmile_qr_scan"}, "name": "c643f03723172905a416fd11d8326b97", "type": "electric_scooter", "lat": 38.9101275, "is_disabled": 0}, {"fusion_lat": 0.0, "lon": -76.975314, "is_reserved": 0, "bike_id": "0e36972a0d9b0fbe2509a319e65336bf", "fusion_lon": 0.0, "rental_uris": {"android": "https://dc.lft.to/lastmile_qr_scan", "ios": "https://dc.lft.to/lastmile_qr_scan"}, "name": "0e36972a0d9b0fbe2509a319e65336bf", "type": "electric_bike", "lat": 38.903308333333335, "is_disabled": 0}, {"fusion_lat": 0.0, "lon": -77.04349666666667, "is_reserved": 0, "bike_id": "010ea44c4a2b8beee94623cc20065958", "fusion_lon": 0.0, "rental_uris": {"android": "https://dc.lft.to/lastmile_qr_scan", "ios": "https://dc.lft.to/lastmile_qr_scan"}, "name": "010ea44c4a2b8beee94623cc20065958", "type": "electric_scooter", "lat": 38.9087825, "is_disabled": 0}, {"fusion_lat": 0.0, "lon": -76.95756216666666, "is_reserved": 0, "bike_id": "93fbd9738b0be9a17a1cbce53e84b121", "fusion_lon": 0.0, "rental_uris": {"android": "https://dc.lft.to/lastmile_qr_scan", "ios": "https://dc.lft.to/lastmile_qr_scan"}, "name": "93fbd9738b0be9a17a1cbce53e84b121", "type": "electric_scooter", "lat": 38.8842805, "is_disabled": 0}, {"fusion_lat": 0.0, "lon": -76.9827715, "is_reserved": 0, "bike_id": "657102277c5bc4c3afc27257ea4b004a", "fusion_lon": 0.0, "rental_uris": {"android": "https://dc.lft.to/lastmile_qr_scan", "ios": "https://dc.lft.to/lastmile_qr_scan"}, "name": "657102277c5bc4c3afc27257ea4b004a", "type": "electric_scooter", "lat": 38.885284, "is_disabled": 0}, {"fusion_lat": 0.0, "lon": -77.03694216666666, "is_reserved": 0, "bike_id": "29549a0a91772fd84bc0899f39891dd1", "fusion_lon": 0.0, "rental_uris": {"android": "https://dc.lft.to/lastmile_qr_scan", "ios": "https://dc.lft.to/lastmile_qr_scan"}, "name": "29549a0a91772fd84bc0899f39891dd1", "type": "electric_scooter", "lat": 38.91679216666667, "is_disabled": 0}, {"fusion_lat": 0.0, "lon": -77.056881, "is_reserved": 0, "bike_id": "f166e9734fd418c1a9544324826d783f", "fusion_lon": 0.0, "rental_uris": {"android": "https://dc.lft.to/lastmile_qr_scan", "ios": "https://dc.lft.to/lastmile_qr_scan"}, "name": "f166e9734fd418c1a9544324826d783f", "type": "electric_scooter", "lat": 38.90600883333333, "is_disabled": 0}, {"fusion_lat": 0.0, "lon": -77.02616266666666, "is_reserved": 0, "bike_id": "0f7b1d3eb1af1af66acdc68ebb6a66c0", "fusion_lon": 0.0, "rental_uris": {"android": "https://dc.lft.to/lastmile_qr_scan", "ios": "https://dc.lft.to/lastmile_qr_scan"}, "name": "0f7b1d3eb1af1af66acdc68ebb6a66c0", "type": "electric_scooter", "lat": 38.92977316666666, "is_disabled": 0}, {"fusion_lat": 0.0, "lon": -77.0465765, "is_reserved": 0, "bike_id": "fa99ffa9a206d9ebac18004ec8d52398", "fusion_lon": 0.0, "rental_uris": {"android": "https://dc.lft.to/lastmile_qr_scan", "ios": "https://dc.lft.to/lastmile_qr_scan"}, "name": "fa99ffa9a206d9ebac18004ec8d52398", "type": "electric_scooter", "lat": 38.9054365, "is_disabled": 0}, {"fusion_lat": 0.0, "lon": -77.0326435, "is_reserved": 0, "bike_id": "8ed171eb919d64f7287ae1e8f8986d5e", "fusion_lon": 0.0, "rental_uris": {"android": "https://dc.lft.to/lastmile_qr_scan", "ios": "https://dc.lft.to/lastmile_qr_scan"}, "name": "8ed171eb919d64f7287ae1e8f8986d5e", "type": "electric_scooter", "lat": 38.94150466666667, "is_disabled": 0}, {"fusion_lat": 0.0, "lon": -77.04511566666666, "is_reserved": 0, "bike_id": "6a17dd34f4abf7b2d34bf9432322bdd8", "fusion_lon": 0.0, "rental_uris": {"android": "https://dc.lft.to/lastmile_qr_scan", "ios": "https://dc.lft.to/lastmile_qr_scan"}, "name": "6a17dd34f4abf7b2d34bf9432322bdd8", "type": "electric_scooter", "lat": 38.90783366666667, "is_disabled": 0}, {"fusion_lat": 0.0, "lon": -76.994108, "is_reserved": 0, "bike_id": "c626af133cfdc13c20114cc857a12920", "fusion_lon": 0.0, "rental_uris": {"android": "https://dc.lft.to/lastmile_qr_scan", "ios": "https://dc.lft.to/lastmile_qr_scan"}, "name": "c626af133cfdc13c20114cc857a12920", "type": "electric_scooter", "lat": 38.8778235, "is_disabled": 0}, {"fusion_lat": 0.0, "lon": -77.04990966666666, "is_reserved": 0, "bike_id": "2a96b2b1a7ce10a64e671a8562acf49c", "fusion_lon": 0.0, "rental_uris": {"android": "https://dc.lft.to/lastmile_qr_scan", "ios": "https://dc.lft.to/lastmile_qr_scan"}, "name": "2a96b2b1a7ce10a64e671a8562acf49c", "type": "electric_scooter", "lat": 38.89729366666667, "is_disabled": 0}, {"fusion_lat": 0.0, "lon": -77.035882, "is_reserved": 0, "bike_id": "1da6e4f673f0fb48f9b4e35d09b60802", "fusion_lon": 0.0, "rental_uris": {"android": "https://dc.lft.to/lastmile_qr_scan", "ios": "https://dc.lft.to/lastmile_qr_scan"}, "name": "1da6e4f673f0fb48f9b4e35d09b60802", "type": "electric_scooter", "lat": 38.906926166666665, "is_disabled": 0}, {"fusion_lat": 0.0, "lon": -77.084046, "is_reserved": 0, "bike_id": "ce48ec7f33f65602f52dd89fbc68c2da", "fusion_lon": 0.0, "rental_uris": {"android": "https://dc.lft.to/lastmile_qr_scan", "ios": "https://dc.lft.to/lastmile_qr_scan"}, "name": "ce48ec7f33f65602f52dd89fbc68c2da", "type": "electric_scooter", "lat": 38.90802816666667, "is_disabled": 0}, {"fusion_lat": 0.0, "lon": -77.02867966666666, "is_reserved": 0, "bike_id": "e86f4a6fdfb3f0cba44eecb5f6b47e19", "fusion_lon": 0.0, "rental_uris": {"android": "https://dc.lft.to/lastmile_qr_scan", "ios": "https://dc.lft.to/lastmile_qr_scan"}, "name": "e86f4a6fdfb3f0cba44eecb5f6b47e19", "type": "electric_scooter", "lat": 38.92566516666667, "is_disabled": 0}, {"fusion_lat": 0.0, "lon": -77.04927183333334, "is_reserved": 0, "bike_id": "25511c624d98ca767a131766b3b6193f", "fusion_lon": 0.0, "rental_uris": {"android": "https://dc.lft.to/lastmile_qr_scan", "ios": "https://dc.lft.to/lastmile_qr_scan"}, "name": "25511c624d98ca767a131766b3b6193f", "type": "electric_scooter", "lat": 38.895287, "is_disabled": 0}, {"fusion_lat": 0.0, "lon": -77.0536435, "is_reserved": 0, "bike_id": "42c904e86fba78ad38739629d9af4e2b", "fusion_lon": 0.0, "rental_uris": {"android": "https://dc.lft.to/lastmile_qr_scan", "ios": "https://dc.lft.to/lastmile_qr_scan"}, "name": "42c904e86fba78ad38739629d9af4e2b", "type": "electric_scooter", "lat": 38.927149666666665, "is_disabled": 0}, {"fusion_lat": 0.0, "lon": -76.99791966666666, "is_reserved": 0, "bike_id": "0f1568c881666ece61220c146a871e2b", "fusion_lon": 0.0, "rental_uris": {"android": "https://dc.lft.to/lastmile_qr_scan", "ios": "https://dc.lft.to/lastmile_qr_scan"}, "name": "0f1568c881666ece61220c146a871e2b", "type": "electric_bike", "lat": 38.95642483333334, "is_disabled": 0}, {"fusion_lat": 0.0, "lon": -77.04725516666667, "is_reserved": 0, "bike_id": "46ddb5444cd89d5a2515cb6822d2dc36", "fusion_lon": 0.0, "rental_uris": {"android": "https://dc.lft.to/lastmile_qr_scan", "ios": "https://dc.lft.to/lastmile_qr_scan"}, "name": "46ddb5444cd89d5a2515cb6822d2dc36", "type": "electric_scooter", "lat": 38.909838666666666, "is_disabled": 0}, {"fusion_lat": 0.0, "lon": -76.98095033333334, "is_reserved": 0, "bike_id": "a832571f1e9d3d559069ec58b87bf006", "fusion_lon": 0.0, "rental_uris": {"android": "https://dc.lft.to/lastmile_qr_scan", "ios": "https://dc.lft.to/lastmile_qr_scan"}, "name": "a832571f1e9d3d559069ec58b87bf006", "type": "electric_bike", "lat": 38.9210865, "is_disabled": 0}, {"fusion_lat": 0.0, "lon": -77.00359433333334, "is_reserved": 0, "bike_id": "40e3d4b9bd464bd9d706efd578028280", "fusion_lon": 0.0, "rental_uris": {"android": "https://dc.lft.to/lastmile_qr_scan", "ios": "https://dc.lft.to/lastmile_qr_scan"}, "name": "40e3d4b9bd464bd9d706efd578028280", "type": "electric_scooter", "lat": 38.8861415, "is_disabled": 0}, {"fusion_lat": 0.0, "lon": -76.99527833333333, "is_reserved": 0, "bike_id": "33bd325bfe5ee1a32a2abedb601d401a", "fusion_lon": 0.0, "rental_uris": {"android": "https://dc.lft.to/lastmile_qr_scan", "ios": "https://dc.lft.to/lastmile_qr_scan"}, "name": "33bd325bfe5ee1a32a2abedb601d401a", "type": "electric_scooter", "lat": 38.88367483333333, "is_disabled": 0}, {"fusion_lat": 0.0, "lon": -77.03780933333333, "is_reserved": 0, "bike_id": "d73118b2b8d8f2e4d5a2af432b964aa2", "fusion_lon": 0.0, "rental_uris": {"android": "https://dc.lft.to/lastmile_qr_scan", "ios": "https://dc.lft.to/lastmile_qr_scan"}, "name": "d73118b2b8d8f2e4d5a2af432b964aa2", "type": "electric_scooter", "lat": 38.922116, "is_disabled": 0}, {"fusion_lat": 0.0, "lon": -77.038544, "is_reserved": 0, "bike_id": "f9bd7c36a9cf36f5877fa837de4a886e", "fusion_lon": 0.0, "rental_uris": {"android": "https://dc.lft.to/lastmile_qr_scan", "ios": "https://dc.lft.to/lastmile_qr_scan"}, "name": "f9bd7c36a9cf36f5877fa837de4a886e", "type": "electric_scooter", "lat": 38.902795833333336, "is_disabled": 0}, {"fusion_lat": 0.0, "lon": -76.95529533333334, "is_reserved": 0, "bike_id": "34ba1b8cd9bd24dc1d405821147be140", "fusion_lon": 0.0, "rental_uris": {"android": "https://dc.lft.to/lastmile_qr_scan", "ios": "https://dc.lft.to/lastmile_qr_scan"}, "name": "34ba1b8cd9bd24dc1d405821147be140", "type": "electric_scooter", "lat": 38.887715, "is_disabled": 0}, {"fusion_lat": 0.0, "lon": -77.04328233333334, "is_reserved": 0, "bike_id": "26cbeaf2600116a8f691588a6d5bd5d6", "fusion_lon": 0.0, "rental_uris": {"android": "https://dc.lft.to/lastmile_qr_scan", "ios": "https://dc.lft.to/lastmile_qr_scan"}, "name": "26cbeaf2600116a8f691588a6d5bd5d6", "type": "electric_scooter", "lat": 38.892218, "is_disabled": 0}, {"fusion_lat": 0.0, "lon": -77.03262266666667, "is_reserved": 0, "bike_id": "4e773f4e58a6f340460e9efe6c2a8585", "fusion_lon": 0.0, "rental_uris": {"android": "https://dc.lft.to/lastmile_qr_scan", "ios": "https://dc.lft.to/lastmile_qr_scan"}, "name": "4e773f4e58a6f340460e9efe6c2a8585", "type": "electric_scooter", "lat": 38.9462485, "is_disabled": 0}, {"fusion_lat": 0.0, "lon": -76.99577983333333, "is_reserved": 0, "bike_id": "1102928685427dcfde585cee5fcf0112", "fusion_lon": 0.0, "rental_uris": {"android": "https://dc.lft.to/lastmile_qr_scan", "ios": "https://dc.lft.to/lastmile_qr_scan"}, "name": "1102928685427dcfde585cee5fcf0112", "type": "electric_bike", "lat": 38.85293716666666, "is_disabled": 0}, {"fusion_lat": 0.0, "lon": -77.0048455, "is_reserved": 0, "bike_id": "0bf0c1e7ce80afb170ada0dd466986ed", "fusion_lon": 0.0, "rental_uris": {"android": "https://dc.lft.to/lastmile_qr_scan", "ios": "https://dc.lft.to/lastmile_qr_scan"}, "name": "0bf0c1e7ce80afb170ada0dd466986ed", "type": "electric_scooter", "lat": 38.87476016666667, "is_disabled": 0}, {"fusion_lat": 0.0, "lon": -77.03162416666666, "is_reserved": 0, "bike_id": "f438e90e6a9df6b6cc3e6a7f144b1f6f", "fusion_lon": 0.0, "rental_uris": {"android": "https://dc.lft.to/lastmile_qr_scan", "ios": "https://dc.lft.to/lastmile_qr_scan"}, "name": "f438e90e6a9df6b6cc3e6a7f144b1f6f", "type": "electric_bike", "lat": 38.92094516666667, "is_disabled": 0}, {"fusion_lat": 0.0, "lon": -76.99612266666666, "is_reserved": 0, "bike_id": "bcbe040ebfa2a003b3b7bbbc5dfe1a4d", "fusion_lon": 0.0, "rental_uris": {"android": "https://dc.lft.to/lastmile_qr_scan", "ios": "https://dc.lft.to/lastmile_qr_scan"}, "name": "bcbe040ebfa2a003b3b7bbbc5dfe1a4d", "type": "electric_scooter", "lat": 38.886990833333336, "is_disabled": 0}, {"fusion_lat": 0.0, "lon": -77.035886, "is_reserved": 0, "bike_id": "2ef989019d512836753456a92c8bbe2f", "fusion_lon": 0.0, "rental_uris": {"android": "https://dc.lft.to/lastmile_qr_scan", "ios": "https://dc.lft.to/lastmile_qr_scan"}, "name": "2ef989019d512836753456a92c8bbe2f", "type": "electric_scooter", "lat": 38.93673016666666, "is_disabled": 0}, {"fusion_lat": 0.0, "lon": -77.0238135, "is_reserved": 0, "bike_id": "8fbcd19ea0d59a25d7678fc573f24d87", "fusion_lon": 0.0, "rental_uris": {"android": "https://dc.lft.to/lastmile_qr_scan", "ios": "https://dc.lft.to/lastmile_qr_scan"}, "name": "8fbcd19ea0d59a25d7678fc573f24d87", "type": "electric_scooter", "lat": 38.908104, "is_disabled": 0}, {"fusion_lat": 0.0, "lon": -77.023801, "is_reserved": 0, "bike_id": "8b64cb2434b5ad386a2cb9ba74fc4b97", "fusion_lon": 0.0, "rental_uris": {"android": "https://dc.lft.to/lastmile_qr_scan", "ios": "https://dc.lft.to/lastmile_qr_scan"}, "name": "8b64cb2434b5ad386a2cb9ba74fc4b97", "type": "electric_scooter", "lat": 38.909558, "is_disabled": 0}, {"fusion_lat": 0.0, "lon": -77.035283, "is_reserved": 0, "bike_id": "b58fce6783125650a13e4dcfcbf9505c", "fusion_lon": 0.0, "rental_uris": {"android": "https://dc.lft.to/lastmile_qr_scan", "ios": "https://dc.lft.to/lastmile_qr_scan"}, "name": "b58fce6783125650a13e4dcfcbf9505c", "type": "electric_scooter", "lat": 38.92256716666667, "is_disabled": 0}, {"fusion_lat": 0.0, "lon": -77.04689333333333, "is_reserved": 0, "bike_id": "d61205d8e91e8f0d556274e23383064b", "fusion_lon": 0.0, "rental_uris": {"android": "https://dc.lft.to/lastmile_qr_scan", "ios": "https://dc.lft.to/lastmile_qr_scan"}, "name": "d61205d8e91e8f0d556274e23383064b", "type": "electric_bike", "lat": 39.023916666666665, "is_disabled": 0}, {"fusion_lat": 0.0, "lon": -77.03959883333333, "is_reserved": 0, "bike_id": "87a2fc01bca1fe98f3b54212d6339a60", "fusion_lon": 0.0, "rental_uris": {"android": "https://dc.lft.to/lastmile_qr_scan", "ios": "https://dc.lft.to/lastmile_qr_scan"}, "name": "87a2fc01bca1fe98f3b54212d6339a60", "type": "electric_scooter", "lat": 38.892499666666666, "is_disabled": 0}, {"fusion_lat": 0.0, "lon": -77.0371945, "is_reserved": 0, "bike_id": "22d27dc45e98f77fa3bf394d5f61a958", "fusion_lon": 0.0, "rental_uris": {"android": "https://dc.lft.to/lastmile_qr_scan", "ios": "https://dc.lft.to/lastmile_qr_scan"}, "name": "22d27dc45e98f77fa3bf394d5f61a958", "type": "electric_scooter", "lat": 38.916903, "is_disabled": 0}, {"fusion_lat": 0.0, "lon": -77.043607, "is_reserved": 0, "bike_id": "8dab0d07e766d4ef556763bcc2fab381", "fusion_lon": 0.0, "rental_uris": {"android": "https://dc.lft.to/lastmile_qr_scan", "ios": "https://dc.lft.to/lastmile_qr_scan"}, "name": "8dab0d07e766d4ef556763bcc2fab381", "type": "electric_scooter", "lat": 38.92061833333333, "is_disabled": 0}, {"fusion_lat": 0.0, "lon": -76.973226, "is_reserved": 0, "bike_id": "427d5024c7e79280270858c46c252322", "fusion_lon": 0.0, "rental_uris": {"android": "https://dc.lft.to/lastmile_qr_scan", "ios": "https://dc.lft.to/lastmile_qr_scan"}, "name": "427d5024c7e79280270858c46c252322", "type": "electric_scooter", "lat": 38.865732, "is_disabled": 0}, {"fusion_lat": 0.0, "lon": -77.03495766666667, "is_reserved": 0, "bike_id": "045ae670a0d5458a0b58b6f70640dd5a", "fusion_lon": 0.0, "rental_uris": {"android": "https://dc.lft.to/lastmile_qr_scan", "ios": "https://dc.lft.to/lastmile_qr_scan"}, "name": "045ae670a0d5458a0b58b6f70640dd5a", "type": "electric_scooter", "lat": 38.924805666666664, "is_disabled": 0}, {"fusion_lat": 0.0, "lon": -77.06463816666667, "is_reserved": 0, "bike_id": "7fb2263b4f4946fcc88d44a664ceeed3", "fusion_lon": 0.0, "rental_uris": {"android": "https://dc.lft.to/lastmile_qr_scan", "ios": "https://dc.lft.to/lastmile_qr_scan"}, "name": "7fb2263b4f4946fcc88d44a664ceeed3", "type": "electric_scooter", "lat": 38.92744916666667, "is_disabled": 0}, {"fusion_lat": 0.0, "lon": -76.98225366666667, "is_reserved": 0, "bike_id": "698902ae539cf4d688f9f6120b95d3fd", "fusion_lon": 0.0, "rental_uris": {"android": "https://dc.lft.to/lastmile_qr_scan", "ios": "https://dc.lft.to/lastmile_qr_scan"}, "name": "698902ae539cf4d688f9f6120b95d3fd", "type": "electric_scooter", "lat": 38.886427, "is_disabled": 0}, {"fusion_lat": 0.0, "lon": -77.01583966666666, "is_reserved": 0, "bike_id": "43062bd9c9b3bbc03345c70b56c444c1", "fusion_lon": 0.0, "rental_uris": {"android": "https://dc.lft.to/lastmile_qr_scan", "ios": "https://dc.lft.to/lastmile_qr_scan"}, "name": "43062bd9c9b3bbc03345c70b56c444c1", "type": "electric_scooter", "lat": 38.886135833333334, "is_disabled": 0}, {"fusion_lat": 0.0, "lon": -77.02582866666667, "is_reserved": 0, "bike_id": "4f629cf0cbf6a9f6d8417f6509afef20", "fusion_lon": 0.0, "rental_uris": {"android": "https://dc.lft.to/lastmile_qr_scan", "ios": "https://dc.lft.to/lastmile_qr_scan"}, "name": "4f629cf0cbf6a9f6d8417f6509afef20", "type": "electric_scooter", "lat": 38.92055083333333, "is_disabled": 0}, {"fusion_lat": 0.0, "lon": -77.03783483333333, "is_reserved": 0, "bike_id": "efe700f72b032500ddea37700851d289", "fusion_lon": 0.0, "rental_uris": {"android": "https://dc.lft.to/lastmile_qr_scan", "ios": "https://dc.lft.to/lastmile_qr_scan"}, "name": "efe700f72b032500ddea37700851d289", "type": "electric_scooter", "lat": 38.9168695, "is_disabled": 0}, {"fusion_lat": 0.0, "lon": -77.02673283333333, "is_reserved": 0, "bike_id": "4705fed6aebe9190a408701fabea4d89", "fusion_lon": 0.0, "rental_uris": {"android": "https://dc.lft.to/lastmile_qr_scan", "ios": "https://dc.lft.to/lastmile_qr_scan"}, "name": "4705fed6aebe9190a408701fabea4d89", "type": "electric_scooter", "lat": 38.90112583333333, "is_disabled": 0}, {"fusion_lat": 0.0, "lon": -77.03224216666666, "is_reserved": 0, "bike_id": "b411535fea71a205a78fc38137aef84b", "fusion_lon": 0.0, "rental_uris": {"android": "https://dc.lft.to/lastmile_qr_scan", "ios": "https://dc.lft.to/lastmile_qr_scan"}, "name": "b411535fea71a205a78fc38137aef84b", "type": "electric_scooter", "lat": 38.928655, "is_disabled": 0}, {"fusion_lat": 0.0, "lon": -76.98363666666667, "is_reserved": 0, "bike_id": "6171e6aa034ee91c45ebb6ba782ff9b9", "fusion_lon": 0.0, "rental_uris": {"android": "https://dc.lft.to/lastmile_qr_scan", "ios": "https://dc.lft.to/lastmile_qr_scan"}, "name": "6171e6aa034ee91c45ebb6ba782ff9b9", "type": "electric_scooter", "lat": 38.914950166666664, "is_disabled": 0}, {"fusion_lat": 0.0, "lon": -77.01208416666667, "is_reserved": 0, "bike_id": "160cd00528ca1ec74aeccf748d945c79", "fusion_lon": 0.0, "rental_uris": {"android": "https://dc.lft.to/lastmile_qr_scan", "ios": "https://dc.lft.to/lastmile_qr_scan"}, "name": "160cd00528ca1ec74aeccf748d945c79", "type": "electric_scooter", "lat": 38.87094733333333, "is_disabled": 0}, {"fusion_lat": 0.0, "lon": -77.03872733333333, "is_reserved": 0, "bike_id": "10a8a83dcbd374006bd3c56a9c3b297f", "fusion_lon": 0.0, "rental_uris": {"android": "https://dc.lft.to/lastmile_qr_scan", "ios": "https://dc.lft.to/lastmile_qr_scan"}, "name": "10a8a83dcbd374006bd3c56a9c3b297f", "type": "electric_scooter", "lat": 38.9215525, "is_disabled": 0}, {"fusion_lat": 0.0, "lon": -77.06289033333333, "is_reserved": 0, "bike_id": "0c72c68320d76745f98b34715521b4fa", "fusion_lon": 0.0, "rental_uris": {"android": "https://dc.lft.to/lastmile_qr_scan", "ios": "https://dc.lft.to/lastmile_qr_scan"}, "name": "0c72c68320d76745f98b34715521b4fa", "type": "electric_scooter", "lat": 38.904341, "is_disabled": 0}, {"fusion_lat": 0.0, "lon": -77.01868533333334, "is_reserved": 0, "bike_id": "1ba3a2b6b8717120ffdd11ae8414c8ab", "fusion_lon": 0.0, "rental_uris": {"android": "https://dc.lft.to/lastmile_qr_scan", "ios": "https://dc.lft.to/lastmile_qr_scan"}, "name": "1ba3a2b6b8717120ffdd11ae8414c8ab", "type": "electric_scooter", "lat": 38.9736995, "is_disabled": 0}, {"fusion_lat": 0.0, "lon": -77.11171716666666, "is_reserved": 0, "bike_id": "4b991150555e0d8210f1536ceed8dd66", "fusion_lon": 0.0, "rental_uris": {"android": "https://dc.lft.to/lastmile_qr_scan", "ios": "https://dc.lft.to/lastmile_qr_scan"}, "name": "4b991150555e0d8210f1536ceed8dd66", "type": "electric_bike", "lat": 38.85508466666667, "is_disabled": 0}, {"fusion_lat": 0.0, "lon": -76.99143466666666, "is_reserved": 0, "bike_id": "6bfa1170d6773a90776b2bf8c803a42a", "fusion_lon": 0.0, "rental_uris": {"android": "https://dc.lft.to/lastmile_qr_scan", "ios": "https://dc.lft.to/lastmile_qr_scan"}, "name": "6bfa1170d6773a90776b2bf8c803a42a", "type": "electric_scooter", "lat": 38.885902333333334, "is_disabled": 0}, {"fusion_lat": 0.0, "lon": -76.99527216666667, "is_reserved": 0, "bike_id": "525622bfbccf870501faeebcaf1eab44", "fusion_lon": 0.0, "rental_uris": {"android": "https://dc.lft.to/lastmile_qr_scan", "ios": "https://dc.lft.to/lastmile_qr_scan"}, "name": "525622bfbccf870501faeebcaf1eab44", "type": "electric_scooter", "lat": 38.883667, "is_disabled": 0}, {"fusion_lat": 0.0, "lon": -77.18744416666667, "is_reserved": 0, "bike_id": "dff31de95fe0e6092ecbd34c1cbb6cd6", "fusion_lon": 0.0, "rental_uris": {"android": "https://dc.lft.to/lastmile_qr_scan", "ios": "https://dc.lft.to/lastmile_qr_scan"}, "name": "dff31de95fe0e6092ecbd34c1cbb6cd6", "type": "electric_bike", "lat": 38.89350616666667, "is_disabled": 0}, {"fusion_lat": 0.0, "lon": -77.03147283333334, "is_reserved": 0, "bike_id": "a2ba2f438bfd4de85e9b98fb6c381b7e", "fusion_lon": 0.0, "rental_uris": {"android": "https://dc.lft.to/lastmile_qr_scan", "ios": "https://dc.lft.to/lastmile_qr_scan"}, "name": "a2ba2f438bfd4de85e9b98fb6c381b7e", "type": "electric_scooter", "lat": 38.9191175, "is_disabled": 0}, {"fusion_lat": 0.0, "lon": -77.03353783333333, "is_reserved": 0, "bike_id": "54343aa469f584ed6f976eea3654ae01", "fusion_lon": 0.0, "rental_uris": {"android": "https://dc.lft.to/lastmile_qr_scan", "ios": "https://dc.lft.to/lastmile_qr_scan"}, "name": "54343aa469f584ed6f976eea3654ae01", "type": "electric_scooter", "lat": 38.89839333333333, "is_disabled": 0}, {"fusion_lat": 0.0, "lon": -77.0574425, "is_reserved": 0, "bike_id": "d06727b2b5d03c23232ecc08fad6b2a3", "fusion_lon": 0.0, "rental_uris": {"android": "https://dc.lft.to/lastmile_qr_scan", "ios": "https://dc.lft.to/lastmile_qr_scan"}, "name": "d06727b2b5d03c23232ecc08fad6b2a3", "type": "electric_scooter", "lat": 38.93389066666667, "is_disabled": 0}, {"fusion_lat": 0.0, "lon": -77.0248745, "is_reserved": 0, "bike_id": "19d8e4ec7d82ef817d359d5d2f81d543", "fusion_lon": 0.0, "rental_uris": {"android": "https://dc.lft.to/lastmile_qr_scan", "ios": "https://dc.lft.to/lastmile_qr_scan"}, "name": "19d8e4ec7d82ef817d359d5d2f81d543", "type": "electric_scooter", "lat": 38.937495, "is_disabled": 0}, {"fusion_lat": 0.0, "lon": -77.06277183333333, "is_reserved": 0, "bike_id": "7db1047f7667c20295a82da96e15208c", "fusion_lon": 0.0, "rental_uris": {"android": "https://dc.lft.to/lastmile_qr_scan", "ios": "https://dc.lft.to/lastmile_qr_scan"}, "name": "7db1047f7667c20295a82da96e15208c", "type": "electric_scooter", "lat": 38.9058065, "is_disabled": 0}, {"fusion_lat": 0.0, "lon": -76.99935216666667, "is_reserved": 0, "bike_id": "4c87a0c7a18bce66ab2400f0ce2f66b1", "fusion_lon": 0.0, "rental_uris": {"android": "https://dc.lft.to/lastmile_qr_scan", "ios": "https://dc.lft.to/lastmile_qr_scan"}, "name": "4c87a0c7a18bce66ab2400f0ce2f66b1", "type": "electric_scooter", "lat": 38.843009333333335, "is_disabled": 0}, {"fusion_lat": 0.0, "lon": -77.01522033333333, "is_reserved": 0, "bike_id": "42b7945e03ef8ec8e45a83802afaec08", "fusion_lon": 0.0, "rental_uris": {"android": "https://dc.lft.to/lastmile_qr_scan", "ios": "https://dc.lft.to/lastmile_qr_scan"}, "name": "42b7945e03ef8ec8e45a83802afaec08", "type": "electric_bike", "lat": 38.9186875, "is_disabled": 0}, {"fusion_lat": 0.0, "lon": -76.94873683333333, "is_reserved": 0, "bike_id": "f93fcd3172cd6344e87c50d79bd8deff", "fusion_lon": 0.0, "rental_uris": {"android": "https://dc.lft.to/lastmile_qr_scan", "ios": "https://dc.lft.to/lastmile_qr_scan"}, "name": "f93fcd3172cd6344e87c50d79bd8deff", "type": "electric_scooter", "lat": 38.8954755, "is_disabled": 0}, {"fusion_lat": 0.0, "lon": -76.9984835, "is_reserved": 0, "bike_id": "89455cb84259497e0bdcf9d5020ebc5f", "fusion_lon": 0.0, "rental_uris": {"android": "https://dc.lft.to/lastmile_qr_scan", "ios": "https://dc.lft.to/lastmile_qr_scan"}, "name": "89455cb84259497e0bdcf9d5020ebc5f", "type": "electric_scooter", "lat": 38.9002155, "is_disabled": 0}, {"fusion_lat": 0.0, "lon": -77.073277, "is_reserved": 0, "bike_id": "53e9bd75d6dfa71dfb869d584374d3b5", "fusion_lon": 0.0, "rental_uris": {"android": "https://dc.lft.to/lastmile_qr_scan", "ios": "https://dc.lft.to/lastmile_qr_scan"}, "name": "53e9bd75d6dfa71dfb869d584374d3b5", "type": "electric_scooter", "lat": 38.926098333333336, "is_disabled": 0}, {"fusion_lat": 0.0, "lon": -77.01869833333333, "is_reserved": 0, "bike_id": "a60e37c5e89c8ffe5390de17f9361219", "fusion_lon": 0.0, "rental_uris": {"android": "https://dc.lft.to/lastmile_qr_scan", "ios": "https://dc.lft.to/lastmile_qr_scan"}, "name": "a60e37c5e89c8ffe5390de17f9361219", "type": "electric_scooter", "lat": 38.973684166666665, "is_disabled": 0}, {"fusion_lat": 0.0, "lon": -77.01076716666667, "is_reserved": 0, "bike_id": "828e6d2611ea33b7fb06481f75e9e48b", "fusion_lon": 0.0, "rental_uris": {"android": "https://dc.lft.to/lastmile_qr_scan", "ios": "https://dc.lft.to/lastmile_qr_scan"}, "name": "828e6d2611ea33b7fb06481f75e9e48b", "type": "electric_scooter", "lat": 38.91762666666666, "is_disabled": 0}, {"fusion_lat": 0.0, "lon": -76.99636733333334, "is_reserved": 0, "bike_id": "d78099500f455543b504f1d13b398329", "fusion_lon": 0.0, "rental_uris": {"android": "https://dc.lft.to/lastmile_qr_scan", "ios": "https://dc.lft.to/lastmile_qr_scan"}, "name": "d78099500f455543b504f1d13b398329", "type": "electric_scooter", "lat": 38.900162, "is_disabled": 0}, {"fusion_lat": 0.0, "lon": -77.041909, "is_reserved": 0, "bike_id": "402c590cfa297192a493cbdd8231446e", "fusion_lon": 0.0, "rental_uris": {"android": "https://dc.lft.to/lastmile_qr_scan", "ios": "https://dc.lft.to/lastmile_qr_scan"}, "name": "402c590cfa297192a493cbdd8231446e", "type": "electric_scooter", "lat": 38.91971183333333, "is_disabled": 0}, {"fusion_lat": 0.0, "lon": -77.00345483333334, "is_reserved": 0, "bike_id": "f20827746275cc16e76d2d48d727bdcf", "fusion_lon": 0.0, "rental_uris": {"android": "https://dc.lft.to/lastmile_qr_scan", "ios": "https://dc.lft.to/lastmile_qr_scan"}, "name": "f20827746275cc16e76d2d48d727bdcf", "type": "electric_scooter", "lat": 38.895235666666665, "is_disabled": 0}, {"fusion_lat": 0.0, "lon": -76.9906195, "is_reserved": 0, "bike_id": "ca6c490cd7bca7502895255fc9839078", "fusion_lon": 0.0, "rental_uris": {"android": "https://dc.lft.to/lastmile_qr_scan", "ios": "https://dc.lft.to/lastmile_qr_scan"}, "name": "ca6c490cd7bca7502895255fc9839078", "type": "electric_scooter", "lat": 38.863603833333336, "is_disabled": 0}, {"fusion_lat": 0.0, "lon": -77.04669866666667, "is_reserved": 0, "bike_id": "2baf12eebc5e03dcb59474f8f925fe77", "fusion_lon": 0.0, "rental_uris": {"android": "https://dc.lft.to/lastmile_qr_scan", "ios": "https://dc.lft.to/lastmile_qr_scan"}, "name": "2baf12eebc5e03dcb59474f8f925fe77", "type": "electric_scooter", "lat": 38.89664166666667, "is_disabled": 0}, {"fusion_lat": 0.0, "lon": -76.95019066666667, "is_reserved": 0, "bike_id": "14d9bbc4ade00ccfd944e224f4eaa6d5", "fusion_lon": 0.0, "rental_uris": {"android": "https://dc.lft.to/lastmile_qr_scan", "ios": "https://dc.lft.to/lastmile_qr_scan"}, "name": "14d9bbc4ade00ccfd944e224f4eaa6d5", "type": "electric_scooter", "lat": 38.8938835, "is_disabled": 0}, {"fusion_lat": 0.0, "lon": -76.94881083333334, "is_reserved": 0, "bike_id": "b6b01ae9adc962a2583a280c61188e02", "fusion_lon": 0.0, "rental_uris": {"android": "https://dc.lft.to/lastmile_qr_scan", "ios": "https://dc.lft.to/lastmile_qr_scan"}, "name": "b6b01ae9adc962a2583a280c61188e02", "type": "electric_scooter", "lat": 38.895550166666666, "is_disabled": 0}, {"fusion_lat": 0.0, "lon": -76.99714166666666, "is_reserved": 0, "bike_id": "b4bb95c9553d68d5a67be973d21057f5", "fusion_lon": 0.0, "rental_uris": {"android": "https://dc.lft.to/lastmile_qr_scan", "ios": "https://dc.lft.to/lastmile_qr_scan"}, "name": "b4bb95c9553d68d5a67be973d21057f5", "type": "electric_scooter", "lat": 38.90776916666667, "is_disabled": 0}, {"fusion_lat": 0.0, "lon": -77.007358, "is_reserved": 0, "bike_id": "96b443298a2d4c872a161163449370b6", "fusion_lon": 0.0, "rental_uris": {"android": "https://dc.lft.to/lastmile_qr_scan", "ios": "https://dc.lft.to/lastmile_qr_scan"}, "name": "96b443298a2d4c872a161163449370b6", "type": "electric_scooter", "lat": 38.8765025, "is_disabled": 0}, {"fusion_lat": 0.0, "lon": -77.001978, "is_reserved": 0, "bike_id": "d5fdae08e842e37fff119ab004ee45ec", "fusion_lon": 0.0, "rental_uris": {"android": "https://dc.lft.to/lastmile_qr_scan", "ios": "https://dc.lft.to/lastmile_qr_scan"}, "name": "d5fdae08e842e37fff119ab004ee45ec", "type": "electric_scooter", "lat": 38.900318, "is_disabled": 0}, {"fusion_lat": 0.0, "lon": -77.03865866666666, "is_reserved": 0, "bike_id": "1c436188683fc6a1c7c1d4d92484bbbc", "fusion_lon": 0.0, "rental_uris": {"android": "https://dc.lft.to/lastmile_qr_scan", "ios": "https://dc.lft.to/lastmile_qr_scan"}, "name": "1c436188683fc6a1c7c1d4d92484bbbc", "type": "electric_scooter", "lat": 38.94501266666666, "is_disabled": 0}, {"fusion_lat": 0.0, "lon": -76.98725183333333, "is_reserved": 0, "bike_id": "9ff9719160ef05bd7ede5c006a22bcc9", "fusion_lon": 0.0, "rental_uris": {"android": "https://dc.lft.to/lastmile_qr_scan", "ios": "https://dc.lft.to/lastmile_qr_scan"}, "name": "9ff9719160ef05bd7ede5c006a22bcc9", "type": "electric_scooter", "lat": 38.86682583333333, "is_disabled": 0}, {"fusion_lat": 0.0, "lon": -77.360928, "is_reserved": 0, "bike_id": "193198ab1b79ff9b161b2b3dedba75f8", "fusion_lon": 0.0, "rental_uris": {"android": "https://dc.lft.to/lastmile_qr_scan", "ios": "https://dc.lft.to/lastmile_qr_scan"}, "name": "193198ab1b79ff9b161b2b3dedba75f8", "type": "electric_bike", "lat": 38.93953066666667, "is_disabled": 0}, {"fusion_lat": 0.0, "lon": -77.02622416666667, "is_reserved": 0, "bike_id": "6694bd3fdf0dbbf1755afd7a97b07bc4", "fusion_lon": 0.0, "rental_uris": {"android": "https://dc.lft.to/lastmile_qr_scan", "ios": "https://dc.lft.to/lastmile_qr_scan"}, "name": "6694bd3fdf0dbbf1755afd7a97b07bc4", "type": "electric_bike", "lat": 38.962236833333336, "is_disabled": 0}, {"fusion_lat": 0.0, "lon": -76.98618066666667, "is_reserved": 0, "bike_id": "9d94c09c94efc7195ee6d3943614d3cd", "fusion_lon": 0.0, "rental_uris": {"android": "https://dc.lft.to/lastmile_qr_scan", "ios": "https://dc.lft.to/lastmile_qr_scan"}, "name": "9d94c09c94efc7195ee6d3943614d3cd", "type": "electric_scooter", "lat": 38.938281833333335, "is_disabled": 0}, {"fusion_lat": 0.0, "lon": -77.00403033333333, "is_reserved": 0, "bike_id": "8094e268da19c7425e6daf8d02a7201a", "fusion_lon": 0.0, "rental_uris": {"android": "https://dc.lft.to/lastmile_qr_scan", "ios": "https://dc.lft.to/lastmile_qr_scan"}, "name": "8094e268da19c7425e6daf8d02a7201a", "type": "electric_scooter", "lat": 38.92131633333333, "is_disabled": 0}, {"fusion_lat": 0.0, "lon": -77.02891016666666, "is_reserved": 0, "bike_id": "235b8fa2e2bed9d0287f66273a0a146e", "fusion_lon": 0.0, "rental_uris": {"android": "https://dc.lft.to/lastmile_qr_scan", "ios": "https://dc.lft.to/lastmile_qr_scan"}, "name": "235b8fa2e2bed9d0287f66273a0a146e", "type": "electric_scooter", "lat": 38.939810333333334, "is_disabled": 0}, {"fusion_lat": 0.0, "lon": -77.0398015, "is_reserved": 0, "bike_id": "5f68a2ef106061976edbd4e758690537", "fusion_lon": 0.0, "rental_uris": {"android": "https://dc.lft.to/lastmile_qr_scan", "ios": "https://dc.lft.to/lastmile_qr_scan"}, "name": "5f68a2ef106061976edbd4e758690537", "type": "electric_scooter", "lat": 38.92022633333333, "is_disabled": 0}, {"fusion_lat": 0.0, "lon": -77.04871616666667, "is_reserved": 0, "bike_id": "dfff8f80ed81f66a362e87db19525be3", "fusion_lon": 0.0, "rental_uris": {"android": "https://dc.lft.to/lastmile_qr_scan", "ios": "https://dc.lft.to/lastmile_qr_scan"}, "name": "dfff8f80ed81f66a362e87db19525be3", "type": "electric_scooter", "lat": 38.9097945, "is_disabled": 0}, {"fusion_lat": 0.0, "lon": -76.97702716666667, "is_reserved": 0, "bike_id": "25b5a8150609aad7cc81046b604422aa", "fusion_lon": 0.0, "rental_uris": {"android": "https://dc.lft.to/lastmile_qr_scan", "ios": "https://dc.lft.to/lastmile_qr_scan"}, "name": "25b5a8150609aad7cc81046b604422aa", "type": "electric_bike", "lat": 38.949141166666664, "is_disabled": 0}, {"fusion_lat": 0.0, "lon": -77.02676, "is_reserved": 0, "bike_id": "59b5715aeada567f729f8df88d89bf3a", "fusion_lon": 0.0, "rental_uris": {"android": "https://dc.lft.to/lastmile_qr_scan", "ios": "https://dc.lft.to/lastmile_qr_scan"}, "name": "59b5715aeada567f729f8df88d89bf3a", "type": "electric_scooter", "lat": 38.90108083333333, "is_disabled": 0}, {"fusion_lat": 0.0, "lon": -77.00598033333333, "is_reserved": 0, "bike_id": "1cb0775c8ec9a5cc88a5a5cd2efe4637", "fusion_lon": 0.0, "rental_uris": {"android": "https://dc.lft.to/lastmile_qr_scan", "ios": "https://dc.lft.to/lastmile_qr_scan"}, "name": "1cb0775c8ec9a5cc88a5a5cd2efe4637", "type": "electric_scooter", "lat": 38.88521016666667, "is_disabled": 0}, {"fusion_lat": 0.0, "lon": -77.01761533333334, "is_reserved": 0, "bike_id": "6ac93a96380eadfae3c4b0fe4ce0203c", "fusion_lon": 0.0, "rental_uris": {"android": "https://dc.lft.to/lastmile_qr_scan", "ios": "https://dc.lft.to/lastmile_qr_scan"}, "name": "6ac93a96380eadfae3c4b0fe4ce0203c", "type": "electric_scooter", "lat": 38.883244, "is_disabled": 0}, {"fusion_lat": 0.0, "lon": -77.02679766666667, "is_reserved": 0, "bike_id": "d3ccad6ed08297aaf0461f2312d9e215", "fusion_lon": 0.0, "rental_uris": {"android": "https://dc.lft.to/lastmile_qr_scan", "ios": "https://dc.lft.to/lastmile_qr_scan"}, "name": "d3ccad6ed08297aaf0461f2312d9e215", "type": "electric_scooter", "lat": 38.902343333333334, "is_disabled": 0}, {"fusion_lat": 0.0, "lon": -77.02366483333333, "is_reserved": 0, "bike_id": "78ca6973da63362fa27d28bccb04aeee", "fusion_lon": 0.0, "rental_uris": {"android": "https://dc.lft.to/lastmile_qr_scan", "ios": "https://dc.lft.to/lastmile_qr_scan"}, "name": "78ca6973da63362fa27d28bccb04aeee", "type": "electric_scooter", "lat": 38.89217933333333, "is_disabled": 0}, {"fusion_lat": 0.0, "lon": -77.03823233333334, "is_reserved": 0, "bike_id": "5343cbbb25060e91770f830f88e1dae7", "fusion_lon": 0.0, "rental_uris": {"android": "https://dc.lft.to/lastmile_qr_scan", "ios": "https://dc.lft.to/lastmile_qr_scan"}, "name": "5343cbbb25060e91770f830f88e1dae7", "type": "electric_scooter", "lat": 38.91411633333333, "is_disabled": 0}, {"fusion_lat": 0.0, "lon": -76.91100483333334, "is_reserved": 0, "bike_id": "26498d43141520c9f240f40909ed8252", "fusion_lon": 0.0, "rental_uris": {"android": "https://dc.lft.to/lastmile_qr_scan", "ios": "https://dc.lft.to/lastmile_qr_scan"}, "name": "26498d43141520c9f240f40909ed8252", "type": "electric_bike", "lat": 39.010554166666665, "is_disabled": 0}, {"fusion_lat": 0.0, "lon": -77.01930333333334, "is_reserved": 0, "bike_id": "cf2bb7a6f074e5572f0f66107e61c872", "fusion_lon": 0.0, "rental_uris": {"android": "https://dc.lft.to/lastmile_qr_scan", "ios": "https://dc.lft.to/lastmile_qr_scan"}, "name": "cf2bb7a6f074e5572f0f66107e61c872", "type": "electric_scooter", "lat": 38.90549583333333, "is_disabled": 0}, {"fusion_lat": 0.0, "lon": -77.025083, "is_reserved": 0, "bike_id": "5a7bc3e556e68c2357133780b3603063", "fusion_lon": 0.0, "rental_uris": {"android": "https://dc.lft.to/lastmile_qr_scan", "ios": "https://dc.lft.to/lastmile_qr_scan"}, "name": "5a7bc3e556e68c2357133780b3603063", "type": "electric_scooter", "lat": 38.930949166666664, "is_disabled": 0}, {"fusion_lat": 0.0, "lon": -77.029439, "is_reserved": 0, "bike_id": "6946cc7888037c919c19b9390f465d9d", "fusion_lon": 0.0, "rental_uris": {"android": "https://dc.lft.to/lastmile_qr_scan", "ios": "https://dc.lft.to/lastmile_qr_scan"}, "name": "6946cc7888037c919c19b9390f465d9d", "type": "electric_scooter", "lat": 38.90504883333333, "is_disabled": 0}, {"fusion_lat": 0.0, "lon": -77.03256716666667, "is_reserved": 0, "bike_id": "90f68dc2cc1803a2d5e0167e3acd8f00", "fusion_lon": 0.0, "rental_uris": {"android": "https://dc.lft.to/lastmile_qr_scan", "ios": "https://dc.lft.to/lastmile_qr_scan"}, "name": "90f68dc2cc1803a2d5e0167e3acd8f00", "type": "electric_scooter", "lat": 38.92363366666667, "is_disabled": 0}, {"fusion_lat": 0.0, "lon": -76.95146433333333, "is_reserved": 0, "bike_id": "2fa10e49ebb476885cb82332877e23cf", "fusion_lon": 0.0, "rental_uris": {"android": "https://dc.lft.to/lastmile_qr_scan", "ios": "https://dc.lft.to/lastmile_qr_scan"}, "name": "2fa10e49ebb476885cb82332877e23cf", "type": "electric_scooter", "lat": 38.890397166666666, "is_disabled": 0}, {"fusion_lat": 0.0, "lon": -77.04326316666666, "is_reserved": 0, "bike_id": "936c65370590f97cf80a067cdf419d81", "fusion_lon": 0.0, "rental_uris": {"android": "https://dc.lft.to/lastmile_qr_scan", "ios": "https://dc.lft.to/lastmile_qr_scan"}, "name": "936c65370590f97cf80a067cdf419d81", "type": "electric_scooter", "lat": 38.89221633333333, "is_disabled": 0}, {"fusion_lat": 0.0, "lon": -77.07711516666667, "is_reserved": 0, "bike_id": "2281a9d8a43d1b8647fd5d0426c21df7", "fusion_lon": 0.0, "rental_uris": {"android": "https://dc.lft.to/lastmile_qr_scan", "ios": "https://dc.lft.to/lastmile_qr_scan"}, "name": "2281a9d8a43d1b8647fd5d0426c21df7", "type": "electric_bike", "lat": 38.84089566666667, "is_disabled": 0}, {"fusion_lat": 0.0, "lon": -77.04464266666666, "is_reserved": 0, "bike_id": "86fdad39e7cff07be97666748a445986", "fusion_lon": 0.0, "rental_uris": {"android": "https://dc.lft.to/lastmile_qr_scan", "ios": "https://dc.lft.to/lastmile_qr_scan"}, "name": "86fdad39e7cff07be97666748a445986", "type": "electric_scooter", "lat": 38.911201166666665, "is_disabled": 0}, {"fusion_lat": 0.0, "lon": -77.04329983333334, "is_reserved": 0, "bike_id": "a15cfdeeb9478e2415505c15dcbd8e47", "fusion_lon": 0.0, "rental_uris": {"android": "https://dc.lft.to/lastmile_qr_scan", "ios": "https://dc.lft.to/lastmile_qr_scan"}, "name": "a15cfdeeb9478e2415505c15dcbd8e47", "type": "electric_scooter", "lat": 38.9033885, "is_disabled": 0}, {"fusion_lat": 0.0, "lon": -76.9989385, "is_reserved": 0, "bike_id": "d267bc5f902f3e09369a61b6aaae1b08", "fusion_lon": 0.0, "rental_uris": {"android": "https://dc.lft.to/lastmile_qr_scan", "ios": "https://dc.lft.to/lastmile_qr_scan"}, "name": "d267bc5f902f3e09369a61b6aaae1b08", "type": "electric_scooter", "lat": 38.907523166666664, "is_disabled": 0}, {"fusion_lat": 0.0, "lon": -77.03013533333333, "is_reserved": 0, "bike_id": "73b42d16e7c233e99c6d2048d86cea70", "fusion_lon": 0.0, "rental_uris": {"android": "https://dc.lft.to/lastmile_qr_scan", "ios": "https://dc.lft.to/lastmile_qr_scan"}, "name": "73b42d16e7c233e99c6d2048d86cea70", "type": "electric_scooter", "lat": 38.9204345, "is_disabled": 0}, {"fusion_lat": 0.0, "lon": -76.97643233333334, "is_reserved": 0, "bike_id": "103dbc2704b3e31d8008aca8e7b8dce9", "fusion_lon": 0.0, "rental_uris": {"android": "https://dc.lft.to/lastmile_qr_scan", "ios": "https://dc.lft.to/lastmile_qr_scan"}, "name": "103dbc2704b3e31d8008aca8e7b8dce9", "type": "electric_scooter", "lat": 38.864560833333336, "is_disabled": 0}, {"fusion_lat": 0.0, "lon": -77.03164633333333, "is_reserved": 0, "bike_id": "3dc15b335968cba4849c5dba5bc2cc41", "fusion_lon": 0.0, "rental_uris": {"android": "https://dc.lft.to/lastmile_qr_scan", "ios": "https://dc.lft.to/lastmile_qr_scan"}, "name": "3dc15b335968cba4849c5dba5bc2cc41", "type": "electric_scooter", "lat": 38.9180105, "is_disabled": 0}, {"fusion_lat": 0.0, "lon": -77.03835916666667, "is_reserved": 0, "bike_id": "44f8875c65bd4e82f462d2e8aca45cc5", "fusion_lon": 0.0, "rental_uris": {"android": "https://dc.lft.to/lastmile_qr_scan", "ios": "https://dc.lft.to/lastmile_qr_scan"}, "name": "44f8875c65bd4e82f462d2e8aca45cc5", "type": "electric_scooter", "lat": 38.91122416666666, "is_disabled": 0}, {"fusion_lat": 0.0, "lon": -77.03707766666666, "is_reserved": 0, "bike_id": "2bd16f1de1d80e69913e58274cf2365f", "fusion_lon": 0.0, "rental_uris": {"android": "https://dc.lft.to/lastmile_qr_scan", "ios": "https://dc.lft.to/lastmile_qr_scan"}, "name": "2bd16f1de1d80e69913e58274cf2365f", "type": "electric_scooter", "lat": 38.92634116666667, "is_disabled": 0}, {"fusion_lat": 0.0, "lon": -76.99512816666666, "is_reserved": 0, "bike_id": "55391e33936efcb3e377c7639ec8e396", "fusion_lon": 0.0, "rental_uris": {"android": "https://dc.lft.to/lastmile_qr_scan", "ios": "https://dc.lft.to/lastmile_qr_scan"}, "name": "55391e33936efcb3e377c7639ec8e396", "type": "electric_scooter", "lat": 38.89727333333333, "is_disabled": 0}, {"fusion_lat": 0.0, "lon": -77.0092595, "is_reserved": 0, "bike_id": "5036ae5ce476f136da15c4c9419ec999", "fusion_lon": 0.0, "rental_uris": {"android": "https://dc.lft.to/lastmile_qr_scan", "ios": "https://dc.lft.to/lastmile_qr_scan"}, "name": "5036ae5ce476f136da15c4c9419ec999", "type": "electric_scooter", "lat": 38.89604516666667, "is_disabled": 0}, {"fusion_lat": 0.0, "lon": -76.99517466666667, "is_reserved": 0, "bike_id": "ead0b1462acd8a9a09cc0a38e268acf1", "fusion_lon": 0.0, "rental_uris": {"android": "https://dc.lft.to/lastmile_qr_scan", "ios": "https://dc.lft.to/lastmile_qr_scan"}, "name": "ead0b1462acd8a9a09cc0a38e268acf1", "type": "electric_scooter", "lat": 38.8826365, "is_disabled": 0}, {"fusion_lat": 0.0, "lon": -77.05321283333333, "is_reserved": 0, "bike_id": "61c10b11e39ce5061a1690d7e48ea5c8", "fusion_lon": 0.0, "rental_uris": {"android": "https://dc.lft.to/lastmile_qr_scan", "ios": "https://dc.lft.to/lastmile_qr_scan"}, "name": "61c10b11e39ce5061a1690d7e48ea5c8", "type": "electric_scooter", "lat": 38.91554333333333, "is_disabled": 0}, {"fusion_lat": 0.0, "lon": -77.04866916666667, "is_reserved": 0, "bike_id": "784fdb4b8ddedb65dfbc5e2fc234038a", "fusion_lon": 0.0, "rental_uris": {"android": "https://dc.lft.to/lastmile_qr_scan", "ios": "https://dc.lft.to/lastmile_qr_scan"}, "name": "784fdb4b8ddedb65dfbc5e2fc234038a", "type": "electric_scooter", "lat": 38.89222866666667, "is_disabled": 0}, {"fusion_lat": 0.0, "lon": -77.0502805, "is_reserved": 0, "bike_id": "53f48430c442a9a71c09f999d858e80f", "fusion_lon": 0.0, "rental_uris": {"android": "https://dc.lft.to/lastmile_qr_scan", "ios": "https://dc.lft.to/lastmile_qr_scan"}, "name": "53f48430c442a9a71c09f999d858e80f", "type": "electric_scooter", "lat": 38.90530433333333, "is_disabled": 0}, {"fusion_lat": 0.0, "lon": -77.0279345, "is_reserved": 0, "bike_id": "2aceb70614b4b8c1aa40b7b96fb40856", "fusion_lon": 0.0, "rental_uris": {"android": "https://dc.lft.to/lastmile_qr_scan", "ios": "https://dc.lft.to/lastmile_qr_scan"}, "name": "2aceb70614b4b8c1aa40b7b96fb40856", "type": "electric_scooter", "lat": 38.930808666666664, "is_disabled": 0}, {"fusion_lat": 0.0, "lon": -77.02138983333333, "is_reserved": 0, "bike_id": "e5dada888b19bad4ed6c45421071e078", "fusion_lon": 0.0, "rental_uris": {"android": "https://dc.lft.to/lastmile_qr_scan", "ios": "https://dc.lft.to/lastmile_qr_scan"}, "name": "e5dada888b19bad4ed6c45421071e078", "type": "electric_scooter", "lat": 38.924468833333336, "is_disabled": 0}, {"fusion_lat": 0.0, "lon": -77.03199833333333, "is_reserved": 0, "bike_id": "e45edfb3b18d05ad51f6ef8ec48f040d", "fusion_lon": 0.0, "rental_uris": {"android": "https://dc.lft.to/lastmile_qr_scan", "ios": "https://dc.lft.to/lastmile_qr_scan"}, "name": "e45edfb3b18d05ad51f6ef8ec48f040d", "type": "electric_scooter", "lat": 38.917988333333334, "is_disabled": 0}, {"fusion_lat": 0.0, "lon": -77.035441, "is_reserved": 0, "bike_id": "e974c8a958365ecd22a7a20b6fb7fc88", "fusion_lon": 0.0, "rental_uris": {"android": "https://dc.lft.to/lastmile_qr_scan", "ios": "https://dc.lft.to/lastmile_qr_scan"}, "name": "e974c8a958365ecd22a7a20b6fb7fc88", "type": "electric_scooter", "lat": 38.92464, "is_disabled": 0}, {"fusion_lat": 0.0, "lon": -76.98515033333334, "is_reserved": 0, "bike_id": "1630d2f25446a312e0d8f7c4741dbd2a", "fusion_lon": 0.0, "rental_uris": {"android": "https://dc.lft.to/lastmile_qr_scan", "ios": "https://dc.lft.to/lastmile_qr_scan"}, "name": "1630d2f25446a312e0d8f7c4741dbd2a", "type": "electric_scooter", "lat": 38.8808245, "is_disabled": 0}, {"fusion_lat": 0.0, "lon": -77.01413333333333, "is_reserved": 0, "bike_id": "18cff93e9d0115a04d92b3185072c477", "fusion_lon": 0.0, "rental_uris": {"android": "https://dc.lft.to/lastmile_qr_scan", "ios": "https://dc.lft.to/lastmile_qr_scan"}, "name": "18cff93e9d0115a04d92b3185072c477", "type": "electric_scooter", "lat": 38.927940666666665, "is_disabled": 0}, {"fusion_lat": 0.0, "lon": -77.02348366666666, "is_reserved": 0, "bike_id": "b4d791499576566528c41f86162cc916", "fusion_lon": 0.0, "rental_uris": {"android": "https://dc.lft.to/lastmile_qr_scan", "ios": "https://dc.lft.to/lastmile_qr_scan"}, "name": "b4d791499576566528c41f86162cc916", "type": "electric_scooter", "lat": 38.93062466666667, "is_disabled": 0}, {"fusion_lat": 0.0, "lon": -76.990668, "is_reserved": 0, "bike_id": "28245ef34e7107cec5df7cacdd2bf1eb", "fusion_lon": 0.0, "rental_uris": {"android": "https://dc.lft.to/lastmile_qr_scan", "ios": "https://dc.lft.to/lastmile_qr_scan"}, "name": "28245ef34e7107cec5df7cacdd2bf1eb", "type": "electric_scooter", "lat": 38.863568, "is_disabled": 0}, {"fusion_lat": 0.0, "lon": -77.04434566666667, "is_reserved": 0, "bike_id": "86deaf6609a64f316aea282d27008bfb", "fusion_lon": 0.0, "rental_uris": {"android": "https://dc.lft.to/lastmile_qr_scan", "ios": "https://dc.lft.to/lastmile_qr_scan"}, "name": "86deaf6609a64f316aea282d27008bfb", "type": "electric_scooter", "lat": 38.92166133333333, "is_disabled": 0}, {"fusion_lat": 0.0, "lon": -77.0450425, "is_reserved": 0, "bike_id": "97d9eb13572794a61a1c7bd7e8146e63", "fusion_lon": 0.0, "rental_uris": {"android": "https://dc.lft.to/lastmile_qr_scan", "ios": "https://dc.lft.to/lastmile_qr_scan"}, "name": "97d9eb13572794a61a1c7bd7e8146e63", "type": "electric_scooter", "lat": 38.91111866666667, "is_disabled": 0}, {"fusion_lat": 0.0, "lon": -77.042337, "is_reserved": 0, "bike_id": "dcb0e3dcaacd1b734ee3cb47ba1a0e54", "fusion_lon": 0.0, "rental_uris": {"android": "https://dc.lft.to/lastmile_qr_scan", "ios": "https://dc.lft.to/lastmile_qr_scan"}, "name": "dcb0e3dcaacd1b734ee3cb47ba1a0e54", "type": "electric_scooter", "lat": 38.911206166666666, "is_disabled": 0}, {"fusion_lat": 0.0, "lon": -77.05055783333333, "is_reserved": 0, "bike_id": "e03fb36f6abf682e581448c4f943d71f", "fusion_lon": 0.0, "rental_uris": {"android": "https://dc.lft.to/lastmile_qr_scan", "ios": "https://dc.lft.to/lastmile_qr_scan"}, "name": "e03fb36f6abf682e581448c4f943d71f", "type": "electric_scooter", "lat": 38.905383, "is_disabled": 0}, {"fusion_lat": 0.0, "lon": -77.01966733333333, "is_reserved": 0, "bike_id": "be4a278169d048ae10d3cd8283f8fd38", "fusion_lon": 0.0, "rental_uris": {"android": "https://dc.lft.to/lastmile_qr_scan", "ios": "https://dc.lft.to/lastmile_qr_scan"}, "name": "be4a278169d048ae10d3cd8283f8fd38", "type": "electric_scooter", "lat": 38.95017683333333, "is_disabled": 0}, {"fusion_lat": 0.0, "lon": -77.03845666666666, "is_reserved": 0, "bike_id": "24b6aeb6aaff4bbc8e1a359b9f3ab709", "fusion_lon": 0.0, "rental_uris": {"android": "https://dc.lft.to/lastmile_qr_scan", "ios": "https://dc.lft.to/lastmile_qr_scan"}, "name": "24b6aeb6aaff4bbc8e1a359b9f3ab709", "type": "electric_scooter", "lat": 38.9216155, "is_disabled": 0}, {"fusion_lat": 0.0, "lon": -77.02364766666666, "is_reserved": 0, "bike_id": "24f9567eb41c458e355d3b0b59539085", "fusion_lon": 0.0, "rental_uris": {"android": "https://dc.lft.to/lastmile_qr_scan", "ios": "https://dc.lft.to/lastmile_qr_scan"}, "name": "24f9567eb41c458e355d3b0b59539085", "type": "electric_scooter", "lat": 38.892201166666666, "is_disabled": 0}, {"fusion_lat": 0.0, "lon": -77.05005983333334, "is_reserved": 0, "bike_id": "6b48f420a7b8185052c61b3d174dea07", "fusion_lon": 0.0, "rental_uris": {"android": "https://dc.lft.to/lastmile_qr_scan", "ios": "https://dc.lft.to/lastmile_qr_scan"}, "name": "6b48f420a7b8185052c61b3d174dea07", "type": "electric_scooter", "lat": 38.905435833333335, "is_disabled": 0}, {"fusion_lat": 0.0, "lon": -77.03013033333333, "is_reserved": 0, "bike_id": "56b0ffdf88f0044c5bc22bc1e665bf47", "fusion_lon": 0.0, "rental_uris": {"android": "https://dc.lft.to/lastmile_qr_scan", "ios": "https://dc.lft.to/lastmile_qr_scan"}, "name": "56b0ffdf88f0044c5bc22bc1e665bf47", "type": "electric_scooter", "lat": 38.92671083333333, "is_disabled": 0}, {"fusion_lat": 0.0, "lon": -77.01983916666667, "is_reserved": 0, "bike_id": "55d524fd7911e852f6e1c1e2945bde09", "fusion_lon": 0.0, "rental_uris": {"android": "https://dc.lft.to/lastmile_qr_scan", "ios": "https://dc.lft.to/lastmile_qr_scan"}, "name": "55d524fd7911e852f6e1c1e2945bde09", "type": "electric_scooter", "lat": 38.885828333333336, "is_disabled": 0}, {"fusion_lat": 0.0, "lon": -77.06320716666667, "is_reserved": 0, "bike_id": "8abb04c03c9b033e42791461babf4f55", "fusion_lon": 0.0, "rental_uris": {"android": "https://dc.lft.to/lastmile_qr_scan", "ios": "https://dc.lft.to/lastmile_qr_scan"}, "name": "8abb04c03c9b033e42791461babf4f55", "type": "electric_scooter", "lat": 38.944121333333335, "is_disabled": 0}, {"fusion_lat": 0.0, "lon": -76.95409633333334, "is_reserved": 0, "bike_id": "906a1bdb4a1ab58f11aaf2ed5e2643e9", "fusion_lon": 0.0, "rental_uris": {"android": "https://dc.lft.to/lastmile_qr_scan", "ios": "https://dc.lft.to/lastmile_qr_scan"}, "name": "906a1bdb4a1ab58f11aaf2ed5e2643e9", "type": "electric_scooter", "lat": 38.884669333333335, "is_disabled": 0}, {"fusion_lat": 0.0, "lon": -77.0270155, "is_reserved": 0, "bike_id": "af1cd9fef0a3a07b2930be272aa8c2b5", "fusion_lon": 0.0, "rental_uris": {"android": "https://dc.lft.to/lastmile_qr_scan", "ios": "https://dc.lft.to/lastmile_qr_scan"}, "name": "af1cd9fef0a3a07b2930be272aa8c2b5", "type": "electric_scooter", "lat": 38.90665583333333, "is_disabled": 0}, {"fusion_lat": 0.0, "lon": -77.0297335, "is_reserved": 0, "bike_id": "1bdac7d960bbb2f66ce4195fcd39c1c8", "fusion_lon": 0.0, "rental_uris": {"android": "https://dc.lft.to/lastmile_qr_scan", "ios": "https://dc.lft.to/lastmile_qr_scan"}, "name": "1bdac7d960bbb2f66ce4195fcd39c1c8", "type": "electric_scooter", "lat": 38.9049195, "is_disabled": 0}, {"fusion_lat": 0.0, "lon": -77.05894816666667, "is_reserved": 0, "bike_id": "b7320a45887962e79e36f80dbf0fed5d", "fusion_lon": 0.0, "rental_uris": {"android": "https://dc.lft.to/lastmile_qr_scan", "ios": "https://dc.lft.to/lastmile_qr_scan"}, "name": "b7320a45887962e79e36f80dbf0fed5d", "type": "electric_scooter", "lat": 38.90148766666667, "is_disabled": 0}, {"fusion_lat": 0.0, "lon": -77.05489183333333, "is_reserved": 0, "bike_id": "156b2bb5351284c717f3b12c48871417", "fusion_lon": 0.0, "rental_uris": {"android": "https://dc.lft.to/lastmile_qr_scan", "ios": "https://dc.lft.to/lastmile_qr_scan"}, "name": "156b2bb5351284c717f3b12c48871417", "type": "electric_scooter", "lat": 38.89383733333333, "is_disabled": 0}, {"fusion_lat": 0.0, "lon": -76.9870835, "is_reserved": 0, "bike_id": "94e27d0d95978ce14b580231853e4fb1", "fusion_lon": 0.0, "rental_uris": {"android": "https://dc.lft.to/lastmile_qr_scan", "ios": "https://dc.lft.to/lastmile_qr_scan"}, "name": "94e27d0d95978ce14b580231853e4fb1", "type": "electric_scooter", "lat": 38.86624483333333, "is_disabled": 0}, {"fusion_lat": 0.0, "lon": -76.99634083333333, "is_reserved": 0, "bike_id": "bbc82807499e489926846d0921025374", "fusion_lon": 0.0, "rental_uris": {"android": "https://dc.lft.to/lastmile_qr_scan", "ios": "https://dc.lft.to/lastmile_qr_scan"}, "name": "bbc82807499e489926846d0921025374", "type": "electric_scooter", "lat": 38.90017516666666, "is_disabled": 0}, {"fusion_lat": 0.0, "lon": -77.035212, "is_reserved": 0, "bike_id": "3d11c5ff23023924259fe91c0203bc62", "fusion_lon": 0.0, "rental_uris": {"android": "https://dc.lft.to/lastmile_qr_scan", "ios": "https://dc.lft.to/lastmile_qr_scan"}, "name": "3d11c5ff23023924259fe91c0203bc62", "type": "electric_scooter", "lat": 38.96622383333333, "is_disabled": 0}, {"fusion_lat": 0.0, "lon": -77.026977, "is_reserved": 0, "bike_id": "5c8c4e7a3783fb95a908af7635459d6c", "fusion_lon": 0.0, "rental_uris": {"android": "https://dc.lft.to/lastmile_qr_scan", "ios": "https://dc.lft.to/lastmile_qr_scan"}, "name": "5c8c4e7a3783fb95a908af7635459d6c", "type": "electric_scooter", "lat": 38.92405333333333, "is_disabled": 0}, {"fusion_lat": 0.0, "lon": -77.0498865, "is_reserved": 0, "bike_id": "3c406438cf2af7302fa20ba7bcd29627", "fusion_lon": 0.0, "rental_uris": {"android": "https://dc.lft.to/lastmile_qr_scan", "ios": "https://dc.lft.to/lastmile_qr_scan"}, "name": "3c406438cf2af7302fa20ba7bcd29627", "type": "electric_scooter", "lat": 38.901219166666664, "is_disabled": 0}, {"fusion_lat": 0.0, "lon": -77.04649316666666, "is_reserved": 0, "bike_id": "870e3ef2d050c0d87d839d40529ed199", "fusion_lon": 0.0, "rental_uris": {"android": "https://dc.lft.to/lastmile_qr_scan", "ios": "https://dc.lft.to/lastmile_qr_scan"}, "name": "870e3ef2d050c0d87d839d40529ed199", "type": "electric_scooter", "lat": 38.905492833333334, "is_disabled": 0}, {"fusion_lat": 0.0, "lon": -77.03162766666667, "is_reserved": 0, "bike_id": "e974d87494d4f8465e94dc2b03606704", "fusion_lon": 0.0, "rental_uris": {"android": "https://dc.lft.to/lastmile_qr_scan", "ios": "https://dc.lft.to/lastmile_qr_scan"}, "name": "e974d87494d4f8465e94dc2b03606704", "type": "electric_scooter", "lat": 38.8994735, "is_disabled": 0}, {"fusion_lat": 0.0, "lon": -76.98360366666667, "is_reserved": 0, "bike_id": "f7f2309f53ddfc2f84a20cbe68490749", "fusion_lon": 0.0, "rental_uris": {"android": "https://dc.lft.to/lastmile_qr_scan", "ios": "https://dc.lft.to/lastmile_qr_scan"}, "name": "f7f2309f53ddfc2f84a20cbe68490749", "type": "electric_scooter", "lat": 38.897172833333336, "is_disabled": 0}, {"fusion_lat": 0.0, "lon": -77.03960566666667, "is_reserved": 0, "bike_id": "816a9a709b77a4cc3713d6bcbcf9f605", "fusion_lon": 0.0, "rental_uris": {"android": "https://dc.lft.to/lastmile_qr_scan", "ios": "https://dc.lft.to/lastmile_qr_scan"}, "name": "816a9a709b77a4cc3713d6bcbcf9f605", "type": "electric_scooter", "lat": 38.892456, "is_disabled": 0}, {"fusion_lat": 0.0, "lon": -77.022303, "is_reserved": 0, "bike_id": "a9fc937af3ad3d4772054a88ec28ac52", "fusion_lon": 0.0, "rental_uris": {"android": "https://dc.lft.to/lastmile_qr_scan", "ios": "https://dc.lft.to/lastmile_qr_scan"}, "name": "a9fc937af3ad3d4772054a88ec28ac52", "type": "electric_scooter", "lat": 38.8922125, "is_disabled": 0}, {"fusion_lat": 0.0, "lon": -77.02280733333333, "is_reserved": 0, "bike_id": "84536640d6c2fe8fae1c71c4677ebe7e", "fusion_lon": 0.0, "rental_uris": {"android": "https://dc.lft.to/lastmile_qr_scan", "ios": "https://dc.lft.to/lastmile_qr_scan"}, "name": "84536640d6c2fe8fae1c71c4677ebe7e", "type": "electric_scooter", "lat": 38.8983645, "is_disabled": 0}, {"fusion_lat": 0.0, "lon": -77.02422983333334, "is_reserved": 0, "bike_id": "3e30b854e30dc6659673ec659b2b23ce", "fusion_lon": 0.0, "rental_uris": {"android": "https://dc.lft.to/lastmile_qr_scan", "ios": "https://dc.lft.to/lastmile_qr_scan"}, "name": "3e30b854e30dc6659673ec659b2b23ce", "type": "electric_scooter", "lat": 38.9275705, "is_disabled": 0}, {"fusion_lat": 0.0, "lon": -77.02815583333333, "is_reserved": 0, "bike_id": "b805dd6e50c9fb286d8ffafde1eff4e8", "fusion_lon": 0.0, "rental_uris": {"android": "https://dc.lft.to/lastmile_qr_scan", "ios": "https://dc.lft.to/lastmile_qr_scan"}, "name": "b805dd6e50c9fb286d8ffafde1eff4e8", "type": "electric_scooter", "lat": 38.9061625, "is_disabled": 0}, {"fusion_lat": 0.0, "lon": -77.0423455, "is_reserved": 0, "bike_id": "eed450da290e921ee3d6aa2634859b8a", "fusion_lon": 0.0, "rental_uris": {"android": "https://dc.lft.to/lastmile_qr_scan", "ios": "https://dc.lft.to/lastmile_qr_scan"}, "name": "eed450da290e921ee3d6aa2634859b8a", "type": "electric_scooter", "lat": 38.91333483333333, "is_disabled": 0}, {"fusion_lat": 0.0, "lon": -77.03545016666666, "is_reserved": 0, "bike_id": "79558c4711c088a74d931e362b1b0ef3", "fusion_lon": 0.0, "rental_uris": {"android": "https://dc.lft.to/lastmile_qr_scan", "ios": "https://dc.lft.to/lastmile_qr_scan"}, "name": "79558c4711c088a74d931e362b1b0ef3", "type": "electric_scooter", "lat": 38.923233833333335, "is_disabled": 0}, {"fusion_lat": 0.0, "lon": -77.03294733333334, "is_reserved": 0, "bike_id": "9d30b1d34c15e67c702ccd421ae2d5fa", "fusion_lon": 0.0, "rental_uris": {"android": "https://dc.lft.to/lastmile_qr_scan", "ios": "https://dc.lft.to/lastmile_qr_scan"}, "name": "9d30b1d34c15e67c702ccd421ae2d5fa", "type": "electric_scooter", "lat": 38.91113766666667, "is_disabled": 0}, {"fusion_lat": 0.0, "lon": -77.03404183333333, "is_reserved": 0, "bike_id": "3d12130afc420f7c558c277c5cb7fa71", "fusion_lon": 0.0, "rental_uris": {"android": "https://dc.lft.to/lastmile_qr_scan", "ios": "https://dc.lft.to/lastmile_qr_scan"}, "name": "3d12130afc420f7c558c277c5cb7fa71", "type": "electric_scooter", "lat": 38.90637616666667, "is_disabled": 0}, {"fusion_lat": 0.0, "lon": -77.0293645, "is_reserved": 0, "bike_id": "bd50f64a580fb40fdd71708a8889f63c", "fusion_lon": 0.0, "rental_uris": {"android": "https://dc.lft.to/lastmile_qr_scan", "ios": "https://dc.lft.to/lastmile_qr_scan"}, "name": "bd50f64a580fb40fdd71708a8889f63c", "type": "electric_scooter", "lat": 38.89818666666667, "is_disabled": 0}, {"fusion_lat": 0.0, "lon": -77.0450005, "is_reserved": 0, "bike_id": "02d0dededcdeed22e6394d06d06849f3", "fusion_lon": 0.0, "rental_uris": {"android": "https://dc.lft.to/lastmile_qr_scan", "ios": "https://dc.lft.to/lastmile_qr_scan"}, "name": "02d0dededcdeed22e6394d06d06849f3", "type": "electric_scooter", "lat": 38.903733833333334, "is_disabled": 0}, {"fusion_lat": 0.0, "lon": -76.98882116666667, "is_reserved": 0, "bike_id": "43916700d163780f5f5a64ceb5a59653", "fusion_lon": 0.0, "rental_uris": {"android": "https://dc.lft.to/lastmile_qr_scan", "ios": "https://dc.lft.to/lastmile_qr_scan"}, "name": "43916700d163780f5f5a64ceb5a59653", "type": "electric_scooter", "lat": 38.866569166666665, "is_disabled": 0}, {"fusion_lat": 0.0, "lon": -77.02286583333333, "is_reserved": 0, "bike_id": "0804740702938a129aeb2bae8a00a99b", "fusion_lon": 0.0, "rental_uris": {"android": "https://dc.lft.to/lastmile_qr_scan", "ios": "https://dc.lft.to/lastmile_qr_scan"}, "name": "0804740702938a129aeb2bae8a00a99b", "type": "electric_scooter", "lat": 38.917444833333334, "is_disabled": 0}, {"fusion_lat": 0.0, "lon": -77.04567116666666, "is_reserved": 0, "bike_id": "2538e81b45187c810b816add069c5cdc", "fusion_lon": 0.0, "rental_uris": {"android": "https://dc.lft.to/lastmile_qr_scan", "ios": "https://dc.lft.to/lastmile_qr_scan"}, "name": "2538e81b45187c810b816add069c5cdc", "type": "electric_scooter", "lat": 38.9025785, "is_disabled": 0}, {"fusion_lat": 0.0, "lon": -77.019536, "is_reserved": 0, "bike_id": "c836c60589c44f9fa897505c49bafd10", "fusion_lon": 0.0, "rental_uris": {"android": "https://dc.lft.to/lastmile_qr_scan", "ios": "https://dc.lft.to/lastmile_qr_scan"}, "name": "c836c60589c44f9fa897505c49bafd10", "type": "electric_scooter", "lat": 38.924169166666665, "is_disabled": 0}, {"fusion_lat": 0.0, "lon": -77.00331533333333, "is_reserved": 0, "bike_id": "2a2b14cfe9c6dc9de03252cf3e7be847", "fusion_lon": 0.0, "rental_uris": {"android": "https://dc.lft.to/lastmile_qr_scan", "ios": "https://dc.lft.to/lastmile_qr_scan"}, "name": "2a2b14cfe9c6dc9de03252cf3e7be847", "type": "electric_scooter", "lat": 38.90260966666666, "is_disabled": 0}, {"fusion_lat": 0.0, "lon": -77.00918766666666, "is_reserved": 0, "bike_id": "dbe03e770316da1ef71498043d193c80", "fusion_lon": 0.0, "rental_uris": {"android": "https://dc.lft.to/lastmile_qr_scan", "ios": "https://dc.lft.to/lastmile_qr_scan"}, "name": "dbe03e770316da1ef71498043d193c80", "type": "electric_scooter", "lat": 38.896067333333335, "is_disabled": 0}, {"fusion_lat": 0.0, "lon": -77.0326685, "is_reserved": 0, "bike_id": "a3d975f50dfdd6138ac831ba2c0d098c", "fusion_lon": 0.0, "rental_uris": {"android": "https://dc.lft.to/lastmile_qr_scan", "ios": "https://dc.lft.to/lastmile_qr_scan"}, "name": "a3d975f50dfdd6138ac831ba2c0d098c", "type": "electric_scooter", "lat": 38.902408666666666, "is_disabled": 0}, {"fusion_lat": 0.0, "lon": -77.01699383333333, "is_reserved": 0, "bike_id": "fb0758e18dd8cb2494d57c4005e4dd10", "fusion_lon": 0.0, "rental_uris": {"android": "https://dc.lft.to/lastmile_qr_scan", "ios": "https://dc.lft.to/lastmile_qr_scan"}, "name": "fb0758e18dd8cb2494d57c4005e4dd10", "type": "electric_scooter", "lat": 38.97501616666667, "is_disabled": 0}, {"fusion_lat": 0.0, "lon": -77.00038483333333, "is_reserved": 0, "bike_id": "b770d8ee1e3fdf995ef08c83252678b0", "fusion_lon": 0.0, "rental_uris": {"android": "https://dc.lft.to/lastmile_qr_scan", "ios": "https://dc.lft.to/lastmile_qr_scan"}, "name": "b770d8ee1e3fdf995ef08c83252678b0", "type": "electric_scooter", "lat": 38.907903, "is_disabled": 0}, {"fusion_lat": 0.0, "lon": -77.027443, "is_reserved": 0, "bike_id": "ac4c456bce7dd4004b2d401fe1cff5d8", "fusion_lon": 0.0, "rental_uris": {"android": "https://dc.lft.to/lastmile_qr_scan", "ios": "https://dc.lft.to/lastmile_qr_scan"}, "name": "ac4c456bce7dd4004b2d401fe1cff5d8", "type": "electric_scooter", "lat": 38.92386416666667, "is_disabled": 0}, {"fusion_lat": 0.0, "lon": -76.98762883333333, "is_reserved": 0, "bike_id": "fedaa98b60a8514c978c2326b5c445f2", "fusion_lon": 0.0, "rental_uris": {"android": "https://dc.lft.to/lastmile_qr_scan", "ios": "https://dc.lft.to/lastmile_qr_scan"}, "name": "fedaa98b60a8514c978c2326b5c445f2", "type": "electric_scooter", "lat": 38.90026533333333, "is_disabled": 0}, {"fusion_lat": 0.0, "lon": -77.03097183333334, "is_reserved": 0, "bike_id": "c186489c320bdf49dda4de64003fef54", "fusion_lon": 0.0, "rental_uris": {"android": "https://dc.lft.to/lastmile_qr_scan", "ios": "https://dc.lft.to/lastmile_qr_scan"}, "name": "c186489c320bdf49dda4de64003fef54", "type": "electric_scooter", "lat": 38.923830833333334, "is_disabled": 0}, {"fusion_lat": 0.0, "lon": -76.99703066666666, "is_reserved": 0, "bike_id": "775f4e41c8faaffac8fda9642f48e1d7", "fusion_lon": 0.0, "rental_uris": {"android": "https://dc.lft.to/lastmile_qr_scan", "ios": "https://dc.lft.to/lastmile_qr_scan"}, "name": "775f4e41c8faaffac8fda9642f48e1d7", "type": "electric_scooter", "lat": 38.8442795, "is_disabled": 0}, {"fusion_lat": 0.0, "lon": -76.998051, "is_reserved": 0, "bike_id": "d618b38cd8c721eac38db8501998205c", "fusion_lon": 0.0, "rental_uris": {"android": "https://dc.lft.to/lastmile_qr_scan", "ios": "https://dc.lft.to/lastmile_qr_scan"}, "name": "d618b38cd8c721eac38db8501998205c", "type": "electric_scooter", "lat": 38.88562183333333, "is_disabled": 0}, {"fusion_lat": 0.0, "lon": -77.04827366666666, "is_reserved": 0, "bike_id": "b688e6191e742d6b63c9d66f50be939f", "fusion_lon": 0.0, "rental_uris": {"android": "https://dc.lft.to/lastmile_qr_scan", "ios": "https://dc.lft.to/lastmile_qr_scan"}, "name": "b688e6191e742d6b63c9d66f50be939f", "type": "electric_scooter", "lat": 38.9105375, "is_disabled": 0}, {"fusion_lat": 0.0, "lon": -77.003372, "is_reserved": 0, "bike_id": "effbae08d0a053da5e4db3c3ddd7ac4f", "fusion_lon": 0.0, "rental_uris": {"android": "https://dc.lft.to/lastmile_qr_scan", "ios": "https://dc.lft.to/lastmile_qr_scan"}, "name": "effbae08d0a053da5e4db3c3ddd7ac4f", "type": "electric_scooter", "lat": 38.889883833333336, "is_disabled": 0}, {"fusion_lat": 0.0, "lon": -77.022089, "is_reserved": 0, "bike_id": "35bd451a8382d183da0728fbf5e6a5ed", "fusion_lon": 0.0, "rental_uris": {"android": "https://dc.lft.to/lastmile_qr_scan", "ios": "https://dc.lft.to/lastmile_qr_scan"}, "name": "35bd451a8382d183da0728fbf5e6a5ed", "type": "electric_scooter", "lat": 38.92043433333333, "is_disabled": 0}, {"fusion_lat": 0.0, "lon": -77.020579, "is_reserved": 0, "bike_id": "df1e9e2eda4582a075285a4d43170c52", "fusion_lon": 0.0, "rental_uris": {"android": "https://dc.lft.to/lastmile_qr_scan", "ios": "https://dc.lft.to/lastmile_qr_scan"}, "name": "df1e9e2eda4582a075285a4d43170c52", "type": "electric_bike", "lat": 38.9575435, "is_disabled": 0}, {"fusion_lat": 0.0, "lon": -77.04167116666666, "is_reserved": 0, "bike_id": "3bac97a930248c217c67112bcea340fb", "fusion_lon": 0.0, "rental_uris": {"android": "https://dc.lft.to/lastmile_qr_scan", "ios": "https://dc.lft.to/lastmile_qr_scan"}, "name": "3bac97a930248c217c67112bcea340fb", "type": "electric_scooter", "lat": 38.919797333333335, "is_disabled": 0}, {"fusion_lat": 0.0, "lon": -77.00202383333334, "is_reserved": 0, "bike_id": "64b81c0f89caf7143daea3a248e1d714", "fusion_lon": 0.0, "rental_uris": {"android": "https://dc.lft.to/lastmile_qr_scan", "ios": "https://dc.lft.to/lastmile_qr_scan"}, "name": "64b81c0f89caf7143daea3a248e1d714", "type": "electric_scooter", "lat": 38.900569, "is_disabled": 0}, {"fusion_lat": 0.0, "lon": -77.00522533333333, "is_reserved": 0, "bike_id": "38c6b8c4f91443f4432b9eb6aadf6e14", "fusion_lon": 0.0, "rental_uris": {"android": "https://dc.lft.to/lastmile_qr_scan", "ios": "https://dc.lft.to/lastmile_qr_scan"}, "name": "38c6b8c4f91443f4432b9eb6aadf6e14", "type": "electric_scooter", "lat": 38.875424, "is_disabled": 0}, {"fusion_lat": 0.0, "lon": -76.99574266666667, "is_reserved": 0, "bike_id": "c7a50d02f7c354ad80c18e34f9344329", "fusion_lon": 0.0, "rental_uris": {"android": "https://dc.lft.to/lastmile_qr_scan", "ios": "https://dc.lft.to/lastmile_qr_scan"}, "name": "c7a50d02f7c354ad80c18e34f9344329", "type": "electric_scooter", "lat": 38.88428566666666, "is_disabled": 0}, {"fusion_lat": 0.0, "lon": -77.0198065, "is_reserved": 0, "bike_id": "6f38b29eef1859f9d53d39591f3c6cbf", "fusion_lon": 0.0, "rental_uris": {"android": "https://dc.lft.to/lastmile_qr_scan", "ios": "https://dc.lft.to/lastmile_qr_scan"}, "name": "6f38b29eef1859f9d53d39591f3c6cbf", "type": "electric_scooter", "lat": 38.895622333333336, "is_disabled": 0}, {"fusion_lat": 0.0, "lon": -77.076073, "is_reserved": 0, "bike_id": "a5062657b722efff0bd60da61eb3bc6d", "fusion_lon": 0.0, "rental_uris": {"android": "https://dc.lft.to/lastmile_qr_scan", "ios": "https://dc.lft.to/lastmile_qr_scan"}, "name": "a5062657b722efff0bd60da61eb3bc6d", "type": "electric_scooter", "lat": 38.920534333333336, "is_disabled": 0}, {"fusion_lat": 0.0, "lon": -76.9831625, "is_reserved": 0, "bike_id": "4a34912db5efc6c6cc3f61621d70e43a", "fusion_lon": 0.0, "rental_uris": {"android": "https://dc.lft.to/lastmile_qr_scan", "ios": "https://dc.lft.to/lastmile_qr_scan"}, "name": "4a34912db5efc6c6cc3f61621d70e43a", "type": "electric_scooter", "lat": 38.868899166666665, "is_disabled": 0}, {"fusion_lat": 0.0, "lon": -77.01203466666666, "is_reserved": 0, "bike_id": "0120600850449234f82a94bfb8c65c1f", "fusion_lon": 0.0, "rental_uris": {"android": "https://dc.lft.to/lastmile_qr_scan", "ios": "https://dc.lft.to/lastmile_qr_scan"}, "name": "0120600850449234f82a94bfb8c65c1f", "type": "electric_scooter", "lat": 38.92119433333333, "is_disabled": 0}, {"fusion_lat": 0.0, "lon": -77.02531883333333, "is_reserved": 0, "bike_id": "329b7c32fa2391f6af898f07ea8af42f", "fusion_lon": 0.0, "rental_uris": {"android": "https://dc.lft.to/lastmile_qr_scan", "ios": "https://dc.lft.to/lastmile_qr_scan"}, "name": "329b7c32fa2391f6af898f07ea8af42f", "type": "electric_scooter", "lat": 38.92746183333333, "is_disabled": 0}, {"fusion_lat": 0.0, "lon": -77.03641433333334, "is_reserved": 0, "bike_id": "d70bbe82d50946927afc4505db73298c", "fusion_lon": 0.0, "rental_uris": {"android": "https://dc.lft.to/lastmile_qr_scan", "ios": "https://dc.lft.to/lastmile_qr_scan"}, "name": "d70bbe82d50946927afc4505db73298c", "type": "electric_scooter", "lat": 38.92264333333333, "is_disabled": 0}, {"fusion_lat": 0.0, "lon": -77.032835, "is_reserved": 0, "bike_id": "80e0a87a21e3aeff744a1b364cc11592", "fusion_lon": 0.0, "rental_uris": {"android": "https://dc.lft.to/lastmile_qr_scan", "ios": "https://dc.lft.to/lastmile_qr_scan"}, "name": "80e0a87a21e3aeff744a1b364cc11592", "type": "electric_scooter", "lat": 38.935312, "is_disabled": 0}, {"fusion_lat": 0.0, "lon": -76.99505, "is_reserved": 0, "bike_id": "8e5cc211cc69bb84c9642301817014c9", "fusion_lon": 0.0, "rental_uris": {"android": "https://dc.lft.to/lastmile_qr_scan", "ios": "https://dc.lft.to/lastmile_qr_scan"}, "name": "8e5cc211cc69bb84c9642301817014c9", "type": "electric_scooter", "lat": 38.90976783333333, "is_disabled": 0}, {"fusion_lat": 0.0, "lon": -76.99645533333333, "is_reserved": 0, "bike_id": "c7f77c64117cc8dbacde48af4c1216c8", "fusion_lon": 0.0, "rental_uris": {"android": "https://dc.lft.to/lastmile_qr_scan", "ios": "https://dc.lft.to/lastmile_qr_scan"}, "name": "c7f77c64117cc8dbacde48af4c1216c8", "type": "electric_scooter", "lat": 38.887196, "is_disabled": 0}, {"fusion_lat": 0.0, "lon": -77.02713583333333, "is_reserved": 0, "bike_id": "d6276e0d19f0bfff2952d2b179c0fa80", "fusion_lon": 0.0, "rental_uris": {"android": "https://dc.lft.to/lastmile_qr_scan", "ios": "https://dc.lft.to/lastmile_qr_scan"}, "name": "d6276e0d19f0bfff2952d2b179c0fa80", "type": "electric_scooter", "lat": 38.92465516666667, "is_disabled": 0}, {"fusion_lat": 0.0, "lon": -76.99789166666666, "is_reserved": 0, "bike_id": "1a153303ae69075769a4115ab60d21c2", "fusion_lon": 0.0, "rental_uris": {"android": "https://dc.lft.to/lastmile_qr_scan", "ios": "https://dc.lft.to/lastmile_qr_scan"}, "name": "1a153303ae69075769a4115ab60d21c2", "type": "electric_scooter", "lat": 38.89090983333333, "is_disabled": 0}, {"fusion_lat": 0.0, "lon": -77.00053316666667, "is_reserved": 0, "bike_id": "43ea399a8a0a153e935c1b11414a0720", "fusion_lon": 0.0, "rental_uris": {"android": "https://dc.lft.to/lastmile_qr_scan", "ios": "https://dc.lft.to/lastmile_qr_scan"}, "name": "43ea399a8a0a153e935c1b11414a0720", "type": "electric_scooter", "lat": 38.89160183333333, "is_disabled": 0}, {"fusion_lat": 0.0, "lon": -77.04031883333333, "is_reserved": 0, "bike_id": "a91ea4e3fa3fd52f1ee52e029d8f096e", "fusion_lon": 0.0, "rental_uris": {"android": "https://dc.lft.to/lastmile_qr_scan", "ios": "https://dc.lft.to/lastmile_qr_scan"}, "name": "a91ea4e3fa3fd52f1ee52e029d8f096e", "type": "electric_scooter", "lat": 38.917103, "is_disabled": 0}, {"fusion_lat": 0.0, "lon": -77.051668, "is_reserved": 0, "bike_id": "5f417c11fefc073ba1455553c056fab0", "fusion_lon": 0.0, "rental_uris": {"android": "https://dc.lft.to/lastmile_qr_scan", "ios": "https://dc.lft.to/lastmile_qr_scan"}, "name": "5f417c11fefc073ba1455553c056fab0", "type": "electric_scooter", "lat": 38.92403783333334, "is_disabled": 0}, {"fusion_lat": 0.0, "lon": -77.043388, "is_reserved": 0, "bike_id": "4fc29203a662ffb7288b3604ab99da2d", "fusion_lon": 0.0, "rental_uris": {"android": "https://dc.lft.to/lastmile_qr_scan", "ios": "https://dc.lft.to/lastmile_qr_scan"}, "name": "4fc29203a662ffb7288b3604ab99da2d", "type": "electric_scooter", "lat": 38.905916, "is_disabled": 0}, {"fusion_lat": 0.0, "lon": -77.02095783333333, "is_reserved": 0, "bike_id": "485f16b67c9095c44a3655fbb80587eb", "fusion_lon": 0.0, "rental_uris": {"android": "https://dc.lft.to/lastmile_qr_scan", "ios": "https://dc.lft.to/lastmile_qr_scan"}, "name": "485f16b67c9095c44a3655fbb80587eb", "type": "electric_scooter", "lat": 38.92147833333333, "is_disabled": 0}, {"fusion_lat": 0.0, "lon": -77.03506933333334, "is_reserved": 0, "bike_id": "d05efdaa0ecf355a7390424bba79f2b9", "fusion_lon": 0.0, "rental_uris": {"android": "https://dc.lft.to/lastmile_qr_scan", "ios": "https://dc.lft.to/lastmile_qr_scan"}, "name": "d05efdaa0ecf355a7390424bba79f2b9", "type": "electric_scooter", "lat": 38.918722333333335, "is_disabled": 0}, {"fusion_lat": 0.0, "lon": -76.99350866666667, "is_reserved": 0, "bike_id": "490843a3288fde1c8dade1f91bf1d655", "fusion_lon": 0.0, "rental_uris": {"android": "https://dc.lft.to/lastmile_qr_scan", "ios": "https://dc.lft.to/lastmile_qr_scan"}, "name": "490843a3288fde1c8dade1f91bf1d655", "type": "electric_scooter", "lat": 38.9148395, "is_disabled": 0}, {"fusion_lat": 0.0, "lon": -77.0341925, "is_reserved": 0, "bike_id": "2e31bca1ba72569f4ac2deca476e0feb", "fusion_lon": 0.0, "rental_uris": {"android": "https://dc.lft.to/lastmile_qr_scan", "ios": "https://dc.lft.to/lastmile_qr_scan"}, "name": "2e31bca1ba72569f4ac2deca476e0feb", "type": "electric_scooter", "lat": 38.904351, "is_disabled": 0}, {"fusion_lat": 0.0, "lon": -76.98108666666667, "is_reserved": 0, "bike_id": "d83d63e88eacd598acd64d5480e1b283", "fusion_lon": 0.0, "rental_uris": {"android": "https://dc.lft.to/lastmile_qr_scan", "ios": "https://dc.lft.to/lastmile_qr_scan"}, "name": "d83d63e88eacd598acd64d5480e1b283", "type": "electric_bike", "lat": 38.877305166666666, "is_disabled": 0}, {"fusion_lat": 0.0, "lon": -77.0056975, "is_reserved": 0, "bike_id": "76d7a7673a8f7b762f2a8fb0a4d5d123", "fusion_lon": 0.0, "rental_uris": {"android": "https://dc.lft.to/lastmile_qr_scan", "ios": "https://dc.lft.to/lastmile_qr_scan"}, "name": "76d7a7673a8f7b762f2a8fb0a4d5d123", "type": "electric_scooter", "lat": 38.90029283333333, "is_disabled": 0}, {"fusion_lat": 0.0, "lon": -77.03602833333333, "is_reserved": 0, "bike_id": "cdc913aff1916f03de20ec48b5c7f732", "fusion_lon": 0.0, "rental_uris": {"android": "https://dc.lft.to/lastmile_qr_scan", "ios": "https://dc.lft.to/lastmile_qr_scan"}, "name": "cdc913aff1916f03de20ec48b5c7f732", "type": "electric_scooter", "lat": 38.923212666666664, "is_disabled": 0}, {"fusion_lat": 0.0, "lon": -77.01595916666666, "is_reserved": 0, "bike_id": "c1c276fe1b4fc1df50c042b43753a742", "fusion_lon": 0.0, "rental_uris": {"android": "https://dc.lft.to/lastmile_qr_scan", "ios": "https://dc.lft.to/lastmile_qr_scan"}, "name": "c1c276fe1b4fc1df50c042b43753a742", "type": "electric_scooter", "lat": 38.94938116666667, "is_disabled": 0}, {"fusion_lat": 0.0, "lon": -77.052554, "is_reserved": 0, "bike_id": "7a8e62019943c50fffb93cb7180613f7", "fusion_lon": 0.0, "rental_uris": {"android": "https://dc.lft.to/lastmile_qr_scan", "ios": "https://dc.lft.to/lastmile_qr_scan"}, "name": "7a8e62019943c50fffb93cb7180613f7", "type": "electric_scooter", "lat": 38.923753166666664, "is_disabled": 0}, {"fusion_lat": 0.0, "lon": -76.985488, "is_reserved": 0, "bike_id": "7b970171df157bb399c4af793bf4b6dd", "fusion_lon": 0.0, "rental_uris": {"android": "https://dc.lft.to/lastmile_qr_scan", "ios": "https://dc.lft.to/lastmile_qr_scan"}, "name": "7b970171df157bb399c4af793bf4b6dd", "type": "electric_scooter", "lat": 38.91028216666667, "is_disabled": 0}, {"fusion_lat": 0.0, "lon": -77.00737833333334, "is_reserved": 0, "bike_id": "b2334d450fb5d032bad381e5997b2b9a", "fusion_lon": 0.0, "rental_uris": {"android": "https://dc.lft.to/lastmile_qr_scan", "ios": "https://dc.lft.to/lastmile_qr_scan"}, "name": "b2334d450fb5d032bad381e5997b2b9a", "type": "electric_scooter", "lat": 38.92541133333334, "is_disabled": 0}, {"fusion_lat": 0.0, "lon": -77.05002233333333, "is_reserved": 0, "bike_id": "1abc7dee90227f8946be9986f75cb31b", "fusion_lon": 0.0, "rental_uris": {"android": "https://dc.lft.to/lastmile_qr_scan", "ios": "https://dc.lft.to/lastmile_qr_scan"}, "name": "1abc7dee90227f8946be9986f75cb31b", "type": "electric_scooter", "lat": 38.89232966666667, "is_disabled": 0}, {"fusion_lat": 0.0, "lon": -77.0501855, "is_reserved": 0, "bike_id": "c5f7e917d4698dbb44af6e001f3f7ebb", "fusion_lon": 0.0, "rental_uris": {"android": "https://dc.lft.to/lastmile_qr_scan", "ios": "https://dc.lft.to/lastmile_qr_scan"}, "name": "c5f7e917d4698dbb44af6e001f3f7ebb", "type": "electric_scooter", "lat": 38.90287583333333, "is_disabled": 0}, {"fusion_lat": 0.0, "lon": -77.03644083333333, "is_reserved": 0, "bike_id": "e33e34f89eb45ebf6140544857a2c31b", "fusion_lon": 0.0, "rental_uris": {"android": "https://dc.lft.to/lastmile_qr_scan", "ios": "https://dc.lft.to/lastmile_qr_scan"}, "name": "e33e34f89eb45ebf6140544857a2c31b", "type": "electric_scooter", "lat": 38.922649, "is_disabled": 0}, {"fusion_lat": 0.0, "lon": -76.94958866666667, "is_reserved": 0, "bike_id": "e56babbe2f8542348ebc834de8e928d9", "fusion_lon": 0.0, "rental_uris": {"android": "https://dc.lft.to/lastmile_qr_scan", "ios": "https://dc.lft.to/lastmile_qr_scan"}, "name": "e56babbe2f8542348ebc834de8e928d9", "type": "electric_scooter", "lat": 38.904985833333335, "is_disabled": 0}, {"fusion_lat": 0.0, "lon": -77.02165016666666, "is_reserved": 0, "bike_id": "aba675eb87e7ad6077d6614185b73492", "fusion_lon": 0.0, "rental_uris": {"android": "https://dc.lft.to/lastmile_qr_scan", "ios": "https://dc.lft.to/lastmile_qr_scan"}, "name": "aba675eb87e7ad6077d6614185b73492", "type": "electric_scooter", "lat": 38.91610216666667, "is_disabled": 0}, {"fusion_lat": 0.0, "lon": -77.03130583333333, "is_reserved": 0, "bike_id": "f1879c736a62fc9e28e514385f87a57a", "fusion_lon": 0.0, "rental_uris": {"android": "https://dc.lft.to/lastmile_qr_scan", "ios": "https://dc.lft.to/lastmile_qr_scan"}, "name": "f1879c736a62fc9e28e514385f87a57a", "type": "electric_scooter", "lat": 38.9149355, "is_disabled": 0}, {"fusion_lat": 0.0, "lon": -77.00191566666666, "is_reserved": 0, "bike_id": "68f76aa8f83d6e1957fca6424353e8d4", "fusion_lon": 0.0, "rental_uris": {"android": "https://dc.lft.to/lastmile_qr_scan", "ios": "https://dc.lft.to/lastmile_qr_scan"}, "name": "68f76aa8f83d6e1957fca6424353e8d4", "type": "electric_scooter", "lat": 38.903793666666665, "is_disabled": 0}, {"fusion_lat": 0.0, "lon": -76.957554, "is_reserved": 0, "bike_id": "6499aee447ca88828ece38f8ba95a9d4", "fusion_lon": 0.0, "rental_uris": {"android": "https://dc.lft.to/lastmile_qr_scan", "ios": "https://dc.lft.to/lastmile_qr_scan"}, "name": "6499aee447ca88828ece38f8ba95a9d4", "type": "electric_scooter", "lat": 38.884309333333334, "is_disabled": 0}, {"fusion_lat": 0.0, "lon": -76.95126566666667, "is_reserved": 0, "bike_id": "3296fa2b33a88585a1b4bd008052169b", "fusion_lon": 0.0, "rental_uris": {"android": "https://dc.lft.to/lastmile_qr_scan", "ios": "https://dc.lft.to/lastmile_qr_scan"}, "name": "3296fa2b33a88585a1b4bd008052169b", "type": "electric_scooter", "lat": 38.8903085, "is_disabled": 0}, {"fusion_lat": 0.0, "lon": -77.04725616666667, "is_reserved": 0, "bike_id": "00ac8143a0bef9a59c491c05d1096264", "fusion_lon": 0.0, "rental_uris": {"android": "https://dc.lft.to/lastmile_qr_scan", "ios": "https://dc.lft.to/lastmile_qr_scan"}, "name": "00ac8143a0bef9a59c491c05d1096264", "type": "electric_scooter", "lat": 38.922272166666666, "is_disabled": 0}, {"fusion_lat": 0.0, "lon": -76.98955783333334, "is_reserved": 0, "bike_id": "26af6205e15f86e7b4b043891e11e43b", "fusion_lon": 0.0, "rental_uris": {"android": "https://dc.lft.to/lastmile_qr_scan", "ios": "https://dc.lft.to/lastmile_qr_scan"}, "name": "26af6205e15f86e7b4b043891e11e43b", "type": "electric_scooter", "lat": 38.856897833333335, "is_disabled": 0}, {"fusion_lat": 0.0, "lon": -76.997766, "is_reserved": 0, "bike_id": "8b32877cc3ac077d6ae6f839faf95f5f", "fusion_lon": 0.0, "rental_uris": {"android": "https://dc.lft.to/lastmile_qr_scan", "ios": "https://dc.lft.to/lastmile_qr_scan"}, "name": "8b32877cc3ac077d6ae6f839faf95f5f", "type": "electric_scooter", "lat": 38.908843833333336, "is_disabled": 0}, {"fusion_lat": 0.0, "lon": -76.99606416666667, "is_reserved": 0, "bike_id": "f7a4ca9f09fdfbffc605fdda2482b287", "fusion_lon": 0.0, "rental_uris": {"android": "https://dc.lft.to/lastmile_qr_scan", "ios": "https://dc.lft.to/lastmile_qr_scan"}, "name": "f7a4ca9f09fdfbffc605fdda2482b287", "type": "electric_scooter", "lat": 38.886191333333336, "is_disabled": 0},