{"data": {"bikes": [{"type": "electric_scooter", "name": "bda8632d05db24f06e188086447daf2a", "fusion_lon": 0.0, "is_reserved": 0, "lon": -77.02201866666667, "fusion_lat": 0.0, "is_disabled": 0, "bike_id": "bda8632d05db24f06e188086447daf2a", "lat": 38.920411333333334, "rental_uris": {"ios": "https://dc.lft.to/lastmile_qr_scan", "android": "https://dc.lft.to/lastmile_qr_scan"}}, {"type": "electric_scooter", "name": "f2f90e24a5fb0d9c0431871a045142da", "fusion_lon": 0.0, "is_reserved": 0, "lon": -77.01512666666666, "fusion_lat": 0.0, "is_disabled": 0, "bike_id": "f2f90e24a5fb0d9c0431871a045142da", "lat": 38.96781516666667, "rental_uris": {"ios": "https://dc.lft.to/lastmile_qr_scan", "android": "https://dc.lft.to/lastmile_qr_scan"}}, {"type": "electric_scooter", "name": "502e5d1a7ec8e6febbc0e6b4d8b7e4ab", "fusion_lon": 0.0, "is_reserved": 0, "lon": -77.01029333333334, "fusion_lat": 0.0, "is_disabled": 0, "bike_id": "502e5d1a7ec8e6febbc0e6b4d8b7e4ab", "lat": 38.906446333333335, "rental_uris": {"ios": "https://dc.lft.to/lastmile_qr_scan", "android": "https://dc.lft.to/lastmile_qr_scan"}}, {"type": "electric_scooter", "name": "2908e6789e5214d10b8eb638da9514c8", "fusion_lon": 0.0, "is_reserved": 0, "lon": -77.04829716666667, "fusion_lat": 0.0, "is_disabled": 0, "bike_id": "2908e6789e5214d10b8eb638da9514c8", "lat": 38.918941333333336, "rental_uris": {"ios": "https://dc.lft.to/lastmile_qr_scan", "android": "https://dc.lft.to/lastmile_qr_scan"}}, {"type": "electric_scooter", "name": "550db30eed6a9f0e0ec265efe787a391", "fusion_lon": 0.0, "is_reserved": 0, "lon": -77.02746, "fusion_lat": 0.0, "is_disabled": 0, "bike_id": "550db30eed6a9f0e0ec265efe787a391", "lat": 38.89443333333333, "rental_uris": {"ios": "https://dc.lft.to/lastmile_qr_scan", "android": "https://dc.lft.to/lastmile_qr_scan"}}, {"type": "electric_bike", "name": "e24ce04f5f7f73d81542dc685d76ef71", "fusion_lon": 0.0, "is_reserved": 0, "lon": -77.0839925, "fusion_lat": 0.0, "is_disabled": 0, "bike_id": "e24ce04f5f7f73d81542dc685d76ef71", "lat": 38.9289285, "rental_uris": {"ios": "https://dc.lft.to/lastmile_qr_scan", "android": "https://dc.lft.to/lastmile_qr_scan"}}, {"type": "electric_scooter", "name": "03609d78c1d9b706e304204c1c33bafe", "fusion_lon": 0.0, "is_reserved": 0, "lon": -77.02385916666667, "fusion_lat": 0.0, "is_disabled": 0, "bike_id": "03609d78c1d9b706e304204c1c33bafe", "lat": 38.917534, "rental_uris": {"ios": "https://dc.lft.to/lastmile_qr_scan", "android": "https://dc.lft.to/lastmile_qr_scan"}}, {"type": "electric_bike", "name": "b250b0bcaa5df4c1d098d0387bd8f090", "fusion_lon": 0.0, "is_reserved": 0, "lon": -77.09525433333333, "fusion_lat": 0.0, "is_disabled": 0, "bike_id": "b250b0bcaa5df4c1d098d0387bd8f090", "lat": 38.83809766666667, "rental_uris": {"ios": "https://dc.lft.to/lastmile_qr_scan", "android": "https://dc.lft.to/lastmile_qr_scan"}}, {"type": "electric_scooter", "name": "2f6b5749bb6c960bcebf51f78419c5a3", "fusion_lon": 0.0, "is_reserved": 0, "lon": -77.02772983333334, "fusion_lat": 0.0, "is_disabled": 0, "bike_id": "2f6b5749bb6c960bcebf51f78419c5a3", "lat": 38.955305333333335, "rental_uris": {"ios": "https://dc.lft.to/lastmile_qr_scan", "android": "https://dc.lft.to/lastmile_qr_scan"}}, {"type": "electric_scooter", "name": "79e9703c8c37678fce7b59c682838497", "fusion_lon": 0.0, "is_reserved": 0, "lon": -77.01685766666667, "fusion_lat": 0.0, "is_disabled": 0, "bike_id": "79e9703c8c37678fce7b59c682838497", "lat": 38.971233166666664, "rental_uris": {"ios": "https://dc.lft.to/lastmile_qr_scan", "android": "https://dc.lft.to/lastmile_qr_scan"}}, {"type": "electric_scooter", "name": "48add7a9c31d73b069cf68b80b4bf634", "fusion_lon": 0.0, "is_reserved": 0, "lon": -77.03259366666667, "fusion_lat": 0.0, "is_disabled": 0, "bike_id": "48add7a9c31d73b069cf68b80b4bf634", "lat": 38.937727, "rental_uris": {"ios": "https://dc.lft.to/lastmile_qr_scan", "android": "https://dc.lft.to/lastmile_qr_scan"}}, {"type": "electric_scooter", "name": "515fbc67187bd254fdcb16a75a8833a9", "fusion_lon": 0.0, "is_reserved": 0, "lon": -77.03053083333333, "fusion_lat": 0.0, "is_disabled": 0, "bike_id": "515fbc67187bd254fdcb16a75a8833a9", "lat": 38.9277135, "rental_uris": {"ios": "https://dc.lft.to/lastmile_qr_scan", "android": "https://dc.lft.to/lastmile_qr_scan"}}, {"type": "electric_scooter", "name": "0d6cddfd4337c8316896c021864a9840", "fusion_lon": 0.0, "is_reserved": 0, "lon": -77.0172315, "fusion_lat": 0.0, "is_disabled": 0, "bike_id": "0d6cddfd4337c8316896c021864a9840", "lat": 38.89346366666667, "rental_uris": {"ios": "https://dc.lft.to/lastmile_qr_scan", "android": "https://dc.lft.to/lastmile_qr_scan"}}, {"type": "electric_scooter", "name": "a8aa93b658238af7f998620713993083", "fusion_lon": 0.0, "is_reserved": 0, "lon": -76.97716466666667, "fusion_lat": 0.0, "is_disabled": 0, "bike_id": "a8aa93b658238af7f998620713993083", "lat": 38.898686833333336, "rental_uris": {"ios": "https://dc.lft.to/lastmile_qr_scan", "android": "https://dc.lft.to/lastmile_qr_scan"}}, {"type": "electric_scooter", "name": "7a7856e12f0d4195a9c3d510cd27b81d", "fusion_lon": 0.0, "is_reserved": 0, "lon": -77.06090266666666, "fusion_lat": 0.0, "is_disabled": 0, "bike_id": "7a7856e12f0d4195a9c3d510cd27b81d", "lat": 38.93017066666667, "rental_uris": {"ios": "https://dc.lft.to/lastmile_qr_scan", "android": "https://dc.lft.to/lastmile_qr_scan"}}, {"type": "electric_bike", "name": "04fce8afbf08703337709c102eed55aa", "fusion_lon": 0.0, "is_reserved": 0, "lon": -76.98758, "fusion_lat": 0.0, "is_disabled": 0, "bike_id": "04fce8afbf08703337709c102eed55aa", "lat": 38.857659, "rental_uris": {"ios": "https://dc.lft.to/lastmile_qr_scan", "android": "https://dc.lft.to/lastmile_qr_scan"}}, {"type": "electric_scooter", "name": "36b3e19b3fc15f78568a4a33483084ee", "fusion_lon": 0.0, "is_reserved": 0, "lon": -77.0272835, "fusion_lat": 0.0, "is_disabled": 0, "bike_id": "36b3e19b3fc15f78568a4a33483084ee", "lat": 38.95181083333333, "rental_uris": {"ios": "https://dc.lft.to/lastmile_qr_scan", "android": "https://dc.lft.to/lastmile_qr_scan"}}, {"type": "electric_scooter", "name": "8aafc9900e38a1faea3e3eaa16f280ce", "fusion_lon": 0.0, "is_reserved": 0, "lon": -77.02280766666667, "fusion_lat": 0.0, "is_disabled": 0, "bike_id": "8aafc9900e38a1faea3e3eaa16f280ce", "lat": 38.9145745, "rental_uris": {"ios": "https://dc.lft.to/lastmile_qr_scan", "android": "https://dc.lft.to/lastmile_qr_scan"}}, {"type": "electric_scooter", "name": "a910d67380a3063d1f61a706ecab0d3d", "fusion_lon": 0.0, "is_reserved": 0, "lon": -77.0320645, "fusion_lat": 0.0, "is_disabled": 0, "bike_id": "a910d67380a3063d1f61a706ecab0d3d", "lat": 38.89235866666667, "rental_uris": {"ios": "https://dc.lft.to/lastmile_qr_scan", "android": "https://dc.lft.to/lastmile_qr_scan"}}, {"type": "electric_scooter", "name": "4c360f4f34b14da459a145633fc26c00", "fusion_lon": 0.0, "is_reserved": 0, "lon": -77.02109283333333, "fusion_lat": 0.0, "is_disabled": 0, "bike_id": "4c360f4f34b14da459a145633fc26c00", "lat": 38.906049, "rental_uris": {"ios": "https://dc.lft.to/lastmile_qr_scan", "android": "https://dc.lft.to/lastmile_qr_scan"}}, {"type": "electric_scooter", "name": "8077fe4eb9fe0fa0414293dd48761bd0", "fusion_lon": 0.0, "is_reserved": 0, "lon": -76.92624483333333, "fusion_lat": 0.0, "is_disabled": 0, "bike_id": "8077fe4eb9fe0fa0414293dd48761bd0", "lat": 38.8846, "rental_uris": {"ios": "https://dc.lft.to/lastmile_qr_scan", "android": "https://dc.lft.to/lastmile_qr_scan"}}, {"type": "electric_scooter", "name": "73f6e26fd8f38b5b914d532078be869d", "fusion_lon": 0.0, "is_reserved": 0, "lon": -76.9961145, "fusion_lat": 0.0, "is_disabled": 0, "bike_id": "73f6e26fd8f38b5b914d532078be869d", "lat": 38.885284166666665, "rental_uris": {"ios": "https://dc.lft.to/lastmile_qr_scan", "android": "https://dc.lft.to/lastmile_qr_scan"}}, {"type": "electric_scooter", "name": "64d5d898a7661ea5b9e32181f0bc8c28", "fusion_lon": 0.0, "is_reserved": 0, "lon": -77.03777883333333, "fusion_lat": 0.0, "is_disabled": 0, "bike_id": "64d5d898a7661ea5b9e32181f0bc8c28", "lat": 38.92689166666667, "rental_uris": {"ios": "https://dc.lft.to/lastmile_qr_scan", "android": "https://dc.lft.to/lastmile_qr_scan"}}, {"type": "electric_bike", "name": "ca922888406259d9bc8f61f160e8c640", "fusion_lon": 0.0, "is_reserved": 0, "lon": -77.10834716666666, "fusion_lat": 0.0, "is_disabled": 0, "bike_id": "ca922888406259d9bc8f61f160e8c640", "lat": 38.81202316666667, "rental_uris": {"ios": "https://dc.lft.to/lastmile_qr_scan", "android": "https://dc.lft.to/lastmile_qr_scan"}}, {"type": "electric_scooter", "name": "7ada75fe103df0c73510d2206b110a5b", "fusion_lon": 0.0, "is_reserved": 0, "lon": -77.00778116666666, "fusion_lat": 0.0, "is_disabled": 0, "bike_id": "7ada75fe103df0c73510d2206b110a5b", "lat": 38.89731316666666, "rental_uris": {"ios": "https://dc.lft.to/lastmile_qr_scan", "android": "https://dc.lft.to/lastmile_qr_scan"}}, {"type": "electric_scooter", "name": "a69972186c0b384171a15ae2eb28266c", "fusion_lon": 0.0, "is_reserved": 0, "lon": -77.03338683333334, "fusion_lat": 0.0, "is_disabled": 0, "bike_id": "a69972186c0b384171a15ae2eb28266c", "lat": 38.92879833333333, "rental_uris": {"ios": "https://dc.lft.to/lastmile_qr_scan", "android": "https://dc.lft.to/lastmile_qr_scan"}}, {"type": "electric_scooter", "name": "a911c7ce5b860ffe70e0ca80f6faba7c", "fusion_lon": 0.0, "is_reserved": 0, "lon": -77.030383, "fusion_lat": 0.0, "is_disabled": 0, "bike_id": "a911c7ce5b860ffe70e0ca80f6faba7c", "lat": 38.916800333333335, "rental_uris": {"ios": "https://dc.lft.to/lastmile_qr_scan", "android": "https://dc.lft.to/lastmile_qr_scan"}}, {"type": "electric_scooter", "name": "8a07ea4ece6a9a8d012bd0bf8090ed1a", "fusion_lon": 0.0, "is_reserved": 0, "lon": -77.05075783333334, "fusion_lat": 0.0, "is_disabled": 0, "bike_id": "8a07ea4ece6a9a8d012bd0bf8090ed1a", "lat": 38.905104666666666, "rental_uris": {"ios": "https://dc.lft.to/lastmile_qr_scan", "android": "https://dc.lft.to/lastmile_qr_scan"}}, {"type": "electric_bike", "name": "28710e5ea64f9c65f8844ace5e0cee44", "fusion_lon": 0.0, "is_reserved": 0, "lon": -76.94293833333333, "fusion_lat": 0.0, "is_disabled": 0, "bike_id": "28710e5ea64f9c65f8844ace5e0cee44", "lat": 38.938704, "rental_uris": {"ios": "https://dc.lft.to/lastmile_qr_scan", "android": "https://dc.lft.to/lastmile_qr_scan"}}, {"type": "electric_scooter", "name": "7c0dbedabc72b8e94df1f7dc4b6b0015", "fusion_lon": 0.0, "is_reserved": 0, "lon": -77.0452835, "fusion_lat": 0.0, "is_disabled": 0, "bike_id": "7c0dbedabc72b8e94df1f7dc4b6b0015", "lat": 38.913116333333335, "rental_uris": {"ios": "https://dc.lft.to/lastmile_qr_scan", "android": "https://dc.lft.to/lastmile_qr_scan"}}, {"type": "electric_scooter", "name": "00aaf3b24150c988587a6857fe7e8c03", "fusion_lon": 0.0, "is_reserved": 0, "lon": -77.00980333333334, "fusion_lat": 0.0, "is_disabled": 0, "bike_id": "00aaf3b24150c988587a6857fe7e8c03", "lat": 38.872943666666664, "rental_uris": {"ios": "https://dc.lft.to/lastmile_qr_scan", "android": "https://dc.lft.to/lastmile_qr_scan"}}, {"type": "electric_scooter", "name": "09d49abd29054a213376a6d133e61e0c", "fusion_lon": 0.0, "is_reserved": 0, "lon": -77.03844983333333, "fusion_lat": 0.0, "is_disabled": 0, "bike_id": "09d49abd29054a213376a6d133e61e0c", "lat": 38.91669233333333, "rental_uris": {"ios": "https://dc.lft.to/lastmile_qr_scan", "android": "https://dc.lft.to/lastmile_qr_scan"}}, {"type": "electric_scooter", "name": "65126f5bbe53264b1514beeaa2414801", "fusion_lon": 0.0, "is_reserved": 0, "lon": -76.99511816666667, "fusion_lat": 0.0, "is_disabled": 0, "bike_id": "65126f5bbe53264b1514beeaa2414801", "lat": 38.88606866666667, "rental_uris": {"ios": "https://dc.lft.to/lastmile_qr_scan", "android": "https://dc.lft.to/lastmile_qr_scan"}}, {"type": "electric_bike", "name": "e0403f4d5754d155507452b68c073af4", "fusion_lon": 0.0, "is_reserved": 0, "lon": -77.02627666666666, "fusion_lat": 0.0, "is_disabled": 0, "bike_id": "e0403f4d5754d155507452b68c073af4", "lat": 38.96219833333333, "rental_uris": {"ios": "https://dc.lft.to/lastmile_qr_scan", "android": "https://dc.lft.to/lastmile_qr_scan"}}, {"type": "electric_scooter", "name": "1b7ae38637b427a1bba753b3fcadee94", "fusion_lon": 0.0, "is_reserved": 0, "lon": -77.02099733333333, "fusion_lat": 0.0, "is_disabled": 0, "bike_id": "1b7ae38637b427a1bba753b3fcadee94", "lat": 38.899508, "rental_uris": {"ios": "https://dc.lft.to/lastmile_qr_scan", "android": "https://dc.lft.to/lastmile_qr_scan"}}, {"type": "electric_scooter", "name": "e05a959ce58d1cb88c525e75ff164bbb", "fusion_lon": 0.0, "is_reserved": 0, "lon": -77.04135466666666, "fusion_lat": 0.0, "is_disabled": 0, "bike_id": "e05a959ce58d1cb88c525e75ff164bbb", "lat": 38.89820533333334, "rental_uris": {"ios": "https://dc.lft.to/lastmile_qr_scan", "android": "https://dc.lft.to/lastmile_qr_scan"}}, {"type": "electric_scooter", "name": "91f44aaae2486792466e38fcffc5094d", "fusion_lon": 0.0, "is_reserved": 0, "lon": -77.03441866666667, "fusion_lat": 0.0, "is_disabled": 0, "bike_id": "91f44aaae2486792466e38fcffc5094d", "lat": 38.9025135, "rental_uris": {"ios": "https://dc.lft.to/lastmile_qr_scan", "android": "https://dc.lft.to/lastmile_qr_scan"}}, {"type": "electric_bike", "name": "0eaeb3fffd46b88e5f07db28961cba61", "fusion_lon": 0.0, "is_reserved": 0, "lon": -77.03272866666667, "fusion_lat": 0.0, "is_disabled": 0, "bike_id": "0eaeb3fffd46b88e5f07db28961cba61", "lat": 38.934453, "rental_uris": {"ios": "https://dc.lft.to/lastmile_qr_scan", "android": "https://dc.lft.to/lastmile_qr_scan"}}, {"type": "electric_bike", "name": "28ef86f0dea099bd7f2807a6bbf7c987", "fusion_lon": 0.0, "is_reserved": 0, "lon": -77.014552, "fusion_lat": 0.0, "is_disabled": 0, "bike_id": "28ef86f0dea099bd7f2807a6bbf7c987", "lat": 38.962754333333336, "rental_uris": {"ios": "https://dc.lft.to/lastmile_qr_scan", "android": "https://dc.lft.to/lastmile_qr_scan"}}, {"type": "electric_scooter", "name": "451ee5ef3db2cd84d1732b672c6c666c", "fusion_lon": 0.0, "is_reserved": 0, "lon": -77.04253633333333, "fusion_lat": 0.0, "is_disabled": 0, "bike_id": "451ee5ef3db2cd84d1732b672c6c666c", "lat": 38.922641166666665, "rental_uris": {"ios": "https://dc.lft.to/lastmile_qr_scan", "android": "https://dc.lft.to/lastmile_qr_scan"}}, {"type": "electric_scooter", "name": "714199df0518d1c99ed42b38b569a9b4", "fusion_lon": 0.0, "is_reserved": 0, "lon": -76.94688916666667, "fusion_lat": 0.0, "is_disabled": 0, "bike_id": "714199df0518d1c99ed42b38b569a9b4", "lat": 38.90068566666667, "rental_uris": {"ios": "https://dc.lft.to/lastmile_qr_scan", "android": "https://dc.lft.to/lastmile_qr_scan"}}, {"type": "electric_bike", "name": "0669f09cf46131d6bf997a7e0adb037e", "fusion_lon": 0.0, "is_reserved": 0, "lon": -76.97726616666667, "fusion_lat": 0.0, "is_disabled": 0, "bike_id": "0669f09cf46131d6bf997a7e0adb037e", "lat": 38.951736333333336, "rental_uris": {"ios": "https://dc.lft.to/lastmile_qr_scan", "android": "https://dc.lft.to/lastmile_qr_scan"}}, {"type": "electric_scooter", "name": "d4f1daaa443c0ab66bb746600900a935", "fusion_lon": 0.0, "is_reserved": 0, "lon": -77.03661166666667, "fusion_lat": 0.0, "is_disabled": 0, "bike_id": "d4f1daaa443c0ab66bb746600900a935", "lat": 38.9249065, "rental_uris": {"ios": "https://dc.lft.to/lastmile_qr_scan", "android": "https://dc.lft.to/lastmile_qr_scan"}}, {"type": "electric_scooter", "name": "3d7eb9db7cedecacef12431a6947a6be", "fusion_lon": 0.0, "is_reserved": 0, "lon": -77.03317966666667, "fusion_lat": 0.0, "is_disabled": 0, "bike_id": "3d7eb9db7cedecacef12431a6947a6be", "lat": 38.928626333333334, "rental_uris": {"ios": "https://dc.lft.to/lastmile_qr_scan", "android": "https://dc.lft.to/lastmile_qr_scan"}}, {"type": "electric_scooter", "name": "0b4965164df8058414211dd7c8cf5e17", "fusion_lon": 0.0, "is_reserved": 0, "lon": -77.030136, "fusion_lat": 0.0, "is_disabled": 0, "bike_id": "0b4965164df8058414211dd7c8cf5e17", "lat": 38.91914333333333, "rental_uris": {"ios": "https://dc.lft.to/lastmile_qr_scan", "android": "https://dc.lft.to/lastmile_qr_scan"}}, {"type": "electric_scooter", "name": "994048cfb6f15ecd920496362d4ba3eb", "fusion_lon": 0.0, "is_reserved": 0, "lon": -77.05058816666667, "fusion_lat": 0.0, "is_disabled": 0, "bike_id": "994048cfb6f15ecd920496362d4ba3eb", "lat": 38.9241955, "rental_uris": {"ios": "https://dc.lft.to/lastmile_qr_scan", "android": "https://dc.lft.to/lastmile_qr_scan"}}, {"type": "electric_scooter", "name": "52a7f053cce76e81c326296143f4582a", "fusion_lon": 0.0, "is_reserved": 0, "lon": -76.9701325, "fusion_lat": 0.0, "is_disabled": 0, "bike_id": "52a7f053cce76e81c326296143f4582a", "lat": 38.850575, "rental_uris": {"ios": "https://dc.lft.to/lastmile_qr_scan", "android": "https://dc.lft.to/lastmile_qr_scan"}}, {"type": "electric_scooter", "name": "413bf713684f8d92a05e34dcc1a8108a", "fusion_lon": 0.0, "is_reserved": 0, "lon": -77.03634466666666, "fusion_lat": 0.0, "is_disabled": 0, "bike_id": "413bf713684f8d92a05e34dcc1a8108a", "lat": 38.918023, "rental_uris": {"ios": "https://dc.lft.to/lastmile_qr_scan", "android": "https://dc.lft.to/lastmile_qr_scan"}}, {"type": "electric_scooter", "name": "2feb790132ac717e362a5ee031c92f95", "fusion_lon": 0.0, "is_reserved": 0, "lon": -77.0214205, "fusion_lat": 0.0, "is_disabled": 0, "bike_id": "2feb790132ac717e362a5ee031c92f95", "lat": 38.91986966666666, "rental_uris": {"ios": "https://dc.lft.to/lastmile_qr_scan", "android": "https://dc.lft.to/lastmile_qr_scan"}}, {"type": "electric_scooter", "name": "e36fb93e61b315f8cd0833fc8ca405e1", "fusion_lon": 0.0, "is_reserved": 0, "lon": -77.01314333333333, "fusion_lat": 0.0, "is_disabled": 0, "bike_id": "e36fb93e61b315f8cd0833fc8ca405e1", "lat": 38.901384, "rental_uris": {"ios": "https://dc.lft.to/lastmile_qr_scan", "android": "https://dc.lft.to/lastmile_qr_scan"}}, {"type": "electric_scooter", "name": "2d9c2983fe0d45eb4244a89736225006", "fusion_lon": 0.0, "is_reserved": 0, "lon": -77.07266966666667, "fusion_lat": 0.0, "is_disabled": 0, "bike_id": "2d9c2983fe0d45eb4244a89736225006", "lat": 38.90922233333333, "rental_uris": {"ios": "https://dc.lft.to/lastmile_qr_scan", "android": "https://dc.lft.to/lastmile_qr_scan"}}, {"type": "electric_scooter", "name": "86f33145a32885e29e08793c1fe9252e", "fusion_lon": 0.0, "is_reserved": 0, "lon": -76.939708, "fusion_lat": 0.0, "is_disabled": 0, "bike_id": "86f33145a32885e29e08793c1fe9252e", "lat": 38.89305916666667, "rental_uris": {"ios": "https://dc.lft.to/lastmile_qr_scan", "android": "https://dc.lft.to/lastmile_qr_scan"}}, {"type": "electric_scooter", "name": "22942e12e76f818fbf07b3b7e513570c", "fusion_lon": 0.0, "is_reserved": 0, "lon": -77.04081116666667, "fusion_lat": 0.0, "is_disabled": 0, "bike_id": "22942e12e76f818fbf07b3b7e513570c", "lat": 38.91726766666667, "rental_uris": {"ios": "https://dc.lft.to/lastmile_qr_scan", "android": "https://dc.lft.to/lastmile_qr_scan"}}, {"type": "electric_scooter", "name": "60049db9791b7fe121fd471628b45dd7", "fusion_lon": 0.0, "is_reserved": 0, "lon": -77.031924, "fusion_lat": 0.0, "is_disabled": 0, "bike_id": "60049db9791b7fe121fd471628b45dd7", "lat": 38.92865966666667, "rental_uris": {"ios": "https://dc.lft.to/lastmile_qr_scan", "android": "https://dc.lft.to/lastmile_qr_scan"}}, {"type": "electric_scooter", "name": "62c5521ad8b47b47d903a5cf2697d300", "fusion_lon": 0.0, "is_reserved": 0, "lon": -77.06529083333334, "fusion_lat": 0.0, "is_disabled": 0, "bike_id": "62c5521ad8b47b47d903a5cf2697d300", "lat": 38.95070966666667, "rental_uris": {"ios": "https://dc.lft.to/lastmile_qr_scan", "android": "https://dc.lft.to/lastmile_qr_scan"}}, {"type": "electric_scooter", "name": "3fb37fc8fce15ad77c664315053d9126", "fusion_lon": 0.0, "is_reserved": 0, "lon": -76.98593083333333, "fusion_lat": 0.0, "is_disabled": 0, "bike_id": "3fb37fc8fce15ad77c664315053d9126", "lat": 38.867008, "rental_uris": {"ios": "https://dc.lft.to/lastmile_qr_scan", "android": "https://dc.lft.to/lastmile_qr_scan"}}, {"type": "electric_scooter", "name": "5633c6e3b168ae984232551f870720e9", "fusion_lon": 0.0, "is_reserved": 0, "lon": -77.02517, "fusion_lat": 0.0, "is_disabled": 0, "bike_id": "5633c6e3b168ae984232551f870720e9", "lat": 38.9420845, "rental_uris": {"ios": "https://dc.lft.to/lastmile_qr_scan", "android": "https://dc.lft.to/lastmile_qr_scan"}}, {"type": "electric_scooter", "name": "8f34c9e8bcfcfc02f8b61c61628fe76c", "fusion_lon": 0.0, "is_reserved": 0, "lon": -76.99510933333333, "fusion_lat": 0.0, "is_disabled": 0, "bike_id": "8f34c9e8bcfcfc02f8b61c61628fe76c", "lat": 38.862554333333335, "rental_uris": {"ios": "https://dc.lft.to/lastmile_qr_scan", "android": "https://dc.lft.to/lastmile_qr_scan"}}, {"type": "electric_scooter", "name": "ce2b6286388f168a545d4b63e6ec5168", "fusion_lon": 0.0, "is_reserved": 0, "lon": -77.04875616666666, "fusion_lat": 0.0, "is_disabled": 0, "bike_id": "ce2b6286388f168a545d4b63e6ec5168", "lat": 38.893215, "rental_uris": {"ios": "https://dc.lft.to/lastmile_qr_scan", "android": "https://dc.lft.to/lastmile_qr_scan"}}, {"type": "electric_scooter", "name": "6bff63189c8f2956a2f120b324fe4f7f", "fusion_lon": 0.0, "is_reserved": 0, "lon": -77.03849683333334, "fusion_lat": 0.0, "is_disabled": 0, "bike_id": "6bff63189c8f2956a2f120b324fe4f7f", "lat": 38.90388383333333, "rental_uris": {"ios": "https://dc.lft.to/lastmile_qr_scan", "android": "https://dc.lft.to/lastmile_qr_scan"}}, {"type": "electric_bike", "name": "eca742b060335be81aa8c25b384d79cc", "fusion_lon": 0.0, "is_reserved": 0, "lon": -77.2280265, "fusion_lat": 0.0, "is_disabled": 0, "bike_id": "eca742b060335be81aa8c25b384d79cc", "lat": 38.91017983333333, "rental_uris": {"ios": "https://dc.lft.to/lastmile_qr_scan", "android": "https://dc.lft.to/lastmile_qr_scan"}}, {"type": "electric_scooter", "name": "aec7951fbdf9b402db17104a675addc3", "fusion_lon": 0.0, "is_reserved": 0, "lon": -77.03862566666666, "fusion_lat": 0.0, "is_disabled": 0, "bike_id": "aec7951fbdf9b402db17104a675addc3", "lat": 38.907928, "rental_uris": {"ios": "https://dc.lft.to/lastmile_qr_scan", "android": "https://dc.lft.to/lastmile_qr_scan"}}, {"type": "electric_bike", "name": "957bcd5e61543d3dcc1d7c89903fab97", "fusion_lon": 0.0, "is_reserved": 0, "lon": -76.962356, "fusion_lat": 0.0, "is_disabled": 0, "bike_id": "957bcd5e61543d3dcc1d7c89903fab97", "lat": 38.880567166666665, "rental_uris": {"ios": "https://dc.lft.to/lastmile_qr_scan", "android": "https://dc.lft.to/lastmile_qr_scan"}}, {"type": "electric_scooter", "name": "70db4e6247b50e1bff68737a0ccdbbda", "fusion_lon": 0.0, "is_reserved": 0, "lon": -77.0221785, "fusion_lat": 0.0, "is_disabled": 0, "bike_id": "70db4e6247b50e1bff68737a0ccdbbda", "lat": 38.9054895, "rental_uris": {"ios": "https://dc.lft.to/lastmile_qr_scan", "android": "https://dc.lft.to/lastmile_qr_scan"}}, {"type": "electric_scooter", "name": "9a07b88cb7aa8827c7698d61ee215103", "fusion_lon": 0.0, "is_reserved": 0, "lon": -77.041091, "fusion_lat": 0.0, "is_disabled": 0, "bike_id": "9a07b88cb7aa8827c7698d61ee215103", "lat": 38.92447533333333, "rental_uris": {"ios": "https://dc.lft.to/lastmile_qr_scan", "android": "https://dc.lft.to/lastmile_qr_scan"}}, {"type": "electric_bike", "name": "80ef5c0f66c65ab5032915350ebff6c4", "fusion_lon": 0.0, "is_reserved": 0, "lon": -77.23316733333333, "fusion_lat": 0.0, "is_disabled": 0, "bike_id": "80ef5c0f66c65ab5032915350ebff6c4", "lat": 38.872805, "rental_uris": {"ios": "https://dc.lft.to/lastmile_qr_scan", "android": "https://dc.lft.to/lastmile_qr_scan"}}, {"type": "electric_bike", "name": "ed4d2d8d693d86646a82393e497a1982", "fusion_lon": 0.0, "is_reserved": 0, "lon": -77.0229255, "fusion_lat": 0.0, "is_disabled": 0, "bike_id": "ed4d2d8d693d86646a82393e497a1982", "lat": 38.9614235, "rental_uris": {"ios": "https://dc.lft.to/lastmile_qr_scan", "android": "https://dc.lft.to/lastmile_qr_scan"}}, {"type": "electric_scooter", "name": "c713ea9f2d5750e65391b1274bd0b38f", "fusion_lon": 0.0, "is_reserved": 0, "lon": -77.02145566666667, "fusion_lat": 0.0, "is_disabled": 0, "bike_id": "c713ea9f2d5750e65391b1274bd0b38f", "lat": 38.9239885, "rental_uris": {"ios": "https://dc.lft.to/lastmile_qr_scan", "android": "https://dc.lft.to/lastmile_qr_scan"}}, {"type": "electric_scooter", "name": "181942046244a83cdf75e55a84be8f63", "fusion_lon": 0.0, "is_reserved": 0, "lon": -77.02829483333333, "fusion_lat": 0.0, "is_disabled": 0, "bike_id": "181942046244a83cdf75e55a84be8f63", "lat": 38.88726533333333, "rental_uris": {"ios": "https://dc.lft.to/lastmile_qr_scan", "android": "https://dc.lft.to/lastmile_qr_scan"}}, {"type": "electric_scooter", "name": "48430933e0786a26a029d4e5e6e2cd6d", "fusion_lon": 0.0, "is_reserved": 0, "lon": -77.0286895, "fusion_lat": 0.0, "is_disabled": 0, "bike_id": "48430933e0786a26a029d4e5e6e2cd6d", "lat": 38.892246, "rental_uris": {"ios": "https://dc.lft.to/lastmile_qr_scan", "android": "https://dc.lft.to/lastmile_qr_scan"}}, {"type": "electric_scooter", "name": "1554fb214c555b35e7ce9aaed042dd3d", "fusion_lon": 0.0, "is_reserved": 0, "lon": -77.031368, "fusion_lat": 0.0, "is_disabled": 0, "bike_id": "1554fb214c555b35e7ce9aaed042dd3d", "lat": 38.905347166666665, "rental_uris": {"ios": "https://dc.lft.to/lastmile_qr_scan", "android": "https://dc.lft.to/lastmile_qr_scan"}}, {"type": "electric_scooter", "name": "80607601060bdb1b83605d20f6977628", "fusion_lon": 0.0, "is_reserved": 0, "lon": -77.040234, "fusion_lat": 0.0, "is_disabled": 0, "bike_id": "80607601060bdb1b83605d20f6977628", "lat": 38.91798716666667, "rental_uris": {"ios": "https://dc.lft.to/lastmile_qr_scan", "android": "https://dc.lft.to/lastmile_qr_scan"}}, {"type": "electric_scooter", "name": "cc88ce331f2db5613f09e65005995b54", "fusion_lon": 0.0, "is_reserved": 0, "lon": -77.0056555, "fusion_lat": 0.0, "is_disabled": 0, "bike_id": "cc88ce331f2db5613f09e65005995b54", "lat": 38.885125333333335, "rental_uris": {"ios": "https://dc.lft.to/lastmile_qr_scan", "android": "https://dc.lft.to/lastmile_qr_scan"}}, {"type": "electric_scooter", "name": "c3f8b496527e2bf08adfe90d97b25221", "fusion_lon": 0.0, "is_reserved": 0, "lon": -77.027564, "fusion_lat": 0.0, "is_disabled": 0, "bike_id": "c3f8b496527e2bf08adfe90d97b25221", "lat": 38.923164, "rental_uris": {"ios": "https://dc.lft.to/lastmile_qr_scan", "android": "https://dc.lft.to/lastmile_qr_scan"}}, {"type": "electric_scooter", "name": "d4ef8d7ecab8d2abf15fe9f8fa2c0fd2", "fusion_lon": 0.0, "is_reserved": 0, "lon": -77.04680133333333, "fusion_lat": 0.0, "is_disabled": 0, "bike_id": "d4ef8d7ecab8d2abf15fe9f8fa2c0fd2", "lat": 38.89507016666667, "rental_uris": {"ios": "https://dc.lft.to/lastmile_qr_scan", "android": "https://dc.lft.to/lastmile_qr_scan"}}, {"type": "electric_scooter", "name": "26bd71f252a70890b5d3e04e92bce353", "fusion_lon": 0.0, "is_reserved": 0, "lon": -77.03294516666666, "fusion_lat": 0.0, "is_disabled": 0, "bike_id": "26bd71f252a70890b5d3e04e92bce353", "lat": 38.928489, "rental_uris": {"ios": "https://dc.lft.to/lastmile_qr_scan", "android": "https://dc.lft.to/lastmile_qr_scan"}}, {"type": "electric_scooter", "name": "506ade7d07122777a52e22bc430f526b", "fusion_lon": 0.0, "is_reserved": 0, "lon": -77.03833466666667, "fusion_lat": 0.0, "is_disabled": 0, "bike_id": "506ade7d07122777a52e22bc430f526b", "lat": 38.906888, "rental_uris": {"ios": "https://dc.lft.to/lastmile_qr_scan", "android": "https://dc.lft.to/lastmile_qr_scan"}}, {"type": "electric_scooter", "name": "9d57eb41f914cfd6983530afb88ff591", "fusion_lon": 0.0, "is_reserved": 0, "lon": -77.04183816666666, "fusion_lat": 0.0, "is_disabled": 0, "bike_id": "9d57eb41f914cfd6983530afb88ff591", "lat": 38.9025715, "rental_uris": {"ios": "https://dc.lft.to/lastmile_qr_scan", "android": "https://dc.lft.to/lastmile_qr_scan"}}, {"type": "electric_scooter", "name": "705b6eddb001bcf67119862106ca18e1", "fusion_lon": 0.0, "is_reserved": 0, "lon": -77.043569, "fusion_lat": 0.0, "is_disabled": 0, "bike_id": "705b6eddb001bcf67119862106ca18e1", "lat": 38.91119333333333, "rental_uris": {"ios": "https://dc.lft.to/lastmile_qr_scan", "android": "https://dc.lft.to/lastmile_qr_scan"}}, {"type": "electric_scooter", "name": "2fcd1e6130012dbe2c4fe30aecee7807", "fusion_lon": 0.0, "is_reserved": 0, "lon": -77.01662483333334, "fusion_lat": 0.0, "is_disabled": 0, "bike_id": "2fcd1e6130012dbe2c4fe30aecee7807", "lat": 38.8810485, "rental_uris": {"ios": "https://dc.lft.to/lastmile_qr_scan", "android": "https://dc.lft.to/lastmile_qr_scan"}}, {"type": "electric_scooter", "name": "2997d03b6a21adcfb6408c35fe18514d", "fusion_lon": 0.0, "is_reserved": 0, "lon": -77.04764166666666, "fusion_lat": 0.0, "is_disabled": 0, "bike_id": "2997d03b6a21adcfb6408c35fe18514d", "lat": 38.91875183333333, "rental_uris": {"ios": "https://dc.lft.to/lastmile_qr_scan", "android": "https://dc.lft.to/lastmile_qr_scan"}}, {"type": "electric_scooter", "name": "1f4851e1f4034ae4bc0d4587b9c7d0d4", "fusion_lon": 0.0, "is_reserved": 0, "lon": -76.99102416666666, "fusion_lat": 0.0, "is_disabled": 0, "bike_id": "1f4851e1f4034ae4bc0d4587b9c7d0d4", "lat": 38.88594633333334, "rental_uris": {"ios": "https://dc.lft.to/lastmile_qr_scan", "android": "https://dc.lft.to/lastmile_qr_scan"}}, {"type": "electric_scooter", "name": "9216469487a59d41d5a617908814dfe1", "fusion_lon": 0.0, "is_reserved": 0, "lon": -77.01465283333333, "fusion_lat": 0.0, "is_disabled": 0, "bike_id": "9216469487a59d41d5a617908814dfe1", "lat": 38.87970883333333, "rental_uris": {"ios": "https://dc.lft.to/lastmile_qr_scan", "android": "https://dc.lft.to/lastmile_qr_scan"}}, {"type": "electric_scooter", "name": "fd9835fe5baf6a2635ceb05156f13fd6", "fusion_lon": 0.0, "is_reserved": 0, "lon": -77.02202733333333, "fusion_lat": 0.0, "is_disabled": 0, "bike_id": "fd9835fe5baf6a2635ceb05156f13fd6", "lat": 38.9161545, "rental_uris": {"ios": "https://dc.lft.to/lastmile_qr_scan", "android": "https://dc.lft.to/lastmile_qr_scan"}}, {"type": "electric_scooter", "name": "f3cb656a4383751beaadcfc805b655cd", "fusion_lon": 0.0, "is_reserved": 0, "lon": -77.04553433333334, "fusion_lat": 0.0, "is_disabled": 0, "bike_id": "f3cb656a4383751beaadcfc805b655cd", "lat": 38.89610233333333, "rental_uris": {"ios": "https://dc.lft.to/lastmile_qr_scan", "android": "https://dc.lft.to/lastmile_qr_scan"}}, {"type": "electric_scooter", "name": "cc90175059078b56277d0e8e05fdd97d", "fusion_lon": 0.0, "is_reserved": 0, "lon": -77.04189283333334, "fusion_lat": 0.0, "is_disabled": 0, "bike_id": "cc90175059078b56277d0e8e05fdd97d", "lat": 38.9064005, "rental_uris": {"ios": "https://dc.lft.to/lastmile_qr_scan", "android": "https://dc.lft.to/lastmile_qr_scan"}}, {"type": "electric_scooter", "name": "bc0234ab332f9accbe0bdfab171258ce", "fusion_lon": 0.0, "is_reserved": 0, "lon": -77.02206166666667, "fusion_lat": 0.0, "is_disabled": 0, "bike_id": "bc0234ab332f9accbe0bdfab171258ce", "lat": 38.8873745, "rental_uris": {"ios": "https://dc.lft.to/lastmile_qr_scan", "android": "https://dc.lft.to/lastmile_qr_scan"}}, {"type": "electric_scooter", "name": "d5ad1895b9c66b90d4c9731ac62b44be", "fusion_lon": 0.0, "is_reserved": 0, "lon": -77.02143, "fusion_lat": 0.0, "is_disabled": 0, "bike_id": "d5ad1895b9c66b90d4c9731ac62b44be", "lat": 38.924453666666665, "rental_uris": {"ios": "https://dc.lft.to/lastmile_qr_scan", "android": "https://dc.lft.to/lastmile_qr_scan"}}, {"type": "electric_scooter", "name": "106a70078b8b0961a1dc503ce67a6cb7", "fusion_lon": 0.0, "is_reserved": 0, "lon": -77.040047, "fusion_lat": 0.0, "is_disabled": 0, "bike_id": "106a70078b8b0961a1dc503ce67a6cb7", "lat": 38.91000066666667, "rental_uris": {"ios": "https://dc.lft.to/lastmile_qr_scan", "android": "https://dc.lft.to/lastmile_qr_scan"}}, {"type": "electric_scooter", "name": "bbc00ada6e8c28ee5ffa75504154b42c", "fusion_lon": 0.0, "is_reserved": 0, "lon": -77.043417, "fusion_lat": 0.0, "is_disabled": 0, "bike_id": "bbc00ada6e8c28ee5ffa75504154b42c", "lat": 38.92150916666667, "rental_uris": {"ios": "https://dc.lft.to/lastmile_qr_scan", "android": "https://dc.lft.to/lastmile_qr_scan"}}, {"type": "electric_scooter", "name": "73af767981d07f658adb3eea0a4b18a8", "fusion_lon": 0.0, "is_reserved": 0, "lon": -77.0590805, "fusion_lat": 0.0, "is_disabled": 0, "bike_id": "73af767981d07f658adb3eea0a4b18a8", "lat": 38.902793833333334, "rental_uris": {"ios": "https://dc.lft.to/lastmile_qr_scan", "android": "https://dc.lft.to/lastmile_qr_scan"}}, {"type": "electric_scooter", "name": "c8e142566b7280833b939049692b3ffb", "fusion_lon": 0.0, "is_reserved": 0, "lon": -77.0214755, "fusion_lat": 0.0, "is_disabled": 0, "bike_id": "c8e142566b7280833b939049692b3ffb", "lat": 38.9273305, "rental_uris": {"ios": "https://dc.lft.to/lastmile_qr_scan", "android": "https://dc.lft.to/lastmile_qr_scan"}}, {"type": "electric_bike", "name": "f37eb745616863d7127d31fb902b099b", "fusion_lon": 0.0, "is_reserved": 0, "lon": -77.12351983333333, "fusion_lat": 0.0, "is_disabled": 0, "bike_id": "f37eb745616863d7127d31fb902b099b", "lat": 38.82941916666667, "rental_uris": {"ios": "https://dc.lft.to/lastmile_qr_scan", "android": "https://dc.lft.to/lastmile_qr_scan"}}, {"type": "electric_scooter", "name": "1ee8a57c94ca6427ed55290aa1999dbd", "fusion_lon": 0.0, "is_reserved": 0, "lon": -76.994855, "fusion_lat": 0.0, "is_disabled": 0, "bike_id": "1ee8a57c94ca6427ed55290aa1999dbd", "lat": 38.86217933333333, "rental_uris": {"ios": "https://dc.lft.to/lastmile_qr_scan", "android": "https://dc.lft.to/lastmile_qr_scan"}}, {"type": "electric_scooter", "name": "9e3cd560b46f33e82469c4f8bc61e18f", "fusion_lon": 0.0, "is_reserved": 0, "lon": -77.03810166666666, "fusion_lat": 0.0, "is_disabled": 0, "bike_id": "9e3cd560b46f33e82469c4f8bc61e18f", "lat": 38.93613216666667, "rental_uris": {"ios": "https://dc.lft.to/lastmile_qr_scan", "android": "https://dc.lft.to/lastmile_qr_scan"}}, {"type": "electric_scooter", "name": "18db6e169b2ab17d96357a909480665d", "fusion_lon": 0.0, "is_reserved": 0, "lon": -76.9894935, "fusion_lat": 0.0, "is_disabled": 0, "bike_id": "18db6e169b2ab17d96357a909480665d", "lat": 38.92047066666667, "rental_uris": {"ios": "https://dc.lft.to/lastmile_qr_scan", "android": "https://dc.lft.to/lastmile_qr_scan"}}, {"type": "electric_scooter", "name": "7bbadb3903c1ba12817d6b25c2a62a24", "fusion_lon": 0.0, "is_reserved": 0, "lon": -77.07165566666667, "fusion_lat": 0.0, "is_disabled": 0, "bike_id": "7bbadb3903c1ba12817d6b25c2a62a24", "lat": 38.908700333333336, "rental_uris": {"ios": "https://dc.lft.to/lastmile_qr_scan", "android": "https://dc.lft.to/lastmile_qr_scan"}}, {"type": "electric_scooter", "name": "f1b0780de96d8e44ac3aa61055a8d2b6", "fusion_lon": 0.0, "is_reserved": 0, "lon": -77.04129966666666, "fusion_lat": 0.0, "is_disabled": 0, "bike_id": "f1b0780de96d8e44ac3aa61055a8d2b6", "lat": 38.92369633333333, "rental_uris": {"ios": "https://dc.lft.to/lastmile_qr_scan", "android": "https://dc.lft.to/lastmile_qr_scan"}}, {"type": "electric_scooter", "name": "cc18452058c960c1ce7c1c13000453cd", "fusion_lon": 0.0, "is_reserved": 0, "lon": -77.0393735, "fusion_lat": 0.0, "is_disabled": 0, "bike_id": "cc18452058c960c1ce7c1c13000453cd", "lat": 38.90045966666667, "rental_uris": {"ios": "https://dc.lft.to/lastmile_qr_scan", "android": "https://dc.lft.to/lastmile_qr_scan"}}, {"type": "electric_scooter", "name": "ff620623d3393d88e89905d7b40c4741", "fusion_lon": 0.0, "is_reserved": 0, "lon": -77.02099766666667, "fusion_lat": 0.0, "is_disabled": 0, "bike_id": "ff620623d3393d88e89905d7b40c4741", "lat": 38.92157866666667, "rental_uris": {"ios": "https://dc.lft.to/lastmile_qr_scan", "android": "https://dc.lft.to/lastmile_qr_scan"}}, {"type": "electric_scooter", "name": "e8413de3a719500cb02f8df203594185", "fusion_lon": 0.0, "is_reserved": 0, "lon": -77.036539, "fusion_lat": 0.0, "is_disabled": 0, "bike_id": "e8413de3a719500cb02f8df203594185", "lat": 38.9212795, "rental_uris": {"ios": "https://dc.lft.to/lastmile_qr_scan", "android": "https://dc.lft.to/lastmile_qr_scan"}}, {"type": "electric_bike", "name": "95b6ee4e09e3e69f036f5165e1bdcfe6", "fusion_lon": 0.0, "is_reserved": 0, "lon": -76.99550433333333, "fusion_lat": 0.0, "is_disabled": 0, "bike_id": "95b6ee4e09e3e69f036f5165e1bdcfe6", "lat": 38.881353, "rental_uris": {"ios": "https://dc.lft.to/lastmile_qr_scan", "android": "https://dc.lft.to/lastmile_qr_scan"}}, {"type": "electric_scooter", "name": "995519b12d35786e971e8b0e1be06a4d", "fusion_lon": 0.0, "is_reserved": 0, "lon": -77.02112, "fusion_lat": 0.0, "is_disabled": 0, "bike_id": "995519b12d35786e971e8b0e1be06a4d", "lat": 38.940776666666665, "rental_uris": {"ios": "https://dc.lft.to/lastmile_qr_scan", "android": "https://dc.lft.to/lastmile_qr_scan"}}, {"type": "electric_scooter", "name": "5150153dad55e1578503b19d7ad3b570", "fusion_lon": 0.0, "is_reserved": 0, "lon": -77.036285, "fusion_lat": 0.0, "is_disabled": 0, "bike_id": "5150153dad55e1578503b19d7ad3b570", "lat": 38.902716833333336, "rental_uris": {"ios": "https://dc.lft.to/lastmile_qr_scan", "android": "https://dc.lft.to/lastmile_qr_scan"}}, {"type": "electric_scooter", "name": "03fe6c239248ae2ac25c513f91b5bd8c", "fusion_lon": 0.0, "is_reserved": 0, "lon": -77.02987516666667, "fusion_lat": 0.0, "is_disabled": 0, "bike_id": "03fe6c239248ae2ac25c513f91b5bd8c", "lat": 38.896102666666664, "rental_uris": {"ios": "https://dc.lft.to/lastmile_qr_scan", "android": "https://dc.lft.to/lastmile_qr_scan"}}, {"type": "electric_scooter", "name": "472664012424d8f5cb3adc334174b461", "fusion_lon": 0.0, "is_reserved": 0, "lon": -76.98052083333333, "fusion_lat": 0.0, "is_disabled": 0, "bike_id": "472664012424d8f5cb3adc334174b461", "lat": 38.90014583333333, "rental_uris": {"ios": "https://dc.lft.to/lastmile_qr_scan", "android": "https://dc.lft.to/lastmile_qr_scan"}}, {"type": "electric_scooter", "name": "3dcb6ee1f3a12668750efb30c6ef4bd1", "fusion_lon": 0.0, "is_reserved": 0, "lon": -77.027221, "fusion_lat": 0.0, "is_disabled": 0, "bike_id": "3dcb6ee1f3a12668750efb30c6ef4bd1", "lat": 38.9518425, "rental_uris": {"ios": "https://dc.lft.to/lastmile_qr_scan", "android": "https://dc.lft.to/lastmile_qr_scan"}}, {"type": "electric_scooter", "name": "eb6f24b4b8ebe99008c0d75cbc95a11c", "fusion_lon": 0.0, "is_reserved": 0, "lon": -77.05088466666666, "fusion_lat": 0.0, "is_disabled": 0, "bike_id": "eb6f24b4b8ebe99008c0d75cbc95a11c", "lat": 38.92347383333333, "rental_uris": {"ios": "https://dc.lft.to/lastmile_qr_scan", "android": "https://dc.lft.to/lastmile_qr_scan"}}, {"type": "electric_bike", "name": "76e3d213eed8cf3c6d2ffd5f094edcc7", "fusion_lon": 0.0, "is_reserved": 0, "lon": -77.07221533333333, "fusion_lat": 0.0, "is_disabled": 0, "bike_id": "76e3d213eed8cf3c6d2ffd5f094edcc7", "lat": 38.96814833333333, "rental_uris": {"ios": "https://dc.lft.to/lastmile_qr_scan", "android": "https://dc.lft.to/lastmile_qr_scan"}}, {"type": "electric_scooter", "name": "20e531a1282cb54f07bd3d9ef1060b54", "fusion_lon": 0.0, "is_reserved": 0, "lon": -77.01071216666666, "fusion_lat": 0.0, "is_disabled": 0, "bike_id": "20e531a1282cb54f07bd3d9ef1060b54", "lat": 38.89497733333333, "rental_uris": {"ios": "https://dc.lft.to/lastmile_qr_scan", "android": "https://dc.lft.to/lastmile_qr_scan"}}, {"type": "electric_scooter", "name": "2477acd5a2b0dd14a4afa3585a571e1b", "fusion_lon": 0.0, "is_reserved": 0, "lon": -77.03860466666667, "fusion_lat": 0.0, "is_disabled": 0, "bike_id": "2477acd5a2b0dd14a4afa3585a571e1b", "lat": 38.9171585, "rental_uris": {"ios": "https://dc.lft.to/lastmile_qr_scan", "android": "https://dc.lft.to/lastmile_qr_scan"}}, {"type": "electric_scooter", "name": "dbc5ceb5077621ca1893b31d6e841e43", "fusion_lon": 0.0, "is_reserved": 0, "lon": -77.05231383333333, "fusion_lat": 0.0, "is_disabled": 0, "bike_id": "dbc5ceb5077621ca1893b31d6e841e43", "lat": 38.92471, "rental_uris": {"ios": "https://dc.lft.to/lastmile_qr_scan", "android": "https://dc.lft.to/lastmile_qr_scan"}}, {"type": "electric_scooter", "name": "03618320cbf3b688ee252954748a87bf", "fusion_lon": 0.0, "is_reserved": 0, "lon": -76.9848985, "fusion_lat": 0.0, "is_disabled": 0, "bike_id": "03618320cbf3b688ee252954748a87bf", "lat": 38.904429666666665, "rental_uris": {"ios": "https://dc.lft.to/lastmile_qr_scan", "android": "https://dc.lft.to/lastmile_qr_scan"}}, {"type": "electric_scooter", "name": "05975b8d4d61b7b5c0bd166cb55031cf", "fusion_lon": 0.0, "is_reserved": 0, "lon": -77.0007595, "fusion_lat": 0.0, "is_disabled": 0, "bike_id": "05975b8d4d61b7b5c0bd166cb55031cf", "lat": 38.876128, "rental_uris": {"ios": "https://dc.lft.to/lastmile_qr_scan", "android": "https://dc.lft.to/lastmile_qr_scan"}}, {"type": "electric_scooter", "name": "44451686a70158233a1ecb1529ddd596", "fusion_lon": 0.0, "is_reserved": 0, "lon": -77.0297515, "fusion_lat": 0.0, "is_disabled": 0, "bike_id": "44451686a70158233a1ecb1529ddd596", "lat": 38.924044, "rental_uris": {"ios": "https://dc.lft.to/lastmile_qr_scan", "android": "https://dc.lft.to/lastmile_qr_scan"}}, {"type": "electric_scooter", "name": "226df161b6d18f1a494a2e69ff684c24", "fusion_lon": 0.0, "is_reserved": 0, "lon": -77.01761866666666, "fusion_lat": 0.0, "is_disabled": 0, "bike_id": "226df161b6d18f1a494a2e69ff684c24", "lat": 38.902656, "rental_uris": {"ios": "https://dc.lft.to/lastmile_qr_scan", "android": "https://dc.lft.to/lastmile_qr_scan"}}, {"type": "electric_bike", "name": "a6fe6b4ca1c2e8bd83d43948935733e3", "fusion_lon": 0.0, "is_reserved": 0, "lon": -77.03259933333334, "fusion_lat": 0.0, "is_disabled": 0, "bike_id": "a6fe6b4ca1c2e8bd83d43948935733e3", "lat": 38.93210066666666, "rental_uris": {"ios": "https://dc.lft.to/lastmile_qr_scan", "android": "https://dc.lft.to/lastmile_qr_scan"}}, {"type": "electric_scooter", "name": "57cf9372aa00d233e8c994900790e822", "fusion_lon": 0.0, "is_reserved": 0, "lon": -77.033395, "fusion_lat": 0.0, "is_disabled": 0, "bike_id": "57cf9372aa00d233e8c994900790e822", "lat": 38.902582833333334, "rental_uris": {"ios": "https://dc.lft.to/lastmile_qr_scan", "android": "https://dc.lft.to/lastmile_qr_scan"}}, {"type": "electric_bike", "name": "f29bc52f719c12897f687c5398b20ad8", "fusion_lon": 0.0, "is_reserved": 0, "lon": -77.17190183333334, "fusion_lat": 0.0, "is_disabled": 0, "bike_id": "f29bc52f719c12897f687c5398b20ad8", "lat": 38.882871333333334, "rental_uris": {"ios": "https://dc.lft.to/lastmile_qr_scan", "android": "https://dc.lft.to/lastmile_qr_scan"}}, {"type": "electric_scooter", "name": "ccb469b20e00d41a4fd4db000a3d1edf", "fusion_lon": 0.0, "is_reserved": 0, "lon": -76.945754, "fusion_lat": 0.0, "is_disabled": 0, "bike_id": "ccb469b20e00d41a4fd4db000a3d1edf", "lat": 38.8993195, "rental_uris": {"ios": "https://dc.lft.to/lastmile_qr_scan", "android": "https://dc.lft.to/lastmile_qr_scan"}}, {"type": "electric_scooter", "name": "37bebc98aa20473bd4a11a8d41152136", "fusion_lon": 0.0, "is_reserved": 0, "lon": -77.0002025, "fusion_lat": 0.0, "is_disabled": 0, "bike_id": "37bebc98aa20473bd4a11a8d41152136", "lat": 38.873818, "rental_uris": {"ios": "https://dc.lft.to/lastmile_qr_scan", "android": "https://dc.lft.to/lastmile_qr_scan"}}, {"type": "electric_scooter", "name": "b7c00032715a9d97423a1ce63cda0f60", "fusion_lon": 0.0, "is_reserved": 0, "lon": -77.03347366666667, "fusion_lat": 0.0, "is_disabled": 0, "bike_id": "b7c00032715a9d97423a1ce63cda0f60", "lat": 38.89996883333333, "rental_uris": {"ios": "https://dc.lft.to/lastmile_qr_scan", "android": "https://dc.lft.to/lastmile_qr_scan"}}, {"type": "electric_scooter", "name": "c5396f63b21286204f36592a27721f61", "fusion_lon": 0.0, "is_reserved": 0, "lon": -77.0128715, "fusion_lat": 0.0, "is_disabled": 0, "bike_id": "c5396f63b21286204f36592a27721f61", "lat": 38.892238666666664, "rental_uris": {"ios": "https://dc.lft.to/lastmile_qr_scan", "android": "https://dc.lft.to/lastmile_qr_scan"}}, {"type": "electric_bike", "name": "255dcec81ec83d7d762902eca0a962d7", "fusion_lon": 0.0, "is_reserved": 0, "lon": -77.11986, "fusion_lat": 0.0, "is_disabled": 0, "bike_id": "255dcec81ec83d7d762902eca0a962d7", "lat": 38.847309333333335, "rental_uris": {"ios": "https://dc.lft.to/lastmile_qr_scan", "android": "https://dc.lft.to/lastmile_qr_scan"}}, {"type": "electric_scooter", "name": "cd08f0c04e1bf65bea6f70c111ab92e2", "fusion_lon": 0.0, "is_reserved": 0, "lon": -77.03858533333333, "fusion_lat": 0.0, "is_disabled": 0, "bike_id": "cd08f0c04e1bf65bea6f70c111ab92e2", "lat": 38.932366, "rental_uris": {"ios": "https://dc.lft.to/lastmile_qr_scan", "android": "https://dc.lft.to/lastmile_qr_scan"}}, {"type": "electric_scooter", "name": "5dabb5a15ca2dc0f379efb955f4e6386", "fusion_lon": 0.0, "is_reserved": 0, "lon": -77.03374233333334, "fusion_lat": 0.0, "is_disabled": 0, "bike_id": "5dabb5a15ca2dc0f379efb955f4e6386", "lat": 38.899755, "rental_uris": {"ios": "https://dc.lft.to/lastmile_qr_scan", "android": "https://dc.lft.to/lastmile_qr_scan"}}, {"type": "electric_scooter", "name": "79ce36787b363e7273b96c17f4c5d94e", "fusion_lon": 0.0, "is_reserved": 0, "lon": -77.03471383333333, "fusion_lat": 0.0, "is_disabled": 0, "bike_id": "79ce36787b363e7273b96c17f4c5d94e", "lat": 38.917060666666664, "rental_uris": {"ios": "https://dc.lft.to/lastmile_qr_scan", "android": "https://dc.lft.to/lastmile_qr_scan"}}, {"type": "electric_scooter", "name": "47ceab0af8062136a0305a1e31e11724", "fusion_lon": 0.0, "is_reserved": 0, "lon": -77.04631, "fusion_lat": 0.0, "is_disabled": 0, "bike_id": "47ceab0af8062136a0305a1e31e11724", "lat": 38.900665833333335, "rental_uris": {"ios": "https://dc.lft.to/lastmile_qr_scan", "android": "https://dc.lft.to/lastmile_qr_scan"}}, {"type": "electric_scooter", "name": "e3457537e7b403a3090f3f47a0571312", "fusion_lon": 0.0, "is_reserved": 0, "lon": -77.07341866666667, "fusion_lat": 0.0, "is_disabled": 0, "bike_id": "e3457537e7b403a3090f3f47a0571312", "lat": 38.912646333333335, "rental_uris": {"ios": "https://dc.lft.to/lastmile_qr_scan", "android": "https://dc.lft.to/lastmile_qr_scan"}}, {"type": "electric_bike", "name": "ca3dbec0bcf98be9fb57e36ed1b6ab0e", "fusion_lon": 0.0, "is_reserved": 0, "lon": -77.12073033333333, "fusion_lat": 0.0, "is_disabled": 0, "bike_id": "ca3dbec0bcf98be9fb57e36ed1b6ab0e", "lat": 38.85413833333333, "rental_uris": {"ios": "https://dc.lft.to/lastmile_qr_scan", "android": "https://dc.lft.to/lastmile_qr_scan"}}, {"type": "electric_scooter", "name": "65bd253f0b54bc752cc4f2db44d00f07", "fusion_lon": 0.0, "is_reserved": 0, "lon": -76.97581, "fusion_lat": 0.0, "is_disabled": 0, "bike_id": "65bd253f0b54bc752cc4f2db44d00f07", "lat": 38.90335983333333, "rental_uris": {"ios": "https://dc.lft.to/lastmile_qr_scan", "android": "https://dc.lft.to/lastmile_qr_scan"}}, {"type": "electric_scooter", "name": "86d6de8ca6584403ba120f2c47fa05af", "fusion_lon": 0.0, "is_reserved": 0, "lon": -76.9337905, "fusion_lat": 0.0, "is_disabled": 0, "bike_id": "86d6de8ca6584403ba120f2c47fa05af", "lat": 38.89915533333333, "rental_uris": {"ios": "https://dc.lft.to/lastmile_qr_scan", "android": "https://dc.lft.to/lastmile_qr_scan"}}, {"type": "electric_scooter", "name": "7f44ff6ad37fdd0778136988f670946c", "fusion_lon": 0.0, "is_reserved": 0, "lon": -77.04265066666666, "fusion_lat": 0.0, "is_disabled": 0, "bike_id": "7f44ff6ad37fdd0778136988f670946c", "lat": 38.92293633333333, "rental_uris": {"ios": "https://dc.lft.to/lastmile_qr_scan", "android": "https://dc.lft.to/lastmile_qr_scan"}}, {"type": "electric_scooter", "name": "73d1a2f26ab48be51542c30cfa9e5cb6", "fusion_lon": 0.0, "is_reserved": 0, "lon": -77.03187766666667, "fusion_lat": 0.0, "is_disabled": 0, "bike_id": "73d1a2f26ab48be51542c30cfa9e5cb6", "lat": 38.90792283333333, "rental_uris": {"ios": "https://dc.lft.to/lastmile_qr_scan", "android": "https://dc.lft.to/lastmile_qr_scan"}}, {"type": "electric_scooter", "name": "a36b49fcc22bb5fb89b10b7749dffc4d", "fusion_lon": 0.0, "is_reserved": 0, "lon": -77.04455133333333, "fusion_lat": 0.0, "is_disabled": 0, "bike_id": "a36b49fcc22bb5fb89b10b7749dffc4d", "lat": 38.918731666666666, "rental_uris": {"ios": "https://dc.lft.to/lastmile_qr_scan", "android": "https://dc.lft.to/lastmile_qr_scan"}}, {"type": "electric_scooter", "name": "5b77a35afa192b46b517f0181fa941de", "fusion_lon": 0.0, "is_reserved": 0, "lon": -77.0346015, "fusion_lat": 0.0, "is_disabled": 0, "bike_id": "5b77a35afa192b46b517f0181fa941de", "lat": 38.904093833333334, "rental_uris": {"ios": "https://dc.lft.to/lastmile_qr_scan", "android": "https://dc.lft.to/lastmile_qr_scan"}}, {"type": "electric_scooter", "name": "b4e477b18da88c09c0e1b36712a693a2", "fusion_lon": 0.0, "is_reserved": 0, "lon": -77.03692233333334, "fusion_lat": 0.0, "is_disabled": 0, "bike_id": "b4e477b18da88c09c0e1b36712a693a2", "lat": 38.9203175, "rental_uris": {"ios": "https://dc.lft.to/lastmile_qr_scan", "android": "https://dc.lft.to/lastmile_qr_scan"}}, {"type": "electric_scooter", "name": "daac4832b2d9fc75cac967f3ec22a4a6", "fusion_lon": 0.0, "is_reserved": 0, "lon": -77.03656483333333, "fusion_lat": 0.0, "is_disabled": 0, "bike_id": "daac4832b2d9fc75cac967f3ec22a4a6", "lat": 38.922397333333336, "rental_uris": {"ios": "https://dc.lft.to/lastmile_qr_scan", "android": "https://dc.lft.to/lastmile_qr_scan"}}, {"type": "electric_scooter", "name": "0c38544c93f975ec64de5e5d176ac43c", "fusion_lon": 0.0, "is_reserved": 0, "lon": -77.03887466666667, "fusion_lat": 0.0, "is_disabled": 0, "bike_id": "0c38544c93f975ec64de5e5d176ac43c", "lat": 38.9022955, "rental_uris": {"ios": "https://dc.lft.to/lastmile_qr_scan", "android": "https://dc.lft.to/lastmile_qr_scan"}}, {"type": "electric_scooter", "name": "519e406a6623af09414caf8affb511ad", "fusion_lon": 0.0, "is_reserved": 0, "lon": -77.00709833333333, "fusion_lat": 0.0, "is_disabled": 0, "bike_id": "519e406a6623af09414caf8affb511ad", "lat": 38.88491883333333, "rental_uris": {"ios": "https://dc.lft.to/lastmile_qr_scan", "android": "https://dc.lft.to/lastmile_qr_scan"}}, {"type": "electric_scooter", "name": "12564a14931bb22b194f95a340c678f0", "fusion_lon": 0.0, "is_reserved": 0, "lon": -77.043074, "fusion_lat": 0.0, "is_disabled": 0, "bike_id": "12564a14931bb22b194f95a340c678f0", "lat": 38.8922895, "rental_uris": {"ios": "https://dc.lft.to/lastmile_qr_scan", "android": "https://dc.lft.to/lastmile_qr_scan"}}, {"type": "electric_bike", "name": "52e8f0ec73aeb10e7fa18054ae9685ca", "fusion_lon": 0.0, "is_reserved": 0, "lon": -76.975084, "fusion_lat": 0.0, "is_disabled": 0, "bike_id": "52e8f0ec73aeb10e7fa18054ae9685ca", "lat": 38.9034025, "rental_uris": {"ios": "https://dc.lft.to/lastmile_qr_scan", "android": "https://dc.lft.to/lastmile_qr_scan"}}, {"type": "electric_scooter", "name": "c6e91302349917de4decbda1a5d46093", "fusion_lon": 0.0, "is_reserved": 0, "lon": -77.0450615, "fusion_lat": 0.0, "is_disabled": 0, "bike_id": "c6e91302349917de4decbda1a5d46093", "lat": 38.89225716666667, "rental_uris": {"ios": "https://dc.lft.to/lastmile_qr_scan", "android": "https://dc.lft.to/lastmile_qr_scan"}}, {"type": "electric_scooter", "name": "f9e431c4463edc00fa1a6fb203c94249", "fusion_lon": 0.0, "is_reserved": 0, "lon": -77.00027466666667, "fusion_lat": 0.0, "is_disabled": 0, "bike_id": "f9e431c4463edc00fa1a6fb203c94249", "lat": 38.87378316666667, "rental_uris": {"ios": "https://dc.lft.to/lastmile_qr_scan", "android": "https://dc.lft.to/lastmile_qr_scan"}}, {"type": "electric_scooter", "name": "a813fdc99cd47e98846c0f859f505665", "fusion_lon": 0.0, "is_reserved": 0, "lon": -77.04551533333333, "fusion_lat": 0.0, "is_disabled": 0, "bike_id": "a813fdc99cd47e98846c0f859f505665", "lat": 38.9075115, "rental_uris": {"ios": "https://dc.lft.to/lastmile_qr_scan", "android": "https://dc.lft.to/lastmile_qr_scan"}}, {"type": "electric_scooter", "name": "e986b6efdd8ef44a21086bd2cf48e109", "fusion_lon": 0.0, "is_reserved": 0, "lon": -77.03994116666667, "fusion_lat": 0.0, "is_disabled": 0, "bike_id": "e986b6efdd8ef44a21086bd2cf48e109", "lat": 38.934261, "rental_uris": {"ios": "https://dc.lft.to/lastmile_qr_scan", "android": "https://dc.lft.to/lastmile_qr_scan"}}, {"type": "electric_scooter", "name": "aa0ae70b533817562b784ab541b153b8", "fusion_lon": 0.0, "is_reserved": 0, "lon": -76.9892975, "fusion_lat": 0.0, "is_disabled": 0, "bike_id": "aa0ae70b533817562b784ab541b153b8", "lat": 38.902296166666666, "rental_uris": {"ios": "https://dc.lft.to/lastmile_qr_scan", "android": "https://dc.lft.to/lastmile_qr_scan"}}, {"type": "electric_scooter", "name": "599d1a1c0cf28dc15537cae14fe0948c", "fusion_lon": 0.0, "is_reserved": 0, "lon": -77.02218533333334, "fusion_lat": 0.0, "is_disabled": 0, "bike_id": "599d1a1c0cf28dc15537cae14fe0948c", "lat": 38.95526016666667, "rental_uris": {"ios": "https://dc.lft.to/lastmile_qr_scan", "android": "https://dc.lft.to/lastmile_qr_scan"}}, {"type": "electric_scooter", "name": "4988a835391873715dc7995da063980a", "fusion_lon": 0.0, "is_reserved": 0, "lon": -77.03631, "fusion_lat": 0.0, "is_disabled": 0, "bike_id": "4988a835391873715dc7995da063980a", "lat": 38.915077, "rental_uris": {"ios": "https://dc.lft.to/lastmile_qr_scan", "android": "https://dc.lft.to/lastmile_qr_scan"}}, {"type": "electric_scooter", "name": "d814197ec31931891abadc805117a4fa", "fusion_lon": 0.0, "is_reserved": 0, "lon": -77.03543616666667, "fusion_lat": 0.0, "is_disabled": 0, "bike_id": "d814197ec31931891abadc805117a4fa", "lat": 38.9047335, "rental_uris": {"ios": "https://dc.lft.to/lastmile_qr_scan", "android": "https://dc.lft.to/lastmile_qr_scan"}}, {"type": "electric_scooter", "name": "4ecdb860d14361e86ea2f44339de62bf", "fusion_lon": 0.0, "is_reserved": 0, "lon": -77.02158033333333, "fusion_lat": 0.0, "is_disabled": 0, "bike_id": "4ecdb860d14361e86ea2f44339de62bf", "lat": 38.9144715, "rental_uris": {"ios": "https://dc.lft.to/lastmile_qr_scan", "android": "https://dc.lft.to/lastmile_qr_scan"}}, {"type": "electric_scooter", "name": "add7937e43892881a735b4ca1ab3061b", "fusion_lon": 0.0, "is_reserved": 0, "lon": -77.03840816666667, "fusion_lat": 0.0, "is_disabled": 0, "bike_id": "add7937e43892881a735b4ca1ab3061b", "lat": 38.9039275, "rental_uris": {"ios": "https://dc.lft.to/lastmile_qr_scan", "android": "https://dc.lft.to/lastmile_qr_scan"}}, {"type": "electric_scooter", "name": "7f980c70f37249436503928c3b943425", "fusion_lon": 0.0, "is_reserved": 0, "lon": -77.0030155, "fusion_lat": 0.0, "is_disabled": 0, "bike_id": "7f980c70f37249436503928c3b943425", "lat": 38.900247666666665, "rental_uris": {"ios": "https://dc.lft.to/lastmile_qr_scan", "android": "https://dc.lft.to/lastmile_qr_scan"}}, {"type": "electric_scooter", "name": "1d8a283a57e889b0349eb412be4d897d", "fusion_lon": 0.0, "is_reserved": 0, "lon": -76.94159966666666, "fusion_lat": 0.0, "is_disabled": 0, "bike_id": "1d8a283a57e889b0349eb412be4d897d", "lat": 38.9082795, "rental_uris": {"ios": "https://dc.lft.to/lastmile_qr_scan", "android": "https://dc.lft.to/lastmile_qr_scan"}}, {"type": "electric_scooter", "name": "50743902c20d15b705241fa62f0020e4", "fusion_lon": 0.0, "is_reserved": 0, "lon": -76.9487445, "fusion_lat": 0.0, "is_disabled": 0, "bike_id": "50743902c20d15b705241fa62f0020e4", "lat": 38.895524333333334, "rental_uris": {"ios": "https://dc.lft.to/lastmile_qr_scan", "android": "https://dc.lft.to/lastmile_qr_scan"}}, {"type": "electric_scooter", "name": "c6c33ed89ae16efd4cc061bec8dd6c5f", "fusion_lon": 0.0, "is_reserved": 0, "lon": -77.06868183333333, "fusion_lat": 0.0, "is_disabled": 0, "bike_id": "c6c33ed89ae16efd4cc061bec8dd6c5f", "lat": 38.90632516666667, "rental_uris": {"ios": "https://dc.lft.to/lastmile_qr_scan", "android": "https://dc.lft.to/lastmile_qr_scan"}}, {"type": "electric_scooter", "name": "5ea4510af2a8c51d36f8e9d2c7c00691", "fusion_lon": 0.0, "is_reserved": 0, "lon": -77.05998866666667, "fusion_lat": 0.0, "is_disabled": 0, "bike_id": "5ea4510af2a8c51d36f8e9d2c7c00691", "lat": 38.90168033333333, "rental_uris": {"ios": "https://dc.lft.to/lastmile_qr_scan", "android": "https://dc.lft.to/lastmile_qr_scan"}}, {"type": "electric_bike", "name": "f4e93e3e29ac33f11ab0c66785f1ba01", "fusion_lon": 0.0, "is_reserved": 0, "lon": -77.23334466666667, "fusion_lat": 0.0, "is_disabled": 0, "bike_id": "f4e93e3e29ac33f11ab0c66785f1ba01", "lat": 38.872798333333336, "rental_uris": {"ios": "https://dc.lft.to/lastmile_qr_scan", "android": "https://dc.lft.to/lastmile_qr_scan"}}, {"type": "electric_scooter", "name": "64c66959a6e6e35da579e99551a633c1", "fusion_lon": 0.0, "is_reserved": 0, "lon": -77.0418955, "fusion_lat": 0.0, "is_disabled": 0, "bike_id": "64c66959a6e6e35da579e99551a633c1", "lat": 38.92331983333333, "rental_uris": {"ios": "https://dc.lft.to/lastmile_qr_scan", "android": "https://dc.lft.to/lastmile_qr_scan"}}, {"type": "electric_scooter", "name": "973eb1763be0b142dfeba9db548b2838", "fusion_lon": 0.0, "is_reserved": 0, "lon": -77.0029945, "fusion_lat": 0.0, "is_disabled": 0, "bike_id": "973eb1763be0b142dfeba9db548b2838", "lat": 38.90569033333333, "rental_uris": {"ios": "https://dc.lft.to/lastmile_qr_scan", "android": "https://dc.lft.to/lastmile_qr_scan"}}, {"type": "electric_scooter", "name": "7e71d2070dd52006db66d7709d25e10d", "fusion_lon": 0.0, "is_reserved": 0, "lon": -77.04010933333333, "fusion_lat": 0.0, "is_disabled": 0, "bike_id": "7e71d2070dd52006db66d7709d25e10d", "lat": 38.90129266666667, "rental_uris": {"ios": "https://dc.lft.to/lastmile_qr_scan", "android": "https://dc.lft.to/lastmile_qr_scan"}}, {"type": "electric_scooter", "name": "6022f56851d446249d18e78c3cade557", "fusion_lon": 0.0, "is_reserved": 0, "lon": -76.99227883333333, "fusion_lat": 0.0, "is_disabled": 0, "bike_id": "6022f56851d446249d18e78c3cade557", "lat": 38.908155666666666, "rental_uris": {"ios": "https://dc.lft.to/lastmile_qr_scan", "android": "https://dc.lft.to/lastmile_qr_scan"}}, {"type": "electric_scooter", "name": "8e69f771cd91c4e87748371c83aa2329", "fusion_lon": 0.0, "is_reserved": 0, "lon": -77.03462533333334, "fusion_lat": 0.0, "is_disabled": 0, "bike_id": "8e69f771cd91c4e87748371c83aa2329", "lat": 38.90374516666667, "rental_uris": {"ios": "https://dc.lft.to/lastmile_qr_scan", "android": "https://dc.lft.to/lastmile_qr_scan"}}, {"type": "electric_scooter", "name": "edd85499ad881d2fbac879d508daaad9", "fusion_lon": 0.0, "is_reserved": 0, "lon": -77.041339, "fusion_lat": 0.0, "is_disabled": 0, "bike_id": "edd85499ad881d2fbac879d508daaad9", "lat": 38.91376566666667, "rental_uris": {"ios": "https://dc.lft.to/lastmile_qr_scan", "android": "https://dc.lft.to/lastmile_qr_scan"}}, {"type": "electric_scooter", "name": "1839c1d623d8aa06c309ee41875f3708", "fusion_lon": 0.0, "is_reserved": 0, "lon": -77.05135, "fusion_lat": 0.0, "is_disabled": 0, "bike_id": "1839c1d623d8aa06c309ee41875f3708", "lat": 38.90218516666667, "rental_uris": {"ios": "https://dc.lft.to/lastmile_qr_scan", "android": "https://dc.lft.to/lastmile_qr_scan"}}, {"type": "electric_scooter", "name": "598803c2b9b5cab94cc7e395766cfcb0", "fusion_lon": 0.0, "is_reserved": 0, "lon": -77.02598683333333, "fusion_lat": 0.0, "is_disabled": 0, "bike_id": "598803c2b9b5cab94cc7e395766cfcb0", "lat": 38.91691733333333, "rental_uris": {"ios": "https://dc.lft.to/lastmile_qr_scan", "android": "https://dc.lft.to/lastmile_qr_scan"}}, {"type": "electric_scooter", "name": "a18348749270b0623b23806e776a2758", "fusion_lon": 0.0, "is_reserved": 0, "lon": -77.039923, "fusion_lat": 0.0, "is_disabled": 0, "bike_id": "a18348749270b0623b23806e776a2758", "lat": 38.92721183333333, "rental_uris": {"ios": "https://dc.lft.to/lastmile_qr_scan", "android": "https://dc.lft.to/lastmile_qr_scan"}}, {"type": "electric_scooter", "name": "cf9f1efaa1974c997fd2ab14fce4c024", "fusion_lon": 0.0, "is_reserved": 0, "lon": -77.0069205, "fusion_lat": 0.0, "is_disabled": 0, "bike_id": "cf9f1efaa1974c997fd2ab14fce4c024", "lat": 38.90038066666666, "rental_uris": {"ios": "https://dc.lft.to/lastmile_qr_scan", "android": "https://dc.lft.to/lastmile_qr_scan"}}, {"type": "electric_scooter", "name": "a6f4bc2ede5a384c883ec41caa4959a5", "fusion_lon": 0.0, "is_reserved": 0, "lon": -77.02970833333333, "fusion_lat": 0.0, "is_disabled": 0, "bike_id": "a6f4bc2ede5a384c883ec41caa4959a5", "lat": 38.916551166666665, "rental_uris": {"ios": "https://dc.lft.to/lastmile_qr_scan", "android": "https://dc.lft.to/lastmile_qr_scan"}}, {"type": "electric_scooter", "name": "21c249df742564e847403014affb2249", "fusion_lon": 0.0, "is_reserved": 0, "lon": -77.03574516666667, "fusion_lat": 0.0, "is_disabled": 0, "bike_id": "21c249df742564e847403014affb2249", "lat": 38.936727, "rental_uris": {"ios": "https://dc.lft.to/lastmile_qr_scan", "android": "https://dc.lft.to/lastmile_qr_scan"}}, {"type": "electric_scooter", "name": "62131c1fa95e2e40b137efafed3d5e6c", "fusion_lon": 0.0, "is_reserved": 0, "lon": -77.03360083333334, "fusion_lat": 0.0, "is_disabled": 0, "bike_id": "62131c1fa95e2e40b137efafed3d5e6c", "lat": 38.907158, "rental_uris": {"ios": "https://dc.lft.to/lastmile_qr_scan", "android": "https://dc.lft.to/lastmile_qr_scan"}}, {"type": "electric_scooter", "name": "2ef1b9450510c6a7be08d5e5bdeeccad", "fusion_lon": 0.0, "is_reserved": 0, "lon": -77.023238, "fusion_lat": 0.0, "is_disabled": 0, "bike_id": "2ef1b9450510c6a7be08d5e5bdeeccad", "lat": 38.8948795, "rental_uris": {"ios": "https://dc.lft.to/lastmile_qr_scan", "android": "https://dc.lft.to/lastmile_qr_scan"}}, {"type": "electric_scooter", "name": "d9f1681bfd51acf5b5cabe05a2de1977", "fusion_lon": 0.0, "is_reserved": 0, "lon": -77.0368755, "fusion_lat": 0.0, "is_disabled": 0, "bike_id": "d9f1681bfd51acf5b5cabe05a2de1977", "lat": 38.91812683333333, "rental_uris": {"ios": "https://dc.lft.to/lastmile_qr_scan", "android": "https://dc.lft.to/lastmile_qr_scan"}}, {"type": "electric_scooter", "name": "fa818c1ca588ceab2adb45fcd9fc3c0f", "fusion_lon": 0.0, "is_reserved": 0, "lon": -76.93928066666666, "fusion_lat": 0.0, "is_disabled": 0, "bike_id": "fa818c1ca588ceab2adb45fcd9fc3c0f", "lat": 38.89295083333333, "rental_uris": {"ios": "https://dc.lft.to/lastmile_qr_scan", "android": "https://dc.lft.to/lastmile_qr_scan"}}, {"type": "electric_scooter", "name": "0f3b95887e748396ecd44d7817355ff2", "fusion_lon": 0.0, "is_reserved": 0, "lon": -77.0114195, "fusion_lat": 0.0, "is_disabled": 0, "bike_id": "0f3b95887e748396ecd44d7817355ff2", "lat": 38.87229266666667, "rental_uris": {"ios": "https://dc.lft.to/lastmile_qr_scan", "android": "https://dc.lft.to/lastmile_qr_scan"}}, {"type": "electric_scooter", "name": "2fe7bb8a90f81e45e8f53cf55226ee90", "fusion_lon": 0.0, "is_reserved": 0, "lon": -77.046535, "fusion_lat": 0.0, "is_disabled": 0, "bike_id": "2fe7bb8a90f81e45e8f53cf55226ee90", "lat": 38.89749466666667, "rental_uris": {"ios": "https://dc.lft.to/lastmile_qr_scan", "android": "https://dc.lft.to/lastmile_qr_scan"}}, {"type": "electric_scooter", "name": "07d9875cfbbb385bf8b95829ff2814c4", "fusion_lon": 0.0, "is_reserved": 0, "lon": -77.01596666666667, "fusion_lat": 0.0, "is_disabled": 0, "bike_id": "07d9875cfbbb385bf8b95829ff2814c4", "lat": 38.87837116666667, "rental_uris": {"ios": "https://dc.lft.to/lastmile_qr_scan", "android": "https://dc.lft.to/lastmile_qr_scan"}}, {"type": "electric_scooter", "name": "38d93c2ca0192ae2b737cbfeb09c0df7", "fusion_lon": 0.0, "is_reserved": 0, "lon": -77.02441016666667, "fusion_lat": 0.0, "is_disabled": 0, "bike_id": "38d93c2ca0192ae2b737cbfeb09c0df7", "lat": 38.8922205, "rental_uris": {"ios": "https://dc.lft.to/lastmile_qr_scan", "android": "https://dc.lft.to/lastmile_qr_scan"}}, {"type": "electric_scooter", "name": "9302f7881b7b85a5cec8398bb76d9a30", "fusion_lon": 0.0, "is_reserved": 0, "lon": -76.98691883333333, "fusion_lat": 0.0, "is_disabled": 0, "bike_id": "9302f7881b7b85a5cec8398bb76d9a30", "lat": 38.907348166666665, "rental_uris": {"ios": "https://dc.lft.to/lastmile_qr_scan", "android": "https://dc.lft.to/lastmile_qr_scan"}}, {"type": "electric_scooter", "name": "aa7a08da9259064246fc403fb4b7e6b7", "fusion_lon": 0.0, "is_reserved": 0, "lon": -77.04376183333333, "fusion_lat": 0.0, "is_disabled": 0, "bike_id": "aa7a08da9259064246fc403fb4b7e6b7", "lat": 38.89220666666667, "rental_uris": {"ios": "https://dc.lft.to/lastmile_qr_scan", "android": "https://dc.lft.to/lastmile_qr_scan"}}, {"type": "electric_scooter", "name": "41b2c8e22fe2c2da857d0c9ea7c45987", "fusion_lon": 0.0, "is_reserved": 0, "lon": -77.04370883333333, "fusion_lat": 0.0, "is_disabled": 0, "bike_id": "41b2c8e22fe2c2da857d0c9ea7c45987", "lat": 38.8921905, "rental_uris": {"ios": "https://dc.lft.to/lastmile_qr_scan", "android": "https://dc.lft.to/lastmile_qr_scan"}}, {"type": "electric_scooter", "name": "ad6a6448f4c75eae6e29aeb464c0a826", "fusion_lon": 0.0, "is_reserved": 0, "lon": -77.0329375, "fusion_lat": 0.0, "is_disabled": 0, "bike_id": "ad6a6448f4c75eae6e29aeb464c0a826", "lat": 38.927451833333336, "rental_uris": {"ios": "https://dc.lft.to/lastmile_qr_scan", "android": "https://dc.lft.to/lastmile_qr_scan"}}, {"type": "electric_scooter", "name": "4b6d683b3fba85ff63b92144bd6649a4", "fusion_lon": 0.0, "is_reserved": 0, "lon": -77.02530716666666, "fusion_lat": 0.0, "is_disabled": 0, "bike_id": "4b6d683b3fba85ff63b92144bd6649a4", "lat": 38.927481666666665, "rental_uris": {"ios": "https://dc.lft.to/lastmile_qr_scan", "android": "https://dc.lft.to/lastmile_qr_scan"}}, {"type": "electric_scooter", "name": "11a0121a6fa6b0ab56c598e45ed60654", "fusion_lon": 0.0, "is_reserved": 0, "lon": -77.012814, "fusion_lat": 0.0, "is_disabled": 0, "bike_id": "11a0121a6fa6b0ab56c598e45ed60654", "lat": 38.95665433333333, "rental_uris": {"ios": "https://dc.lft.to/lastmile_qr_scan", "android": "https://dc.lft.to/lastmile_qr_scan"}}, {"type": "electric_scooter", "name": "f30f4e37bac63ea6271f025fb3a778fc", "fusion_lon": 0.0, "is_reserved": 0, "lon": -76.996024, "fusion_lat": 0.0, "is_disabled": 0, "bike_id": "f30f4e37bac63ea6271f025fb3a778fc", "lat": 38.92529116666667, "rental_uris": {"ios": "https://dc.lft.to/lastmile_qr_scan", "android": "https://dc.lft.to/lastmile_qr_scan"}}, {"type": "electric_scooter", "name": "1650f9933c54755ea8883339200c8176", "fusion_lon": 0.0, "is_reserved": 0, "lon": -77.00201216666666, "fusion_lat": 0.0, "is_disabled": 0, "bike_id": "1650f9933c54755ea8883339200c8176", "lat": 38.906557666666664, "rental_uris": {"ios": "https://dc.lft.to/lastmile_qr_scan", "android": "https://dc.lft.to/lastmile_qr_scan"}}, {"type": "electric_scooter", "name": "629faf4b84119d7adc435b34aa870542", "fusion_lon": 0.0, "is_reserved": 0, "lon": -77.030829, "fusion_lat": 0.0, "is_disabled": 0, "bike_id": "629faf4b84119d7adc435b34aa870542", "lat": 38.9386645, "rental_uris": {"ios": "https://dc.lft.to/lastmile_qr_scan", "android": "https://dc.lft.to/lastmile_qr_scan"}}, {"type": "electric_scooter", "name": "e1080219218df8fcce0ad92b37c61ba0", "fusion_lon": 0.0, "is_reserved": 0, "lon": -77.06778333333334, "fusion_lat": 0.0, "is_disabled": 0, "bike_id": "e1080219218df8fcce0ad92b37c61ba0", "lat": 38.9039275, "rental_uris": {"ios": "https://dc.lft.to/lastmile_qr_scan", "android": "https://dc.lft.to/lastmile_qr_scan"}}, {"type": "electric_scooter", "name": "5b2899c0bb709dfe776664eb92a689b3", "fusion_lon": 0.0, "is_reserved": 0, "lon": -77.032312, "fusion_lat": 0.0, "is_disabled": 0, "bike_id": "5b2899c0bb709dfe776664eb92a689b3", "lat": 38.89887566666667, "rental_uris": {"ios": "https://dc.lft.to/lastmile_qr_scan", "android": "https://dc.lft.to/lastmile_qr_scan"}}, {"type": "electric_scooter", "name": "a054a0297856d5de1664f7fd52e33213", "fusion_lon": 0.0, "is_reserved": 0, "lon": -77.01950416666666, "fusion_lat": 0.0, "is_disabled": 0, "bike_id": "a054a0297856d5de1664f7fd52e33213", "lat": 38.919280666666666, "rental_uris": {"ios": "https://dc.lft.to/lastmile_qr_scan", "android": "https://dc.lft.to/lastmile_qr_scan"}}, {"type": "electric_scooter", "name": "f9cef4641be127d5eebf13333942c9d5", "fusion_lon": 0.0, "is_reserved": 0, "lon": -77.03332783333333, "fusion_lat": 0.0, "is_disabled": 0, "bike_id": "f9cef4641be127d5eebf13333942c9d5", "lat": 38.9012865, "rental_uris": {"ios": "https://dc.lft.to/lastmile_qr_scan", "android": "https://dc.lft.to/lastmile_qr_scan"}}, {"type": "electric_scooter", "name": "2a1bae4aeb217adf150bd44bc0688f6c", "fusion_lon": 0.0, "is_reserved": 0, "lon": -77.05634383333333, "fusion_lat": 0.0, "is_disabled": 0, "bike_id": "2a1bae4aeb217adf150bd44bc0688f6c", "lat": 38.9316235, "rental_uris": {"ios": "https://dc.lft.to/lastmile_qr_scan", "android": "https://dc.lft.to/lastmile_qr_scan"}}, {"type": "electric_scooter", "name": "0eb644d26f9da7a2234362e3d5b2bffe", "fusion_lon": 0.0, "is_reserved": 0, "lon": -77.02817583333334, "fusion_lat": 0.0, "is_disabled": 0, "bike_id": "0eb644d26f9da7a2234362e3d5b2bffe", "lat": 38.89754683333334, "rental_uris": {"ios": "https://dc.lft.to/lastmile_qr_scan", "android": "https://dc.lft.to/lastmile_qr_scan"}}, {"type": "electric_scooter", "name": "bcc26f540a3e499c337dc25cd196b457", "fusion_lon": 0.0, "is_reserved": 0, "lon": -77.04042316666667, "fusion_lat": 0.0, "is_disabled": 0, "bike_id": "bcc26f540a3e499c337dc25cd196b457", "lat": 38.90604733333333, "rental_uris": {"ios": "https://dc.lft.to/lastmile_qr_scan", "android": "https://dc.lft.to/lastmile_qr_scan"}}, {"type": "electric_scooter", "name": "acd3dd729a0bf6ced29eb5b7e2813c0a", "fusion_lon": 0.0, "is_reserved": 0, "lon": -77.03383683333334, "fusion_lat": 0.0, "is_disabled": 0, "bike_id": "acd3dd729a0bf6ced29eb5b7e2813c0a", "lat": 38.90617133333333, "rental_uris": {"ios": "https://dc.lft.to/lastmile_qr_scan", "android": "https://dc.lft.to/lastmile_qr_scan"}}, {"type": "electric_bike", "name": "1d4591316d59de1342805909c26027cf", "fusion_lon": 0.0, "is_reserved": 0, "lon": -76.997809, "fusion_lat": 0.0, "is_disabled": 0, "bike_id": "1d4591316d59de1342805909c26027cf", "lat": 38.82915916666666, "rental_uris": {"ios": "https://dc.lft.to/lastmile_qr_scan", "android": "https://dc.lft.to/lastmile_qr_scan"}}, {"type": "electric_bike", "name": "0920bb1b08af0472d249b66b93d60090", "fusion_lon": 0.0, "is_reserved": 0, "lon": -76.96062683333334, "fusion_lat": 0.0, "is_disabled": 0, "bike_id": "0920bb1b08af0472d249b66b93d60090", "lat": 38.88397633333334, "rental_uris": {"ios": "https://dc.lft.to/lastmile_qr_scan", "android": "https://dc.lft.to/lastmile_qr_scan"}}, {"type": "electric_scooter", "name": "46ecdda6038f5e186a7d97c8fbed80be", "fusion_lon": 0.0, "is_reserved": 0, "lon": -77.01626033333334, "fusion_lat": 0.0, "is_disabled": 0, "bike_id": "46ecdda6038f5e186a7d97c8fbed80be", "lat": 38.90249566666667, "rental_uris": {"ios": "https://dc.lft.to/lastmile_qr_scan", "android": "https://dc.lft.to/lastmile_qr_scan"}}, {"type": "electric_scooter", "name": "631bf90ed1a09d082806be0ac05b278a", "fusion_lon": 0.0, "is_reserved": 0, "lon": -77.02639816666667, "fusion_lat": 0.0, "is_disabled": 0, "bike_id": "631bf90ed1a09d082806be0ac05b278a", "lat": 38.9365255, "rental_uris": {"ios": "https://dc.lft.to/lastmile_qr_scan", "android": "https://dc.lft.to/lastmile_qr_scan"}}, {"type": "electric_scooter", "name": "ff7163f92e9907569ea98966391ff347", "fusion_lon": 0.0, "is_reserved": 0, "lon": -77.01279383333333, "fusion_lat": 0.0, "is_disabled": 0, "bike_id": "ff7163f92e9907569ea98966391ff347", "lat": 38.9019215, "rental_uris": {"ios": "https://dc.lft.to/lastmile_qr_scan", "android": "https://dc.lft.to/lastmile_qr_scan"}}, {"type": "electric_scooter", "name": "6d5a4f329a2afe2019b0094a34ddf369", "fusion_lon": 0.0, "is_reserved": 0, "lon": -77.01088883333334, "fusion_lat": 0.0, "is_disabled": 0, "bike_id": "6d5a4f329a2afe2019b0094a34ddf369", "lat": 38.9162995, "rental_uris": {"ios": "https://dc.lft.to/lastmile_qr_scan", "android": "https://dc.lft.to/lastmile_qr_scan"}}, {"type": "electric_scooter", "name": "7b359e09ce90eba20b15fda2edb63a30", "fusion_lon": 0.0, "is_reserved": 0, "lon": -77.00405233333333, "fusion_lat": 0.0, "is_disabled": 0, "bike_id": "7b359e09ce90eba20b15fda2edb63a30", "lat": 38.87941766666667, "rental_uris": {"ios": "https://dc.lft.to/lastmile_qr_scan", "android": "https://dc.lft.to/lastmile_qr_scan"}}, {"type": "electric_scooter", "name": "970b3eb08fb28cb0300fc7926c9635c1", "fusion_lon": 0.0, "is_reserved": 0, "lon": -77.0440535, "fusion_lat": 0.0, "is_disabled": 0, "bike_id": "970b3eb08fb28cb0300fc7926c9635c1", "lat": 38.9125005, "rental_uris": {"ios": "https://dc.lft.to/lastmile_qr_scan", "android": "https://dc.lft.to/lastmile_qr_scan"}}, {"type": "electric_scooter", "name": "107a60d49fff61a0e3be3e103874c616", "fusion_lon": 0.0, "is_reserved": 0, "lon": -77.063015, "fusion_lat": 0.0, "is_disabled": 0, "bike_id": "107a60d49fff61a0e3be3e103874c616", "lat": 38.90605716666666, "rental_uris": {"ios": "https://dc.lft.to/lastmile_qr_scan", "android": "https://dc.lft.to/lastmile_qr_scan"}}, {"type": "electric_bike", "name": "1e538977625aec06ad2a357ed62650c6", "fusion_lon": 0.0, "is_reserved": 0, "lon": -77.06856083333334, "fusion_lat": 0.0, "is_disabled": 0, "bike_id": "1e538977625aec06ad2a357ed62650c6", "lat": 38.96578366666667, "rental_uris": {"ios": "https://dc.lft.to/lastmile_qr_scan", "android": "https://dc.lft.to/lastmile_qr_scan"}}, {"type": "electric_scooter", "name": "fb28119d22c8549cba415db139ca5290", "fusion_lon": 0.0, "is_reserved": 0, "lon": -77.0234925, "fusion_lat": 0.0, "is_disabled": 0, "bike_id": "fb28119d22c8549cba415db139ca5290", "lat": 38.89219166666667, "rental_uris": {"ios": "https://dc.lft.to/lastmile_qr_scan", "android": "https://dc.lft.to/lastmile_qr_scan"}}, {"type": "electric_scooter", "name": "0653c9dfbad283be54d828c0ff3bba11", "fusion_lon": 0.0, "is_reserved": 0, "lon": -77.01952716666666, "fusion_lat": 0.0, "is_disabled": 0, "bike_id": "0653c9dfbad283be54d828c0ff3bba11", "lat": 38.92313683333333, "rental_uris": {"ios": "https://dc.lft.to/lastmile_qr_scan", "android": "https://dc.lft.to/lastmile_qr_scan"}}, {"type": "electric_scooter", "name": "0d4a14a3982e792d054b22134b76dc00", "fusion_lon": 0.0, "is_reserved": 0, "lon": -77.005723, "fusion_lat": 0.0, "is_disabled": 0, "bike_id": "0d4a14a3982e792d054b22134b76dc00", "lat": 38.8719785, "rental_uris": {"ios": "https://dc.lft.to/lastmile_qr_scan", "android": "https://dc.lft.to/lastmile_qr_scan"}}, {"type": "electric_scooter", "name": "e67e505ff1f1a0a4317e971c6f6c4215", "fusion_lon": 0.0, "is_reserved": 0, "lon": -77.03033, "fusion_lat": 0.0, "is_disabled": 0, "bike_id": "e67e505ff1f1a0a4317e971c6f6c4215", "lat": 38.902587, "rental_uris": {"ios": "https://dc.lft.to/lastmile_qr_scan", "android": "https://dc.lft.to/lastmile_qr_scan"}}, {"type": "electric_scooter", "name": "b2a18ae8be224fd67559210e13f874ba", "fusion_lon": 0.0, "is_reserved": 0, "lon": -77.0500305, "fusion_lat": 0.0, "is_disabled": 0, "bike_id": "b2a18ae8be224fd67559210e13f874ba", "lat": 38.893102166666665, "rental_uris": {"ios": "https://dc.lft.to/lastmile_qr_scan", "android": "https://dc.lft.to/lastmile_qr_scan"}}, {"type": "electric_scooter", "name": "de9d4e247e1512cbd44b5f19959e4552", "fusion_lon": 0.0, "is_reserved": 0, "lon": -77.03401083333334, "fusion_lat": 0.0, "is_disabled": 0, "bike_id": "de9d4e247e1512cbd44b5f19959e4552", "lat": 38.902463, "rental_uris": {"ios": "https://dc.lft.to/lastmile_qr_scan", "android": "https://dc.lft.to/lastmile_qr_scan"}}, {"type": "electric_scooter", "name": "3ac841ea8901f395630d37aefead051b", "fusion_lon": 0.0, "is_reserved": 0, "lon": -77.03779533333334, "fusion_lat": 0.0, "is_disabled": 0, "bike_id": "3ac841ea8901f395630d37aefead051b", "lat": 38.90693783333333, "rental_uris": {"ios": "https://dc.lft.to/lastmile_qr_scan", "android": "https://dc.lft.to/lastmile_qr_scan"}}, {"type": "electric_scooter", "name": "a15ba9941c7d79eb4a427a11a7336626", "fusion_lon": 0.0, "is_reserved": 0, "lon": -76.93701533333333, "fusion_lat": 0.0, "is_disabled": 0, "bike_id": "a15ba9941c7d79eb4a427a11a7336626", "lat": 38.89020983333333, "rental_uris": {"ios": "https://dc.lft.to/lastmile_qr_scan", "android": "https://dc.lft.to/lastmile_qr_scan"}}, {"type": "electric_bike", "name": "be07d7b26b357d69e30fa32460070de2", "fusion_lon": 0.0, "is_reserved": 0, "lon": -77.09466383333333, "fusion_lat": 0.0, "is_disabled": 0, "bike_id": "be07d7b26b357d69e30fa32460070de2", "lat": 38.869381833333335, "rental_uris": {"ios": "https://dc.lft.to/lastmile_qr_scan", "android": "https://dc.lft.to/lastmile_qr_scan"}}, {"type": "electric_scooter", "name": "437012e529ca9415e061a426b09a99f1", "fusion_lon": 0.0, "is_reserved": 0, "lon": -77.01654266666667, "fusion_lat": 0.0, "is_disabled": 0, "bike_id": "437012e529ca9415e061a426b09a99f1", "lat": 38.928964, "rental_uris": {"ios": "https://dc.lft.to/lastmile_qr_scan", "android": "https://dc.lft.to/lastmile_qr_scan"}}, {"type": "electric_scooter", "name": "80899777f0779f9a5b3c64286c9426ab", "fusion_lon": 0.0, "is_reserved": 0, "lon": -77.03195883333333, "fusion_lat": 0.0, "is_disabled": 0, "bike_id": "80899777f0779f9a5b3c64286c9426ab", "lat": 38.917919833333336, "rental_uris": {"ios": "https://dc.lft.to/lastmile_qr_scan", "android": "https://dc.lft.to/lastmile_qr_scan"}}, {"type": "electric_scooter", "name": "16472d5d0a3c66a5a3151c7394870643", "fusion_lon": 0.0, "is_reserved": 0, "lon": -77.02613666666667, "fusion_lat": 0.0, "is_disabled": 0, "bike_id": "16472d5d0a3c66a5a3151c7394870643", "lat": 38.95188316666667, "rental_uris": {"ios": "https://dc.lft.to/lastmile_qr_scan", "android": "https://dc.lft.to/lastmile_qr_scan"}}, {"type": "electric_scooter", "name": "6bc62b76845d48be99cecd30cc376fb3", "fusion_lon": 0.0, "is_reserved": 0, "lon": -77.02654, "fusion_lat": 0.0, "is_disabled": 0, "bike_id": "6bc62b76845d48be99cecd30cc376fb3", "lat": 38.8847445, "rental_uris": {"ios": "https://dc.lft.to/lastmile_qr_scan", "android": "https://dc.lft.to/lastmile_qr_scan"}}, {"type": "electric_scooter", "name": "5307b5dccc6d680e3efa63d7f4c43d07", "fusion_lon": 0.0, "is_reserved": 0, "lon": -77.03251933333334, "fusion_lat": 0.0, "is_disabled": 0, "bike_id": "5307b5dccc6d680e3efa63d7f4c43d07", "lat": 38.918182333333334, "rental_uris": {"ios": "https://dc.lft.to/lastmile_qr_scan", "android": "https://dc.lft.to/lastmile_qr_scan"}}, {"type": "electric_scooter", "name": "e69c5606cd62cdd139cffaf61c9fce23", "fusion_lon": 0.0, "is_reserved": 0, "lon": -77.024817, "fusion_lat": 0.0, "is_disabled": 0, "bike_id": "e69c5606cd62cdd139cffaf61c9fce23", "lat": 38.89806033333333, "rental_uris": {"ios": "https://dc.lft.to/lastmile_qr_scan", "android": "https://dc.lft.to/lastmile_qr_scan"}}, {"type": "electric_scooter", "name": "d3591457258fe43ff5b6abd11296039d", "fusion_lon": 0.0, "is_reserved": 0, "lon": -77.03073916666666, "fusion_lat": 0.0, "is_disabled": 0, "bike_id": "d3591457258fe43ff5b6abd11296039d", "lat": 38.9075935, "rental_uris": {"ios": "https://dc.lft.to/lastmile_qr_scan", "android": "https://dc.lft.to/lastmile_qr_scan"}}, {"type": "electric_scooter", "name": "1e4d6607916abbb7e2436d49428676d1", "fusion_lon": 0.0, "is_reserved": 0, "lon": -77.0549375, "fusion_lat": 0.0, "is_disabled": 0, "bike_id": "1e4d6607916abbb7e2436d49428676d1", "lat": 38.89362716666667, "rental_uris": {"ios": "https://dc.lft.to/lastmile_qr_scan", "android": "https://dc.lft.to/lastmile_qr_scan"}}, {"type": "electric_scooter", "name": "db14c63985d13800ed239038daf69d4f", "fusion_lon": 0.0, "is_reserved": 0, "lon": -77.03822833333334, "fusion_lat": 0.0, "is_disabled": 0, "bike_id": "db14c63985d13800ed239038daf69d4f", "lat": 38.90777116666667, "rental_uris": {"ios": "https://dc.lft.to/lastmile_qr_scan", "android": "https://dc.lft.to/lastmile_qr_scan"}}, {"type": "electric_scooter", "name": "5576ef86e3959001084062aee6d19625", "fusion_lon": 0.0, "is_reserved": 0, "lon": -77.0433555, "fusion_lat": 0.0, "is_disabled": 0, "bike_id": "5576ef86e3959001084062aee6d19625", "lat": 38.90229583333333, "rental_uris": {"ios": "https://dc.lft.to/lastmile_qr_scan", "android": "https://dc.lft.to/lastmile_qr_scan"}}, {"type": "electric_scooter", "name": "abe492b8b21448857409dfb64a22ee4d", "fusion_lon": 0.0, "is_reserved": 0, "lon": -77.0430265, "fusion_lat": 0.0, "is_disabled": 0, "bike_id": "abe492b8b21448857409dfb64a22ee4d", "lat": 38.922965833333336, "rental_uris": {"ios": "https://dc.lft.to/lastmile_qr_scan", "android": "https://dc.lft.to/lastmile_qr_scan"}}, {"type": "electric_scooter", "name": "6f49148c61da90f3491d62d8118f786f", "fusion_lon": 0.0, "is_reserved": 0, "lon": -76.98163683333334, "fusion_lat": 0.0, "is_disabled": 0, "bike_id": "6f49148c61da90f3491d62d8118f786f", "lat": 38.8961895, "rental_uris": {"ios": "https://dc.lft.to/lastmile_qr_scan", "android": "https://dc.lft.to/lastmile_qr_scan"}}, {"type": "electric_scooter", "name": "0c9a25b14a8c1a90eb3cf5fb740d7f60", "fusion_lon": 0.0, "is_reserved": 0, "lon": -77.02881333333333, "fusion_lat": 0.0, "is_disabled": 0, "bike_id": "0c9a25b14a8c1a90eb3cf5fb740d7f60", "lat": 38.902223666666664, "rental_uris": {"ios": "https://dc.lft.to/lastmile_qr_scan", "android": "https://dc.lft.to/lastmile_qr_scan"}}, {"type": "electric_scooter", "name": "cb69452be90b20c0a4cf58b95c4898b8", "fusion_lon": 0.0, "is_reserved": 0, "lon": -77.02348783333333, "fusion_lat": 0.0, "is_disabled": 0, "bike_id": "cb69452be90b20c0a4cf58b95c4898b8", "lat": 38.92510816666667, "rental_uris": {"ios": "https://dc.lft.to/lastmile_qr_scan", "android": "https://dc.lft.to/lastmile_qr_scan"}}, {"type": "electric_scooter", "name": "50a708df83643e02dafa8c6bd921c001", "fusion_lon": 0.0, "is_reserved": 0, "lon": -76.95444983333333, "fusion_lat": 0.0, "is_disabled": 0, "bike_id": "50a708df83643e02dafa8c6bd921c001", "lat": 38.88392433333333, "rental_uris": {"ios": "https://dc.lft.to/lastmile_qr_scan", "android": "https://dc.lft.to/lastmile_qr_scan"}}, {"type": "electric_scooter", "name": "588f3797b485ea0b205c56c6c5a876a8", "fusion_lon": 0.0, "is_reserved": 0, "lon": -77.046786, "fusion_lat": 0.0, "is_disabled": 0, "bike_id": "588f3797b485ea0b205c56c6c5a876a8", "lat": 38.902244333333336, "rental_uris": {"ios": "https://dc.lft.to/lastmile_qr_scan", "android": "https://dc.lft.to/lastmile_qr_scan"}}, {"type": "electric_scooter", "name": "539cb52cbe559a0591af9776944ae45e", "fusion_lon": 0.0, "is_reserved": 0, "lon": -76.99824383333333, "fusion_lat": 0.0, "is_disabled": 0, "bike_id": "539cb52cbe559a0591af9776944ae45e", "lat": 38.8930075, "rental_uris": {"ios": "https://dc.lft.to/lastmile_qr_scan", "android": "https://dc.lft.to/lastmile_qr_scan"}}, {"type": "electric_scooter", "name": "4af530baef01194a09a3772bf715f843", "fusion_lon": 0.0, "is_reserved": 0, "lon": -77.0425955, "fusion_lat": 0.0, "is_disabled": 0, "bike_id": "4af530baef01194a09a3772bf715f843", "lat": 38.923002833333335, "rental_uris": {"ios": "https://dc.lft.to/lastmile_qr_scan", "android": "https://dc.lft.to/lastmile_qr_scan"}}, {"type": "electric_scooter", "name": "8599e4a118bded06cb0e1f601ad7f8a7", "fusion_lon": 0.0, "is_reserved": 0, "lon": -77.0384145, "fusion_lat": 0.0, "is_disabled": 0, "bike_id": "8599e4a118bded06cb0e1f601ad7f8a7", "lat": 38.912186166666665, "rental_uris": {"ios": "https://dc.lft.to/lastmile_qr_scan", "android": "https://dc.lft.to/lastmile_qr_scan"}}, {"type": "electric_scooter", "name": "d0e900b202282ec1795d43dd72976402", "fusion_lon": 0.0, "is_reserved": 0, "lon": -77.03390133333333, "fusion_lat": 0.0, "is_disabled": 0, "bike_id": "d0e900b202282ec1795d43dd72976402", "lat": 38.8866085, "rental_uris": {"ios": "https://dc.lft.to/lastmile_qr_scan", "android": "https://dc.lft.to/lastmile_qr_scan"}}, {"type": "electric_scooter", "name": "9c5dd3c68cda6e678f8db6611f539e39", "fusion_lon": 0.0, "is_reserved": 0, "lon": -76.98522716666666, "fusion_lat": 0.0, "is_disabled": 0, "bike_id": "9c5dd3c68cda6e678f8db6611f539e39", "lat": 38.880813, "rental_uris": {"ios": "https://dc.lft.to/lastmile_qr_scan", "android": "https://dc.lft.to/lastmile_qr_scan"}}, {"type": "electric_scooter", "name": "b3a463f890b9cea0cf01b5fcf444ddde", "fusion_lon": 0.0, "is_reserved": 0, "lon": -77.02486116666667, "fusion_lat": 0.0, "is_disabled": 0, "bike_id": "b3a463f890b9cea0cf01b5fcf444ddde", "lat": 38.938676, "rental_uris": {"ios": "https://dc.lft.to/lastmile_qr_scan", "android": "https://dc.lft.to/lastmile_qr_scan"}}, {"type": "electric_scooter", "name": "8c8429b98a3e2bfd41f281489adb21b2", "fusion_lon": 0.0, "is_reserved": 0, "lon": -77.03861066666667, "fusion_lat": 0.0, "is_disabled": 0, "bike_id": "8c8429b98a3e2bfd41f281489adb21b2", "lat": 38.9171585, "rental_uris": {"ios": "https://dc.lft.to/lastmile_qr_scan", "android": "https://dc.lft.to/lastmile_qr_scan"}}, {"type": "electric_scooter", "name": "8ffdb3401dd5553bd868d8555825ce64", "fusion_lon": 0.0, "is_reserved": 0, "lon": -77.048747, "fusion_lat": 0.0, "is_disabled": 0, "bike_id": "8ffdb3401dd5553bd868d8555825ce64", "lat": 38.893246500000004, "rental_uris": {"ios": "https://dc.lft.to/lastmile_qr_scan", "android": "https://dc.lft.to/lastmile_qr_scan"}}, {"type": "electric_scooter", "name": "6c58bfc43034263a55ea11b202e27cb8", "fusion_lon": 0.0, "is_reserved": 0, "lon": -77.04512783333334, "fusion_lat": 0.0, "is_disabled": 0, "bike_id": "6c58bfc43034263a55ea11b202e27cb8", "lat": 38.905721166666666, "rental_uris": {"ios": "https://dc.lft.to/lastmile_qr_scan", "android": "https://dc.lft.to/lastmile_qr_scan"}}, {"type": "electric_scooter", "name": "dedb55d6b969f2e58cb85e309010b662", "fusion_lon": 0.0, "is_reserved": 0, "lon": -77.04136216666667, "fusion_lat": 0.0, "is_disabled": 0, "bike_id": "dedb55d6b969f2e58cb85e309010b662", "lat": 38.9264685, "rental_uris": {"ios": "https://dc.lft.to/lastmile_qr_scan", "android": "https://dc.lft.to/lastmile_qr_scan"}}, {"type": "electric_bike", "name": "b9ba477204db9ada21c83b07889888c8", "fusion_lon": 0.0, "is_reserved": 0, "lon": -76.9761825, "fusion_lat": 0.0, "is_disabled": 0, "bike_id": "b9ba477204db9ada21c83b07889888c8", "lat": 38.89292116666667, "rental_uris": {"ios": "https://dc.lft.to/lastmile_qr_scan", "android": "https://dc.lft.to/lastmile_qr_scan"}}, {"type": "electric_scooter", "name": "f1ba14c823c83820f87aebccd433e4ee", "fusion_lon": 0.0, "is_reserved": 0, "lon": -77.02588016666667, "fusion_lat": 0.0, "is_disabled": 0, "bike_id": "f1ba14c823c83820f87aebccd433e4ee", "lat": 38.91814083333333, "rental_uris": {"ios": "https://dc.lft.to/lastmile_qr_scan", "android": "https://dc.lft.to/lastmile_qr_scan"}}, {"type": "electric_scooter", "name": "423b4550fad22bd3b646f19e01bd6089", "fusion_lon": 0.0, "is_reserved": 0, "lon": -77.018236, "fusion_lat": 0.0, "is_disabled": 0, "bike_id": "423b4550fad22bd3b646f19e01bd6089", "lat": 38.9227185, "rental_uris": {"ios": "https://dc.lft.to/lastmile_qr_scan", "android": "https://dc.lft.to/lastmile_qr_scan"}}, {"type": "electric_scooter", "name": "53057c90382eccdf850e02cdf2016d7e", "fusion_lon": 0.0, "is_reserved": 0, "lon": -77.03316416666667, "fusion_lat": 0.0, "is_disabled": 0, "bike_id": "53057c90382eccdf850e02cdf2016d7e", "lat": 38.897506166666666, "rental_uris": {"ios": "https://dc.lft.to/lastmile_qr_scan", "android": "https://dc.lft.to/lastmile_qr_scan"}}, {"type": "electric_scooter", "name": "f4b2843ff9015380136f822afce84fe6", "fusion_lon": 0.0, "is_reserved": 0, "lon": -77.02348583333334, "fusion_lat": 0.0, "is_disabled": 0, "bike_id": "f4b2843ff9015380136f822afce84fe6", "lat": 38.892207666666664, "rental_uris": {"ios": "https://dc.lft.to/lastmile_qr_scan", "android": "https://dc.lft.to/lastmile_qr_scan"}}, {"type": "electric_scooter", "name": "0701eac822494cfba6f8230541da77d4", "fusion_lon": 0.0, "is_reserved": 0, "lon": -77.00712733333333, "fusion_lat": 0.0, "is_disabled": 0, "bike_id": "0701eac822494cfba6f8230541da77d4", "lat": 38.8849055, "rental_uris": {"ios": "https://dc.lft.to/lastmile_qr_scan", "android": "https://dc.lft.to/lastmile_qr_scan"}}, {"type": "electric_scooter", "name": "1fe75abcc59507a2e5c5e9669edf2f00", "fusion_lon": 0.0, "is_reserved": 0, "lon": -77.03398383333334, "fusion_lat": 0.0, "is_disabled": 0, "bike_id": "1fe75abcc59507a2e5c5e9669edf2f00", "lat": 38.938308166666665, "rental_uris": {"ios": "https://dc.lft.to/lastmile_qr_scan", "android": "https://dc.lft.to/lastmile_qr_scan"}}, {"type": "electric_scooter", "name": "f3152243db96fd125d40b960f3a17d5e", "fusion_lon": 0.0, "is_reserved": 0, "lon": -77.047881, "fusion_lat": 0.0, "is_disabled": 0, "bike_id": "f3152243db96fd125d40b960f3a17d5e", "lat": 38.8936415, "rental_uris": {"ios": "https://dc.lft.to/lastmile_qr_scan", "android": "https://dc.lft.to/lastmile_qr_scan"}}, {"type": "electric_scooter", "name": "b6f37b8fea1e18aa08fa503924da17fa", "fusion_lon": 0.0, "is_reserved": 0, "lon": -77.0524835, "fusion_lat": 0.0, "is_disabled": 0, "bike_id": "b6f37b8fea1e18aa08fa503924da17fa", "lat": 38.925186, "rental_uris": {"ios": "https://dc.lft.to/lastmile_qr_scan", "android": "https://dc.lft.to/lastmile_qr_scan"}}, {"type": "electric_scooter", "name": "71f5bee8b5df7846575c278e29e5cce1", "fusion_lon": 0.0, "is_reserved": 0, "lon": -77.0147605, "fusion_lat": 0.0, "is_disabled": 0, "bike_id": "71f5bee8b5df7846575c278e29e5cce1", "lat": 38.92068283333333, "rental_uris": {"ios": "https://dc.lft.to/lastmile_qr_scan", "android": "https://dc.lft.to/lastmile_qr_scan"}}, {"type": "electric_scooter", "name": "89807447cb79f8f8f476e21e4f8265a2", "fusion_lon": 0.0, "is_reserved": 0, "lon": -77.0449595, "fusion_lat": 0.0, "is_disabled": 0, "bike_id": "89807447cb79f8f8f476e21e4f8265a2", "lat": 38.92230766666667, "rental_uris": {"ios": "https://dc.lft.to/lastmile_qr_scan", "android": "https://dc.lft.to/lastmile_qr_scan"}}, {"type": "electric_scooter", "name": "e8c45a7995d27d0e64d01db4a81e982c", "fusion_lon": 0.0, "is_reserved": 0, "lon": -77.03140766666667, "fusion_lat": 0.0, "is_disabled": 0, "bike_id": "e8c45a7995d27d0e64d01db4a81e982c", "lat": 38.8830335, "rental_uris": {"ios": "https://dc.lft.to/lastmile_qr_scan", "android": "https://dc.lft.to/lastmile_qr_scan"}}, {"type": "electric_scooter", "name": "eb91af6771f014bbf6c74fa915b1ae15", "fusion_lon": 0.0, "is_reserved": 0, "lon": -76.98494533333333, "fusion_lat": 0.0, "is_disabled": 0, "bike_id": "eb91af6771f014bbf6c74fa915b1ae15", "lat": 38.920327, "rental_uris": {"ios": "https://dc.lft.to/lastmile_qr_scan", "android": "https://dc.lft.to/lastmile_qr_scan"}}, {"type": "electric_scooter", "name": "08d03c4478cc0c345dea0072c0aa0cab", "fusion_lon": 0.0, "is_reserved": 0, "lon": -77.0331405, "fusion_lat": 0.0, "is_disabled": 0, "bike_id": "08d03c4478cc0c345dea0072c0aa0cab", "lat": 38.9030115, "rental_uris": {"ios": "https://dc.lft.to/lastmile_qr_scan", "android": "https://dc.lft.to/lastmile_qr_scan"}}, {"type": "electric_scooter", "name": "4eaf339573fef2892e128e7e675fc04f", "fusion_lon": 0.0, "is_reserved": 0, "lon": -77.0300375, "fusion_lat": 0.0, "is_disabled": 0, "bike_id": "4eaf339573fef2892e128e7e675fc04f", "lat": 38.8961005, "rental_uris": {"ios": "https://dc.lft.to/lastmile_qr_scan", "android": "https://dc.lft.to/lastmile_qr_scan"}}, {"type": "electric_scooter", "name": "a0f934314199d7dadd0e974437b4c63a", "fusion_lon": 0.0, "is_reserved": 0, "lon": -76.99855933333333, "fusion_lat": 0.0, "is_disabled": 0, "bike_id": "a0f934314199d7dadd0e974437b4c63a", "lat": 38.90879783333333, "rental_uris": {"ios": "https://dc.lft.to/lastmile_qr_scan", "android": "https://dc.lft.to/lastmile_qr_scan"}}, {"type": "electric_scooter", "name": "6978c1afc38a3c385b932c8a290194ea", "fusion_lon": 0.0, "is_reserved": 0, "lon": -77.022235, "fusion_lat": 0.0, "is_disabled": 0, "bike_id": "6978c1afc38a3c385b932c8a290194ea", "lat": 38.9059665, "rental_uris": {"ios": "https://dc.lft.to/lastmile_qr_scan", "android": "https://dc.lft.to/lastmile_qr_scan"}}, {"type": "electric_scooter", "name": "645c378e15b2845e99949f3bf7671afd", "fusion_lon": 0.0, "is_reserved": 0, "lon": -77.030506, "fusion_lat": 0.0, "is_disabled": 0, "bike_id": "645c378e15b2845e99949f3bf7671afd", "lat": 38.927582666666666, "rental_uris": {"ios": "https://dc.lft.to/lastmile_qr_scan", "android": "https://dc.lft.to/lastmile_qr_scan"}}, {"type": "electric_scooter", "name": "1e49b0fcd8d417e542c0fdbae0a692b4", "fusion_lon": 0.0, "is_reserved": 0, "lon": -77.03200616666666, "fusion_lat": 0.0, "is_disabled": 0, "bike_id": "1e49b0fcd8d417e542c0fdbae0a692b4", "lat": 38.92172216666667, "rental_uris": {"ios": "https://dc.lft.to/lastmile_qr_scan", "android": "https://dc.lft.to/lastmile_qr_scan"}}, {"type": "electric_scooter", "name": "fa7f6d3154e703a94cd6885c6d26e8a7", "fusion_lon": 0.0, "is_reserved": 0, "lon": -76.98349216666666, "fusion_lat": 0.0, "is_disabled": 0, "bike_id": "fa7f6d3154e703a94cd6885c6d26e8a7", "lat": 38.849938333333334, "rental_uris": {"ios": "https://dc.lft.to/lastmile_qr_scan", "android": "https://dc.lft.to/lastmile_qr_scan"}}, {"type": "electric_scooter", "name": "cb01c8b7e8a2e08b1f5dc165bb3303f8", "fusion_lon": 0.0, "is_reserved": 0, "lon": -77.03894083333333, "fusion_lat": 0.0, "is_disabled": 0, "bike_id": "cb01c8b7e8a2e08b1f5dc165bb3303f8", "lat": 38.902263, "rental_uris": {"ios": "https://dc.lft.to/lastmile_qr_scan", "android": "https://dc.lft.to/lastmile_qr_scan"}}, {"type": "electric_bike", "name": "1b98237df2f2eeafe8fa5cb12d4c58ed", "fusion_lon": 0.0, "is_reserved": 0, "lon": -76.99574316666667, "fusion_lat": 0.0, "is_disabled": 0, "bike_id": "1b98237df2f2eeafe8fa5cb12d4c58ed", "lat": 38.8621855, "rental_uris": {"ios": "https://dc.lft.to/lastmile_qr_scan", "android": "https://dc.lft.to/lastmile_qr_scan"}}, {"type": "electric_scooter", "name": "c9ec46cd107626a404593a0c629748e7", "fusion_lon": 0.0, "is_reserved": 0, "lon": -76.93368983333333, "fusion_lat": 0.0, "is_disabled": 0, "bike_id": "c9ec46cd107626a404593a0c629748e7", "lat": 38.9018305, "rental_uris": {"ios": "https://dc.lft.to/lastmile_qr_scan", "android": "https://dc.lft.to/lastmile_qr_scan"}}, {"type": "electric_scooter", "name": "de5d70f941b96148aebf61c07631680e", "fusion_lon": 0.0, "is_reserved": 0, "lon": -76.9856485, "fusion_lat": 0.0, "is_disabled": 0, "bike_id": "de5d70f941b96148aebf61c07631680e", "lat": 38.858504833333335, "rental_uris": {"ios": "https://dc.lft.to/lastmile_qr_scan", "android": "https://dc.lft.to/lastmile_qr_scan"}}, {"type": "electric_scooter", "name": "a056d9f3b9ace8844acaa059a750288c", "fusion_lon": 0.0, "is_reserved": 0, "lon": -77.04823883333333, "fusion_lat": 0.0, "is_disabled": 0, "bike_id": "a056d9f3b9ace8844acaa059a750288c", "lat": 38.909702833333334, "rental_uris": {"ios": "https://dc.lft.to/lastmile_qr_scan", "android": "https://dc.lft.to/lastmile_qr_scan"}}, {"type": "electric_scooter", "name": "9db6be7063bda55021925b3d09b54a01", "fusion_lon": 0.0, "is_reserved": 0, "lon": -77.0213405, "fusion_lat": 0.0, "is_disabled": 0, "bike_id": "9db6be7063bda55021925b3d09b54a01", "lat": 38.9232865, "rental_uris": {"ios": "https://dc.lft.to/lastmile_qr_scan", "android": "https://dc.lft.to/lastmile_qr_scan"}}, {"type": "electric_scooter", "name": "0640e8feed1e7f2621adf8ce282aa305", "fusion_lon": 0.0, "is_reserved": 0, "lon": -77.04047983333334, "fusion_lat": 0.0, "is_disabled": 0, "bike_id": "0640e8feed1e7f2621adf8ce282aa305", "lat": 38.91410333333334, "rental_uris": {"ios": "https://dc.lft.to/lastmile_qr_scan", "android": "https://dc.lft.to/lastmile_qr_scan"}}, {"type": "electric_scooter", "name": "20417916438050f4bb15549b7463f660", "fusion_lon": 0.0, "is_reserved": 0, "lon": -77.04096566666666, "fusion_lat": 0.0, "is_disabled": 0, "bike_id": "20417916438050f4bb15549b7463f660", "lat": 38.910495833333336, "rental_uris": {"ios": "https://dc.lft.to/lastmile_qr_scan", "android": "https://dc.lft.to/lastmile_qr_scan"}}, {"type": "electric_scooter", "name": "124d35e064a75724c6d1578130941236", "fusion_lon": 0.0, "is_reserved": 0, "lon": -77.04427083333333, "fusion_lat": 0.0, "is_disabled": 0, "bike_id": "124d35e064a75724c6d1578130941236", "lat": 38.92125166666667, "rental_uris": {"ios": "https://dc.lft.to/lastmile_qr_scan", "android": "https://dc.lft.to/lastmile_qr_scan"}}, {"type": "electric_bike", "name": "143084614c0b4db3bba0d0b665a7e1ae", "fusion_lon": 0.0, "is_reserved": 0, "lon": -77.15016716666666, "fusion_lat": 0.0, "is_disabled": 0, "bike_id": "143084614c0b4db3bba0d0b665a7e1ae", "lat": 39.057902, "rental_uris": {"ios": "https://dc.lft.to/lastmile_qr_scan", "android": "https://dc.lft.to/lastmile_qr_scan"}}, {"type": "electric_scooter", "name": "0b1b4b9090b684507fb326749e4d1348", "fusion_lon": 0.0, "is_reserved": 0, "lon": -77.07249416666667, "fusion_lat": 0.0, "is_disabled": 0, "bike_id": "0b1b4b9090b684507fb326749e4d1348", "lat": 38.907839, "rental_uris": {"ios": "https://dc.lft.to/lastmile_qr_scan", "android": "https://dc.lft.to/lastmile_qr_scan"}}, {"type": "electric_scooter", "name": "f8953c38554370d05113d723c7d4b6bd", "fusion_lon": 0.0, "is_reserved": 0, "lon": -77.03792266666666, "fusion_lat": 0.0, "is_disabled": 0, "bike_id": "f8953c38554370d05113d723c7d4b6bd", "lat": 38.930496, "rental_uris": {"ios": "https://dc.lft.to/lastmile_qr_scan", "android": "https://dc.lft.to/lastmile_qr_scan"}}, {"type": "electric_scooter", "name": "76a9ec52b02017224f616ab13cc71b65", "fusion_lon": 0.0, "is_reserved": 0, "lon": -77.034503, "fusion_lat": 0.0, "is_disabled": 0, "bike_id": "76a9ec52b02017224f616ab13cc71b65", "lat": 38.90408933333333, "rental_uris": {"ios": "https://dc.lft.to/lastmile_qr_scan", "android": "https://dc.lft.to/lastmile_qr_scan"}}, {"type": "electric_bike", "name": "6a1571924f8451249de1ee05d2c4f8f8", "fusion_lon": 0.0, "is_reserved": 0, "lon": -77.0819235, "fusion_lat": 0.0, "is_disabled": 0, "bike_id": "6a1571924f8451249de1ee05d2c4f8f8", "lat": 38.85565966666667, "rental_uris": {"ios": "https://dc.lft.to/lastmile_qr_scan", "android": "https://dc.lft.to/lastmile_qr_scan"}}, {"type": "electric_scooter", "name": "8229990bb88c740f49ef07cb289a9747", "fusion_lon": 0.0, "is_reserved": 0, "lon": -77.043564, "fusion_lat": 0.0, "is_disabled": 0, "bike_id": "8229990bb88c740f49ef07cb289a9747", "lat": 38.89620016666667, "rental_uris": {"ios": "https://dc.lft.to/lastmile_qr_scan", "android": "https://dc.lft.to/lastmile_qr_scan"}}, {"type": "electric_scooter", "name": "5eda0c522ba77ab33a081c22176f9ad8", "fusion_lon": 0.0, "is_reserved": 0, "lon": -77.05806966666667, "fusion_lat": 0.0, "is_disabled": 0, "bike_id": "5eda0c522ba77ab33a081c22176f9ad8", "lat": 38.9027825, "rental_uris": {"ios": "https://dc.lft.to/lastmile_qr_scan", "android": "https://dc.lft.to/lastmile_qr_scan"}}, {"type": "electric_scooter", "name": "1129fab4ae8ef60584f96e7bd1b1f690", "fusion_lon": 0.0, "is_reserved": 0, "lon": -77.03310616666667, "fusion_lat": 0.0, "is_disabled": 0, "bike_id": "1129fab4ae8ef60584f96e7bd1b1f690", "lat": 38.9215485, "rental_uris": {"ios": "https://dc.lft.to/lastmile_qr_scan", "android": "https://dc.lft.to/lastmile_qr_scan"}}, {"type": "electric_scooter", "name": "8342f721b0480362bbd779cb01851ebd", "fusion_lon": 0.0, "is_reserved": 0, "lon": -77.07070216666666, "fusion_lat": 0.0, "is_disabled": 0, "bike_id": "8342f721b0480362bbd779cb01851ebd", "lat": 38.953285, "rental_uris": {"ios": "https://dc.lft.to/lastmile_qr_scan", "android": "https://dc.lft.to/lastmile_qr_scan"}}, {"type": "electric_scooter", "name": "d5b0be8e917eebbbad508cc85f8a9d8c", "fusion_lon": 0.0, "is_reserved": 0, "lon": -76.996199, "fusion_lat": 0.0, "is_disabled": 0, "bike_id": "d5b0be8e917eebbbad508cc85f8a9d8c", "lat": 38.900398, "rental_uris": {"ios": "https://dc.lft.to/lastmile_qr_scan", "android": "https://dc.lft.to/lastmile_qr_scan"}}, {"type": "electric_scooter", "name": "5ed547a034480c98c6c1d797d542086f", "fusion_lon": 0.0, "is_reserved": 0, "lon": -77.04663316666667, "fusion_lat": 0.0, "is_disabled": 0, "bike_id": "5ed547a034480c98c6c1d797d542086f", "lat": 38.90646983333333, "rental_uris": {"ios": "https://dc.lft.to/lastmile_qr_scan", "android": "https://dc.lft.to/lastmile_qr_scan"}}, {"type": "electric_scooter", "name": "401a3a78a1589694b7030fee48e4a755", "fusion_lon": 0.0, "is_reserved": 0, "lon": -77.04321333333333, "fusion_lat": 0.0, "is_disabled": 0, "bike_id": "401a3a78a1589694b7030fee48e4a755", "lat": 38.905519, "rental_uris": {"ios": "https://dc.lft.to/lastmile_qr_scan", "android": "https://dc.lft.to/lastmile_qr_scan"}}, {"type": "electric_scooter", "name": "e2e8eec83b500910178a0d793d463fd3", "fusion_lon": 0.0, "is_reserved": 0, "lon": -77.03146916666667, "fusion_lat": 0.0, "is_disabled": 0, "bike_id": "e2e8eec83b500910178a0d793d463fd3", "lat": 38.9111785, "rental_uris": {"ios": "https://dc.lft.to/lastmile_qr_scan", "android": "https://dc.lft.to/lastmile_qr_scan"}}, {"type": "electric_scooter", "name": "6b200952ac02810e1e55a17a730e227e", "fusion_lon": 0.0, "is_reserved": 0, "lon": -77.0488615, "fusion_lat": 0.0, "is_disabled": 0, "bike_id": "6b200952ac02810e1e55a17a730e227e", "lat": 38.9007285, "rental_uris": {"ios": "https://dc.lft.to/lastmile_qr_scan", "android": "https://dc.lft.to/lastmile_qr_scan"}},