{"data": {"bikes": [{"rental_uris": {"android": "https://dc.lft.to/lastmile_qr_scan", "ios": "https://dc.lft.to/lastmile_qr_scan"}, "is_reserved": 0, "is_disabled": 0, "name": "48f8bf8211e61948db4f17f737b60de1", "bike_id": "48f8bf8211e61948db4f17f737b60de1", "fusion_lat": 0.0, "lon": -77.0301065, "type": "electric_scooter", "fusion_lon": 0.0, "lat": 38.883280666666664}, {"rental_uris": {"android": "https://dc.lft.to/lastmile_qr_scan", "ios": "https://dc.lft.to/lastmile_qr_scan"}, "is_reserved": 0, "is_disabled": 0, "name": "842eea497e4d46f75b1782625cb5a925", "bike_id": "842eea497e4d46f75b1782625cb5a925", "fusion_lat": 0.0, "lon": -77.017387, "type": "electric_scooter", "fusion_lon": 0.0, "lat": 38.91424816666667}, {"rental_uris": {"android": "https://dc.lft.to/lastmile_qr_scan", "ios": "https://dc.lft.to/lastmile_qr_scan"}, "is_reserved": 0, "is_disabled": 0, "name": "ff3fcef8a3238be1da6d0e12dc84196b", "bike_id": "ff3fcef8a3238be1da6d0e12dc84196b", "fusion_lat": 0.0, "lon": -77.02568933333333, "type": "electric_scooter", "fusion_lon": 0.0, "lat": 38.887474}, {"rental_uris": {"android": "https://dc.lft.to/lastmile_qr_scan", "ios": "https://dc.lft.to/lastmile_qr_scan"}, "is_reserved": 0, "is_disabled": 0, "name": "c05fb4b4f738b41ef459ae6a016990aa", "bike_id": "c05fb4b4f738b41ef459ae6a016990aa", "fusion_lat": 0.0, "lon": -77.04419666666666, "type": "electric_scooter", "fusion_lon": 0.0, "lat": 38.92574666666667}, {"rental_uris": {"android": "https://dc.lft.to/lastmile_qr_scan", "ios": "https://dc.lft.to/lastmile_qr_scan"}, "is_reserved": 0, "is_disabled": 0, "name": "25ccfbb5379879c840495c0429cf4c4e", "bike_id": "25ccfbb5379879c840495c0429cf4c4e", "fusion_lat": 0.0, "lon": -77.01221616666666, "type": "electric_scooter", "fusion_lon": 0.0, "lat": 38.91541183333333}, {"rental_uris": {"android": "https://dc.lft.to/lastmile_qr_scan", "ios": "https://dc.lft.to/lastmile_qr_scan"}, "is_reserved": 0, "is_disabled": 0, "name": "59edef5c600b7a1aaeddc6530364eb76", "bike_id": "59edef5c600b7a1aaeddc6530364eb76", "fusion_lat": 0.0, "lon": -77.0418425, "type": "electric_scooter", "fusion_lon": 0.0, "lat": 38.920105}, {"rental_uris": {"android": "https://dc.lft.to/lastmile_qr_scan", "ios": "https://dc.lft.to/lastmile_qr_scan"}, "is_reserved": 0, "is_disabled": 0, "name": "9263944a314c69cf84a92da6d055fc76", "bike_id": "9263944a314c69cf84a92da6d055fc76", "fusion_lat": 0.0, "lon": -77.00713183333333, "type": "electric_scooter", "fusion_lon": 0.0, "lat": 38.906032833333335}, {"rental_uris": {"android": "https://dc.lft.to/lastmile_qr_scan", "ios": "https://dc.lft.to/lastmile_qr_scan"}, "is_reserved": 0, "is_disabled": 0, "name": "93f6b60a76b62683d7e7f50b289b8ea0", "bike_id": "93f6b60a76b62683d7e7f50b289b8ea0", "fusion_lat": 0.0, "lon": -77.08024833333333, "type": "electric_scooter", "fusion_lon": 0.0, "lat": 38.94604966666667}, {"rental_uris": {"android": "https://dc.lft.to/lastmile_qr_scan", "ios": "https://dc.lft.to/lastmile_qr_scan"}, "is_reserved": 0, "is_disabled": 0, "name": "4ceca621c38176aa9236054d31170360", "bike_id": "4ceca621c38176aa9236054d31170360", "fusion_lat": 0.0, "lon": -77.03561816666667, "type": "electric_scooter", "fusion_lon": 0.0, "lat": 38.90474483333333}, {"rental_uris": {"android": "https://dc.lft.to/lastmile_qr_scan", "ios": "https://dc.lft.to/lastmile_qr_scan"}, "is_reserved": 0, "is_disabled": 0, "name": "9d135066c28021cb1cb627e10b645db2", "bike_id": "9d135066c28021cb1cb627e10b645db2", "fusion_lat": 0.0, "lon": -77.0149865, "type": "electric_scooter", "fusion_lon": 0.0, "lat": 38.893187}, {"rental_uris": {"android": "https://dc.lft.to/lastmile_qr_scan", "ios": "https://dc.lft.to/lastmile_qr_scan"}, "is_reserved": 0, "is_disabled": 0, "name": "27fbfb78a2f331256145f573c90551fa", "bike_id": "27fbfb78a2f331256145f573c90551fa", "fusion_lat": 0.0, "lon": -77.04566516666667, "type": "electric_scooter", "fusion_lon": 0.0, "lat": 38.898767166666666}, {"rental_uris": {"android": "https://dc.lft.to/lastmile_qr_scan", "ios": "https://dc.lft.to/lastmile_qr_scan"}, "is_reserved": 0, "is_disabled": 0, "name": "9a8fa95ac0a290984c1ca4ffe7163d36", "bike_id": "9a8fa95ac0a290984c1ca4ffe7163d36", "fusion_lat": 0.0, "lon": -77.03520833333333, "type": "electric_scooter", "fusion_lon": 0.0, "lat": 38.92230566666667}, {"rental_uris": {"android": "https://dc.lft.to/lastmile_qr_scan", "ios": "https://dc.lft.to/lastmile_qr_scan"}, "is_reserved": 0, "is_disabled": 0, "name": "966fd356a5edf308ec334255e2a57164", "bike_id": "966fd356a5edf308ec334255e2a57164", "fusion_lat": 0.0, "lon": -77.0465525, "type": "electric_scooter", "fusion_lon": 0.0, "lat": 38.900184833333334}, {"rental_uris": {"android": "https://dc.lft.to/lastmile_qr_scan", "ios": "https://dc.lft.to/lastmile_qr_scan"}, "is_reserved": 0, "is_disabled": 0, "name": "e36c4005aa6bbc67b3e94bff38f89597", "bike_id": "e36c4005aa6bbc67b3e94bff38f89597", "fusion_lat": 0.0, "lon": -77.01978883333334, "type": "electric_scooter", "fusion_lon": 0.0, "lat": 38.9012525}, {"rental_uris": {"android": "https://dc.lft.to/lastmile_qr_scan", "ios": "https://dc.lft.to/lastmile_qr_scan"}, "is_reserved": 0, "is_disabled": 0, "name": "4851176a11c9695662a0dce79c095bbb", "bike_id": "4851176a11c9695662a0dce79c095bbb", "fusion_lat": 0.0, "lon": -77.03440966666666, "type": "electric_scooter", "fusion_lon": 0.0, "lat": 38.9011725}, {"rental_uris": {"android": "https://dc.lft.to/lastmile_qr_scan", "ios": "https://dc.lft.to/lastmile_qr_scan"}, "is_reserved": 0, "is_disabled": 0, "name": "5c06eed36582280bae3544a82de6e805", "bike_id": "5c06eed36582280bae3544a82de6e805", "fusion_lat": 0.0, "lon": -77.04490933333334, "type": "electric_scooter", "fusion_lon": 0.0, "lat": 38.8973705}, {"rental_uris": {"android": "https://dc.lft.to/lastmile_qr_scan", "ios": "https://dc.lft.to/lastmile_qr_scan"}, "is_reserved": 0, "is_disabled": 0, "name": "3afd51a6680a1ae4da14d1265f54c6f4", "bike_id": "3afd51a6680a1ae4da14d1265f54c6f4", "fusion_lat": 0.0, "lon": -77.0241335, "type": "electric_scooter", "fusion_lon": 0.0, "lat": 38.892118833333335}, {"rental_uris": {"android": "https://dc.lft.to/lastmile_qr_scan", "ios": "https://dc.lft.to/lastmile_qr_scan"}, "is_reserved": 0, "is_disabled": 0, "name": "b0795465225342268dea1cbfd86b9605", "bike_id": "b0795465225342268dea1cbfd86b9605", "fusion_lat": 0.0, "lon": -77.04477866666667, "type": "electric_scooter", "fusion_lon": 0.0, "lat": 38.902562333333336}, {"rental_uris": {"android": "https://dc.lft.to/lastmile_qr_scan", "ios": "https://dc.lft.to/lastmile_qr_scan"}, "is_reserved": 0, "is_disabled": 0, "name": "e45691c73e2b77c6bd2ee15a2834837d", "bike_id": "e45691c73e2b77c6bd2ee15a2834837d", "fusion_lat": 0.0, "lon": -77.09556333333333, "type": "electric_bike", "fusion_lon": 0.0, "lat": 38.858953166666666}, {"rental_uris": {"android": "https://dc.lft.to/lastmile_qr_scan", "ios": "https://dc.lft.to/lastmile_qr_scan"}, "is_reserved": 0, "is_disabled": 0, "name": "4721ba5ac0fa8a05cd88504ef895b5c3", "bike_id": "4721ba5ac0fa8a05cd88504ef895b5c3", "fusion_lat": 0.0, "lon": -77.029023, "type": "electric_scooter", "fusion_lon": 0.0, "lat": 38.923115}, {"rental_uris": {"android": "https://dc.lft.to/lastmile_qr_scan", "ios": "https://dc.lft.to/lastmile_qr_scan"}, "is_reserved": 0, "is_disabled": 0, "name": "6a40fa6fc66aa9b94aef774c3c796d73", "bike_id": "6a40fa6fc66aa9b94aef774c3c796d73", "fusion_lat": 0.0, "lon": -77.04675866666666, "type": "electric_scooter", "fusion_lon": 0.0, "lat": 38.89564283333333}, {"rental_uris": {"android": "https://dc.lft.to/lastmile_qr_scan", "ios": "https://dc.lft.to/lastmile_qr_scan"}, "is_reserved": 0, "is_disabled": 0, "name": "b523581c7d9df3dd8524a349e083a6d1", "bike_id": "b523581c7d9df3dd8524a349e083a6d1", "fusion_lat": 0.0, "lon": -77.00726566666667, "type": "electric_scooter", "fusion_lon": 0.0, "lat": 38.87624116666667}, {"rental_uris": {"android": "https://dc.lft.to/lastmile_qr_scan", "ios": "https://dc.lft.to/lastmile_qr_scan"}, "is_reserved": 0, "is_disabled": 0, "name": "0aae85cc7131771c0d3703da4079f6f0", "bike_id": "0aae85cc7131771c0d3703da4079f6f0", "fusion_lat": 0.0, "lon": -77.0280425, "type": "electric_scooter", "fusion_lon": 0.0, "lat": 38.892225833333335}, {"rental_uris": {"android": "https://dc.lft.to/lastmile_qr_scan", "ios": "https://dc.lft.to/lastmile_qr_scan"}, "is_reserved": 0, "is_disabled": 0, "name": "a939a5e2fa0d09718b0010cb4ee905e6", "bike_id": "a939a5e2fa0d09718b0010cb4ee905e6", "fusion_lat": 0.0, "lon": -77.18294933333334, "type": "electric_bike", "fusion_lon": 0.0, "lat": 38.89077416666667}, {"rental_uris": {"android": "https://dc.lft.to/lastmile_qr_scan", "ios": "https://dc.lft.to/lastmile_qr_scan"}, "is_reserved": 0, "is_disabled": 0, "name": "03b1613192f2bc30d3176a06a2b859fa", "bike_id": "03b1613192f2bc30d3176a06a2b859fa", "fusion_lat": 0.0, "lon": -77.04341466666666, "type": "electric_scooter", "fusion_lon": 0.0, "lat": 38.904464833333336}, {"rental_uris": {"android": "https://dc.lft.to/lastmile_qr_scan", "ios": "https://dc.lft.to/lastmile_qr_scan"}, "is_reserved": 0, "is_disabled": 0, "name": "35905fb0b133408d902cb9a17622e847", "bike_id": "35905fb0b133408d902cb9a17622e847", "fusion_lat": 0.0, "lon": -77.02734816666667, "type": "electric_scooter", "fusion_lon": 0.0, "lat": 38.934669166666666}, {"rental_uris": {"android": "https://dc.lft.to/lastmile_qr_scan", "ios": "https://dc.lft.to/lastmile_qr_scan"}, "is_reserved": 0, "is_disabled": 0, "name": "1bcf0812a70d57ea4ca75307fef49a94", "bike_id": "1bcf0812a70d57ea4ca75307fef49a94", "fusion_lat": 0.0, "lon": -77.02142883333333, "type": "electric_scooter", "fusion_lon": 0.0, "lat": 38.924972333333336}, {"rental_uris": {"android": "https://dc.lft.to/lastmile_qr_scan", "ios": "https://dc.lft.to/lastmile_qr_scan"}, "is_reserved": 0, "is_disabled": 0, "name": "1d3a78c5caf6a9e25514035d2b34bdd9", "bike_id": "1d3a78c5caf6a9e25514035d2b34bdd9", "fusion_lat": 0.0, "lon": -77.038503, "type": "electric_scooter", "fusion_lon": 0.0, "lat": 38.90417733333334}, {"rental_uris": {"android": "https://dc.lft.to/lastmile_qr_scan", "ios": "https://dc.lft.to/lastmile_qr_scan"}, "is_reserved": 0, "is_disabled": 0, "name": "63656dd816eb86168853de67f0902a81", "bike_id": "63656dd816eb86168853de67f0902a81", "fusion_lat": 0.0, "lon": -76.97294633333334, "type": "electric_bike", "fusion_lon": 0.0, "lat": 38.8656695}, {"rental_uris": {"android": "https://dc.lft.to/lastmile_qr_scan", "ios": "https://dc.lft.to/lastmile_qr_scan"}, "is_reserved": 0, "is_disabled": 0, "name": "6b2d985d63d441b9359ec8cfebc9e8d6", "bike_id": "6b2d985d63d441b9359ec8cfebc9e8d6", "fusion_lat": 0.0, "lon": -77.03463133333334, "type": "electric_scooter", "fusion_lon": 0.0, "lat": 38.90446766666667}, {"rental_uris": {"android": "https://dc.lft.to/lastmile_qr_scan", "ios": "https://dc.lft.to/lastmile_qr_scan"}, "is_reserved": 0, "is_disabled": 0, "name": "7d76f4493770f437b6b127de7d71b203", "bike_id": "7d76f4493770f437b6b127de7d71b203", "fusion_lat": 0.0, "lon": -77.03495866666667, "type": "electric_scooter", "fusion_lon": 0.0, "lat": 38.901290833333334}, {"rental_uris": {"android": "https://dc.lft.to/lastmile_qr_scan", "ios": "https://dc.lft.to/lastmile_qr_scan"}, "is_reserved": 0, "is_disabled": 0, "name": "bf17880a98c360b3341bcdc331358517", "bike_id": "bf17880a98c360b3341bcdc331358517", "fusion_lat": 0.0, "lon": -77.03137216666667, "type": "electric_scooter", "fusion_lon": 0.0, "lat": 38.9037845}, {"rental_uris": {"android": "https://dc.lft.to/lastmile_qr_scan", "ios": "https://dc.lft.to/lastmile_qr_scan"}, "is_reserved": 0, "is_disabled": 0, "name": "55446614c43482bd24c738576925fc3c", "bike_id": "55446614c43482bd24c738576925fc3c", "fusion_lat": 0.0, "lon": -77.04548416666667, "type": "electric_scooter", "fusion_lon": 0.0, "lat": 38.898224166666665}, {"rental_uris": {"android": "https://dc.lft.to/lastmile_qr_scan", "ios": "https://dc.lft.to/lastmile_qr_scan"}, "is_reserved": 0, "is_disabled": 0, "name": "cb5d88e278293fc7baa871390135e7b0", "bike_id": "cb5d88e278293fc7baa871390135e7b0", "fusion_lat": 0.0, "lon": -76.99852633333333, "type": "electric_scooter", "fusion_lon": 0.0, "lat": 38.896165}, {"rental_uris": {"android": "https://dc.lft.to/lastmile_qr_scan", "ios": "https://dc.lft.to/lastmile_qr_scan"}, "is_reserved": 0, "is_disabled": 0, "name": "e40e418751aa64f559861f24505d9173", "bike_id": "e40e418751aa64f559861f24505d9173", "fusion_lat": 0.0, "lon": -77.05204116666667, "type": "electric_scooter", "fusion_lon": 0.0, "lat": 38.90257166666667}, {"rental_uris": {"android": "https://dc.lft.to/lastmile_qr_scan", "ios": "https://dc.lft.to/lastmile_qr_scan"}, "is_reserved": 0, "is_disabled": 0, "name": "9a8b246d0106845cc4bd846c07ce7c86", "bike_id": "9a8b246d0106845cc4bd846c07ce7c86", "fusion_lat": 0.0, "lon": -77.041614, "type": "electric_scooter", "fusion_lon": 0.0, "lat": 38.914150166666666}, {"rental_uris": {"android": "https://dc.lft.to/lastmile_qr_scan", "ios": "https://dc.lft.to/lastmile_qr_scan"}, "is_reserved": 0, "is_disabled": 0, "name": "073ec998b99872e3cdd901cc668fd80b", "bike_id": "073ec998b99872e3cdd901cc668fd80b", "fusion_lat": 0.0, "lon": -76.99521516666667, "type": "electric_scooter", "fusion_lon": 0.0, "lat": 38.88370883333333}, {"rental_uris": {"android": "https://dc.lft.to/lastmile_qr_scan", "ios": "https://dc.lft.to/lastmile_qr_scan"}, "is_reserved": 0, "is_disabled": 0, "name": "b840316bc4bc2a3a8544f0a35e7079e2", "bike_id": "b840316bc4bc2a3a8544f0a35e7079e2", "fusion_lat": 0.0, "lon": -77.03728216666667, "type": "electric_scooter", "fusion_lon": 0.0, "lat": 38.926531}, {"rental_uris": {"android": "https://dc.lft.to/lastmile_qr_scan", "ios": "https://dc.lft.to/lastmile_qr_scan"}, "is_reserved": 0, "is_disabled": 0, "name": "f07c4faf17bb568244511e9d3f812c8c", "bike_id": "f07c4faf17bb568244511e9d3f812c8c", "fusion_lat": 0.0, "lon": -77.053334, "type": "electric_scooter", "fusion_lon": 0.0, "lat": 38.905}, {"rental_uris": {"android": "https://dc.lft.to/lastmile_qr_scan", "ios": "https://dc.lft.to/lastmile_qr_scan"}, "is_reserved": 0, "is_disabled": 0, "name": "380d98c0d244f39a05c8bdf2a29590ad", "bike_id": "380d98c0d244f39a05c8bdf2a29590ad", "fusion_lat": 0.0, "lon": -77.06571733333334, "type": "electric_bike", "fusion_lon": 0.0, "lat": 38.932563333333334}, {"rental_uris": {"android": "https://dc.lft.to/lastmile_qr_scan", "ios": "https://dc.lft.to/lastmile_qr_scan"}, "is_reserved": 0, "is_disabled": 0, "name": "59e9af1af72b4c91446876cd05900192", "bike_id": "59e9af1af72b4c91446876cd05900192", "fusion_lat": 0.0, "lon": -77.03665783333334, "type": "electric_scooter", "fusion_lon": 0.0, "lat": 38.92306266666667}, {"rental_uris": {"android": "https://dc.lft.to/lastmile_qr_scan", "ios": "https://dc.lft.to/lastmile_qr_scan"}, "is_reserved": 0, "is_disabled": 0, "name": "44a55d08deab2c52bf4e12cd1fc0ce87", "bike_id": "44a55d08deab2c52bf4e12cd1fc0ce87", "fusion_lat": 0.0, "lon": -77.04500983333334, "type": "electric_scooter", "fusion_lon": 0.0, "lat": 38.903792333333335}, {"rental_uris": {"android": "https://dc.lft.to/lastmile_qr_scan", "ios": "https://dc.lft.to/lastmile_qr_scan"}, "is_reserved": 0, "is_disabled": 0, "name": "01c24dbfde055f0e54f2fbb2dd80ffa8", "bike_id": "01c24dbfde055f0e54f2fbb2dd80ffa8", "fusion_lat": 0.0, "lon": -77.04600533333333, "type": "electric_scooter", "fusion_lon": 0.0, "lat": 38.913872833333336}, {"rental_uris": {"android": "https://dc.lft.to/lastmile_qr_scan", "ios": "https://dc.lft.to/lastmile_qr_scan"}, "is_reserved": 0, "is_disabled": 0, "name": "969ddce1b081e2a5ff6c19184dba5abc", "bike_id": "969ddce1b081e2a5ff6c19184dba5abc", "fusion_lat": 0.0, "lon": -77.02640083333333, "type": "electric_scooter", "fusion_lon": 0.0, "lat": 38.930252333333335}, {"rental_uris": {"android": "https://dc.lft.to/lastmile_qr_scan", "ios": "https://dc.lft.to/lastmile_qr_scan"}, "is_reserved": 0, "is_disabled": 0, "name": "10079b96c6f0fee9678455a270d7b6c3", "bike_id": "10079b96c6f0fee9678455a270d7b6c3", "fusion_lat": 0.0, "lon": -77.03202916666666, "type": "electric_scooter", "fusion_lon": 0.0, "lat": 38.897867833333336}, {"rental_uris": {"android": "https://dc.lft.to/lastmile_qr_scan", "ios": "https://dc.lft.to/lastmile_qr_scan"}, "is_reserved": 0, "is_disabled": 0, "name": "520b1f72bdb3cf9ec926ea99bdae4396", "bike_id": "520b1f72bdb3cf9ec926ea99bdae4396", "fusion_lat": 0.0, "lon": -77.0365835, "type": "electric_scooter", "fusion_lon": 0.0, "lat": 38.927538166666665}, {"rental_uris": {"android": "https://dc.lft.to/lastmile_qr_scan", "ios": "https://dc.lft.to/lastmile_qr_scan"}, "is_reserved": 0, "is_disabled": 0, "name": "17bea330c85839bb1d56cb65ef26512c", "bike_id": "17bea330c85839bb1d56cb65ef26512c", "fusion_lat": 0.0, "lon": -77.05888366666667, "type": "electric_scooter", "fusion_lon": 0.0, "lat": 38.90358283333333}, {"rental_uris": {"android": "https://dc.lft.to/lastmile_qr_scan", "ios": "https://dc.lft.to/lastmile_qr_scan"}, "is_reserved": 0, "is_disabled": 0, "name": "4a24f2325f7ab6ef0dc1e56127a41122", "bike_id": "4a24f2325f7ab6ef0dc1e56127a41122", "fusion_lat": 0.0, "lon": -77.02663466666667, "type": "electric_scooter", "fusion_lon": 0.0, "lat": 38.89609383333333}, {"rental_uris": {"android": "https://dc.lft.to/lastmile_qr_scan", "ios": "https://dc.lft.to/lastmile_qr_scan"}, "is_reserved": 0, "is_disabled": 0, "name": "936062d20b14bd149aa1fb39f3b4b7c8", "bike_id": "936062d20b14bd149aa1fb39f3b4b7c8", "fusion_lat": 0.0, "lon": -77.02796383333333, "type": "electric_scooter", "fusion_lon": 0.0, "lat": 38.954012166666665}, {"rental_uris": {"android": "https://dc.lft.to/lastmile_qr_scan", "ios": "https://dc.lft.to/lastmile_qr_scan"}, "is_reserved": 0, "is_disabled": 0, "name": "e335bbaa046b0a27639a319069858db1", "bike_id": "e335bbaa046b0a27639a319069858db1", "fusion_lat": 0.0, "lon": -77.01687733333333, "type": "electric_scooter", "fusion_lon": 0.0, "lat": 38.87709783333333}, {"rental_uris": {"android": "https://dc.lft.to/lastmile_qr_scan", "ios": "https://dc.lft.to/lastmile_qr_scan"}, "is_reserved": 0, "is_disabled": 0, "name": "2876de32d1dc3eda628edc3641977f50", "bike_id": "2876de32d1dc3eda628edc3641977f50", "fusion_lat": 0.0, "lon": -77.04025683333333, "type": "electric_scooter", "fusion_lon": 0.0, "lat": 38.898506}, {"rental_uris": {"android": "https://dc.lft.to/lastmile_qr_scan", "ios": "https://dc.lft.to/lastmile_qr_scan"}, "is_reserved": 0, "is_disabled": 0, "name": "3d893f4fdf7186521d3fd63f8c224d91", "bike_id": "3d893f4fdf7186521d3fd63f8c224d91", "fusion_lat": 0.0, "lon": -77.00762666666667, "type": "electric_bike", "fusion_lon": 0.0, "lat": 38.99773616666667}, {"rental_uris": {"android": "https://dc.lft.to/lastmile_qr_scan", "ios": "https://dc.lft.to/lastmile_qr_scan"}, "is_reserved": 0, "is_disabled": 0, "name": "cd2e19c615fcefc3d53806dc46547282", "bike_id": "cd2e19c615fcefc3d53806dc46547282", "fusion_lat": 0.0, "lon": -76.95248, "type": "electric_bike", "fusion_lon": 0.0, "lat": 38.88458516666667}, {"rental_uris": {"android": "https://dc.lft.to/lastmile_qr_scan", "ios": "https://dc.lft.to/lastmile_qr_scan"}, "is_reserved": 0, "is_disabled": 0, "name": "f83840a58bc9fd875c30ffa17d7766eb", "bike_id": "f83840a58bc9fd875c30ffa17d7766eb", "fusion_lat": 0.0, "lon": -77.00920483333333, "type": "electric_scooter", "fusion_lon": 0.0, "lat": 38.900354}, {"rental_uris": {"android": "https://dc.lft.to/lastmile_qr_scan", "ios": "https://dc.lft.to/lastmile_qr_scan"}, "is_reserved": 0, "is_disabled": 0, "name": "7a425c17e774a4d5db6a593f17894a09", "bike_id": "7a425c17e774a4d5db6a593f17894a09", "fusion_lat": 0.0, "lon": -76.94542716666666, "type": "electric_bike", "fusion_lon": 0.0, "lat": 38.982572166666664}, {"rental_uris": {"android": "https://dc.lft.to/lastmile_qr_scan", "ios": "https://dc.lft.to/lastmile_qr_scan"}, "is_reserved": 0, "is_disabled": 0, "name": "7fa0974704b5a23f272d056c2b32da4f", "bike_id": "7fa0974704b5a23f272d056c2b32da4f", "fusion_lat": 0.0, "lon": -77.02898366666666, "type": "electric_scooter", "fusion_lon": 0.0, "lat": 38.9140155}, {"rental_uris": {"android": "https://dc.lft.to/lastmile_qr_scan", "ios": "https://dc.lft.to/lastmile_qr_scan"}, "is_reserved": 0, "is_disabled": 0, "name": "58a6d1b738bb986a4ae5047e34ecece2", "bike_id": "58a6d1b738bb986a4ae5047e34ecece2", "fusion_lat": 0.0, "lon": -77.12839866666667, "type": "electric_bike", "fusion_lon": 0.0, "lat": 38.80048216666667}, {"rental_uris": {"android": "https://dc.lft.to/lastmile_qr_scan", "ios": "https://dc.lft.to/lastmile_qr_scan"}, "is_reserved": 0, "is_disabled": 0, "name": "721b490713c2a324f1fd65fdee737bf1", "bike_id": "721b490713c2a324f1fd65fdee737bf1", "fusion_lat": 0.0, "lon": -77.00798533333334, "type": "electric_scooter", "fusion_lon": 0.0, "lat": 38.952392333333336}, {"rental_uris": {"android": "https://dc.lft.to/lastmile_qr_scan", "ios": "https://dc.lft.to/lastmile_qr_scan"}, "is_reserved": 0, "is_disabled": 0, "name": "3ec8d55e8dc853bf86102c673b3558fd", "bike_id": "3ec8d55e8dc853bf86102c673b3558fd", "fusion_lat": 0.0, "lon": -77.03081, "type": "electric_scooter", "fusion_lon": 0.0, "lat": 38.899667}, {"rental_uris": {"android": "https://dc.lft.to/lastmile_qr_scan", "ios": "https://dc.lft.to/lastmile_qr_scan"}, "is_reserved": 0, "is_disabled": 0, "name": "b1f73561e4a91835b52e012fb5302a5d", "bike_id": "b1f73561e4a91835b52e012fb5302a5d", "fusion_lat": 0.0, "lon": -77.00717333333333, "type": "electric_scooter", "fusion_lon": 0.0, "lat": 38.88493483333333}, {"rental_uris": {"android": "https://dc.lft.to/lastmile_qr_scan", "ios": "https://dc.lft.to/lastmile_qr_scan"}, "is_reserved": 0, "is_disabled": 0, "name": "8a902e23c09b1e2357e91cdbad63c8d0", "bike_id": "8a902e23c09b1e2357e91cdbad63c8d0", "fusion_lat": 0.0, "lon": -77.01971133333333, "type": "electric_scooter", "fusion_lon": 0.0, "lat": 38.92327516666667}, {"rental_uris": {"android": "https://dc.lft.to/lastmile_qr_scan", "ios": "https://dc.lft.to/lastmile_qr_scan"}, "is_reserved": 0, "is_disabled": 0, "name": "ad81761579bcbe67a00f9cade7392420", "bike_id": "ad81761579bcbe67a00f9cade7392420", "fusion_lat": 0.0, "lon": -77.03224033333333, "type": "electric_scooter", "fusion_lon": 0.0, "lat": 38.89738883333333}, {"rental_uris": {"android": "https://dc.lft.to/lastmile_qr_scan", "ios": "https://dc.lft.to/lastmile_qr_scan"}, "is_reserved": 0, "is_disabled": 0, "name": "4f6259632a6232f107970b01090b923a", "bike_id": "4f6259632a6232f107970b01090b923a", "fusion_lat": 0.0, "lon": -77.02183066666667, "type": "electric_scooter", "fusion_lon": 0.0, "lat": 38.910000333333336}, {"rental_uris": {"android": "https://dc.lft.to/lastmile_qr_scan", "ios": "https://dc.lft.to/lastmile_qr_scan"}, "is_reserved": 0, "is_disabled": 0, "name": "da6f30001c7b5beacf91ec2e3046a03d", "bike_id": "da6f30001c7b5beacf91ec2e3046a03d", "fusion_lat": 0.0, "lon": -77.04412866666667, "type": "electric_scooter", "fusion_lon": 0.0, "lat": 38.8958495}, {"rental_uris": {"android": "https://dc.lft.to/lastmile_qr_scan", "ios": "https://dc.lft.to/lastmile_qr_scan"}, "is_reserved": 0, "is_disabled": 0, "name": "17bf4cc7603614dbccaa904bf9e9cc0b", "bike_id": "17bf4cc7603614dbccaa904bf9e9cc0b", "fusion_lat": 0.0, "lon": -77.094538, "type": "electric_bike", "fusion_lon": 0.0, "lat": 38.807510666666666}, {"rental_uris": {"android": "https://dc.lft.to/lastmile_qr_scan", "ios": "https://dc.lft.to/lastmile_qr_scan"}, "is_reserved": 0, "is_disabled": 0, "name": "bcbbe963d29e819beb3c18f7f576db36", "bike_id": "bcbbe963d29e819beb3c18f7f576db36", "fusion_lat": 0.0, "lon": -77.02225133333333, "type": "electric_scooter", "fusion_lon": 0.0, "lat": 38.92106833333333}, {"rental_uris": {"android": "https://dc.lft.to/lastmile_qr_scan", "ios": "https://dc.lft.to/lastmile_qr_scan"}, "is_reserved": 0, "is_disabled": 0, "name": "aeb354e2f306b31a8e5879161331d32b", "bike_id": "aeb354e2f306b31a8e5879161331d32b", "fusion_lat": 0.0, "lon": -77.02149216666666, "type": "electric_scooter", "fusion_lon": 0.0, "lat": 38.927421}, {"rental_uris": {"android": "https://dc.lft.to/lastmile_qr_scan", "ios": "https://dc.lft.to/lastmile_qr_scan"}, "is_reserved": 0, "is_disabled": 0, "name": "8ad230ad67a8f0d89bcb7b7f653b871c", "bike_id": "8ad230ad67a8f0d89bcb7b7f653b871c", "fusion_lat": 0.0, "lon": -76.99643716666667, "type": "electric_bike", "fusion_lon": 0.0, "lat": 38.92517333333333}, {"rental_uris": {"android": "https://dc.lft.to/lastmile_qr_scan", "ios": "https://dc.lft.to/lastmile_qr_scan"}, "is_reserved": 0, "is_disabled": 0, "name": "98d6bb1c03f29323838783be4b081fe5", "bike_id": "98d6bb1c03f29323838783be4b081fe5", "fusion_lat": 0.0, "lon": -77.0395495, "type": "electric_scooter", "fusion_lon": 0.0, "lat": 38.898378}, {"rental_uris": {"android": "https://dc.lft.to/lastmile_qr_scan", "ios": "https://dc.lft.to/lastmile_qr_scan"}, "is_reserved": 0, "is_disabled": 0, "name": "8be452e863103dd6d0b199b3782cc8ac", "bike_id": "8be452e863103dd6d0b199b3782cc8ac", "fusion_lat": 0.0, "lon": -77.02273966666667, "type": "electric_scooter", "fusion_lon": 0.0, "lat": 38.89961233333333}, {"rental_uris": {"android": "https://dc.lft.to/lastmile_qr_scan", "ios": "https://dc.lft.to/lastmile_qr_scan"}, "is_reserved": 0, "is_disabled": 0, "name": "cfb57d26fe31461ab0f3ccc9bcf9c774", "bike_id": "cfb57d26fe31461ab0f3ccc9bcf9c774", "fusion_lat": 0.0, "lon": -77.03176366666666, "type": "electric_scooter", "fusion_lon": 0.0, "lat": 38.899927166666664}, {"rental_uris": {"android": "https://dc.lft.to/lastmile_qr_scan", "ios": "https://dc.lft.to/lastmile_qr_scan"}, "is_reserved": 0, "is_disabled": 0, "name": "3e64da9800832abdcae256ae18f9933a", "bike_id": "3e64da9800832abdcae256ae18f9933a", "fusion_lat": 0.0, "lon": -77.01852266666667, "type": "electric_scooter", "fusion_lon": 0.0, "lat": 38.909648}, {"rental_uris": {"android": "https://dc.lft.to/lastmile_qr_scan", "ios": "https://dc.lft.to/lastmile_qr_scan"}, "is_reserved": 0, "is_disabled": 0, "name": "53564ec2f19c853b02a1ab850e655e0b", "bike_id": "53564ec2f19c853b02a1ab850e655e0b", "fusion_lat": 0.0, "lon": -77.008989, "type": "electric_scooter", "fusion_lon": 0.0, "lat": 38.909788}, {"rental_uris": {"android": "https://dc.lft.to/lastmile_qr_scan", "ios": "https://dc.lft.to/lastmile_qr_scan"}, "is_reserved": 0, "is_disabled": 0, "name": "c4aabbbfa3b63f8a7cec3cc9fb1d2e55", "bike_id": "c4aabbbfa3b63f8a7cec3cc9fb1d2e55", "fusion_lat": 0.0, "lon": -77.08506283333334, "type": "electric_bike", "fusion_lon": 0.0, "lat": 38.86308533333333}, {"rental_uris": {"android": "https://dc.lft.to/lastmile_qr_scan", "ios": "https://dc.lft.to/lastmile_qr_scan"}, "is_reserved": 0, "is_disabled": 0, "name": "9cf55a6c7c1d7b0e5f4af4c6ad9b2269", "bike_id": "9cf55a6c7c1d7b0e5f4af4c6ad9b2269", "fusion_lat": 0.0, "lon": -77.0467145, "type": "electric_scooter", "fusion_lon": 0.0, "lat": 38.89499433333334}, {"rental_uris": {"android": "https://dc.lft.to/lastmile_qr_scan", "ios": "https://dc.lft.to/lastmile_qr_scan"}, "is_reserved": 0, "is_disabled": 0, "name": "264e8340f9cacae16026ce3f1ac64bf4", "bike_id": "264e8340f9cacae16026ce3f1ac64bf4", "fusion_lat": 0.0, "lon": -77.03213183333334, "type": "electric_scooter", "fusion_lon": 0.0, "lat": 38.9073795}, {"rental_uris": {"android": "https://dc.lft.to/lastmile_qr_scan", "ios": "https://dc.lft.to/lastmile_qr_scan"}, "is_reserved": 0, "is_disabled": 0, "name": "610ea538c825de22cb69458010d7c77f", "bike_id": "610ea538c825de22cb69458010d7c77f", "fusion_lat": 0.0, "lon": -76.96094883333333, "type": "electric_scooter", "fusion_lon": 0.0, "lat": 38.91851783333333}, {"rental_uris": {"android": "https://dc.lft.to/lastmile_qr_scan", "ios": "https://dc.lft.to/lastmile_qr_scan"}, "is_reserved": 0, "is_disabled": 0, "name": "c05224533ff0dfe3b305e5bbec6b0077", "bike_id": "c05224533ff0dfe3b305e5bbec6b0077", "fusion_lat": 0.0, "lon": -77.03395, "type": "electric_scooter", "fusion_lon": 0.0, "lat": 38.925296333333335}, {"rental_uris": {"android": "https://dc.lft.to/lastmile_qr_scan", "ios": "https://dc.lft.to/lastmile_qr_scan"}, "is_reserved": 0, "is_disabled": 0, "name": "ea68625c9c0fd7f354b34a1b52bbb8fc", "bike_id": "ea68625c9c0fd7f354b34a1b52bbb8fc", "fusion_lat": 0.0, "lon": -77.0424335, "type": "electric_scooter", "fusion_lon": 0.0, "lat": 38.9205175}, {"rental_uris": {"android": "https://dc.lft.to/lastmile_qr_scan", "ios": "https://dc.lft.to/lastmile_qr_scan"}, "is_reserved": 0, "is_disabled": 0, "name": "7e03f2960bad7cea4fbb1f6d16da5f71", "bike_id": "7e03f2960bad7cea4fbb1f6d16da5f71", "fusion_lat": 0.0, "lon": -76.98518633333333, "type": "electric_scooter", "fusion_lon": 0.0, "lat": 38.900423}, {"rental_uris": {"android": "https://dc.lft.to/lastmile_qr_scan", "ios": "https://dc.lft.to/lastmile_qr_scan"}, "is_reserved": 0, "is_disabled": 0, "name": "71e287fb9df89266c313a5f49eb7532a", "bike_id": "71e287fb9df89266c313a5f49eb7532a", "fusion_lat": 0.0, "lon": -77.01945783333333, "type": "electric_scooter", "fusion_lon": 0.0, "lat": 38.92439533333334}, {"rental_uris": {"android": "https://dc.lft.to/lastmile_qr_scan", "ios": "https://dc.lft.to/lastmile_qr_scan"}, "is_reserved": 0, "is_disabled": 0, "name": "4678d46c47ec9a42c70a4e2ea23d28b0", "bike_id": "4678d46c47ec9a42c70a4e2ea23d28b0", "fusion_lat": 0.0, "lon": -77.03863733333333, "type": "electric_scooter", "fusion_lon": 0.0, "lat": 38.902731833333334}, {"rental_uris": {"android": "https://dc.lft.to/lastmile_qr_scan", "ios": "https://dc.lft.to/lastmile_qr_scan"}, "is_reserved": 0, "is_disabled": 0, "name": "d4534fb49f70831ed94659ad50546889", "bike_id": "d4534fb49f70831ed94659ad50546889", "fusion_lat": 0.0, "lon": -77.03992616666666, "type": "electric_scooter", "fusion_lon": 0.0, "lat": 38.905332666666666}, {"rental_uris": {"android": "https://dc.lft.to/lastmile_qr_scan", "ios": "https://dc.lft.to/lastmile_qr_scan"}, "is_reserved": 0, "is_disabled": 0, "name": "de55a57dbec9b727333a239ee4a11c89", "bike_id": "de55a57dbec9b727333a239ee4a11c89", "fusion_lat": 0.0, "lon": -77.23392483333333, "type": "electric_bike", "fusion_lon": 0.0, "lat": 38.871744166666666}, {"rental_uris": {"android": "https://dc.lft.to/lastmile_qr_scan", "ios": "https://dc.lft.to/lastmile_qr_scan"}, "is_reserved": 0, "is_disabled": 0, "name": "83180785d24141b10358d2fdd3929418", "bike_id": "83180785d24141b10358d2fdd3929418", "fusion_lat": 0.0, "lon": -77.01676783333333, "type": "electric_scooter", "fusion_lon": 0.0, "lat": 38.92031633333333}, {"rental_uris": {"android": "https://dc.lft.to/lastmile_qr_scan", "ios": "https://dc.lft.to/lastmile_qr_scan"}, "is_reserved": 0, "is_disabled": 0, "name": "6e151d20bf7d502f95e8ee109ae5467f", "bike_id": "6e151d20bf7d502f95e8ee109ae5467f", "fusion_lat": 0.0, "lon": -77.03767916666666, "type": "electric_bike", "fusion_lon": 0.0, "lat": 38.92915833333333}, {"rental_uris": {"android": "https://dc.lft.to/lastmile_qr_scan", "ios": "https://dc.lft.to/lastmile_qr_scan"}, "is_reserved": 0, "is_disabled": 0, "name": "42a3561c4d39dc0d7667396de4e19016", "bike_id": "42a3561c4d39dc0d7667396de4e19016", "fusion_lat": 0.0, "lon": -77.02243016666667, "type": "electric_scooter", "fusion_lon": 0.0, "lat": 38.9661645}, {"rental_uris": {"android": "https://dc.lft.to/lastmile_qr_scan", "ios": "https://dc.lft.to/lastmile_qr_scan"}, "is_reserved": 0, "is_disabled": 0, "name": "4479ca4988e27ef5ac7c6895460f97a6", "bike_id": "4479ca4988e27ef5ac7c6895460f97a6", "fusion_lat": 0.0, "lon": -77.05199683333333, "type": "electric_scooter", "fusion_lon": 0.0, "lat": 38.924398333333336}, {"rental_uris": {"android": "https://dc.lft.to/lastmile_qr_scan", "ios": "https://dc.lft.to/lastmile_qr_scan"}, "is_reserved": 0, "is_disabled": 0, "name": "83f54ce6a0da796591ad5b37436e8ff1", "bike_id": "83f54ce6a0da796591ad5b37436e8ff1", "fusion_lat": 0.0, "lon": -77.01692483333333, "type": "electric_bike", "fusion_lon": 0.0, "lat": 38.9023875}, {"rental_uris": {"android": "https://dc.lft.to/lastmile_qr_scan", "ios": "https://dc.lft.to/lastmile_qr_scan"}, "is_reserved": 0, "is_disabled": 0, "name": "90b3dcd383988732b98edb2a6c972e66", "bike_id": "90b3dcd383988732b98edb2a6c972e66", "fusion_lat": 0.0, "lon": -76.94875, "type": "electric_scooter", "fusion_lon": 0.0, "lat": 38.89501083333333}, {"rental_uris": {"android": "https://dc.lft.to/lastmile_qr_scan", "ios": "https://dc.lft.to/lastmile_qr_scan"}, "is_reserved": 0, "is_disabled": 0, "name": "ab93df59d3bbbd363d99b8e5b13cf7a7", "bike_id": "ab93df59d3bbbd363d99b8e5b13cf7a7", "fusion_lat": 0.0, "lon": -77.09689016666667, "type": "electric_bike", "fusion_lon": 0.0, "lat": 38.80741616666667}, {"rental_uris": {"android": "https://dc.lft.to/lastmile_qr_scan", "ios": "https://dc.lft.to/lastmile_qr_scan"}, "is_reserved": 0, "is_disabled": 0, "name": "96f1a15d8eb7985882374e9df067dc7f", "bike_id": "96f1a15d8eb7985882374e9df067dc7f", "fusion_lat": 0.0, "lon": -77.05026666666667, "type": "electric_scooter", "fusion_lon": 0.0, "lat": 38.8981215}, {"rental_uris": {"android": "https://dc.lft.to/lastmile_qr_scan", "ios": "https://dc.lft.to/lastmile_qr_scan"}, "is_reserved": 0, "is_disabled": 0, "name": "14fd059878d317862d76be31d1714159", "bike_id": "14fd059878d317862d76be31d1714159", "fusion_lat": 0.0, "lon": -77.04615866666667, "type": "electric_scooter", "fusion_lon": 0.0, "lat": 38.898033}, {"rental_uris": {"android": "https://dc.lft.to/lastmile_qr_scan", "ios": "https://dc.lft.to/lastmile_qr_scan"}, "is_reserved": 0, "is_disabled": 0, "name": "61d40b8b943ec4abaac452a05c603228", "bike_id": "61d40b8b943ec4abaac452a05c603228", "fusion_lat": 0.0, "lon": -77.023756, "type": "electric_scooter", "fusion_lon": 0.0, "lat": 38.902106833333335}, {"rental_uris": {"android": "https://dc.lft.to/lastmile_qr_scan", "ios": "https://dc.lft.to/lastmile_qr_scan"}, "is_reserved": 0, "is_disabled": 0, "name": "8882002775959f6a1c1df86c1071fd3d", "bike_id": "8882002775959f6a1c1df86c1071fd3d", "fusion_lat": 0.0, "lon": -76.984187, "type": "electric_bike", "fusion_lon": 0.0, "lat": 38.85504666666667}, {"rental_uris": {"android": "https://dc.lft.to/lastmile_qr_scan", "ios": "https://dc.lft.to/lastmile_qr_scan"}, "is_reserved": 0, "is_disabled": 0, "name": "547b44a80ec16e21681612795464b034", "bike_id": "547b44a80ec16e21681612795464b034", "fusion_lat": 0.0, "lon": -77.00575816666667, "type": "electric_scooter", "fusion_lon": 0.0, "lat": 38.8754105}, {"rental_uris": {"android": "https://dc.lft.to/lastmile_qr_scan", "ios": "https://dc.lft.to/lastmile_qr_scan"}, "is_reserved": 0, "is_disabled": 0, "name": "d4fb313f24114925a187aa3c98f9b9e9", "bike_id": "d4fb313f24114925a187aa3c98f9b9e9", "fusion_lat": 0.0, "lon": -77.01516233333334, "type": "electric_scooter", "fusion_lon": 0.0, "lat": 38.8728235}, {"rental_uris": {"android": "https://dc.lft.to/lastmile_qr_scan", "ios": "https://dc.lft.to/lastmile_qr_scan"}, "is_reserved": 0, "is_disabled": 0, "name": "71baf5263c8b8ca4842ef9fe063ea220", "bike_id": "71baf5263c8b8ca4842ef9fe063ea220", "fusion_lat": 0.0, "lon": -76.99076266666667, "type": "electric_bike", "fusion_lon": 0.0, "lat": 38.898024666666664}, {"rental_uris": {"android": "https://dc.lft.to/lastmile_qr_scan", "ios": "https://dc.lft.to/lastmile_qr_scan"}, "is_reserved": 0, "is_disabled": 0, "name": "c7f6ccdb68b9e53f2f7fd3e32c67422b", "bike_id": "c7f6ccdb68b9e53f2f7fd3e32c67422b", "fusion_lat": 0.0, "lon": -77.05145483333334, "type": "electric_scooter", "fusion_lon": 0.0, "lat": 38.905021833333336}, {"rental_uris": {"android": "https://dc.lft.to/lastmile_qr_scan", "ios": "https://dc.lft.to/lastmile_qr_scan"}, "is_reserved": 0, "is_disabled": 0, "name": "154c0f29c5ade43623b5d4b603711432", "bike_id": "154c0f29c5ade43623b5d4b603711432", "fusion_lat": 0.0, "lon": -76.99665966666667, "type": "electric_bike", "fusion_lon": 0.0, "lat": 38.967687}, {"rental_uris": {"android": "https://dc.lft.to/lastmile_qr_scan", "ios": "https://dc.lft.to/lastmile_qr_scan"}, "is_reserved": 0, "is_disabled": 0, "name": "f42049c12d85fb7b25221d24c0589ef4", "bike_id": "f42049c12d85fb7b25221d24c0589ef4", "fusion_lat": 0.0, "lon": -77.015272, "type": "electric_scooter", "fusion_lon": 0.0, "lat": 38.892247166666664}, {"rental_uris": {"android": "https://dc.lft.to/lastmile_qr_scan", "ios": "https://dc.lft.to/lastmile_qr_scan"}, "is_reserved": 0, "is_disabled": 0, "name": "e0193527582116de00f48013dbf4dc91", "bike_id": "e0193527582116de00f48013dbf4dc91", "fusion_lat": 0.0, "lon": -77.039229, "type": "electric_scooter", "fusion_lon": 0.0, "lat": 38.92469966666667}, {"rental_uris": {"android": "https://dc.lft.to/lastmile_qr_scan", "ios": "https://dc.lft.to/lastmile_qr_scan"}, "is_reserved": 0, "is_disabled": 0, "name": "1720aba5cbf12feb6d20a227ceca215e", "bike_id": "1720aba5cbf12feb6d20a227ceca215e", "fusion_lat": 0.0, "lon": -76.9318935, "type": "electric_scooter", "fusion_lon": 0.0, "lat": 38.898705666666665}, {"rental_uris": {"android": "https://dc.lft.to/lastmile_qr_scan", "ios": "https://dc.lft.to/lastmile_qr_scan"}, "is_reserved": 0, "is_disabled": 0, "name": "a243b21848ec912be712970cb833b2d3", "bike_id": "a243b21848ec912be712970cb833b2d3", "fusion_lat": 0.0, "lon": -77.03568, "type": "electric_scooter", "fusion_lon": 0.0, "lat": 38.9046875}, {"rental_uris": {"android": "https://dc.lft.to/lastmile_qr_scan", "ios": "https://dc.lft.to/lastmile_qr_scan"}, "is_reserved": 0, "is_disabled": 0, "name": "ae68cc2072f352fb49d0b154b779e244", "bike_id": "ae68cc2072f352fb49d0b154b779e244", "fusion_lat": 0.0, "lon": -76.97329266666667, "type": "electric_scooter", "fusion_lon": 0.0, "lat": 38.8652595}, {"rental_uris": {"android": "https://dc.lft.to/lastmile_qr_scan", "ios": "https://dc.lft.to/lastmile_qr_scan"}, "is_reserved": 0, "is_disabled": 0, "name": "dc7e11b09ae635600f0fdd9534330b3b", "bike_id": "dc7e11b09ae635600f0fdd9534330b3b", "fusion_lat": 0.0, "lon": -77.02879016666667, "type": "electric_bike", "fusion_lon": 0.0, "lat": 38.9212785}, {"rental_uris": {"android": "https://dc.lft.to/lastmile_qr_scan", "ios": "https://dc.lft.to/lastmile_qr_scan"}, "is_reserved": 0, "is_disabled": 0, "name": "9f19f525ace5879eeb9235a5748e6fcd", "bike_id": "9f19f525ace5879eeb9235a5748e6fcd", "fusion_lat": 0.0, "lon": -76.92494133333334, "type": "electric_scooter", "fusion_lon": 0.0, "lat": 38.88596116666667}, {"rental_uris": {"android": "https://dc.lft.to/lastmile_qr_scan", "ios": "https://dc.lft.to/lastmile_qr_scan"}, "is_reserved": 0, "is_disabled": 0, "name": "1e47a62858c7949f632d855571a111c7", "bike_id": "1e47a62858c7949f632d855571a111c7", "fusion_lat": 0.0, "lon": -77.050681, "type": "electric_scooter", "fusion_lon": 0.0, "lat": 38.9114125}, {"rental_uris": {"android": "https://dc.lft.to/lastmile_qr_scan", "ios": "https://dc.lft.to/lastmile_qr_scan"}, "is_reserved": 0, "is_disabled": 0, "name": "7c9ed98daedec260853bc012d1bd1fe7", "bike_id": "7c9ed98daedec260853bc012d1bd1fe7", "fusion_lat": 0.0, "lon": -77.064523, "type": "electric_scooter", "fusion_lon": 0.0, "lat": 38.94871466666667}, {"rental_uris": {"android": "https://dc.lft.to/lastmile_qr_scan", "ios": "https://dc.lft.to/lastmile_qr_scan"}, "is_reserved": 0, "is_disabled": 0, "name": "3f36eae5480737f064ca13872a0764a0", "bike_id": "3f36eae5480737f064ca13872a0764a0", "fusion_lat": 0.0, "lon": -77.036008, "type": "electric_scooter", "fusion_lon": 0.0, "lat": 38.90961016666667}, {"rental_uris": {"android": "https://dc.lft.to/lastmile_qr_scan", "ios": "https://dc.lft.to/lastmile_qr_scan"}, "is_reserved": 0, "is_disabled": 0, "name": "a3ee9bb710e84865fa93eb2bd0c7cb77", "bike_id": "a3ee9bb710e84865fa93eb2bd0c7cb77", "fusion_lat": 0.0, "lon": -77.01689316666666, "type": "electric_scooter", "fusion_lon": 0.0, "lat": 38.906500333333334}, {"rental_uris": {"android": "https://dc.lft.to/lastmile_qr_scan", "ios": "https://dc.lft.to/lastmile_qr_scan"}, "is_reserved": 0, "is_disabled": 0, "name": "c14e1f85d603069b771bce90561f5995", "bike_id": "c14e1f85d603069b771bce90561f5995", "fusion_lat": 0.0, "lon": -77.02827083333334, "type": "electric_scooter", "fusion_lon": 0.0, "lat": 38.902241833333335}, {"rental_uris": {"android": "https://dc.lft.to/lastmile_qr_scan", "ios": "https://dc.lft.to/lastmile_qr_scan"}, "is_reserved": 0, "is_disabled": 0, "name": "75f072601fce55b097346fd002eaed3d", "bike_id": "75f072601fce55b097346fd002eaed3d", "fusion_lat": 0.0, "lon": -77.0308875, "type": "electric_scooter", "fusion_lon": 0.0, "lat": 38.898107833333334}, {"rental_uris": {"android": "https://dc.lft.to/lastmile_qr_scan", "ios": "https://dc.lft.to/lastmile_qr_scan"}, "is_reserved": 0, "is_disabled": 0, "name": "d3801efbc4124e9f7404c7b6387e64b3", "bike_id": "d3801efbc4124e9f7404c7b6387e64b3", "fusion_lat": 0.0, "lon": -77.02820883333334, "type": "electric_scooter", "fusion_lon": 0.0, "lat": 38.893093}, {"rental_uris": {"android": "https://dc.lft.to/lastmile_qr_scan", "ios": "https://dc.lft.to/lastmile_qr_scan"}, "is_reserved": 0, "is_disabled": 0, "name": "b97f8e2d510df01e8ee413da99ebc459", "bike_id": "b97f8e2d510df01e8ee413da99ebc459", "fusion_lat": 0.0, "lon": -77.02826783333333, "type": "electric_scooter", "fusion_lon": 0.0, "lat": 38.88728016666666}, {"rental_uris": {"android": "https://dc.lft.to/lastmile_qr_scan", "ios": "https://dc.lft.to/lastmile_qr_scan"}, "is_reserved": 0, "is_disabled": 0, "name": "88e78ac2e18a2fedfcfc3e3b161f613e", "bike_id": "88e78ac2e18a2fedfcfc3e3b161f613e", "fusion_lat": 0.0, "lon": -77.04505683333333, "type": "electric_scooter", "fusion_lon": 0.0, "lat": 38.892219833333336}, {"rental_uris": {"android": "https://dc.lft.to/lastmile_qr_scan", "ios": "https://dc.lft.to/lastmile_qr_scan"}, "is_reserved": 0, "is_disabled": 0, "name": "2322dc891cc904550745125a9122183d", "bike_id": "2322dc891cc904550745125a9122183d", "fusion_lat": 0.0, "lon": -77.02582816666667, "type": "electric_scooter", "fusion_lon": 0.0, "lat": 38.92696816666667}, {"rental_uris": {"android": "https://dc.lft.to/lastmile_qr_scan", "ios": "https://dc.lft.to/lastmile_qr_scan"}, "is_reserved": 0, "is_disabled": 0, "name": "b7a54de621ccdc1bc6fc311b6991b3c6", "bike_id": "b7a54de621ccdc1bc6fc311b6991b3c6", "fusion_lat": 0.0, "lon": -77.02275483333334, "type": "electric_scooter", "fusion_lon": 0.0, "lat": 38.902745833333334}, {"rental_uris": {"android": "https://dc.lft.to/lastmile_qr_scan", "ios": "https://dc.lft.to/lastmile_qr_scan"}, "is_reserved": 0, "is_disabled": 0, "name": "baf881639d0fba1ee1f0fa0843546aaf", "bike_id": "baf881639d0fba1ee1f0fa0843546aaf", "fusion_lat": 0.0, "lon": -77.02549533333334, "type": "electric_scooter", "fusion_lon": 0.0, "lat": 38.89193066666667}, {"rental_uris": {"android": "https://dc.lft.to/lastmile_qr_scan", "ios": "https://dc.lft.to/lastmile_qr_scan"}, "is_reserved": 0, "is_disabled": 0, "name": "f1b1542dcf55f0ce321ea8e3a1aed3cb", "bike_id": "f1b1542dcf55f0ce321ea8e3a1aed3cb", "fusion_lat": 0.0, "lon": -77.012399, "type": "electric_bike", "fusion_lon": 0.0, "lat": 38.9086425}, {"rental_uris": {"android": "https://dc.lft.to/lastmile_qr_scan", "ios": "https://dc.lft.to/lastmile_qr_scan"}, "is_reserved": 0, "is_disabled": 0, "name": "35edd431dcb4760ebff48586613cc685", "bike_id": "35edd431dcb4760ebff48586613cc685", "fusion_lat": 0.0, "lon": -77.09613166666666, "type": "electric_bike", "fusion_lon": 0.0, "lat": 38.8787975}, {"rental_uris": {"android": "https://dc.lft.to/lastmile_qr_scan", "ios": "https://dc.lft.to/lastmile_qr_scan"}, "is_reserved": 0, "is_disabled": 0, "name": "9d3f4a9f1a23d6c51f67ce4d10ba30d4", "bike_id": "9d3f4a9f1a23d6c51f67ce4d10ba30d4", "fusion_lat": 0.0, "lon": -77.016726, "type": "electric_bike", "fusion_lon": 0.0, "lat": 38.881032166666664}, {"rental_uris": {"android": "https://dc.lft.to/lastmile_qr_scan", "ios": "https://dc.lft.to/lastmile_qr_scan"}, "is_reserved": 0, "is_disabled": 0, "name": "35081c8a0d2473b6dd68ed52c42fa619", "bike_id": "35081c8a0d2473b6dd68ed52c42fa619", "fusion_lat": 0.0, "lon": -77.02346466666667, "type": "electric_scooter", "fusion_lon": 0.0, "lat": 38.91681}, {"rental_uris": {"android": "https://dc.lft.to/lastmile_qr_scan", "ios": "https://dc.lft.to/lastmile_qr_scan"}, "is_reserved": 0, "is_disabled": 0, "name": "79fe14e1ffcd009bf7cdd0f94b478df5", "bike_id": "79fe14e1ffcd009bf7cdd0f94b478df5", "fusion_lat": 0.0, "lon": -77.03348716666666, "type": "electric_scooter", "fusion_lon": 0.0, "lat": 38.89242933333333}, {"rental_uris": {"android": "https://dc.lft.to/lastmile_qr_scan", "ios": "https://dc.lft.to/lastmile_qr_scan"}, "is_reserved": 0, "is_disabled": 0, "name": "8a183db08e365121679d6706022b6435", "bike_id": "8a183db08e365121679d6706022b6435", "fusion_lat": 0.0, "lon": -77.00588383333333, "type": "electric_scooter", "fusion_lon": 0.0, "lat": 38.90592383333333}, {"rental_uris": {"android": "https://dc.lft.to/lastmile_qr_scan", "ios": "https://dc.lft.to/lastmile_qr_scan"}, "is_reserved": 0, "is_disabled": 0, "name": "8f26ef2f65d55a1f22c167f15ebc6df5", "bike_id": "8f26ef2f65d55a1f22c167f15ebc6df5", "fusion_lat": 0.0, "lon": -76.990327, "type": "electric_bike", "fusion_lon": 0.0, "lat": 38.8357455}, {"rental_uris": {"android": "https://dc.lft.to/lastmile_qr_scan", "ios": "https://dc.lft.to/lastmile_qr_scan"}, "is_reserved": 0, "is_disabled": 0, "name": "2a3cdd85e90951af62dcd74d395d59ef", "bike_id": "2a3cdd85e90951af62dcd74d395d59ef", "fusion_lat": 0.0, "lon": -77.08854816666667, "type": "electric_bike", "fusion_lon": 0.0, "lat": 38.96614616666667}, {"rental_uris": {"android": "https://dc.lft.to/lastmile_qr_scan", "ios": "https://dc.lft.to/lastmile_qr_scan"}, "is_reserved": 0, "is_disabled": 0, "name": "29af069168929ff25c93e7f472630a9a", "bike_id": "29af069168929ff25c93e7f472630a9a", "fusion_lat": 0.0, "lon": -77.01955716666667, "type": "electric_scooter", "fusion_lon": 0.0, "lat": 38.923204166666665}, {"rental_uris": {"android": "https://dc.lft.to/lastmile_qr_scan", "ios": "https://dc.lft.to/lastmile_qr_scan"}, "is_reserved": 0, "is_disabled": 0, "name": "48181a5d59b0cc2e3c98a18399bf7c35", "bike_id": "48181a5d59b0cc2e3c98a18399bf7c35", "fusion_lat": 0.0, "lon": -76.94028233333333, "type": "electric_bike", "fusion_lon": 0.0, "lat": 38.90813216666667}, {"rental_uris": {"android": "https://dc.lft.to/lastmile_qr_scan", "ios": "https://dc.lft.to/lastmile_qr_scan"}, "is_reserved": 0, "is_disabled": 0, "name": "63fdf9ce7edf5a82436f9757806068eb", "bike_id": "63fdf9ce7edf5a82436f9757806068eb", "fusion_lat": 0.0, "lon": -76.97228283333334, "type": "electric_bike", "fusion_lon": 0.0, "lat": 38.90027666666667}, {"rental_uris": {"android": "https://dc.lft.to/lastmile_qr_scan", "ios": "https://dc.lft.to/lastmile_qr_scan"}, "is_reserved": 0, "is_disabled": 0, "name": "339eba1ea3b874f99bf56bdbad8fd3c0", "bike_id": "339eba1ea3b874f99bf56bdbad8fd3c0", "fusion_lat": 0.0, "lon": -77.03171783333333, "type": "electric_scooter", "fusion_lon": 0.0, "lat": 38.9111885}, {"rental_uris": {"android": "https://dc.lft.to/lastmile_qr_scan", "ios": "https://dc.lft.to/lastmile_qr_scan"}, "is_reserved": 0, "is_disabled": 0, "name": "3d99b89339eeab9f171eeddf0af96a74", "bike_id": "3d99b89339eeab9f171eeddf0af96a74", "fusion_lat": 0.0, "lon": -77.00228933333334, "type": "electric_scooter", "fusion_lon": 0.0, "lat": 38.89489866666667}, {"rental_uris": {"android": "https://dc.lft.to/lastmile_qr_scan", "ios": "https://dc.lft.to/lastmile_qr_scan"}, "is_reserved": 0, "is_disabled": 0, "name": "0869f2bd89159d00243f1df6dc61c83a", "bike_id": "0869f2bd89159d00243f1df6dc61c83a", "fusion_lat": 0.0, "lon": -77.04019816666667, "type": "electric_scooter", "fusion_lon": 0.0, "lat": 38.917958166666665}, {"rental_uris": {"android": "https://dc.lft.to/lastmile_qr_scan", "ios": "https://dc.lft.to/lastmile_qr_scan"}, "is_reserved": 0, "is_disabled": 0, "name": "b6a42eb8ba12b56993cad1e08668d591", "bike_id": "b6a42eb8ba12b56993cad1e08668d591", "fusion_lat": 0.0, "lon": -76.98239383333333, "type": "electric_scooter", "fusion_lon": 0.0, "lat": 38.908888166666664}, {"rental_uris": {"android": "https://dc.lft.to/lastmile_qr_scan", "ios": "https://dc.lft.to/lastmile_qr_scan"}, "is_reserved": 0, "is_disabled": 0, "name": "e11997a047a93e4ef1447d1ea4d268a4", "bike_id": "e11997a047a93e4ef1447d1ea4d268a4", "fusion_lat": 0.0, "lon": -77.01647833333334, "type": "electric_bike", "fusion_lon": 0.0, "lat": 38.8811275}, {"rental_uris": {"android": "https://dc.lft.to/lastmile_qr_scan", "ios": "https://dc.lft.to/lastmile_qr_scan"}, "is_reserved": 0, "is_disabled": 0, "name": "45b6523b6f48c1a1a889aaa4bd91f4c2", "bike_id": "45b6523b6f48c1a1a889aaa4bd91f4c2", "fusion_lat": 0.0, "lon": -76.9321105, "type": "electric_scooter", "fusion_lon": 0.0, "lat": 38.880434666666666}, {"rental_uris": {"android": "https://dc.lft.to/lastmile_qr_scan", "ios": "https://dc.lft.to/lastmile_qr_scan"}, "is_reserved": 0, "is_disabled": 0, "name": "2e4ed099afb40f24498c35f0ff5245c2", "bike_id": "2e4ed099afb40f24498c35f0ff5245c2", "fusion_lat": 0.0, "lon": -77.04508016666666, "type": "electric_scooter", "fusion_lon": 0.0, "lat": 38.91417233333333}, {"rental_uris": {"android": "https://dc.lft.to/lastmile_qr_scan", "ios": "https://dc.lft.to/lastmile_qr_scan"}, "is_reserved": 0, "is_disabled": 0, "name": "e47b883220d08705011ad897f0eabd1e", "bike_id": "e47b883220d08705011ad897f0eabd1e", "fusion_lat": 0.0, "lon": -77.04989766666667, "type": "electric_scooter", "fusion_lon": 0.0, "lat": 38.89724783333333}, {"rental_uris": {"android": "https://dc.lft.to/lastmile_qr_scan", "ios": "https://dc.lft.to/lastmile_qr_scan"}, "is_reserved": 0, "is_disabled": 0, "name": "197c7696f8657dfe71c5b5a32d56ca0f", "bike_id": "197c7696f8657dfe71c5b5a32d56ca0f", "fusion_lat": 0.0, "lon": -77.0255345, "type": "electric_scooter", "fusion_lon": 0.0, "lat": 38.9700805}, {"rental_uris": {"android": "https://dc.lft.to/lastmile_qr_scan", "ios": "https://dc.lft.to/lastmile_qr_scan"}, "is_reserved": 0, "is_disabled": 0, "name": "539e0d1f00a5eb2200739615868768e9", "bike_id": "539e0d1f00a5eb2200739615868768e9", "fusion_lat": 0.0, "lon": -77.04039133333333, "type": "electric_scooter", "fusion_lon": 0.0, "lat": 38.918502333333336}, {"rental_uris": {"android": "https://dc.lft.to/lastmile_qr_scan", "ios": "https://dc.lft.to/lastmile_qr_scan"}, "is_reserved": 0, "is_disabled": 0, "name": "2893b78e39756964ad22444bf59cb3cd", "bike_id": "2893b78e39756964ad22444bf59cb3cd", "fusion_lat": 0.0, "lon": -77.04471783333334, "type": "electric_scooter", "fusion_lon": 0.0, "lat": 38.902375166666666}, {"rental_uris": {"android": "https://dc.lft.to/lastmile_qr_scan", "ios": "https://dc.lft.to/lastmile_qr_scan"}, "is_reserved": 0, "is_disabled": 0, "name": "2a51d1f49874e67a9b5a8a97f475b702", "bike_id": "2a51d1f49874e67a9b5a8a97f475b702", "fusion_lat": 0.0, "lon": -77.04484766666667, "type": "electric_scooter", "fusion_lon": 0.0, "lat": 38.903677}, {"rental_uris": {"android": "https://dc.lft.to/lastmile_qr_scan", "ios": "https://dc.lft.to/lastmile_qr_scan"}, "is_reserved": 0, "is_disabled": 0, "name": "a0835f3ec6169d249227a4d040635762", "bike_id": "a0835f3ec6169d249227a4d040635762", "fusion_lat": 0.0, "lon": -77.00289166666667, "type": "electric_scooter", "fusion_lon": 0.0, "lat": 38.893451}, {"rental_uris": {"android": "https://dc.lft.to/lastmile_qr_scan", "ios": "https://dc.lft.to/lastmile_qr_scan"}, "is_reserved": 0, "is_disabled": 0, "name": "9a7404e4cf83931a7f3670cc6b96cda4", "bike_id": "9a7404e4cf83931a7f3670cc6b96cda4", "fusion_lat": 0.0, "lon": -77.04174283333333, "type": "electric_scooter", "fusion_lon": 0.0, "lat": 38.903381}, {"rental_uris": {"android": "https://dc.lft.to/lastmile_qr_scan", "ios": "https://dc.lft.to/lastmile_qr_scan"}, "is_reserved": 0, "is_disabled": 0, "name": "59e9d6debbdaff681394644dd1056af7", "bike_id": "59e9d6debbdaff681394644dd1056af7", "fusion_lat": 0.0, "lon": -77.03998766666666, "type": "electric_scooter", "fusion_lon": 0.0, "lat": 38.90115316666667}, {"rental_uris": {"android": "https://dc.lft.to/lastmile_qr_scan", "ios": "https://dc.lft.to/lastmile_qr_scan"}, "is_reserved": 0, "is_disabled": 0, "name": "d7abceb12749c2c4d0de7d349348b17f", "bike_id": "d7abceb12749c2c4d0de7d349348b17f", "fusion_lat": 0.0, "lon": -77.04571033333333, "type": "electric_scooter", "fusion_lon": 0.0, "lat": 38.903747333333335}, {"rental_uris": {"android": "https://dc.lft.to/lastmile_qr_scan", "ios": "https://dc.lft.to/lastmile_qr_scan"}, "is_reserved": 0, "is_disabled": 0, "name": "d7fd545d3cb39ccaefc16aa776f6f91c", "bike_id": "d7fd545d3cb39ccaefc16aa776f6f91c", "fusion_lat": 0.0, "lon": -77.022241, "type": "electric_scooter", "fusion_lon": 0.0, "lat": 38.9083375}, {"rental_uris": {"android": "https://dc.lft.to/lastmile_qr_scan", "ios": "https://dc.lft.to/lastmile_qr_scan"}, "is_reserved": 0, "is_disabled": 0, "name": "662f3ed26b54634105b12299ea6d60a5", "bike_id": "662f3ed26b54634105b12299ea6d60a5", "fusion_lat": 0.0, "lon": -77.087896, "type": "electric_scooter", "fusion_lon": 0.0, "lat": 38.935376}, {"rental_uris": {"android": "https://dc.lft.to/lastmile_qr_scan", "ios": "https://dc.lft.to/lastmile_qr_scan"}, "is_reserved": 0, "is_disabled": 0, "name": "41b154bc9d056de40f3f6f75ac31a4f5", "bike_id": "41b154bc9d056de40f3f6f75ac31a4f5", "fusion_lat": 0.0, "lon": -76.961563, "type": "electric_bike", "fusion_lon": 0.0, "lat": 38.856158}, {"rental_uris": {"android": "https://dc.lft.to/lastmile_qr_scan", "ios": "https://dc.lft.to/lastmile_qr_scan"}, "is_reserved": 0, "is_disabled": 0, "name": "e85affafcbcdab2b0cb779af65e501e0", "bike_id": "e85affafcbcdab2b0cb779af65e501e0", "fusion_lat": 0.0, "lon": -77.05395683333333, "type": "electric_scooter", "fusion_lon": 0.0, "lat": 38.923295}, {"rental_uris": {"android": "https://dc.lft.to/lastmile_qr_scan", "ios": "https://dc.lft.to/lastmile_qr_scan"}, "is_reserved": 0, "is_disabled": 0, "name": "293b763df361c068ad34ea67c371e5e1", "bike_id": "293b763df361c068ad34ea67c371e5e1", "fusion_lat": 0.0, "lon": -76.99069633333333, "type": "electric_bike", "fusion_lon": 0.0, "lat": 38.9425645}, {"rental_uris": {"android": "https://dc.lft.to/lastmile_qr_scan", "ios": "https://dc.lft.to/lastmile_qr_scan"}, "is_reserved": 0, "is_disabled": 0, "name": "b21dd9fdbcb60c9a14fd0d1a10c7ab00", "bike_id": "b21dd9fdbcb60c9a14fd0d1a10c7ab00", "fusion_lat": 0.0, "lon": -77.03125466666667, "type": "electric_scooter", "fusion_lon": 0.0, "lat": 38.8972285}, {"rental_uris": {"android": "https://dc.lft.to/lastmile_qr_scan", "ios": "https://dc.lft.to/lastmile_qr_scan"}, "is_reserved": 0, "is_disabled": 0, "name": "6eb16cdd2dc15e714c01adcf6e57817b", "bike_id": "6eb16cdd2dc15e714c01adcf6e57817b", "fusion_lat": 0.0, "lon": -77.00221866666666, "type": "electric_scooter", "fusion_lon": 0.0, "lat": 38.91193616666666}, {"rental_uris": {"android": "https://dc.lft.to/lastmile_qr_scan", "ios": "https://dc.lft.to/lastmile_qr_scan"}, "is_reserved": 0, "is_disabled": 0, "name": "c19413a5fb49c44dcdce4234fa1c3f7e", "bike_id": "c19413a5fb49c44dcdce4234fa1c3f7e", "fusion_lat": 0.0, "lon": -77.00593866666667, "type": "electric_scooter", "fusion_lon": 0.0, "lat": 38.905717833333334}, {"rental_uris": {"android": "https://dc.lft.to/lastmile_qr_scan", "ios": "https://dc.lft.to/lastmile_qr_scan"}, "is_reserved": 0, "is_disabled": 0, "name": "d4b55455e7ff0cc7e59a79cbf84dcb0a", "bike_id": "d4b55455e7ff0cc7e59a79cbf84dcb0a", "fusion_lat": 0.0, "lon": -77.07455, "type": "electric_scooter", "fusion_lon": 0.0, "lat": 38.93774333333333}, {"rental_uris": {"android": "https://dc.lft.to/lastmile_qr_scan", "ios": "https://dc.lft.to/lastmile_qr_scan"}, "is_reserved": 0, "is_disabled": 0, "name": "e9fda68bb95d2d5396359c3d3721c1e6", "bike_id": "e9fda68bb95d2d5396359c3d3721c1e6", "fusion_lat": 0.0, "lon": -77.043409, "type": "electric_scooter", "fusion_lon": 0.0, "lat": 38.9005445}, {"rental_uris": {"android": "https://dc.lft.to/lastmile_qr_scan", "ios": "https://dc.lft.to/lastmile_qr_scan"}, "is_reserved": 0, "is_disabled": 0, "name": "df3ee92bdff2c502f1cb32762ee3df83", "bike_id": "df3ee92bdff2c502f1cb32762ee3df83", "fusion_lat": 0.0, "lon": -77.01550916666666, "type": "electric_scooter", "fusion_lon": 0.0, "lat": 38.8832605}, {"rental_uris": {"android": "https://dc.lft.to/lastmile_qr_scan", "ios": "https://dc.lft.to/lastmile_qr_scan"}, "is_reserved": 0, "is_disabled": 0, "name": "b8cdc24b56fa47c0438711d33db801bd", "bike_id": "b8cdc24b56fa47c0438711d33db801bd", "fusion_lat": 0.0, "lon": -77.00592633333333, "type": "electric_scooter", "fusion_lon": 0.0, "lat": 38.90573466666667}, {"rental_uris": {"android": "https://dc.lft.to/lastmile_qr_scan", "ios": "https://dc.lft.to/lastmile_qr_scan"}, "is_reserved": 0, "is_disabled": 0, "name": "7df1b8d7248d2186554da3f36673cada", "bike_id": "7df1b8d7248d2186554da3f36673cada", "fusion_lat": 0.0, "lon": -77.02167916666667, "type": "electric_scooter", "fusion_lon": 0.0, "lat": 38.9261075}, {"rental_uris": {"android": "https://dc.lft.to/lastmile_qr_scan", "ios": "https://dc.lft.to/lastmile_qr_scan"}, "is_reserved": 0, "is_disabled": 0, "name": "ed6c54d7661f02bf55c384a01937519c", "bike_id": "ed6c54d7661f02bf55c384a01937519c", "fusion_lat": 0.0, "lon": -76.9883365, "type": "electric_scooter", "fusion_lon": 0.0, "lat": 38.90041766666667}, {"rental_uris": {"android": "https://dc.lft.to/lastmile_qr_scan", "ios": "https://dc.lft.to/lastmile_qr_scan"}, "is_reserved": 0, "is_disabled": 0, "name": "4e8380bf22465af456c3afbdf0bb22aa", "bike_id": "4e8380bf22465af456c3afbdf0bb22aa", "fusion_lat": 0.0, "lon": -77.0059645, "type": "electric_scooter", "fusion_lon": 0.0, "lat": 38.9064625}, {"rental_uris": {"android": "https://dc.lft.to/lastmile_qr_scan", "ios": "https://dc.lft.to/lastmile_qr_scan"}, "is_reserved": 0, "is_disabled": 0, "name": "406406b19e4dd44a8f4d4f21e2e7c0e4", "bike_id": "406406b19e4dd44a8f4d4f21e2e7c0e4", "fusion_lat": 0.0, "lon": -77.0503095, "type": "electric_scooter", "fusion_lon": 0.0, "lat": 38.89816916666667}, {"rental_uris": {"android": "https://dc.lft.to/lastmile_qr_scan", "ios": "https://dc.lft.to/lastmile_qr_scan"}, "is_reserved": 0, "is_disabled": 0, "name": "767ba89a6278a18d1bf8b4b122b3f0c0", "bike_id": "767ba89a6278a18d1bf8b4b122b3f0c0", "fusion_lat": 0.0, "lon": -77.03678866666667, "type": "electric_scooter", "fusion_lon": 0.0, "lat": 38.92258066666667}, {"rental_uris": {"android": "https://dc.lft.to/lastmile_qr_scan", "ios": "https://dc.lft.to/lastmile_qr_scan"}, "is_reserved": 0, "is_disabled": 0, "name": "a20e5525bbe36f0bd1db9770ecbf116f", "bike_id": "a20e5525bbe36f0bd1db9770ecbf116f", "fusion_lat": 0.0, "lon": -77.01762366666667, "type": "electric_scooter", "fusion_lon": 0.0, "lat": 38.87683333333333}, {"rental_uris": {"android": "https://dc.lft.to/lastmile_qr_scan", "ios": "https://dc.lft.to/lastmile_qr_scan"}, "is_reserved": 0, "is_disabled": 0, "name": "00410f031fa069b9a42acf56079158cd", "bike_id": "00410f031fa069b9a42acf56079158cd", "fusion_lat": 0.0, "lon": -77.02796016666667, "type": "electric_scooter", "fusion_lon": 0.0, "lat": 38.89885533333333}, {"rental_uris": {"android": "https://dc.lft.to/lastmile_qr_scan", "ios": "https://dc.lft.to/lastmile_qr_scan"}, "is_reserved": 0, "is_disabled": 0, "name": "20d3ce65614f7979ac47f40d55df87ff", "bike_id": "20d3ce65614f7979ac47f40d55df87ff", "fusion_lat": 0.0, "lon": -77.01857366666667, "type": "electric_scooter", "fusion_lon": 0.0, "lat": 38.929086}, {"rental_uris": {"android": "https://dc.lft.to/lastmile_qr_scan", "ios": "https://dc.lft.to/lastmile_qr_scan"}, "is_reserved": 0, "is_disabled": 0, "name": "fb32023bb6af2dccae8a1f637ffce338", "bike_id": "fb32023bb6af2dccae8a1f637ffce338", "fusion_lat": 0.0, "lon": -77.040181, "type": "electric_scooter", "fusion_lon": 0.0, "lat": 38.9071195}, {"rental_uris": {"android": "https://dc.lft.to/lastmile_qr_scan", "ios": "https://dc.lft.to/lastmile_qr_scan"}, "is_reserved": 0, "is_disabled": 0, "name": "8dfc4209e99b788fde0973a63fa25382", "bike_id": "8dfc4209e99b788fde0973a63fa25382", "fusion_lat": 0.0, "lon": -77.00348716666667, "type": "electric_scooter", "fusion_lon": 0.0, "lat": 38.887077166666664}, {"rental_uris": {"android": "https://dc.lft.to/lastmile_qr_scan", "ios": "https://dc.lft.to/lastmile_qr_scan"}, "is_reserved": 0, "is_disabled": 0, "name": "b1521b8a67a0039a697ce4f02ce5244e", "bike_id": "b1521b8a67a0039a697ce4f02ce5244e", "fusion_lat": 0.0, "lon": -77.00624283333333, "type": "electric_scooter", "fusion_lon": 0.0, "lat": 38.87171016666667}, {"rental_uris": {"android": "https://dc.lft.to/lastmile_qr_scan", "ios": "https://dc.lft.to/lastmile_qr_scan"}, "is_reserved": 0, "is_disabled": 0, "name": "1b2bed7451f14a535041107ea5bf13e2", "bike_id": "1b2bed7451f14a535041107ea5bf13e2", "fusion_lat": 0.0, "lon": -77.04321866666666, "type": "electric_bike", "fusion_lon": 0.0, "lat": 39.03425416666666}, {"rental_uris": {"android": "https://dc.lft.to/lastmile_qr_scan", "ios": "https://dc.lft.to/lastmile_qr_scan"}, "is_reserved": 0, "is_disabled": 0, "name": "3527ad7a450ce7b9bcaf4d43c3bf6914", "bike_id": "3527ad7a450ce7b9bcaf4d43c3bf6914", "fusion_lat": 0.0, "lon": -77.07047616666667, "type": "electric_bike", "fusion_lon": 0.0, "lat": 38.9051825}, {"rental_uris": {"android": "https://dc.lft.to/lastmile_qr_scan", "ios": "https://dc.lft.to/lastmile_qr_scan"}, "is_reserved": 0, "is_disabled": 0, "name": "f27b0aa117a9aa801d28324ed6168d6f", "bike_id": "f27b0aa117a9aa801d28324ed6168d6f", "fusion_lat": 0.0, "lon": -77.02646483333334, "type": "electric_scooter", "fusion_lon": 0.0, "lat": 38.9309885}, {"rental_uris": {"android": "https://dc.lft.to/lastmile_qr_scan", "ios": "https://dc.lft.to/lastmile_qr_scan"}, "is_reserved": 0, "is_disabled": 0, "name": "e7217add33df08a340a480874aba0156", "bike_id": "e7217add33df08a340a480874aba0156", "fusion_lat": 0.0, "lon": -77.03679083333333, "type": "electric_scooter", "fusion_lon": 0.0, "lat": 38.926362}, {"rental_uris": {"android": "https://dc.lft.to/lastmile_qr_scan", "ios": "https://dc.lft.to/lastmile_qr_scan"}, "is_reserved": 0, "is_disabled": 0, "name": "035afc85ad6a23873645e8ecf6699b7e", "bike_id": "035afc85ad6a23873645e8ecf6699b7e", "fusion_lat": 0.0, "lon": -77.04188816666667, "type": "electric_scooter", "fusion_lon": 0.0, "lat": 38.922593666666664}, {"rental_uris": {"android": "https://dc.lft.to/lastmile_qr_scan", "ios": "https://dc.lft.to/lastmile_qr_scan"}, "is_reserved": 0, "is_disabled": 0, "name": "12093ef37583f01065bf6bbef1c6fff4", "bike_id": "12093ef37583f01065bf6bbef1c6fff4", "fusion_lat": 0.0, "lon": -76.95531316666667, "type": "electric_scooter", "fusion_lon": 0.0, "lat": 38.887775166666664}, {"rental_uris": {"android": "https://dc.lft.to/lastmile_qr_scan", "ios": "https://dc.lft.to/lastmile_qr_scan"}, "is_reserved": 0, "is_disabled": 0, "name": "85bd7833efcfaf3d88454cf89642bf40", "bike_id": "85bd7833efcfaf3d88454cf89642bf40", "fusion_lat": 0.0, "lon": -77.04344016666667, "type": "electric_scooter", "fusion_lon": 0.0, "lat": 38.90567566666667}, {"rental_uris": {"android": "https://dc.lft.to/lastmile_qr_scan", "ios": "https://dc.lft.to/lastmile_qr_scan"}, "is_reserved": 0, "is_disabled": 0, "name": "96372ecb72ef63d24d82fb36f1733b94", "bike_id": "96372ecb72ef63d24d82fb36f1733b94", "fusion_lat": 0.0, "lon": -77.038717, "type": "electric_scooter", "fusion_lon": 0.0, "lat": 38.90237183333333}, {"rental_uris": {"android": "https://dc.lft.to/lastmile_qr_scan", "ios": "https://dc.lft.to/lastmile_qr_scan"}, "is_reserved": 0, "is_disabled": 0, "name": "8fcdf4836c684ee0bb379c710a55ba92", "bike_id": "8fcdf4836c684ee0bb379c710a55ba92", "fusion_lat": 0.0, "lon": -77.01225166666667, "type": "electric_scooter", "fusion_lon": 0.0, "lat": 38.91515183333333}, {"rental_uris": {"android": "https://dc.lft.to/lastmile_qr_scan", "ios": "https://dc.lft.to/lastmile_qr_scan"}, "is_reserved": 0, "is_disabled": 0, "name": "4569f73c7f1c7a9e0cb078ede3bda565", "bike_id": "4569f73c7f1c7a9e0cb078ede3bda565", "fusion_lat": 0.0, "lon": -77.01658983333333, "type": "electric_scooter", "fusion_lon": 0.0, "lat": 38.942041333333336}, {"rental_uris": {"android": "https://dc.lft.to/lastmile_qr_scan", "ios": "https://dc.lft.to/lastmile_qr_scan"}, "is_reserved": 0, "is_disabled": 0, "name": "c22ff6224841da2107d24019e67ddd70", "bike_id": "c22ff6224841da2107d24019e67ddd70", "fusion_lat": 0.0, "lon": -77.04439833333333, "type": "electric_scooter", "fusion_lon": 0.0, "lat": 38.905686333333335}, {"rental_uris": {"android": "https://dc.lft.to/lastmile_qr_scan", "ios": "https://dc.lft.to/lastmile_qr_scan"}, "is_reserved": 0, "is_disabled": 0, "name": "909c0c8c214a6ed4651dab2d07b37360", "bike_id": "909c0c8c214a6ed4651dab2d07b37360", "fusion_lat": 0.0, "lon": -76.98837316666666, "type": "electric_scooter", "fusion_lon": 0.0, "lat": 38.900492166666666}, {"rental_uris": {"android": "https://dc.lft.to/lastmile_qr_scan", "ios": "https://dc.lft.to/lastmile_qr_scan"}, "is_reserved": 0, "is_disabled": 0, "name": "bd60e3eb50b390369f986cd4c98f20a0", "bike_id": "bd60e3eb50b390369f986cd4c98f20a0", "fusion_lat": 0.0, "lon": -77.00289783333334, "type": "electric_scooter", "fusion_lon": 0.0, "lat": 38.876816166666664}, {"rental_uris": {"android": "https://dc.lft.to/lastmile_qr_scan", "ios": "https://dc.lft.to/lastmile_qr_scan"}, "is_reserved": 0, "is_disabled": 0, "name": "ea223f11a06282937f2f3123812213b7", "bike_id": "ea223f11a06282937f2f3123812213b7", "fusion_lat": 0.0, "lon": -77.04110116666666, "type": "electric_scooter", "fusion_lon": 0.0, "lat": 38.901166833333335}, {"rental_uris": {"android": "https://dc.lft.to/lastmile_qr_scan", "ios": "https://dc.lft.to/lastmile_qr_scan"}, "is_reserved": 0, "is_disabled": 0, "name": "02ae3e6f86188eb53e739e11ada3fc19", "bike_id": "02ae3e6f86188eb53e739e11ada3fc19", "fusion_lat": 0.0, "lon": -77.03486316666667, "type": "electric_scooter", "fusion_lon": 0.0, "lat": 38.92880733333333}, {"rental_uris": {"android": "https://dc.lft.to/lastmile_qr_scan", "ios": "https://dc.lft.to/lastmile_qr_scan"}, "is_reserved": 0, "is_disabled": 0, "name": "c80e081dc4c30080a22d129247943252", "bike_id": "c80e081dc4c30080a22d129247943252", "fusion_lat": 0.0, "lon": -77.046402, "type": "electric_scooter", "fusion_lon": 0.0, "lat": 38.892170666666665}, {"rental_uris": {"android": "https://dc.lft.to/lastmile_qr_scan", "ios": "https://dc.lft.to/lastmile_qr_scan"}, "is_reserved": 0, "is_disabled": 0, "name": "97615b6b7aa3dbedf970eb3ba769ca10", "bike_id": "97615b6b7aa3dbedf970eb3ba769ca10", "fusion_lat": 0.0, "lon": -77.050106, "type": "electric_scooter", "fusion_lon": 0.0, "lat": 38.8973955}, {"rental_uris": {"android": "https://dc.lft.to/lastmile_qr_scan", "ios": "https://dc.lft.to/lastmile_qr_scan"}, "is_reserved": 0, "is_disabled": 0, "name": "f57d725470dcb1bc60d82a17120a5673", "bike_id": "f57d725470dcb1bc60d82a17120a5673", "fusion_lat": 0.0, "lon": -76.9997265, "type": "electric_scooter", "fusion_lon": 0.0, "lat": 38.9068715}, {"rental_uris": {"android": "https://dc.lft.to/lastmile_qr_scan", "ios": "https://dc.lft.to/lastmile_qr_scan"}, "is_reserved": 0, "is_disabled": 0, "name": "feab135610faa20f6f094255a80cfdd7", "bike_id": "feab135610faa20f6f094255a80cfdd7", "fusion_lat": 0.0, "lon": -76.9884635, "type": "electric_scooter", "fusion_lon": 0.0, "lat": 38.90028216666666}, {"rental_uris": {"android": "https://dc.lft.to/lastmile_qr_scan", "ios": "https://dc.lft.to/lastmile_qr_scan"}, "is_reserved": 0, "is_disabled": 0, "name": "71f0203c624c3f08d460b3916ca5374e", "bike_id": "71f0203c624c3f08d460b3916ca5374e", "fusion_lat": 0.0, "lon": -77.03056116666667, "type": "electric_scooter", "fusion_lon": 0.0, "lat": 38.90380416666667}, {"rental_uris": {"android": "https://dc.lft.to/lastmile_qr_scan", "ios": "https://dc.lft.to/lastmile_qr_scan"}, "is_reserved": 0, "is_disabled": 0, "name": "1b975c2023131eb8ac2b7f430cb91930", "bike_id": "1b975c2023131eb8ac2b7f430cb91930", "fusion_lat": 0.0, "lon": -77.06117, "type": "electric_scooter", "fusion_lon": 0.0, "lat": 38.90209316666667}, {"rental_uris": {"android": "https://dc.lft.to/lastmile_qr_scan", "ios": "https://dc.lft.to/lastmile_qr_scan"}, "is_reserved": 0, "is_disabled": 0, "name": "b0ed7f14bb5e9be2f5e7a47147200a97", "bike_id": "b0ed7f14bb5e9be2f5e7a47147200a97", "fusion_lat": 0.0, "lon": -77.04162416666667, "type": "electric_scooter", "fusion_lon": 0.0, "lat": 38.90713683333333}, {"rental_uris": {"android": "https://dc.lft.to/lastmile_qr_scan", "ios": "https://dc.lft.to/lastmile_qr_scan"}, "is_reserved": 0, "is_disabled": 0, "name": "86184ea520dd32c2b8197172fde3a001", "bike_id": "86184ea520dd32c2b8197172fde3a001", "fusion_lat": 0.0, "lon": -77.2341175, "type": "electric_bike", "fusion_lon": 0.0, "lat": 38.875756833333334}, {"rental_uris": {"android": "https://dc.lft.to/lastmile_qr_scan", "ios": "https://dc.lft.to/lastmile_qr_scan"}, "is_reserved": 0, "is_disabled": 0, "name": "4be863f60d09797ed9b5d2cde06ec644", "bike_id": "4be863f60d09797ed9b5d2cde06ec644", "fusion_lat": 0.0, "lon": -76.97908083333333, "type": "electric_scooter", "fusion_lon": 0.0, "lat": 38.888578333333335}, {"rental_uris": {"android": "https://dc.lft.to/lastmile_qr_scan", "ios": "https://dc.lft.to/lastmile_qr_scan"}, "is_reserved": 0, "is_disabled": 0, "name": "97cc0a332e5d5e2807e539fcb44b8723", "bike_id": "97cc0a332e5d5e2807e539fcb44b8723", "fusion_lat": 0.0, "lon": -77.01889666666666, "type": "electric_scooter", "fusion_lon": 0.0, "lat": 38.919504}, {"rental_uris": {"android": "https://dc.lft.to/lastmile_qr_scan", "ios": "https://dc.lft.to/lastmile_qr_scan"}, "is_reserved": 0, "is_disabled": 0, "name": "dfc6a41ca06f52611813aac3dd79ac3c", "bike_id": "dfc6a41ca06f52611813aac3dd79ac3c", "fusion_lat": 0.0, "lon": -77.04107283333333, "type": "electric_scooter", "fusion_lon": 0.0, "lat": 38.901203}, {"rental_uris": {"android": "https://dc.lft.to/lastmile_qr_scan", "ios": "https://dc.lft.to/lastmile_qr_scan"}, "is_reserved": 0, "is_disabled": 0, "name": "f0aa7b239a0e0d95cd2da33763068fef", "bike_id": "f0aa7b239a0e0d95cd2da33763068fef", "fusion_lat": 0.0, "lon": -77.02301916666667, "type": "electric_scooter", "fusion_lon": 0.0, "lat": 38.92407583333333}, {"rental_uris": {"android": "https://dc.lft.to/lastmile_qr_scan", "ios": "https://dc.lft.to/lastmile_qr_scan"}, "is_reserved": 0, "is_disabled": 0, "name": "34050983dd43daef2ed4a0b90cbecfce", "bike_id": "34050983dd43daef2ed4a0b90cbecfce", "fusion_lat": 0.0, "lon": -77.04077616666666, "type": "electric_scooter", "fusion_lon": 0.0, "lat": 38.89613883333333}, {"rental_uris": {"android": "https://dc.lft.to/lastmile_qr_scan", "ios": "https://dc.lft.to/lastmile_qr_scan"}, "is_reserved": 0, "is_disabled": 0, "name": "71768f71d129a52716285cb6853bdb5b", "bike_id": "71768f71d129a52716285cb6853bdb5b", "fusion_lat": 0.0, "lon": -77.02990016666666, "type": "electric_scooter", "fusion_lon": 0.0, "lat": 38.89741683333333}, {"rental_uris": {"android": "https://dc.lft.to/lastmile_qr_scan", "ios": "https://dc.lft.to/lastmile_qr_scan"}, "is_reserved": 0, "is_disabled": 0, "name": "9d647acfde60a043ab74aec79d04d084", "bike_id": "9d647acfde60a043ab74aec79d04d084", "fusion_lat": 0.0, "lon": -77.02695833333334, "type": "electric_scooter", "fusion_lon": 0.0, "lat": 38.91272416666666}, {"rental_uris": {"android": "https://dc.lft.to/lastmile_qr_scan", "ios": "https://dc.lft.to/lastmile_qr_scan"}, "is_reserved": 0, "is_disabled": 0, "name": "7782991d08ae0dfef7d80fa3d7e7173f", "bike_id": "7782991d08ae0dfef7d80fa3d7e7173f", "fusion_lat": 0.0, "lon": -77.00117183333333, "type": "electric_scooter", "fusion_lon": 0.0, "lat": 38.87626133333333}, {"rental_uris": {"android": "https://dc.lft.to/lastmile_qr_scan", "ios": "https://dc.lft.to/lastmile_qr_scan"}, "is_reserved": 0, "is_disabled": 0, "name": "d4d17aafe0ece622ef4aaeb86a6f667b", "bike_id": "d4d17aafe0ece622ef4aaeb86a6f667b", "fusion_lat": 0.0, "lon": -77.00061733333334, "type": "electric_scooter", "fusion_lon": 0.0, "lat": 38.87876216666667}, {"rental_uris": {"android": "https://dc.lft.to/lastmile_qr_scan", "ios": "https://dc.lft.to/lastmile_qr_scan"}, "is_reserved": 0, "is_disabled": 0, "name": "501aef71ebf93305aeacf821f9b13685", "bike_id": "501aef71ebf93305aeacf821f9b13685", "fusion_lat": 0.0, "lon": -77.100973, "type": "electric_bike", "fusion_lon": 0.0, "lat": 38.98936066666667}, {"rental_uris": {"android": "https://dc.lft.to/lastmile_qr_scan", "ios": "https://dc.lft.to/lastmile_qr_scan"}, "is_reserved": 0, "is_disabled": 0, "name": "50a3434a6c117e8f17b636cb1e0e9d17", "bike_id": "50a3434a6c117e8f17b636cb1e0e9d17", "fusion_lat": 0.0, "lon": -77.0338815, "type": "electric_scooter", "fusion_lon": 0.0, "lat": 38.90120966666667}, {"rental_uris": {"android": "https://dc.lft.to/lastmile_qr_scan", "ios": "https://dc.lft.to/lastmile_qr_scan"}, "is_reserved": 0, "is_disabled": 0, "name": "e705a78f4260c3383c92a6985fe95a04", "bike_id": "e705a78f4260c3383c92a6985fe95a04", "fusion_lat": 0.0, "lon": -77.01970183333333, "type": "electric_scooter", "fusion_lon": 0.0, "lat": 38.9192125}, {"rental_uris": {"android": "https://dc.lft.to/lastmile_qr_scan", "ios": "https://dc.lft.to/lastmile_qr_scan"}, "is_reserved": 0, "is_disabled": 0, "name": "6ba4d7dffa1e5b4da5121a70a0af96fb", "bike_id": "6ba4d7dffa1e5b4da5121a70a0af96fb", "fusion_lat": 0.0, "lon": -77.02180116666666, "type": "electric_scooter", "fusion_lon": 0.0, "lat": 38.9249095}, {"rental_uris": {"android": "https://dc.lft.to/lastmile_qr_scan", "ios": "https://dc.lft.to/lastmile_qr_scan"}, "is_reserved": 0, "is_disabled": 0, "name": "6bfb890cb6cf443691b055ed0526bf39", "bike_id": "6bfb890cb6cf443691b055ed0526bf39", "fusion_lat": 0.0, "lon": -76.941846, "type": "electric_scooter", "fusion_lon": 0.0, "lat": 38.8975725}, {"rental_uris": {"android": "https://dc.lft.to/lastmile_qr_scan", "ios": "https://dc.lft.to/lastmile_qr_scan"}, "is_reserved": 0, "is_disabled": 0, "name": "d2ddc8c94b755da02d71a0d85af1253a", "bike_id": "d2ddc8c94b755da02d71a0d85af1253a", "fusion_lat": 0.0, "lon": -77.03769533333333, "type": "electric_scooter", "fusion_lon": 0.0, "lat": 38.92558366666667}, {"rental_uris": {"android": "https://dc.lft.to/lastmile_qr_scan", "ios": "https://dc.lft.to/lastmile_qr_scan"}, "is_reserved": 0, "is_disabled": 0, "name": "4924189c3b9102fd2b6eb44063554d87", "bike_id": "4924189c3b9102fd2b6eb44063554d87", "fusion_lat": 0.0, "lon": -76.97825066666667, "type": "electric_scooter", "fusion_lon": 0.0, "lat": 38.893903333333334}, {"rental_uris": {"android": "https://dc.lft.to/lastmile_qr_scan", "ios": "https://dc.lft.to/lastmile_qr_scan"}, "is_reserved": 0, "is_disabled": 0, "name": "b3590ca8ea2aed968d25a751caa21ce6", "bike_id": "b3590ca8ea2aed968d25a751caa21ce6", "fusion_lat": 0.0, "lon": -77.01658816666666, "type": "electric_scooter", "fusion_lon": 0.0, "lat": 38.88108733333333}, {"rental_uris": {"android": "https://dc.lft.to/lastmile_qr_scan", "ios": "https://dc.lft.to/lastmile_qr_scan"}, "is_reserved": 0, "is_disabled": 0, "name": "457df37d941b59ace38cfb119f279396", "bike_id": "457df37d941b59ace38cfb119f279396", "fusion_lat": 0.0, "lon": -77.034193, "type": "electric_scooter", "fusion_lon": 0.0, "lat": 38.9192595}, {"rental_uris": {"android": "https://dc.lft.to/lastmile_qr_scan", "ios": "https://dc.lft.to/lastmile_qr_scan"}, "is_reserved": 0, "is_disabled": 0, "name": "11cfdcff185564fe6beb328448847c83", "bike_id": "11cfdcff185564fe6beb328448847c83", "fusion_lat": 0.0, "lon": -77.0488225, "type": "electric_scooter", "fusion_lon": 0.0, "lat": 38.898015}, {"rental_uris": {"android": "https://dc.lft.to/lastmile_qr_scan", "ios": "https://dc.lft.to/lastmile_qr_scan"}, "is_reserved": 0, "is_disabled": 0, "name": "e416a607ac0bbac3ff3bdfebcbcc097d", "bike_id": "e416a607ac0bbac3ff3bdfebcbcc097d", "fusion_lat": 0.0, "lon": -77.03690316666666, "type": "electric_scooter", "fusion_lon": 0.0, "lat": 38.9263735}, {"rental_uris": {"android": "https://dc.lft.to/lastmile_qr_scan", "ios": "https://dc.lft.to/lastmile_qr_scan"}, "is_reserved": 0, "is_disabled": 0, "name": "6cd69872d23c82785e862a892fb65dfd", "bike_id": "6cd69872d23c82785e862a892fb65dfd", "fusion_lat": 0.0, "lon": -77.03555683333333, "type": "electric_scooter", "fusion_lon": 0.0, "lat": 38.92472733333334}, {"rental_uris": {"android": "https://dc.lft.to/lastmile_qr_scan", "ios": "https://dc.lft.to/lastmile_qr_scan"}, "is_reserved": 0, "is_disabled": 0, "name": "f710ff3cdb774ca1ac0b3a01f4a4f1ca", "bike_id": "f710ff3cdb774ca1ac0b3a01f4a4f1ca", "fusion_lat": 0.0, "lon": -77.02961183333333, "type": "electric_scooter", "fusion_lon": 0.0, "lat": 38.916960833333334}, {"rental_uris": {"android": "https://dc.lft.to/lastmile_qr_scan", "ios": "https://dc.lft.to/lastmile_qr_scan"}, "is_reserved": 0, "is_disabled": 0, "name": "63bed6dd36e5f531d8b8881f7644e1d3", "bike_id": "63bed6dd36e5f531d8b8881f7644e1d3", "fusion_lat": 0.0, "lon": -77.07661533333334, "type": "electric_bike", "fusion_lon": 0.0, "lat": 38.80974883333333}, {"rental_uris": {"android": "https://dc.lft.to/lastmile_qr_scan", "ios": "https://dc.lft.to/lastmile_qr_scan"}, "is_reserved": 0, "is_disabled": 0, "name": "2aaca2daff0a7e649795f93821a1123d", "bike_id": "2aaca2daff0a7e649795f93821a1123d", "fusion_lat": 0.0, "lon": -77.0299965, "type": "electric_scooter", "fusion_lon": 0.0, "lat": 38.92465466666667}, {"rental_uris": {"android": "https://dc.lft.to/lastmile_qr_scan", "ios": "https://dc.lft.to/lastmile_qr_scan"}, "is_reserved": 0, "is_disabled": 0, "name": "a29ff45716dc46bed1ad0c51aed6cebe", "bike_id": "a29ff45716dc46bed1ad0c51aed6cebe", "fusion_lat": 0.0, "lon": -77.0386125, "type": "electric_scooter", "fusion_lon": 0.0, "lat": 38.90278466666667}, {"rental_uris": {"android": "https://dc.lft.to/lastmile_qr_scan", "ios": "https://dc.lft.to/lastmile_qr_scan"}, "is_reserved": 0, "is_disabled": 0, "name": "697b93420a70e365f4c0b393a742ad8e", "bike_id": "697b93420a70e365f4c0b393a742ad8e", "fusion_lat": 0.0, "lon": -76.99056116666667, "type": "electric_bike", "fusion_lon": 0.0, "lat": 38.937523666666664}, {"rental_uris": {"android": "https://dc.lft.to/lastmile_qr_scan", "ios": "https://dc.lft.to/lastmile_qr_scan"}, "is_reserved": 0, "is_disabled": 0, "name": "087538936fde00d48288c63a12ebf2c4", "bike_id": "087538936fde00d48288c63a12ebf2c4", "fusion_lat": 0.0, "lon": -76.98997166666666, "type": "electric_scooter", "fusion_lon": 0.0, "lat": 38.86435266666667}, {"rental_uris": {"android": "https://dc.lft.to/lastmile_qr_scan", "ios": "https://dc.lft.to/lastmile_qr_scan"}, "is_reserved": 0, "is_disabled": 0, "name": "9d1422ad04325ad1f095aea75f81e273", "bike_id": "9d1422ad04325ad1f095aea75f81e273", "fusion_lat": 0.0, "lon": -77.02312366666666, "type": "electric_scooter", "fusion_lon": 0.0, "lat": 38.91788483333333}, {"rental_uris": {"android": "https://dc.lft.to/lastmile_qr_scan", "ios": "https://dc.lft.to/lastmile_qr_scan"}, "is_reserved": 0, "is_disabled": 0, "name": "dd53325544b28dab9d67016390febfcc", "bike_id": "dd53325544b28dab9d67016390febfcc", "fusion_lat": 0.0, "lon": -77.03413133333333, "type": "electric_scooter", "fusion_lon": 0.0, "lat": 38.930938}, {"rental_uris": {"android": "https://dc.lft.to/lastmile_qr_scan", "ios": "https://dc.lft.to/lastmile_qr_scan"}, "is_reserved": 0, "is_disabled": 0, "name": "764791c0522e0dabbb057caf3a94b71e", "bike_id": "764791c0522e0dabbb057caf3a94b71e", "fusion_lat": 0.0, "lon": -77.04885916666667, "type": "electric_scooter", "fusion_lon": 0.0, "lat": 38.899469833333335}, {"rental_uris": {"android": "https://dc.lft.to/lastmile_qr_scan", "ios": "https://dc.lft.to/lastmile_qr_scan"}, "is_reserved": 0, "is_disabled": 0, "name": "83373a77498f47d60569ae981a031c8b", "bike_id": "83373a77498f47d60569ae981a031c8b", "fusion_lat": 0.0, "lon": -77.02475816666667, "type": "electric_scooter", "fusion_lon": 0.0, "lat": 38.91817183333333}, {"rental_uris": {"android": "https://dc.lft.to/lastmile_qr_scan", "ios": "https://dc.lft.to/lastmile_qr_scan"}, "is_reserved": 0, "is_disabled": 0, "name": "0bd0c3a8cb974dd60b6f30e82d057953", "bike_id": "0bd0c3a8cb974dd60b6f30e82d057953", "fusion_lat": 0.0, "lon": -77.02500633333334, "type": "electric_scooter", "fusion_lon": 0.0, "lat": 38.91930683333333}, {"rental_uris": {"android": "https://dc.lft.to/lastmile_qr_scan", "ios": "https://dc.lft.to/lastmile_qr_scan"}, "is_reserved": 0, "is_disabled": 0, "name": "eb961cc826c52894e36665b45d0a3242", "bike_id": "eb961cc826c52894e36665b45d0a3242", "fusion_lat": 0.0, "lon": -76.946672, "type": "electric_scooter", "fusion_lon": 0.0, "lat": 38.898675}, {"rental_uris": {"android": "https://dc.lft.to/lastmile_qr_scan", "ios": "https://dc.lft.to/lastmile_qr_scan"}, "is_reserved": 0, "is_disabled": 0, "name": "1f7282c6b5a74243afd21bafe896b239", "bike_id": "1f7282c6b5a74243afd21bafe896b239", "fusion_lat": 0.0, "lon": -76.982334, "type": "electric_scooter", "fusion_lon": 0.0, "lat": 38.86883733333333}, {"rental_uris": {"android": "https://dc.lft.to/lastmile_qr_scan", "ios": "https://dc.lft.to/lastmile_qr_scan"}, "is_reserved": 0, "is_disabled": 0, "name": "c6bec1536442c993afde923c0a2d4ecc", "bike_id": "c6bec1536442c993afde923c0a2d4ecc", "fusion_lat": 0.0, "lon": -77.04109933333334, "type": "electric_scooter", "fusion_lon": 0.0, "lat": 38.901194333333336}, {"rental_uris": {"android": "https://dc.lft.to/lastmile_qr_scan", "ios": "https://dc.lft.to/lastmile_qr_scan"}, "is_reserved": 0, "is_disabled": 0, "name": "f15262f86aa686c12cadb59a45a59791", "bike_id": "f15262f86aa686c12cadb59a45a59791", "fusion_lat": 0.0, "lon": -77.033743, "type": "electric_scooter", "fusion_lon": 0.0, "lat": 38.9004}, {"rental_uris": {"android": "https://dc.lft.to/lastmile_qr_scan", "ios": "https://dc.lft.to/lastmile_qr_scan"}, "is_reserved": 0, "is_disabled": 0, "name": "6d9fc7fa9e8abaa75c80d7d366d70051", "bike_id": "6d9fc7fa9e8abaa75c80d7d366d70051", "fusion_lat": 0.0, "lon": -77.02466166666666, "type": "electric_scooter", "fusion_lon": 0.0, "lat": 38.957733166666664}, {"rental_uris": {"android": "https://dc.lft.to/lastmile_qr_scan", "ios": "https://dc.lft.to/lastmile_qr_scan"}, "is_reserved": 0, "is_disabled": 0, "name": "d1235d3bcd1f2c3d8130653e76de7b2b", "bike_id": "d1235d3bcd1f2c3d8130653e76de7b2b", "fusion_lat": 0.0, "lon": -77.02976033333333, "type": "electric_scooter", "fusion_lon": 0.0, "lat": 38.93531333333333}, {"rental_uris": {"android": "https://dc.lft.to/lastmile_qr_scan", "ios": "https://dc.lft.to/lastmile_qr_scan"}, "is_reserved": 0, "is_disabled": 0, "name": "39937db46c48dd2156e2f15d4cefc04d", "bike_id": "39937db46c48dd2156e2f15d4cefc04d", "fusion_lat": 0.0, "lon": -77.00020033333334, "type": "electric_scooter", "fusion_lon": 0.0, "lat": 38.919704}, {"rental_uris": {"android": "https://dc.lft.to/lastmile_qr_scan", "ios": "https://dc.lft.to/lastmile_qr_scan"}, "is_reserved": 0, "is_disabled": 0, "name": "8cc8eb7dc648108ac87f8c7a5ad9585c", "bike_id": "8cc8eb7dc648108ac87f8c7a5ad9585c", "fusion_lat": 0.0, "lon": -77.0374715, "type": "electric_scooter", "fusion_lon": 0.0, "lat": 38.902155}, {"rental_uris": {"android": "https://dc.lft.to/lastmile_qr_scan", "ios": "https://dc.lft.to/lastmile_qr_scan"}, "is_reserved": 0, "is_disabled": 0, "name": "946ecc71c1a32fa6d4d957c4b5bd1c77", "bike_id": "946ecc71c1a32fa6d4d957c4b5bd1c77", "fusion_lat": 0.0, "lon": -77.027066, "type": "electric_bike", "fusion_lon": 0.0, "lat": 38.8962785}, {"rental_uris": {"android": "https://dc.lft.to/lastmile_qr_scan", "ios": "https://dc.lft.to/lastmile_qr_scan"}, "is_reserved": 0, "is_disabled": 0, "name": "f5e1ac593a68c3f29b4f94acd8df74ed", "bike_id": "f5e1ac593a68c3f29b4f94acd8df74ed", "fusion_lat": 0.0, "lon": -77.03729066666666, "type": "electric_scooter", "fusion_lon": 0.0, "lat": 38.926509833333334}, {"rental_uris": {"android": "https://dc.lft.to/lastmile_qr_scan", "ios": "https://dc.lft.to/lastmile_qr_scan"}, "is_reserved": 0, "is_disabled": 0, "name": "ce396f443957cb249505e3c594dfd2af", "bike_id": "ce396f443957cb249505e3c594dfd2af", "fusion_lat": 0.0, "lon": -77.03801366666667, "type": "electric_scooter", "fusion_lon": 0.0, "lat": 38.90677733333333}, {"rental_uris": {"android": "https://dc.lft.to/lastmile_qr_scan", "ios": "https://dc.lft.to/lastmile_qr_scan"}, "is_reserved": 0, "is_disabled": 0, "name": "05c900687a000a6859953ab25dae5437", "bike_id": "05c900687a000a6859953ab25dae5437", "fusion_lat": 0.0, "lon": -77.04879566666666, "type": "electric_scooter", "fusion_lon": 0.0, "lat": 38.89875983333334}, {"rental_uris": {"android": "https://dc.lft.to/lastmile_qr_scan", "ios": "https://dc.lft.to/lastmile_qr_scan"}, "is_reserved": 0, "is_disabled": 0, "name": "2b984c323374fbe09ea2cb1a0338be37", "bike_id": "2b984c323374fbe09ea2cb1a0338be37", "fusion_lat": 0.0, "lon": -76.97332883333333, "type": "electric_scooter", "fusion_lon": 0.0, "lat": 38.90410283333333}, {"rental_uris": {"android": "https://dc.lft.to/lastmile_qr_scan", "ios": "https://dc.lft.to/lastmile_qr_scan"}, "is_reserved": 0, "is_disabled": 0, "name": "1f6778e11fa3717b2b5520307f2060c0", "bike_id": "1f6778e11fa3717b2b5520307f2060c0", "fusion_lat": 0.0, "lon": -77.05824933333334, "type": "electric_scooter", "fusion_lon": 0.0, "lat": 38.935317}, {"rental_uris": {"android": "https://dc.lft.to/lastmile_qr_scan", "ios": "https://dc.lft.to/lastmile_qr_scan"}, "is_reserved": 0, "is_disabled": 0, "name": "0fbb63ab2afff3f4d3e6260308e6bcaa", "bike_id": "0fbb63ab2afff3f4d3e6260308e6bcaa", "fusion_lat": 0.0, "lon": -77.06947783333334, "type": "electric_bike", "fusion_lon": 0.0, "lat": 38.83622916666667}, {"rental_uris": {"android": "https://dc.lft.to/lastmile_qr_scan", "ios": "https://dc.lft.to/lastmile_qr_scan"}, "is_reserved": 0, "is_disabled": 0, "name": "d67ce16d8e332390ab55e364965ec9db", "bike_id": "d67ce16d8e332390ab55e364965ec9db", "fusion_lat": 0.0, "lon": -77.03286233333333, "type": "electric_scooter", "fusion_lon": 0.0, "lat": 38.89833466666666}, {"rental_uris": {"android": "https://dc.lft.to/lastmile_qr_scan", "ios": "https://dc.lft.to/lastmile_qr_scan"}, "is_reserved": 0, "is_disabled": 0, "name": "f00b6175dd5094263e6aea044d0dbf2a", "bike_id": "f00b6175dd5094263e6aea044d0dbf2a", "fusion_lat": 0.0, "lon": -77.00970133333334, "type": "electric_scooter", "fusion_lon": 0.0, "lat": 38.91701583333333}, {"rental_uris": {"android": "https://dc.lft.to/lastmile_qr_scan", "ios": "https://dc.lft.to/lastmile_qr_scan"}, "is_reserved": 0, "is_disabled": 0, "name": "2195ec7a1b560a763bd645c43267fdca", "bike_id": "2195ec7a1b560a763bd645c43267fdca", "fusion_lat": 0.0, "lon": -77.02476483333334, "type": "electric_scooter", "fusion_lon": 0.0, "lat": 38.918151}, {"rental_uris": {"android": "https://dc.lft.to/lastmile_qr_scan", "ios": "https://dc.lft.to/lastmile_qr_scan"}, "is_reserved": 0, "is_disabled": 0, "name": "9a65ce106a220cb6454c5f66e9170be5", "bike_id": "9a65ce106a220cb6454c5f66e9170be5", "fusion_lat": 0.0, "lon": -77.02033016666667, "type": "electric_scooter", "fusion_lon": 0.0, "lat": 38.92204533333334}, {"rental_uris": {"android": "https://dc.lft.to/lastmile_qr_scan", "ios": "https://dc.lft.to/lastmile_qr_scan"}, "is_reserved": 0, "is_disabled": 0, "name": "0c915209d9b4089d91eb2bf365be5c00", "bike_id": "0c915209d9b4089d91eb2bf365be5c00", "fusion_lat": 0.0, "lon": -77.02775416666667, "type": "electric_scooter", "fusion_lon": 0.0, "lat": 38.9529535}, {"rental_uris": {"android": "https://dc.lft.to/lastmile_qr_scan", "ios": "https://dc.lft.to/lastmile_qr_scan"}, "is_reserved": 0, "is_disabled": 0, "name": "a8b656b78dd3d2c35aaf3973547b25d8", "bike_id": "a8b656b78dd3d2c35aaf3973547b25d8", "fusion_lat": 0.0, "lon": -77.04249066666667, "type": "electric_scooter", "fusion_lon": 0.0, "lat": 38.92216466666667}, {"rental_uris": {"android": "https://dc.lft.to/lastmile_qr_scan", "ios": "https://dc.lft.to/lastmile_qr_scan"}, "is_reserved": 0, "is_disabled": 0, "name": "e9a2c512a0dd98fdd185949974bf6226", "bike_id": "e9a2c512a0dd98fdd185949974bf6226", "fusion_lat": 0.0, "lon": -77.04634116666666, "type": "electric_scooter", "fusion_lon": 0.0, "lat": 38.90957816666667}, {"rental_uris": {"android": "https://dc.lft.to/lastmile_qr_scan", "ios": "https://dc.lft.to/lastmile_qr_scan"}, "is_reserved": 0, "is_disabled": 0, "name": "b3f86ba568b243f4b830193bcb749375", "bike_id": "b3f86ba568b243f4b830193bcb749375", "fusion_lat": 0.0, "lon": -77.01754516666666, "type": "electric_scooter", "fusion_lon": 0.0, "lat": 38.894699}, {"rental_uris": {"android": "https://dc.lft.to/lastmile_qr_scan", "ios": "https://dc.lft.to/lastmile_qr_scan"}, "is_reserved": 0, "is_disabled": 0, "name": "ba1bd15c268f9ebcf7607f8998dc0369", "bike_id": "ba1bd15c268f9ebcf7607f8998dc0369", "fusion_lat": 0.0, "lon": -77.02131583333333, "type": "electric_scooter", "fusion_lon": 0.0, "lat": 38.924154}, {"rental_uris": {"android": "https://dc.lft.to/lastmile_qr_scan", "ios": "https://dc.lft.to/lastmile_qr_scan"}, "is_reserved": 0, "is_disabled": 0, "name": "7fa99b85caf3a22efbeeebc96ca9517b", "bike_id": "7fa99b85caf3a22efbeeebc96ca9517b", "fusion_lat": 0.0, "lon": -77.049928, "type": "electric_scooter", "fusion_lon": 0.0, "lat": 38.897264}, {"rental_uris": {"android": "https://dc.lft.to/lastmile_qr_scan", "ios": "https://dc.lft.to/lastmile_qr_scan"}, "is_reserved": 0, "is_disabled": 0, "name": "b3ed013ec3f14065eef78dc4eb8902ca", "bike_id": "b3ed013ec3f14065eef78dc4eb8902ca", "fusion_lat": 0.0, "lon": -77.03993183333333, "type": "electric_scooter", "fusion_lon": 0.0, "lat": 38.90118666666667}, {"rental_uris": {"android": "https://dc.lft.to/lastmile_qr_scan", "ios": "https://dc.lft.to/lastmile_qr_scan"}, "is_reserved": 0, "is_disabled": 0, "name": "b3aabc2610cf9d944724ecea870ba987", "bike_id": "b3aabc2610cf9d944724ecea870ba987", "fusion_lat": 0.0, "lon": -77.0434895, "type": "electric_scooter", "fusion_lon": 0.0, "lat": 38.91113633333333}, {"rental_uris": {"android": "https://dc.lft.to/lastmile_qr_scan", "ios": "https://dc.lft.to/lastmile_qr_scan"}, "is_reserved": 0, "is_disabled": 0, "name": "4cb6916764ea9625c069f778dd8ce319", "bike_id": "4cb6916764ea9625c069f778dd8ce319", "fusion_lat": 0.0, "lon": -77.023781, "type": "electric_scooter", "fusion_lon": 0.0, "lat": 38.892181}, {"rental_uris": {"android": "https://dc.lft.to/lastmile_qr_scan", "ios": "https://dc.lft.to/lastmile_qr_scan"}, "is_reserved": 0, "is_disabled": 0, "name": "591696f876227c422dff3c5f540ac7c4", "bike_id": "591696f876227c422dff3c5f540ac7c4", "fusion_lat": 0.0, "lon": -77.02587383333334, "type": "electric_scooter", "fusion_lon": 0.0, "lat": 38.920227833333335}, {"rental_uris": {"android": "https://dc.lft.to/lastmile_qr_scan", "ios": "https://dc.lft.to/lastmile_qr_scan"}, "is_reserved": 0, "is_disabled": 0, "name": "e2400be7fd1e1a52aafd0c74db10c410", "bike_id": "e2400be7fd1e1a52aafd0c74db10c410", "fusion_lat": 0.0, "lon": -77.0235635, "type": "electric_scooter", "fusion_lon": 0.0, "lat": 38.879267166666665}, {"rental_uris": {"android": "https://dc.lft.to/lastmile_qr_scan", "ios": "https://dc.lft.to/lastmile_qr_scan"}, "is_reserved": 0, "is_disabled": 0, "name": "6ce8a0c06c15416ed72cba91e0ef1d1d", "bike_id": "6ce8a0c06c15416ed72cba91e0ef1d1d", "fusion_lat": 0.0, "lon": -77.03454266666667, "type": "electric_scooter", "fusion_lon": 0.0, "lat": 38.918922333333335}, {"rental_uris": {"android": "https://dc.lft.to/lastmile_qr_scan", "ios": "https://dc.lft.to/lastmile_qr_scan"}, "is_reserved": 0, "is_disabled": 0, "name": "5892bdddabaaf8423288a532e0c56dbd", "bike_id": "5892bdddabaaf8423288a532e0c56dbd", "fusion_lat": 0.0, "lon": -76.98245383333334, "type": "electric_scooter", "fusion_lon": 0.0, "lat": 38.89537216666667}, {"rental_uris": {"android": "https://dc.lft.to/lastmile_qr_scan", "ios": "https://dc.lft.to/lastmile_qr_scan"}, "is_reserved": 0, "is_disabled": 0, "name": "674dcddc5a390d83d9924e9519547697", "bike_id": "674dcddc5a390d83d9924e9519547697", "fusion_lat": 0.0, "lon": -77.009073, "type": "electric_scooter", "fusion_lon": 0.0, "lat": 38.91370283333333}, {"rental_uris": {"android": "https://dc.lft.to/lastmile_qr_scan", "ios": "https://dc.lft.to/lastmile_qr_scan"}, "is_reserved": 0, "is_disabled": 0, "name": "e25a3a36d4b4723dff08fbcb8568bad8", "bike_id": "e25a3a36d4b4723dff08fbcb8568bad8", "fusion_lat": 0.0, "lon": -76.9260085, "type": "electric_scooter", "fusion_lon": 0.0, "lat": 38.897258}, {"rental_uris": {"android": "https://dc.lft.to/lastmile_qr_scan", "ios": "https://dc.lft.to/lastmile_qr_scan"}, "is_reserved": 0, "is_disabled": 0, "name": "42113ea720ab7ded240f78e1937a0bb3", "bike_id": "42113ea720ab7ded240f78e1937a0bb3", "fusion_lat": 0.0, "lon": -77.028949, "type": "electric_scooter", "fusion_lon": 0.0, "lat": 38.92679366666667}, {"rental_uris": {"android": "https://dc.lft.to/lastmile_qr_scan", "ios": "https://dc.lft.to/lastmile_qr_scan"}, "is_reserved": 0, "is_disabled": 0, "name": "3bd496dfe1684336bc14febf8f600d12", "bike_id": "3bd496dfe1684336bc14febf8f600d12", "fusion_lat": 0.0, "lon": -77.0091885, "type": "electric_scooter", "fusion_lon": 0.0, "lat": 38.895453333333336}, {"rental_uris": {"android": "https://dc.lft.to/lastmile_qr_scan", "ios": "https://dc.lft.to/lastmile_qr_scan"}, "is_reserved": 0, "is_disabled": 0, "name": "b41d15d62bfd6f42810e0057903c3cde", "bike_id": "b41d15d62bfd6f42810e0057903c3cde", "fusion_lat": 0.0, "lon": -77.0400895, "type": "electric_scooter", "fusion_lon": 0.0, "lat": 38.924333}, {"rental_uris": {"android": "https://dc.lft.to/lastmile_qr_scan", "ios": "https://dc.lft.to/lastmile_qr_scan"}, "is_reserved": 0, "is_disabled": 0, "name": "ade9784852da470ad0cd151b8a451df0", "bike_id": "ade9784852da470ad0cd151b8a451df0", "fusion_lat": 0.0, "lon": -76.98658016666667, "type": "electric_scooter", "fusion_lon": 0.0, "lat": 38.85509616666667}, {"rental_uris": {"android": "https://dc.lft.to/lastmile_qr_scan", "ios": "https://dc.lft.to/lastmile_qr_scan"}, "is_reserved": 0, "is_disabled": 0, "name": "09a253bf4eee4a6cba4cead367cab1fe", "bike_id": "09a253bf4eee4a6cba4cead367cab1fe", "fusion_lat": 0.0, "lon": -77.01991216666667, "type": "electric_scooter", "fusion_lon": 0.0, "lat": 38.90325416666667}, {"rental_uris": {"android": "https://dc.lft.to/lastmile_qr_scan", "ios": "https://dc.lft.to/lastmile_qr_scan"}, "is_reserved": 0, "is_disabled": 0, "name": "38fb2f87970c9a634cf9eb3139f6ef99", "bike_id": "38fb2f87970c9a634cf9eb3139f6ef99", "fusion_lat": 0.0, "lon": -77.02443933333333, "type": "electric_scooter", "fusion_lon": 0.0, "lat": 38.907599166666664}, {"rental_uris": {"android": "https://dc.lft.to/lastmile_qr_scan", "ios": "https://dc.lft.to/lastmile_qr_scan"}, "is_reserved": 0, "is_disabled": 0, "name": "cd0d105f9f6d1b4de1310ec99cfdac07", "bike_id": "cd0d105f9f6d1b4de1310ec99cfdac07", "fusion_lat": 0.0, "lon": -77.03176166666667, "type": "electric_scooter", "fusion_lon": 0.0, "lat": 38.918206}, {"rental_uris": {"android": "https://dc.lft.to/lastmile_qr_scan", "ios": "https://dc.lft.to/lastmile_qr_scan"}, "is_reserved": 0, "is_disabled": 0, "name": "556124ba3e6a7c2527dc6e530f3b87fa", "bike_id": "556124ba3e6a7c2527dc6e530f3b87fa", "fusion_lat": 0.0, "lon": -77.02636466666667, "type": "electric_scooter", "fusion_lon": 0.0, "lat": 38.94115333333333}, {"rental_uris": {"android": "https://dc.lft.to/lastmile_qr_scan", "ios": "https://dc.lft.to/lastmile_qr_scan"}, "is_reserved": 0, "is_disabled": 0, "name": "2a405a43ac321a10429aefef67b14fb5", "bike_id": "2a405a43ac321a10429aefef67b14fb5", "fusion_lat": 0.0, "lon": -77.00717233333333, "type": "electric_bike", "fusion_lon": 0.0, "lat": 38.994978833333334}, {"rental_uris": {"android": "https://dc.lft.to/lastmile_qr_scan", "ios": "https://dc.lft.to/lastmile_qr_scan"}, "is_reserved": 0, "is_disabled": 0, "name": "7d5bc5f02164bdd4dfa082c64d082d5b", "bike_id": "7d5bc5f02164bdd4dfa082c64d082d5b", "fusion_lat": 0.0, "lon": -77.05995516666667, "type": "electric_scooter", "fusion_lon": 0.0, "lat": 38.9270225}, {"rental_uris": {"android": "https://dc.lft.to/lastmile_qr_scan", "ios": "https://dc.lft.to/lastmile_qr_scan"}, "is_reserved": 0, "is_disabled": 0, "name": "27e7f3e16c3b8ae4a984ccb8dd7b0bfe", "bike_id": "27e7f3e16c3b8ae4a984ccb8dd7b0bfe", "fusion_lat": 0.0, "lon": -77.03189416666666, "type": "electric_scooter", "fusion_lon": 0.0, "lat": 38.91558416666667}, {"rental_uris": {"android": "https://dc.lft.to/lastmile_qr_scan", "ios": "https://dc.lft.to/lastmile_qr_scan"}, "is_reserved": 0, "is_disabled": 0, "name": "0db982d336e9624530e79ecfe4f1b3de", "bike_id": "0db982d336e9624530e79ecfe4f1b3de", "fusion_lat": 0.0, "lon": -77.02957366666666, "type": "electric_scooter", "fusion_lon": 0.0, "lat": 38.94283316666667}, {"rental_uris": {"android": "https://dc.lft.to/lastmile_qr_scan", "ios": "https://dc.lft.to/lastmile_qr_scan"}, "is_reserved": 0, "is_disabled": 0, "name": "302436cba2aba29b90f958f6cfb38ee0", "bike_id": "302436cba2aba29b90f958f6cfb38ee0", "fusion_lat": 0.0, "lon": -77.0326455, "type": "electric_scooter", "fusion_lon": 0.0, "lat": 38.93513933333333}, {"rental_uris": {"android": "https://dc.lft.to/lastmile_qr_scan", "ios": "https://dc.lft.to/lastmile_qr_scan"}, "is_reserved": 0, "is_disabled": 0, "name": "fa3ecceddc6291249d4247fe68a11586", "bike_id": "fa3ecceddc6291249d4247fe68a11586", "fusion_lat": 0.0, "lon": -77.037802, "type": "electric_bike", "fusion_lon": 0.0, "lat": 38.99676133333333}, {"rental_uris": {"android": "https://dc.lft.to/lastmile_qr_scan", "ios": "https://dc.lft.to/lastmile_qr_scan"}, "is_reserved": 0, "is_disabled": 0, "name": "2929cc9ebcb71b796c21a2e0306dabbf", "bike_id": "2929cc9ebcb71b796c21a2e0306dabbf", "fusion_lat": 0.0, "lon": -77.03904816666666, "type": "electric_scooter", "fusion_lon": 0.0, "lat": 38.923208833333334}, {"rental_uris": {"android": "https://dc.lft.to/lastmile_qr_scan", "ios": "https://dc.lft.to/lastmile_qr_scan"}, "is_reserved": 0, "is_disabled": 0, "name": "f2fca83a1f5de7a79239a1c466989362", "bike_id": "f2fca83a1f5de7a79239a1c466989362", "fusion_lat": 0.0, "lon": -77.01779866666666, "type": "electric_scooter", "fusion_lon": 0.0, "lat": 38.90113266666667}, {"rental_uris": {"android": "https://dc.lft.to/lastmile_qr_scan", "ios": "https://dc.lft.to/lastmile_qr_scan"}, "is_reserved": 0, "is_disabled": 0, "name": "584c6a576c94d089de1aae5b1d8c43ec", "bike_id": "584c6a576c94d089de1aae5b1d8c43ec", "fusion_lat": 0.0, "lon": -77.03630516666666, "type": "electric_scooter", "fusion_lon": 0.0, "lat": 38.903802666666664}, {"rental_uris": {"android": "https://dc.lft.to/lastmile_qr_scan", "ios": "https://dc.lft.to/lastmile_qr_scan"}, "is_reserved": 0, "is_disabled": 0, "name": "9b462fa4e97356fa326feeeee266296b", "bike_id": "9b462fa4e97356fa326feeeee266296b", "fusion_lat": 0.0, "lon": -77.03307983333333, "type": "electric_scooter", "fusion_lon": 0.0, "lat": 38.927394}, {"rental_uris": {"android": "https://dc.lft.to/lastmile_qr_scan", "ios": "https://dc.lft.to/lastmile_qr_scan"}, "is_reserved": 0, "is_disabled": 0, "name": "944869e762eb274b6a1b004643043721", "bike_id": "944869e762eb274b6a1b004643043721", "fusion_lat": 0.0, "lon": -77.0416385, "type": "electric_scooter", "fusion_lon": 0.0, "lat": 38.916048333333336}, {"rental_uris": {"android": "https://dc.lft.to/lastmile_qr_scan", "ios": "https://dc.lft.to/lastmile_qr_scan"}, "is_reserved": 0, "is_disabled": 0, "name": "cf72d9242f56b0800cd300aca9ca0e19", "bike_id": "cf72d9242f56b0800cd300aca9ca0e19", "fusion_lat": 0.0, "lon": -76.92506566666667, "type": "electric_scooter", "fusion_lon": 0.0, "lat": 38.88599266666667}, {"rental_uris": {"android": "https://dc.lft.to/lastmile_qr_scan", "ios": "https://dc.lft.to/lastmile_qr_scan"}, "is_reserved": 0, "is_disabled": 0, "name": "208a583022ca5d7483e8cf050feecbfe", "bike_id": "208a583022ca5d7483e8cf050feecbfe", "fusion_lat": 0.0, "lon": -76.99850183333334, "type": "electric_scooter", "fusion_lon": 0.0, "lat": 38.88492266666667}, {"rental_uris": {"android": "https://dc.lft.to/lastmile_qr_scan", "ios": "https://dc.lft.to/lastmile_qr_scan"}, "is_reserved": 0, "is_disabled": 0, "name": "f0778665c391cdd2eb24c3b49a3ddea1", "bike_id": "f0778665c391cdd2eb24c3b49a3ddea1", "fusion_lat": 0.0, "lon": -77.01714883333334, "type": "electric_scooter", "fusion_lon": 0.0, "lat": 38.87295}, {"rental_uris": {"android": "https://dc.lft.to/lastmile_qr_scan", "ios": "https://dc.lft.to/lastmile_qr_scan"}, "is_reserved": 0, "is_disabled": 0, "name": "083454ad2958358ee773debb15719301", "bike_id": "083454ad2958358ee773debb15719301", "fusion_lat": 0.0, "lon": -77.02085533333333, "type": "electric_scooter", "fusion_lon": 0.0, "lat": 38.902865166666665}, {"rental_uris": {"android": "https://dc.lft.to/lastmile_qr_scan", "ios": "https://dc.lft.to/lastmile_qr_scan"}, "is_reserved": 0, "is_disabled": 0, "name": "b3e03e8cfd7743646eaf44805da4ccdf", "bike_id": "b3e03e8cfd7743646eaf44805da4ccdf", "fusion_lat": 0.0, "lon": -77.04547, "type": "electric_scooter", "fusion_lon": 0.0, "lat": 38.896189},