{"data": {"bikes": [{"lon": -77.02436266666666, "bike_id": "9e7fae8fee3b3d00f508dfdc860bf5f1", "lat": 38.93748716666666, "fusion_lon": 0.0, "fusion_lat": 0.0, "type": "electric_scooter", "name": "9e7fae8fee3b3d00f508dfdc860bf5f1", "is_disabled": 0, "rental_uris": {"ios": "https://dc.lft.to/lastmile_qr_scan", "android": "https://dc.lft.to/lastmile_qr_scan"}, "is_reserved": 0}, {"lon": -77.03286016666667, "bike_id": "fa909571251df2bed854ee090b9183f0", "lat": 38.95649266666667, "fusion_lon": 0.0, "fusion_lat": 0.0, "type": "electric_scooter", "name": "fa909571251df2bed854ee090b9183f0", "is_disabled": 0, "rental_uris": {"ios": "https://dc.lft.to/lastmile_qr_scan", "android": "https://dc.lft.to/lastmile_qr_scan"}, "is_reserved": 0}, {"lon": -77.02508466666667, "bike_id": "5c7a18abccd0113fc729c77c4c7ab84e", "lat": 38.9052365, "fusion_lon": 0.0, "fusion_lat": 0.0, "type": "electric_scooter", "name": "5c7a18abccd0113fc729c77c4c7ab84e", "is_disabled": 0, "rental_uris": {"ios": "https://dc.lft.to/lastmile_qr_scan", "android": "https://dc.lft.to/lastmile_qr_scan"}, "is_reserved": 0}, {"lon": -77.04367116666667, "bike_id": "6018bcebd1a53f6b8e80f03142c334a6", "lat": 38.90243483333333, "fusion_lon": 0.0, "fusion_lat": 0.0, "type": "electric_scooter", "name": "6018bcebd1a53f6b8e80f03142c334a6", "is_disabled": 0, "rental_uris": {"ios": "https://dc.lft.to/lastmile_qr_scan", "android": "https://dc.lft.to/lastmile_qr_scan"}, "is_reserved": 0}, {"lon": -76.95749233333333, "bike_id": "aea36d2da1b8e9fae72e7a8b7242aac2", "lat": 38.884281666666666, "fusion_lon": 0.0, "fusion_lat": 0.0, "type": "electric_scooter", "name": "aea36d2da1b8e9fae72e7a8b7242aac2", "is_disabled": 0, "rental_uris": {"ios": "https://dc.lft.to/lastmile_qr_scan", "android": "https://dc.lft.to/lastmile_qr_scan"}, "is_reserved": 0}, {"lon": -76.9301115, "bike_id": "319536ea70cf73db8416199d130146a5", "lat": 38.896496666666664, "fusion_lon": 0.0, "fusion_lat": 0.0, "type": "electric_bike", "name": "319536ea70cf73db8416199d130146a5", "is_disabled": 0, "rental_uris": {"ios": "https://dc.lft.to/lastmile_qr_scan", "android": "https://dc.lft.to/lastmile_qr_scan"}, "is_reserved": 0}, {"lon": -77.03424883333334, "bike_id": "7941f5ab295dc0fc76558af5a5630d30", "lat": 38.93353183333333, "fusion_lon": 0.0, "fusion_lat": 0.0, "type": "electric_scooter", "name": "7941f5ab295dc0fc76558af5a5630d30", "is_disabled": 0, "rental_uris": {"ios": "https://dc.lft.to/lastmile_qr_scan", "android": "https://dc.lft.to/lastmile_qr_scan"}, "is_reserved": 0}, {"lon": -76.93645333333333, "bike_id": "153b02ae4fe14cbd071acc0bd1b29dae", "lat": 38.900639, "fusion_lon": 0.0, "fusion_lat": 0.0, "type": "electric_scooter", "name": "153b02ae4fe14cbd071acc0bd1b29dae", "is_disabled": 0, "rental_uris": {"ios": "https://dc.lft.to/lastmile_qr_scan", "android": "https://dc.lft.to/lastmile_qr_scan"}, "is_reserved": 0}, {"lon": -76.9317555, "bike_id": "9c820def24c7ba1d53ec2aecaf71ea88", "lat": 38.89883666666667, "fusion_lon": 0.0, "fusion_lat": 0.0, "type": "electric_scooter", "name": "9c820def24c7ba1d53ec2aecaf71ea88", "is_disabled": 0, "rental_uris": {"ios": "https://dc.lft.to/lastmile_qr_scan", "android": "https://dc.lft.to/lastmile_qr_scan"}, "is_reserved": 0}, {"lon": -76.9867755, "bike_id": "43753098a7f8f19dc8ff21b2b110788e", "lat": 38.88136016666667, "fusion_lon": 0.0, "fusion_lat": 0.0, "type": "electric_scooter", "name": "43753098a7f8f19dc8ff21b2b110788e", "is_disabled": 0, "rental_uris": {"ios": "https://dc.lft.to/lastmile_qr_scan", "android": "https://dc.lft.to/lastmile_qr_scan"}, "is_reserved": 0}, {"lon": -77.018095, "bike_id": "4b94621cf7b2c72c94857d212270f649", "lat": 38.9648535, "fusion_lon": 0.0, "fusion_lat": 0.0, "type": "electric_scooter", "name": "4b94621cf7b2c72c94857d212270f649", "is_disabled": 0, "rental_uris": {"ios": "https://dc.lft.to/lastmile_qr_scan", "android": "https://dc.lft.to/lastmile_qr_scan"}, "is_reserved": 0}, {"lon": -77.06036983333334, "bike_id": "3e83a6660ac5b5c82fbe64735ec03c53", "lat": 38.933713, "fusion_lon": 0.0, "fusion_lat": 0.0, "type": "electric_scooter", "name": "3e83a6660ac5b5c82fbe64735ec03c53", "is_disabled": 0, "rental_uris": {"ios": "https://dc.lft.to/lastmile_qr_scan", "android": "https://dc.lft.to/lastmile_qr_scan"}, "is_reserved": 0}, {"lon": -77.04650883333333, "bike_id": "83b9ddd4172a5a6a0f579c244843658e", "lat": 39.05495116666667, "fusion_lon": 0.0, "fusion_lat": 0.0, "type": "electric_bike", "name": "83b9ddd4172a5a6a0f579c244843658e", "is_disabled": 0, "rental_uris": {"ios": "https://dc.lft.to/lastmile_qr_scan", "android": "https://dc.lft.to/lastmile_qr_scan"}, "is_reserved": 0}, {"lon": -77.16239133333333, "bike_id": "5fb3d9b84cb2d12888b493b9f0509804", "lat": 38.886626666666665, "fusion_lon": 0.0, "fusion_lat": 0.0, "type": "electric_bike", "name": "5fb3d9b84cb2d12888b493b9f0509804", "is_disabled": 0, "rental_uris": {"ios": "https://dc.lft.to/lastmile_qr_scan", "android": "https://dc.lft.to/lastmile_qr_scan"}, "is_reserved": 0}, {"lon": -76.96130183333334, "bike_id": "5d19e03cea52eafd159a40ff7a45da18", "lat": 38.942111833333335, "fusion_lon": 0.0, "fusion_lat": 0.0, "type": "electric_bike", "name": "5d19e03cea52eafd159a40ff7a45da18", "is_disabled": 0, "rental_uris": {"ios": "https://dc.lft.to/lastmile_qr_scan", "android": "https://dc.lft.to/lastmile_qr_scan"}, "is_reserved": 0}, {"lon": -77.036197, "bike_id": "65ffb091044a5560c09283dca70fca32", "lat": 38.9309355, "fusion_lon": 0.0, "fusion_lat": 0.0, "type": "electric_scooter", "name": "65ffb091044a5560c09283dca70fca32", "is_disabled": 0, "rental_uris": {"ios": "https://dc.lft.to/lastmile_qr_scan", "android": "https://dc.lft.to/lastmile_qr_scan"}, "is_reserved": 0}, {"lon": -77.03881333333334, "bike_id": "33727a521dd895ba8cb7560dd870ec88", "lat": 38.948682833333336, "fusion_lon": 0.0, "fusion_lat": 0.0, "type": "electric_scooter", "name": "33727a521dd895ba8cb7560dd870ec88", "is_disabled": 0, "rental_uris": {"ios": "https://dc.lft.to/lastmile_qr_scan", "android": "https://dc.lft.to/lastmile_qr_scan"}, "is_reserved": 0}, {"lon": -76.88409883333334, "bike_id": "e0abaf63e2d2f4948df357ebcbe6693e", "lat": 38.931653833333336, "fusion_lon": 0.0, "fusion_lat": 0.0, "type": "electric_bike", "name": "e0abaf63e2d2f4948df357ebcbe6693e", "is_disabled": 0, "rental_uris": {"ios": "https://dc.lft.to/lastmile_qr_scan", "android": "https://dc.lft.to/lastmile_qr_scan"}, "is_reserved": 0}, {"lon": -77.0441945, "bike_id": "12302be37bc8b1de330e36ebfcd3c7a8", "lat": 38.912659, "fusion_lon": 0.0, "fusion_lat": 0.0, "type": "electric_scooter", "name": "12302be37bc8b1de330e36ebfcd3c7a8", "is_disabled": 0, "rental_uris": {"ios": "https://dc.lft.to/lastmile_qr_scan", "android": "https://dc.lft.to/lastmile_qr_scan"}, "is_reserved": 0}, {"lon": -77.05743516666666, "bike_id": "bb123a1a9d6988d7ecc7dad703f247e2", "lat": 38.93393916666667, "fusion_lon": 0.0, "fusion_lat": 0.0, "type": "electric_scooter", "name": "bb123a1a9d6988d7ecc7dad703f247e2", "is_disabled": 0, "rental_uris": {"ios": "https://dc.lft.to/lastmile_qr_scan", "android": "https://dc.lft.to/lastmile_qr_scan"}, "is_reserved": 0}, {"lon": -76.99710933333333, "bike_id": "78e632b420dcbfacc11e44494c1878ed", "lat": 38.90018233333333, "fusion_lon": 0.0, "fusion_lat": 0.0, "type": "electric_scooter", "name": "78e632b420dcbfacc11e44494c1878ed", "is_disabled": 0, "rental_uris": {"ios": "https://dc.lft.to/lastmile_qr_scan", "android": "https://dc.lft.to/lastmile_qr_scan"}, "is_reserved": 0}, {"lon": -77.031525, "bike_id": "fd566c6b2489a75bf59218fe3f8bc0a4", "lat": 38.928582166666665, "fusion_lon": 0.0, "fusion_lat": 0.0, "type": "electric_scooter", "name": "fd566c6b2489a75bf59218fe3f8bc0a4", "is_disabled": 0, "rental_uris": {"ios": "https://dc.lft.to/lastmile_qr_scan", "android": "https://dc.lft.to/lastmile_qr_scan"}, "is_reserved": 0}, {"lon": -77.027449, "bike_id": "0ebb235dc787ae18a2cff6aecad18d7d", "lat": 38.965684833333334, "fusion_lon": 0.0, "fusion_lat": 0.0, "type": "electric_bike", "name": "0ebb235dc787ae18a2cff6aecad18d7d", "is_disabled": 0, "rental_uris": {"ios": "https://dc.lft.to/lastmile_qr_scan", "android": "https://dc.lft.to/lastmile_qr_scan"}, "is_reserved": 0}, {"lon": -76.95661, "bike_id": "494507a552c84fbc5ce75d1bfc7a856f", "lat": 38.89627933333333, "fusion_lon": 0.0, "fusion_lat": 0.0, "type": "electric_scooter", "name": "494507a552c84fbc5ce75d1bfc7a856f", "is_disabled": 0, "rental_uris": {"ios": "https://dc.lft.to/lastmile_qr_scan", "android": "https://dc.lft.to/lastmile_qr_scan"}, "is_reserved": 0}, {"lon": -77.05148166666666, "bike_id": "281858ffe5050a0bf048d1067ce9f07a", "lat": 38.90510716666667, "fusion_lon": 0.0, "fusion_lat": 0.0, "type": "electric_scooter", "name": "281858ffe5050a0bf048d1067ce9f07a", "is_disabled": 0, "rental_uris": {"ios": "https://dc.lft.to/lastmile_qr_scan", "android": "https://dc.lft.to/lastmile_qr_scan"}, "is_reserved": 0}, {"lon": -76.98233033333334, "bike_id": "edd3c98f876ccd7873018b328ea3c144", "lat": 38.916504, "fusion_lon": 0.0, "fusion_lat": 0.0, "type": "electric_scooter", "name": "edd3c98f876ccd7873018b328ea3c144", "is_disabled": 0, "rental_uris": {"ios": "https://dc.lft.to/lastmile_qr_scan", "android": "https://dc.lft.to/lastmile_qr_scan"}, "is_reserved": 0}, {"lon": -77.0271575, "bike_id": "5aa85bd17fb23e38f904348921fe7583", "lat": 38.906711333333334, "fusion_lon": 0.0, "fusion_lat": 0.0, "type": "electric_scooter", "name": "5aa85bd17fb23e38f904348921fe7583", "is_disabled": 0, "rental_uris": {"ios": "https://dc.lft.to/lastmile_qr_scan", "android": "https://dc.lft.to/lastmile_qr_scan"}, "is_reserved": 0}, {"lon": -77.030896, "bike_id": "f2351f3087462fdbd045dd6cac6c5a63", "lat": 38.917085166666666, "fusion_lon": 0.0, "fusion_lat": 0.0, "type": "electric_scooter", "name": "f2351f3087462fdbd045dd6cac6c5a63", "is_disabled": 0, "rental_uris": {"ios": "https://dc.lft.to/lastmile_qr_scan", "android": "https://dc.lft.to/lastmile_qr_scan"}, "is_reserved": 0}, {"lon": -77.047557, "bike_id": "84dca38c0b420178d94b122a575e51cc", "lat": 38.91757466666667, "fusion_lon": 0.0, "fusion_lat": 0.0, "type": "electric_scooter", "name": "84dca38c0b420178d94b122a575e51cc", "is_disabled": 0, "rental_uris": {"ios": "https://dc.lft.to/lastmile_qr_scan", "android": "https://dc.lft.to/lastmile_qr_scan"}, "is_reserved": 0}, {"lon": -77.02234066666666, "bike_id": "c427ada623e78f78efc2509caa59508b", "lat": 38.96206083333333, "fusion_lon": 0.0, "fusion_lat": 0.0, "type": "electric_scooter", "name": "c427ada623e78f78efc2509caa59508b", "is_disabled": 0, "rental_uris": {"ios": "https://dc.lft.to/lastmile_qr_scan", "android": "https://dc.lft.to/lastmile_qr_scan"}, "is_reserved": 0}, {"lon": -77.03245316666667, "bike_id": "f2ef3f26dc92d87a2d87e208d5bff63b", "lat": 38.915565666666666, "fusion_lon": 0.0, "fusion_lat": 0.0, "type": "electric_scooter", "name": "f2ef3f26dc92d87a2d87e208d5bff63b", "is_disabled": 0, "rental_uris": {"ios": "https://dc.lft.to/lastmile_qr_scan", "android": "https://dc.lft.to/lastmile_qr_scan"}, "is_reserved": 0}, {"lon": -77.131051, "bike_id": "854314296d8f31e3d776295214fe038c", "lat": 39.02434233333334, "fusion_lon": 0.0, "fusion_lat": 0.0, "type": "electric_bike", "name": "854314296d8f31e3d776295214fe038c", "is_disabled": 0, "rental_uris": {"ios": "https://dc.lft.to/lastmile_qr_scan", "android": "https://dc.lft.to/lastmile_qr_scan"}, "is_reserved": 0}, {"lon": -77.043475, "bike_id": "0ad3ce64c433945f2836a1b1854be65b", "lat": 38.90625416666666, "fusion_lon": 0.0, "fusion_lat": 0.0, "type": "electric_scooter", "name": "0ad3ce64c433945f2836a1b1854be65b", "is_disabled": 0, "rental_uris": {"ios": "https://dc.lft.to/lastmile_qr_scan", "android": "https://dc.lft.to/lastmile_qr_scan"}, "is_reserved": 0}, {"lon": -76.988372, "bike_id": "abfc2edc35b78cb6bd57ff2153f9c4ab", "lat": 38.900467166666665, "fusion_lon": 0.0, "fusion_lat": 0.0, "type": "electric_scooter", "name": "abfc2edc35b78cb6bd57ff2153f9c4ab", "is_disabled": 0, "rental_uris": {"ios": "https://dc.lft.to/lastmile_qr_scan", "android": "https://dc.lft.to/lastmile_qr_scan"}, "is_reserved": 0}, {"lon": -77.034707, "bike_id": "8f96e5b6d4690343c19f345033b2ba76", "lat": 38.92159483333333, "fusion_lon": 0.0, "fusion_lat": 0.0, "type": "electric_scooter", "name": "8f96e5b6d4690343c19f345033b2ba76", "is_disabled": 0, "rental_uris": {"ios": "https://dc.lft.to/lastmile_qr_scan", "android": "https://dc.lft.to/lastmile_qr_scan"}, "is_reserved": 0}, {"lon": -77.0321745, "bike_id": "9d3a5940b1cf2ee4c104fca2a0bbca8d", "lat": 38.9156255, "fusion_lon": 0.0, "fusion_lat": 0.0, "type": "electric_scooter", "name": "9d3a5940b1cf2ee4c104fca2a0bbca8d", "is_disabled": 0, "rental_uris": {"ios": "https://dc.lft.to/lastmile_qr_scan", "android": "https://dc.lft.to/lastmile_qr_scan"}, "is_reserved": 0}, {"lon": -77.003439, "bike_id": "bee3fcdc668cd453b5c611e30ab19567", "lat": 38.88719, "fusion_lon": 0.0, "fusion_lat": 0.0, "type": "electric_scooter", "name": "bee3fcdc668cd453b5c611e30ab19567", "is_disabled": 0, "rental_uris": {"ios": "https://dc.lft.to/lastmile_qr_scan", "android": "https://dc.lft.to/lastmile_qr_scan"}, "is_reserved": 0}, {"lon": -77.0354325, "bike_id": "406966da860f724d2105ad8a0ae17ced", "lat": 38.924184333333336, "fusion_lon": 0.0, "fusion_lat": 0.0, "type": "electric_scooter", "name": "406966da860f724d2105ad8a0ae17ced", "is_disabled": 0, "rental_uris": {"ios": "https://dc.lft.to/lastmile_qr_scan", "android": "https://dc.lft.to/lastmile_qr_scan"}, "is_reserved": 0}, {"lon": -77.03180583333334, "bike_id": "c1910bc72fdd3d9137bb7a84bb3c229a", "lat": 38.909785166666666, "fusion_lon": 0.0, "fusion_lat": 0.0, "type": "electric_scooter", "name": "c1910bc72fdd3d9137bb7a84bb3c229a", "is_disabled": 0, "rental_uris": {"ios": "https://dc.lft.to/lastmile_qr_scan", "android": "https://dc.lft.to/lastmile_qr_scan"}, "is_reserved": 0}, {"lon": -77.03213816666667, "bike_id": "61efe42047645ce178699bf860b4d280", "lat": 38.922792, "fusion_lon": 0.0, "fusion_lat": 0.0, "type": "electric_scooter", "name": "61efe42047645ce178699bf860b4d280", "is_disabled": 0, "rental_uris": {"ios": "https://dc.lft.to/lastmile_qr_scan", "android": "https://dc.lft.to/lastmile_qr_scan"}, "is_reserved": 0}, {"lon": -77.07718933333334, "bike_id": "60d11e88acb20dd3c5e266a6f0668949", "lat": 38.88854083333333, "fusion_lon": 0.0, "fusion_lat": 0.0, "type": "electric_bike", "name": "60d11e88acb20dd3c5e266a6f0668949", "is_disabled": 0, "rental_uris": {"ios": "https://dc.lft.to/lastmile_qr_scan", "android": "https://dc.lft.to/lastmile_qr_scan"}, "is_reserved": 0}, {"lon": -77.05626316666667, "bike_id": "a1f73d11c35a1977ec4f7b35d11cb0e2", "lat": 38.960722, "fusion_lon": 0.0, "fusion_lat": 0.0, "type": "electric_scooter", "name": "a1f73d11c35a1977ec4f7b35d11cb0e2", "is_disabled": 0, "rental_uris": {"ios": "https://dc.lft.to/lastmile_qr_scan", "android": "https://dc.lft.to/lastmile_qr_scan"}, "is_reserved": 0}, {"lon": -77.00364333333333, "bike_id": "e636f2578f4de73671c66d7e60a99926", "lat": 38.89735483333333, "fusion_lon": 0.0, "fusion_lat": 0.0, "type": "electric_scooter", "name": "e636f2578f4de73671c66d7e60a99926", "is_disabled": 0, "rental_uris": {"ios": "https://dc.lft.to/lastmile_qr_scan", "android": "https://dc.lft.to/lastmile_qr_scan"}, "is_reserved": 0}, {"lon": -77.02170533333333, "bike_id": "e15f46084ce8035fdd9f119bb481b38d", "lat": 38.915078333333334, "fusion_lon": 0.0, "fusion_lat": 0.0, "type": "electric_scooter", "name": "e15f46084ce8035fdd9f119bb481b38d", "is_disabled": 0, "rental_uris": {"ios": "https://dc.lft.to/lastmile_qr_scan", "android": "https://dc.lft.to/lastmile_qr_scan"}, "is_reserved": 0}, {"lon": -77.032598, "bike_id": "66ac08a36de91f7400abed3d27bb97e4", "lat": 38.935319, "fusion_lon": 0.0, "fusion_lat": 0.0, "type": "electric_scooter", "name": "66ac08a36de91f7400abed3d27bb97e4", "is_disabled": 0, "rental_uris": {"ios": "https://dc.lft.to/lastmile_qr_scan", "android": "https://dc.lft.to/lastmile_qr_scan"}, "is_reserved": 0}, {"lon": -77.00249666666667, "bike_id": "ff54e33aed4b913f2383d58fca430bfc", "lat": 38.8850635, "fusion_lon": 0.0, "fusion_lat": 0.0, "type": "electric_scooter", "name": "ff54e33aed4b913f2383d58fca430bfc", "is_disabled": 0, "rental_uris": {"ios": "https://dc.lft.to/lastmile_qr_scan", "android": "https://dc.lft.to/lastmile_qr_scan"}, "is_reserved": 0}, {"lon": -77.00615566666667, "bike_id": "62f5899d396f6a90e28fa5ff097a9cb7", "lat": 38.900286, "fusion_lon": 0.0, "fusion_lat": 0.0, "type": "electric_scooter", "name": "62f5899d396f6a90e28fa5ff097a9cb7", "is_disabled": 0, "rental_uris": {"ios": "https://dc.lft.to/lastmile_qr_scan", "android": "https://dc.lft.to/lastmile_qr_scan"}, "is_reserved": 0}, {"lon": -77.01502966666666, "bike_id": "498ea8eb7b83c8679fb93f8bb30ae800", "lat": 38.94533366666667, "fusion_lon": 0.0, "fusion_lat": 0.0, "type": "electric_scooter", "name": "498ea8eb7b83c8679fb93f8bb30ae800", "is_disabled": 0, "rental_uris": {"ios": "https://dc.lft.to/lastmile_qr_scan", "android": "https://dc.lft.to/lastmile_qr_scan"}, "is_reserved": 0}, {"lon": -76.98247666666667, "bike_id": "870c4b6d5cc244f2bd521ab321458aec", "lat": 38.864579666666664, "fusion_lon": 0.0, "fusion_lat": 0.0, "type": "electric_scooter", "name": "870c4b6d5cc244f2bd521ab321458aec", "is_disabled": 0, "rental_uris": {"ios": "https://dc.lft.to/lastmile_qr_scan", "android": "https://dc.lft.to/lastmile_qr_scan"}, "is_reserved": 0}, {"lon": -77.03152633333333, "bike_id": "7b0b33f9b14fd3057f6e7ebb0a434217", "lat": 38.9170225, "fusion_lon": 0.0, "fusion_lat": 0.0, "type": "electric_scooter", "name": "7b0b33f9b14fd3057f6e7ebb0a434217", "is_disabled": 0, "rental_uris": {"ios": "https://dc.lft.to/lastmile_qr_scan", "android": "https://dc.lft.to/lastmile_qr_scan"}, "is_reserved": 0}, {"lon": -77.00288866666666, "bike_id": "fba22bd667f292503dbd6e031cb856cb", "lat": 38.901376, "fusion_lon": 0.0, "fusion_lat": 0.0, "type": "electric_scooter", "name": "fba22bd667f292503dbd6e031cb856cb", "is_disabled": 0, "rental_uris": {"ios": "https://dc.lft.to/lastmile_qr_scan", "android": "https://dc.lft.to/lastmile_qr_scan"}, "is_reserved": 0}, {"lon": -77.04694333333333, "bike_id": "a6948bd1f3710501850c7947ab80221e", "lat": 38.91895516666666, "fusion_lon": 0.0, "fusion_lat": 0.0, "type": "electric_scooter", "name": "a6948bd1f3710501850c7947ab80221e", "is_disabled": 0, "rental_uris": {"ios": "https://dc.lft.to/lastmile_qr_scan", "android": "https://dc.lft.to/lastmile_qr_scan"}, "is_reserved": 0}, {"lon": -77.04002216666666, "bike_id": "2b0e48432ee7ca05cb7481147642ee86", "lat": 38.934280666666666, "fusion_lon": 0.0, "fusion_lat": 0.0, "type": "electric_scooter", "name": "2b0e48432ee7ca05cb7481147642ee86", "is_disabled": 0, "rental_uris": {"ios": "https://dc.lft.to/lastmile_qr_scan", "android": "https://dc.lft.to/lastmile_qr_scan"}, "is_reserved": 0}, {"lon": -76.98104616666667, "bike_id": "615390f00f1af46e892f4a2a39187c0a", "lat": 38.877311, "fusion_lon": 0.0, "fusion_lat": 0.0, "type": "electric_bike", "name": "615390f00f1af46e892f4a2a39187c0a", "is_disabled": 0, "rental_uris": {"ios": "https://dc.lft.to/lastmile_qr_scan", "android": "https://dc.lft.to/lastmile_qr_scan"}, "is_reserved": 0}, {"lon": -76.94945233333334, "bike_id": "f8302d4f1966a0e18a95e161fcb7fcc1", "lat": 38.903719833333334, "fusion_lon": 0.0, "fusion_lat": 0.0, "type": "electric_scooter", "name": "f8302d4f1966a0e18a95e161fcb7fcc1", "is_disabled": 0, "rental_uris": {"ios": "https://dc.lft.to/lastmile_qr_scan", "android": "https://dc.lft.to/lastmile_qr_scan"}, "is_reserved": 0}, {"lon": -77.05858766666667, "bike_id": "50c5e4c75ab111dd68e15bbaef88d61d", "lat": 38.93608233333333, "fusion_lon": 0.0, "fusion_lat": 0.0, "type": "electric_scooter", "name": "50c5e4c75ab111dd68e15bbaef88d61d", "is_disabled": 0, "rental_uris": {"ios": "https://dc.lft.to/lastmile_qr_scan", "android": "https://dc.lft.to/lastmile_qr_scan"}, "is_reserved": 0}, {"lon": -77.04381016666666, "bike_id": "1f8c13c61185ce9e28aa79bc61d12fc9", "lat": 38.92069033333333, "fusion_lon": 0.0, "fusion_lat": 0.0, "type": "electric_scooter", "name": "1f8c13c61185ce9e28aa79bc61d12fc9", "is_disabled": 0, "rental_uris": {"ios": "https://dc.lft.to/lastmile_qr_scan", "android": "https://dc.lft.to/lastmile_qr_scan"}, "is_reserved": 0}, {"lon": -77.00114266666667, "bike_id": "94045857796ea6d429bad59b480131db", "lat": 38.91966733333334, "fusion_lon": 0.0, "fusion_lat": 0.0, "type": "electric_scooter", "name": "94045857796ea6d429bad59b480131db", "is_disabled": 0, "rental_uris": {"ios": "https://dc.lft.to/lastmile_qr_scan", "android": "https://dc.lft.to/lastmile_qr_scan"}, "is_reserved": 0}, {"lon": -77.0325855, "bike_id": "38cbf47b7a6585244ede1dd244fbc92f", "lat": 38.90042366666667, "fusion_lon": 0.0, "fusion_lat": 0.0, "type": "electric_scooter", "name": "38cbf47b7a6585244ede1dd244fbc92f", "is_disabled": 0, "rental_uris": {"ios": "https://dc.lft.to/lastmile_qr_scan", "android": "https://dc.lft.to/lastmile_qr_scan"}, "is_reserved": 0}, {"lon": -77.02779316666667, "bike_id": "7742c905bc826230cf332fc47a1504bb", "lat": 38.902571, "fusion_lon": 0.0, "fusion_lat": 0.0, "type": "electric_scooter", "name": "7742c905bc826230cf332fc47a1504bb", "is_disabled": 0, "rental_uris": {"ios": "https://dc.lft.to/lastmile_qr_scan", "android": "https://dc.lft.to/lastmile_qr_scan"}, "is_reserved": 0}, {"lon": -77.00187333333334, "bike_id": "b0e94e6ec414a69e6919dc909a3f3a72", "lat": 38.89476466666667, "fusion_lon": 0.0, "fusion_lat": 0.0, "type": "electric_scooter", "name": "b0e94e6ec414a69e6919dc909a3f3a72", "is_disabled": 0, "rental_uris": {"ios": "https://dc.lft.to/lastmile_qr_scan", "android": "https://dc.lft.to/lastmile_qr_scan"}, "is_reserved": 0}, {"lon": -76.997873, "bike_id": "a872fd929cf34a9537884d2cef768aa8", "lat": 38.890946666666665, "fusion_lon": 0.0, "fusion_lat": 0.0, "type": "electric_scooter", "name": "a872fd929cf34a9537884d2cef768aa8", "is_disabled": 0, "rental_uris": {"ios": "https://dc.lft.to/lastmile_qr_scan", "android": "https://dc.lft.to/lastmile_qr_scan"}, "is_reserved": 0}, {"lon": -76.99874433333333, "bike_id": "41ce9c6af3b1b52e534bb5682b7c7924", "lat": 38.900259166666665, "fusion_lon": 0.0, "fusion_lat": 0.0, "type": "electric_scooter", "name": "41ce9c6af3b1b52e534bb5682b7c7924", "is_disabled": 0, "rental_uris": {"ios": "https://dc.lft.to/lastmile_qr_scan", "android": "https://dc.lft.to/lastmile_qr_scan"}, "is_reserved": 0}, {"lon": -76.98523266666666, "bike_id": "65f18e9f2b4750ab0e08da5159563937", "lat": 38.86685033333333, "fusion_lon": 0.0, "fusion_lat": 0.0, "type": "electric_scooter", "name": "65f18e9f2b4750ab0e08da5159563937", "is_disabled": 0, "rental_uris": {"ios": "https://dc.lft.to/lastmile_qr_scan", "android": "https://dc.lft.to/lastmile_qr_scan"}, "is_reserved": 0}, {"lon": -77.00005833333333, "bike_id": "7ec523627faed45f7974d531a378dfb3", "lat": 38.924446, "fusion_lon": 0.0, "fusion_lat": 0.0, "type": "electric_scooter", "name": "7ec523627faed45f7974d531a378dfb3", "is_disabled": 0, "rental_uris": {"ios": "https://dc.lft.to/lastmile_qr_scan", "android": "https://dc.lft.to/lastmile_qr_scan"}, "is_reserved": 0}, {"lon": -76.950039, "bike_id": "e335fc206903c074000a8c470dcec255", "lat": 38.8937915, "fusion_lon": 0.0, "fusion_lat": 0.0, "type": "electric_scooter", "name": "e335fc206903c074000a8c470dcec255", "is_disabled": 0, "rental_uris": {"ios": "https://dc.lft.to/lastmile_qr_scan", "android": "https://dc.lft.to/lastmile_qr_scan"}, "is_reserved": 0}, {"lon": -76.9887925, "bike_id": "eed806817c961d85810599a9bcbe5dcd", "lat": 38.866581333333336, "fusion_lon": 0.0, "fusion_lat": 0.0, "type": "electric_scooter", "name": "eed806817c961d85810599a9bcbe5dcd", "is_disabled": 0, "rental_uris": {"ios": "https://dc.lft.to/lastmile_qr_scan", "android": "https://dc.lft.to/lastmile_qr_scan"}, "is_reserved": 0}, {"lon": -77.021812, "bike_id": "bc8a0caaf903d8bc3e5d0df4060085c8", "lat": 38.9095745, "fusion_lon": 0.0, "fusion_lat": 0.0, "type": "electric_scooter", "name": "bc8a0caaf903d8bc3e5d0df4060085c8", "is_disabled": 0, "rental_uris": {"ios": "https://dc.lft.to/lastmile_qr_scan", "android": "https://dc.lft.to/lastmile_qr_scan"}, "is_reserved": 0}, {"lon": -77.00892666666667, "bike_id": "640db801e19fe25523b4631691036939", "lat": 38.922793166666665, "fusion_lon": 0.0, "fusion_lat": 0.0, "type": "electric_scooter", "name": "640db801e19fe25523b4631691036939", "is_disabled": 0, "rental_uris": {"ios": "https://dc.lft.to/lastmile_qr_scan", "android": "https://dc.lft.to/lastmile_qr_scan"}, "is_reserved": 0}, {"lon": -77.23320933333333, "bike_id": "32e5bcf3676902ebc41cefbe43a9dcb6", "lat": 38.872835, "fusion_lon": 0.0, "fusion_lat": 0.0, "type": "electric_bike", "name": "32e5bcf3676902ebc41cefbe43a9dcb6", "is_disabled": 0, "rental_uris": {"ios": "https://dc.lft.to/lastmile_qr_scan", "android": "https://dc.lft.to/lastmile_qr_scan"}, "is_reserved": 0}, {"lon": -77.02828466666666, "bike_id": "79bc530b1e5b085c2c8eb51f084cc3f7", "lat": 38.887307166666666, "fusion_lon": 0.0, "fusion_lat": 0.0, "type": "electric_scooter", "name": "79bc530b1e5b085c2c8eb51f084cc3f7", "is_disabled": 0, "rental_uris": {"ios": "https://dc.lft.to/lastmile_qr_scan", "android": "https://dc.lft.to/lastmile_qr_scan"}, "is_reserved": 0}, {"lon": -77.02864383333333, "bike_id": "e606fd001f2f5ce99b70ce92f9df35bd", "lat": 38.90421833333333, "fusion_lon": 0.0, "fusion_lat": 0.0, "type": "electric_scooter", "name": "e606fd001f2f5ce99b70ce92f9df35bd", "is_disabled": 0, "rental_uris": {"ios": "https://dc.lft.to/lastmile_qr_scan", "android": "https://dc.lft.to/lastmile_qr_scan"}, "is_reserved": 0}, {"lon": -76.972986, "bike_id": "8d3e70e9b37b9f9b311914b1736209f3", "lat": 38.91644266666667, "fusion_lon": 0.0, "fusion_lat": 0.0, "type": "electric_bike", "name": "8d3e70e9b37b9f9b311914b1736209f3", "is_disabled": 0, "rental_uris": {"ios": "https://dc.lft.to/lastmile_qr_scan", "android": "https://dc.lft.to/lastmile_qr_scan"}, "is_reserved": 0}, {"lon": -77.233254, "bike_id": "7ed341a26c4413c8affa7d6f98011716", "lat": 38.8727485, "fusion_lon": 0.0, "fusion_lat": 0.0, "type": "electric_bike", "name": "7ed341a26c4413c8affa7d6f98011716", "is_disabled": 0, "rental_uris": {"ios": "https://dc.lft.to/lastmile_qr_scan", "android": "https://dc.lft.to/lastmile_qr_scan"}, "is_reserved": 0}, {"lon": -76.965361, "bike_id": "710e98ff0bdb741d8a9550ece8709b55", "lat": 38.918439166666666, "fusion_lon": 0.0, "fusion_lat": 0.0, "type": "electric_scooter", "name": "710e98ff0bdb741d8a9550ece8709b55", "is_disabled": 0, "rental_uris": {"ios": "https://dc.lft.to/lastmile_qr_scan", "android": "https://dc.lft.to/lastmile_qr_scan"}, "is_reserved": 0}, {"lon": -77.0028725, "bike_id": "27381bd5218d9112b70a20c1ed082460", "lat": 38.90591533333333, "fusion_lon": 0.0, "fusion_lat": 0.0, "type": "electric_scooter", "name": "27381bd5218d9112b70a20c1ed082460", "is_disabled": 0, "rental_uris": {"ios": "https://dc.lft.to/lastmile_qr_scan", "android": "https://dc.lft.to/lastmile_qr_scan"}, "is_reserved": 0}, {"lon": -77.05890783333334, "bike_id": "430ca392a0dc06bce3ff4069fcac2efc", "lat": 38.9361125, "fusion_lon": 0.0, "fusion_lat": 0.0, "type": "electric_scooter", "name": "430ca392a0dc06bce3ff4069fcac2efc", "is_disabled": 0, "rental_uris": {"ios": "https://dc.lft.to/lastmile_qr_scan", "android": "https://dc.lft.to/lastmile_qr_scan"}, "is_reserved": 0}, {"lon": -77.02157266666667, "bike_id": "3b87c51bacad9d37e2ca1cf94cac7695", "lat": 38.926031, "fusion_lon": 0.0, "fusion_lat": 0.0, "type": "electric_scooter", "name": "3b87c51bacad9d37e2ca1cf94cac7695", "is_disabled": 0, "rental_uris": {"ios": "https://dc.lft.to/lastmile_qr_scan", "android": "https://dc.lft.to/lastmile_qr_scan"}, "is_reserved": 0}, {"lon": -76.98919566666666, "bike_id": "018c2dc5d48039713018dd2e5ddd9ad7", "lat": 38.88205816666667, "fusion_lon": 0.0, "fusion_lat": 0.0, "type": "electric_scooter", "name": "018c2dc5d48039713018dd2e5ddd9ad7", "is_disabled": 0, "rental_uris": {"ios": "https://dc.lft.to/lastmile_qr_scan", "android": "https://dc.lft.to/lastmile_qr_scan"}, "is_reserved": 0}, {"lon": -77.03524383333334, "bike_id": "cbf7e7c4d23d94d5be75462eb8c281c5", "lat": 38.906799, "fusion_lon": 0.0, "fusion_lat": 0.0, "type": "electric_scooter", "name": "cbf7e7c4d23d94d5be75462eb8c281c5", "is_disabled": 0, "rental_uris": {"ios": "https://dc.lft.to/lastmile_qr_scan", "android": "https://dc.lft.to/lastmile_qr_scan"}, "is_reserved": 0}, {"lon": -77.1390595, "bike_id": "fd9d2bdd886ef0baf3fa6459d1635f91", "lat": 38.896740666666666, "fusion_lon": 0.0, "fusion_lat": 0.0, "type": "electric_bike", "name": "fd9d2bdd886ef0baf3fa6459d1635f91", "is_disabled": 0, "rental_uris": {"ios": "https://dc.lft.to/lastmile_qr_scan", "android": "https://dc.lft.to/lastmile_qr_scan"}, "is_reserved": 0}, {"lon": -77.02711116666667, "bike_id": "dfad45fac373441f74345c718493367f", "lat": 38.902590333333336, "fusion_lon": 0.0, "fusion_lat": 0.0, "type": "electric_scooter", "name": "dfad45fac373441f74345c718493367f", "is_disabled": 0, "rental_uris": {"ios": "https://dc.lft.to/lastmile_qr_scan", "android": "https://dc.lft.to/lastmile_qr_scan"}, "is_reserved": 0}, {"lon": -77.01481216666667, "bike_id": "5e12c82b7685e0fc10c2047c2900263a", "lat": 38.958717166666666, "fusion_lon": 0.0, "fusion_lat": 0.0, "type": "electric_scooter", "name": "5e12c82b7685e0fc10c2047c2900263a", "is_disabled": 0, "rental_uris": {"ios": "https://dc.lft.to/lastmile_qr_scan", "android": "https://dc.lft.to/lastmile_qr_scan"}, "is_reserved": 0}, {"lon": -77.03207016666667, "bike_id": "34e23ccbf06bcc5f48605ad4f6e08ab6", "lat": 38.92169583333333, "fusion_lon": 0.0, "fusion_lat": 0.0, "type": "electric_scooter", "name": "34e23ccbf06bcc5f48605ad4f6e08ab6", "is_disabled": 0, "rental_uris": {"ios": "https://dc.lft.to/lastmile_qr_scan", "android": "https://dc.lft.to/lastmile_qr_scan"}, "is_reserved": 0}, {"lon": -77.0552275, "bike_id": "7addff7e10d37e7ad76dce39712533bd", "lat": 38.897289666666666, "fusion_lon": 0.0, "fusion_lat": 0.0, "type": "electric_scooter", "name": "7addff7e10d37e7ad76dce39712533bd", "is_disabled": 0, "rental_uris": {"ios": "https://dc.lft.to/lastmile_qr_scan", "android": "https://dc.lft.to/lastmile_qr_scan"}, "is_reserved": 0}, {"lon": -77.1157545, "bike_id": "e89145140d749e36a78da6a9a9f20568", "lat": 38.9934495, "fusion_lon": 0.0, "fusion_lat": 0.0, "type": "electric_bike", "name": "e89145140d749e36a78da6a9a9f20568", "is_disabled": 0, "rental_uris": {"ios": "https://dc.lft.to/lastmile_qr_scan", "android": "https://dc.lft.to/lastmile_qr_scan"}, "is_reserved": 0}, {"lon": -76.98526433333333, "bike_id": "29be0fe01966758a7426e5c17518dd56", "lat": 38.86685883333333, "fusion_lon": 0.0, "fusion_lat": 0.0, "type": "electric_scooter", "name": "29be0fe01966758a7426e5c17518dd56", "is_disabled": 0, "rental_uris": {"ios": "https://dc.lft.to/lastmile_qr_scan", "android": "https://dc.lft.to/lastmile_qr_scan"}, "is_reserved": 0}, {"lon": -77.024616, "bike_id": "413f5f1239d578e4a9a6f0fcbd73f57d", "lat": 38.920675, "fusion_lon": 0.0, "fusion_lat": 0.0, "type": "electric_scooter", "name": "413f5f1239d578e4a9a6f0fcbd73f57d", "is_disabled": 0, "rental_uris": {"ios": "https://dc.lft.to/lastmile_qr_scan", "android": "https://dc.lft.to/lastmile_qr_scan"}, "is_reserved": 0}, {"lon": -77.03496933333334, "bike_id": "04049954e3cb484dcfbd7ddb7e22d9af", "lat": 38.9346, "fusion_lon": 0.0, "fusion_lat": 0.0, "type": "electric_scooter", "name": "04049954e3cb484dcfbd7ddb7e22d9af", "is_disabled": 0, "rental_uris": {"ios": "https://dc.lft.to/lastmile_qr_scan", "android": "https://dc.lft.to/lastmile_qr_scan"}, "is_reserved": 0}, {"lon": -77.03126833333333, "bike_id": "bce0c1f002b8be907fcae87aba71d717", "lat": 38.9045175, "fusion_lon": 0.0, "fusion_lat": 0.0, "type": "electric_scooter", "name": "bce0c1f002b8be907fcae87aba71d717", "is_disabled": 0, "rental_uris": {"ios": "https://dc.lft.to/lastmile_qr_scan", "android": "https://dc.lft.to/lastmile_qr_scan"}, "is_reserved": 0}, {"lon": -77.02804683333333, "bike_id": "83a15df4f7f00607d564158979ee4cf8", "lat": 38.917001666666664, "fusion_lon": 0.0, "fusion_lat": 0.0, "type": "electric_scooter", "name": "83a15df4f7f00607d564158979ee4cf8", "is_disabled": 0, "rental_uris": {"ios": "https://dc.lft.to/lastmile_qr_scan", "android": "https://dc.lft.to/lastmile_qr_scan"}, "is_reserved": 0}, {"lon": -77.03189433333333, "bike_id": "36c73033e45a3de9e1067648f774e544", "lat": 38.91238966666667, "fusion_lon": 0.0, "fusion_lat": 0.0, "type": "electric_scooter", "name": "36c73033e45a3de9e1067648f774e544", "is_disabled": 0, "rental_uris": {"ios": "https://dc.lft.to/lastmile_qr_scan", "android": "https://dc.lft.to/lastmile_qr_scan"}, "is_reserved": 0}, {"lon": -77.05457583333333, "bike_id": "ca2f5fee04202d1ad0b16c8fdc3fa4a2", "lat": 38.8554655, "fusion_lon": 0.0, "fusion_lat": 0.0, "type": "electric_bike", "name": "ca2f5fee04202d1ad0b16c8fdc3fa4a2", "is_disabled": 0, "rental_uris": {"ios": "https://dc.lft.to/lastmile_qr_scan", "android": "https://dc.lft.to/lastmile_qr_scan"}, "is_reserved": 0}, {"lon": -76.97618583333333, "bike_id": "0063172183fa8d084f5b8fee1b760cd1", "lat": 38.92653716666667, "fusion_lon": 0.0, "fusion_lat": 0.0, "type": "electric_scooter", "name": "0063172183fa8d084f5b8fee1b760cd1", "is_disabled": 0, "rental_uris": {"ios": "https://dc.lft.to/lastmile_qr_scan", "android": "https://dc.lft.to/lastmile_qr_scan"}, "is_reserved": 0}, {"lon": -77.01429183333333, "bike_id": "e15c2dfd1f2a8deb2bc2788960a45463", "lat": 38.972203666666665, "fusion_lon": 0.0, "fusion_lat": 0.0, "type": "electric_bike", "name": "e15c2dfd1f2a8deb2bc2788960a45463", "is_disabled": 0, "rental_uris": {"ios": "https://dc.lft.to/lastmile_qr_scan", "android": "https://dc.lft.to/lastmile_qr_scan"}, "is_reserved": 0}, {"lon": -77.04363966666666, "bike_id": "02b8aa81284e81bad366b6db47efabda", "lat": 38.92147533333333, "fusion_lon": 0.0, "fusion_lat": 0.0, "type": "electric_scooter", "name": "02b8aa81284e81bad366b6db47efabda", "is_disabled": 0, "rental_uris": {"ios": "https://dc.lft.to/lastmile_qr_scan", "android": "https://dc.lft.to/lastmile_qr_scan"}, "is_reserved": 0}, {"lon": -77.01864616666667, "bike_id": "e616085c09d55e0b41af0bf142c07fc3", "lat": 38.9515015, "fusion_lon": 0.0, "fusion_lat": 0.0, "type": "electric_scooter", "name": "e616085c09d55e0b41af0bf142c07fc3", "is_disabled": 0, "rental_uris": {"ios": "https://dc.lft.to/lastmile_qr_scan", "android": "https://dc.lft.to/lastmile_qr_scan"}, "is_reserved": 0}, {"lon": -77.026092, "bike_id": "5d680792d8143e3c14d7703a3a6cd006", "lat": 38.9185305, "fusion_lon": 0.0, "fusion_lat": 0.0, "type": "electric_scooter", "name": "5d680792d8143e3c14d7703a3a6cd006", "is_disabled": 0, "rental_uris": {"ios": "https://dc.lft.to/lastmile_qr_scan", "android": "https://dc.lft.to/lastmile_qr_scan"}, "is_reserved": 0}, {"lon": -77.03922533333333, "bike_id": "ab3e9897e5f552ed9ac1072e116ab540", "lat": 38.927966166666664, "fusion_lon": 0.0, "fusion_lat": 0.0, "type": "electric_scooter", "name": "ab3e9897e5f552ed9ac1072e116ab540", "is_disabled": 0, "rental_uris": {"ios": "https://dc.lft.to/lastmile_qr_scan", "android": "https://dc.lft.to/lastmile_qr_scan"}, "is_reserved": 0}, {"lon": -77.00652383333333, "bike_id": "a7658dde448a076163390427900e0130", "lat": 38.9001075, "fusion_lon": 0.0, "fusion_lat": 0.0, "type": "electric_scooter", "name": "a7658dde448a076163390427900e0130", "is_disabled": 0, "rental_uris": {"ios": "https://dc.lft.to/lastmile_qr_scan", "android": "https://dc.lft.to/lastmile_qr_scan"}, "is_reserved": 0}, {"lon": -77.02870066666667, "bike_id": "6afdd13dbf203e280dbde4a2c0b1ec46", "lat": 38.885116333333336, "fusion_lon": 0.0, "fusion_lat": 0.0, "type": "electric_scooter", "name": "6afdd13dbf203e280dbde4a2c0b1ec46", "is_disabled": 0, "rental_uris": {"ios": "https://dc.lft.to/lastmile_qr_scan", "android": "https://dc.lft.to/lastmile_qr_scan"}, "is_reserved": 0}, {"lon": -77.12980166666667, "bike_id": "95de5b9b401b2ab31030062701dd0e87", "lat": 38.79983683333333, "fusion_lon": 0.0, "fusion_lat": 0.0, "type": "electric_bike", "name": "95de5b9b401b2ab31030062701dd0e87", "is_disabled": 0, "rental_uris": {"ios": "https://dc.lft.to/lastmile_qr_scan", "android": "https://dc.lft.to/lastmile_qr_scan"}, "is_reserved": 0}, {"lon": -77.00206166666666, "bike_id": "c86a00acad8731c8f91e2cf8355d552a", "lat": 38.902361666666664, "fusion_lon": 0.0, "fusion_lat": 0.0, "type": "electric_scooter", "name": "c86a00acad8731c8f91e2cf8355d552a", "is_disabled": 0, "rental_uris": {"ios": "https://dc.lft.to/lastmile_qr_scan", "android": "https://dc.lft.to/lastmile_qr_scan"}, "is_reserved": 0}, {"lon": -77.03310266666666, "bike_id": "fce4f45761ce09e26874b8421b3f8a88", "lat": 38.903331333333334, "fusion_lon": 0.0, "fusion_lat": 0.0, "type": "electric_scooter", "name": "fce4f45761ce09e26874b8421b3f8a88", "is_disabled": 0, "rental_uris": {"ios": "https://dc.lft.to/lastmile_qr_scan", "android": "https://dc.lft.to/lastmile_qr_scan"}, "is_reserved": 0}, {"lon": -77.00679583333333, "bike_id": "27468770115b2f37179b16c5c26109c8", "lat": 38.900224333333334, "fusion_lon": 0.0, "fusion_lat": 0.0, "type": "electric_scooter", "name": "27468770115b2f37179b16c5c26109c8", "is_disabled": 0, "rental_uris": {"ios": "https://dc.lft.to/lastmile_qr_scan", "android": "https://dc.lft.to/lastmile_qr_scan"}, "is_reserved": 0}, {"lon": -77.0287765, "bike_id": "ef9d24827f7594c960ac87bf42c5db5a", "lat": 38.90220683333333, "fusion_lon": 0.0, "fusion_lat": 0.0, "type": "electric_scooter", "name": "ef9d24827f7594c960ac87bf42c5db5a", "is_disabled": 0, "rental_uris": {"ios": "https://dc.lft.to/lastmile_qr_scan", "android": "https://dc.lft.to/lastmile_qr_scan"}, "is_reserved": 0}, {"lon": -77.111669, "bike_id": "489c8e2556fab4d33838d76cc1a1c9f1", "lat": 38.85511733333333, "fusion_lon": 0.0, "fusion_lat": 0.0, "type": "electric_bike", "name": "489c8e2556fab4d33838d76cc1a1c9f1", "is_disabled": 0, "rental_uris": {"ios": "https://dc.lft.to/lastmile_qr_scan", "android": "https://dc.lft.to/lastmile_qr_scan"}, "is_reserved": 0}, {"lon": -77.10485966666667, "bike_id": "1e78a74f2eadbbe833f441cc0fb03a84", "lat": 38.856054, "fusion_lon": 0.0, "fusion_lat": 0.0, "type": "electric_bike", "name": "1e78a74f2eadbbe833f441cc0fb03a84", "is_disabled": 0, "rental_uris": {"ios": "https://dc.lft.to/lastmile_qr_scan", "android": "https://dc.lft.to/lastmile_qr_scan"}, "is_reserved": 0}, {"lon": -77.036429, "bike_id": "cf1df0e7c69c236cc6bf13600d96377c", "lat": 38.918003166666665, "fusion_lon": 0.0, "fusion_lat": 0.0, "type": "electric_bike", "name": "cf1df0e7c69c236cc6bf13600d96377c", "is_disabled": 0, "rental_uris": {"ios": "https://dc.lft.to/lastmile_qr_scan", "android": "https://dc.lft.to/lastmile_qr_scan"}, "is_reserved": 0}, {"lon": -77.0381245, "bike_id": "c40c5a32c37aa2846668006eeef12d54", "lat": 38.9111225, "fusion_lon": 0.0, "fusion_lat": 0.0, "type": "electric_scooter", "name": "c40c5a32c37aa2846668006eeef12d54", "is_disabled": 0, "rental_uris": {"ios": "https://dc.lft.to/lastmile_qr_scan", "android": "https://dc.lft.to/lastmile_qr_scan"}, "is_reserved": 0}, {"lon": -77.02589566666667, "bike_id": "1c6dc576a08adb80b6c27c57705b1d88", "lat": 38.91412416666667, "fusion_lon": 0.0, "fusion_lat": 0.0, "type": "electric_scooter", "name": "1c6dc576a08adb80b6c27c57705b1d88", "is_disabled": 0, "rental_uris": {"ios": "https://dc.lft.to/lastmile_qr_scan", "android": "https://dc.lft.to/lastmile_qr_scan"}, "is_reserved": 0}, {"lon": -77.055169, "bike_id": "0c99188778975a50dbab60b658e4753c", "lat": 38.89968283333333, "fusion_lon": 0.0, "fusion_lat": 0.0, "type": "electric_scooter", "name": "0c99188778975a50dbab60b658e4753c", "is_disabled": 0, "rental_uris": {"ios": "https://dc.lft.to/lastmile_qr_scan", "android": "https://dc.lft.to/lastmile_qr_scan"}, "is_reserved": 0}, {"lon": -76.9822625, "bike_id": "ced5b191616554f866c1823f522a5ef7", "lat": 38.88650583333333, "fusion_lon": 0.0, "fusion_lat": 0.0, "type": "electric_scooter", "name": "ced5b191616554f866c1823f522a5ef7", "is_disabled": 0, "rental_uris": {"ios": "https://dc.lft.to/lastmile_qr_scan", "android": "https://dc.lft.to/lastmile_qr_scan"}, "is_reserved": 0}, {"lon": -77.03171116666667, "bike_id": "693aea73c504bc5eb94f36fd7a6b2358", "lat": 38.9208875, "fusion_lon": 0.0, "fusion_lat": 0.0, "type": "electric_scooter", "name": "693aea73c504bc5eb94f36fd7a6b2358", "is_disabled": 0, "rental_uris": {"ios": "https://dc.lft.to/lastmile_qr_scan", "android": "https://dc.lft.to/lastmile_qr_scan"}, "is_reserved": 0}, {"lon": -77.03274083333334, "bike_id": "d689cb87e34477e5375b94c522cfefd7", "lat": 38.919858166666664, "fusion_lon": 0.0, "fusion_lat": 0.0, "type": "electric_scooter", "name": "d689cb87e34477e5375b94c522cfefd7", "is_disabled": 0, "rental_uris": {"ios": "https://dc.lft.to/lastmile_qr_scan", "android": "https://dc.lft.to/lastmile_qr_scan"}, "is_reserved": 0}, {"lon": -77.05301266666666, "bike_id": "67e19b83e5038ab6db5e1d0e871ce0b1", "lat": 38.925559, "fusion_lon": 0.0, "fusion_lat": 0.0, "type": "electric_scooter", "name": "67e19b83e5038ab6db5e1d0e871ce0b1", "is_disabled": 0, "rental_uris": {"ios": "https://dc.lft.to/lastmile_qr_scan", "android": "https://dc.lft.to/lastmile_qr_scan"}, "is_reserved": 0}, {"lon": -77.0759265, "bike_id": "0a543a36fdc2253086cf25cbe60393d5", "lat": 38.912132, "fusion_lon": 0.0, "fusion_lat": 0.0, "type": "electric_scooter", "name": "0a543a36fdc2253086cf25cbe60393d5", "is_disabled": 0, "rental_uris": {"ios": "https://dc.lft.to/lastmile_qr_scan", "android": "https://dc.lft.to/lastmile_qr_scan"}, "is_reserved": 0}, {"lon": -76.99531516666667, "bike_id": "3fb7f70ed021583d919374f04552bb2f", "lat": 38.883782833333335, "fusion_lon": 0.0, "fusion_lat": 0.0, "type": "electric_scooter", "name": "3fb7f70ed021583d919374f04552bb2f", "is_disabled": 0, "rental_uris": {"ios": "https://dc.lft.to/lastmile_qr_scan", "android": "https://dc.lft.to/lastmile_qr_scan"}, "is_reserved": 0}, {"lon": -77.05094166666667, "bike_id": "d6b18e6d60d242a0a6ad40bca9aaef1f", "lat": 38.90966383333333, "fusion_lon": 0.0, "fusion_lat": 0.0, "type": "electric_scooter", "name": "d6b18e6d60d242a0a6ad40bca9aaef1f", "is_disabled": 0, "rental_uris": {"ios": "https://dc.lft.to/lastmile_qr_scan", "android": "https://dc.lft.to/lastmile_qr_scan"}, "is_reserved": 0}, {"lon": -77.05720583333333, "bike_id": "61a036af69b993515e6c72e62f793f25", "lat": 38.93367116666667, "fusion_lon": 0.0, "fusion_lat": 0.0, "type": "electric_scooter", "name": "61a036af69b993515e6c72e62f793f25", "is_disabled": 0, "rental_uris": {"ios": "https://dc.lft.to/lastmile_qr_scan", "android": "https://dc.lft.to/lastmile_qr_scan"}, "is_reserved": 0}, {"lon": -77.0469205, "bike_id": "c62dc3bd14861ef712d6d59d460428e4", "lat": 39.02397933333334, "fusion_lon": 0.0, "fusion_lat": 0.0, "type": "electric_bike", "name": "c62dc3bd14861ef712d6d59d460428e4", "is_disabled": 0, "rental_uris": {"ios": "https://dc.lft.to/lastmile_qr_scan", "android": "https://dc.lft.to/lastmile_qr_scan"}, "is_reserved": 0}, {"lon": -77.01489933333333, "bike_id": "bf238a2f74594bd04656f45a6dc02adc", "lat": 38.906182333333334, "fusion_lon": 0.0, "fusion_lat": 0.0, "type": "electric_scooter", "name": "bf238a2f74594bd04656f45a6dc02adc", "is_disabled": 0, "rental_uris": {"ios": "https://dc.lft.to/lastmile_qr_scan", "android": "https://dc.lft.to/lastmile_qr_scan"}, "is_reserved": 0}, {"lon": -77.03507533333334, "bike_id": "376261e95d0c97cffabf187785cf3119", "lat": 38.921525833333334, "fusion_lon": 0.0, "fusion_lat": 0.0, "type": "electric_scooter", "name": "376261e95d0c97cffabf187785cf3119", "is_disabled": 0, "rental_uris": {"ios": "https://dc.lft.to/lastmile_qr_scan", "android": "https://dc.lft.to/lastmile_qr_scan"}, "is_reserved": 0}, {"lon": -77.03706216666667, "bike_id": "10ab2c17636674928da724cce804e768", "lat": 38.93276916666667, "fusion_lon": 0.0, "fusion_lat": 0.0, "type": "electric_scooter", "name": "10ab2c17636674928da724cce804e768", "is_disabled": 0, "rental_uris": {"ios": "https://dc.lft.to/lastmile_qr_scan", "android": "https://dc.lft.to/lastmile_qr_scan"}, "is_reserved": 0}, {"lon": -76.995057, "bike_id": "87091e82c5a43f9d191a05a3c264109c", "lat": 38.880540333333336, "fusion_lon": 0.0, "fusion_lat": 0.0, "type": "electric_scooter", "name": "87091e82c5a43f9d191a05a3c264109c", "is_disabled": 0, "rental_uris": {"ios": "https://dc.lft.to/lastmile_qr_scan", "android": "https://dc.lft.to/lastmile_qr_scan"}, "is_reserved": 0}, {"lon": -77.016204, "bike_id": "3111a75e24694305f217c0c25d41abad", "lat": 38.9101165, "fusion_lon": 0.0, "fusion_lat": 0.0, "type": "electric_scooter", "name": "3111a75e24694305f217c0c25d41abad", "is_disabled": 0, "rental_uris": {"ios": "https://dc.lft.to/lastmile_qr_scan", "android": "https://dc.lft.to/lastmile_qr_scan"}, "is_reserved": 0}, {"lon": -77.04587466666666, "bike_id": "b181251fc4e074ad70264efea9ca64e2", "lat": 38.92128533333333, "fusion_lon": 0.0, "fusion_lat": 0.0, "type": "electric_scooter", "name": "b181251fc4e074ad70264efea9ca64e2", "is_disabled": 0, "rental_uris": {"ios": "https://dc.lft.to/lastmile_qr_scan", "android": "https://dc.lft.to/lastmile_qr_scan"}, "is_reserved": 0}, {"lon": -77.02099483333333, "bike_id": "1104dcf9c3cd67576c786198b08d6c6a", "lat": 38.916329, "fusion_lon": 0.0, "fusion_lat": 0.0, "type": "electric_scooter", "name": "1104dcf9c3cd67576c786198b08d6c6a", "is_disabled": 0, "rental_uris": {"ios": "https://dc.lft.to/lastmile_qr_scan", "android": "https://dc.lft.to/lastmile_qr_scan"}, "is_reserved": 0}, {"lon": -76.93738166666667, "bike_id": "e94b088d14c372b16d308d18dfaefeac", "lat": 38.890131833333335, "fusion_lon": 0.0, "fusion_lat": 0.0, "type": "electric_scooter", "name": "e94b088d14c372b16d308d18dfaefeac", "is_disabled": 0, "rental_uris": {"ios": "https://dc.lft.to/lastmile_qr_scan", "android": "https://dc.lft.to/lastmile_qr_scan"}, "is_reserved": 0}, {"lon": -76.9733585, "bike_id": "4f89d39cca4f284f15d3dc45643fe1df", "lat": 38.86574483333333, "fusion_lon": 0.0, "fusion_lat": 0.0, "type": "electric_scooter", "name": "4f89d39cca4f284f15d3dc45643fe1df", "is_disabled": 0, "rental_uris": {"ios": "https://dc.lft.to/lastmile_qr_scan", "android": "https://dc.lft.to/lastmile_qr_scan"}, "is_reserved": 0}, {"lon": -77.00570066666667, "bike_id": "be4a2dff37a3e6f371bac68ae066c2cf", "lat": 38.87473033333333, "fusion_lon": 0.0, "fusion_lat": 0.0, "type": "electric_scooter", "name": "be4a2dff37a3e6f371bac68ae066c2cf", "is_disabled": 0, "rental_uris": {"ios": "https://dc.lft.to/lastmile_qr_scan", "android": "https://dc.lft.to/lastmile_qr_scan"}, "is_reserved": 0}, {"lon": -76.98235133333333, "bike_id": "8eec5530b34f8ba0bbc2e024f2e2622d", "lat": 38.91662066666667, "fusion_lon": 0.0, "fusion_lat": 0.0, "type": "electric_scooter", "name": "8eec5530b34f8ba0bbc2e024f2e2622d", "is_disabled": 0, "rental_uris": {"ios": "https://dc.lft.to/lastmile_qr_scan", "android": "https://dc.lft.to/lastmile_qr_scan"}, "is_reserved": 0}, {"lon": -77.03185516666667, "bike_id": "a1b8ae2ffe8fee108cccdd0242057abb", "lat": 38.936904166666665, "fusion_lon": 0.0, "fusion_lat": 0.0, "type": "electric_scooter", "name": "a1b8ae2ffe8fee108cccdd0242057abb", "is_disabled": 0, "rental_uris": {"ios": "https://dc.lft.to/lastmile_qr_scan", "android": "https://dc.lft.to/lastmile_qr_scan"}, "is_reserved": 0}, {"lon": -77.00226683333334, "bike_id": "9f82a2db6c0178d7b14bfa8b7902e106", "lat": 38.92511233333333, "fusion_lon": 0.0, "fusion_lat": 0.0, "type": "electric_scooter", "name": "9f82a2db6c0178d7b14bfa8b7902e106", "is_disabled": 0, "rental_uris": {"ios": "https://dc.lft.to/lastmile_qr_scan", "android": "https://dc.lft.to/lastmile_qr_scan"}, "is_reserved": 0}, {"lon": -77.0322955, "bike_id": "210e725d940a32a1aa012110d914311b", "lat": 38.9089135, "fusion_lon": 0.0, "fusion_lat": 0.0, "type": "electric_scooter", "name": "210e725d940a32a1aa012110d914311b", "is_disabled": 0, "rental_uris": {"ios": "https://dc.lft.to/lastmile_qr_scan", "android": "https://dc.lft.to/lastmile_qr_scan"}, "is_reserved": 0}, {"lon": -76.98754666666666, "bike_id": "20aab204fe7a5b3c979f7dc61fbccc7d", "lat": 38.90382816666666, "fusion_lon": 0.0, "fusion_lat": 0.0, "type": "electric_scooter", "name": "20aab204fe7a5b3c979f7dc61fbccc7d", "is_disabled": 0, "rental_uris": {"ios": "https://dc.lft.to/lastmile_qr_scan", "android": "https://dc.lft.to/lastmile_qr_scan"}, "is_reserved": 0}, {"lon": -77.02692516666667, "bike_id": "ae87880d9d5ac2ac9fc1088eaa60dca6", "lat": 38.948856, "fusion_lon": 0.0, "fusion_lat": 0.0, "type": "electric_scooter", "name": "ae87880d9d5ac2ac9fc1088eaa60dca6", "is_disabled": 0, "rental_uris": {"ios": "https://dc.lft.to/lastmile_qr_scan", "android": "https://dc.lft.to/lastmile_qr_scan"}, "is_reserved": 0}, {"lon": -77.04318416666666, "bike_id": "b83e578f73741c5433471140f5bcf7be", "lat": 38.918749166666665, "fusion_lon": 0.0, "fusion_lat": 0.0, "type": "electric_scooter", "name": "b83e578f73741c5433471140f5bcf7be", "is_disabled": 0, "rental_uris": {"ios": "https://dc.lft.to/lastmile_qr_scan", "android": "https://dc.lft.to/lastmile_qr_scan"}, "is_reserved": 0}, {"lon": -76.9871125, "bike_id": "a4b7e76e9651f8f2193d31090fec944b", "lat": 38.86693666666667, "fusion_lon": 0.0, "fusion_lat": 0.0, "type": "electric_scooter", "name": "a4b7e76e9651f8f2193d31090fec944b", "is_disabled": 0, "rental_uris": {"ios": "https://dc.lft.to/lastmile_qr_scan", "android": "https://dc.lft.to/lastmile_qr_scan"}, "is_reserved": 0}, {"lon": -76.9853715, "bike_id": "46b71460b6a6cea41d4d03ae8f1c6658", "lat": 38.91020683333333, "fusion_lon": 0.0, "fusion_lat": 0.0, "type": "electric_scooter", "name": "46b71460b6a6cea41d4d03ae8f1c6658", "is_disabled": 0, "rental_uris": {"ios": "https://dc.lft.to/lastmile_qr_scan", "android": "https://dc.lft.to/lastmile_qr_scan"}, "is_reserved": 0}, {"lon": -77.0316605, "bike_id": "22e103c4e5b2e41ae7256dbad3cdd497", "lat": 38.884271, "fusion_lon": 0.0, "fusion_lat": 0.0, "type": "electric_scooter", "name": "22e103c4e5b2e41ae7256dbad3cdd497", "is_disabled": 0, "rental_uris": {"ios": "https://dc.lft.to/lastmile_qr_scan", "android": "https://dc.lft.to/lastmile_qr_scan"}, "is_reserved": 0}, {"lon": -77.00289683333334, "bike_id": "e3ef91da4c7622dfa8e7007026c139b3", "lat": 38.91167633333333, "fusion_lon": 0.0, "fusion_lat": 0.0, "type": "electric_bike", "name": "e3ef91da4c7622dfa8e7007026c139b3", "is_disabled": 0, "rental_uris": {"ios": "https://dc.lft.to/lastmile_qr_scan", "android": "https://dc.lft.to/lastmile_qr_scan"}, "is_reserved": 0}, {"lon": -77.03907733333334, "bike_id": "bdb03aeff207fb6fa8f870749a9dc174", "lat": 38.901407, "fusion_lon": 0.0, "fusion_lat": 0.0, "type": "electric_bike", "name": "bdb03aeff207fb6fa8f870749a9dc174", "is_disabled": 0, "rental_uris": {"ios": "https://dc.lft.to/lastmile_qr_scan", "android": "https://dc.lft.to/lastmile_qr_scan"}, "is_reserved": 0}, {"lon": -77.014151, "bike_id": "09cba0aa7e2ca9e3ef8b09d075633fa1", "lat": 38.92808816666667, "fusion_lon": 0.0, "fusion_lat": 0.0, "type": "electric_scooter", "name": "09cba0aa7e2ca9e3ef8b09d075633fa1", "is_disabled": 0, "rental_uris": {"ios": "https://dc.lft.to/lastmile_qr_scan", "android": "https://dc.lft.to/lastmile_qr_scan"}, "is_reserved": 0}, {"lon": -77.03204266666667, "bike_id": "5af0aa9196abb5ebe8d52b9d3521540e", "lat": 38.915685333333336, "fusion_lon": 0.0, "fusion_lat": 0.0, "type": "electric_scooter", "name": "5af0aa9196abb5ebe8d52b9d3521540e", "is_disabled": 0, "rental_uris": {"ios": "https://dc.lft.to/lastmile_qr_scan", "android": "https://dc.lft.to/lastmile_qr_scan"}, "is_reserved": 0}, {"lon": -76.9501445, "bike_id": "1c926d5569f74a732947e4242b81eced", "lat": 38.89396466666667, "fusion_lon": 0.0, "fusion_lat": 0.0, "type": "electric_scooter", "name": "1c926d5569f74a732947e4242b81eced", "is_disabled": 0, "rental_uris": {"ios": "https://dc.lft.to/lastmile_qr_scan", "android": "https://dc.lft.to/lastmile_qr_scan"}, "is_reserved": 0}, {"lon": -77.00140766666667, "bike_id": "9325a3d405701579754b0e6768cd16d3", "lat": 38.84281883333333, "fusion_lon": 0.0, "fusion_lat": 0.0, "type": "electric_scooter", "name": "9325a3d405701579754b0e6768cd16d3", "is_disabled": 0, "rental_uris": {"ios": "https://dc.lft.to/lastmile_qr_scan", "android": "https://dc.lft.to/lastmile_qr_scan"}, "is_reserved": 0}, {"lon": -76.98713516666666, "bike_id": "a4e41dbcac4c2b0dc2a4186e3c71c533", "lat": 38.867014, "fusion_lon": 0.0, "fusion_lat": 0.0, "type": "electric_scooter", "name": "a4e41dbcac4c2b0dc2a4186e3c71c533", "is_disabled": 0, "rental_uris": {"ios": "https://dc.lft.to/lastmile_qr_scan", "android": "https://dc.lft.to/lastmile_qr_scan"}, "is_reserved": 0}, {"lon": -77.0210385, "bike_id": "44177f4f26dbf600119532ebebd8e4f4", "lat": 38.921800833333336, "fusion_lon": 0.0, "fusion_lat": 0.0, "type": "electric_scooter", "name": "44177f4f26dbf600119532ebebd8e4f4", "is_disabled": 0, "rental_uris": {"ios": "https://dc.lft.to/lastmile_qr_scan", "android": "https://dc.lft.to/lastmile_qr_scan"}, "is_reserved": 0}, {"lon": -77.026846, "bike_id": "bbb959371b6313dfb28afad9df82c867", "lat": 38.984891833333336, "fusion_lon": 0.0, "fusion_lat": 0.0, "type": "electric_scooter", "name": "bbb959371b6313dfb28afad9df82c867", "is_disabled": 0, "rental_uris": {"ios": "https://dc.lft.to/lastmile_qr_scan", "android": "https://dc.lft.to/lastmile_qr_scan"}, "is_reserved": 0}, {"lon": -76.93175, "bike_id": "25e0426cd76d7e8e2563df11961e4f4f", "lat": 38.89881166666667, "fusion_lon": 0.0, "fusion_lat": 0.0, "type": "electric_scooter", "name": "25e0426cd76d7e8e2563df11961e4f4f", "is_disabled": 0, "rental_uris": {"ios": "https://dc.lft.to/lastmile_qr_scan", "android": "https://dc.lft.to/lastmile_qr_scan"}, "is_reserved": 0}, {"lon": -77.01982916666667, "bike_id": "d91fe2eb7d98b63ac36ab9b34d1bf2a1", "lat": 38.9602575, "fusion_lon": 0.0, "fusion_lat": 0.0, "type": "electric_scooter", "name": "d91fe2eb7d98b63ac36ab9b34d1bf2a1", "is_disabled": 0, "rental_uris": {"ios": "https://dc.lft.to/lastmile_qr_scan", "android": "https://dc.lft.to/lastmile_qr_scan"}, "is_reserved": 0}, {"lon": -77.03262916666667, "bike_id": "1fb0576fcdbc34b4c3702d2e9e5c5f1a", "lat": 38.9377505, "fusion_lon": 0.0, "fusion_lat": 0.0, "type": "electric_scooter", "name": "1fb0576fcdbc34b4c3702d2e9e5c5f1a", "is_disabled": 0, "rental_uris": {"ios": "https://dc.lft.to/lastmile_qr_scan", "android": "https://dc.lft.to/lastmile_qr_scan"}, "is_reserved": 0}, {"lon": -77.015297, "bike_id": "6f04d2c60c0d8fad31a09d96d253ec65", "lat": 38.883349333333335, "fusion_lon": 0.0, "fusion_lat": 0.0, "type": "electric_scooter", "name": "6f04d2c60c0d8fad31a09d96d253ec65", "is_disabled": 0, "rental_uris": {"ios": "https://dc.lft.to/lastmile_qr_scan", "android": "https://dc.lft.to/lastmile_qr_scan"}, "is_reserved": 0}, {"lon": -76.94884883333333, "bike_id": "88f6a3c4fa8f4f52cc8258e6779e51d6", "lat": 38.895153666666666, "fusion_lon": 0.0, "fusion_lat": 0.0, "type": "electric_scooter", "name": "88f6a3c4fa8f4f52cc8258e6779e51d6", "is_disabled": 0, "rental_uris": {"ios": "https://dc.lft.to/lastmile_qr_scan", "android": "https://dc.lft.to/lastmile_qr_scan"}, "is_reserved": 0}, {"lon": -77.04392916666667, "bike_id": "073d203a567bf5691789e06f0118c073", "lat": 38.90899366666667, "fusion_lon": 0.0, "fusion_lat": 0.0, "type": "electric_scooter", "name": "073d203a567bf5691789e06f0118c073", "is_disabled": 0, "rental_uris": {"ios": "https://dc.lft.to/lastmile_qr_scan", "android": "https://dc.lft.to/lastmile_qr_scan"}, "is_reserved": 0}, {"lon": -77.02396133333333, "bike_id": "6851ae22e2d152dc0cf231ec9edd0c06", "lat": 38.899858333333334, "fusion_lon": 0.0, "fusion_lat": 0.0, "type": "electric_scooter", "name": "6851ae22e2d152dc0cf231ec9edd0c06", "is_disabled": 0, "rental_uris": {"ios": "https://dc.lft.to/lastmile_qr_scan", "android": "https://dc.lft.to/lastmile_qr_scan"}, "is_reserved": 0}, {"lon": -77.01898933333334, "bike_id": "b403ff3bd2b72f669ea7ff86767b6e4d", "lat": 38.92374566666667, "fusion_lon": 0.0, "fusion_lat": 0.0, "type": "electric_scooter", "name": "b403ff3bd2b72f669ea7ff86767b6e4d", "is_disabled": 0, "rental_uris": {"ios": "https://dc.lft.to/lastmile_qr_scan", "android": "https://dc.lft.to/lastmile_qr_scan"}, "is_reserved": 0}, {"lon": -77.02091183333333, "bike_id": "d173fa1ee5162119b01246933e70336b", "lat": 38.957547166666664, "fusion_lon": 0.0, "fusion_lat": 0.0, "type": "electric_scooter", "name": "d173fa1ee5162119b01246933e70336b", "is_disabled": 0, "rental_uris": {"ios": "https://dc.lft.to/lastmile_qr_scan", "android": "https://dc.lft.to/lastmile_qr_scan"}, "is_reserved": 0}, {"lon": -77.02626333333333, "bike_id": "5f9445a9ecc59468573b12350d9c4058", "lat": 38.8972825, "fusion_lon": 0.0, "fusion_lat": 0.0, "type": "electric_scooter", "name": "5f9445a9ecc59468573b12350d9c4058", "is_disabled": 0, "rental_uris": {"ios": "https://dc.lft.to/lastmile_qr_scan", "android": "https://dc.lft.to/lastmile_qr_scan"}, "is_reserved": 0}, {"lon": -77.0332695, "bike_id": "b31f1545a767ac49a8fdcd342e7147b2", "lat": 38.909851333333336, "fusion_lon": 0.0, "fusion_lat": 0.0, "type": "electric_scooter", "name": "b31f1545a767ac49a8fdcd342e7147b2", "is_disabled": 0, "rental_uris": {"ios": "https://dc.lft.to/lastmile_qr_scan", "android": "https://dc.lft.to/lastmile_qr_scan"}, "is_reserved": 0}, {"lon": -77.01842966666666, "bike_id": "00812ad5d2424b38697964f95eb12039", "lat": 38.903916, "fusion_lon": 0.0, "fusion_lat": 0.0, "type": "electric_scooter", "name": "00812ad5d2424b38697964f95eb12039", "is_disabled": 0, "rental_uris": {"ios": "https://dc.lft.to/lastmile_qr_scan", "android": "https://dc.lft.to/lastmile_qr_scan"}, "is_reserved": 0}, {"lon": -76.98724783333333, "bike_id": "a030349121ab11a92bf156c1394060b8", "lat": 38.86714333333333, "fusion_lon": 0.0, "fusion_lat": 0.0, "type": "electric_scooter", "name": "a030349121ab11a92bf156c1394060b8", "is_disabled": 0, "rental_uris": {"ios": "https://dc.lft.to/lastmile_qr_scan", "android": "https://dc.lft.to/lastmile_qr_scan"}, "is_reserved": 0}, {"lon": -76.9606125, "bike_id": "99bbbee85a857f6bb97f100b5a52a85e", "lat": 38.8840235, "fusion_lon": 0.0, "fusion_lat": 0.0, "type": "electric_bike", "name": "99bbbee85a857f6bb97f100b5a52a85e", "is_disabled": 0, "rental_uris": {"ios": "https://dc.lft.to/lastmile_qr_scan", "android": "https://dc.lft.to/lastmile_qr_scan"}, "is_reserved": 0}, {"lon": -77.03338916666667, "bike_id": "6d94555c768ae50f23463c61609751c3", "lat": 38.93642833333333, "fusion_lon": 0.0, "fusion_lat": 0.0, "type": "electric_scooter", "name": "6d94555c768ae50f23463c61609751c3", "is_disabled": 0, "rental_uris": {"ios": "https://dc.lft.to/lastmile_qr_scan", "android": "https://dc.lft.to/lastmile_qr_scan"}, "is_reserved": 0}, {"lon": -76.99003816666666, "bike_id": "1e5c4afbabb95fe05ecb848c66e158f1", "lat": 38.86504816666667, "fusion_lon": 0.0, "fusion_lat": 0.0, "type": "electric_scooter", "name": "1e5c4afbabb95fe05ecb848c66e158f1", "is_disabled": 0, "rental_uris": {"ios": "https://dc.lft.to/lastmile_qr_scan", "android": "https://dc.lft.to/lastmile_qr_scan"}, "is_reserved": 0}, {"lon": -76.99334566666667, "bike_id": "c17480a626aa82ee2453985b8b681844", "lat": 38.871419, "fusion_lon": 0.0, "fusion_lat": 0.0, "type": "electric_scooter", "name": "c17480a626aa82ee2453985b8b681844", "is_disabled": 0, "rental_uris": {"ios": "https://dc.lft.to/lastmile_qr_scan", "android": "https://dc.lft.to/lastmile_qr_scan"}, "is_reserved": 0}, {"lon": -76.9870825, "bike_id": "f2f8e5fbf6042be9cf817137136e7ad1", "lat": 38.865367, "fusion_lon": 0.0, "fusion_lat": 0.0, "type": "electric_scooter", "name": "f2f8e5fbf6042be9cf817137136e7ad1", "is_disabled": 0, "rental_uris": {"ios": "https://dc.lft.to/lastmile_qr_scan", "android": "https://dc.lft.to/lastmile_qr_scan"}, "is_reserved": 0}, {"lon": -77.02278066666666, "bike_id": "313be35345bd28b4c0447c944cb0dd45", "lat": 38.87888683333333, "fusion_lon": 0.0, "fusion_lat": 0.0, "type": "electric_scooter", "name": "313be35345bd28b4c0447c944cb0dd45", "is_disabled": 0, "rental_uris": {"ios": "https://dc.lft.to/lastmile_qr_scan", "android": "https://dc.lft.to/lastmile_qr_scan"}, "is_reserved": 0}, {"lon": -77.0259405, "bike_id": "88ee3c507a977e17b07631d93726b1a7", "lat": 38.925355333333336, "fusion_lon": 0.0, "fusion_lat": 0.0, "type": "electric_scooter", "name": "88ee3c507a977e17b07631d93726b1a7", "is_disabled": 0, "rental_uris": {"ios": "https://dc.lft.to/lastmile_qr_scan", "android": "https://dc.lft.to/lastmile_qr_scan"}, "is_reserved": 0}, {"lon": -77.0004955, "bike_id": "ed916b52c427eade4388e358edec6d62", "lat": 38.923977666666666, "fusion_lon": 0.0, "fusion_lat": 0.0, "type": "electric_scooter", "name": "ed916b52c427eade4388e358edec6d62", "is_disabled": 0, "rental_uris": {"ios": "https://dc.lft.to/lastmile_qr_scan", "android": "https://dc.lft.to/lastmile_qr_scan"}, "is_reserved": 0}, {"lon": -77.021293, "bike_id": "2d13e70a58f47c267e9ee78a52862fdf", "lat": 38.93616216666667, "fusion_lon": 0.0, "fusion_lat": 0.0, "type": "electric_scooter", "name": "2d13e70a58f47c267e9ee78a52862fdf", "is_disabled": 0, "rental_uris": {"ios": "https://dc.lft.to/lastmile_qr_scan", "android": "https://dc.lft.to/lastmile_qr_scan"}, "is_reserved": 0}, {"lon": -77.02958083333333, "bike_id": "81bad820386ce047a79cf5e3f3a759a2", "lat": 38.912491333333335, "fusion_lon": 0.0, "fusion_lat": 0.0, "type": "electric_scooter", "name": "81bad820386ce047a79cf5e3f3a759a2", "is_disabled": 0, "rental_uris": {"ios": "https://dc.lft.to/lastmile_qr_scan", "android": "https://dc.lft.to/lastmile_qr_scan"}, "is_reserved": 0}, {"lon": -77.07237766666667, "bike_id": "75d86f8036e4a3e895e8177eb9cb51b2", "lat": 38.898925, "fusion_lon": 0.0, "fusion_lat": 0.0, "type": "electric_scooter", "name": "75d86f8036e4a3e895e8177eb9cb51b2", "is_disabled": 0, "rental_uris": {"ios": "https://dc.lft.to/lastmile_qr_scan", "android": "https://dc.lft.to/lastmile_qr_scan"}, "is_reserved": 0}, {"lon": -77.02948366666666, "bike_id": "a5bdb8d4d3f699177d913d0a3d62e147", "lat": 38.90577733333333, "fusion_lon": 0.0, "fusion_lat": 0.0, "type": "electric_scooter", "name": "a5bdb8d4d3f699177d913d0a3d62e147", "is_disabled": 0, "rental_uris": {"ios": "https://dc.lft.to/lastmile_qr_scan", "android": "https://dc.lft.to/lastmile_qr_scan"}, "is_reserved": 0}, {"lon": -77.04606283333334, "bike_id": "bbb27fe1154233bfae859fc86579d77c", "lat": 38.853069, "fusion_lon": 0.0, "fusion_lat": 0.0, "type": "electric_bike", "name": "bbb27fe1154233bfae859fc86579d77c", "is_disabled": 0, "rental_uris": {"ios": "https://dc.lft.to/lastmile_qr_scan", "android": "https://dc.lft.to/lastmile_qr_scan"}, "is_reserved": 0}, {"lon": -76.99853433333334, "bike_id": "615186881bba4c7ee8159a706ea78383", "lat": 38.89999683333333, "fusion_lon": 0.0, "fusion_lat": 0.0, "type": "electric_scooter", "name": "615186881bba4c7ee8159a706ea78383", "is_disabled": 0, "rental_uris": {"ios": "https://dc.lft.to/lastmile_qr_scan", "android": "https://dc.lft.to/lastmile_qr_scan"}, "is_reserved": 0}, {"lon": -77.00069466666666, "bike_id": "a56c428444cbb260bf71423765760788", "lat": 38.87686, "fusion_lon": 0.0, "fusion_lat": 0.0, "type": "electric_scooter", "name": "a56c428444cbb260bf71423765760788", "is_disabled": 0, "rental_uris": {"ios": "https://dc.lft.to/lastmile_qr_scan", "android": "https://dc.lft.to/lastmile_qr_scan"}, "is_reserved": 0}, {"lon": -77.05725466666667, "bike_id": "fcf0235b51273032d1ba322bf60381d0", "lat": 38.9336525, "fusion_lon": 0.0, "fusion_lat": 0.0, "type": "electric_scooter", "name": "fcf0235b51273032d1ba322bf60381d0", "is_disabled": 0, "rental_uris": {"ios": "https://dc.lft.to/lastmile_qr_scan", "android": "https://dc.lft.to/lastmile_qr_scan"}, "is_reserved": 0}, {"lon": -77.02199033333333, "bike_id": "2415b75bae021f61f3c6847eb0f64f73", "lat": 38.910514666666664, "fusion_lon": 0.0, "fusion_lat": 0.0, "type": "electric_scooter", "name": "2415b75bae021f61f3c6847eb0f64f73", "is_disabled": 0, "rental_uris": {"ios": "https://dc.lft.to/lastmile_qr_scan", "android": "https://dc.lft.to/lastmile_qr_scan"}, "is_reserved": 0}, {"lon": -76.9723815, "bike_id": "6fb38477e4d9a09e529bab37d7792bd8", "lat": 38.90347966666667, "fusion_lon": 0.0, "fusion_lat": 0.0, "type": "electric_scooter", "name": "6fb38477e4d9a09e529bab37d7792bd8", "is_disabled": 0, "rental_uris": {"ios": "https://dc.lft.to/lastmile_qr_scan", "android": "https://dc.lft.to/lastmile_qr_scan"}, "is_reserved": 0}, {"lon": -77.0173215, "bike_id": "6ad0b1ed671c7f5e221166feff9caa7b", "lat": 38.90393516666666, "fusion_lon": 0.0, "fusion_lat": 0.0, "type": "electric_scooter", "name": "6ad0b1ed671c7f5e221166feff9caa7b", "is_disabled": 0, "rental_uris": {"ios": "https://dc.lft.to/lastmile_qr_scan", "android": "https://dc.lft.to/lastmile_qr_scan"}, "is_reserved": 0}, {"lon": -76.98845083333333, "bike_id": "7478cf24a8b4527dbe30faffe2988ceb", "lat": 38.842774666666664, "fusion_lon": 0.0, "fusion_lat": 0.0, "type": "electric_bike", "name": "7478cf24a8b4527dbe30faffe2988ceb", "is_disabled": 0, "rental_uris": {"ios": "https://dc.lft.to/lastmile_qr_scan", "android": "https://dc.lft.to/lastmile_qr_scan"}, "is_reserved": 0}, {"lon": -77.0491855, "bike_id": "528aa592f921d1101e1dba6e41007f33", "lat": 38.9086145, "fusion_lon": 0.0, "fusion_lat": 0.0, "type": "electric_scooter", "name": "528aa592f921d1101e1dba6e41007f33", "is_disabled": 0, "rental_uris": {"ios": "https://dc.lft.to/lastmile_qr_scan", "android": "https://dc.lft.to/lastmile_qr_scan"}, "is_reserved": 0}, {"lon": -77.0366425, "bike_id": "cebf637ed2e4a0addec67847104ffc40", "lat": 38.9224465, "fusion_lon": 0.0, "fusion_lat": 0.0, "type": "electric_scooter", "name": "cebf637ed2e4a0addec67847104ffc40", "is_disabled": 0, "rental_uris": {"ios": "https://dc.lft.to/lastmile_qr_scan", "android": "https://dc.lft.to/lastmile_qr_scan"}, "is_reserved": 0}, {"lon": -76.9975595, "bike_id": "39fae3f437729dbc76322edeb8b0c04b", "lat": 38.950092166666664, "fusion_lon": 0.0, "fusion_lat": 0.0, "type": "electric_bike", "name": "39fae3f437729dbc76322edeb8b0c04b", "is_disabled": 0, "rental_uris": {"ios": "https://dc.lft.to/lastmile_qr_scan", "android": "https://dc.lft.to/lastmile_qr_scan"}, "is_reserved": 0}, {"lon": -77.015351, "bike_id": "0c57f7744262779cf3f1818d7857ddf9", "lat": 38.883351833333336, "fusion_lon": 0.0, "fusion_lat": 0.0, "type": "electric_scooter", "name": "0c57f7744262779cf3f1818d7857ddf9", "is_disabled": 0, "rental_uris": {"ios": "https://dc.lft.to/lastmile_qr_scan", "android": "https://dc.lft.to/lastmile_qr_scan"}, "is_reserved": 0}, {"lon": -77.02252816666666, "bike_id": "8be7c7ff97ababb2fe3a23a417fc4bc4", "lat": 38.92529233333333, "fusion_lon": 0.0, "fusion_lat": 0.0, "type": "electric_scooter", "name": "8be7c7ff97ababb2fe3a23a417fc4bc4", "is_disabled": 0, "rental_uris": {"ios": "https://dc.lft.to/lastmile_qr_scan", "android": "https://dc.lft.to/lastmile_qr_scan"}, "is_reserved": 0}, {"lon": -76.9500085, "bike_id": "9b947236bbe573d89b4a99ece308c82f", "lat": 38.893781, "fusion_lon": 0.0, "fusion_lat": 0.0, "type": "electric_scooter", "name": "9b947236bbe573d89b4a99ece308c82f", "is_disabled": 0, "rental_uris": {"ios": "https://dc.lft.to/lastmile_qr_scan", "android": "https://dc.lft.to/lastmile_qr_scan"}, "is_reserved": 0}, {"lon": -77.026938, "bike_id": "c7e877434a461303289d8f6a3aaa395b", "lat": 38.904711166666665, "fusion_lon": 0.0, "fusion_lat": 0.0, "type": "electric_scooter", "name": "c7e877434a461303289d8f6a3aaa395b", "is_disabled": 0, "rental_uris": {"ios": "https://dc.lft.to/lastmile_qr_scan", "android": "https://dc.lft.to/lastmile_qr_scan"}, "is_reserved": 0}, {"lon": -76.97858116666667, "bike_id": "07c471600634e0282d6a31026b67d17a", "lat": 38.907233833333336, "fusion_lon": 0.0, "fusion_lat": 0.0, "type": "electric_scooter", "name": "07c471600634e0282d6a31026b67d17a", "is_disabled": 0, "rental_uris": {"ios": "https://dc.lft.to/lastmile_qr_scan", "android": "https://dc.lft.to/lastmile_qr_scan"}, "is_reserved": 0}, {"lon": -77.02375983333333, "bike_id": "e43340cd6bf5c1af2980a68d16835218", "lat": 38.90299666666667, "fusion_lon": 0.0, "fusion_lat": 0.0, "type": "electric_scooter", "name": "e43340cd6bf5c1af2980a68d16835218", "is_disabled": 0, "rental_uris": {"ios": "https://dc.lft.to/lastmile_qr_scan", "android": "https://dc.lft.to/lastmile_qr_scan"}, "is_reserved": 0}, {"lon": -77.02615766666666, "bike_id": "96d6b200f48cb47802d6419704688dfd", "lat": 38.91414733333333, "fusion_lon": 0.0, "fusion_lat": 0.0, "type": "electric_scooter", "name": "96d6b200f48cb47802d6419704688dfd", "is_disabled": 0, "rental_uris": {"ios": "https://dc.lft.to/lastmile_qr_scan", "android": "https://dc.lft.to/lastmile_qr_scan"}, "is_reserved": 0}, {"lon": -77.02212483333334, "bike_id": "74729c3c30aee354b04736a4144e00a4", "lat": 38.905355, "fusion_lon": 0.0, "fusion_lat": 0.0, "type": "electric_scooter", "name": "74729c3c30aee354b04736a4144e00a4", "is_disabled": 0, "rental_uris": {"ios": "https://dc.lft.to/lastmile_qr_scan", "android": "https://dc.lft.to/lastmile_qr_scan"}, "is_reserved": 0}, {"lon": -77.04240516666667, "bike_id": "5b361810d5189341dcd002c8a528729b", "lat": 38.92221933333333, "fusion_lon": 0.0, "fusion_lat": 0.0, "type": "electric_scooter", "name": "5b361810d5189341dcd002c8a528729b", "is_disabled": 0, "rental_uris": {"ios": "https://dc.lft.to/lastmile_qr_scan", "android": "https://dc.lft.to/lastmile_qr_scan"}, "is_reserved": 0}, {"lon": -77.04358383333333, "bike_id": "f1daa09b0e641f45f5739ac492db88b3", "lat": 38.915897333333334, "fusion_lon": 0.0, "fusion_lat": 0.0, "type": "electric_scooter", "name": "f1daa09b0e641f45f5739ac492db88b3", "is_disabled": 0, "rental_uris": {"ios": "https://dc.lft.to/lastmile_qr_scan", "android": "https://dc.lft.to/lastmile_qr_scan"}, "is_reserved": 0}, {"lon": -77.0260735, "bike_id": "bce268e4e9069fd997f14b76b5d81e76", "lat": 38.89599666666667, "fusion_lon": 0.0, "fusion_lat": 0.0, "type": "electric_bike", "name": "bce268e4e9069fd997f14b76b5d81e76", "is_disabled": 0, "rental_uris": {"ios": "https://dc.lft.to/lastmile_qr_scan", "android": "https://dc.lft.to/lastmile_qr_scan"}, "is_reserved": 0}, {"lon": -77.00623633333333, "bike_id": "96b2abb060f23cb6d7597bf49d2a1764", "lat": 38.87177716666667, "fusion_lon": 0.0, "fusion_lat": 0.0, "type": "electric_scooter", "name": "96b2abb060f23cb6d7597bf49d2a1764", "is_disabled": 0, "rental_uris": {"ios": "https://dc.lft.to/lastmile_qr_scan", "android": "https://dc.lft.to/lastmile_qr_scan"}, "is_reserved": 0}, {"lon": -77.01442666666667, "bike_id": "9a0a1afa62ceadf391c3a9830d3196d2", "lat": 38.90537533333333, "fusion_lon": 0.0, "fusion_lat": 0.0, "type": "electric_scooter", "name": "9a0a1afa62ceadf391c3a9830d3196d2", "is_disabled": 0, "rental_uris": {"ios": "https://dc.lft.to/lastmile_qr_scan", "android": "https://dc.lft.to/lastmile_qr_scan"}, "is_reserved": 0}, {"lon": -77.03526016666666, "bike_id": "d06f8cfc9beb5255847d8683f3f825d6", "lat": 38.923371, "fusion_lon": 0.0, "fusion_lat": 0.0, "type": "electric_scooter", "name": "d06f8cfc9beb5255847d8683f3f825d6", "is_disabled": 0, "rental_uris": {"ios": "https://dc.lft.to/lastmile_qr_scan", "android": "https://dc.lft.to/lastmile_qr_scan"}, "is_reserved": 0}, {"lon": -77.04682483333333, "bike_id": "60a0ad928ba3bf22c6e0b50f35a13289", "lat": 38.90250866666667, "fusion_lon": 0.0, "fusion_lat": 0.0, "type": "electric_scooter", "name": "60a0ad928ba3bf22c6e0b50f35a13289", "is_disabled": 0, "rental_uris": {"ios": "https://dc.lft.to/lastmile_qr_scan", "android": "https://dc.lft.to/lastmile_qr_scan"}, "is_reserved": 0}, {"lon": -77.011157, "bike_id": "5257c2c093ba16bcf1cabb8327695b10", "lat": 38.903500333333334, "fusion_lon": 0.0, "fusion_lat": 0.0, "type": "electric_scooter", "name": "5257c2c093ba16bcf1cabb8327695b10", "is_disabled": 0, "rental_uris": {"ios": "https://dc.lft.to/lastmile_qr_scan", "android": "https://dc.lft.to/lastmile_qr_scan"}, "is_reserved": 0}, {"lon": -76.95751016666667, "bike_id": "83728165ab40417187d5df76e87b113c", "lat": 38.88425983333333, "fusion_lon": 0.0, "fusion_lat": 0.0, "type": "electric_scooter", "name": "83728165ab40417187d5df76e87b113c", "is_disabled": 0, "rental_uris": {"ios": "https://dc.lft.to/lastmile_qr_scan", "android": "https://dc.lft.to/lastmile_qr_scan"}, "is_reserved": 0}, {"lon": -76.99001516666667, "bike_id": "72a5921c2aa401c95efec5041494e59d", "lat": 38.865048333333334, "fusion_lon": 0.0, "fusion_lat": 0.0, "type": "electric_scooter", "name": "72a5921c2aa401c95efec5041494e59d", "is_disabled": 0, "rental_uris": {"ios": "https://dc.lft.to/lastmile_qr_scan", "android": "https://dc.lft.to/lastmile_qr_scan"}, "is_reserved": 0}, {"lon": -77.03046383333333, "bike_id": "08436ca3cd49029057203d035ab11b73", "lat": 38.878377666666665, "fusion_lon": 0.0, "fusion_lat": 0.0, "type": "electric_scooter", "name": "08436ca3cd49029057203d035ab11b73", "is_disabled": 0, "rental_uris": {"ios": "https://dc.lft.to/lastmile_qr_scan", "android": "https://dc.lft.to/lastmile_qr_scan"}, "is_reserved": 0}, {"lon": -77.03863916666667, "bike_id": "d62edb2aad385bed7eb7c3bc44bdfb4e", "lat": 38.91706883333333, "fusion_lon": 0.0, "fusion_lat": 0.0, "type": "electric_scooter", "name": "d62edb2aad385bed7eb7c3bc44bdfb4e", "is_disabled": 0, "rental_uris": {"ios": "https://dc.lft.to/lastmile_qr_scan", "android": "https://dc.lft.to/lastmile_qr_scan"}, "is_reserved": 0}, {"lon": -77.02009883333334, "bike_id": "74919b80d80fa17f47d1cc1704694d0b", "lat": 38.92414566666667, "fusion_lon": 0.0, "fusion_lat": 0.0, "type": "electric_scooter", "name": "74919b80d80fa17f47d1cc1704694d0b", "is_disabled": 0, "rental_uris": {"ios": "https://dc.lft.to/lastmile_qr_scan", "android": "https://dc.lft.to/lastmile_qr_scan"}, "is_reserved": 0}, {"lon": -77.05236933333333, "bike_id": "1e302d488494074168ac7cde22389e8a", "lat": 38.9246585, "fusion_lon": 0.0, "fusion_lat": 0.0, "type": "electric_scooter", "name": "1e302d488494074168ac7cde22389e8a", "is_disabled": 0, "rental_uris": {"ios": "https://dc.lft.to/lastmile_qr_scan", "android": "https://dc.lft.to/lastmile_qr_scan"}, "is_reserved": 0}, {"lon": -77.02084716666667, "bike_id": "4ecf34c7d3fa1b5dafd48960971cbbf8", "lat": 38.92699566666667, "fusion_lon": 0.0, "fusion_lat": 0.0, "type": "electric_scooter", "name": "4ecf34c7d3fa1b5dafd48960971cbbf8", "is_disabled": 0, "rental_uris": {"ios": "https://dc.lft.to/lastmile_qr_scan", "android": "https://dc.lft.to/lastmile_qr_scan"}, "is_reserved": 0}, {"lon": -77.032132, "bike_id": "4fcba0e20fbbe2231ae2081f819ff195", "lat": 38.914705833333336, "fusion_lon": 0.0, "fusion_lat": 0.0, "type": "electric_scooter", "name": "4fcba0e20fbbe2231ae2081f819ff195", "is_disabled": 0, "rental_uris": {"ios": "https://dc.lft.to/lastmile_qr_scan", "android": "https://dc.lft.to/lastmile_qr_scan"}, "is_reserved": 0}, {"lon": -77.00307683333334, "bike_id": "0002181cbf02fa808e8d37db5d5b462f", "lat": 38.89495816666667, "fusion_lon": 0.0, "fusion_lat": 0.0, "type": "electric_scooter", "name": "0002181cbf02fa808e8d37db5d5b462f", "is_disabled": 0, "rental_uris": {"ios": "https://dc.lft.to/lastmile_qr_scan", "android": "https://dc.lft.to/lastmile_qr_scan"}, "is_reserved": 0}, {"lon": -76.976185, "bike_id": "a0cded0873493c40d12885d19df09cdb", "lat": 38.9265435, "fusion_lon": 0.0, "fusion_lat": 0.0, "type": "electric_scooter", "name": "a0cded0873493c40d12885d19df09cdb", "is_disabled": 0, "rental_uris": {"ios": "https://dc.lft.to/lastmile_qr_scan", "android": "https://dc.lft.to/lastmile_qr_scan"}, "is_reserved": 0}, {"lon": -77.04602583333333, "bike_id": "fe997c4459d65f86532eac7984e47a99", "lat": 38.91922, "fusion_lon": 0.0, "fusion_lat": 0.0, "type": "electric_scooter", "name": "fe997c4459d65f86532eac7984e47a99", "is_disabled": 0, "rental_uris": {"ios": "https://dc.lft.to/lastmile_qr_scan", "android": "https://dc.lft.to/lastmile_qr_scan"}, "is_reserved": 0}, {"lon": -77.0217705, "bike_id": "04af746fb1bff84d852842740fa8c96a", "lat": 38.94292983333333, "fusion_lon": 0.0, "fusion_lat": 0.0, "type": "electric_scooter", "name": "04af746fb1bff84d852842740fa8c96a", "is_disabled": 0, "rental_uris": {"ios": "https://dc.lft.to/lastmile_qr_scan", "android": "https://dc.lft.to/lastmile_qr_scan"}, "is_reserved": 0}, {"lon": -77.00926033333333, "bike_id": "01d5fa77f86b4dbc55c99d14f0924d7e", "lat": 38.896449, "fusion_lon": 0.0, "fusion_lat": 0.0, "type": "electric_scooter", "name": "01d5fa77f86b4dbc55c99d14f0924d7e", "is_disabled": 0, "rental_uris": {"ios": "https://dc.lft.to/lastmile_qr_scan", "android": "https://dc.lft.to/lastmile_qr_scan"}, "is_reserved": 0}, {"lon": -77.07300833333333, "bike_id": "f4ebf7b0722483ecd6152edef887fecb", "lat": 38.930583166666665, "fusion_lon": 0.0, "fusion_lat": 0.0, "type": "electric_scooter", "name": "f4ebf7b0722483ecd6152edef887fecb", "is_disabled": 0, "rental_uris": {"ios": "https://dc.lft.to/lastmile_qr_scan", "android": "https://dc.lft.to/lastmile_qr_scan"}, "is_reserved": 0}, {"lon": -77.021871, "bike_id": "c0aeddffdf62245ba891c89ed22ca0d8", "lat": 38.91376966666667, "fusion_lon": 0.0, "fusion_lat": 0.0, "type": "electric_scooter", "name": "c0aeddffdf62245ba891c89ed22ca0d8", "is_disabled": 0, "rental_uris": {"ios": "https://dc.lft.to/lastmile_qr_scan", "android": "https://dc.lft.to/lastmile_qr_scan"}, "is_reserved": 0}, {"lon": -77.03206366666667, "bike_id": "5b3a451062393b1b585e6862fe3d8640", "lat": 38.899885833333336, "fusion_lon": 0.0, "fusion_lat": 0.0, "type": "electric_scooter", "name": "5b3a451062393b1b585e6862fe3d8640", "is_disabled": 0, "rental_uris": {"ios": "https://dc.lft.to/lastmile_qr_scan", "android": "https://dc.lft.to/lastmile_qr_scan"}, "is_reserved": 0}, {"lon": -76.99203083333333, "bike_id": "4e2d1679c124730eee3fcc682557584e", "lat": 38.898309, "fusion_lon": 0.0, "fusion_lat": 0.0, "type": "electric_scooter", "name": "4e2d1679c124730eee3fcc682557584e", "is_disabled": 0, "rental_uris": {"ios": "https://dc.lft.to/lastmile_qr_scan", "android": "https://dc.lft.to/lastmile_qr_scan"}, "is_reserved": 0}, {"lon": -77.0128825, "bike_id": "81100f03015871ca238393a1424c3ba1", "lat": 38.91539066666667, "fusion_lon": 0.0, "fusion_lat": 0.0, "type": "electric_scooter", "name": "81100f03015871ca238393a1424c3ba1", "is_disabled": 0, "rental_uris": {"ios": "https://dc.lft.to/lastmile_qr_scan", "android": "https://dc.lft.to/lastmile_qr_scan"}, "is_reserved": 0}, {"lon": -77.0199305, "bike_id": "4416880c525b7aa436b95cca4c59f582", "lat": 38.9026, "fusion_lon": 0.0, "fusion_lat": 0.0, "type": "electric_scooter", "name": "4416880c525b7aa436b95cca4c59f582", "is_disabled": 0, "rental_uris": {"ios": "https://dc.lft.to/lastmile_qr_scan", "android": "https://dc.lft.to/lastmile_qr_scan"}, "is_reserved": 0}, {"lon": -76.965201, "bike_id": "61f3d37c49a14df5fb9140d3ab582e8d", "lat": 38.874783, "fusion_lon": 0.0, "fusion_lat": 0.0, "type": "electric_scooter", "name": "61f3d37c49a14df5fb9140d3ab582e8d", "is_disabled": 0, "rental_uris": {"ios": "https://dc.lft.to/lastmile_qr_scan", "android": "https://dc.lft.to/lastmile_qr_scan"}, "is_reserved": 0}, {"lon": -77.02300983333333, "bike_id": "6aa06bdbc30ebf964c0d8a5c6fbefeee", "lat": 38.92671883333333, "fusion_lon": 0.0, "fusion_lat": 0.0, "type": "electric_scooter", "name": "6aa06bdbc30ebf964c0d8a5c6fbefeee", "is_disabled": 0, "rental_uris": {"ios": "https://dc.lft.to/lastmile_qr_scan", "android": "https://dc.lft.to/lastmile_qr_scan"}, "is_reserved": 0}, {"lon": -77.04008816666666, "bike_id": "bf5599ccf849e67afbe71884ca9c7674", "lat": 38.92387633333333, "fusion_lon": 0.0, "fusion_lat": 0.0, "type": "electric_scooter", "name": "bf5599ccf849e67afbe71884ca9c7674", "is_disabled": 0, "rental_uris": {"ios": "https://dc.lft.to/lastmile_qr_scan", "android": "https://dc.lft.to/lastmile_qr_scan"}, "is_reserved": 0}, {"lon": -76.99269616666666, "bike_id": "adfd59e6f0a8ca54cd9ef070844466c2", "lat": 38.90611966666667, "fusion_lon": 0.0, "fusion_lat": 0.0, "type": "electric_scooter", "name": "adfd59e6f0a8ca54cd9ef070844466c2", "is_disabled": 0, "rental_uris": {"ios": "https://dc.lft.to/lastmile_qr_scan", "android": "https://dc.lft.to/lastmile_qr_scan"}, "is_reserved": 0}, {"lon": -77.02473333333333, "bike_id": "ab97cfde25977a3ae8696f04f546d3e1", "lat": 38.92003033333334, "fusion_lon": 0.0, "fusion_lat": 0.0, "type": "electric_scooter", "name": "ab97cfde25977a3ae8696f04f546d3e1", "is_disabled": 0, "rental_uris": {"ios": "https://dc.lft.to/lastmile_qr_scan", "android": "https://dc.lft.to/lastmile_qr_scan"}, "is_reserved": 0}, {"lon": -77.021151, "bike_id": "672b1421e42b36c969fb126bf5e36c3b", "lat": 38.937018333333334, "fusion_lon": 0.0, "fusion_lat": 0.0, "type": "electric_scooter", "name": "672b1421e42b36c969fb126bf5e36c3b", "is_disabled": 0, "rental_uris": {"ios": "https://dc.lft.to/lastmile_qr_scan", "android": "https://dc.lft.to/lastmile_qr_scan"}, "is_reserved": 0}, {"lon": -77.04646833333334, "bike_id": "55fa46b470a47a5a2da965424e559d3b", "lat": 38.91479783333333, "fusion_lon": 0.0, "fusion_lat": 0.0, "type": "electric_scooter", "name": "55fa46b470a47a5a2da965424e559d3b", "is_disabled": 0, "rental_uris": {"ios": "https://dc.lft.to/lastmile_qr_scan", "android": "https://dc.lft.to/lastmile_qr_scan"}, "is_reserved": 0}, {"lon": -76.94635483333333, "bike_id": "ce5f03b08f6bace97f52bf14aebd3ba5", "lat": 38.8983125, "fusion_lon": 0.0, "fusion_lat": 0.0, "type": "electric_scooter", "name": "ce5f03b08f6bace97f52bf14aebd3ba5", "is_disabled": 0, "rental_uris": {"ios": "https://dc.lft.to/lastmile_qr_scan", "android": "https://dc.lft.to/lastmile_qr_scan"}, "is_reserved": 0}, {"lon": -77.035957, "bike_id": "8e7b6b7ddd217471b20f59023934ade6", "lat": 38.9367245, "fusion_lon": 0.0, "fusion_lat": 0.0, "type": "electric_scooter", "name": "8e7b6b7ddd217471b20f59023934ade6", "is_disabled": 0, "rental_uris": {"ios": "https://dc.lft.to/lastmile_qr_scan", "android": "https://dc.lft.to/lastmile_qr_scan"}, "is_reserved": 0}, {"lon": -77.04931533333334, "bike_id": "ed264fe6654e3f707da4cddec4b7c625", "lat": 39.029311, "fusion_lon": 0.0, "fusion_lat": 0.0, "type": "electric_bike", "name": "ed264fe6654e3f707da4cddec4b7c625", "is_disabled": 0, "rental_uris": {"ios": "https://dc.lft.to/lastmile_qr_scan", "android": "https://dc.lft.to/lastmile_qr_scan"}, "is_reserved": 0}, {"lon": -76.98882616666667, "bike_id": "455223626ddea80001fef59655442d3b", "lat": 38.866593, "fusion_lon": 0.0, "fusion_lat": 0.0, "type": "electric_scooter", "name": "455223626ddea80001fef59655442d3b", "is_disabled": 0, "rental_uris": {"ios": "https://dc.lft.to/lastmile_qr_scan", "android": "https://dc.lft.to/lastmile_qr_scan"}, "is_reserved": 0}, {"lon": -77.02346183333333, "bike_id": "15f4c359000b5081f36834eabc9607a8", "lat": 38.896296666666665, "fusion_lon": 0.0, "fusion_lat": 0.0, "type": "electric_scooter", "name": "15f4c359000b5081f36834eabc9607a8", "is_disabled": 0, "rental_uris": {"ios": "https://dc.lft.to/lastmile_qr_scan", "android": "https://dc.lft.to/lastmile_qr_scan"}, "is_reserved": 0}, {"lon": -77.03673733333333, "bike_id": "4e0674c3c6d29244b424c80e77a7bb06", "lat": 38.908887166666666, "fusion_lon": 0.0, "fusion_lat": 0.0, "type": "electric_scooter", "name": "4e0674c3c6d29244b424c80e77a7bb06", "is_disabled": 0, "rental_uris": {"ios": "https://dc.lft.to/lastmile_qr_scan", "android": "https://dc.lft.to/lastmile_qr_scan"}, "is_reserved": 0}, {"lon": -77.03468016666666, "bike_id": "056f2b6d2693caa0bca9655e48b85334", "lat": 38.92649616666667, "fusion_lon": 0.0, "fusion_lat": 0.0, "type": "electric_scooter", "name": "056f2b6d2693caa0bca9655e48b85334", "is_disabled": 0, "rental_uris": {"ios": "https://dc.lft.to/lastmile_qr_scan", "android": "https://dc.lft.to/lastmile_qr_scan"}, "is_reserved": 0}, {"lon": -77.030829, "bike_id": "f296e97d09c3a97a134f9a4ecd2c3333", "lat": 38.880374333333336, "fusion_lon": 0.0, "fusion_lat": 0.0, "type": "electric_scooter", "name": "f296e97d09c3a97a134f9a4ecd2c3333", "is_disabled": 0, "rental_uris": {"ios": "https://dc.lft.to/lastmile_qr_scan", "android": "https://dc.lft.to/lastmile_qr_scan"}, "is_reserved": 0}, {"lon": -77.02087816666666, "bike_id": "c4474f3d3805a8f0988d1b05a02316ac", "lat": 38.8999275, "fusion_lon": 0.0, "fusion_lat": 0.0, "type": "electric_scooter", "name": "c4474f3d3805a8f0988d1b05a02316ac", "is_disabled": 0, "rental_uris": {"ios": "https://dc.lft.to/lastmile_qr_scan", "android": "https://dc.lft.to/lastmile_qr_scan"}, "is_reserved": 0}, {"lon": -77.04212816666667, "bike_id": "d418d06338daba5893fcb647fe04d27a", "lat": 38.921266333333335, "fusion_lon": 0.0, "fusion_lat": 0.0, "type": "electric_scooter", "name": "d418d06338daba5893fcb647fe04d27a", "is_disabled": 0, "rental_uris": {"ios": "https://dc.lft.to/lastmile_qr_scan", "android": "https://dc.lft.to/lastmile_qr_scan"}, "is_reserved": 0}, {"lon": -77.0260445, "bike_id": "af7c3c3f1d3716a17853302e5cb47f44", "lat": 38.92658683333333, "fusion_lon": 0.0, "fusion_lat": 0.0, "type": "electric_scooter", "name": "af7c3c3f1d3716a17853302e5cb47f44", "is_disabled": 0, "rental_uris": {"ios": "https://dc.lft.to/lastmile_qr_scan", "android": "https://dc.lft.to/lastmile_qr_scan"}, "is_reserved": 0}, {"lon": -77.03987883333333, "bike_id": "b2271e8d5eb87c124aa3d07a709fe94e", "lat": 38.924516833333335, "fusion_lon": 0.0, "fusion_lat": 0.0, "type": "electric_scooter", "name": "b2271e8d5eb87c124aa3d07a709fe94e", "is_disabled": 0, "rental_uris": {"ios": "https://dc.lft.to/lastmile_qr_scan", "android": "https://dc.lft.to/lastmile_qr_scan"}, "is_reserved": 0}, {"lon": -77.04444316666667, "bike_id": "5c24793b423ad1eb8f1bff7193c1fc68", "lat": 38.91876416666667, "fusion_lon": 0.0, "fusion_lat": 0.0, "type": "electric_scooter", "name": "5c24793b423ad1eb8f1bff7193c1fc68", "is_disabled": 0, "rental_uris": {"ios": "https://dc.lft.to/lastmile_qr_scan", "android": "https://dc.lft.to/lastmile_qr_scan"}, "is_reserved": 0}, {"lon": -77.02219183333334, "bike_id": "7a50195b5b1a6f9707a103e142734cdd", "lat": 38.94097, "fusion_lon": 0.0, "fusion_lat": 0.0, "type": "electric_scooter", "name": "7a50195b5b1a6f9707a103e142734cdd", "is_disabled": 0, "rental_uris": {"ios": "https://dc.lft.to/lastmile_qr_scan", "android": "https://dc.lft.to/lastmile_qr_scan"}, "is_reserved": 0}, {"lon": -77.02962283333333, "bike_id": "15c3113618800bba1b560f28ade43bf2", "lat": 38.916754166666664, "fusion_lon": 0.0, "fusion_lat": 0.0, "type": "electric_scooter", "name": "15c3113618800bba1b560f28ade43bf2", "is_disabled": 0, "rental_uris": {"ios": "https://dc.lft.to/lastmile_qr_scan", "android": "https://dc.lft.to/lastmile_qr_scan"}, "is_reserved": 0}, {"lon": -76.99015433333334, "bike_id": "f9e71cd202288118a946fba0122d2c77", "lat": 38.8941795, "fusion_lon": 0.0, "fusion_lat": 0.0, "type": "electric_scooter", "name": "f9e71cd202288118a946fba0122d2c77", "is_disabled": 0, "rental_uris": {"ios": "https://dc.lft.to/lastmile_qr_scan", "android": "https://dc.lft.to/lastmile_qr_scan"}, "is_reserved": 0}, {"lon": -77.0261735, "bike_id": "68a98a5662625fa4bf633ae355c7f1a0", "lat": 38.905680333333336, "fusion_lon": 0.0, "fusion_lat": 0.0, "type": "electric_scooter", "name": "68a98a5662625fa4bf633ae355c7f1a0", "is_disabled": 0, "rental_uris": {"ios": "https://dc.lft.to/lastmile_qr_scan", "android": "https://dc.lft.to/lastmile_qr_scan"}, "is_reserved": 0}, {"lon": -77.01576283333333, "bike_id": "c9a3b92d8a87c6ac591bcb8da6c8cafe", "lat": 38.965724333333334, "fusion_lon": 0.0, "fusion_lat": 0.0, "type": "electric_scooter", "name": "c9a3b92d8a87c6ac591bcb8da6c8cafe", "is_disabled": 0, "rental_uris": {"ios": "https://dc.lft.to/lastmile_qr_scan", "android": "https://dc.lft.to/lastmile_qr_scan"}, "is_reserved": 0}, {"lon": -77.01243183333334, "bike_id": "034e20fdc6fe5735ca5ef02842e10969", "lat": 38.892961666666665, "fusion_lon": 0.0, "fusion_lat": 0.0, "type": "electric_scooter", "name": "034e20fdc6fe5735ca5ef02842e10969", "is_disabled": 0, "rental_uris": {"ios": "https://dc.lft.to/lastmile_qr_scan", "android": "https://dc.lft.to/lastmile_qr_scan"}, "is_reserved": 0}, {"lon": -77.0272005, "bike_id": "298658dc6aca0e027782db91e23c35a9", "lat": 38.9107355, "fusion_lon": 0.0, "fusion_lat": 0.0, "type": "electric_scooter", "name": "298658dc6aca0e027782db91e23c35a9", "is_disabled": 0, "rental_uris": {"ios": "https://dc.lft.to/lastmile_qr_scan", "android": "https://dc.lft.to/lastmile_qr_scan"}, "is_reserved": 0}, {"lon": -77.04629166666666, "bike_id": "b3b50c0c3696d62339949d390d847e97", "lat": 38.91908433333333, "fusion_lon": 0.0, "fusion_lat": 0.0, "type": "electric_scooter", "name": "b3b50c0c3696d62339949d390d847e97", "is_disabled": 0, "rental_uris": {"ios": "https://dc.lft.to/lastmile_qr_scan", "android": "https://dc.lft.to/lastmile_qr_scan"}, "is_reserved": 0}, {"lon": -77.016395, "bike_id": "291bd1583bb2737fd9a950e40b5c011f", "lat": 38.92897033333333, "fusion_lon": 0.0, "fusion_lat": 0.0, "type": "electric_scooter", "name": "291bd1583bb2737fd9a950e40b5c011f", "is_disabled": 0, "rental_uris": {"ios": "https://dc.lft.to/lastmile_qr_scan", "android": "https://dc.lft.to/lastmile_qr_scan"}, "is_reserved": 0}, {"lon": -77.04900833333333, "bike_id": "d45d2867806ae16ff28d1bd6891146bc", "lat": 38.90340833333333, "fusion_lon": 0.0, "fusion_lat": 0.0, "type": "electric_scooter", "name": "d45d2867806ae16ff28d1bd6891146bc", "is_disabled": 0, "rental_uris": {"ios": "https://dc.lft.to/lastmile_qr_scan", "android": "https://dc.lft.to/lastmile_qr_scan"}, "is_reserved": 0}, {"lon": -77.036742, "bike_id": "9e1a80b9479ac6c99f9bb6a3b4279992", "lat": 38.909592, "fusion_lon": 0.0, "fusion_lat": 0.0, "type": "electric_scooter", "name": "9e1a80b9479ac6c99f9bb6a3b4279992", "is_disabled": 0, "rental_uris": {"ios": "https://dc.lft.to/lastmile_qr_scan", "android": "https://dc.lft.to/lastmile_qr_scan"}, "is_reserved": 0}, {"lon": -77.03672716666667, "bike_id": "5d505b83dbe0e6e85720facd9f6ca4ff", "lat": 38.921212, "fusion_lon": 0.0, "fusion_lat": 0.0, "type": "electric_scooter", "name": "5d505b83dbe0e6e85720facd9f6ca4ff", "is_disabled": 0, "rental_uris": {"ios": "https://dc.lft.to/lastmile_qr_scan", "android": "https://dc.lft.to/lastmile_qr_scan"}, "is_reserved": 0}, {"lon": -77.0580185, "bike_id": "e851c2a5566e2fd2cdcfa594ff1b721c", "lat": 38.93455133333333, "fusion_lon": 0.0, "fusion_lat": 0.0, "type": "electric_scooter", "name": "e851c2a5566e2fd2cdcfa594ff1b721c", "is_disabled": 0, "rental_uris": {"ios": "https://dc.lft.to/lastmile_qr_scan", "android": "https://dc.lft.to/lastmile_qr_scan"}, "is_reserved": 0}, {"lon": -77.044775, "bike_id": "03d2af601031db7779cbde842247f48d", "lat": 38.91391566666667, "fusion_lon": 0.0, "fusion_lat": 0.0, "type": "electric_scooter", "name": "03d2af601031db7779cbde842247f48d", "is_disabled": 0, "rental_uris": {"ios": "https://dc.lft.to/lastmile_qr_scan", "android": "https://dc.lft.to/lastmile_qr_scan"}, "is_reserved": 0}, {"lon": -76.93735266666667, "bike_id": "158d1bda8dee67355e40c533e4f3d39b", "lat": 38.890111833333336, "fusion_lon": 0.0, "fusion_lat": 0.0, "type": "electric_scooter", "name": "158d1bda8dee67355e40c533e4f3d39b", "is_disabled": 0, "rental_uris": {"ios": "https://dc.lft.to/lastmile_qr_scan", "android": "https://dc.lft.to/lastmile_qr_scan"}, "is_reserved": 0}, {"lon": -77.03681266666666, "bike_id": "e584b4b008d6dbba6fab7873e023b064", "lat": 38.9087625, "fusion_lon": 0.0, "fusion_lat": 0.0, "type": "electric_scooter", "name": "e584b4b008d6dbba6fab7873e023b064", "is_disabled": 0, "rental_uris": {"ios": "https://dc.lft.to/lastmile_qr_scan", "android": "https://dc.lft.to/lastmile_qr_scan"}, "is_reserved": 0}, {"lon": -77.00675233333334, "bike_id": "da07ed2e979fb496042659169605f441", "lat": 38.90020483333333, "fusion_lon": 0.0, "fusion_lat": 0.0, "type": "electric_scooter", "name": "da07ed2e979fb496042659169605f441", "is_disabled": 0, "rental_uris": {"ios": "https://dc.lft.to/lastmile_qr_scan", "android": "https://dc.lft.to/lastmile_qr_scan"}, "is_reserved": 0}, {"lon": -77.03261, "bike_id": "0cee0ff7684c42692a97c0750de423f5", "lat": 38.93696966666667, "fusion_lon": 0.0, "fusion_lat": 0.0, "type": "electric_scooter", "name": "0cee0ff7684c42692a97c0750de423f5", "is_disabled": 0, "rental_uris": {"ios": "https://dc.lft.to/lastmile_qr_scan", "android": "https://dc.lft.to/lastmile_qr_scan"}, "is_reserved": 0}, {"lon": -76.93755216666666, "bike_id": "bec90d44619ced49514c3ba0a66f9e1f", "lat": 38.8904665, "fusion_lon": 0.0, "fusion_lat": 0.0, "type": "electric_scooter", "name": "bec90d44619ced49514c3ba0a66f9e1f", "is_disabled": 0, "rental_uris": {"ios": "https://dc.lft.to/lastmile_qr_scan", "android": "https://dc.lft.to/lastmile_qr_scan"}, "is_reserved": 0}, {"lon": -77.05238433333334, "bike_id": "1b906fc36e99f6185eeaf09ed0cef11d", "lat": 38.92456516666667, "fusion_lon": 0.0, "fusion_lat": 0.0, "type": "electric_scooter", "name": "1b906fc36e99f6185eeaf09ed0cef11d", "is_disabled": 0, "rental_uris": {"ios": "https://dc.lft.to/lastmile_qr_scan", "android": "https://dc.lft.to/lastmile_qr_scan"}, "is_reserved": 0}, {"lon": -76.99547666666666, "bike_id": "6450ea774b99eb0f8e39759d587648a1", "lat": 38.86253966666666, "fusion_lon": 0.0, "fusion_lat": 0.0, "type": "electric_scooter", "name": "6450ea774b99eb0f8e39759d587648a1", "is_disabled": 0, "rental_uris": {"ios": "https://dc.lft.to/lastmile_qr_scan", "android": "https://dc.lft.to/lastmile_qr_scan"}, "is_reserved": 0}, {"lon": -76.9881835, "bike_id": "9cd4eb6184e2da6e43680faf9d8e2947", "lat": 38.85829316666667, "fusion_lon": 0.0, "fusion_lat": 0.0, "type": "electric_scooter", "name": "9cd4eb6184e2da6e43680faf9d8e2947", "is_disabled": 0, "rental_uris": {"ios": "https://dc.lft.to/lastmile_qr_scan", "android": "https://dc.lft.to/lastmile_qr_scan"}, "is_reserved": 0}, {"lon": -77.03554766666667, "bike_id": "154315e5d99d60f0f5bebc378fba3732", "lat": 38.93380916666667, "fusion_lon": 0.0, "fusion_lat": 0.0, "type": "electric_scooter", "name": "154315e5d99d60f0f5bebc378fba3732", "is_disabled": 0, "rental_uris": {"ios": "https://dc.lft.to/lastmile_qr_scan", "android": "https://dc.lft.to/lastmile_qr_scan"}, "is_reserved": 0}, {"lon": -77.039235, "bike_id": "5237dec47d3e81925194ce1479ecd639", "lat": 38.91117, "fusion_lon": 0.0, "fusion_lat": 0.0, "type": "electric_scooter", "name": "5237dec47d3e81925194ce1479ecd639", "is_disabled": 0, "rental_uris": {"ios": "https://dc.lft.to/lastmile_qr_scan", "android": "https://dc.lft.to/lastmile_qr_scan"}, "is_reserved": 0}, {"lon": -76.95196883333334, "bike_id": "a5aa41ae402a8dac9fd4ef3d9844ae59", "lat": 38.90004483333333, "fusion_lon": 0.0, "fusion_lat": 0.0, "type": "electric_scooter", "name": "a5aa41ae402a8dac9fd4ef3d9844ae59", "is_disabled": 0, "rental_uris": {"ios": "https://dc.lft.to/lastmile_qr_scan", "android": "https://dc.lft.to/lastmile_qr_scan"}, "is_reserved": 0}, {"lon": -77.04265566666666, "bike_id": "80711cf0e94dc2f7cabec64f2de9cbcb", "lat": 38.9103785, "fusion_lon": 0.0, "fusion_lat": 0.0, "type": "electric_scooter", "name": "80711cf0e94dc2f7cabec64f2de9cbcb", "is_disabled": 0, "rental_uris": {"ios": "https://dc.lft.to/lastmile_qr_scan", "android": "https://dc.lft.to/lastmile_qr_scan"}, "is_reserved": 0}, {"lon": -77.01606066666666, "bike_id": "7ef1e0806b5c8997cbf3a03e0c6c4ff9", "lat": 38.910637333333334, "fusion_lon": 0.0, "fusion_lat": 0.0, "type": "electric_scooter", "name": "7ef1e0806b5c8997cbf3a03e0c6c4ff9", "is_disabled": 0, "rental_uris": {"ios": "https://dc.lft.to/lastmile_qr_scan", "android": "https://dc.lft.to/lastmile_qr_scan"}, "is_reserved": 0}, {"lon": -77.03862716666667, "bike_id": "3d3d41281a4ee08211227fd0a1375b7b", "lat": 38.93130216666667, "fusion_lon": 0.0, "fusion_lat": 0.0, "type": "electric_scooter", "name": "3d3d41281a4ee08211227fd0a1375b7b", "is_disabled": 0, "rental_uris": {"ios": "https://dc.lft.to/lastmile_qr_scan", "android": "https://dc.lft.to/lastmile_qr_scan"}, "is_reserved": 0}, {"lon": -77.03378033333334, "bike_id": "5bc5bee0535e829368dc6914a04e8924", "lat": 38.90967, "fusion_lon": 0.0, "fusion_lat": 0.0, "type": "electric_scooter", "name": "5bc5bee0535e829368dc6914a04e8924", "is_disabled": 0, "rental_uris": {"ios": "https://dc.lft.to/lastmile_qr_scan", "android": "https://dc.lft.to/lastmile_qr_scan"}, "is_reserved": 0}, {"lon": -77.04451066666667, "bike_id": "e2ba9a004edfad94ce184bbb7420af0f", "lat": 38.919376166666666, "fusion_lon": 0.0, "fusion_lat": 0.0, "type": "electric_scooter", "name": "e2ba9a004edfad94ce184bbb7420af0f", "is_disabled": 0, "rental_uris": {"ios": "https://dc.lft.to/lastmile_qr_scan", "android": "https://dc.lft.to/lastmile_qr_scan"}, "is_reserved": 0}, {"lon": -76.93173333333333, "bike_id": "49821e29563e7fcf292f8bc5d4b2be75", "lat": 38.8988255, "fusion_lon": 0.0, "fusion_lat": 0.0, "type": "electric_scooter", "name": "49821e29563e7fcf292f8bc5d4b2be75", "is_disabled": 0, "rental_uris": {"ios": "https://dc.lft.to/lastmile_qr_scan", "android": "https://dc.lft.to/lastmile_qr_scan"}, "is_reserved": 0}, {"lon": -76.93367266666667, "bike_id": "ff605dee5ac66fb16ed114a866b01b56", "lat": 38.89914783333333, "fusion_lon": 0.0, "fusion_lat": 0.0, "type": "electric_scooter", "name": "ff605dee5ac66fb16ed114a866b01b56", "is_disabled": 0, "rental_uris": {"ios": "https://dc.lft.to/lastmile_qr_scan", "android": "https://dc.lft.to/lastmile_qr_scan"}, "is_reserved": 0}, {"lon": -76.99614333333334, "bike_id": "4fae69ec94ea94ed75ce045a4be1900d", "lat": 38.8831455, "fusion_lon": 0.0, "fusion_lat": 0.0, "type": "electric_scooter", "name": "4fae69ec94ea94ed75ce045a4be1900d", "is_disabled": 0, "rental_uris": {"ios": "https://dc.lft.to/lastmile_qr_scan", "android": "https://dc.lft.to/lastmile_qr_scan"}, "is_reserved": 0}, {"lon": -77.01141933333334, "bike_id": "ceb9bb3be81f92606a9d817c00963155", "lat": 38.90646616666667, "fusion_lon": 0.0, "fusion_lat": 0.0, "type": "electric_scooter", "name": "ceb9bb3be81f92606a9d817c00963155", "is_disabled": 0, "rental_uris": {"ios": "https://dc.lft.to/lastmile_qr_scan", "android": "https://dc.lft.to/lastmile_qr_scan"}, "is_reserved": 0}, {"lon": -77.04364433333333, "bike_id": "5746404e5d88c8b85be69d57a28de244", "lat": 38.92157616666667, "fusion_lon": 0.0, "fusion_lat": 0.0, "type": "electric_scooter", "name": "5746404e5d88c8b85be69d57a28de244", "is_disabled": 0, "rental_uris": {"ios": "https://dc.lft.to/lastmile_qr_scan", "android": "https://dc.lft.to/lastmile_qr_scan"}, "is_reserved": 0}, {"lon": -76.99570016666667, "bike_id": "22212ac52cc5b60223e63dba59795513", "lat": 38.85181016666667, "fusion_lon": 0.0, "fusion_lat": 0.0, "type": "electric_bike", "name": "22212ac52cc5b60223e63dba59795513", "is_disabled": 0, "rental_uris": {"ios": "https://dc.lft.to/lastmile_qr_scan", "android": "https://dc.lft.to/lastmile_qr_scan"}, "is_reserved": 0}, {"lon": -77.011587, "bike_id": "3a85245148b26db904d56539cb09b01d", "lat": 38.9140785, "fusion_lon": 0.0, "fusion_lat": 0.0, "type": "electric_scooter", "name": "3a85245148b26db904d56539cb09b01d", "is_disabled": 0, "rental_uris": {"ios": "https://dc.lft.to/lastmile_qr_scan", "android": "https://dc.lft.to/lastmile_qr_scan"}, "is_reserved": 0}, {"lon": -77.02188666666666, "bike_id": "fb49227d06cbf90c0cfe3b7e1e808da8", "lat": 38.90585033333333, "fusion_lon": 0.0, "fusion_lat": 0.0, "type": "electric_scooter", "name": "fb49227d06cbf90c0cfe3b7e1e808da8", "is_disabled": 0, "rental_uris": {"ios": "https://dc.lft.to/lastmile_qr_scan", "android": "https://dc.lft.to/lastmile_qr_scan"}, "is_reserved": 0}, {"lon": -77.02553883333333, "bike_id": "ee874cf7535b78b16b13fb575f59aa74", "lat": 38.916853333333336, "fusion_lon": 0.0, "fusion_lat": 0.0, "type": "electric_scooter", "name": "ee874cf7535b78b16b13fb575f59aa74", "is_disabled": 0, "rental_uris": {"ios": "https://dc.lft.to/lastmile_qr_scan", "android": "https://dc.lft.to/lastmile_qr_scan"}, "is_reserved": 0}, {"lon": -77.0586295, "bike_id": "48bfc145d40a648982e2eca305df4f8f", "lat": 38.9360945, "fusion_lon": 0.0, "fusion_lat": 0.0, "type": "electric_scooter", "name": "48bfc145d40a648982e2eca305df4f8f", "is_disabled": 0, "rental_uris": {"ios": "https://dc.lft.to/lastmile_qr_scan", "android": "https://dc.lft.to/lastmile_qr_scan"}, "is_reserved": 0}, {"lon": -77.055146, "bike_id": "756cb08f526cded1f01bfef4bc8acd05", "lat": 38.89973783333333, "fusion_lon": 0.0, "fusion_lat": 0.0, "type": "electric_scooter", "name": "756cb08f526cded1f01bfef4bc8acd05", "is_disabled": 0, "rental_uris": {"ios": "https://dc.lft.to/lastmile_qr_scan", "android": "https://dc.lft.to/lastmile_qr_scan"}, "is_reserved": 0},