{"data": {"bikes": [{"bike_id": "470bc0bc7a4475a254eb98329778d165", "type": "electric_scooter", "is_disabled": 0, "lat": 38.9058785, "rental_uris": {"ios": "https://dc.lft.to/lastmile_qr_scan", "android": "https://dc.lft.to/lastmile_qr_scan"}, "is_reserved": 0, "fusion_lon": 0.0, "fusion_lat": 0.0, "lon": -77.04718783333334, "name": "470bc0bc7a4475a254eb98329778d165"}, {"bike_id": "67076c1bcb50bb2aefc3da4077e82760", "type": "electric_scooter", "is_disabled": 0, "lat": 38.94193516666667, "rental_uris": {"ios": "https://dc.lft.to/lastmile_qr_scan", "android": "https://dc.lft.to/lastmile_qr_scan"}, "is_reserved": 0, "fusion_lon": 0.0, "fusion_lat": 0.0, "lon": -77.03321916666667, "name": "67076c1bcb50bb2aefc3da4077e82760"}, {"bike_id": "102bc1b885358ae08894aa384a3f0b62", "type": "electric_scooter", "is_disabled": 0, "lat": 38.93878016666667, "rental_uris": {"ios": "https://dc.lft.to/lastmile_qr_scan", "android": "https://dc.lft.to/lastmile_qr_scan"}, "is_reserved": 0, "fusion_lon": 0.0, "fusion_lat": 0.0, "lon": -77.02477883333333, "name": "102bc1b885358ae08894aa384a3f0b62"}, {"bike_id": "0771760b48fc280e456d229fc7089076", "type": "electric_scooter", "is_disabled": 0, "lat": 38.905469333333336, "rental_uris": {"ios": "https://dc.lft.to/lastmile_qr_scan", "android": "https://dc.lft.to/lastmile_qr_scan"}, "is_reserved": 0, "fusion_lon": 0.0, "fusion_lat": 0.0, "lon": -77.04693466666667, "name": "0771760b48fc280e456d229fc7089076"}, {"bike_id": "1b30f436b3eb81d04611249f000d77d8", "type": "electric_scooter", "is_disabled": 0, "lat": 38.918755833333336, "rental_uris": {"ios": "https://dc.lft.to/lastmile_qr_scan", "android": "https://dc.lft.to/lastmile_qr_scan"}, "is_reserved": 0, "fusion_lon": 0.0, "fusion_lat": 0.0, "lon": -77.03471366666666, "name": "1b30f436b3eb81d04611249f000d77d8"}, {"bike_id": "b556568e10fd994b0d58732dc678e4b7", "type": "electric_scooter", "is_disabled": 0, "lat": 38.898304333333336, "rental_uris": {"ios": "https://dc.lft.to/lastmile_qr_scan", "android": "https://dc.lft.to/lastmile_qr_scan"}, "is_reserved": 0, "fusion_lon": 0.0, "fusion_lat": 0.0, "lon": -77.00743633333333, "name": "b556568e10fd994b0d58732dc678e4b7"}, {"bike_id": "fff53ac387dfbf846948b7170abbe352", "type": "electric_scooter", "is_disabled": 0, "lat": 38.92319666666667, "rental_uris": {"ios": "https://dc.lft.to/lastmile_qr_scan", "android": "https://dc.lft.to/lastmile_qr_scan"}, "is_reserved": 0, "fusion_lon": 0.0, "fusion_lat": 0.0, "lon": -77.046468, "name": "fff53ac387dfbf846948b7170abbe352"}, {"bike_id": "c89d8f88a5948429aba3d536c72eead1", "type": "electric_bike", "is_disabled": 0, "lat": 38.86872416666667, "rental_uris": {"ios": "https://dc.lft.to/lastmile_qr_scan", "android": "https://dc.lft.to/lastmile_qr_scan"}, "is_reserved": 0, "fusion_lon": 0.0, "fusion_lat": 0.0, "lon": -76.97085833333334, "name": "c89d8f88a5948429aba3d536c72eead1"}, {"bike_id": "a1c1deef21cbeb5ebd2a2846118a91a5", "type": "electric_scooter", "is_disabled": 0, "lat": 38.941944666666664, "rental_uris": {"ios": "https://dc.lft.to/lastmile_qr_scan", "android": "https://dc.lft.to/lastmile_qr_scan"}, "is_reserved": 0, "fusion_lon": 0.0, "fusion_lat": 0.0, "lon": -77.03655133333334, "name": "a1c1deef21cbeb5ebd2a2846118a91a5"}, {"bike_id": "b62703153c6a9d124a9bc1d97cf26255", "type": "electric_scooter", "is_disabled": 0, "lat": 38.8513745, "rental_uris": {"ios": "https://dc.lft.to/lastmile_qr_scan", "android": "https://dc.lft.to/lastmile_qr_scan"}, "is_reserved": 0, "fusion_lon": 0.0, "fusion_lat": 0.0, "lon": -76.9711245, "name": "b62703153c6a9d124a9bc1d97cf26255"}, {"bike_id": "98c9341e5027dc2628141091cb6d8063", "type": "electric_scooter", "is_disabled": 0, "lat": 38.843134666666664, "rental_uris": {"ios": "https://dc.lft.to/lastmile_qr_scan", "android": "https://dc.lft.to/lastmile_qr_scan"}, "is_reserved": 0, "fusion_lon": 0.0, "fusion_lat": 0.0, "lon": -76.99920783333333, "name": "98c9341e5027dc2628141091cb6d8063"}, {"bike_id": "8eefd38d5247ddda65c3d6a49a0669e5", "type": "electric_scooter", "is_disabled": 0, "lat": 38.9173355, "rental_uris": {"ios": "https://dc.lft.to/lastmile_qr_scan", "android": "https://dc.lft.to/lastmile_qr_scan"}, "is_reserved": 0, "fusion_lon": 0.0, "fusion_lat": 0.0, "lon": -77.02598533333334, "name": "8eefd38d5247ddda65c3d6a49a0669e5"}, {"bike_id": "882e9c2e969573ec3326736fea0b49b1", "type": "electric_scooter", "is_disabled": 0, "lat": 38.91113083333333, "rental_uris": {"ios": "https://dc.lft.to/lastmile_qr_scan", "android": "https://dc.lft.to/lastmile_qr_scan"}, "is_reserved": 0, "fusion_lon": 0.0, "fusion_lat": 0.0, "lon": -77.043929, "name": "882e9c2e969573ec3326736fea0b49b1"}, {"bike_id": "71ccd9870e69010c0430e45946d9eead", "type": "electric_scooter", "is_disabled": 0, "lat": 38.9157785, "rental_uris": {"ios": "https://dc.lft.to/lastmile_qr_scan", "android": "https://dc.lft.to/lastmile_qr_scan"}, "is_reserved": 0, "fusion_lon": 0.0, "fusion_lat": 0.0, "lon": -77.01252916666667, "name": "71ccd9870e69010c0430e45946d9eead"}, {"bike_id": "f99d178fb2d80be5a438b912909941e7", "type": "electric_scooter", "is_disabled": 0, "lat": 38.90024433333333, "rental_uris": {"ios": "https://dc.lft.to/lastmile_qr_scan", "android": "https://dc.lft.to/lastmile_qr_scan"}, "is_reserved": 0, "fusion_lon": 0.0, "fusion_lat": 0.0, "lon": -77.038169, "name": "f99d178fb2d80be5a438b912909941e7"}, {"bike_id": "26a6cceeb70418c253e4ff1948f035ff", "type": "electric_bike", "is_disabled": 0, "lat": 38.94802083333333, "rental_uris": {"ios": "https://dc.lft.to/lastmile_qr_scan", "android": "https://dc.lft.to/lastmile_qr_scan"}, "is_reserved": 0, "fusion_lon": 0.0, "fusion_lat": 0.0, "lon": -76.95539666666667, "name": "26a6cceeb70418c253e4ff1948f035ff"}, {"bike_id": "31a3bfe80d62594aa1ea65e1562d1ea3", "type": "electric_scooter", "is_disabled": 0, "lat": 38.9156435, "rental_uris": {"ios": "https://dc.lft.to/lastmile_qr_scan", "android": "https://dc.lft.to/lastmile_qr_scan"}, "is_reserved": 0, "fusion_lon": 0.0, "fusion_lat": 0.0, "lon": -77.02595116666667, "name": "31a3bfe80d62594aa1ea65e1562d1ea3"}, {"bike_id": "62184e70d374c5d26f040c7b0370ffe2", "type": "electric_scooter", "is_disabled": 0, "lat": 38.915550833333334, "rental_uris": {"ios": "https://dc.lft.to/lastmile_qr_scan", "android": "https://dc.lft.to/lastmile_qr_scan"}, "is_reserved": 0, "fusion_lon": 0.0, "fusion_lat": 0.0, "lon": -77.03173083333333, "name": "62184e70d374c5d26f040c7b0370ffe2"}, {"bike_id": "a104e0cb7cbc930dca9808c117f6895b", "type": "electric_scooter", "is_disabled": 0, "lat": 38.87711616666667, "rental_uris": {"ios": "https://dc.lft.to/lastmile_qr_scan", "android": "https://dc.lft.to/lastmile_qr_scan"}, "is_reserved": 0, "fusion_lon": 0.0, "fusion_lat": 0.0, "lon": -77.0176835, "name": "a104e0cb7cbc930dca9808c117f6895b"}, {"bike_id": "2bf076bfb243140e907e780ed3e27198", "type": "electric_scooter", "is_disabled": 0, "lat": 38.9301365, "rental_uris": {"ios": "https://dc.lft.to/lastmile_qr_scan", "android": "https://dc.lft.to/lastmile_qr_scan"}, "is_reserved": 0, "fusion_lon": 0.0, "fusion_lat": 0.0, "lon": -77.02097083333334, "name": "2bf076bfb243140e907e780ed3e27198"}, {"bike_id": "c9d49184b48b2f2c77cd99d7af309acd", "type": "electric_scooter", "is_disabled": 0, "lat": 38.92897833333333, "rental_uris": {"ios": "https://dc.lft.to/lastmile_qr_scan", "android": "https://dc.lft.to/lastmile_qr_scan"}, "is_reserved": 0, "fusion_lon": 0.0, "fusion_lat": 0.0, "lon": -77.027513, "name": "c9d49184b48b2f2c77cd99d7af309acd"}, {"bike_id": "320b1f99ace0d4e541a10e0778d6fe70", "type": "electric_scooter", "is_disabled": 0, "lat": 38.922479, "rental_uris": {"ios": "https://dc.lft.to/lastmile_qr_scan", "android": "https://dc.lft.to/lastmile_qr_scan"}, "is_reserved": 0, "fusion_lon": 0.0, "fusion_lat": 0.0, "lon": -77.04271716666666, "name": "320b1f99ace0d4e541a10e0778d6fe70"}, {"bike_id": "473991e78371ec445ca1547fc96cd30f", "type": "electric_scooter", "is_disabled": 0, "lat": 38.921284166666666, "rental_uris": {"ios": "https://dc.lft.to/lastmile_qr_scan", "android": "https://dc.lft.to/lastmile_qr_scan"}, "is_reserved": 0, "fusion_lon": 0.0, "fusion_lat": 0.0, "lon": -77.0442425, "name": "473991e78371ec445ca1547fc96cd30f"}, {"bike_id": "e0c9fa7416d2ad75eb756bf8e125f95c", "type": "electric_scooter", "is_disabled": 0, "lat": 38.912735, "rental_uris": {"ios": "https://dc.lft.to/lastmile_qr_scan", "android": "https://dc.lft.to/lastmile_qr_scan"}, "is_reserved": 0, "fusion_lon": 0.0, "fusion_lat": 0.0, "lon": -77.02210966666667, "name": "e0c9fa7416d2ad75eb756bf8e125f95c"}, {"bike_id": "83a03e49579591f6c2649c321153f85d", "type": "electric_bike", "is_disabled": 0, "lat": 38.92573183333333, "rental_uris": {"ios": "https://dc.lft.to/lastmile_qr_scan", "android": "https://dc.lft.to/lastmile_qr_scan"}, "is_reserved": 0, "fusion_lon": 0.0, "fusion_lat": 0.0, "lon": -77.04371083333334, "name": "83a03e49579591f6c2649c321153f85d"}, {"bike_id": "713ef707687f4b63baa63c8d7697fb62", "type": "electric_scooter", "is_disabled": 0, "lat": 38.9205435, "rental_uris": {"ios": "https://dc.lft.to/lastmile_qr_scan", "android": "https://dc.lft.to/lastmile_qr_scan"}, "is_reserved": 0, "fusion_lon": 0.0, "fusion_lat": 0.0, "lon": -77.03346966666666, "name": "713ef707687f4b63baa63c8d7697fb62"}, {"bike_id": "3f6addb273ad60b908b7908fed2eccbd", "type": "electric_scooter", "is_disabled": 0, "lat": 38.86247983333333, "rental_uris": {"ios": "https://dc.lft.to/lastmile_qr_scan", "android": "https://dc.lft.to/lastmile_qr_scan"}, "is_reserved": 0, "fusion_lon": 0.0, "fusion_lat": 0.0, "lon": -76.995027, "name": "3f6addb273ad60b908b7908fed2eccbd"}, {"bike_id": "e33db9115598c95c860dd30abf2a6c86", "type": "electric_scooter", "is_disabled": 0, "lat": 38.92876533333333, "rental_uris": {"ios": "https://dc.lft.to/lastmile_qr_scan", "android": "https://dc.lft.to/lastmile_qr_scan"}, "is_reserved": 0, "fusion_lon": 0.0, "fusion_lat": 0.0, "lon": -77.03413016666667, "name": "e33db9115598c95c860dd30abf2a6c86"}, {"bike_id": "5e86d5329225b2f8484e601af20d432c", "type": "electric_scooter", "is_disabled": 0, "lat": 38.906807666666666, "rental_uris": {"ios": "https://dc.lft.to/lastmile_qr_scan", "android": "https://dc.lft.to/lastmile_qr_scan"}, "is_reserved": 0, "fusion_lon": 0.0, "fusion_lat": 0.0, "lon": -76.97996883333333, "name": "5e86d5329225b2f8484e601af20d432c"}, {"bike_id": "ae97f0618ea1fc1fb0a97137c8a05d27", "type": "electric_scooter", "is_disabled": 0, "lat": 38.88347566666667, "rental_uris": {"ios": "https://dc.lft.to/lastmile_qr_scan", "android": "https://dc.lft.to/lastmile_qr_scan"}, "is_reserved": 0, "fusion_lon": 0.0, "fusion_lat": 0.0, "lon": -77.01982333333333, "name": "ae97f0618ea1fc1fb0a97137c8a05d27"}, {"bike_id": "521b01fdbd69a4924c0e336923d9593e", "type": "electric_scooter", "is_disabled": 0, "lat": 38.89851766666666, "rental_uris": {"ios": "https://dc.lft.to/lastmile_qr_scan", "android": "https://dc.lft.to/lastmile_qr_scan"}, "is_reserved": 0, "fusion_lon": 0.0, "fusion_lat": 0.0, "lon": -76.92909716666666, "name": "521b01fdbd69a4924c0e336923d9593e"}, {"bike_id": "6482284d51b2cc71a02d70488fc886c0", "type": "electric_scooter", "is_disabled": 0, "lat": 38.931082833333335, "rental_uris": {"ios": "https://dc.lft.to/lastmile_qr_scan", "android": "https://dc.lft.to/lastmile_qr_scan"}, "is_reserved": 0, "fusion_lon": 0.0, "fusion_lat": 0.0, "lon": -77.041243, "name": "6482284d51b2cc71a02d70488fc886c0"}, {"bike_id": "3bc5f629ca5425dedc84b27591846bc2", "type": "electric_scooter", "is_disabled": 0, "lat": 38.89391116666667, "rental_uris": {"ios": "https://dc.lft.to/lastmile_qr_scan", "android": "https://dc.lft.to/lastmile_qr_scan"}, "is_reserved": 0, "fusion_lon": 0.0, "fusion_lat": 0.0, "lon": -77.02269, "name": "3bc5f629ca5425dedc84b27591846bc2"}, {"bike_id": "d0031d31257c40b2bce1af5679232b60", "type": "electric_scooter", "is_disabled": 0, "lat": 38.94819433333333, "rental_uris": {"ios": "https://dc.lft.to/lastmile_qr_scan", "android": "https://dc.lft.to/lastmile_qr_scan"}, "is_reserved": 0, "fusion_lon": 0.0, "fusion_lat": 0.0, "lon": -77.0248325, "name": "d0031d31257c40b2bce1af5679232b60"}, {"bike_id": "b8ee47284df0f7840f7a954a8c7124c5", "type": "electric_scooter", "is_disabled": 0, "lat": 38.914198999999996, "rental_uris": {"ios": "https://dc.lft.to/lastmile_qr_scan", "android": "https://dc.lft.to/lastmile_qr_scan"}, "is_reserved": 0, "fusion_lon": 0.0, "fusion_lat": 0.0, "lon": -77.03192466666667, "name": "b8ee47284df0f7840f7a954a8c7124c5"}, {"bike_id": "10932ebdf80fb11226ec0320b47b0e21", "type": "electric_scooter", "is_disabled": 0, "lat": 38.90348066666667, "rental_uris": {"ios": "https://dc.lft.to/lastmile_qr_scan", "android": "https://dc.lft.to/lastmile_qr_scan"}, "is_reserved": 0, "fusion_lon": 0.0, "fusion_lat": 0.0, "lon": -77.06267716666666, "name": "10932ebdf80fb11226ec0320b47b0e21"}, {"bike_id": "f73a3fa1d68a394ae032d093254fac61", "type": "electric_scooter", "is_disabled": 0, "lat": 38.90260216666667, "rental_uris": {"ios": "https://dc.lft.to/lastmile_qr_scan", "android": "https://dc.lft.to/lastmile_qr_scan"}, "is_reserved": 0, "fusion_lon": 0.0, "fusion_lat": 0.0, "lon": -77.01760733333333, "name": "f73a3fa1d68a394ae032d093254fac61"}, {"bike_id": "8686a8e0b7f7f7b8c409068659af340e", "type": "electric_scooter", "is_disabled": 0, "lat": 38.8653155, "rental_uris": {"ios": "https://dc.lft.to/lastmile_qr_scan", "android": "https://dc.lft.to/lastmile_qr_scan"}, "is_reserved": 0, "fusion_lon": 0.0, "fusion_lat": 0.0, "lon": -76.97328366666666, "name": "8686a8e0b7f7f7b8c409068659af340e"}, {"bike_id": "4ca4c2f339f4b4b1f853186e71934c62", "type": "electric_scooter", "is_disabled": 0, "lat": 38.90983816666667, "rental_uris": {"ios": "https://dc.lft.to/lastmile_qr_scan", "android": "https://dc.lft.to/lastmile_qr_scan"}, "is_reserved": 0, "fusion_lon": 0.0, "fusion_lat": 0.0, "lon": -77.03856566666667, "name": "4ca4c2f339f4b4b1f853186e71934c62"}, {"bike_id": "142c54c0bb0e42110c889252ab6d02f2", "type": "electric_scooter", "is_disabled": 0, "lat": 38.93114416666667, "rental_uris": {"ios": "https://dc.lft.to/lastmile_qr_scan", "android": "https://dc.lft.to/lastmile_qr_scan"}, "is_reserved": 0, "fusion_lon": 0.0, "fusion_lat": 0.0, "lon": -77.03834166666667, "name": "142c54c0bb0e42110c889252ab6d02f2"}, {"bike_id": "ad5ebcda3963a3a9aec81b645368635c", "type": "electric_scooter", "is_disabled": 0, "lat": 38.9207575, "rental_uris": {"ios": "https://dc.lft.to/lastmile_qr_scan", "android": "https://dc.lft.to/lastmile_qr_scan"}, "is_reserved": 0, "fusion_lon": 0.0, "fusion_lat": 0.0, "lon": -77.0221555, "name": "ad5ebcda3963a3a9aec81b645368635c"}, {"bike_id": "b0bda7778d93d0362a70c6e8080d2e4f", "type": "electric_scooter", "is_disabled": 0, "lat": 38.922469, "rental_uris": {"ios": "https://dc.lft.to/lastmile_qr_scan", "android": "https://dc.lft.to/lastmile_qr_scan"}, "is_reserved": 0, "fusion_lon": 0.0, "fusion_lat": 0.0, "lon": -77.03886516666667, "name": "b0bda7778d93d0362a70c6e8080d2e4f"}, {"bike_id": "8b79cd637c0602fb372ed4b164fd0685", "type": "electric_scooter", "is_disabled": 0, "lat": 38.905555166666666, "rental_uris": {"ios": "https://dc.lft.to/lastmile_qr_scan", "android": "https://dc.lft.to/lastmile_qr_scan"}, "is_reserved": 0, "fusion_lon": 0.0, "fusion_lat": 0.0, "lon": -77.044785, "name": "8b79cd637c0602fb372ed4b164fd0685"}, {"bike_id": "e3e9e1508a2ca82ce1ce1b646a00f849", "type": "electric_scooter", "is_disabled": 0, "lat": 38.91715883333333, "rental_uris": {"ios": "https://dc.lft.to/lastmile_qr_scan", "android": "https://dc.lft.to/lastmile_qr_scan"}, "is_reserved": 0, "fusion_lon": 0.0, "fusion_lat": 0.0, "lon": -77.03192816666666, "name": "e3e9e1508a2ca82ce1ce1b646a00f849"}, {"bike_id": "e4916202063f575822b85c0bf85766c4", "type": "electric_scooter", "is_disabled": 0, "lat": 38.9054605, "rental_uris": {"ios": "https://dc.lft.to/lastmile_qr_scan", "android": "https://dc.lft.to/lastmile_qr_scan"}, "is_reserved": 0, "fusion_lon": 0.0, "fusion_lat": 0.0, "lon": -77.04687116666666, "name": "e4916202063f575822b85c0bf85766c4"}, {"bike_id": "00ac5d0b927d29894b6ca207f009cda2", "type": "electric_scooter", "is_disabled": 0, "lat": 38.887505166666664, "rental_uris": {"ios": "https://dc.lft.to/lastmile_qr_scan", "android": "https://dc.lft.to/lastmile_qr_scan"}, "is_reserved": 0, "fusion_lon": 0.0, "fusion_lat": 0.0, "lon": -77.01722183333334, "name": "00ac5d0b927d29894b6ca207f009cda2"}, {"bike_id": "9289291dbc5f2f24e544e40e62eb17fb", "type": "electric_scooter", "is_disabled": 0, "lat": 38.88718266666667, "rental_uris": {"ios": "https://dc.lft.to/lastmile_qr_scan", "android": "https://dc.lft.to/lastmile_qr_scan"}, "is_reserved": 0, "fusion_lon": 0.0, "fusion_lat": 0.0, "lon": -76.99629016666667, "name": "9289291dbc5f2f24e544e40e62eb17fb"}, {"bike_id": "11c22e45956447e7540e83ae150ed458", "type": "electric_scooter", "is_disabled": 0, "lat": 38.890755666666664, "rental_uris": {"ios": "https://dc.lft.to/lastmile_qr_scan", "android": "https://dc.lft.to/lastmile_qr_scan"}, "is_reserved": 0, "fusion_lon": 0.0, "fusion_lat": 0.0, "lon": -76.98826233333334, "name": "11c22e45956447e7540e83ae150ed458"}, {"bike_id": "d7f2ce8a370210501e5c91064aa62c12", "type": "electric_scooter", "is_disabled": 0, "lat": 38.909847666666664, "rental_uris": {"ios": "https://dc.lft.to/lastmile_qr_scan", "android": "https://dc.lft.to/lastmile_qr_scan"}, "is_reserved": 0, "fusion_lon": 0.0, "fusion_lat": 0.0, "lon": -77.03864516666667, "name": "d7f2ce8a370210501e5c91064aa62c12"}, {"bike_id": "32cdfbae5eaa84fc16385135c7693146", "type": "electric_bike", "is_disabled": 0, "lat": 38.89739433333333, "rental_uris": {"ios": "https://dc.lft.to/lastmile_qr_scan", "android": "https://dc.lft.to/lastmile_qr_scan"}, "is_reserved": 0, "fusion_lon": 0.0, "fusion_lat": 0.0, "lon": -76.94247716666666, "name": "32cdfbae5eaa84fc16385135c7693146"}, {"bike_id": "d0fe05411b8727736d77832b102c0df8", "type": "electric_scooter", "is_disabled": 0, "lat": 38.9071595, "rental_uris": {"ios": "https://dc.lft.to/lastmile_qr_scan", "android": "https://dc.lft.to/lastmile_qr_scan"}, "is_reserved": 0, "fusion_lon": 0.0, "fusion_lat": 0.0, "lon": -77.040834, "name": "d0fe05411b8727736d77832b102c0df8"}, {"bike_id": "5581a5f9f80065808acd7c9a87f0c3c1", "type": "electric_scooter", "is_disabled": 0, "lat": 38.94297133333333, "rental_uris": {"ios": "https://dc.lft.to/lastmile_qr_scan", "android": "https://dc.lft.to/lastmile_qr_scan"}, "is_reserved": 0, "fusion_lon": 0.0, "fusion_lat": 0.0, "lon": -77.0217185, "name": "5581a5f9f80065808acd7c9a87f0c3c1"}, {"bike_id": "7ca8980c01bcbb84317e7219e5895080", "type": "electric_scooter", "is_disabled": 0, "lat": 38.90801533333333, "rental_uris": {"ios": "https://dc.lft.to/lastmile_qr_scan", "android": "https://dc.lft.to/lastmile_qr_scan"}, "is_reserved": 0, "fusion_lon": 0.0, "fusion_lat": 0.0, "lon": -77.0418035, "name": "7ca8980c01bcbb84317e7219e5895080"}, {"bike_id": "2faa06ac138ed0cf1d94085419a93ff3", "type": "electric_scooter", "is_disabled": 0, "lat": 38.912003166666665, "rental_uris": {"ios": "https://dc.lft.to/lastmile_qr_scan", "android": "https://dc.lft.to/lastmile_qr_scan"}, "is_reserved": 0, "fusion_lon": 0.0, "fusion_lat": 0.0, "lon": -77.01904683333333, "name": "2faa06ac138ed0cf1d94085419a93ff3"}, {"bike_id": "4a1df4d2e5cc4c4b35939ec9edd8f9c5", "type": "electric_scooter", "is_disabled": 0, "lat": 38.9103715, "rental_uris": {"ios": "https://dc.lft.to/lastmile_qr_scan", "android": "https://dc.lft.to/lastmile_qr_scan"}, "is_reserved": 0, "fusion_lon": 0.0, "fusion_lat": 0.0, "lon": -77.03799066666667, "name": "4a1df4d2e5cc4c4b35939ec9edd8f9c5"}, {"bike_id": "e86104ca8cc9e2b063318dbb6bf5993e", "type": "electric_scooter", "is_disabled": 0, "lat": 38.930284, "rental_uris": {"ios": "https://dc.lft.to/lastmile_qr_scan", "android": "https://dc.lft.to/lastmile_qr_scan"}, "is_reserved": 0, "fusion_lon": 0.0, "fusion_lat": 0.0, "lon": -77.03795016666666, "name": "e86104ca8cc9e2b063318dbb6bf5993e"}, {"bike_id": "515ea320aaf062f5408f5d6524f5beaa", "type": "electric_scooter", "is_disabled": 0, "lat": 38.89499566666667, "rental_uris": {"ios": "https://dc.lft.to/lastmile_qr_scan", "android": "https://dc.lft.to/lastmile_qr_scan"}, "is_reserved": 0, "fusion_lon": 0.0, "fusion_lat": 0.0, "lon": -77.01135433333333, "name": "515ea320aaf062f5408f5d6524f5beaa"}, {"bike_id": "cbf7aa42fc35aa345aa6825bb1f95153", "type": "electric_scooter", "is_disabled": 0, "lat": 38.915326, "rental_uris": {"ios": "https://dc.lft.to/lastmile_qr_scan", "android": "https://dc.lft.to/lastmile_qr_scan"}, "is_reserved": 0, "fusion_lon": 0.0, "fusion_lat": 0.0, "lon": -77.0318305, "name": "cbf7aa42fc35aa345aa6825bb1f95153"}, {"bike_id": "bf7a6dcf4a0dee0ac5befaadf9aaf285", "type": "electric_scooter", "is_disabled": 0, "lat": 38.923056333333335, "rental_uris": {"ios": "https://dc.lft.to/lastmile_qr_scan", "android": "https://dc.lft.to/lastmile_qr_scan"}, "is_reserved": 0, "fusion_lon": 0.0, "fusion_lat": 0.0, "lon": -77.04455283333333, "name": "bf7a6dcf4a0dee0ac5befaadf9aaf285"}, {"bike_id": "8d92ee763e5cd987106f5104404aaaea", "type": "electric_scooter", "is_disabled": 0, "lat": 38.89501666666666, "rental_uris": {"ios": "https://dc.lft.to/lastmile_qr_scan", "android": "https://dc.lft.to/lastmile_qr_scan"}, "is_reserved": 0, "fusion_lon": 0.0, "fusion_lat": 0.0, "lon": -77.02294833333333, "name": "8d92ee763e5cd987106f5104404aaaea"}, {"bike_id": "287873a9e580431890a10ad0c6942de4", "type": "electric_scooter", "is_disabled": 0, "lat": 38.92006666666666, "rental_uris": {"ios": "https://dc.lft.to/lastmile_qr_scan", "android": "https://dc.lft.to/lastmile_qr_scan"}, "is_reserved": 0, "fusion_lon": 0.0, "fusion_lat": 0.0, "lon": -77.081961, "name": "287873a9e580431890a10ad0c6942de4"}, {"bike_id": "9af346f84d41f95ec8bced836ae74593", "type": "electric_scooter", "is_disabled": 0, "lat": 38.920505, "rental_uris": {"ios": "https://dc.lft.to/lastmile_qr_scan", "android": "https://dc.lft.to/lastmile_qr_scan"}, "is_reserved": 0, "fusion_lon": 0.0, "fusion_lat": 0.0, "lon": -77.0418135, "name": "9af346f84d41f95ec8bced836ae74593"}, {"bike_id": "8bf92c76ece93dc5b371f2a2be5d9dc9", "type": "electric_scooter", "is_disabled": 0, "lat": 38.8852385, "rental_uris": {"ios": "https://dc.lft.to/lastmile_qr_scan", "android": "https://dc.lft.to/lastmile_qr_scan"}, "is_reserved": 0, "fusion_lon": 0.0, "fusion_lat": 0.0, "lon": -76.9771205, "name": "8bf92c76ece93dc5b371f2a2be5d9dc9"}, {"bike_id": "5acca846790f114a47bcde2ea973ee98", "type": "electric_scooter", "is_disabled": 0, "lat": 38.908401833333336, "rental_uris": {"ios": "https://dc.lft.to/lastmile_qr_scan", "android": "https://dc.lft.to/lastmile_qr_scan"}, "is_reserved": 0, "fusion_lon": 0.0, "fusion_lat": 0.0, "lon": -77.0319995, "name": "5acca846790f114a47bcde2ea973ee98"}, {"bike_id": "0695f286948f0c6a5f3d3f5580eba587", "type": "electric_scooter", "is_disabled": 0, "lat": 38.91333016666667, "rental_uris": {"ios": "https://dc.lft.to/lastmile_qr_scan", "android": "https://dc.lft.to/lastmile_qr_scan"}, "is_reserved": 0, "fusion_lon": 0.0, "fusion_lat": 0.0, "lon": -77.03187616666666, "name": "0695f286948f0c6a5f3d3f5580eba587"}, {"bike_id": "0b81286cacc6c55ed84ba31a0818b1cb", "type": "electric_scooter", "is_disabled": 0, "lat": 38.9432865, "rental_uris": {"ios": "https://dc.lft.to/lastmile_qr_scan", "android": "https://dc.lft.to/lastmile_qr_scan"}, "is_reserved": 0, "fusion_lon": 0.0, "fusion_lat": 0.0, "lon": -77.01473866666667, "name": "0b81286cacc6c55ed84ba31a0818b1cb"}, {"bike_id": "0c9ee88144329c2bc1441feb1397714d", "type": "electric_scooter", "is_disabled": 0, "lat": 38.9314685, "rental_uris": {"ios": "https://dc.lft.to/lastmile_qr_scan", "android": "https://dc.lft.to/lastmile_qr_scan"}, "is_reserved": 0, "fusion_lon": 0.0, "fusion_lat": 0.0, "lon": -77.03354616666667, "name": "0c9ee88144329c2bc1441feb1397714d"}, {"bike_id": "6e6c791cc181332745a624cdf8726fce", "type": "electric_scooter", "is_disabled": 0, "lat": 38.914206666666665, "rental_uris": {"ios": "https://dc.lft.to/lastmile_qr_scan", "android": "https://dc.lft.to/lastmile_qr_scan"}, "is_reserved": 0, "fusion_lon": 0.0, "fusion_lat": 0.0, "lon": -77.01985383333333, "name": "6e6c791cc181332745a624cdf8726fce"}, {"bike_id": "afdabd9a44ea31ba27c61f4414aae1fd", "type": "electric_scooter", "is_disabled": 0, "lat": 38.919175833333334, "rental_uris": {"ios": "https://dc.lft.to/lastmile_qr_scan", "android": "https://dc.lft.to/lastmile_qr_scan"}, "is_reserved": 0, "fusion_lon": 0.0, "fusion_lat": 0.0, "lon": -77.033325, "name": "afdabd9a44ea31ba27c61f4414aae1fd"}, {"bike_id": "d2a378151fa8f971a85e12aa34b8523a", "type": "electric_scooter", "is_disabled": 0, "lat": 38.898444166666664, "rental_uris": {"ios": "https://dc.lft.to/lastmile_qr_scan", "android": "https://dc.lft.to/lastmile_qr_scan"}, "is_reserved": 0, "fusion_lon": 0.0, "fusion_lat": 0.0, "lon": -76.946378, "name": "d2a378151fa8f971a85e12aa34b8523a"}, {"bike_id": "c4e6d38b5970dccce025af919e336e8a", "type": "electric_scooter", "is_disabled": 0, "lat": 38.896134, "rental_uris": {"ios": "https://dc.lft.to/lastmile_qr_scan", "android": "https://dc.lft.to/lastmile_qr_scan"}, "is_reserved": 0, "fusion_lon": 0.0, "fusion_lat": 0.0, "lon": -77.02210316666667, "name": "c4e6d38b5970dccce025af919e336e8a"}, {"bike_id": "22db1d3e72e66af7c34f49c9b7724d08", "type": "electric_scooter", "is_disabled": 0, "lat": 38.892326, "rental_uris": {"ios": "https://dc.lft.to/lastmile_qr_scan", "android": "https://dc.lft.to/lastmile_qr_scan"}, "is_reserved": 0, "fusion_lon": 0.0, "fusion_lat": 0.0, "lon": -77.01374966666667, "name": "22db1d3e72e66af7c34f49c9b7724d08"}, {"bike_id": "c923f4e7408186aef5465f3857bb6613", "type": "electric_scooter", "is_disabled": 0, "lat": 38.88746866666666, "rental_uris": {"ios": "https://dc.lft.to/lastmile_qr_scan", "android": "https://dc.lft.to/lastmile_qr_scan"}, "is_reserved": 0, "fusion_lon": 0.0, "fusion_lat": 0.0, "lon": -77.02565866666667, "name": "c923f4e7408186aef5465f3857bb6613"}, {"bike_id": "4db20d3f193df52ff8cc1411f9dc2b35", "type": "electric_bike", "is_disabled": 0, "lat": 38.908712333333334, "rental_uris": {"ios": "https://dc.lft.to/lastmile_qr_scan", "android": "https://dc.lft.to/lastmile_qr_scan"}, "is_reserved": 0, "fusion_lon": 0.0, "fusion_lat": 0.0, "lon": -77.07647616666667, "name": "4db20d3f193df52ff8cc1411f9dc2b35"}, {"bike_id": "8c2c0cf502fc1ffa61e1c102692c6f8e", "type": "electric_scooter", "is_disabled": 0, "lat": 38.95784233333333, "rental_uris": {"ios": "https://dc.lft.to/lastmile_qr_scan", "android": "https://dc.lft.to/lastmile_qr_scan"}, "is_reserved": 0, "fusion_lon": 0.0, "fusion_lat": 0.0, "lon": -77.0246485, "name": "8c2c0cf502fc1ffa61e1c102692c6f8e"}, {"bike_id": "52ef1d2088ab6de42846164af3903d76", "type": "electric_bike", "is_disabled": 0, "lat": 39.014769, "rental_uris": {"ios": "https://dc.lft.to/lastmile_qr_scan", "android": "https://dc.lft.to/lastmile_qr_scan"}, "is_reserved": 0, "fusion_lon": 0.0, "fusion_lat": 0.0, "lon": -77.05493566666667, "name": "52ef1d2088ab6de42846164af3903d76"}, {"bike_id": "88d7aa52347a407d4381da5d2ea3820f", "type": "electric_scooter", "is_disabled": 0, "lat": 38.8947315, "rental_uris": {"ios": "https://dc.lft.to/lastmile_qr_scan", "android": "https://dc.lft.to/lastmile_qr_scan"}, "is_reserved": 0, "fusion_lon": 0.0, "fusion_lat": 0.0, "lon": -76.9948585, "name": "88d7aa52347a407d4381da5d2ea3820f"}, {"bike_id": "3436a2b8dca427ac00e2056edd07d788", "type": "electric_scooter", "is_disabled": 0, "lat": 38.91472816666667, "rental_uris": {"ios": "https://dc.lft.to/lastmile_qr_scan", "android": "https://dc.lft.to/lastmile_qr_scan"}, "is_reserved": 0, "fusion_lon": 0.0, "fusion_lat": 0.0, "lon": -77.04556683333334, "name": "3436a2b8dca427ac00e2056edd07d788"}, {"bike_id": "e13351e63ad64bc27eb2bb909ab9771f", "type": "electric_scooter", "is_disabled": 0, "lat": 38.919575333333334, "rental_uris": {"ios": "https://dc.lft.to/lastmile_qr_scan", "android": "https://dc.lft.to/lastmile_qr_scan"}, "is_reserved": 0, "fusion_lon": 0.0, "fusion_lat": 0.0, "lon": -77.01434216666667, "name": "e13351e63ad64bc27eb2bb909ab9771f"}, {"bike_id": "1a065b7a977f8220c61a33bf6c2a7ec5", "type": "electric_scooter", "is_disabled": 0, "lat": 38.94184383333333, "rental_uris": {"ios": "https://dc.lft.to/lastmile_qr_scan", "android": "https://dc.lft.to/lastmile_qr_scan"}, "is_reserved": 0, "fusion_lon": 0.0, "fusion_lat": 0.0, "lon": -77.02486866666666, "name": "1a065b7a977f8220c61a33bf6c2a7ec5"}, {"bike_id": "51df06de04fe83257199e272fc639d73", "type": "electric_bike", "is_disabled": 0, "lat": 38.853527666666665, "rental_uris": {"ios": "https://dc.lft.to/lastmile_qr_scan", "android": "https://dc.lft.to/lastmile_qr_scan"}, "is_reserved": 0, "fusion_lon": 0.0, "fusion_lat": 0.0, "lon": -77.13473666666667, "name": "51df06de04fe83257199e272fc639d73"}, {"bike_id": "8e34eb0c71cbe6e7f40fef59e99af370", "type": "electric_bike", "is_disabled": 0, "lat": 38.915551666666666, "rental_uris": {"ios": "https://dc.lft.to/lastmile_qr_scan", "android": "https://dc.lft.to/lastmile_qr_scan"}, "is_reserved": 0, "fusion_lon": 0.0, "fusion_lat": 0.0, "lon": -77.03832616666666, "name": "8e34eb0c71cbe6e7f40fef59e99af370"}, {"bike_id": "e988e30ec69ea7c29402750ffe335fa6", "type": "electric_scooter", "is_disabled": 0, "lat": 38.93103933333333, "rental_uris": {"ios": "https://dc.lft.to/lastmile_qr_scan", "android": "https://dc.lft.to/lastmile_qr_scan"}, "is_reserved": 0, "fusion_lon": 0.0, "fusion_lat": 0.0, "lon": -77.0234975, "name": "e988e30ec69ea7c29402750ffe335fa6"}, {"bike_id": "bab0f1adfaf0084592f6b37480e8e250", "type": "electric_scooter", "is_disabled": 0, "lat": 38.92066116666667, "rental_uris": {"ios": "https://dc.lft.to/lastmile_qr_scan", "android": "https://dc.lft.to/lastmile_qr_scan"}, "is_reserved": 0, "fusion_lon": 0.0, "fusion_lat": 0.0, "lon": -77.04256883333333, "name": "bab0f1adfaf0084592f6b37480e8e250"}, {"bike_id": "641eaaea7f01ddc8462e617624869ebf", "type": "electric_scooter", "is_disabled": 0, "lat": 38.94297783333333, "rental_uris": {"ios": "https://dc.lft.to/lastmile_qr_scan", "android": "https://dc.lft.to/lastmile_qr_scan"}, "is_reserved": 0, "fusion_lon": 0.0, "fusion_lat": 0.0, "lon": -77.02168533333334, "name": "641eaaea7f01ddc8462e617624869ebf"}, {"bike_id": "a87d544a280bd2d84649346aeac718d4", "type": "electric_scooter", "is_disabled": 0, "lat": 38.92750483333333, "rental_uris": {"ios": "https://dc.lft.to/lastmile_qr_scan", "android": "https://dc.lft.to/lastmile_qr_scan"}, "is_reserved": 0, "fusion_lon": 0.0, "fusion_lat": 0.0, "lon": -77.02538266666667, "name": "a87d544a280bd2d84649346aeac718d4"}, {"bike_id": "e7a17eb9166bc016ca802985e6afdfa7", "type": "electric_scooter", "is_disabled": 0, "lat": 38.866877333333335, "rental_uris": {"ios": "https://dc.lft.to/lastmile_qr_scan", "android": "https://dc.lft.to/lastmile_qr_scan"}, "is_reserved": 0, "fusion_lon": 0.0, "fusion_lat": 0.0, "lon": -76.9856815, "name": "e7a17eb9166bc016ca802985e6afdfa7"}, {"bike_id": "f5cb23617ef8276fcaabe7b3f1036dfd", "type": "electric_scooter", "is_disabled": 0, "lat": 38.902216833333334, "rental_uris": {"ios": "https://dc.lft.to/lastmile_qr_scan", "android": "https://dc.lft.to/lastmile_qr_scan"}, "is_reserved": 0, "fusion_lon": 0.0, "fusion_lat": 0.0, "lon": -77.02129583333334, "name": "f5cb23617ef8276fcaabe7b3f1036dfd"}, {"bike_id": "79279ed63108a6a376e5b4c0c9dd3bd1", "type": "electric_scooter", "is_disabled": 0, "lat": 38.914575666666664, "rental_uris": {"ios": "https://dc.lft.to/lastmile_qr_scan", "android": "https://dc.lft.to/lastmile_qr_scan"}, "is_reserved": 0, "fusion_lon": 0.0, "fusion_lat": 0.0, "lon": -77.03172616666667, "name": "79279ed63108a6a376e5b4c0c9dd3bd1"}, {"bike_id": "0f33cb64041c523017095426de096881", "type": "electric_scooter", "is_disabled": 0, "lat": 38.907356, "rental_uris": {"ios": "https://dc.lft.to/lastmile_qr_scan", "android": "https://dc.lft.to/lastmile_qr_scan"}, "is_reserved": 0, "fusion_lon": 0.0, "fusion_lat": 0.0, "lon": -77.04022416666666, "name": "0f33cb64041c523017095426de096881"}, {"bike_id": "0c98211b01fe463901e8e867558a2c08", "type": "electric_scooter", "is_disabled": 0, "lat": 38.9002135, "rental_uris": {"ios": "https://dc.lft.to/lastmile_qr_scan", "android": "https://dc.lft.to/lastmile_qr_scan"}, "is_reserved": 0, "fusion_lon": 0.0, "fusion_lat": 0.0, "lon": -76.998543, "name": "0c98211b01fe463901e8e867558a2c08"}, {"bike_id": "2aa4a66f429c2c76052448662f24ff0d", "type": "electric_scooter", "is_disabled": 0, "lat": 38.92501433333334, "rental_uris": {"ios": "https://dc.lft.to/lastmile_qr_scan", "android": "https://dc.lft.to/lastmile_qr_scan"}, "is_reserved": 0, "fusion_lon": 0.0, "fusion_lat": 0.0, "lon": -77.051144, "name": "2aa4a66f429c2c76052448662f24ff0d"}, {"bike_id": "c351db4fc0044855590b833ce26105e8", "type": "electric_scooter", "is_disabled": 0, "lat": 38.9074335, "rental_uris": {"ios": "https://dc.lft.to/lastmile_qr_scan", "android": "https://dc.lft.to/lastmile_qr_scan"}, "is_reserved": 0, "fusion_lon": 0.0, "fusion_lat": 0.0, "lon": -77.0218015, "name": "c351db4fc0044855590b833ce26105e8"}, {"bike_id": "b21a8d37320bacf4873b5760c383260c", "type": "electric_scooter", "is_disabled": 0, "lat": 38.90751016666667, "rental_uris": {"ios": "https://dc.lft.to/lastmile_qr_scan", "android": "https://dc.lft.to/lastmile_qr_scan"}, "is_reserved": 0, "fusion_lon": 0.0, "fusion_lat": 0.0, "lon": -77.032037, "name": "b21a8d37320bacf4873b5760c383260c"}, {"bike_id": "e72872bdad0804e0dc8060bbdfcf7a8f", "type": "electric_scooter", "is_disabled": 0, "lat": 38.92160966666667, "rental_uris": {"ios": "https://dc.lft.to/lastmile_qr_scan", "android": "https://dc.lft.to/lastmile_qr_scan"}, "is_reserved": 0, "fusion_lon": 0.0, "fusion_lat": 0.0, "lon": -77.033952, "name": "e72872bdad0804e0dc8060bbdfcf7a8f"}, {"bike_id": "e326b4c42e4707464e8f62c833c34e3d", "type": "electric_scooter", "is_disabled": 0, "lat": 38.89738783333333, "rental_uris": {"ios": "https://dc.lft.to/lastmile_qr_scan", "android": "https://dc.lft.to/lastmile_qr_scan"}, "is_reserved": 0, "fusion_lon": 0.0, "fusion_lat": 0.0, "lon": -76.97970416666666, "name": "e326b4c42e4707464e8f62c833c34e3d"}, {"bike_id": "be84b469bc388f37f1050919098555de", "type": "electric_scooter", "is_disabled": 0, "lat": 38.8928765, "rental_uris": {"ios": "https://dc.lft.to/lastmile_qr_scan", "android": "https://dc.lft.to/lastmile_qr_scan"}, "is_reserved": 0, "fusion_lon": 0.0, "fusion_lat": 0.0, "lon": -77.03341133333333, "name": "be84b469bc388f37f1050919098555de"}, {"bike_id": "5d1b41b4894a31347cb401e3bfa6fb21", "type": "electric_scooter", "is_disabled": 0, "lat": 38.911128, "rental_uris": {"ios": "https://dc.lft.to/lastmile_qr_scan", "android": "https://dc.lft.to/lastmile_qr_scan"}, "is_reserved": 0, "fusion_lon": 0.0, "fusion_lat": 0.0, "lon": -77.047259, "name": "5d1b41b4894a31347cb401e3bfa6fb21"}, {"bike_id": "95c3e319f72e50969451718b7c8f3596", "type": "electric_scooter", "is_disabled": 0, "lat": 38.9110315, "rental_uris": {"ios": "https://dc.lft.to/lastmile_qr_scan", "android": "https://dc.lft.to/lastmile_qr_scan"}, "is_reserved": 0, "fusion_lon": 0.0, "fusion_lat": 0.0, "lon": -77.00217333333333, "name": "95c3e319f72e50969451718b7c8f3596"}, {"bike_id": "004b6fdb8f545018a5ba71f5ec428d05", "type": "electric_scooter", "is_disabled": 0, "lat": 38.93823966666667, "rental_uris": {"ios": "https://dc.lft.to/lastmile_qr_scan", "android": "https://dc.lft.to/lastmile_qr_scan"}, "is_reserved": 0, "fusion_lon": 0.0, "fusion_lat": 0.0, "lon": -77.059962, "name": "004b6fdb8f545018a5ba71f5ec428d05"}, {"bike_id": "1613ba13ab120be494cc279bea7c8523", "type": "electric_bike", "is_disabled": 0, "lat": 38.964133333333336, "rental_uris": {"ios": "https://dc.lft.to/lastmile_qr_scan", "android": "https://dc.lft.to/lastmile_qr_scan"}, "is_reserved": 0, "fusion_lon": 0.0, "fusion_lat": 0.0, "lon": -76.99999066666666, "name": "1613ba13ab120be494cc279bea7c8523"}, {"bike_id": "66ec6e5291bbd9c2ad9175202387ad2a", "type": "electric_scooter", "is_disabled": 0, "lat": 38.884902, "rental_uris": {"ios": "https://dc.lft.to/lastmile_qr_scan", "android": "https://dc.lft.to/lastmile_qr_scan"}, "is_reserved": 0, "fusion_lon": 0.0, "fusion_lat": 0.0, "lon": -77.03475483333334, "name": "66ec6e5291bbd9c2ad9175202387ad2a"}, {"bike_id": "4b6c80a09a073d65c79ac514fb11ba14", "type": "electric_scooter", "is_disabled": 0, "lat": 38.9058325, "rental_uris": {"ios": "https://dc.lft.to/lastmile_qr_scan", "android": "https://dc.lft.to/lastmile_qr_scan"}, "is_reserved": 0, "fusion_lon": 0.0, "fusion_lat": 0.0, "lon": -77.0518235, "name": "4b6c80a09a073d65c79ac514fb11ba14"}, {"bike_id": "06418a3704e604d53eb314af40780d47", "type": "electric_scooter", "is_disabled": 0, "lat": 38.922990166666665, "rental_uris": {"ios": "https://dc.lft.to/lastmile_qr_scan", "android": "https://dc.lft.to/lastmile_qr_scan"}, "is_reserved": 0, "fusion_lon": 0.0, "fusion_lat": 0.0, "lon": -77.07309566666666, "name": "06418a3704e604d53eb314af40780d47"}, {"bike_id": "46054163148626e95238760b6d5f269a", "type": "electric_scooter", "is_disabled": 0, "lat": 38.9324775, "rental_uris": {"ios": "https://dc.lft.to/lastmile_qr_scan", "android": "https://dc.lft.to/lastmile_qr_scan"}, "is_reserved": 0, "fusion_lon": 0.0, "fusion_lat": 0.0, "lon": -77.02983316666666, "name": "46054163148626e95238760b6d5f269a"}, {"bike_id": "14e7f3ba88f7e6bb63ea6e3182551491", "type": "electric_scooter", "is_disabled": 0, "lat": 38.919858166666664, "rental_uris": {"ios": "https://dc.lft.to/lastmile_qr_scan", "android": "https://dc.lft.to/lastmile_qr_scan"}, "is_reserved": 0, "fusion_lon": 0.0, "fusion_lat": 0.0, "lon": -77.0177775, "name": "14e7f3ba88f7e6bb63ea6e3182551491"}, {"bike_id": "bc4a517e97e6f961d1f44af5decfb2ce", "type": "electric_scooter", "is_disabled": 0, "lat": 38.90410283333333, "rental_uris": {"ios": "https://dc.lft.to/lastmile_qr_scan", "android": "https://dc.lft.to/lastmile_qr_scan"}, "is_reserved": 0, "fusion_lon": 0.0, "fusion_lat": 0.0, "lon": -77.04869416666666, "name": "bc4a517e97e6f961d1f44af5decfb2ce"}, {"bike_id": "689dde6c5705689602b7a3e88ed8dff0", "type": "electric_scooter", "is_disabled": 0, "lat": 38.918268166666664, "rental_uris": {"ios": "https://dc.lft.to/lastmile_qr_scan", "android": "https://dc.lft.to/lastmile_qr_scan"}, "is_reserved": 0, "fusion_lon": 0.0, "fusion_lat": 0.0, "lon": -77.03944683333333, "name": "689dde6c5705689602b7a3e88ed8dff0"}, {"bike_id": "55e5c3d0c733bff6bce70934177c7114", "type": "electric_scooter", "is_disabled": 0, "lat": 38.90068683333333, "rental_uris": {"ios": "https://dc.lft.to/lastmile_qr_scan", "android": "https://dc.lft.to/lastmile_qr_scan"}, "is_reserved": 0, "fusion_lon": 0.0, "fusion_lat": 0.0, "lon": -77.04980283333333, "name": "55e5c3d0c733bff6bce70934177c7114"}, {"bike_id": "da1cbfa0fcbd331746e84df42c02571b", "type": "electric_scooter", "is_disabled": 0, "lat": 38.92211566666667, "rental_uris": {"ios": "https://dc.lft.to/lastmile_qr_scan", "android": "https://dc.lft.to/lastmile_qr_scan"}, "is_reserved": 0, "fusion_lon": 0.0, "fusion_lat": 0.0, "lon": -77.04247433333333, "name": "da1cbfa0fcbd331746e84df42c02571b"}, {"bike_id": "0dfaa5d05d15301a043cb6098d675649", "type": "electric_scooter", "is_disabled": 0, "lat": 38.905105166666665, "rental_uris": {"ios": "https://dc.lft.to/lastmile_qr_scan", "android": "https://dc.lft.to/lastmile_qr_scan"}, "is_reserved": 0, "fusion_lon": 0.0, "fusion_lat": 0.0, "lon": -77.01708, "name": "0dfaa5d05d15301a043cb6098d675649"}, {"bike_id": "498dd2ba6ffd26ede292ba8833bf83c6", "type": "electric_scooter", "is_disabled": 0, "lat": 38.905482, "rental_uris": {"ios": "https://dc.lft.to/lastmile_qr_scan", "android": "https://dc.lft.to/lastmile_qr_scan"}, "is_reserved": 0, "fusion_lon": 0.0, "fusion_lat": 0.0, "lon": -77.04683166666666, "name": "498dd2ba6ffd26ede292ba8833bf83c6"}, {"bike_id": "d86cb72c99520cf00c0cb9d3ad12c159", "type": "electric_scooter", "is_disabled": 0, "lat": 38.93214866666667, "rental_uris": {"ios": "https://dc.lft.to/lastmile_qr_scan", "android": "https://dc.lft.to/lastmile_qr_scan"}, "is_reserved": 0, "fusion_lon": 0.0, "fusion_lat": 0.0, "lon": -77.0326095, "name": "d86cb72c99520cf00c0cb9d3ad12c159"}, {"bike_id": "b7dca92e48eeb7d9f9df88779318edea", "type": "electric_scooter", "is_disabled": 0, "lat": 38.907668, "rental_uris": {"ios": "https://dc.lft.to/lastmile_qr_scan", "android": "https://dc.lft.to/lastmile_qr_scan"}, "is_reserved": 0, "fusion_lon": 0.0, "fusion_lat": 0.0, "lon": -77.016984, "name": "b7dca92e48eeb7d9f9df88779318edea"}, {"bike_id": "eeda1069f8383af6b01703174f774f7a", "type": "electric_bike", "is_disabled": 0, "lat": 38.874791, "rental_uris": {"ios": "https://dc.lft.to/lastmile_qr_scan", "android": "https://dc.lft.to/lastmile_qr_scan"}, "is_reserved": 0, "fusion_lon": 0.0, "fusion_lat": 0.0, "lon": -76.96523566666667, "name": "eeda1069f8383af6b01703174f774f7a"}, {"bike_id": "2af6f5efacd944c3289ba39614acedca", "type": "electric_scooter", "is_disabled": 0, "lat": 38.9018955, "rental_uris": {"ios": "https://dc.lft.to/lastmile_qr_scan", "android": "https://dc.lft.to/lastmile_qr_scan"}, "is_reserved": 0, "fusion_lon": 0.0, "fusion_lat": 0.0, "lon": -77.022055, "name": "2af6f5efacd944c3289ba39614acedca"}, {"bike_id": "63a6ddd66a6e82b4840fef2168414bc3", "type": "electric_scooter", "is_disabled": 0, "lat": 38.937268, "rental_uris": {"ios": "https://dc.lft.to/lastmile_qr_scan", "android": "https://dc.lft.to/lastmile_qr_scan"}, "is_reserved": 0, "fusion_lon": 0.0, "fusion_lat": 0.0, "lon": -77.02006816666666, "name": "63a6ddd66a6e82b4840fef2168414bc3"}, {"bike_id": "b98b00b03d9b20e0e6669ab44e1e8c91", "type": "electric_scooter", "is_disabled": 0, "lat": 38.93225783333333, "rental_uris": {"ios": "https://dc.lft.to/lastmile_qr_scan", "android": "https://dc.lft.to/lastmile_qr_scan"}, "is_reserved": 0, "fusion_lon": 0.0, "fusion_lat": 0.0, "lon": -77.03869416666667, "name": "b98b00b03d9b20e0e6669ab44e1e8c91"}, {"bike_id": "f25d27089f84dc128c74777cba1c7131", "type": "electric_scooter", "is_disabled": 0, "lat": 38.908755, "rental_uris": {"ios": "https://dc.lft.to/lastmile_qr_scan", "android": "https://dc.lft.to/lastmile_qr_scan"}, "is_reserved": 0, "fusion_lon": 0.0, "fusion_lat": 0.0, "lon": -77.08589816666667, "name": "f25d27089f84dc128c74777cba1c7131"}, {"bike_id": "82caf9cb85e581385608bbce39da738a", "type": "electric_scooter", "is_disabled": 0, "lat": 38.914769666666665, "rental_uris": {"ios": "https://dc.lft.to/lastmile_qr_scan", "android": "https://dc.lft.to/lastmile_qr_scan"}, "is_reserved": 0, "fusion_lon": 0.0, "fusion_lat": 0.0, "lon": -77.03758166666667, "name": "82caf9cb85e581385608bbce39da738a"}, {"bike_id": "3caa6c9f8c5604afcceaa39444490cb4", "type": "electric_scooter", "is_disabled": 0, "lat": 38.909656, "rental_uris": {"ios": "https://dc.lft.to/lastmile_qr_scan", "android": "https://dc.lft.to/lastmile_qr_scan"}, "is_reserved": 0, "fusion_lon": 0.0, "fusion_lat": 0.0, "lon": -77.04456683333333, "name": "3caa6c9f8c5604afcceaa39444490cb4"}, {"bike_id": "796db0cbd164bb3b09e194c7ba2af9c8", "type": "electric_scooter", "is_disabled": 0, "lat": 38.89247616666667, "rental_uris": {"ios": "https://dc.lft.to/lastmile_qr_scan", "android": "https://dc.lft.to/lastmile_qr_scan"}, "is_reserved": 0, "fusion_lon": 0.0, "fusion_lat": 0.0, "lon": -77.05026833333334, "name": "796db0cbd164bb3b09e194c7ba2af9c8"}, {"bike_id": "f6f3d7c09baca417a26fbcdedc7381f3", "type": "electric_scooter", "is_disabled": 0, "lat": 38.91322533333334, "rental_uris": {"ios": "https://dc.lft.to/lastmile_qr_scan", "android": "https://dc.lft.to/lastmile_qr_scan"}, "is_reserved": 0, "fusion_lon": 0.0, "fusion_lat": 0.0, "lon": -77.031736, "name": "f6f3d7c09baca417a26fbcdedc7381f3"}, {"bike_id": "09f4c69c88902372b3ec20649d1b0bdd", "type": "electric_bike", "is_disabled": 0, "lat": 38.92394433333333, "rental_uris": {"ios": "https://dc.lft.to/lastmile_qr_scan", "android": "https://dc.lft.to/lastmile_qr_scan"}, "is_reserved": 0, "fusion_lon": 0.0, "fusion_lat": 0.0, "lon": -77.030415, "name": "09f4c69c88902372b3ec20649d1b0bdd"}, {"bike_id": "fadde5961a54699e235da68019160d9b", "type": "electric_scooter", "is_disabled": 0, "lat": 38.894785666666664, "rental_uris": {"ios": "https://dc.lft.to/lastmile_qr_scan", "android": "https://dc.lft.to/lastmile_qr_scan"}, "is_reserved": 0, "fusion_lon": 0.0, "fusion_lat": 0.0, "lon": -76.9486165, "name": "fadde5961a54699e235da68019160d9b"}, {"bike_id": "2f9873ab413d4b9cb93b46e1cfde5787", "type": "electric_scooter", "is_disabled": 0, "lat": 38.911160833333334, "rental_uris": {"ios": "https://dc.lft.to/lastmile_qr_scan", "android": "https://dc.lft.to/lastmile_qr_scan"}, "is_reserved": 0, "fusion_lon": 0.0, "fusion_lat": 0.0, "lon": -77.02204166666667, "name": "2f9873ab413d4b9cb93b46e1cfde5787"}, {"bike_id": "d441ebd84f1ae1494cfafcc2c00709b2", "type": "electric_scooter", "is_disabled": 0, "lat": 38.892218666666665, "rental_uris": {"ios": "https://dc.lft.to/lastmile_qr_scan", "android": "https://dc.lft.to/lastmile_qr_scan"}, "is_reserved": 0, "fusion_lon": 0.0, "fusion_lat": 0.0, "lon": -77.031715, "name": "d441ebd84f1ae1494cfafcc2c00709b2"}, {"bike_id": "7eee66e5e6433a836d7bcda224c1adf1", "type": "electric_scooter", "is_disabled": 0, "lat": 38.91270866666667, "rental_uris": {"ios": "https://dc.lft.to/lastmile_qr_scan", "android": "https://dc.lft.to/lastmile_qr_scan"}, "is_reserved": 0, "fusion_lon": 0.0, "fusion_lat": 0.0, "lon": -77.03869383333334, "name": "7eee66e5e6433a836d7bcda224c1adf1"}, {"bike_id": "5959e9a7b9b6f1d35dc79033ddcaa9c6", "type": "electric_scooter", "is_disabled": 0, "lat": 38.8766215, "rental_uris": {"ios": "https://dc.lft.to/lastmile_qr_scan", "android": "https://dc.lft.to/lastmile_qr_scan"}, "is_reserved": 0, "fusion_lon": 0.0, "fusion_lat": 0.0, "lon": -77.0043485, "name": "5959e9a7b9b6f1d35dc79033ddcaa9c6"}, {"bike_id": "4e0229d2ce4308ec33b1ac5e1a384f8c", "type": "electric_scooter", "is_disabled": 0, "lat": 38.89841666666667, "rental_uris": {"ios": "https://dc.lft.to/lastmile_qr_scan", "android": "https://dc.lft.to/lastmile_qr_scan"}, "is_reserved": 0, "fusion_lon": 0.0, "fusion_lat": 0.0, "lon": -76.9463085, "name": "4e0229d2ce4308ec33b1ac5e1a384f8c"}, {"bike_id": "de2ee7e88b0a5e4edc28fcf8bb9f721a", "type": "electric_scooter", "is_disabled": 0, "lat": 38.9072935, "rental_uris": {"ios": "https://dc.lft.to/lastmile_qr_scan", "android": "https://dc.lft.to/lastmile_qr_scan"}, "is_reserved": 0, "fusion_lon": 0.0, "fusion_lat": 0.0, "lon": -77.02404333333334, "name": "de2ee7e88b0a5e4edc28fcf8bb9f721a"}, {"bike_id": "cd3ef6f902aa53a896294901090ad3b4", "type": "electric_scooter", "is_disabled": 0, "lat": 38.90199783333333, "rental_uris": {"ios": "https://dc.lft.to/lastmile_qr_scan", "android": "https://dc.lft.to/lastmile_qr_scan"}, "is_reserved": 0, "fusion_lon": 0.0, "fusion_lat": 0.0, "lon": -76.98204316666667, "name": "cd3ef6f902aa53a896294901090ad3b4"}, {"bike_id": "0ae62320fed5b0999974bdaa8999cf52", "type": "electric_scooter", "is_disabled": 0, "lat": 38.92140883333333, "rental_uris": {"ios": "https://dc.lft.to/lastmile_qr_scan", "android": "https://dc.lft.to/lastmile_qr_scan"}, "is_reserved": 0, "fusion_lon": 0.0, "fusion_lat": 0.0, "lon": -77.03666516666667, "name": "0ae62320fed5b0999974bdaa8999cf52"}, {"bike_id": "23fb5f908378b2af2eadbd4791bd73ff", "type": "electric_scooter", "is_disabled": 0, "lat": 38.90936283333333, "rental_uris": {"ios": "https://dc.lft.to/lastmile_qr_scan", "android": "https://dc.lft.to/lastmile_qr_scan"}, "is_reserved": 0, "fusion_lon": 0.0, "fusion_lat": 0.0, "lon": -77.055621, "name": "23fb5f908378b2af2eadbd4791bd73ff"}, {"bike_id": "b9ca1900ce700aad6a584a7d5865b016", "type": "electric_scooter", "is_disabled": 0, "lat": 38.91422216666667, "rental_uris": {"ios": "https://dc.lft.to/lastmile_qr_scan", "android": "https://dc.lft.to/lastmile_qr_scan"}, "is_reserved": 0, "fusion_lon": 0.0, "fusion_lat": 0.0, "lon": -77.0180615, "name": "b9ca1900ce700aad6a584a7d5865b016"}, {"bike_id": "c889f994ac4e3872a581e6792017db4f", "type": "electric_scooter", "is_disabled": 0, "lat": 38.92597416666667, "rental_uris": {"ios": "https://dc.lft.to/lastmile_qr_scan", "android": "https://dc.lft.to/lastmile_qr_scan"}, "is_reserved": 0, "fusion_lon": 0.0, "fusion_lat": 0.0, "lon": -77.02384066666667, "name": "c889f994ac4e3872a581e6792017db4f"}, {"bike_id": "ab0553943afd7f3798037f2515c238b1", "type": "electric_scooter", "is_disabled": 0, "lat": 38.9230735, "rental_uris": {"ios": "https://dc.lft.to/lastmile_qr_scan", "android": "https://dc.lft.to/lastmile_qr_scan"}, "is_reserved": 0, "fusion_lon": 0.0, "fusion_lat": 0.0, "lon": -77.03802716666667, "name": "ab0553943afd7f3798037f2515c238b1"}, {"bike_id": "5bcd86acf31fb40b64c55dd2948e140c", "type": "electric_scooter", "is_disabled": 0, "lat": 38.902893, "rental_uris": {"ios": "https://dc.lft.to/lastmile_qr_scan", "android": "https://dc.lft.to/lastmile_qr_scan"}, "is_reserved": 0, "fusion_lon": 0.0, "fusion_lat": 0.0, "lon": -77.0336835, "name": "5bcd86acf31fb40b64c55dd2948e140c"}, {"bike_id": "0e0541a7fe6b6cda1cf89aa5f3d89a58", "type": "electric_scooter", "is_disabled": 0, "lat": 38.9345735, "rental_uris": {"ios": "https://dc.lft.to/lastmile_qr_scan", "android": "https://dc.lft.to/lastmile_qr_scan"}, "is_reserved": 0, "fusion_lon": 0.0, "fusion_lat": 0.0, "lon": -77.0277165, "name": "0e0541a7fe6b6cda1cf89aa5f3d89a58"}, {"bike_id": "b46c72f5ade61ff7b7476f916949042e", "type": "electric_scooter", "is_disabled": 0, "lat": 38.9191905, "rental_uris": {"ios": "https://dc.lft.to/lastmile_qr_scan", "android": "https://dc.lft.to/lastmile_qr_scan"}, "is_reserved": 0, "fusion_lon": 0.0, "fusion_lat": 0.0, "lon": -77.0342775, "name": "b46c72f5ade61ff7b7476f916949042e"}, {"bike_id": "5c9837f8bf8e0e57741ba161de2a63b3", "type": "electric_scooter", "is_disabled": 0, "lat": 38.9277045, "rental_uris": {"ios": "https://dc.lft.to/lastmile_qr_scan", "android": "https://dc.lft.to/lastmile_qr_scan"}, "is_reserved": 0, "fusion_lon": 0.0, "fusion_lat": 0.0, "lon": -76.96099283333334, "name": "5c9837f8bf8e0e57741ba161de2a63b3"}, {"bike_id": "93dbc2d82b07f9fa3d0d7206cdd95f7b", "type": "electric_scooter", "is_disabled": 0, "lat": 38.921528333333335, "rental_uris": {"ios": "https://dc.lft.to/lastmile_qr_scan", "android": "https://dc.lft.to/lastmile_qr_scan"}, "is_reserved": 0, "fusion_lon": 0.0, "fusion_lat": 0.0, "lon": -77.03512116666667, "name": "93dbc2d82b07f9fa3d0d7206cdd95f7b"}, {"bike_id": "c6fb7dc798d622f11805d3a9e79c496c", "type": "electric_scooter", "is_disabled": 0, "lat": 38.91543033333333, "rental_uris": {"ios": "https://dc.lft.to/lastmile_qr_scan", "android": "https://dc.lft.to/lastmile_qr_scan"}, "is_reserved": 0, "fusion_lon": 0.0, "fusion_lat": 0.0, "lon": -77.01222416666667, "name": "c6fb7dc798d622f11805d3a9e79c496c"}, {"bike_id": "73adfb47cee42987f9fd32efc7e55ab9", "type": "electric_scooter", "is_disabled": 0, "lat": 38.873683, "rental_uris": {"ios": "https://dc.lft.to/lastmile_qr_scan", "android": "https://dc.lft.to/lastmile_qr_scan"}, "is_reserved": 0, "fusion_lon": 0.0, "fusion_lat": 0.0, "lon": -77.00109616666667, "name": "73adfb47cee42987f9fd32efc7e55ab9"}, {"bike_id": "59f40a4a5c933f6f1d9cc1668d04280a", "type": "electric_scooter", "is_disabled": 0, "lat": 38.93995533333333, "rental_uris": {"ios": "https://dc.lft.to/lastmile_qr_scan", "android": "https://dc.lft.to/lastmile_qr_scan"}, "is_reserved": 0, "fusion_lon": 0.0, "fusion_lat": 0.0, "lon": -77.01752016666667, "name": "59f40a4a5c933f6f1d9cc1668d04280a"}, {"bike_id": "5d84bb1d3ae5c5bc7f2688dae5edb145", "type": "electric_scooter", "is_disabled": 0, "lat": 38.90735566666667, "rental_uris": {"ios": "https://dc.lft.to/lastmile_qr_scan", "android": "https://dc.lft.to/lastmile_qr_scan"}, "is_reserved": 0, "fusion_lon": 0.0, "fusion_lat": 0.0, "lon": -77.02384033333334, "name": "5d84bb1d3ae5c5bc7f2688dae5edb145"}, {"bike_id": "be90e3b8146b11f1d11a69a01b45129d", "type": "electric_scooter", "is_disabled": 0, "lat": 38.867375833333334, "rental_uris": {"ios": "https://dc.lft.to/lastmile_qr_scan", "android": "https://dc.lft.to/lastmile_qr_scan"}, "is_reserved": 0, "fusion_lon": 0.0, "fusion_lat": 0.0, "lon": -76.97852133333333, "name": "be90e3b8146b11f1d11a69a01b45129d"}, {"bike_id": "3bd5b29d3904495571b265f360f4237b", "type": "electric_scooter", "is_disabled": 0, "lat": 38.8922575, "rental_uris": {"ios": "https://dc.lft.to/lastmile_qr_scan", "android": "https://dc.lft.to/lastmile_qr_scan"}, "is_reserved": 0, "fusion_lon": 0.0, "fusion_lat": 0.0, "lon": -77.04006233333334, "name": "3bd5b29d3904495571b265f360f4237b"}, {"bike_id": "386d9cfe202a471b8e3512988be758d5", "type": "electric_scooter", "is_disabled": 0, "lat": 38.917873166666666, "rental_uris": {"ios": "https://dc.lft.to/lastmile_qr_scan", "android": "https://dc.lft.to/lastmile_qr_scan"}, "is_reserved": 0, "fusion_lon": 0.0, "fusion_lat": 0.0, "lon": -77.02309883333334, "name": "386d9cfe202a471b8e3512988be758d5"}, {"bike_id": "e08533531ad24098d9b7e828d3e925af", "type": "electric_bike", "is_disabled": 0, "lat": 38.8453175, "rental_uris": {"ios": "https://dc.lft.to/lastmile_qr_scan", "android": "https://dc.lft.to/lastmile_qr_scan"}, "is_reserved": 0, "fusion_lon": 0.0, "fusion_lat": 0.0, "lon": -76.97397433333333, "name": "e08533531ad24098d9b7e828d3e925af"}, {"bike_id": "1126744b3e7e9130441f1f6a015eb215", "type": "electric_scooter", "is_disabled": 0, "lat": 38.92525083333334, "rental_uris": {"ios": "https://dc.lft.to/lastmile_qr_scan", "android": "https://dc.lft.to/lastmile_qr_scan"}, "is_reserved": 0, "fusion_lon": 0.0, "fusion_lat": 0.0, "lon": -77.07634066666667, "name": "1126744b3e7e9130441f1f6a015eb215"}, {"bike_id": "d5cfff0e6f5b0c6f22b589ea14a5c1da", "type": "electric_scooter", "is_disabled": 0, "lat": 38.91664183333334, "rental_uris": {"ios": "https://dc.lft.to/lastmile_qr_scan", "android": "https://dc.lft.to/lastmile_qr_scan"}, "is_reserved": 0, "fusion_lon": 0.0, "fusion_lat": 0.0, "lon": -77.023107, "name": "d5cfff0e6f5b0c6f22b589ea14a5c1da"}, {"bike_id": "250e17ce0309593a82e935f964bf1d8b", "type": "electric_scooter", "is_disabled": 0, "lat": 38.92025733333333, "rental_uris": {"ios": "https://dc.lft.to/lastmile_qr_scan", "android": "https://dc.lft.to/lastmile_qr_scan"}, "is_reserved": 0, "fusion_lon": 0.0, "fusion_lat": 0.0, "lon": -77.0311865, "name": "250e17ce0309593a82e935f964bf1d8b"}, {"bike_id": "a5c51fc08617456f30de471cfc65d3d5", "type": "electric_scooter", "is_disabled": 0, "lat": 38.912388666666665, "rental_uris": {"ios": "https://dc.lft.to/lastmile_qr_scan", "android": "https://dc.lft.to/lastmile_qr_scan"}, "is_reserved": 0, "fusion_lon": 0.0, "fusion_lat": 0.0, "lon": -77.04506133333334, "name": "a5c51fc08617456f30de471cfc65d3d5"}, {"bike_id": "e85e86bf4d391053b36a463c2224ee2a", "type": "electric_scooter", "is_disabled": 0, "lat": 38.89330783333333, "rental_uris": {"ios": "https://dc.lft.to/lastmile_qr_scan", "android": "https://dc.lft.to/lastmile_qr_scan"}, "is_reserved": 0, "fusion_lon": 0.0, "fusion_lat": 0.0, "lon": -77.03177533333333, "name": "e85e86bf4d391053b36a463c2224ee2a"}, {"bike_id": "f2757e01064f3f1e537a4e18100f0348", "type": "electric_scooter", "is_disabled": 0, "lat": 38.920842666666665, "rental_uris": {"ios": "https://dc.lft.to/lastmile_qr_scan", "android": "https://dc.lft.to/lastmile_qr_scan"}, "is_reserved": 0, "fusion_lon": 0.0, "fusion_lat": 0.0, "lon": -77.02393066666667, "name": "f2757e01064f3f1e537a4e18100f0348"}, {"bike_id": "00d8b06b9f86a04674c22d18b0b3eb27", "type": "electric_scooter", "is_disabled": 0, "lat": 38.90474833333333, "rental_uris": {"ios": "https://dc.lft.to/lastmile_qr_scan", "android": "https://dc.lft.to/lastmile_qr_scan"}, "is_reserved": 0, "fusion_lon": 0.0, "fusion_lat": 0.0, "lon": -76.996164, "name": "00d8b06b9f86a04674c22d18b0b3eb27"}, {"bike_id": "8e2eb24300cdb8dcaf3c38f4bbcbe178", "type": "electric_scooter", "is_disabled": 0, "lat": 38.92221, "rental_uris": {"ios": "https://dc.lft.to/lastmile_qr_scan", "android": "https://dc.lft.to/lastmile_qr_scan"}, "is_reserved": 0, "fusion_lon": 0.0, "fusion_lat": 0.0, "lon": -77.04333033333333, "name": "8e2eb24300cdb8dcaf3c38f4bbcbe178"}, {"bike_id": "084cd2bb8484ce7701fdf892bcefd22a", "type": "electric_scooter", "is_disabled": 0, "lat": 38.9479185, "rental_uris": {"ios": "https://dc.lft.to/lastmile_qr_scan", "android": "https://dc.lft.to/lastmile_qr_scan"}, "is_reserved": 0, "fusion_lon": 0.0, "fusion_lat": 0.0, "lon": -77.021384, "name": "084cd2bb8484ce7701fdf892bcefd22a"}, {"bike_id": "6087082c6367d63fe6ede503ef446c10", "type": "electric_scooter", "is_disabled": 0, "lat": 38.87586866666667, "rental_uris": {"ios": "https://dc.lft.to/lastmile_qr_scan", "android": "https://dc.lft.to/lastmile_qr_scan"}, "is_reserved": 0, "fusion_lon": 0.0, "fusion_lat": 0.0, "lon": -77.00481233333333, "name": "6087082c6367d63fe6ede503ef446c10"}, {"bike_id": "5fc4dd3888de7a465afd05623e54ff7a", "type": "electric_scooter", "is_disabled": 0, "lat": 38.85886383333333, "rental_uris": {"ios": "https://dc.lft.to/lastmile_qr_scan", "android": "https://dc.lft.to/lastmile_qr_scan"}, "is_reserved": 0, "fusion_lon": 0.0, "fusion_lat": 0.0, "lon": -76.995558, "name": "5fc4dd3888de7a465afd05623e54ff7a"}, {"bike_id": "1065fc16d4fee997d4d3fbaf7764b04d", "type": "electric_scooter", "is_disabled": 0, "lat": 38.88747133333333, "rental_uris": {"ios": "https://dc.lft.to/lastmile_qr_scan", "android": "https://dc.lft.to/lastmile_qr_scan"}, "is_reserved": 0, "fusion_lon": 0.0, "fusion_lat": 0.0, "lon": -77.03157833333333, "name": "1065fc16d4fee997d4d3fbaf7764b04d"}, {"bike_id": "fbb74f9e0f234a7e8f33fa761ae74477", "type": "electric_scooter", "is_disabled": 0, "lat": 38.91332766666667, "rental_uris": {"ios": "https://dc.lft.to/lastmile_qr_scan", "android": "https://dc.lft.to/lastmile_qr_scan"}, "is_reserved": 0, "fusion_lon": 0.0, "fusion_lat": 0.0, "lon": -77.04485366666667, "name": "fbb74f9e0f234a7e8f33fa761ae74477"}, {"bike_id": "278448a7c3d200d72944baa61b77a552", "type": "electric_scooter", "is_disabled": 0, "lat": 38.937334666666665, "rental_uris": {"ios": "https://dc.lft.to/lastmile_qr_scan", "android": "https://dc.lft.to/lastmile_qr_scan"}, "is_reserved": 0, "fusion_lon": 0.0, "fusion_lat": 0.0, "lon": -77.03267133333334, "name": "278448a7c3d200d72944baa61b77a552"}, {"bike_id": "43df1c33609494acc258f234c02b716c", "type": "electric_scooter", "is_disabled": 0, "lat": 38.92914583333334, "rental_uris": {"ios": "https://dc.lft.to/lastmile_qr_scan", "android": "https://dc.lft.to/lastmile_qr_scan"}, "is_reserved": 0, "fusion_lon": 0.0, "fusion_lat": 0.0, "lon": -77.020896, "name": "43df1c33609494acc258f234c02b716c"}, {"bike_id": "0f0d9c7d87b46e4e5cc43abaf78f0a99", "type": "electric_scooter", "is_disabled": 0, "lat": 38.938972, "rental_uris": {"ios": "https://dc.lft.to/lastmile_qr_scan", "android": "https://dc.lft.to/lastmile_qr_scan"}, "is_reserved": 0, "fusion_lon": 0.0, "fusion_lat": 0.0, "lon": -77.03326283333334, "name": "0f0d9c7d87b46e4e5cc43abaf78f0a99"}, {"bike_id": "7c41a26b95b71f56898c6f959f8b2c80", "type": "electric_scooter", "is_disabled": 0, "lat": 38.9287015, "rental_uris": {"ios": "https://dc.lft.to/lastmile_qr_scan", "android": "https://dc.lft.to/lastmile_qr_scan"}, "is_reserved": 0, "fusion_lon": 0.0, "fusion_lat": 0.0, "lon": -77.0734385, "name": "7c41a26b95b71f56898c6f959f8b2c80"}, {"bike_id": "cdd124b215b306b3ae37b354deabe511", "type": "electric_scooter", "is_disabled": 0, "lat": 38.91991866666667, "rental_uris": {"ios": "https://dc.lft.to/lastmile_qr_scan", "android": "https://dc.lft.to/lastmile_qr_scan"}, "is_reserved": 0, "fusion_lon": 0.0, "fusion_lat": 0.0, "lon": -77.02227816666667, "name": "cdd124b215b306b3ae37b354deabe511"}, {"bike_id": "e3be1612f2ef64366c3b8b9fcfac223c", "type": "electric_scooter", "is_disabled": 0, "lat": 38.90339516666667, "rental_uris": {"ios": "https://dc.lft.to/lastmile_qr_scan", "android": "https://dc.lft.to/lastmile_qr_scan"}, "is_reserved": 0, "fusion_lon": 0.0, "fusion_lat": 0.0, "lon": -77.06186866666667, "name": "e3be1612f2ef64366c3b8b9fcfac223c"}, {"bike_id": "bfba35ff2a6ace64042ab78e6c605f90", "type": "electric_scooter", "is_disabled": 0, "lat": 38.9087335, "rental_uris": {"ios": "https://dc.lft.to/lastmile_qr_scan", "android": "https://dc.lft.to/lastmile_qr_scan"}, "is_reserved": 0, "fusion_lon": 0.0, "fusion_lat": 0.0, "lon": -76.99787566666667, "name": "bfba35ff2a6ace64042ab78e6c605f90"}, {"bike_id": "9039c1dffe76675ed6c01648a98d4401", "type": "electric_scooter", "is_disabled": 0, "lat": 38.92760066666666, "rental_uris": {"ios": "https://dc.lft.to/lastmile_qr_scan", "android": "https://dc.lft.to/lastmile_qr_scan"}, "is_reserved": 0, "fusion_lon": 0.0, "fusion_lat": 0.0, "lon": -77.0277295, "name": "9039c1dffe76675ed6c01648a98d4401"}, {"bike_id": "ac34ff7b214914ff7427702718fa6fd6", "type": "electric_scooter", "is_disabled": 0, "lat": 38.89883916666667, "rental_uris": {"ios": "https://dc.lft.to/lastmile_qr_scan", "android": "https://dc.lft.to/lastmile_qr_scan"}, "is_reserved": 0, "fusion_lon": 0.0, "fusion_lat": 0.0, "lon": -76.9317555, "name": "ac34ff7b214914ff7427702718fa6fd6"}, {"bike_id": "fb595c8a03a284bcbe10de8c5a789ebe", "type": "electric_bike", "is_disabled": 0, "lat": 38.867595, "rental_uris": {"ios": "https://dc.lft.to/lastmile_qr_scan", "android": "https://dc.lft.to/lastmile_qr_scan"}, "is_reserved": 0, "fusion_lon": 0.0, "fusion_lat": 0.0, "lon": -76.94537783333334, "name": "fb595c8a03a284bcbe10de8c5a789ebe"}, {"bike_id": "410dc65460c343be6d7e2fc0b5806a1b", "type": "electric_scooter", "is_disabled": 0, "lat": 38.898883833333336, "rental_uris": {"ios": "https://dc.lft.to/lastmile_qr_scan", "android": "https://dc.lft.to/lastmile_qr_scan"}, "is_reserved": 0, "fusion_lon": 0.0, "fusion_lat": 0.0, "lon": -76.93176, "name": "410dc65460c343be6d7e2fc0b5806a1b"}, {"bike_id": "ecd325256bc9ef4c8e867ca48a5103c3", "type": "electric_scooter", "is_disabled": 0, "lat": 38.908488166666665, "rental_uris": {"ios": "https://dc.lft.to/lastmile_qr_scan", "android": "https://dc.lft.to/lastmile_qr_scan"}, "is_reserved": 0, "fusion_lon": 0.0, "fusion_lat": 0.0, "lon": -76.999558, "name": "ecd325256bc9ef4c8e867ca48a5103c3"}, {"bike_id": "7e6268314d1f5a7f92b85d788eed878d", "type": "electric_bike", "is_disabled": 0, "lat": 38.90897316666667, "rental_uris": {"ios": "https://dc.lft.to/lastmile_qr_scan", "android": "https://dc.lft.to/lastmile_qr_scan"}, "is_reserved": 0, "fusion_lon": 0.0, "fusion_lat": 0.0, "lon": -77.03213783333334, "name": "7e6268314d1f5a7f92b85d788eed878d"}, {"bike_id": "8dc4e07c8138781b163c5aa5ee7bc99e", "type": "electric_bike", "is_disabled": 0, "lat": 38.89728266666667, "rental_uris": {"ios": "https://dc.lft.to/lastmile_qr_scan", "android": "https://dc.lft.to/lastmile_qr_scan"}, "is_reserved": 0, "fusion_lon": 0.0, "fusion_lat": 0.0, "lon": -76.973471, "name": "8dc4e07c8138781b163c5aa5ee7bc99e"}, {"bike_id": "d950a98bc456ca782bf2c93faf6654e0", "type": "electric_scooter", "is_disabled": 0, "lat": 38.8877365, "rental_uris": {"ios": "https://dc.lft.to/lastmile_qr_scan", "android": "https://dc.lft.to/lastmile_qr_scan"}, "is_reserved": 0, "fusion_lon": 0.0, "fusion_lat": 0.0, "lon": -76.95518733333333, "name": "d950a98bc456ca782bf2c93faf6654e0"}, {"bike_id": "d26f1dc6a2162df1cb650dcbe1a3ec89", "type": "electric_scooter", "is_disabled": 0, "lat": 38.920771, "rental_uris": {"ios": "https://dc.lft.to/lastmile_qr_scan", "android": "https://dc.lft.to/lastmile_qr_scan"}, "is_reserved": 0, "fusion_lon": 0.0, "fusion_lat": 0.0, "lon": -77.024514, "name": "d26f1dc6a2162df1cb650dcbe1a3ec89"}, {"bike_id": "c846b227e5017fce4485e5d5602b9e72", "type": "electric_scooter", "is_disabled": 0, "lat": 38.90353183333333, "rental_uris": {"ios": "https://dc.lft.to/lastmile_qr_scan", "android": "https://dc.lft.to/lastmile_qr_scan"}, "is_reserved": 0, "fusion_lon": 0.0, "fusion_lat": 0.0, "lon": -77.03170166666666, "name": "c846b227e5017fce4485e5d5602b9e72"}, {"bike_id": "b6ac23f57b53c6ac93c7be28187ccef4", "type": "electric_scooter", "is_disabled": 0, "lat": 38.931760833333335, "rental_uris": {"ios": "https://dc.lft.to/lastmile_qr_scan", "android": "https://dc.lft.to/lastmile_qr_scan"}, "is_reserved": 0, "fusion_lon": 0.0, "fusion_lat": 0.0, "lon": -77.03153683333333, "name": "b6ac23f57b53c6ac93c7be28187ccef4"}, {"bike_id": "c236b68904ef7db0e41248cf59bc8d43", "type": "electric_scooter", "is_disabled": 0, "lat": 38.866303333333335, "rental_uris": {"ios": "https://dc.lft.to/lastmile_qr_scan", "android": "https://dc.lft.to/lastmile_qr_scan"}, "is_reserved": 0, "fusion_lon": 0.0, "fusion_lat": 0.0, "lon": -76.98716383333333, "name": "c236b68904ef7db0e41248cf59bc8d43"}, {"bike_id": "ed662182587074da7a926af0b17d53ed", "type": "electric_scooter", "is_disabled": 0, "lat": 38.896406166666665, "rental_uris": {"ios": "https://dc.lft.to/lastmile_qr_scan", "android": "https://dc.lft.to/lastmile_qr_scan"}, "is_reserved": 0, "fusion_lon": 0.0, "fusion_lat": 0.0, "lon": -77.070456, "name": "ed662182587074da7a926af0b17d53ed"}, {"bike_id": "170be4c6d1ad8d22d891277bc92d5c7a", "type": "electric_scooter", "is_disabled": 0, "lat": 38.914797166666666, "rental_uris": {"ios": "https://dc.lft.to/lastmile_qr_scan", "android": "https://dc.lft.to/lastmile_qr_scan"}, "is_reserved": 0, "fusion_lon": 0.0, "fusion_lat": 0.0, "lon": -77.03569733333333, "name": "170be4c6d1ad8d22d891277bc92d5c7a"}, {"bike_id": "90b08396195f515a1e434a6cff5fd4ee", "type": "electric_scooter", "is_disabled": 0, "lat": 38.92323, "rental_uris": {"ios": "https://dc.lft.to/lastmile_qr_scan", "android": "https://dc.lft.to/lastmile_qr_scan"}, "is_reserved": 0, "fusion_lon": 0.0, "fusion_lat": 0.0, "lon": -77.0556785, "name": "90b08396195f515a1e434a6cff5fd4ee"}, {"bike_id": "0161d59ed109545446daa23a7a5758b0", "type": "electric_scooter", "is_disabled": 0, "lat": 38.928861, "rental_uris": {"ios": "https://dc.lft.to/lastmile_qr_scan", "android": "https://dc.lft.to/lastmile_qr_scan"}, "is_reserved": 0, "fusion_lon": 0.0, "fusion_lat": 0.0, "lon": -77.03923166666667, "name": "0161d59ed109545446daa23a7a5758b0"}, {"bike_id": "d21d2d65f52c63a0ad1eea78b22be329", "type": "electric_scooter", "is_disabled": 0, "lat": 38.908752, "rental_uris": {"ios": "https://dc.lft.to/lastmile_qr_scan", "android": "https://dc.lft.to/lastmile_qr_scan"}, "is_reserved": 0, "fusion_lon": 0.0, "fusion_lat": 0.0, "lon": -77.03188966666667, "name": "d21d2d65f52c63a0ad1eea78b22be329"}, {"bike_id": "be9de9408ae3263fc790205167612efa", "type": "electric_scooter", "is_disabled": 0, "lat": 38.899662166666666, "rental_uris": {"ios": "https://dc.lft.to/lastmile_qr_scan", "android": "https://dc.lft.to/lastmile_qr_scan"}, "is_reserved": 0, "fusion_lon": 0.0, "fusion_lat": 0.0, "lon": -77.01976683333334, "name": "be9de9408ae3263fc790205167612efa"}, {"bike_id": "6ae412d59cdda6b208c29d3a62434cac", "type": "electric_scooter", "is_disabled": 0, "lat": 38.9081025, "rental_uris": {"ios": "https://dc.lft.to/lastmile_qr_scan", "android": "https://dc.lft.to/lastmile_qr_scan"}, "is_reserved": 0, "fusion_lon": 0.0, "fusion_lat": 0.0, "lon": -77.04333533333333, "name": "6ae412d59cdda6b208c29d3a62434cac"}, {"bike_id": "461240c86f6458e236a24a313895d497", "type": "electric_scooter", "is_disabled": 0, "lat": 38.87460733333333, "rental_uris": {"ios": "https://dc.lft.to/lastmile_qr_scan", "android": "https://dc.lft.to/lastmile_qr_scan"}, "is_reserved": 0, "fusion_lon": 0.0, "fusion_lat": 0.0, "lon": -77.0093655, "name": "461240c86f6458e236a24a313895d497"}, {"bike_id": "baf99c4d2e1b93bd142eb7071cd1e878", "type": "electric_scooter", "is_disabled": 0, "lat": 38.89359116666667, "rental_uris": {"ios": "https://dc.lft.to/lastmile_qr_scan", "android": "https://dc.lft.to/lastmile_qr_scan"}, "is_reserved": 0, "fusion_lon": 0.0, "fusion_lat": 0.0, "lon": -76.94933416666667, "name": "baf99c4d2e1b93bd142eb7071cd1e878"}, {"bike_id": "0abfd9d5e775228ce88288993b379989", "type": "electric_bike", "is_disabled": 0, "lat": 38.82179683333333, "rental_uris": {"ios": "https://dc.lft.to/lastmile_qr_scan", "android": "https://dc.lft.to/lastmile_qr_scan"}, "is_reserved": 0, "fusion_lon": 0.0, "fusion_lat": 0.0, "lon": -76.99515816666667, "name": "0abfd9d5e775228ce88288993b379989"}, {"bike_id": "eb2fe63a20ffc1bd52e91d292ef79942", "type": "electric_scooter", "is_disabled": 0, "lat": 38.914639333333334, "rental_uris": {"ios": "https://dc.lft.to/lastmile_qr_scan", "android": "https://dc.lft.to/lastmile_qr_scan"}, "is_reserved": 0, "fusion_lon": 0.0, "fusion_lat": 0.0, "lon": -77.00215883333334, "name": "eb2fe63a20ffc1bd52e91d292ef79942"}, {"bike_id": "9e43f648952fe5454befb27aa83b6023", "type": "electric_bike", "is_disabled": 0, "lat": 39.035749833333334, "rental_uris": {"ios": "https://dc.lft.to/lastmile_qr_scan", "android": "https://dc.lft.to/lastmile_qr_scan"}, "is_reserved": 0, "fusion_lon": 0.0, "fusion_lat": 0.0, "lon": -77.03936766666666, "name": "9e43f648952fe5454befb27aa83b6023"}, {"bike_id": "e4bd5446ef2394845017d92740af01d5", "type": "electric_bike", "is_disabled": 0, "lat": 38.915014, "rental_uris": {"ios": "https://dc.lft.to/lastmile_qr_scan", "android": "https://dc.lft.to/lastmile_qr_scan"}, "is_reserved": 0, "fusion_lon": 0.0, "fusion_lat": 0.0, "lon": -77.032124, "name": "e4bd5446ef2394845017d92740af01d5"}, {"bike_id": "f6352232bfb66e3355043379a79e779b", "type": "electric_scooter", "is_disabled": 0, "lat": 38.93606883333333, "rental_uris": {"ios": "https://dc.lft.to/lastmile_qr_scan", "android": "https://dc.lft.to/lastmile_qr_scan"}, "is_reserved": 0, "fusion_lon": 0.0, "fusion_lat": 0.0, "lon": -77.03521066666667, "name": "f6352232bfb66e3355043379a79e779b"}, {"bike_id": "01269a3cea55ea8c446e4ab47c6644fb", "type": "electric_scooter", "is_disabled": 0, "lat": 38.901983333333334, "rental_uris": {"ios": "https://dc.lft.to/lastmile_qr_scan", "android": "https://dc.lft.to/lastmile_qr_scan"}, "is_reserved": 0, "fusion_lon": 0.0, "fusion_lat": 0.0, "lon": -77.02190133333333, "name": "01269a3cea55ea8c446e4ab47c6644fb"}, {"bike_id": "1ec3a18ca8693625252b17babd6bdb3f", "type": "electric_scooter", "is_disabled": 0, "lat": 38.91119283333333, "rental_uris": {"ios": "https://dc.lft.to/lastmile_qr_scan", "android": "https://dc.lft.to/lastmile_qr_scan"}, "is_reserved": 0, "fusion_lon": 0.0, "fusion_lat": 0.0, "lon": -77.022051, "name": "1ec3a18ca8693625252b17babd6bdb3f"}, {"bike_id": "83e0105c9df4fd71976b67bef8588c98", "type": "electric_bike", "is_disabled": 0, "lat": 38.897325333333335, "rental_uris": {"ios": "https://dc.lft.to/lastmile_qr_scan", "android": "https://dc.lft.to/lastmile_qr_scan"}, "is_reserved": 0, "fusion_lon": 0.0, "fusion_lat": 0.0, "lon": -76.973496, "name": "83e0105c9df4fd71976b67bef8588c98"}, {"bike_id": "7f71462cfa23049740a5fbdbbb576dad", "type": "electric_scooter", "is_disabled": 0, "lat": 38.913525666666665, "rental_uris": {"ios": "https://dc.lft.to/lastmile_qr_scan", "android": "https://dc.lft.to/lastmile_qr_scan"}, "is_reserved": 0, "fusion_lon": 0.0, "fusion_lat": 0.0, "lon": -77.01237983333333, "name": "7f71462cfa23049740a5fbdbbb576dad"}, {"bike_id": "16ebdae826737ca6a5edd53e9569c7f2", "type": "electric_scooter", "is_disabled": 0, "lat": 38.907241, "rental_uris": {"ios": "https://dc.lft.to/lastmile_qr_scan", "android": "https://dc.lft.to/lastmile_qr_scan"}, "is_reserved": 0, "fusion_lon": 0.0, "fusion_lat": 0.0, "lon": -76.98350683333334, "name": "16ebdae826737ca6a5edd53e9569c7f2"}, {"bike_id": "92faae51b764ec4172a5e4880839ff8f", "type": "electric_scooter", "is_disabled": 0, "lat": 38.89326716666667, "rental_uris": {"ios": "https://dc.lft.to/lastmile_qr_scan", "android": "https://dc.lft.to/lastmile_qr_scan"}, "is_reserved": 0, "fusion_lon": 0.0, "fusion_lat": 0.0, "lon": -77.03180333333333, "name": "92faae51b764ec4172a5e4880839ff8f"}, {"bike_id": "eb4b131fd9600ddc86056f7741dd46d7", "type": "electric_scooter", "is_disabled": 0, "lat": 38.846384, "rental_uris": {"ios": "https://dc.lft.to/lastmile_qr_scan", "android": "https://dc.lft.to/lastmile_qr_scan"}, "is_reserved": 0, "fusion_lon": 0.0, "fusion_lat": 0.0, "lon": -76.991349, "name": "eb4b131fd9600ddc86056f7741dd46d7"}, {"bike_id": "a23405fc1e7720425695a213477b9ecd", "type": "electric_scooter", "is_disabled": 0, "lat": 38.918266833333334, "rental_uris": {"ios": "https://dc.lft.to/lastmile_qr_scan", "android": "https://dc.lft.to/lastmile_qr_scan"}, "is_reserved": 0, "fusion_lon": 0.0, "fusion_lat": 0.0, "lon": -77.03932566666667, "name": "a23405fc1e7720425695a213477b9ecd"}, {"bike_id": "69a58233cdc5f64abea1b52a013c7f5a", "type": "electric_scooter", "is_disabled": 0, "lat": 38.92085016666667, "rental_uris": {"ios": "https://dc.lft.to/lastmile_qr_scan", "android": "https://dc.lft.to/lastmile_qr_scan"}, "is_reserved": 0, "fusion_lon": 0.0, "fusion_lat": 0.0, "lon": -77.02393766666667, "name": "69a58233cdc5f64abea1b52a013c7f5a"}, {"bike_id": "132e8c7f47608ffbbd048dcd68efab3c", "type": "electric_scooter", "is_disabled": 0, "lat": 38.9176545, "rental_uris": {"ios": "https://dc.lft.to/lastmile_qr_scan", "android": "https://dc.lft.to/lastmile_qr_scan"}, "is_reserved": 0, "fusion_lon": 0.0, "fusion_lat": 0.0, "lon": -77.01758266666667, "name": "132e8c7f47608ffbbd048dcd68efab3c"}, {"bike_id": "53a93eceff83a0040ccea31c2541fe19", "type": "electric_scooter", "is_disabled": 0, "lat": 38.905408666666666, "rental_uris": {"ios": "https://dc.lft.to/lastmile_qr_scan", "android": "https://dc.lft.to/lastmile_qr_scan"}, "is_reserved": 0, "fusion_lon": 0.0, "fusion_lat": 0.0, "lon": -77.04152933333333, "name": "53a93eceff83a0040ccea31c2541fe19"}, {"bike_id": "2ec8f274a70938d2bf9a49ffc1695820", "type": "electric_scooter", "is_disabled": 0, "lat": 38.90544933333334, "rental_uris": {"ios": "https://dc.lft.to/lastmile_qr_scan", "android": "https://dc.lft.to/lastmile_qr_scan"}, "is_reserved": 0, "fusion_lon": 0.0, "fusion_lat": 0.0, "lon": -77.02183816666667, "name": "2ec8f274a70938d2bf9a49ffc1695820"}, {"bike_id": "379364c66f08f22e0a03b41c331fc337", "type": "electric_scooter", "is_disabled": 0, "lat": 38.90562516666667, "rental_uris": {"ios": "https://dc.lft.to/lastmile_qr_scan", "android": "https://dc.lft.to/lastmile_qr_scan"}, "is_reserved": 0, "fusion_lon": 0.0, "fusion_lat": 0.0, "lon": -77.06524583333334, "name": "379364c66f08f22e0a03b41c331fc337"}, {"bike_id": "4a2e47e0a1a94b47199b7eec2ea2f507", "type": "electric_scooter", "is_disabled": 0, "lat": 38.8715905, "rental_uris": {"ios": "https://dc.lft.to/lastmile_qr_scan", "android": "https://dc.lft.to/lastmile_qr_scan"}, "is_reserved": 0, "fusion_lon": 0.0, "fusion_lat": 0.0, "lon": -77.0135605, "name": "4a2e47e0a1a94b47199b7eec2ea2f507"}, {"bike_id": "6700c26a11c08107ac6494ef0406f8fc", "type": "electric_scooter", "is_disabled": 0, "lat": 38.88719716666667, "rental_uris": {"ios": "https://dc.lft.to/lastmile_qr_scan", "android": "https://dc.lft.to/lastmile_qr_scan"}, "is_reserved": 0, "fusion_lon": 0.0, "fusion_lat": 0.0, "lon": -77.02191066666667, "name": "6700c26a11c08107ac6494ef0406f8fc"}, {"bike_id": "f6cbe486388345e0996fdc943cc57c11", "type": "electric_scooter", "is_disabled": 0, "lat": 38.90548116666667, "rental_uris": {"ios": "https://dc.lft.to/lastmile_qr_scan", "android": "https://dc.lft.to/lastmile_qr_scan"}, "is_reserved": 0, "fusion_lon": 0.0, "fusion_lat": 0.0, "lon": -77.021775, "name": "f6cbe486388345e0996fdc943cc57c11"}, {"bike_id": "424e8700657951d37f677f8c16535500", "type": "electric_scooter", "is_disabled": 0, "lat": 38.90156783333333, "rental_uris": {"ios": "https://dc.lft.to/lastmile_qr_scan", "android": "https://dc.lft.to/lastmile_qr_scan"}, "is_reserved": 0, "fusion_lon": 0.0, "fusion_lat": 0.0, "lon": -77.02304466666666, "name": "424e8700657951d37f677f8c16535500"}, {"bike_id": "5b738eff537e8899d1b0f64f1a284422", "type": "electric_scooter", "is_disabled": 0, "lat": 38.8996875, "rental_uris": {"ios": "https://dc.lft.to/lastmile_qr_scan", "android": "https://dc.lft.to/lastmile_qr_scan"}, "is_reserved": 0, "fusion_lon": 0.0, "fusion_lat": 0.0, "lon": -76.9282925, "name": "5b738eff537e8899d1b0f64f1a284422"}, {"bike_id": "8c88cd472e1a71f7b8148652eba6255d", "type": "electric_scooter", "is_disabled": 0, "lat": 38.95526516666666, "rental_uris": {"ios": "https://dc.lft.to/lastmile_qr_scan", "android": "https://dc.lft.to/lastmile_qr_scan"}, "is_reserved": 0, "fusion_lon": 0.0, "fusion_lat": 0.0, "lon": -77.02308466666666, "name": "8c88cd472e1a71f7b8148652eba6255d"}, {"bike_id": "e2d5cdf6d2338f126493323e1e69da54", "type": "electric_bike", "is_disabled": 0, "lat": 38.963165833333335, "rental_uris": {"ios": "https://dc.lft.to/lastmile_qr_scan", "android": "https://dc.lft.to/lastmile_qr_scan"}, "is_reserved": 0, "fusion_lon": 0.0, "fusion_lat": 0.0, "lon": -76.97360133333333, "name": "e2d5cdf6d2338f126493323e1e69da54"}, {"bike_id": "7bfcf6a4e65bcb0e4a6e329b77b07bbc", "type": "electric_scooter", "is_disabled": 0, "lat": 38.91118, "rental_uris": {"ios": "https://dc.lft.to/lastmile_qr_scan", "android": "https://dc.lft.to/lastmile_qr_scan"}, "is_reserved": 0, "fusion_lon": 0.0, "fusion_lat": 0.0, "lon": -77.02205783333333, "name": "7bfcf6a4e65bcb0e4a6e329b77b07bbc"}, {"bike_id": "8b41b61d22f425044f23bd1a8c175355", "type": "electric_scooter", "is_disabled": 0, "lat": 38.90535833333333, "rental_uris": {"ios": "https://dc.lft.to/lastmile_qr_scan", "android": "https://dc.lft.to/lastmile_qr_scan"}, "is_reserved": 0, "fusion_lon": 0.0, "fusion_lat": 0.0, "lon": -77.07026983333333, "name": "8b41b61d22f425044f23bd1a8c175355"}, {"bike_id": "6c8a010c9dbc2de1b44139f7d2fccff6", "type": "electric_scooter", "is_disabled": 0, "lat": 38.923319, "rental_uris": {"ios": "https://dc.lft.to/lastmile_qr_scan", "android": "https://dc.lft.to/lastmile_qr_scan"}, "is_reserved": 0, "fusion_lon": 0.0, "fusion_lat": 0.0, "lon": -77.03678066666667, "name": "6c8a010c9dbc2de1b44139f7d2fccff6"}, {"bike_id": "0cfe40ca57aa523727cff9053008be43", "type": "electric_bike", "is_disabled": 0, "lat": 38.9525395, "rental_uris": {"ios": "https://dc.lft.to/lastmile_qr_scan", "android": "https://dc.lft.to/lastmile_qr_scan"}, "is_reserved": 0, "fusion_lon": 0.0, "fusion_lat": 0.0, "lon": -76.976724, "name": "0cfe40ca57aa523727cff9053008be43"}, {"bike_id": "8e3bafa36f41e9117983690bea47c390", "type": "electric_scooter", "is_disabled": 0, "lat": 38.9204855, "rental_uris": {"ios": "https://dc.lft.to/lastmile_qr_scan", "android": "https://dc.lft.to/lastmile_qr_scan"}, "is_reserved": 0, "fusion_lon": 0.0, "fusion_lat": 0.0, "lon": -77.02578083333333, "name": "8e3bafa36f41e9117983690bea47c390"}, {"bike_id": "266102e6369b96ff88c077abbec7b5a9", "type": "electric_bike", "is_disabled": 0, "lat": 38.930688333333336, "rental_uris": {"ios": "https://dc.lft.to/lastmile_qr_scan", "android": "https://dc.lft.to/lastmile_qr_scan"}, "is_reserved": 0, "fusion_lon": 0.0, "fusion_lat": 0.0, "lon": -77.03689116666666, "name": "266102e6369b96ff88c077abbec7b5a9"}, {"bike_id": "bc7de99734c0ee81c8639d52989afc79", "type": "electric_bike", "is_disabled": 0, "lat": 38.92645, "rental_uris": {"ios": "https://dc.lft.to/lastmile_qr_scan", "android": "https://dc.lft.to/lastmile_qr_scan"}, "is_reserved": 0, "fusion_lon": 0.0, "fusion_lat": 0.0, "lon": -76.98420033333333, "name": "bc7de99734c0ee81c8639d52989afc79"}, {"bike_id": "d5c04b9d2d53f52f4e5ad1925d7a0efa", "type": "electric_bike", "is_disabled": 0, "lat": 38.936702, "rental_uris": {"ios": "https://dc.lft.to/lastmile_qr_scan", "android": "https://dc.lft.to/lastmile_qr_scan"}, "is_reserved": 0, "fusion_lon": 0.0, "fusion_lat": 0.0, "lon": -76.95208266666667, "name": "d5c04b9d2d53f52f4e5ad1925d7a0efa"}, {"bike_id": "81c7e761499c90e04ce9b071c31ffc0c", "type": "electric_scooter", "is_disabled": 0, "lat": 38.900225, "rental_uris": {"ios": "https://dc.lft.to/lastmile_qr_scan", "android": "https://dc.lft.to/lastmile_qr_scan"}, "is_reserved": 0, "fusion_lon": 0.0, "fusion_lat": 0.0, "lon": -77.01159033333333, "name": "81c7e761499c90e04ce9b071c31ffc0c"}, {"bike_id": "9272a131baafec38514a254a432f8e7a", "type": "electric_scooter", "is_disabled": 0, "lat": 38.916848, "rental_uris": {"ios": "https://dc.lft.to/lastmile_qr_scan", "android": "https://dc.lft.to/lastmile_qr_scan"}, "is_reserved": 0, "fusion_lon": 0.0, "fusion_lat": 0.0, "lon": -77.0294775, "name": "9272a131baafec38514a254a432f8e7a"}, {"bike_id": "88eb246d9762b9f30fb44be6980fb7cd", "type": "electric_bike", "is_disabled": 0, "lat": 38.924564, "rental_uris": {"ios": "https://dc.lft.to/lastmile_qr_scan", "android": "https://dc.lft.to/lastmile_qr_scan"}, "is_reserved": 0, "fusion_lon": 0.0, "fusion_lat": 0.0, "lon": -77.22548083333334, "name": "88eb246d9762b9f30fb44be6980fb7cd"}, {"bike_id": "07b599803b9f8ad6c26384f99f2d9a2f", "type": "electric_scooter", "is_disabled": 0, "lat": 38.907399833333336, "rental_uris": {"ios": "https://dc.lft.to/lastmile_qr_scan", "android": "https://dc.lft.to/lastmile_qr_scan"}, "is_reserved": 0, "fusion_lon": 0.0, "fusion_lat": 0.0, "lon": -77.02967766666667, "name": "07b599803b9f8ad6c26384f99f2d9a2f"}, {"bike_id": "13a64934a6f020fdc7dd58dda57a9d47", "type": "electric_bike", "is_disabled": 0, "lat": 38.902120333333336, "rental_uris": {"ios": "https://dc.lft.to/lastmile_qr_scan", "android": "https://dc.lft.to/lastmile_qr_scan"}, "is_reserved": 0, "fusion_lon": 0.0, "fusion_lat": 0.0, "lon": -76.97410833333333, "name": "13a64934a6f020fdc7dd58dda57a9d47"}, {"bike_id": "e09fcfc591fac410c1c44a5fcd992cc6", "type": "electric_scooter", "is_disabled": 0, "lat": 38.90357983333333, "rental_uris": {"ios": "https://dc.lft.to/lastmile_qr_scan", "android": "https://dc.lft.to/lastmile_qr_scan"}, "is_reserved": 0, "fusion_lon": 0.0, "fusion_lat": 0.0, "lon": -77.02924733333333, "name": "e09fcfc591fac410c1c44a5fcd992cc6"}, {"bike_id": "bb36a4598f7c6e6b69226e3e9300cd15", "type": "electric_scooter", "is_disabled": 0, "lat": 38.89731733333333, "rental_uris": {"ios": "https://dc.lft.to/lastmile_qr_scan", "android": "https://dc.lft.to/lastmile_qr_scan"}, "is_reserved": 0, "fusion_lon": 0.0, "fusion_lat": 0.0, "lon": -77.0217265, "name": "bb36a4598f7c6e6b69226e3e9300cd15"}, {"bike_id": "5a16286a8499f19ba1f6057ea95c9739", "type": "electric_scooter", "is_disabled": 0, "lat": 38.90704483333333, "rental_uris": {"ios": "https://dc.lft.to/lastmile_qr_scan", "android": "https://dc.lft.to/lastmile_qr_scan"}, "is_reserved": 0, "fusion_lon": 0.0, "fusion_lat": 0.0, "lon": -77.02390383333334, "name": "5a16286a8499f19ba1f6057ea95c9739"}, {"bike_id": "7b41e6b94936cbffa192c1f16c661b88", "type": "electric_scooter", "is_disabled": 0, "lat": 38.941942166666664, "rental_uris": {"ios": "https://dc.lft.to/lastmile_qr_scan", "android": "https://dc.lft.to/lastmile_qr_scan"}, "is_reserved": 0, "fusion_lon": 0.0, "fusion_lat": 0.0, "lon": -77.02428966666666, "name": "7b41e6b94936cbffa192c1f16c661b88"}, {"bike_id": "2af94a50d60dbbaefdf8c70fd3834afd", "type": "electric_scooter", "is_disabled": 0, "lat": 38.927785666666665, "rental_uris": {"ios": "https://dc.lft.to/lastmile_qr_scan", "android": "https://dc.lft.to/lastmile_qr_scan"}, "is_reserved": 0, "fusion_lon": 0.0, "fusion_lat": 0.0, "lon": -77.02648333333333, "name": "2af94a50d60dbbaefdf8c70fd3834afd"}, {"bike_id": "120cd4c46b3d629a878b5c2a2943d954", "type": "electric_scooter", "is_disabled": 0, "lat": 38.906529, "rental_uris": {"ios": "https://dc.lft.to/lastmile_qr_scan", "android": "https://dc.lft.to/lastmile_qr_scan"}, "is_reserved": 0, "fusion_lon": 0.0, "fusion_lat": 0.0, "lon": -77.0099775, "name": "120cd4c46b3d629a878b5c2a2943d954"}, {"bike_id": "d70b4920cc1cc56e564d7bd001286c16", "type": "electric_scooter", "is_disabled": 0, "lat": 38.892458, "rental_uris": {"ios": "https://dc.lft.to/lastmile_qr_scan", "android": "https://dc.lft.to/lastmile_qr_scan"}, "is_reserved": 0, "fusion_lon": 0.0, "fusion_lat": 0.0, "lon": -77.04871083333333, "name": "d70b4920cc1cc56e564d7bd001286c16"}, {"bike_id": "2272ac43c3004b34df7003e06aca3cdd", "type": "electric_scooter", "is_disabled": 0, "lat": 38.892397, "rental_uris": {"ios": "https://dc.lft.to/lastmile_qr_scan", "android": "https://dc.lft.to/lastmile_qr_scan"}, "is_reserved": 0, "fusion_lon": 0.0, "fusion_lat": 0.0, "lon": -76.95331433333334, "name": "2272ac43c3004b34df7003e06aca3cdd"}, {"bike_id": "d0371b27b7b7908327c940db3b531387", "type": "electric_scooter", "is_disabled": 0, "lat": 38.91773516666667, "rental_uris": {"ios": "https://dc.lft.to/lastmile_qr_scan", "android": "https://dc.lft.to/lastmile_qr_scan"}, "is_reserved": 0, "fusion_lon": 0.0, "fusion_lat": 0.0, "lon": -77.029526, "name": "d0371b27b7b7908327c940db3b531387"}, {"bike_id": "2db4969dba54b51cb6045bf204ec53ba", "type": "electric_scooter", "is_disabled": 0, "lat": 38.92640816666667, "rental_uris": {"ios": "https://dc.lft.to/lastmile_qr_scan", "android": "https://dc.lft.to/lastmile_qr_scan"}, "is_reserved": 0, "fusion_lon": 0.0, "fusion_lat": 0.0, "lon": -77.01383233333334, "name": "2db4969dba54b51cb6045bf204ec53ba"}, {"bike_id": "ca58ed5f75e95670f68c8096837e516d", "type": "electric_scooter", "is_disabled": 0, "lat": 38.86507616666667, "rental_uris": {"ios": "https://dc.lft.to/lastmile_qr_scan", "android": "https://dc.lft.to/lastmile_qr_scan"}, "is_reserved": 0, "fusion_lon": 0.0, "fusion_lat": 0.0, "lon": -76.99002683333333, "name": "ca58ed5f75e95670f68c8096837e516d"}, {"bike_id": "f6d36f2fa92d3ddde38707b85b3daa86", "type": "electric_scooter", "is_disabled": 0, "lat": 38.91643233333333, "rental_uris": {"ios": "https://dc.lft.to/lastmile_qr_scan", "android": "https://dc.lft.to/lastmile_qr_scan"}, "is_reserved": 0, "fusion_lon": 0.0, "fusion_lat": 0.0, "lon": -77.03210016666667, "name": "f6d36f2fa92d3ddde38707b85b3daa86"}, {"bike_id": "38e990082bef5168b991bf7635a63057", "type": "electric_scooter", "is_disabled": 0, "lat": 38.900915166666664, "rental_uris": {"ios": "https://dc.lft.to/lastmile_qr_scan", "android": "https://dc.lft.to/lastmile_qr_scan"}, "is_reserved": 0, "fusion_lon": 0.0, "fusion_lat": 0.0, "lon": -76.983385, "name": "38e990082bef5168b991bf7635a63057"}, {"bike_id": "8cff014671f8dfe1e03c918ab71de09a", "type": "electric_scooter", "is_disabled": 0, "lat": 38.92166133333333, "rental_uris": {"ios": "https://dc.lft.to/lastmile_qr_scan", "android": "https://dc.lft.to/lastmile_qr_scan"}, "is_reserved": 0, "fusion_lon": 0.0, "fusion_lat": 0.0, "lon": -77.03356816666667, "name": "8cff014671f8dfe1e03c918ab71de09a"}, {"bike_id": "e8c40377873fd2a17841594710fd000c", "type": "electric_scooter", "is_disabled": 0, "lat": 38.87931583333334, "rental_uris": {"ios": "https://dc.lft.to/lastmile_qr_scan", "android": "https://dc.lft.to/lastmile_qr_scan"}, "is_reserved": 0, "fusion_lon": 0.0, "fusion_lat": 0.0, "lon": -77.00810883333334, "name": "e8c40377873fd2a17841594710fd000c"}, {"bike_id": "2073891a183ec5b6f08657ce7f185202", "type": "electric_scooter", "is_disabled": 0, "lat": 38.917088666666665, "rental_uris": {"ios": "https://dc.lft.to/lastmile_qr_scan", "android": "https://dc.lft.to/lastmile_qr_scan"}, "is_reserved": 0, "fusion_lon": 0.0, "fusion_lat": 0.0, "lon": -77.03861783333333, "name": "2073891a183ec5b6f08657ce7f185202"}, {"bike_id": "22a3f3dfce9987b96a43c37b3dab7b3f", "type": "electric_bike", "is_disabled": 0, "lat": 38.80910216666667, "rental_uris": {"ios": "https://dc.lft.to/lastmile_qr_scan", "android": "https://dc.lft.to/lastmile_qr_scan"}, "is_reserved": 0, "fusion_lon": 0.0, "fusion_lat": 0.0, "lon": -77.0866725, "name": "22a3f3dfce9987b96a43c37b3dab7b3f"}, {"bike_id": "dd1cfb0e2398bbaa9e52eb8a6e7601b6", "type": "electric_scooter", "is_disabled": 0, "lat": 38.875029833333336, "rental_uris": {"ios": "https://dc.lft.to/lastmile_qr_scan", "android": "https://dc.lft.to/lastmile_qr_scan"}, "is_reserved": 0, "fusion_lon": 0.0, "fusion_lat": 0.0, "lon": -77.01227483333334, "name": "dd1cfb0e2398bbaa9e52eb8a6e7601b6"}, {"bike_id": "90fbd68b68d4ba0519b24926f1476a3b", "type": "electric_scooter", "is_disabled": 0, "lat": 38.907566333333335, "rental_uris": {"ios": "https://dc.lft.to/lastmile_qr_scan", "android": "https://dc.lft.to/lastmile_qr_scan"}, "is_reserved": 0, "fusion_lon": 0.0, "fusion_lat": 0.0, "lon": -77.03177183333334, "name": "90fbd68b68d4ba0519b24926f1476a3b"}, {"bike_id": "f2f8dfb3ba99bab06821cc08af034b88", "type": "electric_scooter", "is_disabled": 0, "lat": 38.90034283333333, "rental_uris": {"ios": "https://dc.lft.to/lastmile_qr_scan", "android": "https://dc.lft.to/lastmile_qr_scan"}, "is_reserved": 0, "fusion_lon": 0.0, "fusion_lat": 0.0, "lon": -77.026226, "name": "f2f8dfb3ba99bab06821cc08af034b88"}, {"bike_id": "409d0ec19530a163e801cf0a5172eaca", "type": "electric_scooter", "is_disabled": 0, "lat": 38.91808316666667, "rental_uris": {"ios": "https://dc.lft.to/lastmile_qr_scan", "android": "https://dc.lft.to/lastmile_qr_scan"}, "is_reserved": 0, "fusion_lon": 0.0, "fusion_lat": 0.0, "lon": -77.03079033333333, "name": "409d0ec19530a163e801cf0a5172eaca"}, {"bike_id": "e744feb86a4b322df021bacba2ec2ece", "type": "electric_scooter", "is_disabled": 0, "lat": 38.921131333333335, "rental_uris": {"ios": "https://dc.lft.to/lastmile_qr_scan", "android": "https://dc.lft.to/lastmile_qr_scan"}, "is_reserved": 0, "fusion_lon": 0.0, "fusion_lat": 0.0, "lon": -77.0318605, "name": "e744feb86a4b322df021bacba2ec2ece"}, {"bike_id": "951ef513e38cd0da893694817b370472", "type": "electric_scooter", "is_disabled": 0, "lat": 38.89191833333334, "rental_uris": {"ios": "https://dc.lft.to/lastmile_qr_scan", "android": "https://dc.lft.to/lastmile_qr_scan"}, "is_reserved": 0, "fusion_lon": 0.0, "fusion_lat": 0.0, "lon": -77.02403633333333, "name": "951ef513e38cd0da893694817b370472"}, {"bike_id": "3d663a943fb49d2caae1b657b7459641", "type": "electric_scooter", "is_disabled": 0, "lat": 38.895622833333334, "rental_uris": {"ios": "https://dc.lft.to/lastmile_qr_scan", "android": "https://dc.lft.to/lastmile_qr_scan"}, "is_reserved": 0, "fusion_lon": 0.0, "fusion_lat": 0.0, "lon": -76.92964, "name": "3d663a943fb49d2caae1b657b7459641"}, {"bike_id": "14eeb8b0bc6ef05229063a6417b8a1e9", "type": "electric_scooter", "is_disabled": 0, "lat": 38.940004333333334, "rental_uris": {"ios": "https://dc.lft.to/lastmile_qr_scan", "android": "https://dc.lft.to/lastmile_qr_scan"}, "is_reserved": 0, "fusion_lon": 0.0, "fusion_lat": 0.0, "lon": -77.03804816666667, "name": "14eeb8b0bc6ef05229063a6417b8a1e9"}, {"bike_id": "e67e8142617359a1061328910e992dde", "type": "electric_scooter", "is_disabled": 0, "lat": 38.90582083333334, "rental_uris": {"ios": "https://dc.lft.to/lastmile_qr_scan", "android": "https://dc.lft.to/lastmile_qr_scan"}, "is_reserved": 0, "fusion_lon": 0.0, "fusion_lat": 0.0, "lon": -77.00585816666667, "name": "e67e8142617359a1061328910e992dde"}, {"bike_id": "17e6ccab616808b9e70ea4a5b23b36fa", "type": "electric_scooter", "is_disabled": 0, "lat": 38.922338333333336, "rental_uris": {"ios": "https://dc.lft.to/lastmile_qr_scan", "android": "https://dc.lft.to/lastmile_qr_scan"}, "is_reserved": 0, "fusion_lon": 0.0, "fusion_lat": 0.0, "lon": -77.0438105, "name": "17e6ccab616808b9e70ea4a5b23b36fa"}, {"bike_id": "4ac61373b4cb3628db098efd1cb10715", "type": "electric_scooter", "is_disabled": 0, "lat": 38.91857816666667, "rental_uris": {"ios": "https://dc.lft.to/lastmile_qr_scan", "android": "https://dc.lft.to/lastmile_qr_scan"}, "is_reserved": 0, "fusion_lon": 0.0, "fusion_lat": 0.0, "lon": -76.96112383333333, "name": "4ac61373b4cb3628db098efd1cb10715"}, {"bike_id": "727ecc83e273ff67cdb4d5895d906027", "type": "electric_scooter", "is_disabled": 0, "lat": 38.9000155, "rental_uris": {"ios": "https://dc.lft.to/lastmile_qr_scan", "android": "https://dc.lft.to/lastmile_qr_scan"}, "is_reserved": 0, "fusion_lon": 0.0, "fusion_lat": 0.0, "lon": -77.0273375, "name": "727ecc83e273ff67cdb4d5895d906027"}, {"bike_id": "17f07e9ac320b334b526a9c85f8eda33", "type": "electric_scooter", "is_disabled": 0, "lat": 38.884691333333336, "rental_uris": {"ios": "https://dc.lft.to/lastmile_qr_scan", "android": "https://dc.lft.to/lastmile_qr_scan"}, "is_reserved": 0, "fusion_lon": 0.0, "fusion_lat": 0.0, "lon": -77.00053683333333, "name": "17f07e9ac320b334b526a9c85f8eda33"}, {"bike_id": "f3464d50f805c941bef5a63cf264c027", "type": "electric_scooter", "is_disabled": 0, "lat": 38.92036983333333, "rental_uris": {"ios": "https://dc.lft.to/lastmile_qr_scan", "android": "https://dc.lft.to/lastmile_qr_scan"}, "is_reserved": 0, "fusion_lon": 0.0, "fusion_lat": 0.0, "lon": -77.03389583333333, "name": "f3464d50f805c941bef5a63cf264c027"}, {"bike_id": "3b730ad7abc3bd74670c22e60859fc50", "type": "electric_scooter", "is_disabled": 0, "lat": 38.9233895, "rental_uris": {"ios": "https://dc.lft.to/lastmile_qr_scan", "android": "https://dc.lft.to/lastmile_qr_scan"}, "is_reserved": 0, "fusion_lon": 0.0, "fusion_lat": 0.0, "lon": -77.05302116666667, "name": "3b730ad7abc3bd74670c22e60859fc50"}, {"bike_id": "e88a59dab53d840959886eebaced89eb", "type": "electric_scooter", "is_disabled": 0, "lat": 38.918198, "rental_uris": {"ios": "https://dc.lft.to/lastmile_qr_scan", "android": "https://dc.lft.to/lastmile_qr_scan"}, "is_reserved": 0, "fusion_lon": 0.0, "fusion_lat": 0.0, "lon": -77.0319455, "name": "e88a59dab53d840959886eebaced89eb"}, {"bike_id": "2710f50f0ba2ba0531cc7ee3857430fa", "type": "electric_scooter", "is_disabled": 0, "lat": 38.9327595, "rental_uris": {"ios": "https://dc.lft.to/lastmile_qr_scan", "android": "https://dc.lft.to/lastmile_qr_scan"}, "is_reserved": 0, "fusion_lon": 0.0, "fusion_lat": 0.0, "lon": -77.0349935, "name": "2710f50f0ba2ba0531cc7ee3857430fa"}, {"bike_id": "bf6befe823e873b746a3e68cb7ad3d12", "type": "electric_scooter", "is_disabled": 0, "lat": 38.90974333333333, "rental_uris": {"ios": "https://dc.lft.to/lastmile_qr_scan", "android": "https://dc.lft.to/lastmile_qr_scan"}, "is_reserved": 0, "fusion_lon": 0.0, "fusion_lat": 0.0, "lon": -77.02713983333334, "name": "bf6befe823e873b746a3e68cb7ad3d12"}, {"bike_id": "1283dd0896c0d35e8cb909a0b9077266", "type": "electric_scooter", "is_disabled": 0, "lat": 38.93827016666667, "rental_uris": {"ios": "https://dc.lft.to/lastmile_qr_scan", "android": "https://dc.lft.to/lastmile_qr_scan"}, "is_reserved": 0, "fusion_lon": 0.0, "fusion_lat": 0.0, "lon": -77.07166783333334, "name": "1283dd0896c0d35e8cb909a0b9077266"}, {"bike_id": "05d59ecb348c278fdeed9da982a54a22", "type": "electric_scooter", "is_disabled": 0, "lat": 38.91113266666667, "rental_uris": {"ios": "https://dc.lft.to/lastmile_qr_scan", "android": "https://dc.lft.to/lastmile_qr_scan"}, "is_reserved": 0, "fusion_lon": 0.0, "fusion_lat": 0.0, "lon": -77.03865833333333, "name": "05d59ecb348c278fdeed9da982a54a22"}, {"bike_id": "8342f3307dee45054cec38e441cf1916", "type": "electric_bike", "is_disabled": 0, "lat": 39.0563325, "rental_uris": {"ios": "https://dc.lft.to/lastmile_qr_scan", "android": "https://dc.lft.to/lastmile_qr_scan"}, "is_reserved": 0, "fusion_lon": 0.0, "fusion_lat": 0.0, "lon": -77.12524683333334, "name": "8342f3307dee45054cec38e441cf1916"}, {"bike_id": "61e9d9293e4765b9a79aa30ff4bd8287", "type": "electric_scooter", "is_disabled": 0, "lat": 38.94214, "rental_uris": {"ios": "https://dc.lft.to/lastmile_qr_scan", "android": "https://dc.lft.to/lastmile_qr_scan"}, "is_reserved": 0, "fusion_lon": 0.0, "fusion_lat": 0.0, "lon": -77.0258575, "name": "61e9d9293e4765b9a79aa30ff4bd8287"}, {"bike_id": "1cda144426dc35351a31c1336d03aa56", "type": "electric_scooter", "is_disabled": 0, "lat": 38.9076, "rental_uris": {"ios": "https://dc.lft.to/lastmile_qr_scan", "android": "https://dc.lft.to/lastmile_qr_scan"}, "is_reserved": 0, "fusion_lon": 0.0, "fusion_lat": 0.0, "lon": -77.0088455, "name": "1cda144426dc35351a31c1336d03aa56"}, {"bike_id": "4de1ccc89696e799ca1e6070e46cc0a7", "type": "electric_scooter", "is_disabled": 0, "lat": 38.88826616666667, "rental_uris": {"ios": "https://dc.lft.to/lastmile_qr_scan", "android": "https://dc.lft.to/lastmile_qr_scan"}, "is_reserved": 0, "fusion_lon": 0.0, "fusion_lat": 0.0, "lon": -76.99155416666666, "name": "4de1ccc89696e799ca1e6070e46cc0a7"}, {"bike_id": "cea5fb7c7110229eb51b108bd38c2575", "type": "electric_scooter", "is_disabled": 0, "lat": 38.9234875, "rental_uris": {"ios": "https://dc.lft.to/lastmile_qr_scan", "android": "https://dc.lft.to/lastmile_qr_scan"}, "is_reserved": 0, "fusion_lon": 0.0, "fusion_lat": 0.0, "lon": -77.05121, "name": "cea5fb7c7110229eb51b108bd38c2575"}, {"bike_id": "4583b7c01f26122170f4984e0a2a11bd", "type": "electric_scooter", "is_disabled": 0, "lat": 38.905654166666665, "rental_uris": {"ios": "https://dc.lft.to/lastmile_qr_scan", "android": "https://dc.lft.to/lastmile_qr_scan"}, "is_reserved": 0, "fusion_lon": 0.0, "fusion_lat": 0.0, "lon": -77.0459045, "name": "4583b7c01f26122170f4984e0a2a11bd"}, {"bike_id": "3a5a0e79223aa0d57fa561675a76dfbf", "type": "electric_scooter", "is_disabled": 0, "lat": 38.90830883333334, "rental_uris": {"ios": "https://dc.lft.to/lastmile_qr_scan", "android": "https://dc.lft.to/lastmile_qr_scan"}, "is_reserved": 0, "fusion_lon": 0.0, "fusion_lat": 0.0, "lon": -77.0435875, "name": "3a5a0e79223aa0d57fa561675a76dfbf"}, {"bike_id": "bc8936cff655e31628504aa093f30882", "type": "electric_scooter", "is_disabled": 0, "lat": 38.92055466666667, "rental_uris": {"ios": "https://dc.lft.to/lastmile_qr_scan", "android": "https://dc.lft.to/lastmile_qr_scan"}, "is_reserved": 0, "fusion_lon": 0.0, "fusion_lat": 0.0, "lon": -77.02336583333333, "name": "bc8936cff655e31628504aa093f30882"}, {"bike_id": "1153976bcaa4130cb7ee4da834161f15", "type": "electric_scooter", "is_disabled": 0, "lat": 38.936478, "rental_uris": {"ios": "https://dc.lft.to/lastmile_qr_scan", "android": "https://dc.lft.to/lastmile_qr_scan"}, "is_reserved": 0, "fusion_lon": 0.0, "fusion_lat": 0.0, "lon": -77.033505, "name": "1153976bcaa4130cb7ee4da834161f15"}, {"bike_id": "fc98405aa3210b765742f8028850c0a1", "type": "electric_scooter", "is_disabled": 0, "lat": 38.92622716666666, "rental_uris": {"ios": "https://dc.lft.to/lastmile_qr_scan", "android": "https://dc.lft.to/lastmile_qr_scan"}, "is_reserved": 0, "fusion_lon": 0.0, "fusion_lat": 0.0, "lon": -77.04193766666667, "name": "fc98405aa3210b765742f8028850c0a1"}, {"bike_id": "877c88a31679eab2af123208c0d2536d", "type": "electric_scooter", "is_disabled": 0, "lat": 38.91602966666667, "rental_uris": {"ios": "https://dc.lft.to/lastmile_qr_scan", "android": "https://dc.lft.to/lastmile_qr_scan"}, "is_reserved": 0, "fusion_lon": 0.0, "fusion_lat": 0.0, "lon": -77.04600083333334, "name": "877c88a31679eab2af123208c0d2536d"}, {"bike_id": "303b2378d22f01915d6b2d0edc518915", "type": "electric_scooter", "is_disabled": 0, "lat": 38.91514166666666, "rental_uris": {"ios": "https://dc.lft.to/lastmile_qr_scan", "android": "https://dc.lft.to/lastmile_qr_scan"}, "is_reserved": 0, "fusion_lon": 0.0, "fusion_lat": 0.0, "lon": -77.04168683333333, "name": "303b2378d22f01915d6b2d0edc518915"}, {"bike_id": "05b3bb94ad7798e149270bdd268dff3f", "type": "electric_scooter", "is_disabled": 0, "lat": 38.9013925, "rental_uris": {"ios": "https://dc.lft.to/lastmile_qr_scan", "android": "https://dc.lft.to/lastmile_qr_scan"}, "is_reserved": 0, "fusion_lon": 0.0, "fusion_lat": 0.0, "lon": -76.93089833333333, "name": "05b3bb94ad7798e149270bdd268dff3f"}, {"bike_id": "f24cf9790a62d617c98b6eca83a25d7d", "type": "electric_scooter", "is_disabled": 0, "lat": 38.899150166666665, "rental_uris": {"ios": "https://dc.lft.to/lastmile_qr_scan", "android": "https://dc.lft.to/lastmile_qr_scan"}, "is_reserved": 0, "fusion_lon": 0.0, "fusion_lat": 0.0, "lon": -76.93369033333333, "name": "f24cf9790a62d617c98b6eca83a25d7d"}, {"bike_id": "b8b9333f35589c96e6cab85b3562dc83", "type": "electric_scooter", "is_disabled": 0, "lat": 38.910134666666664, "rental_uris": {"ios": "https://dc.lft.to/lastmile_qr_scan", "android": "https://dc.lft.to/lastmile_qr_scan"}, "is_reserved": 0, "fusion_lon": 0.0, "fusion_lat": 0.0, "lon": -77.02179316666667, "name": "b8b9333f35589c96e6cab85b3562dc83"}, {"bike_id": "bbf08c4a0aacb20dd8919ec61f0cd7db", "type": "electric_scooter", "is_disabled": 0, "lat": 38.90572433333333, "rental_uris": {"ios": "https://dc.lft.to/lastmile_qr_scan", "android": "https://dc.lft.to/lastmile_qr_scan"}, "is_reserved": 0, "fusion_lon": 0.0, "fusion_lat": 0.0, "lon": -77.02215566666666, "name": "bbf08c4a0aacb20dd8919ec61f0cd7db"},