{"data": {"bikes": [{"is_disabled": 0, "fusion_lon": 0.0, "fusion_lat": 0.0, "lat": 38.9227555, "type": "electric_scooter", "lon": -77.0424575, "bike_id": "0f51e5ba13baa2fc382d093c9437dbc5", "rental_uris": {"android": "https://dc.lft.to/lastmile_qr_scan", "ios": "https://dc.lft.to/lastmile_qr_scan"}, "name": "0f51e5ba13baa2fc382d093c9437dbc5", "is_reserved": 0}, {"is_disabled": 0, "fusion_lon": 0.0, "fusion_lat": 0.0, "lat": 38.92369883333333, "type": "electric_scooter", "lon": -77.02814716666667, "bike_id": "a397b5940be6924ee8524f2a7f64aa30", "rental_uris": {"android": "https://dc.lft.to/lastmile_qr_scan", "ios": "https://dc.lft.to/lastmile_qr_scan"}, "name": "a397b5940be6924ee8524f2a7f64aa30", "is_reserved": 0}, {"is_disabled": 0, "fusion_lon": 0.0, "fusion_lat": 0.0, "lat": 38.927994, "type": "electric_scooter", "lon": -77.01415733333333, "bike_id": "c7ba8792ff23c614f415125b38feb0db", "rental_uris": {"android": "https://dc.lft.to/lastmile_qr_scan", "ios": "https://dc.lft.to/lastmile_qr_scan"}, "name": "c7ba8792ff23c614f415125b38feb0db", "is_reserved": 0}, {"is_disabled": 0, "fusion_lon": 0.0, "fusion_lat": 0.0, "lat": 38.93488983333334, "type": "electric_scooter", "lon": -77.02603833333333, "bike_id": "94a2cf44ea711e452d4f911f32e192ac", "rental_uris": {"android": "https://dc.lft.to/lastmile_qr_scan", "ios": "https://dc.lft.to/lastmile_qr_scan"}, "name": "94a2cf44ea711e452d4f911f32e192ac", "is_reserved": 0}, {"is_disabled": 0, "fusion_lon": 0.0, "fusion_lat": 0.0, "lat": 38.8924465, "type": "electric_scooter", "lon": -77.02004133333334, "bike_id": "2fb473a9c55509161dd72e90a137a9f7", "rental_uris": {"android": "https://dc.lft.to/lastmile_qr_scan", "ios": "https://dc.lft.to/lastmile_qr_scan"}, "name": "2fb473a9c55509161dd72e90a137a9f7", "is_reserved": 0}, {"is_disabled": 0, "fusion_lon": 0.0, "fusion_lat": 0.0, "lat": 38.8591505, "type": "electric_scooter", "lon": -76.9877735, "bike_id": "4d4f33ea8269d56fdaa90e25b53e852d", "rental_uris": {"android": "https://dc.lft.to/lastmile_qr_scan", "ios": "https://dc.lft.to/lastmile_qr_scan"}, "name": "4d4f33ea8269d56fdaa90e25b53e852d", "is_reserved": 0}, {"is_disabled": 0, "fusion_lon": 0.0, "fusion_lat": 0.0, "lat": 38.93113233333333, "type": "electric_scooter", "lon": -77.02360183333333, "bike_id": "36a42eb529fd7ef49845fc410f035cdb", "rental_uris": {"android": "https://dc.lft.to/lastmile_qr_scan", "ios": "https://dc.lft.to/lastmile_qr_scan"}, "name": "36a42eb529fd7ef49845fc410f035cdb", "is_reserved": 0}, {"is_disabled": 0, "fusion_lon": 0.0, "fusion_lat": 0.0, "lat": 38.90521533333333, "type": "electric_scooter", "lon": -77.0651925, "bike_id": "5b0746d0c71562ebb485a733876364b3", "rental_uris": {"android": "https://dc.lft.to/lastmile_qr_scan", "ios": "https://dc.lft.to/lastmile_qr_scan"}, "name": "5b0746d0c71562ebb485a733876364b3", "is_reserved": 0}, {"is_disabled": 0, "fusion_lon": 0.0, "fusion_lat": 0.0, "lat": 38.9231685, "type": "electric_scooter", "lon": -77.04519383333333, "bike_id": "3143c245fc865147d6e749bec94159a2", "rental_uris": {"android": "https://dc.lft.to/lastmile_qr_scan", "ios": "https://dc.lft.to/lastmile_qr_scan"}, "name": "3143c245fc865147d6e749bec94159a2", "is_reserved": 0}, {"is_disabled": 0, "fusion_lon": 0.0, "fusion_lat": 0.0, "lat": 38.965622333333336, "type": "electric_bike", "lon": -77.02302416666667, "bike_id": "29c22a76a94c20bc5218836bc6d832a1", "rental_uris": {"android": "https://dc.lft.to/lastmile_qr_scan", "ios": "https://dc.lft.to/lastmile_qr_scan"}, "name": "29c22a76a94c20bc5218836bc6d832a1", "is_reserved": 0}, {"is_disabled": 0, "fusion_lon": 0.0, "fusion_lat": 0.0, "lat": 38.90187366666667, "type": "electric_scooter", "lon": -77.058582, "bike_id": "b2b2bdb2a3f05a82384bee5c2c5bb278", "rental_uris": {"android": "https://dc.lft.to/lastmile_qr_scan", "ios": "https://dc.lft.to/lastmile_qr_scan"}, "name": "b2b2bdb2a3f05a82384bee5c2c5bb278", "is_reserved": 0}, {"is_disabled": 0, "fusion_lon": 0.0, "fusion_lat": 0.0, "lat": 38.9071225, "type": "electric_scooter", "lon": -77.0271335, "bike_id": "c36067111962a7e837ec0f1620b1cd36", "rental_uris": {"android": "https://dc.lft.to/lastmile_qr_scan", "ios": "https://dc.lft.to/lastmile_qr_scan"}, "name": "c36067111962a7e837ec0f1620b1cd36", "is_reserved": 0}, {"is_disabled": 0, "fusion_lon": 0.0, "fusion_lat": 0.0, "lat": 38.91748283333333, "type": "electric_scooter", "lon": -77.04151683333333, "bike_id": "5e6f438b28761f94d7b0be33dfeb09d0", "rental_uris": {"android": "https://dc.lft.to/lastmile_qr_scan", "ios": "https://dc.lft.to/lastmile_qr_scan"}, "name": "5e6f438b28761f94d7b0be33dfeb09d0", "is_reserved": 0}, {"is_disabled": 0, "fusion_lon": 0.0, "fusion_lat": 0.0, "lat": 38.90703766666667, "type": "electric_scooter", "lon": -77.02389516666666, "bike_id": "be038ec0a5f254f7079575867e2a6cbd", "rental_uris": {"android": "https://dc.lft.to/lastmile_qr_scan", "ios": "https://dc.lft.to/lastmile_qr_scan"}, "name": "be038ec0a5f254f7079575867e2a6cbd", "is_reserved": 0}, {"is_disabled": 0, "fusion_lon": 0.0, "fusion_lat": 0.0, "lat": 39.003777, "type": "electric_bike", "lon": -77.01291483333334, "bike_id": "88ed8f70b5ac77e9c2f0df877f631613", "rental_uris": {"android": "https://dc.lft.to/lastmile_qr_scan", "ios": "https://dc.lft.to/lastmile_qr_scan"}, "name": "88ed8f70b5ac77e9c2f0df877f631613", "is_reserved": 0}, {"is_disabled": 0, "fusion_lon": 0.0, "fusion_lat": 0.0, "lat": 38.918101166666666, "type": "electric_scooter", "lon": -77.03125866666667, "bike_id": "c74b71a1ddc7101d012e84f8e109b904", "rental_uris": {"android": "https://dc.lft.to/lastmile_qr_scan", "ios": "https://dc.lft.to/lastmile_qr_scan"}, "name": "c74b71a1ddc7101d012e84f8e109b904", "is_reserved": 0}, {"is_disabled": 0, "fusion_lon": 0.0, "fusion_lat": 0.0, "lat": 38.917087, "type": "electric_scooter", "lon": -77.0261615, "bike_id": "71d6104dc8640fb64f7508d9a1083b8f", "rental_uris": {"android": "https://dc.lft.to/lastmile_qr_scan", "ios": "https://dc.lft.to/lastmile_qr_scan"}, "name": "71d6104dc8640fb64f7508d9a1083b8f", "is_reserved": 0}, {"is_disabled": 0, "fusion_lon": 0.0, "fusion_lat": 0.0, "lat": 38.95150233333333, "type": "electric_scooter", "lon": -77.03768666666667, "bike_id": "498ad94982140fd921b7a7b99785744b", "rental_uris": {"android": "https://dc.lft.to/lastmile_qr_scan", "ios": "https://dc.lft.to/lastmile_qr_scan"}, "name": "498ad94982140fd921b7a7b99785744b", "is_reserved": 0}, {"is_disabled": 0, "fusion_lon": 0.0, "fusion_lat": 0.0, "lat": 38.8921985, "type": "electric_scooter", "lon": -77.0262415, "bike_id": "a424e9e5100e12d39b90b41c420c4dd7", "rental_uris": {"android": "https://dc.lft.to/lastmile_qr_scan", "ios": "https://dc.lft.to/lastmile_qr_scan"}, "name": "a424e9e5100e12d39b90b41c420c4dd7", "is_reserved": 0}, {"is_disabled": 0, "fusion_lon": 0.0, "fusion_lat": 0.0, "lat": 38.83930516666667, "type": "electric_bike", "lon": -77.07902566666667, "bike_id": "d0377956619020f7fece2d9e88eec74d", "rental_uris": {"android": "https://dc.lft.to/lastmile_qr_scan", "ios": "https://dc.lft.to/lastmile_qr_scan"}, "name": "d0377956619020f7fece2d9e88eec74d", "is_reserved": 0}, {"is_disabled": 0, "fusion_lon": 0.0, "fusion_lat": 0.0, "lat": 38.91769466666667, "type": "electric_scooter", "lon": -77.04746033333333, "bike_id": "69a0c8a0636baab73fc0a2aa0aca369f", "rental_uris": {"android": "https://dc.lft.to/lastmile_qr_scan", "ios": "https://dc.lft.to/lastmile_qr_scan"}, "name": "69a0c8a0636baab73fc0a2aa0aca369f", "is_reserved": 0}, {"is_disabled": 0, "fusion_lon": 0.0, "fusion_lat": 0.0, "lat": 38.9191665, "type": "electric_scooter", "lon": -77.03398, "bike_id": "f3bb392229083e4c63614cf2b7e4e8a2", "rental_uris": {"android": "https://dc.lft.to/lastmile_qr_scan", "ios": "https://dc.lft.to/lastmile_qr_scan"}, "name": "f3bb392229083e4c63614cf2b7e4e8a2", "is_reserved": 0}, {"is_disabled": 0, "fusion_lon": 0.0, "fusion_lat": 0.0, "lat": 38.897264166666666, "type": "electric_scooter", "lon": -77.01000066666667, "bike_id": "d73bc71a39e0aadc59982db3f6c08e08", "rental_uris": {"android": "https://dc.lft.to/lastmile_qr_scan", "ios": "https://dc.lft.to/lastmile_qr_scan"}, "name": "d73bc71a39e0aadc59982db3f6c08e08", "is_reserved": 0}, {"is_disabled": 0, "fusion_lon": 0.0, "fusion_lat": 0.0, "lat": 38.93271566666667, "type": "electric_scooter", "lon": -76.99689283333333, "bike_id": "fdc74dcc30992af0affbf26bad2ef25d", "rental_uris": {"android": "https://dc.lft.to/lastmile_qr_scan", "ios": "https://dc.lft.to/lastmile_qr_scan"}, "name": "fdc74dcc30992af0affbf26bad2ef25d", "is_reserved": 0}, {"is_disabled": 0, "fusion_lon": 0.0, "fusion_lat": 0.0, "lat": 38.89423266666667, "type": "electric_scooter", "lon": -77.01092866666667, "bike_id": "d2158f7d45fe81f73cde14c34dfc7312", "rental_uris": {"android": "https://dc.lft.to/lastmile_qr_scan", "ios": "https://dc.lft.to/lastmile_qr_scan"}, "name": "d2158f7d45fe81f73cde14c34dfc7312", "is_reserved": 0}, {"is_disabled": 0, "fusion_lon": 0.0, "fusion_lat": 0.0, "lat": 38.895176166666666, "type": "electric_scooter", "lon": -77.011027, "bike_id": "c7eed6b2edf2fbb9c5622c8ef2695281", "rental_uris": {"android": "https://dc.lft.to/lastmile_qr_scan", "ios": "https://dc.lft.to/lastmile_qr_scan"}, "name": "c7eed6b2edf2fbb9c5622c8ef2695281", "is_reserved": 0}, {"is_disabled": 0, "fusion_lon": 0.0, "fusion_lat": 0.0, "lat": 38.93466766666667, "type": "electric_scooter", "lon": -77.06884483333333, "bike_id": "24d0f9fe4e068f84af392531a50d905c", "rental_uris": {"android": "https://dc.lft.to/lastmile_qr_scan", "ios": "https://dc.lft.to/lastmile_qr_scan"}, "name": "24d0f9fe4e068f84af392531a50d905c", "is_reserved": 0}, {"is_disabled": 0, "fusion_lon": 0.0, "fusion_lat": 0.0, "lat": 38.972574333333334, "type": "electric_bike", "lon": -76.991697, "bike_id": "4035b0f805f1b8cc514f94510d9be597", "rental_uris": {"android": "https://dc.lft.to/lastmile_qr_scan", "ios": "https://dc.lft.to/lastmile_qr_scan"}, "name": "4035b0f805f1b8cc514f94510d9be597", "is_reserved": 0}, {"is_disabled": 0, "fusion_lon": 0.0, "fusion_lat": 0.0, "lat": 38.87287233333333, "type": "electric_scooter", "lon": -77.009819, "bike_id": "2ee267bfa928abc2730190372b86bfaa", "rental_uris": {"android": "https://dc.lft.to/lastmile_qr_scan", "ios": "https://dc.lft.to/lastmile_qr_scan"}, "name": "2ee267bfa928abc2730190372b86bfaa", "is_reserved": 0}, {"is_disabled": 0, "fusion_lon": 0.0, "fusion_lat": 0.0, "lat": 38.8848485, "type": "electric_scooter", "lon": -76.92966883333334, "bike_id": "8164f0e8fe950eb42739cac943f15eb6", "rental_uris": {"android": "https://dc.lft.to/lastmile_qr_scan", "ios": "https://dc.lft.to/lastmile_qr_scan"}, "name": "8164f0e8fe950eb42739cac943f15eb6", "is_reserved": 0}, {"is_disabled": 0, "fusion_lon": 0.0, "fusion_lat": 0.0, "lat": 38.921568, "type": "electric_scooter", "lon": -77.0340445, "bike_id": "a4476b0129c68931c580cb36ffedb9d1", "rental_uris": {"android": "https://dc.lft.to/lastmile_qr_scan", "ios": "https://dc.lft.to/lastmile_qr_scan"}, "name": "a4476b0129c68931c580cb36ffedb9d1", "is_reserved": 0}, {"is_disabled": 0, "fusion_lon": 0.0, "fusion_lat": 0.0, "lat": 38.90770466666667, "type": "electric_scooter", "lon": -77.03192316666667, "bike_id": "dc08418e20fcecc46bc3a03821495bb8", "rental_uris": {"android": "https://dc.lft.to/lastmile_qr_scan", "ios": "https://dc.lft.to/lastmile_qr_scan"}, "name": "dc08418e20fcecc46bc3a03821495bb8", "is_reserved": 0}, {"is_disabled": 0, "fusion_lon": 0.0, "fusion_lat": 0.0, "lat": 38.9026995, "type": "electric_scooter", "lon": -77.0532675, "bike_id": "e1752844dbf7bba6680eb995614596a9", "rental_uris": {"android": "https://dc.lft.to/lastmile_qr_scan", "ios": "https://dc.lft.to/lastmile_qr_scan"}, "name": "e1752844dbf7bba6680eb995614596a9", "is_reserved": 0}, {"is_disabled": 0, "fusion_lon": 0.0, "fusion_lat": 0.0, "lat": 38.895635, "type": "electric_scooter", "lon": -77.0217455, "bike_id": "3d93f79ffc3ac1e67f3646b086c94fbf", "rental_uris": {"android": "https://dc.lft.to/lastmile_qr_scan", "ios": "https://dc.lft.to/lastmile_qr_scan"}, "name": "3d93f79ffc3ac1e67f3646b086c94fbf", "is_reserved": 0}, {"is_disabled": 0, "fusion_lon": 0.0, "fusion_lat": 0.0, "lat": 38.892612166666666, "type": "electric_scooter", "lon": -77.031915, "bike_id": "3f3f72566b3dd3b46f062b15e6c1c661", "rental_uris": {"android": "https://dc.lft.to/lastmile_qr_scan", "ios": "https://dc.lft.to/lastmile_qr_scan"}, "name": "3f3f72566b3dd3b46f062b15e6c1c661", "is_reserved": 0}, {"is_disabled": 0, "fusion_lon": 0.0, "fusion_lat": 0.0, "lat": 38.896578, "type": "electric_scooter", "lon": -77.01193866666667, "bike_id": "e2a826747924241ede6b462c051ebaa7", "rental_uris": {"android": "https://dc.lft.to/lastmile_qr_scan", "ios": "https://dc.lft.to/lastmile_qr_scan"}, "name": "e2a826747924241ede6b462c051ebaa7", "is_reserved": 0}, {"is_disabled": 0, "fusion_lon": 0.0, "fusion_lat": 0.0, "lat": 38.91817566666667, "type": "electric_scooter", "lon": -77.04176716666667, "bike_id": "c452e290b78e38c5f74b6711301ffbe7", "rental_uris": {"android": "https://dc.lft.to/lastmile_qr_scan", "ios": "https://dc.lft.to/lastmile_qr_scan"}, "name": "c452e290b78e38c5f74b6711301ffbe7", "is_reserved": 0}, {"is_disabled": 0, "fusion_lon": 0.0, "fusion_lat": 0.0, "lat": 38.906556, "type": "electric_scooter", "lon": -77.04536833333333, "bike_id": "70e205ba92974957cf7efdcddafe7fb2", "rental_uris": {"android": "https://dc.lft.to/lastmile_qr_scan", "ios": "https://dc.lft.to/lastmile_qr_scan"}, "name": "70e205ba92974957cf7efdcddafe7fb2", "is_reserved": 0}, {"is_disabled": 0, "fusion_lon": 0.0, "fusion_lat": 0.0, "lat": 38.897466333333334, "type": "electric_scooter", "lon": -76.99487016666667, "bike_id": "5fd52a310e9fabae18c739386bed53fa", "rental_uris": {"android": "https://dc.lft.to/lastmile_qr_scan", "ios": "https://dc.lft.to/lastmile_qr_scan"}, "name": "5fd52a310e9fabae18c739386bed53fa", "is_reserved": 0}, {"is_disabled": 0, "fusion_lon": 0.0, "fusion_lat": 0.0, "lat": 38.905145833333336, "type": "electric_scooter", "lon": -76.98252766666667, "bike_id": "184d82ab9cb392fe33df6ce5a0d273a7", "rental_uris": {"android": "https://dc.lft.to/lastmile_qr_scan", "ios": "https://dc.lft.to/lastmile_qr_scan"}, "name": "184d82ab9cb392fe33df6ce5a0d273a7", "is_reserved": 0}, {"is_disabled": 0, "fusion_lon": 0.0, "fusion_lat": 0.0, "lat": 38.90763783333333, "type": "electric_scooter", "lon": -77.06346533333334, "bike_id": "4ee723457b78fad5cb86e36379dad9e1", "rental_uris": {"android": "https://dc.lft.to/lastmile_qr_scan", "ios": "https://dc.lft.to/lastmile_qr_scan"}, "name": "4ee723457b78fad5cb86e36379dad9e1", "is_reserved": 0}, {"is_disabled": 0, "fusion_lon": 0.0, "fusion_lat": 0.0, "lat": 38.916925666666664, "type": "electric_scooter", "lon": -77.0259965, "bike_id": "29aad499efed9ea3bb37f1f070365ffb", "rental_uris": {"android": "https://dc.lft.to/lastmile_qr_scan", "ios": "https://dc.lft.to/lastmile_qr_scan"}, "name": "29aad499efed9ea3bb37f1f070365ffb", "is_reserved": 0}, {"is_disabled": 0, "fusion_lon": 0.0, "fusion_lat": 0.0, "lat": 38.913517666666664, "type": "electric_scooter", "lon": -77.03955916666666, "bike_id": "c30d89c61b692548a04b359c82abe8b5", "rental_uris": {"android": "https://dc.lft.to/lastmile_qr_scan", "ios": "https://dc.lft.to/lastmile_qr_scan"}, "name": "c30d89c61b692548a04b359c82abe8b5", "is_reserved": 0}, {"is_disabled": 0, "fusion_lon": 0.0, "fusion_lat": 0.0, "lat": 38.939608666666665, "type": "electric_scooter", "lon": -77.032645, "bike_id": "d8dcfd6ea52657c07dcc33fc79b02ba9", "rental_uris": {"android": "https://dc.lft.to/lastmile_qr_scan", "ios": "https://dc.lft.to/lastmile_qr_scan"}, "name": "d8dcfd6ea52657c07dcc33fc79b02ba9", "is_reserved": 0}, {"is_disabled": 0, "fusion_lon": 0.0, "fusion_lat": 0.0, "lat": 39.00782783333333, "type": "electric_bike", "lon": -76.99566416666667, "bike_id": "6d427fd2f4112be29925854c7dade051", "rental_uris": {"android": "https://dc.lft.to/lastmile_qr_scan", "ios": "https://dc.lft.to/lastmile_qr_scan"}, "name": "6d427fd2f4112be29925854c7dade051", "is_reserved": 0}, {"is_disabled": 0, "fusion_lon": 0.0, "fusion_lat": 0.0, "lat": 38.933720666666666, "type": "electric_scooter", "lon": -77.023844, "bike_id": "265677f85b637c4ff290b7911d4605e9", "rental_uris": {"android": "https://dc.lft.to/lastmile_qr_scan", "ios": "https://dc.lft.to/lastmile_qr_scan"}, "name": "265677f85b637c4ff290b7911d4605e9", "is_reserved": 0}, {"is_disabled": 0, "fusion_lon": 0.0, "fusion_lat": 0.0, "lat": 38.90443633333334, "type": "electric_scooter", "lon": -77.02229616666666, "bike_id": "27b03509958405a0e1c85139ed717d96", "rental_uris": {"android": "https://dc.lft.to/lastmile_qr_scan", "ios": "https://dc.lft.to/lastmile_qr_scan"}, "name": "27b03509958405a0e1c85139ed717d96", "is_reserved": 0}, {"is_disabled": 0, "fusion_lon": 0.0, "fusion_lat": 0.0, "lat": 38.90072883333333, "type": "electric_scooter", "lon": -77.04916716666666, "bike_id": "ec3764bc78421d997c22367ede9b90fb", "rental_uris": {"android": "https://dc.lft.to/lastmile_qr_scan", "ios": "https://dc.lft.to/lastmile_qr_scan"}, "name": "ec3764bc78421d997c22367ede9b90fb", "is_reserved": 0}, {"is_disabled": 0, "fusion_lon": 0.0, "fusion_lat": 0.0, "lat": 38.92017766666667, "type": "electric_scooter", "lon": -77.01871333333334, "bike_id": "4a9d1c53fbfe2db97dd7af83d0a7407b", "rental_uris": {"android": "https://dc.lft.to/lastmile_qr_scan", "ios": "https://dc.lft.to/lastmile_qr_scan"}, "name": "4a9d1c53fbfe2db97dd7af83d0a7407b", "is_reserved": 0}, {"is_disabled": 0, "fusion_lon": 0.0, "fusion_lat": 0.0, "lat": 38.905823, "type": "electric_scooter", "lon": -77.04873866666667, "bike_id": "501a4dbcc974cb287858aefa30b42852", "rental_uris": {"android": "https://dc.lft.to/lastmile_qr_scan", "ios": "https://dc.lft.to/lastmile_qr_scan"}, "name": "501a4dbcc974cb287858aefa30b42852", "is_reserved": 0}, {"is_disabled": 0, "fusion_lon": 0.0, "fusion_lat": 0.0, "lat": 38.901868666666665, "type": "electric_scooter", "lon": -77.05019983333334, "bike_id": "abf789c883fc430730de0cbfc1767f99", "rental_uris": {"android": "https://dc.lft.to/lastmile_qr_scan", "ios": "https://dc.lft.to/lastmile_qr_scan"}, "name": "abf789c883fc430730de0cbfc1767f99", "is_reserved": 0}, {"is_disabled": 0, "fusion_lon": 0.0, "fusion_lat": 0.0, "lat": 38.93459216666667, "type": "electric_scooter", "lon": -77.0729695, "bike_id": "c1390d25220928ae4d4bea51e60af3da", "rental_uris": {"android": "https://dc.lft.to/lastmile_qr_scan", "ios": "https://dc.lft.to/lastmile_qr_scan"}, "name": "c1390d25220928ae4d4bea51e60af3da", "is_reserved": 0}, {"is_disabled": 0, "fusion_lon": 0.0, "fusion_lat": 0.0, "lat": 38.87431133333333, "type": "electric_bike", "lon": -77.00887266666666, "bike_id": "f129385d1d590de869fa6cf347f39001", "rental_uris": {"android": "https://dc.lft.to/lastmile_qr_scan", "ios": "https://dc.lft.to/lastmile_qr_scan"}, "name": "f129385d1d590de869fa6cf347f39001", "is_reserved": 0}, {"is_disabled": 0, "fusion_lon": 0.0, "fusion_lat": 0.0, "lat": 38.898223333333334, "type": "electric_scooter", "lon": -77.04328166666667, "bike_id": "976555dd68cf5914b6dacfba9fc8d2bb", "rental_uris": {"android": "https://dc.lft.to/lastmile_qr_scan", "ios": "https://dc.lft.to/lastmile_qr_scan"}, "name": "976555dd68cf5914b6dacfba9fc8d2bb", "is_reserved": 0}, {"is_disabled": 0, "fusion_lon": 0.0, "fusion_lat": 0.0, "lat": 38.863527166666664, "type": "electric_scooter", "lon": -76.9906675, "bike_id": "c3fddab477f95c4dd9630ca4b3966194", "rental_uris": {"android": "https://dc.lft.to/lastmile_qr_scan", "ios": "https://dc.lft.to/lastmile_qr_scan"}, "name": "c3fddab477f95c4dd9630ca4b3966194", "is_reserved": 0}, {"is_disabled": 0, "fusion_lon": 0.0, "fusion_lat": 0.0, "lat": 38.92116816666667, "type": "electric_scooter", "lon": -77.0120925, "bike_id": "ed66f2cb740b61988e2818ccad66ba87", "rental_uris": {"android": "https://dc.lft.to/lastmile_qr_scan", "ios": "https://dc.lft.to/lastmile_qr_scan"}, "name": "ed66f2cb740b61988e2818ccad66ba87", "is_reserved": 0}, {"is_disabled": 0, "fusion_lon": 0.0, "fusion_lat": 0.0, "lat": 38.90706566666667, "type": "electric_scooter", "lon": -77.023873, "bike_id": "a085b4a73fc842d2d1aa76136012ed3b", "rental_uris": {"android": "https://dc.lft.to/lastmile_qr_scan", "ios": "https://dc.lft.to/lastmile_qr_scan"}, "name": "a085b4a73fc842d2d1aa76136012ed3b", "is_reserved": 0}, {"is_disabled": 0, "fusion_lon": 0.0, "fusion_lat": 0.0, "lat": 38.945075833333334, "type": "electric_bike", "lon": -77.00674933333333, "bike_id": "b065dfae59f6e4b3737c7bc87742a6a1", "rental_uris": {"android": "https://dc.lft.to/lastmile_qr_scan", "ios": "https://dc.lft.to/lastmile_qr_scan"}, "name": "b065dfae59f6e4b3737c7bc87742a6a1", "is_reserved": 0}, {"is_disabled": 0, "fusion_lon": 0.0, "fusion_lat": 0.0, "lat": 38.9354905, "type": "electric_scooter", "lon": -77.034508, "bike_id": "44e4d1a71aacc4f202616ed8c3b131db", "rental_uris": {"android": "https://dc.lft.to/lastmile_qr_scan", "ios": "https://dc.lft.to/lastmile_qr_scan"}, "name": "44e4d1a71aacc4f202616ed8c3b131db", "is_reserved": 0}, {"is_disabled": 0, "fusion_lon": 0.0, "fusion_lat": 0.0, "lat": 38.9151185, "type": "electric_scooter", "lon": -77.0198165, "bike_id": "ccfd67f5057c38bb9a9a712193ae10c1", "rental_uris": {"android": "https://dc.lft.to/lastmile_qr_scan", "ios": "https://dc.lft.to/lastmile_qr_scan"}, "name": "ccfd67f5057c38bb9a9a712193ae10c1", "is_reserved": 0}, {"is_disabled": 0, "fusion_lon": 0.0, "fusion_lat": 0.0, "lat": 38.932182833333336, "type": "electric_scooter", "lon": -77.03648716666666, "bike_id": "5ebe97c4e19a2d560f1c7d4635c1c907", "rental_uris": {"android": "https://dc.lft.to/lastmile_qr_scan", "ios": "https://dc.lft.to/lastmile_qr_scan"}, "name": "5ebe97c4e19a2d560f1c7d4635c1c907", "is_reserved": 0}, {"is_disabled": 0, "fusion_lon": 0.0, "fusion_lat": 0.0, "lat": 38.929996, "type": "electric_scooter", "lon": -77.02305433333333, "bike_id": "bff45ec06a8380dff9230d951cb57efe", "rental_uris": {"android": "https://dc.lft.to/lastmile_qr_scan", "ios": "https://dc.lft.to/lastmile_qr_scan"}, "name": "bff45ec06a8380dff9230d951cb57efe", "is_reserved": 0}, {"is_disabled": 0, "fusion_lon": 0.0, "fusion_lat": 0.0, "lat": 38.931389, "type": "electric_scooter", "lon": -77.07843833333334, "bike_id": "14b985aa2b3f3adc5d029792e7b39b7c", "rental_uris": {"android": "https://dc.lft.to/lastmile_qr_scan", "ios": "https://dc.lft.to/lastmile_qr_scan"}, "name": "14b985aa2b3f3adc5d029792e7b39b7c", "is_reserved": 0}, {"is_disabled": 0, "fusion_lon": 0.0, "fusion_lat": 0.0, "lat": 38.8749075, "type": "electric_scooter", "lon": -76.99796816666667, "bike_id": "bc6afdd3b02fb667f3abe65d741d251a", "rental_uris": {"android": "https://dc.lft.to/lastmile_qr_scan", "ios": "https://dc.lft.to/lastmile_qr_scan"}, "name": "bc6afdd3b02fb667f3abe65d741d251a", "is_reserved": 0}, {"is_disabled": 0, "fusion_lon": 0.0, "fusion_lat": 0.0, "lat": 38.900046333333336, "type": "electric_scooter", "lon": -77.03319416666666, "bike_id": "b5a8eb2f66ed4774a71af0a39292798a", "rental_uris": {"android": "https://dc.lft.to/lastmile_qr_scan", "ios": "https://dc.lft.to/lastmile_qr_scan"}, "name": "b5a8eb2f66ed4774a71af0a39292798a", "is_reserved": 0}, {"is_disabled": 0, "fusion_lon": 0.0, "fusion_lat": 0.0, "lat": 38.909609, "type": "electric_scooter", "lon": -77.04822116666666, "bike_id": "0906ddf9af98a49e07434d0a90511542", "rental_uris": {"android": "https://dc.lft.to/lastmile_qr_scan", "ios": "https://dc.lft.to/lastmile_qr_scan"}, "name": "0906ddf9af98a49e07434d0a90511542", "is_reserved": 0}, {"is_disabled": 0, "fusion_lon": 0.0, "fusion_lat": 0.0, "lat": 38.992497166666666, "type": "electric_bike", "lon": -77.0499955, "bike_id": "9eee2113688836b9b97dde73332dd1e8", "rental_uris": {"android": "https://dc.lft.to/lastmile_qr_scan", "ios": "https://dc.lft.to/lastmile_qr_scan"}, "name": "9eee2113688836b9b97dde73332dd1e8", "is_reserved": 0}, {"is_disabled": 0, "fusion_lon": 0.0, "fusion_lat": 0.0, "lat": 38.8310475, "type": "electric_bike", "lon": -77.04261183333334, "bike_id": "65da8c4f23f4d9f4662d7cf002d274bf", "rental_uris": {"android": "https://dc.lft.to/lastmile_qr_scan", "ios": "https://dc.lft.to/lastmile_qr_scan"}, "name": "65da8c4f23f4d9f4662d7cf002d274bf", "is_reserved": 0}, {"is_disabled": 0, "fusion_lon": 0.0, "fusion_lat": 0.0, "lat": 38.94304066666667, "type": "electric_scooter", "lon": -77.023546, "bike_id": "f643b621d7e476ec9a1673266fd5602c", "rental_uris": {"android": "https://dc.lft.to/lastmile_qr_scan", "ios": "https://dc.lft.to/lastmile_qr_scan"}, "name": "f643b621d7e476ec9a1673266fd5602c", "is_reserved": 0}, {"is_disabled": 0, "fusion_lon": 0.0, "fusion_lat": 0.0, "lat": 39.115017, "type": "electric_bike", "lon": -77.19549066666667, "bike_id": "c003e36e373cb8ccbdd3c59a508b864a", "rental_uris": {"android": "https://dc.lft.to/lastmile_qr_scan", "ios": "https://dc.lft.to/lastmile_qr_scan"}, "name": "c003e36e373cb8ccbdd3c59a508b864a", "is_reserved": 0}, {"is_disabled": 0, "fusion_lon": 0.0, "fusion_lat": 0.0, "lat": 38.938771, "type": "electric_scooter", "lon": -77.03333616666667, "bike_id": "073b06e22e95a35d9f06ef34a2b0f94e", "rental_uris": {"android": "https://dc.lft.to/lastmile_qr_scan", "ios": "https://dc.lft.to/lastmile_qr_scan"}, "name": "073b06e22e95a35d9f06ef34a2b0f94e", "is_reserved": 0}, {"is_disabled": 0, "fusion_lon": 0.0, "fusion_lat": 0.0, "lat": 38.85714266666667, "type": "electric_bike", "lon": -76.98113666666667, "bike_id": "f0d6fd5dc55d2a52c24c37c4976a242a", "rental_uris": {"android": "https://dc.lft.to/lastmile_qr_scan", "ios": "https://dc.lft.to/lastmile_qr_scan"}, "name": "f0d6fd5dc55d2a52c24c37c4976a242a", "is_reserved": 0}, {"is_disabled": 0, "fusion_lon": 0.0, "fusion_lat": 0.0, "lat": 38.930448, "type": "electric_scooter", "lon": -77.0041765, "bike_id": "0d0cc96e858a9b601739b8b144ef1658", "rental_uris": {"android": "https://dc.lft.to/lastmile_qr_scan", "ios": "https://dc.lft.to/lastmile_qr_scan"}, "name": "0d0cc96e858a9b601739b8b144ef1658", "is_reserved": 0}, {"is_disabled": 0, "fusion_lon": 0.0, "fusion_lat": 0.0, "lat": 38.838078833333334, "type": "electric_scooter", "lon": -77.00430783333333, "bike_id": "76fa5b1ca1462a0304b7ed42a6d3bdff", "rental_uris": {"android": "https://dc.lft.to/lastmile_qr_scan", "ios": "https://dc.lft.to/lastmile_qr_scan"}, "name": "76fa5b1ca1462a0304b7ed42a6d3bdff", "is_reserved": 0}, {"is_disabled": 0, "fusion_lon": 0.0, "fusion_lat": 0.0, "lat": 38.889936666666664, "type": "electric_scooter", "lon": -77.0150665, "bike_id": "989ba71b11eca7d71eec977eb1721105", "rental_uris": {"android": "https://dc.lft.to/lastmile_qr_scan", "ios": "https://dc.lft.to/lastmile_qr_scan"}, "name": "989ba71b11eca7d71eec977eb1721105", "is_reserved": 0}, {"is_disabled": 0, "fusion_lon": 0.0, "fusion_lat": 0.0, "lat": 38.91912383333333, "type": "electric_scooter", "lon": -77.0302615, "bike_id": "ec72a6a3cb74e7fd1d9df627d4ef10ed", "rental_uris": {"android": "https://dc.lft.to/lastmile_qr_scan", "ios": "https://dc.lft.to/lastmile_qr_scan"}, "name": "ec72a6a3cb74e7fd1d9df627d4ef10ed", "is_reserved": 0}, {"is_disabled": 0, "fusion_lon": 0.0, "fusion_lat": 0.0, "lat": 38.91032, "type": "electric_scooter", "lon": -77.013744, "bike_id": "1b15594d8bd668a424036a76c268f6ab", "rental_uris": {"android": "https://dc.lft.to/lastmile_qr_scan", "ios": "https://dc.lft.to/lastmile_qr_scan"}, "name": "1b15594d8bd668a424036a76c268f6ab", "is_reserved": 0}, {"is_disabled": 0, "fusion_lon": 0.0, "fusion_lat": 0.0, "lat": 38.90920966666667, "type": "electric_scooter", "lon": -77.03208383333333, "bike_id": "76b32b9f07d37b39e50e3e4bb763df40", "rental_uris": {"android": "https://dc.lft.to/lastmile_qr_scan", "ios": "https://dc.lft.to/lastmile_qr_scan"}, "name": "76b32b9f07d37b39e50e3e4bb763df40", "is_reserved": 0}, {"is_disabled": 0, "fusion_lon": 0.0, "fusion_lat": 0.0, "lat": 38.922813833333336, "type": "electric_scooter", "lon": -77.02351216666666, "bike_id": "93a31672edee783cf9ae021a33f9908b", "rental_uris": {"android": "https://dc.lft.to/lastmile_qr_scan", "ios": "https://dc.lft.to/lastmile_qr_scan"}, "name": "93a31672edee783cf9ae021a33f9908b", "is_reserved": 0}, {"is_disabled": 0, "fusion_lon": 0.0, "fusion_lat": 0.0, "lat": 38.90563433333333, "type": "electric_scooter", "lon": -77.004288, "bike_id": "8859a5464eff34ad66be66937b496783", "rental_uris": {"android": "https://dc.lft.to/lastmile_qr_scan", "ios": "https://dc.lft.to/lastmile_qr_scan"}, "name": "8859a5464eff34ad66be66937b496783", "is_reserved": 0}, {"is_disabled": 0, "fusion_lon": 0.0, "fusion_lat": 0.0, "lat": 38.94981766666667, "type": "electric_scooter", "lon": -77.02701783333333, "bike_id": "f1f224cf4df22d83e029bb9d5bce2f01", "rental_uris": {"android": "https://dc.lft.to/lastmile_qr_scan", "ios": "https://dc.lft.to/lastmile_qr_scan"}, "name": "f1f224cf4df22d83e029bb9d5bce2f01", "is_reserved": 0}, {"is_disabled": 0, "fusion_lon": 0.0, "fusion_lat": 0.0, "lat": 38.892403333333334, "type": "electric_scooter", "lon": -77.03348933333334, "bike_id": "2eae5853ad2da8dc76d101e680f70bad", "rental_uris": {"android": "https://dc.lft.to/lastmile_qr_scan", "ios": "https://dc.lft.to/lastmile_qr_scan"}, "name": "2eae5853ad2da8dc76d101e680f70bad", "is_reserved": 0}, {"is_disabled": 0, "fusion_lon": 0.0, "fusion_lat": 0.0, "lat": 38.89549233333334, "type": "electric_scooter", "lon": -77.01101916666667, "bike_id": "8b0744a28b18735c195669f9361d683a", "rental_uris": {"android": "https://dc.lft.to/lastmile_qr_scan", "ios": "https://dc.lft.to/lastmile_qr_scan"}, "name": "8b0744a28b18735c195669f9361d683a", "is_reserved": 0}, {"is_disabled": 0, "fusion_lon": 0.0, "fusion_lat": 0.0, "lat": 38.918139833333335, "type": "electric_scooter", "lon": -77.03449433333333, "bike_id": "a682a5d56367ab76e68f73ab6c7f73f4", "rental_uris": {"android": "https://dc.lft.to/lastmile_qr_scan", "ios": "https://dc.lft.to/lastmile_qr_scan"}, "name": "a682a5d56367ab76e68f73ab6c7f73f4", "is_reserved": 0}, {"is_disabled": 0, "fusion_lon": 0.0, "fusion_lat": 0.0, "lat": 38.892178, "type": "electric_scooter", "lon": -77.02258066666667, "bike_id": "80683405cac07fafaff2d27176b08ff7", "rental_uris": {"android": "https://dc.lft.to/lastmile_qr_scan", "ios": "https://dc.lft.to/lastmile_qr_scan"}, "name": "80683405cac07fafaff2d27176b08ff7", "is_reserved": 0}, {"is_disabled": 0, "fusion_lon": 0.0, "fusion_lat": 0.0, "lat": 38.8552385, "type": "electric_bike", "lon": -77.10711866666666, "bike_id": "0531cef97fe6ce444c4888ede9d7cd67", "rental_uris": {"android": "https://dc.lft.to/lastmile_qr_scan", "ios": "https://dc.lft.to/lastmile_qr_scan"}, "name": "0531cef97fe6ce444c4888ede9d7cd67", "is_reserved": 0}, {"is_disabled": 0, "fusion_lon": 0.0, "fusion_lat": 0.0, "lat": 38.898425833333334, "type": "electric_scooter", "lon": -76.94561433333334, "bike_id": "c099ff7161d18389b4563cd096ff1efc", "rental_uris": {"android": "https://dc.lft.to/lastmile_qr_scan", "ios": "https://dc.lft.to/lastmile_qr_scan"}, "name": "c099ff7161d18389b4563cd096ff1efc", "is_reserved": 0}, {"is_disabled": 0, "fusion_lon": 0.0, "fusion_lat": 0.0, "lat": 38.86027466666667, "type": "electric_scooter", "lon": -76.99692316666666, "bike_id": "d725c7a449b26250f143de7627be5305", "rental_uris": {"android": "https://dc.lft.to/lastmile_qr_scan", "ios": "https://dc.lft.to/lastmile_qr_scan"}, "name": "d725c7a449b26250f143de7627be5305", "is_reserved": 0}, {"is_disabled": 0, "fusion_lon": 0.0, "fusion_lat": 0.0, "lat": 38.90635133333333, "type": "electric_scooter", "lon": -77.02505633333334, "bike_id": "ff8154424fc19fa6973c9e94636c1827", "rental_uris": {"android": "https://dc.lft.to/lastmile_qr_scan", "ios": "https://dc.lft.to/lastmile_qr_scan"}, "name": "ff8154424fc19fa6973c9e94636c1827", "is_reserved": 0}, {"is_disabled": 0, "fusion_lon": 0.0, "fusion_lat": 0.0, "lat": 38.9993115, "type": "electric_bike", "lon": -77.00122783333333, "bike_id": "eb00df1caa341670f96585c8de867241", "rental_uris": {"android": "https://dc.lft.to/lastmile_qr_scan", "ios": "https://dc.lft.to/lastmile_qr_scan"}, "name": "eb00df1caa341670f96585c8de867241", "is_reserved": 0}, {"is_disabled": 0, "fusion_lon": 0.0, "fusion_lat": 0.0, "lat": 38.903556, "type": "electric_scooter", "lon": -77.03920333333333, "bike_id": "68bbe3a775ccc9c132cbbe8954f2b07a", "rental_uris": {"android": "https://dc.lft.to/lastmile_qr_scan", "ios": "https://dc.lft.to/lastmile_qr_scan"}, "name": "68bbe3a775ccc9c132cbbe8954f2b07a", "is_reserved": 0}, {"is_disabled": 0, "fusion_lon": 0.0, "fusion_lat": 0.0, "lat": 39.095876, "type": "electric_bike", "lon": -77.14778616666666, "bike_id": "36def706f7426acaf91326de441a57a0", "rental_uris": {"android": "https://dc.lft.to/lastmile_qr_scan", "ios": "https://dc.lft.to/lastmile_qr_scan"}, "name": "36def706f7426acaf91326de441a57a0", "is_reserved": 0}, {"is_disabled": 0, "fusion_lon": 0.0, "fusion_lat": 0.0, "lat": 38.89501116666667, "type": "electric_scooter", "lon": -76.94880083333334, "bike_id": "4018f28ed39646c95154cc30fb0948c3", "rental_uris": {"android": "https://dc.lft.to/lastmile_qr_scan", "ios": "https://dc.lft.to/lastmile_qr_scan"}, "name": "4018f28ed39646c95154cc30fb0948c3", "is_reserved": 0}, {"is_disabled": 0, "fusion_lon": 0.0, "fusion_lat": 0.0, "lat": 38.919346166666664, "type": "electric_scooter", "lon": -77.08134833333334, "bike_id": "d908206ea0c1d3776b81b4dca89dd93f", "rental_uris": {"android": "https://dc.lft.to/lastmile_qr_scan", "ios": "https://dc.lft.to/lastmile_qr_scan"}, "name": "d908206ea0c1d3776b81b4dca89dd93f", "is_reserved": 0}, {"is_disabled": 0, "fusion_lon": 0.0, "fusion_lat": 0.0, "lat": 38.899969666666664, "type": "electric_scooter", "lon": -77.0321295, "bike_id": "44486b5f2ed91c290257f28cd186136e", "rental_uris": {"android": "https://dc.lft.to/lastmile_qr_scan", "ios": "https://dc.lft.to/lastmile_qr_scan"}, "name": "44486b5f2ed91c290257f28cd186136e", "is_reserved": 0}, {"is_disabled": 0, "fusion_lon": 0.0, "fusion_lat": 0.0, "lat": 38.87194233333334, "type": "electric_scooter", "lon": -76.978227, "bike_id": "ce38c3aea96268c68139e3db23e7b258", "rental_uris": {"android": "https://dc.lft.to/lastmile_qr_scan", "ios": "https://dc.lft.to/lastmile_qr_scan"}, "name": "ce38c3aea96268c68139e3db23e7b258", "is_reserved": 0}, {"is_disabled": 0, "fusion_lon": 0.0, "fusion_lat": 0.0, "lat": 38.91585933333333, "type": "electric_scooter", "lon": -77.0432425, "bike_id": "6db5dcc83088cdac0f2688b9801aafe9", "rental_uris": {"android": "https://dc.lft.to/lastmile_qr_scan", "ios": "https://dc.lft.to/lastmile_qr_scan"}, "name": "6db5dcc83088cdac0f2688b9801aafe9", "is_reserved": 0}, {"is_disabled": 0, "fusion_lon": 0.0, "fusion_lat": 0.0, "lat": 38.88917033333333, "type": "electric_scooter", "lon": -76.98004033333333, "bike_id": "15dde7fa181476a71ab2017f516acd78", "rental_uris": {"android": "https://dc.lft.to/lastmile_qr_scan", "ios": "https://dc.lft.to/lastmile_qr_scan"}, "name": "15dde7fa181476a71ab2017f516acd78", "is_reserved": 0}, {"is_disabled": 0, "fusion_lon": 0.0, "fusion_lat": 0.0, "lat": 38.9058795, "type": "electric_scooter", "lon": -77.06915166666667, "bike_id": "3ec4fc71f1349e002971ca53de24955e", "rental_uris": {"android": "https://dc.lft.to/lastmile_qr_scan", "ios": "https://dc.lft.to/lastmile_qr_scan"}, "name": "3ec4fc71f1349e002971ca53de24955e", "is_reserved": 0}, {"is_disabled": 0, "fusion_lon": 0.0, "fusion_lat": 0.0, "lat": 38.913044666666664, "type": "electric_scooter", "lon": -77.032029, "bike_id": "d8755f1b43910338de86b8cf53c60e53", "rental_uris": {"android": "https://dc.lft.to/lastmile_qr_scan", "ios": "https://dc.lft.to/lastmile_qr_scan"}, "name": "d8755f1b43910338de86b8cf53c60e53", "is_reserved": 0}, {"is_disabled": 0, "fusion_lon": 0.0, "fusion_lat": 0.0, "lat": 38.92437066666667, "type": "electric_bike", "lon": -76.90758083333333, "bike_id": "18b905c1a5bee1af3b1c1c12fd101873", "rental_uris": {"android": "https://dc.lft.to/lastmile_qr_scan", "ios": "https://dc.lft.to/lastmile_qr_scan"}, "name": "18b905c1a5bee1af3b1c1c12fd101873", "is_reserved": 0}, {"is_disabled": 0, "fusion_lon": 0.0, "fusion_lat": 0.0, "lat": 38.905451, "type": "electric_scooter", "lon": -77.05008166666667, "bike_id": "76edcb6a090d19ff5f49dfe88071e326", "rental_uris": {"android": "https://dc.lft.to/lastmile_qr_scan", "ios": "https://dc.lft.to/lastmile_qr_scan"}, "name": "76edcb6a090d19ff5f49dfe88071e326", "is_reserved": 0}, {"is_disabled": 0, "fusion_lon": 0.0, "fusion_lat": 0.0, "lat": 38.908187, "type": "electric_scooter", "lon": -77.00143433333334, "bike_id": "ff1d821f46dfcd2cd7c60b8a8d48cf50", "rental_uris": {"android": "https://dc.lft.to/lastmile_qr_scan", "ios": "https://dc.lft.to/lastmile_qr_scan"}, "name": "ff1d821f46dfcd2cd7c60b8a8d48cf50", "is_reserved": 0}, {"is_disabled": 0, "fusion_lon": 0.0, "fusion_lat": 0.0, "lat": 38.90038666666667, "type": "electric_scooter", "lon": -77.03402366666667, "bike_id": "f504675c116de55170a4e36121c491cd", "rental_uris": {"android": "https://dc.lft.to/lastmile_qr_scan", "ios": "https://dc.lft.to/lastmile_qr_scan"}, "name": "f504675c116de55170a4e36121c491cd", "is_reserved": 0}, {"is_disabled": 0, "fusion_lon": 0.0, "fusion_lat": 0.0, "lat": 38.9171065, "type": "electric_scooter", "lon": -77.02612516666667, "bike_id": "f11c9fe6d76555d791dd1f9d154d411c", "rental_uris": {"android": "https://dc.lft.to/lastmile_qr_scan", "ios": "https://dc.lft.to/lastmile_qr_scan"}, "name": "f11c9fe6d76555d791dd1f9d154d411c", "is_reserved": 0}, {"is_disabled": 0, "fusion_lon": 0.0, "fusion_lat": 0.0, "lat": 38.96152633333333, "type": "electric_scooter", "lon": -77.02773533333334, "bike_id": "3d20c7a553beeeae15ee273956b627a3", "rental_uris": {"android": "https://dc.lft.to/lastmile_qr_scan", "ios": "https://dc.lft.to/lastmile_qr_scan"}, "name": "3d20c7a553beeeae15ee273956b627a3", "is_reserved": 0}, {"is_disabled": 0, "fusion_lon": 0.0, "fusion_lat": 0.0, "lat": 38.8973825, "type": "electric_scooter", "lon": -77.04654166666667, "bike_id": "ae5221a6dd4ae2dc338ebbb17e1f4b59", "rental_uris": {"android": "https://dc.lft.to/lastmile_qr_scan", "ios": "https://dc.lft.to/lastmile_qr_scan"}, "name": "ae5221a6dd4ae2dc338ebbb17e1f4b59", "is_reserved": 0}, {"is_disabled": 0, "fusion_lon": 0.0, "fusion_lat": 0.0, "lat": 38.934974, "type": "electric_scooter", "lon": -77.02407783333334, "bike_id": "150ecbe6d03c8ff602c0170063fc271a", "rental_uris": {"android": "https://dc.lft.to/lastmile_qr_scan", "ios": "https://dc.lft.to/lastmile_qr_scan"}, "name": "150ecbe6d03c8ff602c0170063fc271a", "is_reserved": 0}, {"is_disabled": 0, "fusion_lon": 0.0, "fusion_lat": 0.0, "lat": 38.8918535, "type": "electric_scooter", "lon": -76.9883945, "bike_id": "ef03cfc8ba6724edfe7500d0785af1e5", "rental_uris": {"android": "https://dc.lft.to/lastmile_qr_scan", "ios": "https://dc.lft.to/lastmile_qr_scan"}, "name": "ef03cfc8ba6724edfe7500d0785af1e5", "is_reserved": 0}, {"is_disabled": 0, "fusion_lon": 0.0, "fusion_lat": 0.0, "lat": 38.901961666666665, "type": "electric_scooter", "lon": -77.02372816666667, "bike_id": "c03f9ed69e7331a50983ceff316fdfcf", "rental_uris": {"android": "https://dc.lft.to/lastmile_qr_scan", "ios": "https://dc.lft.to/lastmile_qr_scan"}, "name": "c03f9ed69e7331a50983ceff316fdfcf", "is_reserved": 0}, {"is_disabled": 0, "fusion_lon": 0.0, "fusion_lat": 0.0, "lat": 38.879561, "type": "electric_scooter", "lon": -77.02408233333334, "bike_id": "f5528295c220109aca2b4168774a2eef", "rental_uris": {"android": "https://dc.lft.to/lastmile_qr_scan", "ios": "https://dc.lft.to/lastmile_qr_scan"}, "name": "f5528295c220109aca2b4168774a2eef", "is_reserved": 0}, {"is_disabled": 0, "fusion_lon": 0.0, "fusion_lat": 0.0, "lat": 38.91322733333333, "type": "electric_scooter", "lon": -77.03256916666666, "bike_id": "4feaad70f357cf2afe3774ebad296eb0", "rental_uris": {"android": "https://dc.lft.to/lastmile_qr_scan", "ios": "https://dc.lft.to/lastmile_qr_scan"}, "name": "4feaad70f357cf2afe3774ebad296eb0", "is_reserved": 0}, {"is_disabled": 0, "fusion_lon": 0.0, "fusion_lat": 0.0, "lat": 38.90550733333333, "type": "electric_scooter", "lon": -77.03404366666666, "bike_id": "eca772bc335e795ee56c30d370e148ca", "rental_uris": {"android": "https://dc.lft.to/lastmile_qr_scan", "ios": "https://dc.lft.to/lastmile_qr_scan"}, "name": "eca772bc335e795ee56c30d370e148ca", "is_reserved": 0}, {"is_disabled": 0, "fusion_lon": 0.0, "fusion_lat": 0.0, "lat": 38.9000655, "type": "electric_scooter", "lon": -77.02385033333333, "bike_id": "f6c75259a188acfb5631a3bdbeb1e4b2", "rental_uris": {"android": "https://dc.lft.to/lastmile_qr_scan", "ios": "https://dc.lft.to/lastmile_qr_scan"}, "name": "f6c75259a188acfb5631a3bdbeb1e4b2", "is_reserved": 0}, {"is_disabled": 0, "fusion_lon": 0.0, "fusion_lat": 0.0, "lat": 38.91150183333333, "type": "electric_scooter", "lon": -76.98502233333333, "bike_id": "e1f9c60de4fb66b273252fcc27730236", "rental_uris": {"android": "https://dc.lft.to/lastmile_qr_scan", "ios": "https://dc.lft.to/lastmile_qr_scan"}, "name": "e1f9c60de4fb66b273252fcc27730236", "is_reserved": 0}, {"is_disabled": 0, "fusion_lon": 0.0, "fusion_lat": 0.0, "lat": 38.89486466666666, "type": "electric_scooter", "lon": -77.022871, "bike_id": "024a02bbeb57502460d9eb6675a88556", "rental_uris": {"android": "https://dc.lft.to/lastmile_qr_scan", "ios": "https://dc.lft.to/lastmile_qr_scan"}, "name": "024a02bbeb57502460d9eb6675a88556", "is_reserved": 0}, {"is_disabled": 0, "fusion_lon": 0.0, "fusion_lat": 0.0, "lat": 38.898287833333335, "type": "electric_scooter", "lon": -77.03985366666667, "bike_id": "57d6ed13380c367336f4ef83286eaef7", "rental_uris": {"android": "https://dc.lft.to/lastmile_qr_scan", "ios": "https://dc.lft.to/lastmile_qr_scan"}, "name": "57d6ed13380c367336f4ef83286eaef7", "is_reserved": 0}, {"is_disabled": 0, "fusion_lon": 0.0, "fusion_lat": 0.0, "lat": 38.8923335, "type": "electric_scooter", "lon": -77.04676416666666, "bike_id": "fc9ce098814e585b14bab6f96e937e59", "rental_uris": {"android": "https://dc.lft.to/lastmile_qr_scan", "ios": "https://dc.lft.to/lastmile_qr_scan"}, "name": "fc9ce098814e585b14bab6f96e937e59", "is_reserved": 0}, {"is_disabled": 0, "fusion_lon": 0.0, "fusion_lat": 0.0, "lat": 38.935410166666664, "type": "electric_scooter", "lon": -77.0340685, "bike_id": "e5b3113f924b11d6c28e275985e70414", "rental_uris": {"android": "https://dc.lft.to/lastmile_qr_scan", "ios": "https://dc.lft.to/lastmile_qr_scan"}, "name": "e5b3113f924b11d6c28e275985e70414", "is_reserved": 0}, {"is_disabled": 0, "fusion_lon": 0.0, "fusion_lat": 0.0, "lat": 38.9046965, "type": "electric_scooter", "lon": -76.992051, "bike_id": "1bd6f2c8ec0b133db7a4468e4dbd4fe2", "rental_uris": {"android": "https://dc.lft.to/lastmile_qr_scan", "ios": "https://dc.lft.to/lastmile_qr_scan"}, "name": "1bd6f2c8ec0b133db7a4468e4dbd4fe2", "is_reserved": 0}, {"is_disabled": 0, "fusion_lon": 0.0, "fusion_lat": 0.0, "lat": 38.922584, "type": "electric_scooter", "lon": -77.07133733333333, "bike_id": "02356df75c9117a375e591548e72ef47", "rental_uris": {"android": "https://dc.lft.to/lastmile_qr_scan", "ios": "https://dc.lft.to/lastmile_qr_scan"}, "name": "02356df75c9117a375e591548e72ef47", "is_reserved": 0}, {"is_disabled": 0, "fusion_lon": 0.0, "fusion_lat": 0.0, "lat": 38.8950255, "type": "electric_scooter", "lon": -77.01610566666666, "bike_id": "de627a81d788debf359cf3f3324d79e6", "rental_uris": {"android": "https://dc.lft.to/lastmile_qr_scan", "ios": "https://dc.lft.to/lastmile_qr_scan"}, "name": "de627a81d788debf359cf3f3324d79e6", "is_reserved": 0}, {"is_disabled": 0, "fusion_lon": 0.0, "fusion_lat": 0.0, "lat": 38.89906883333333, "type": "electric_scooter", "lon": -76.933897, "bike_id": "5cb70c1705425230d4e3b1fdf6ccd548", "rental_uris": {"android": "https://dc.lft.to/lastmile_qr_scan", "ios": "https://dc.lft.to/lastmile_qr_scan"}, "name": "5cb70c1705425230d4e3b1fdf6ccd548", "is_reserved": 0}, {"is_disabled": 0, "fusion_lon": 0.0, "fusion_lat": 0.0, "lat": 38.91110833333333, "type": "electric_scooter", "lon": -77.03827783333334, "bike_id": "86e9c27dcd7864328295cf64caac1498", "rental_uris": {"android": "https://dc.lft.to/lastmile_qr_scan", "ios": "https://dc.lft.to/lastmile_qr_scan"}, "name": "86e9c27dcd7864328295cf64caac1498", "is_reserved": 0}, {"is_disabled": 0, "fusion_lon": 0.0, "fusion_lat": 0.0, "lat": 38.92120416666667, "type": "electric_scooter", "lon": -77.01211783333333, "bike_id": "2ab6e3d42c924208e0c992e313ba55ab", "rental_uris": {"android": "https://dc.lft.to/lastmile_qr_scan", "ios": "https://dc.lft.to/lastmile_qr_scan"}, "name": "2ab6e3d42c924208e0c992e313ba55ab", "is_reserved": 0}, {"is_disabled": 0, "fusion_lon": 0.0, "fusion_lat": 0.0, "lat": 38.92748266666667, "type": "electric_scooter", "lon": -77.0758985, "bike_id": "8750c460e1a177a23b456162fde13845", "rental_uris": {"android": "https://dc.lft.to/lastmile_qr_scan", "ios": "https://dc.lft.to/lastmile_qr_scan"}, "name": "8750c460e1a177a23b456162fde13845", "is_reserved": 0}, {"is_disabled": 0, "fusion_lon": 0.0, "fusion_lat": 0.0, "lat": 38.88391266666667, "type": "electric_bike", "lon": -77.03076266666666, "bike_id": "002a894ae8f6ea4987bef4fd9831e534", "rental_uris": {"android": "https://dc.lft.to/lastmile_qr_scan", "ios": "https://dc.lft.to/lastmile_qr_scan"}, "name": "002a894ae8f6ea4987bef4fd9831e534", "is_reserved": 0}, {"is_disabled": 0, "fusion_lon": 0.0, "fusion_lat": 0.0, "lat": 38.846003, "type": "electric_bike", "lon": -76.96877983333333, "bike_id": "a2e848d8260fd1a824b0c90caeb1cd12", "rental_uris": {"android": "https://dc.lft.to/lastmile_qr_scan", "ios": "https://dc.lft.to/lastmile_qr_scan"}, "name": "a2e848d8260fd1a824b0c90caeb1cd12", "is_reserved": 0}, {"is_disabled": 0, "fusion_lon": 0.0, "fusion_lat": 0.0, "lat": 38.95961716666667, "type": "electric_scooter", "lon": -77.02112566666666, "bike_id": "16b3b3f51b9fb031260af9e056dd6737", "rental_uris": {"android": "https://dc.lft.to/lastmile_qr_scan", "ios": "https://dc.lft.to/lastmile_qr_scan"}, "name": "16b3b3f51b9fb031260af9e056dd6737", "is_reserved": 0}, {"is_disabled": 0, "fusion_lon": 0.0, "fusion_lat": 0.0, "lat": 38.956268333333334, "type": "electric_scooter", "lon": -77.0297795, "bike_id": "1f87ae9a2b019f30300bf8f2b6061235", "rental_uris": {"android": "https://dc.lft.to/lastmile_qr_scan", "ios": "https://dc.lft.to/lastmile_qr_scan"}, "name": "1f87ae9a2b019f30300bf8f2b6061235", "is_reserved": 0}, {"is_disabled": 0, "fusion_lon": 0.0, "fusion_lat": 0.0, "lat": 38.9076485, "type": "electric_scooter", "lon": -77.03576616666666, "bike_id": "be77eb0244338b4b9cf96614d9e3e224", "rental_uris": {"android": "https://dc.lft.to/lastmile_qr_scan", "ios": "https://dc.lft.to/lastmile_qr_scan"}, "name": "be77eb0244338b4b9cf96614d9e3e224", "is_reserved": 0}, {"is_disabled": 0, "fusion_lon": 0.0, "fusion_lat": 0.0, "lat": 38.91412583333333, "type": "electric_scooter", "lon": -77.04327433333333, "bike_id": "d2fc467cb5cf6f7ac819c77e42f2d75c", "rental_uris": {"android": "https://dc.lft.to/lastmile_qr_scan", "ios": "https://dc.lft.to/lastmile_qr_scan"}, "name": "d2fc467cb5cf6f7ac819c77e42f2d75c", "is_reserved": 0}, {"is_disabled": 0, "fusion_lon": 0.0, "fusion_lat": 0.0, "lat": 38.941950166666665, "type": "electric_scooter", "lon": -77.02579216666666, "bike_id": "900610a9e9afc8a1593039d3739de72f", "rental_uris": {"android": "https://dc.lft.to/lastmile_qr_scan", "ios": "https://dc.lft.to/lastmile_qr_scan"}, "name": "900610a9e9afc8a1593039d3739de72f", "is_reserved": 0}, {"is_disabled": 0, "fusion_lon": 0.0, "fusion_lat": 0.0, "lat": 38.90420566666667, "type": "electric_scooter", "lon": -77.048732, "bike_id": "2e90501227c5e8388e54c159b5495c38", "rental_uris": {"android": "https://dc.lft.to/lastmile_qr_scan", "ios": "https://dc.lft.to/lastmile_qr_scan"}, "name": "2e90501227c5e8388e54c159b5495c38", "is_reserved": 0}, {"is_disabled": 0, "fusion_lon": 0.0, "fusion_lat": 0.0, "lat": 38.949762, "type": "electric_scooter", "lon": -77.06761566666667, "bike_id": "43e94b4b77d829193ded5f2e38814b14", "rental_uris": {"android": "https://dc.lft.to/lastmile_qr_scan", "ios": "https://dc.lft.to/lastmile_qr_scan"}, "name": "43e94b4b77d829193ded5f2e38814b14", "is_reserved": 0}, {"is_disabled": 0, "fusion_lon": 0.0, "fusion_lat": 0.0, "lat": 38.892336, "type": "electric_scooter", "lon": -77.04674366666667, "bike_id": "21d0ff8ef3f033e5798b316fdef6cedb", "rental_uris": {"android": "https://dc.lft.to/lastmile_qr_scan", "ios": "https://dc.lft.to/lastmile_qr_scan"}, "name": "21d0ff8ef3f033e5798b316fdef6cedb", "is_reserved": 0}, {"is_disabled": 0, "fusion_lon": 0.0, "fusion_lat": 0.0, "lat": 38.999961666666664, "type": "electric_bike", "lon": -76.9180655, "bike_id": "974e6c8ed73696f76f3b7b21dd6d367b", "rental_uris": {"android": "https://dc.lft.to/lastmile_qr_scan", "ios": "https://dc.lft.to/lastmile_qr_scan"}, "name": "974e6c8ed73696f76f3b7b21dd6d367b", "is_reserved": 0}, {"is_disabled": 0, "fusion_lon": 0.0, "fusion_lat": 0.0, "lat": 38.90573083333334, "type": "electric_scooter", "lon": -77.0240615, "bike_id": "4c941bbed1e50fedfc792ef09cfdb9bc", "rental_uris": {"android": "https://dc.lft.to/lastmile_qr_scan", "ios": "https://dc.lft.to/lastmile_qr_scan"}, "name": "4c941bbed1e50fedfc792ef09cfdb9bc", "is_reserved": 0}, {"is_disabled": 0, "fusion_lon": 0.0, "fusion_lat": 0.0, "lat": 38.9331825, "type": "electric_scooter", "lon": -77.029261, "bike_id": "36147a93eb44ba5578ff442fac4dc577", "rental_uris": {"android": "https://dc.lft.to/lastmile_qr_scan", "ios": "https://dc.lft.to/lastmile_qr_scan"}, "name": "36147a93eb44ba5578ff442fac4dc577", "is_reserved": 0}, {"is_disabled": 0, "fusion_lon": 0.0, "fusion_lat": 0.0, "lat": 38.93527983333333, "type": "electric_scooter", "lon": -77.0206935, "bike_id": "9a7c59d416c40a12aa79a8663c5751cd", "rental_uris": {"android": "https://dc.lft.to/lastmile_qr_scan", "ios": "https://dc.lft.to/lastmile_qr_scan"}, "name": "9a7c59d416c40a12aa79a8663c5751cd", "is_reserved": 0}, {"is_disabled": 0, "fusion_lon": 0.0, "fusion_lat": 0.0, "lat": 38.973698166666665, "type": "electric_scooter", "lon": -77.0185345, "bike_id": "303e201ba06581fe5a0452a2d53dd74c", "rental_uris": {"android": "https://dc.lft.to/lastmile_qr_scan", "ios": "https://dc.lft.to/lastmile_qr_scan"}, "name": "303e201ba06581fe5a0452a2d53dd74c", "is_reserved": 0}, {"is_disabled": 0, "fusion_lon": 0.0, "fusion_lat": 0.0, "lat": 38.92456166666667, "type": "electric_scooter", "lon": -76.99904, "bike_id": "93d6abf0d4483ff0ede00e0bf724fec5", "rental_uris": {"android": "https://dc.lft.to/lastmile_qr_scan", "ios": "https://dc.lft.to/lastmile_qr_scan"}, "name": "93d6abf0d4483ff0ede00e0bf724fec5", "is_reserved": 0}, {"is_disabled": 0, "fusion_lon": 0.0, "fusion_lat": 0.0, "lat": 38.9095715, "type": "electric_scooter", "lon": -77.04824866666667, "bike_id": "dccd6c05c1561786bab98676a5996370", "rental_uris": {"android": "https://dc.lft.to/lastmile_qr_scan", "ios": "https://dc.lft.to/lastmile_qr_scan"}, "name": "dccd6c05c1561786bab98676a5996370", "is_reserved": 0}, {"is_disabled": 0, "fusion_lon": 0.0, "fusion_lat": 0.0, "lat": 38.922666, "type": "electric_scooter", "lon": -76.99391183333333, "bike_id": "1d120818f463389d62993ad27cc2fb34", "rental_uris": {"android": "https://dc.lft.to/lastmile_qr_scan", "ios": "https://dc.lft.to/lastmile_qr_scan"}, "name": "1d120818f463389d62993ad27cc2fb34", "is_reserved": 0}, {"is_disabled": 0, "fusion_lon": 0.0, "fusion_lat": 0.0, "lat": 38.84838883333333, "type": "electric_bike", "lon": -77.0804775, "bike_id": "25ebf73af1aa8377ae1b7b7bffb65792", "rental_uris": {"android": "https://dc.lft.to/lastmile_qr_scan", "ios": "https://dc.lft.to/lastmile_qr_scan"}, "name": "25ebf73af1aa8377ae1b7b7bffb65792", "is_reserved": 0}, {"is_disabled": 0, "fusion_lon": 0.0, "fusion_lat": 0.0, "lat": 38.90562383333334, "type": "electric_scooter", "lon": -77.04659983333333, "bike_id": "5185a9080b16bfe3771870bedac0cb36", "rental_uris": {"android": "https://dc.lft.to/lastmile_qr_scan", "ios": "https://dc.lft.to/lastmile_qr_scan"}, "name": "5185a9080b16bfe3771870bedac0cb36", "is_reserved": 0}, {"is_disabled": 0, "fusion_lon": 0.0, "fusion_lat": 0.0, "lat": 38.91726766666667, "type": "electric_scooter", "lon": -77.04175533333333, "bike_id": "e59b87ebb91c82d75ce90abd036125e4", "rental_uris": {"android": "https://dc.lft.to/lastmile_qr_scan", "ios": "https://dc.lft.to/lastmile_qr_scan"}, "name": "e59b87ebb91c82d75ce90abd036125e4", "is_reserved": 0}, {"is_disabled": 0, "fusion_lon": 0.0, "fusion_lat": 0.0, "lat": 38.9704965, "type": "electric_bike", "lon": -77.03081833333333, "bike_id": "0a81624dd81214f6690057074304df3d", "rental_uris": {"android": "https://dc.lft.to/lastmile_qr_scan", "ios": "https://dc.lft.to/lastmile_qr_scan"}, "name": "0a81624dd81214f6690057074304df3d", "is_reserved": 0}, {"is_disabled": 0, "fusion_lon": 0.0, "fusion_lat": 0.0, "lat": 38.9339835, "type": "electric_scooter", "lon": -77.02739183333334, "bike_id": "4551acca5fd1f1d7a8a9145c120335cf", "rental_uris": {"android": "https://dc.lft.to/lastmile_qr_scan", "ios": "https://dc.lft.to/lastmile_qr_scan"}, "name": "4551acca5fd1f1d7a8a9145c120335cf", "is_reserved": 0}, {"is_disabled": 0, "fusion_lon": 0.0, "fusion_lat": 0.0, "lat": 38.90048866666667, "type": "electric_scooter", "lon": -77.03452983333334, "bike_id": "e876a9f3b7446ca417b9d51a56ef4819", "rental_uris": {"android": "https://dc.lft.to/lastmile_qr_scan", "ios": "https://dc.lft.to/lastmile_qr_scan"}, "name": "e876a9f3b7446ca417b9d51a56ef4819", "is_reserved": 0}, {"is_disabled": 0, "fusion_lon": 0.0, "fusion_lat": 0.0, "lat": 38.8952215, "type": "electric_scooter", "lon": -77.02812066666667, "bike_id": "e142a45c5dfa369ff70a707b5b3c7284", "rental_uris": {"android": "https://dc.lft.to/lastmile_qr_scan", "ios": "https://dc.lft.to/lastmile_qr_scan"}, "name": "e142a45c5dfa369ff70a707b5b3c7284", "is_reserved": 0}, {"is_disabled": 0, "fusion_lon": 0.0, "fusion_lat": 0.0, "lat": 38.896776, "type": "electric_scooter", "lon": -76.947159, "bike_id": "70d3800ce14f1c90d93f30aaf1078e23", "rental_uris": {"android": "https://dc.lft.to/lastmile_qr_scan", "ios": "https://dc.lft.to/lastmile_qr_scan"}, "name": "70d3800ce14f1c90d93f30aaf1078e23", "is_reserved": 0}, {"is_disabled": 0, "fusion_lon": 0.0, "fusion_lat": 0.0, "lat": 38.875731, "type": "electric_scooter", "lon": -77.01985433333333, "bike_id": "1f49c6feada6f09a1c683aa29c99d2a5", "rental_uris": {"android": "https://dc.lft.to/lastmile_qr_scan", "ios": "https://dc.lft.to/lastmile_qr_scan"}, "name": "1f49c6feada6f09a1c683aa29c99d2a5", "is_reserved": 0}, {"is_disabled": 0, "fusion_lon": 0.0, "fusion_lat": 0.0, "lat": 38.912587, "type": "electric_scooter", "lon": -77.036736, "bike_id": "6dda2503e1a0622ff4588b8e1876dfe4", "rental_uris": {"android": "https://dc.lft.to/lastmile_qr_scan", "ios": "https://dc.lft.to/lastmile_qr_scan"}, "name": "6dda2503e1a0622ff4588b8e1876dfe4", "is_reserved": 0}, {"is_disabled": 0, "fusion_lon": 0.0, "fusion_lat": 0.0, "lat": 38.9024455, "type": "electric_bike", "lon": -76.97017833333334, "bike_id": "546cefc5f550a40a689628753ab67b8e", "rental_uris": {"android": "https://dc.lft.to/lastmile_qr_scan", "ios": "https://dc.lft.to/lastmile_qr_scan"}, "name": "546cefc5f550a40a689628753ab67b8e", "is_reserved": 0}, {"is_disabled": 0, "fusion_lon": 0.0, "fusion_lat": 0.0, "lat": 38.89843583333333, "type": "electric_scooter", "lon": -77.033494, "bike_id": "f39f580905fb6668d8587a4f3e355657", "rental_uris": {"android": "https://dc.lft.to/lastmile_qr_scan", "ios": "https://dc.lft.to/lastmile_qr_scan"}, "name": "f39f580905fb6668d8587a4f3e355657", "is_reserved": 0}, {"is_disabled": 0, "fusion_lon": 0.0, "fusion_lat": 0.0, "lat": 38.90728, "type": "electric_scooter", "lon": -77.032624, "bike_id": "97442ae6f44874fa0673e210eeb446dd", "rental_uris": {"android": "https://dc.lft.to/lastmile_qr_scan", "ios": "https://dc.lft.to/lastmile_qr_scan"}, "name": "97442ae6f44874fa0673e210eeb446dd", "is_reserved": 0}, {"is_disabled": 0, "fusion_lon": 0.0, "fusion_lat": 0.0, "lat": 38.89257383333333, "type": "electric_scooter", "lon": -77.0319055, "bike_id": "0d3f436d7964e611b3059d0d81b8dbba", "rental_uris": {"android": "https://dc.lft.to/lastmile_qr_scan", "ios": "https://dc.lft.to/lastmile_qr_scan"}, "name": "0d3f436d7964e611b3059d0d81b8dbba", "is_reserved": 0}, {"is_disabled": 0, "fusion_lon": 0.0, "fusion_lat": 0.0, "lat": 38.9299255, "type": "electric_scooter", "lon": -77.021803, "bike_id": "7b25f12ece401072cc904c48a93059b0", "rental_uris": {"android": "https://dc.lft.to/lastmile_qr_scan", "ios": "https://dc.lft.to/lastmile_qr_scan"}, "name": "7b25f12ece401072cc904c48a93059b0", "is_reserved": 0}, {"is_disabled": 0, "fusion_lon": 0.0, "fusion_lat": 0.0, "lat": 38.90722866666667, "type": "electric_scooter", "lon": -77.029714, "bike_id": "a694e1e078a4864030a23e2cf11c7039", "rental_uris": {"android": "https://dc.lft.to/lastmile_qr_scan", "ios": "https://dc.lft.to/lastmile_qr_scan"}, "name": "a694e1e078a4864030a23e2cf11c7039", "is_reserved": 0}, {"is_disabled": 0, "fusion_lon": 0.0, "fusion_lat": 0.0, "lat": 38.90972383333333, "type": "electric_scooter", "lon": -77.0386785, "bike_id": "add2a65523748595a4beb3776dcdc4ab", "rental_uris": {"android": "https://dc.lft.to/lastmile_qr_scan", "ios": "https://dc.lft.to/lastmile_qr_scan"}, "name": "add2a65523748595a4beb3776dcdc4ab", "is_reserved": 0}, {"is_disabled": 0, "fusion_lon": 0.0, "fusion_lat": 0.0, "lat": 38.90683166666667, "type": "electric_bike", "lon": -76.9519475, "bike_id": "041b74b29c2463428acebd2732bbfcd0", "rental_uris": {"android": "https://dc.lft.to/lastmile_qr_scan", "ios": "https://dc.lft.to/lastmile_qr_scan"}, "name": "041b74b29c2463428acebd2732bbfcd0", "is_reserved": 0}, {"is_disabled": 0, "fusion_lon": 0.0, "fusion_lat": 0.0, "lat": 38.929438166666664, "type": "electric_scooter", "lon": -77.0188765, "bike_id": "a5c04382533656f44d3a6489e73c46cd", "rental_uris": {"android": "https://dc.lft.to/lastmile_qr_scan", "ios": "https://dc.lft.to/lastmile_qr_scan"}, "name": "a5c04382533656f44d3a6489e73c46cd", "is_reserved": 0}, {"is_disabled": 0, "fusion_lon": 0.0, "fusion_lat": 0.0, "lat": 38.91281883333333, "type": "electric_scooter", "lon": -77.02241583333333, "bike_id": "560456d82ba55fcf7fb776001d4bddd7", "rental_uris": {"android": "https://dc.lft.to/lastmile_qr_scan", "ios": "https://dc.lft.to/lastmile_qr_scan"}, "name": "560456d82ba55fcf7fb776001d4bddd7", "is_reserved": 0}, {"is_disabled": 0, "fusion_lon": 0.0, "fusion_lat": 0.0, "lat": 38.907373, "type": "electric_scooter", "lon": -77.04671233333333, "bike_id": "51d28f5a6bfb4df5af5c2f916fddd83d", "rental_uris": {"android": "https://dc.lft.to/lastmile_qr_scan", "ios": "https://dc.lft.to/lastmile_qr_scan"}, "name": "51d28f5a6bfb4df5af5c2f916fddd83d", "is_reserved": 0}, {"is_disabled": 0, "fusion_lon": 0.0, "fusion_lat": 0.0, "lat": 38.892249, "type": "electric_scooter", "lon": -77.031678, "bike_id": "3b5debce33c63850eed207be8c4d0767", "rental_uris": {"android": "https://dc.lft.to/lastmile_qr_scan", "ios": "https://dc.lft.to/lastmile_qr_scan"}, "name": "3b5debce33c63850eed207be8c4d0767", "is_reserved": 0}, {"is_disabled": 0, "fusion_lon": 0.0, "fusion_lat": 0.0, "lat": 38.91852333333333, "type": "electric_scooter", "lon": -77.03215983333334, "bike_id": "a5d6b8ea298d84669cb027c68b33b5eb", "rental_uris": {"android": "https://dc.lft.to/lastmile_qr_scan", "ios": "https://dc.lft.to/lastmile_qr_scan"}, "name": "a5d6b8ea298d84669cb027c68b33b5eb", "is_reserved": 0}, {"is_disabled": 0, "fusion_lon": 0.0, "fusion_lat": 0.0, "lat": 38.919513, "type": "electric_scooter", "lon": -77.01651383333333, "bike_id": "b8ac247d4917264a30eb2e6e4a565aa9", "rental_uris": {"android": "https://dc.lft.to/lastmile_qr_scan", "ios": "https://dc.lft.to/lastmile_qr_scan"}, "name": "b8ac247d4917264a30eb2e6e4a565aa9", "is_reserved": 0}, {"is_disabled": 0, "fusion_lon": 0.0, "fusion_lat": 0.0, "lat": 38.919521, "type": "electric_scooter", "lon": -77.0007785, "bike_id": "fb3d3ded9836d522e3c5bc3fcfb257db", "rental_uris": {"android": "https://dc.lft.to/lastmile_qr_scan", "ios": "https://dc.lft.to/lastmile_qr_scan"}, "name": "fb3d3ded9836d522e3c5bc3fcfb257db", "is_reserved": 0}, {"is_disabled": 0, "fusion_lon": 0.0, "fusion_lat": 0.0, "lat": 38.93230483333333, "type": "electric_scooter", "lon": -77.02024133333333, "bike_id": "009da0bcd01817c670aed30454dd8f4d", "rental_uris": {"android": "https://dc.lft.to/lastmile_qr_scan", "ios": "https://dc.lft.to/lastmile_qr_scan"}, "name": "009da0bcd01817c670aed30454dd8f4d", "is_reserved": 0}, {"is_disabled": 0, "fusion_lon": 0.0, "fusion_lat": 0.0, "lat": 38.89511666666667, "type": "electric_bike", "lon": -76.94945, "bike_id": "ac73927a12cefd2666a6d10399fa0278", "rental_uris": {"android": "https://dc.lft.to/lastmile_qr_scan", "ios": "https://dc.lft.to/lastmile_qr_scan"}, "name": "ac73927a12cefd2666a6d10399fa0278", "is_reserved": 0}, {"is_disabled": 0, "fusion_lon": 0.0, "fusion_lat": 0.0, "lat": 38.90058766666667, "type": "electric_scooter", "lon": -76.934744, "bike_id": "e7cfd4e32bc64f615fb0a27eaffa5998", "rental_uris": {"android": "https://dc.lft.to/lastmile_qr_scan", "ios": "https://dc.lft.to/lastmile_qr_scan"}, "name": "e7cfd4e32bc64f615fb0a27eaffa5998", "is_reserved": 0}, {"is_disabled": 0, "fusion_lon": 0.0, "fusion_lat": 0.0, "lat": 38.86336166666667, "type": "electric_bike", "lon": -76.9871095, "bike_id": "b9af712f3ee957ad4f543a23af369bc8", "rental_uris": {"android": "https://dc.lft.to/lastmile_qr_scan", "ios": "https://dc.lft.to/lastmile_qr_scan"}, "name": "b9af712f3ee957ad4f543a23af369bc8", "is_reserved": 0}, {"is_disabled": 0, "fusion_lon": 0.0, "fusion_lat": 0.0, "lat": 38.94751933333333, "type": "electric_scooter", "lon": -77.029802, "bike_id": "accaff89f6494819e5022cdc1dec63ad", "rental_uris": {"android": "https://dc.lft.to/lastmile_qr_scan", "ios": "https://dc.lft.to/lastmile_qr_scan"}, "name": "accaff89f6494819e5022cdc1dec63ad", "is_reserved": 0}, {"is_disabled": 0, "fusion_lon": 0.0, "fusion_lat": 0.0, "lat": 38.93107716666667, "type": "electric_scooter", "lon": -77.01243316666667, "bike_id": "ac9e5df7f0821705bd6cf6cd35811cf9", "rental_uris": {"android": "https://dc.lft.to/lastmile_qr_scan", "ios": "https://dc.lft.to/lastmile_qr_scan"}, "name": "ac9e5df7f0821705bd6cf6cd35811cf9", "is_reserved": 0}, {"is_disabled": 0, "fusion_lon": 0.0, "fusion_lat": 0.0, "lat": 38.89766633333333, "type": "electric_scooter", "lon": -76.99264533333333, "bike_id": "aeb524638461b3deb226eb060759699a", "rental_uris": {"android": "https://dc.lft.to/lastmile_qr_scan", "ios": "https://dc.lft.to/lastmile_qr_scan"}, "name": "aeb524638461b3deb226eb060759699a", "is_reserved": 0}, {"is_disabled": 0, "fusion_lon": 0.0, "fusion_lat": 0.0, "lat": 38.905012166666666, "type": "electric_scooter", "lon": -77.0497395, "bike_id": "6e424bead72dbaa418d00d721f94dc36", "rental_uris": {"android": "https://dc.lft.to/lastmile_qr_scan", "ios": "https://dc.lft.to/lastmile_qr_scan"}, "name": "6e424bead72dbaa418d00d721f94dc36", "is_reserved": 0}, {"is_disabled": 0, "fusion_lon": 0.0, "fusion_lat": 0.0, "lat": 38.90961866666667, "type": "electric_scooter", "lon": -77.045269, "bike_id": "9203492e6653dc837a9ea2daebd04193", "rental_uris": {"android": "https://dc.lft.to/lastmile_qr_scan", "ios": "https://dc.lft.to/lastmile_qr_scan"}, "name": "9203492e6653dc837a9ea2daebd04193", "is_reserved": 0}, {"is_disabled": 0, "fusion_lon": 0.0, "fusion_lat": 0.0, "lat": 38.92746366666667, "type": "electric_scooter", "lon": -77.02487216666667, "bike_id": "fdc952cbf81dce280c889489687d6937", "rental_uris": {"android": "https://dc.lft.to/lastmile_qr_scan", "ios": "https://dc.lft.to/lastmile_qr_scan"}, "name": "fdc952cbf81dce280c889489687d6937", "is_reserved": 0}, {"is_disabled": 0, "fusion_lon": 0.0, "fusion_lat": 0.0, "lat": 38.907347666666666, "type": "electric_scooter", "lon": -77.03454533333333, "bike_id": "329f6f911c2a8ae0a97bd364bc4cb46c", "rental_uris": {"android": "https://dc.lft.to/lastmile_qr_scan", "ios": "https://dc.lft.to/lastmile_qr_scan"}, "name": "329f6f911c2a8ae0a97bd364bc4cb46c", "is_reserved": 0}, {"is_disabled": 0, "fusion_lon": 0.0, "fusion_lat": 0.0, "lat": 38.8315305, "type": "electric_bike", "lon": -76.99693133333334, "bike_id": "7dc785ed930294e43b738d72b1f666ec", "rental_uris": {"android": "https://dc.lft.to/lastmile_qr_scan", "ios": "https://dc.lft.to/lastmile_qr_scan"}, "name": "7dc785ed930294e43b738d72b1f666ec", "is_reserved": 0}, {"is_disabled": 0, "fusion_lon": 0.0, "fusion_lat": 0.0, "lat": 38.89795616666667, "type": "electric_scooter", "lon": -76.9305115, "bike_id": "65b0ebafa562aec114dea8f9c363059a", "rental_uris": {"android": "https://dc.lft.to/lastmile_qr_scan", "ios": "https://dc.lft.to/lastmile_qr_scan"}, "name": "65b0ebafa562aec114dea8f9c363059a", "is_reserved": 0}, {"is_disabled": 0, "fusion_lon": 0.0, "fusion_lat": 0.0, "lat": 38.915617166666664, "type": "electric_scooter", "lon": -77.01168766666666, "bike_id": "32e69bbf4ed41d843452e1415e72de07", "rental_uris": {"android": "https://dc.lft.to/lastmile_qr_scan", "ios": "https://dc.lft.to/lastmile_qr_scan"}, "name": "32e69bbf4ed41d843452e1415e72de07", "is_reserved": 0}, {"is_disabled": 0, "fusion_lon": 0.0, "fusion_lat": 0.0, "lat": 38.94980133333333, "type": "electric_scooter", "lon": -77.02703616666666, "bike_id": "cfc50dc726d90db292effe4e8adc6886", "rental_uris": {"android": "https://dc.lft.to/lastmile_qr_scan", "ios": "https://dc.lft.to/lastmile_qr_scan"}, "name": "cfc50dc726d90db292effe4e8adc6886", "is_reserved": 0}, {"is_disabled": 0, "fusion_lon": 0.0, "fusion_lat": 0.0, "lat": 38.9881695, "type": "electric_bike", "lon": -77.02655033333333, "bike_id": "ceee62bc07753f06ac27007ba5812243", "rental_uris": {"android": "https://dc.lft.to/lastmile_qr_scan", "ios": "https://dc.lft.to/lastmile_qr_scan"}, "name": "ceee62bc07753f06ac27007ba5812243", "is_reserved": 0}, {"is_disabled": 0, "fusion_lon": 0.0, "fusion_lat": 0.0, "lat": 38.9265935, "type": "electric_scooter", "lon": -77.0230565, "bike_id": "7490baa1a750c203370285c4432643ee", "rental_uris": {"android": "https://dc.lft.to/lastmile_qr_scan", "ios": "https://dc.lft.to/lastmile_qr_scan"}, "name": "7490baa1a750c203370285c4432643ee", "is_reserved": 0}, {"is_disabled": 0, "fusion_lon": 0.0, "fusion_lat": 0.0, "lat": 38.953108666666665, "type": "electric_scooter", "lon": -77.03600033333333, "bike_id": "cb8af7c4d9dff40679e0ac1ffae624fd", "rental_uris": {"android": "https://dc.lft.to/lastmile_qr_scan", "ios": "https://dc.lft.to/lastmile_qr_scan"}, "name": "cb8af7c4d9dff40679e0ac1ffae624fd", "is_reserved": 0}, {"is_disabled": 0, "fusion_lon": 0.0, "fusion_lat": 0.0, "lat": 38.97571683333334, "type": "electric_bike", "lon": -76.9640505, "bike_id": "e10441eff6df4cb9932b51182feeeff0", "rental_uris": {"android": "https://dc.lft.to/lastmile_qr_scan", "ios": "https://dc.lft.to/lastmile_qr_scan"}, "name": "e10441eff6df4cb9932b51182feeeff0", "is_reserved": 0}, {"is_disabled": 0, "fusion_lon": 0.0, "fusion_lat": 0.0, "lat": 38.9077295, "type": "electric_scooter", "lon": -77.03254733333333, "bike_id": "cc9c11c66616f9e3903e70bc368027fd", "rental_uris": {"android": "https://dc.lft.to/lastmile_qr_scan", "ios": "https://dc.lft.to/lastmile_qr_scan"}, "name": "cc9c11c66616f9e3903e70bc368027fd", "is_reserved": 0}, {"is_disabled": 0, "fusion_lon": 0.0, "fusion_lat": 0.0, "lat": 38.8882215, "type": "electric_bike", "lon": -77.12743016666667, "bike_id": "25be6cee722b2d75f532f13a34ba9a65", "rental_uris": {"android": "https://dc.lft.to/lastmile_qr_scan", "ios": "https://dc.lft.to/lastmile_qr_scan"}, "name": "25be6cee722b2d75f532f13a34ba9a65", "is_reserved": 0}, {"is_disabled": 0, "fusion_lon": 0.0, "fusion_lat": 0.0, "lat": 38.908271666666664, "type": "electric_bike", "lon": -76.9415765, "bike_id": "797370378d17b36cb8b09bdeabcdc0db", "rental_uris": {"android": "https://dc.lft.to/lastmile_qr_scan", "ios": "https://dc.lft.to/lastmile_qr_scan"}, "name": "797370378d17b36cb8b09bdeabcdc0db", "is_reserved": 0}, {"is_disabled": 0, "fusion_lon": 0.0, "fusion_lat": 0.0, "lat": 38.887330666666664, "type": "electric_scooter", "lon": -77.02271983333333, "bike_id": "ead946a9883dffad0e98bfb2b6f353aa", "rental_uris": {"android": "https://dc.lft.to/lastmile_qr_scan", "ios": "https://dc.lft.to/lastmile_qr_scan"}, "name": "ead946a9883dffad0e98bfb2b6f353aa", "is_reserved": 0}, {"is_disabled": 0, "fusion_lon": 0.0, "fusion_lat": 0.0, "lat": 38.99089166666667, "type": "electric_bike", "lon": -76.87495833333334, "bike_id": "616d880d7033f9af60513459803869c3", "rental_uris": {"android": "https://dc.lft.to/lastmile_qr_scan", "ios": "https://dc.lft.to/lastmile_qr_scan"}, "name": "616d880d7033f9af60513459803869c3", "is_reserved": 0}, {"is_disabled": 0, "fusion_lon": 0.0, "fusion_lat": 0.0, "lat": 38.89215033333333, "type": "electric_scooter", "lon": -77.03218066666666, "bike_id": "a4233c5123c9695a8edf84b6b6fb9838", "rental_uris": {"android": "https://dc.lft.to/lastmile_qr_scan", "ios": "https://dc.lft.to/lastmile_qr_scan"}, "name": "a4233c5123c9695a8edf84b6b6fb9838", "is_reserved": 0}, {"is_disabled": 0, "fusion_lon": 0.0, "fusion_lat": 0.0, "lat": 38.8896555, "type": "electric_bike", "lon": -76.9486195, "bike_id": "1dcafded01f00daa2b292d321e0e1022", "rental_uris": {"android": "https://dc.lft.to/lastmile_qr_scan", "ios": "https://dc.lft.to/lastmile_qr_scan"}, "name": "1dcafded01f00daa2b292d321e0e1022", "is_reserved": 0}, {"is_disabled": 0, "fusion_lon": 0.0, "fusion_lat": 0.0, "lat": 38.93290233333333, "type": "electric_scooter", "lon": -77.0239035, "bike_id": "3b68c671c052d696ef87217ef92b33ff", "rental_uris": {"android": "https://dc.lft.to/lastmile_qr_scan", "ios": "https://dc.lft.to/lastmile_qr_scan"}, "name": "3b68c671c052d696ef87217ef92b33ff", "is_reserved": 0}, {"is_disabled": 0, "fusion_lon": 0.0, "fusion_lat": 0.0, "lat": 38.91993033333333, "type": "electric_scooter", "lon": -77.03286733333333, "bike_id": "34aefbb21400dbd65c4ba95c3f06f9dc", "rental_uris": {"android": "https://dc.lft.to/lastmile_qr_scan", "ios": "https://dc.lft.to/lastmile_qr_scan"}, "name": "34aefbb21400dbd65c4ba95c3f06f9dc", "is_reserved": 0}, {"is_disabled": 0, "fusion_lon": 0.0, "fusion_lat": 0.0, "lat": 38.846193, "type": "electric_scooter", "lon": -76.99627983333333, "bike_id": "952d7797ab23d92986495aafaa9f4f8e", "rental_uris": {"android": "https://dc.lft.to/lastmile_qr_scan", "ios": "https://dc.lft.to/lastmile_qr_scan"}, "name": "952d7797ab23d92986495aafaa9f4f8e", "is_reserved": 0}, {"is_disabled": 0, "fusion_lon": 0.0, "fusion_lat": 0.0, "lat": 38.9243885, "type": "electric_scooter", "lon": -77.0261145, "bike_id": "1cfba76a11aa5ff128097bb7e3958591", "rental_uris": {"android": "https://dc.lft.to/lastmile_qr_scan", "ios": "https://dc.lft.to/lastmile_qr_scan"}, "name": "1cfba76a11aa5ff128097bb7e3958591", "is_reserved": 0}, {"is_disabled": 0, "fusion_lon": 0.0, "fusion_lat": 0.0, "lat": 38.90724316666667, "type": "electric_scooter", "lon": -77.03440383333333, "bike_id": "47a238194f2d1e0ea94098f6bdb63a64", "rental_uris": {"android": "https://dc.lft.to/lastmile_qr_scan", "ios": "https://dc.lft.to/lastmile_qr_scan"}, "name": "47a238194f2d1e0ea94098f6bdb63a64", "is_reserved": 0}, {"is_disabled": 0, "fusion_lon": 0.0, "fusion_lat": 0.0, "lat": 38.96013833333333, "type": "electric_scooter", "lon": -77.03316666666667, "bike_id": "46e89ce13f19f423fd993281e037f0aa", "rental_uris": {"android": "https://dc.lft.to/lastmile_qr_scan", "ios": "https://dc.lft.to/lastmile_qr_scan"}, "name": "46e89ce13f19f423fd993281e037f0aa", "is_reserved": 0}, {"is_disabled": 0, "fusion_lon": 0.0, "fusion_lat": 0.0, "lat": 38.9276275, "type": "electric_scooter", "lon": -77.0278845, "bike_id": "a7c38d44c903bb6d269307dd9f63cf1c", "rental_uris": {"android": "https://dc.lft.to/lastmile_qr_scan", "ios": "https://dc.lft.to/lastmile_qr_scan"}, "name": "a7c38d44c903bb6d269307dd9f63cf1c", "is_reserved": 0}, {"is_disabled": 0, "fusion_lon": 0.0, "fusion_lat": 0.0, "lat": 38.918047666666666, "type": "electric_scooter", "lon": -77.03135733333333, "bike_id": "9c8bc9c014e97d1615725a407f0e8d44", "rental_uris": {"android": "https://dc.lft.to/lastmile_qr_scan", "ios": "https://dc.lft.to/lastmile_qr_scan"}, "name": "9c8bc9c014e97d1615725a407f0e8d44", "is_reserved": 0}, {"is_disabled": 0, "fusion_lon": 0.0, "fusion_lat": 0.0, "lat": 38.86235533333333, "type": "electric_scooter", "lon": -76.9949265, "bike_id": "289bae685694ee4d4400b53b3e986bb2", "rental_uris": {"android": "https://dc.lft.to/lastmile_qr_scan", "ios": "https://dc.lft.to/lastmile_qr_scan"}, "name": "289bae685694ee4d4400b53b3e986bb2", "is_reserved": 0}, {"is_disabled": 0, "fusion_lon": 0.0, "fusion_lat": 0.0, "lat": 38.909496833333336, "type": "electric_scooter", "lon": -77.02183116666667, "bike_id": "0a7204c4d99efa8b534403c7e46a4ac8", "rental_uris": {"android": "https://dc.lft.to/lastmile_qr_scan", "ios": "https://dc.lft.to/lastmile_qr_scan"}, "name": "0a7204c4d99efa8b534403c7e46a4ac8", "is_reserved": 0}, {"is_disabled": 0, "fusion_lon": 0.0, "fusion_lat": 0.0, "lat": 38.915748666666666, "type": "electric_scooter", "lon": -77.0319305, "bike_id": "4a763754bec1b655d02b3b1f92daf3df", "rental_uris": {"android": "https://dc.lft.to/lastmile_qr_scan", "ios": "https://dc.lft.to/lastmile_qr_scan"}, "name": "4a763754bec1b655d02b3b1f92daf3df", "is_reserved": 0}, {"is_disabled": 0, "fusion_lon": 0.0, "fusion_lat": 0.0, "lat": 38.892172333333335, "type": "electric_scooter", "lon": -77.02624116666667, "bike_id": "fc0668eabf0ad9bf73291eb3ac94e1da", "rental_uris": {"android": "https://dc.lft.to/lastmile_qr_scan", "ios": "https://dc.lft.to/lastmile_qr_scan"}, "name": "fc0668eabf0ad9bf73291eb3ac94e1da", "is_reserved": 0}, {"is_disabled": 0, "fusion_lon": 0.0, "fusion_lat": 0.0, "lat": 38.92092516666666, "type": "electric_scooter", "lon": -77.02592966666667, "bike_id": "d8e507885948908b89b161d82e6654a6", "rental_uris": {"android": "https://dc.lft.to/lastmile_qr_scan", "ios": "https://dc.lft.to/lastmile_qr_scan"}, "name": "d8e507885948908b89b161d82e6654a6", "is_reserved": 0}, {"is_disabled": 0, "fusion_lon": 0.0, "fusion_lat": 0.0, "lat": 38.88448283333334, "type": "electric_scooter", "lon": -76.95097033333333, "bike_id": "a31085c45bb568d42251e5b937d8febc", "rental_uris": {"android": "https://dc.lft.to/lastmile_qr_scan", "ios": "https://dc.lft.to/lastmile_qr_scan"}, "name": "a31085c45bb568d42251e5b937d8febc", "is_reserved": 0}, {"is_disabled": 0, "fusion_lon": 0.0, "fusion_lat": 0.0, "lat": 38.897938333333336, "type": "electric_scooter", "lon": -77.04745866666667, "bike_id": "c5ac2aa3dae29a8712796b7a5578aa7d", "rental_uris": {"android": "https://dc.lft.to/lastmile_qr_scan", "ios": "https://dc.lft.to/lastmile_qr_scan"}, "name": "c5ac2aa3dae29a8712796b7a5578aa7d", "is_reserved": 0}, {"is_disabled": 0, "fusion_lon": 0.0, "fusion_lat": 0.0, "lat": 38.911713166666665, "type": "electric_scooter", "lon": -77.004483, "bike_id": "c36eee40130de484365752651f93d131", "rental_uris": {"android": "https://dc.lft.to/lastmile_qr_scan", "ios": "https://dc.lft.to/lastmile_qr_scan"}, "name": "c36eee40130de484365752651f93d131", "is_reserved": 0}, {"is_disabled": 0, "fusion_lon": 0.0, "fusion_lat": 0.0, "lat": 38.899265, "type": "electric_scooter", "lon": -77.0198225, "bike_id": "25898d41aea72116817845f251aa9b88", "rental_uris": {"android": "https://dc.lft.to/lastmile_qr_scan", "ios": "https://dc.lft.to/lastmile_qr_scan"}, "name": "25898d41aea72116817845f251aa9b88", "is_reserved": 0}, {"is_disabled": 0, "fusion_lon": 0.0, "fusion_lat": 0.0, "lat": 38.89221233333333, "type": "electric_scooter", "lon": -77.04692083333333, "bike_id": "7003008e4a5b8ec56af12e5789bbc005", "rental_uris": {"android": "https://dc.lft.to/lastmile_qr_scan", "ios": "https://dc.lft.to/lastmile_qr_scan"}, "name": "7003008e4a5b8ec56af12e5789bbc005", "is_reserved": 0}, {"is_disabled": 0, "fusion_lon": 0.0, "fusion_lat": 0.0, "lat": 38.92347483333333, "type": "electric_scooter", "lon": -77.03904833333333, "bike_id": "b3bff38ed0ed3a082d646531d59bcd75", "rental_uris": {"android": "https://dc.lft.to/lastmile_qr_scan", "ios": "https://dc.lft.to/lastmile_qr_scan"}, "name": "b3bff38ed0ed3a082d646531d59bcd75", "is_reserved": 0}, {"is_disabled": 0, "fusion_lon": 0.0, "fusion_lat": 0.0, "lat": 38.934117, "type": "electric_scooter", "lon": -77.04268733333333, "bike_id": "3c1efdfae1f050d74eebab69665478c6", "rental_uris": {"android": "https://dc.lft.to/lastmile_qr_scan", "ios": "https://dc.lft.to/lastmile_qr_scan"}, "name": "3c1efdfae1f050d74eebab69665478c6", "is_reserved": 0}, {"is_disabled": 0, "fusion_lon": 0.0, "fusion_lat": 0.0, "lat": 38.905736833333336, "type": "electric_scooter", "lon": -77.04350733333334, "bike_id": "e5d722693c2a78bd1faab1f2b30ec71a", "rental_uris": {"android": "https://dc.lft.to/lastmile_qr_scan", "ios": "https://dc.lft.to/lastmile_qr_scan"}, "name": "e5d722693c2a78bd1faab1f2b30ec71a", "is_reserved": 0}, {"is_disabled": 0, "fusion_lon": 0.0, "fusion_lat": 0.0, "lat": 38.8938915, "type": "electric_scooter", "lon": -76.94994433333333, "bike_id": "7154b565c3882c13f1c2dc7e148fccf1", "rental_uris": {"android": "https://dc.lft.to/lastmile_qr_scan", "ios": "https://dc.lft.to/lastmile_qr_scan"}, "name": "7154b565c3882c13f1c2dc7e148fccf1", "is_reserved": 0}, {"is_disabled": 0, "fusion_lon": 0.0, "fusion_lat": 0.0, "lat": 38.83509266666667, "type": "electric_scooter", "lon": -77.02498233333333, "bike_id": "2aba5b02da642d10b27e9ed6594862f4", "rental_uris": {"android": "https://dc.lft.to/lastmile_qr_scan", "ios": "https://dc.lft.to/lastmile_qr_scan"}, "name": "2aba5b02da642d10b27e9ed6594862f4", "is_reserved": 0}, {"is_disabled": 0, "fusion_lon": 0.0, "fusion_lat": 0.0, "lat": 38.9119025, "type": "electric_scooter", "lon": -77.03709266666667, "bike_id": "1cddd4a313ed6889590f4df17d6b654a", "rental_uris": {"android": "https://dc.lft.to/lastmile_qr_scan", "ios": "https://dc.lft.to/lastmile_qr_scan"}, "name": "1cddd4a313ed6889590f4df17d6b654a", "is_reserved": 0}, {"is_disabled": 0, "fusion_lon": 0.0, "fusion_lat": 0.0, "lat": 38.912435, "type": "electric_scooter", "lon": -77.03676283333333, "bike_id": "a6b1502fb3a67660f6ef07f2f7ee80e8", "rental_uris": {"android": "https://dc.lft.to/lastmile_qr_scan", "ios": "https://dc.lft.to/lastmile_qr_scan"}, "name": "a6b1502fb3a67660f6ef07f2f7ee80e8", "is_reserved": 0}, {"is_disabled": 0, "fusion_lon": 0.0, "fusion_lat": 0.0, "lat": 38.920817, "type": "electric_scooter", "lon": -77.02297783333333, "bike_id": "a0c4166ea1bb925c7c07a3b25925562f", "rental_uris": {"android": "https://dc.lft.to/lastmile_qr_scan", "ios": "https://dc.lft.to/lastmile_qr_scan"}, "name": "a0c4166ea1bb925c7c07a3b25925562f", "is_reserved": 0}, {"is_disabled": 0, "fusion_lon": 0.0, "fusion_lat": 0.0, "lat": 38.90572866666667, "type": "electric_scooter", "lon": -77.02173133333334, "bike_id": "2e05c7b48342fb87f1614541ca8813ef", "rental_uris": {"android": "https://dc.lft.to/lastmile_qr_scan", "ios": "https://dc.lft.to/lastmile_qr_scan"}, "name": "2e05c7b48342fb87f1614541ca8813ef", "is_reserved": 0}, {"is_disabled": 0, "fusion_lon": 0.0, "fusion_lat": 0.0, "lat": 38.87896416666667, "type": "electric_scooter", "lon": -76.9352135, "bike_id": "5441ea80a95e06690937e4e65d6d61f5", "rental_uris": {"android": "https://dc.lft.to/lastmile_qr_scan", "ios": "https://dc.lft.to/lastmile_qr_scan"}, "name": "5441ea80a95e06690937e4e65d6d61f5", "is_reserved": 0}, {"is_disabled": 0, "fusion_lon": 0.0, "fusion_lat": 0.0, "lat": 38.93601366666667, "type": "electric_scooter", "lon": -77.05858616666667, "bike_id": "195d7c2f2fb4fe935eadfe3d0c38afb2", "rental_uris": {"android": "https://dc.lft.to/lastmile_qr_scan", "ios": "https://dc.lft.to/lastmile_qr_scan"}, "name": "195d7c2f2fb4fe935eadfe3d0c38afb2", "is_reserved": 0}, {"is_disabled": 0, "fusion_lon": 0.0, "fusion_lat": 0.0, "lat": 38.8921965, "type": "electric_scooter", "lon": -77.0469455, "bike_id": "8cd24561eb6bf2ff752f3fa73be290f0", "rental_uris": {"android": "https://dc.lft.to/lastmile_qr_scan", "ios": "https://dc.lft.to/lastmile_qr_scan"}, "name": "8cd24561eb6bf2ff752f3fa73be290f0", "is_reserved": 0}, {"is_disabled": 0, "fusion_lon": 0.0, "fusion_lat": 0.0, "lat": 38.923333666666664, "type": "electric_scooter", "lon": -77.04188983333333, "bike_id": "c192a3b84e1a6abf746dae3eec276cee", "rental_uris": {"android": "https://dc.lft.to/lastmile_qr_scan", "ios": "https://dc.lft.to/lastmile_qr_scan"}, "name": "c192a3b84e1a6abf746dae3eec276cee", "is_reserved": 0}, {"is_disabled": 0, "fusion_lon": 0.0, "fusion_lat": 0.0, "lat": 38.90059683333333, "type": "electric_scooter", "lon": -76.93386616666666, "bike_id": "b45f7bb7ae63c48b29f8c246d4d325ce", "rental_uris": {"android": "https://dc.lft.to/lastmile_qr_scan", "ios": "https://dc.lft.to/lastmile_qr_scan"}, "name": "b45f7bb7ae63c48b29f8c246d4d325ce", "is_reserved": 0}, {"is_disabled": 0, "fusion_lon": 0.0, "fusion_lat": 0.0, "lat": 38.931314, "type": "electric_scooter", "lon": -77.0572665, "bike_id": "b40397f97574fac08eff71aa5b1b3343", "rental_uris": {"android": "https://dc.lft.to/lastmile_qr_scan", "ios": "https://dc.lft.to/lastmile_qr_scan"}, "name": "b40397f97574fac08eff71aa5b1b3343", "is_reserved": 0}, {"is_disabled": 0, "fusion_lon": 0.0, "fusion_lat": 0.0, "lat": 38.903654833333334, "type": "electric_scooter", "lon": -77.01739166666667, "bike_id": "7eb979bee66e73d3ae258496f9248a30", "rental_uris": {"android": "https://dc.lft.to/lastmile_qr_scan", "ios": "https://dc.lft.to/lastmile_qr_scan"}, "name": "7eb979bee66e73d3ae258496f9248a30", "is_reserved": 0}, {"is_disabled": 0, "fusion_lon": 0.0, "fusion_lat": 0.0, "lat": 38.8922565, "type": "electric_scooter", "lon": -77.033364, "bike_id": "687cee729bb6fcbb1b6dd3789b10fdbd", "rental_uris": {"android": "https://dc.lft.to/lastmile_qr_scan", "ios": "https://dc.lft.to/lastmile_qr_scan"}, "name": "687cee729bb6fcbb1b6dd3789b10fdbd", "is_reserved": 0}, {"is_disabled": 0, "fusion_lon": 0.0, "fusion_lat": 0.0, "lat": 38.94173833333333, "type": "electric_scooter", "lon": -77.023873, "bike_id": "910a5d93e88f0a531c97b40bb8fa727b", "rental_uris": {"android": "https://dc.lft.to/lastmile_qr_scan", "ios": "https://dc.lft.to/lastmile_qr_scan"}, "name": "910a5d93e88f0a531c97b40bb8fa727b", "is_reserved": 0}, {"is_disabled": 0, "fusion_lon": 0.0, "fusion_lat": 0.0, "lat": 38.928783833333334, "type": "electric_scooter", "lon": -77.02708916666667, "bike_id": "79832181b365c08e484710b06450222c", "rental_uris": {"android": "https://dc.lft.to/lastmile_qr_scan", "ios": "https://dc.lft.to/lastmile_qr_scan"}, "name": "79832181b365c08e484710b06450222c", "is_reserved": 0}, {"is_disabled": 0, "fusion_lon": 0.0, "fusion_lat": 0.0, "lat": 38.944560333333335, "type": "electric_scooter", "lon": -77.00658416666667, "bike_id": "0dc876d868fe3ad7e775c77aabe5478b", "rental_uris": {"android": "https://dc.lft.to/lastmile_qr_scan", "ios": "https://dc.lft.to/lastmile_qr_scan"}, "name": "0dc876d868fe3ad7e775c77aabe5478b", "is_reserved": 0}, {"is_disabled": 0, "fusion_lon": 0.0, "fusion_lat": 0.0, "lat": 38.92052666666667, "type": "electric_scooter", "lon": -77.03392866666667, "bike_id": "4da9699f449eb81686a19f2d8d134ef9", "rental_uris": {"android": "https://dc.lft.to/lastmile_qr_scan", "ios": "https://dc.lft.to/lastmile_qr_scan"}, "name": "4da9699f449eb81686a19f2d8d134ef9", "is_reserved": 0}, {"is_disabled": 0, "fusion_lon": 0.0, "fusion_lat": 0.0, "lat": 38.88986933333333, "type": "electric_scooter", "lon": -77.00172166666667, "bike_id": "6b4f974a263db93a2a73c9d5a6cc1e2b", "rental_uris": {"android": "https://dc.lft.to/lastmile_qr_scan", "ios": "https://dc.lft.to/lastmile_qr_scan"}, "name": "6b4f974a263db93a2a73c9d5a6cc1e2b", "is_reserved": 0}, {"is_disabled": 0, "fusion_lon": 0.0, "fusion_lat": 0.0, "lat": 38.900421, "type": "electric_scooter", "lon": -77.01231666666666, "bike_id": "b0a4df8b90520d67e92b744bf7e15a37", "rental_uris": {"android": "https://dc.lft.to/lastmile_qr_scan", "ios": "https://dc.lft.to/lastmile_qr_scan"}, "name": "b0a4df8b90520d67e92b744bf7e15a37", "is_reserved": 0}, {"is_disabled": 0, "fusion_lon": 0.0, "fusion_lat": 0.0, "lat": 38.83375683333333, "type": "electric_scooter", "lon": -76.9928945, "bike_id": "495f2d824fa4c548a3b15e1525b80758", "rental_uris": {"android": "https://dc.lft.to/lastmile_qr_scan", "ios": "https://dc.lft.to/lastmile_qr_scan"}, "name": "495f2d824fa4c548a3b15e1525b80758", "is_reserved": 0}, {"is_disabled": 0, "fusion_lon": 0.0, "fusion_lat": 0.0, "lat": 38.924575833333336, "type": "electric_scooter", "lon": -77.0403725, "bike_id": "25bf729c291280aa68ddc647be4a8b02", "rental_uris": {"android": "https://dc.lft.to/lastmile_qr_scan", "ios": "https://dc.lft.to/lastmile_qr_scan"}, "name": "25bf729c291280aa68ddc647be4a8b02", "is_reserved": 0}, {"is_disabled": 0, "fusion_lon": 0.0, "fusion_lat": 0.0, "lat": 38.923325, "type": "electric_scooter", "lon": -77.05681016666666, "bike_id": "afaf83c93f679c6b5c09567deec17d38", "rental_uris": {"android": "https://dc.lft.to/lastmile_qr_scan", "ios": "https://dc.lft.to/lastmile_qr_scan"}, "name": "afaf83c93f679c6b5c09567deec17d38", "is_reserved": 0}, {"is_disabled": 0, "fusion_lon": 0.0, "fusion_lat": 0.0, "lat": 38.9191555, "type": "electric_scooter", "lon": -77.017598, "bike_id": "f92bb94450a682ea4bcf359218cf0d77", "rental_uris": {"android": "https://dc.lft.to/lastmile_qr_scan", "ios": "https://dc.lft.to/lastmile_qr_scan"}, "name": "f92bb94450a682ea4bcf359218cf0d77", "is_reserved": 0}, {"is_disabled": 0, "fusion_lon": 0.0, "fusion_lat": 0.0, "lat": 38.951741, "type": "electric_scooter", "lon": -77.03332283333333, "bike_id": "aa8db890f154df3a8fdea8287665964f", "rental_uris": {"android": "https://dc.lft.to/lastmile_qr_scan", "ios": "https://dc.lft.to/lastmile_qr_scan"}, "name": "aa8db890f154df3a8fdea8287665964f", "is_reserved": 0}, {"is_disabled": 0, "fusion_lon": 0.0, "fusion_lat": 0.0, "lat": 38.912971166666665, "type": "electric_scooter", "lon": -77.00850583333333, "bike_id": "c51f5009340384f333faec6ee6ec9d9f", "rental_uris": {"android": "https://dc.lft.to/lastmile_qr_scan", "ios": "https://dc.lft.to/lastmile_qr_scan"}, "name": "c51f5009340384f333faec6ee6ec9d9f", "is_reserved": 0}, {"is_disabled": 0, "fusion_lon": 0.0, "fusion_lat": 0.0, "lat": 38.91267916666666, "type": "electric_scooter", "lon": -77.03366016666666, "bike_id": "b531a31a8da57e1dd7187de8ec21528a", "rental_uris": {"android": "https://dc.lft.to/lastmile_qr_scan", "ios": "https://dc.lft.to/lastmile_qr_scan"}, "name": "b531a31a8da57e1dd7187de8ec21528a", "is_reserved": 0}, {"is_disabled": 0, "fusion_lon": 0.0, "fusion_lat": 0.0, "lat": 38.966167, "type": "electric_scooter", "lon": -77.0352865, "bike_id": "e1c312ca7f72029ff8dc76f24fcf4c65", "rental_uris": {"android": "https://dc.lft.to/lastmile_qr_scan", "ios": "https://dc.lft.to/lastmile_qr_scan"}, "name": "e1c312ca7f72029ff8dc76f24fcf4c65", "is_reserved": 0}, {"is_disabled": 0, "fusion_lon": 0.0, "fusion_lat": 0.0, "lat": 38.91464666666667, "type": "electric_scooter", "lon": -77.038523, "bike_id": "0f3237331f2d086eb746a792b943e399", "rental_uris": {"android": "https://dc.lft.to/lastmile_qr_scan", "ios": "https://dc.lft.to/lastmile_qr_scan"}, "name": "0f3237331f2d086eb746a792b943e399", "is_reserved": 0}, {"is_disabled": 0, "fusion_lon": 0.0, "fusion_lat": 0.0, "lat": 38.91708333333333, "type": "electric_scooter", "lon": -77.0367195, "bike_id": "c0795c70d4cf8ae6909066b200cca474", "rental_uris": {"android": "https://dc.lft.to/lastmile_qr_scan", "ios": "https://dc.lft.to/lastmile_qr_scan"}, "name": "c0795c70d4cf8ae6909066b200cca474", "is_reserved": 0}, {"is_disabled": 0, "fusion_lon": 0.0, "fusion_lat": 0.0, "lat": 38.929675333333336, "type": "electric_scooter", "lon": -77.0419815, "bike_id": "2b2b70523b4a56ef895c31b85614de28", "rental_uris": {"android": "https://dc.lft.to/lastmile_qr_scan", "ios": "https://dc.lft.to/lastmile_qr_scan"}, "name": "2b2b70523b4a56ef895c31b85614de28", "is_reserved": 0}, {"is_disabled": 0, "fusion_lon": 0.0, "fusion_lat": 0.0, "lat": 38.946164833333334, "type": "electric_scooter", "lon": -77.03625366666667, "bike_id": "078489a29814ed19ce839a8dfe088e84", "rental_uris": {"android": "https://dc.lft.to/lastmile_qr_scan", "ios": "https://dc.lft.to/lastmile_qr_scan"}, "name": "078489a29814ed19ce839a8dfe088e84", "is_reserved": 0}, {"is_disabled": 0, "fusion_lon": 0.0, "fusion_lat": 0.0, "lat": 38.9281755, "type": "electric_scooter", "lon": -77.04339016666667, "bike_id": "3c2da9037041e76883f49609443bf4cd", "rental_uris": {"android": "https://dc.lft.to/lastmile_qr_scan", "ios": "https://dc.lft.to/lastmile_qr_scan"}, "name": "3c2da9037041e76883f49609443bf4cd", "is_reserved": 0}, {"is_disabled": 0, "fusion_lon": 0.0, "fusion_lat": 0.0, "lat": 38.927189, "type": "electric_scooter", "lon": -77.01598916666667, "bike_id": "c111dd871137696cda4f187fa4875b01", "rental_uris": {"android": "https://dc.lft.to/lastmile_qr_scan", "ios": "https://dc.lft.to/lastmile_qr_scan"}, "name": "c111dd871137696cda4f187fa4875b01", "is_reserved": 0}, {"is_disabled": 0, "fusion_lon": 0.0, "fusion_lat": 0.0, "lat": 38.90967833333333, "type": "electric_scooter", "lon": -77.03866583333334, "bike_id": "e8b35ae23038c782dba8fd24a9134586", "rental_uris": {"android": "https://dc.lft.to/lastmile_qr_scan", "ios": "https://dc.lft.to/lastmile_qr_scan"}, "name": "e8b35ae23038c782dba8fd24a9134586", "is_reserved": 0}, {"is_disabled": 0, "fusion_lon": 0.0, "fusion_lat": 0.0, "lat": 38.92262633333333, "type": "electric_scooter", "lon": -77.04287233333334, "bike_id": "6922b608614d987ee552db2841c0661a", "rental_uris": {"android": "https://dc.lft.to/lastmile_qr_scan", "ios": "https://dc.lft.to/lastmile_qr_scan"}, "name": "6922b608614d987ee552db2841c0661a", "is_reserved": 0}, {"is_disabled": 0, "fusion_lon": 0.0, "fusion_lat": 0.0, "lat": 38.933572, "type": "electric_scooter", "lon": -77.07376366666666, "bike_id": "8de41b6f611eaab6b18df558dbdffc47", "rental_uris": {"android": "https://dc.lft.to/lastmile_qr_scan", "ios": "https://dc.lft.to/lastmile_qr_scan"}, "name": "8de41b6f611eaab6b18df558dbdffc47", "is_reserved": 0}, {"is_disabled": 0, "fusion_lon": 0.0, "fusion_lat": 0.0, "lat": 38.875165, "type": "electric_scooter", "lon": -77.0137345, "bike_id": "ecd6377b030454c48dab3577a8b702e1", "rental_uris": {"android": "https://dc.lft.to/lastmile_qr_scan", "ios": "https://dc.lft.to/lastmile_qr_scan"}, "name": "ecd6377b030454c48dab3577a8b702e1", "is_reserved": 0}, {"is_disabled": 0, "fusion_lon": 0.0, "fusion_lat": 0.0, "lat": 38.996674166666665, "type": "electric_bike", "lon": -76.991482, "bike_id": "f247e63e8e6162c79b51de44075a1f48", "rental_uris": {"android": "https://dc.lft.to/lastmile_qr_scan", "ios": "https://dc.lft.to/lastmile_qr_scan"}, "name": "f247e63e8e6162c79b51de44075a1f48", "is_reserved": 0}, {"is_disabled": 0, "fusion_lon": 0.0, "fusion_lat": 0.0, "lat": 38.903558, "type": "electric_scooter", "lon": -77.01117533333333, "bike_id": "c4d1faf1c2dc985eba9fd2e1000755ba", "rental_uris": {"android": "https://dc.lft.to/lastmile_qr_scan", "ios": "https://dc.lft.to/lastmile_qr_scan"}, "name": "c4d1faf1c2dc985eba9fd2e1000755ba", "is_reserved": 0}, {"is_disabled": 0, "fusion_lon": 0.0, "fusion_lat": 0.0, "lat": 38.89670316666667, "type": "electric_scooter", "lon": -77.04348866666666, "bike_id": "913dd69222410f8f30963690d9e85771", "rental_uris": {"android": "https://dc.lft.to/lastmile_qr_scan", "ios": "https://dc.lft.to/lastmile_qr_scan"}, "name": "913dd69222410f8f30963690d9e85771", "is_reserved": 0}, {"is_disabled": 0, "fusion_lon": 0.0, "fusion_lat": 0.0, "lat": 38.94460133333333, "type": "electric_scooter", "lon": -77.06018516666667, "bike_id": "0e41699352e2108c419a3e62155274a8", "rental_uris": {"android": "https://dc.lft.to/lastmile_qr_scan", "ios": "https://dc.lft.to/lastmile_qr_scan"}, "name": "0e41699352e2108c419a3e62155274a8", "is_reserved": 0}, {"is_disabled": 0, "fusion_lon": 0.0, "fusion_lat": 0.0, "lat": 38.9262485, "type": "electric_scooter", "lon": -77.04188516666666, "bike_id": "c00747c8cb0354b00b18b01efce4f803", "rental_uris": {"android": "https://dc.lft.to/lastmile_qr_scan", "ios": "https://dc.lft.to/lastmile_qr_scan"}, "name": "c00747c8cb0354b00b18b01efce4f803", "is_reserved": 0}, {"is_disabled": 0, "fusion_lon": 0.0, "fusion_lat": 0.0, "lat": 38.90729566666667, "type": "electric_scooter", "lon": -77.03203816666667, "bike_id": "85591b7722f4492cd30f70c4f913815d", "rental_uris": {"android": "https://dc.lft.to/lastmile_qr_scan", "ios": "https://dc.lft.to/lastmile_qr_scan"}, "name": "85591b7722f4492cd30f70c4f913815d", "is_reserved": 0}, {"is_disabled": 0, "fusion_lon": 0.0, "fusion_lat": 0.0, "lat": 38.89633766666667, "type": "electric_scooter", "lon": -77.02601166666666, "bike_id": "7085bbe24d56cd2a4b1250a02a93f54d", "rental_uris": {"android": "https://dc.lft.to/lastmile_qr_scan", "ios": "https://dc.lft.to/lastmile_qr_scan"}, "name": "7085bbe24d56cd2a4b1250a02a93f54d", "is_reserved": 0}, {"is_disabled": 0, "fusion_lon": 0.0, "fusion_lat": 0.0, "lat": 38.91778683333333, "type": "electric_scooter", "lon": -77.04299133333333, "bike_id": "a567f226290fa65206f84c1a525c6793", "rental_uris": {"android": "https://dc.lft.to/lastmile_qr_scan", "ios": "https://dc.lft.to/lastmile_qr_scan"}, "name": "a567f226290fa65206f84c1a525c6793", "is_reserved": 0}, {"is_disabled": 0, "fusion_lon": 0.0, "fusion_lat": 0.0, "lat": 38.919027166666666, "type": "electric_scooter", "lon": -77.027569, "bike_id": "f65a2bda10d63e46a77b24f5d56fc590", "rental_uris": {"android": "https://dc.lft.to/lastmile_qr_scan", "ios": "https://dc.lft.to/lastmile_qr_scan"}, "name": "f65a2bda10d63e46a77b24f5d56fc590", "is_reserved": 0}, {"is_disabled": 0, "fusion_lon": 0.0, "fusion_lat": 0.0, "lat": 38.87344616666667, "type": "electric_scooter", "lon": -77.01740333333333, "bike_id": "559a1bcbe49a8ee72c4697bdd1326714", "rental_uris": {"android": "https://dc.lft.to/lastmile_qr_scan", "ios": "https://dc.lft.to/lastmile_qr_scan"}, "name": "559a1bcbe49a8ee72c4697bdd1326714", "is_reserved": 0}, {"is_disabled": 0, "fusion_lon": 0.0, "fusion_lat": 0.0, "lat": 38.90848166666667, "type": "electric_scooter", "lon": -77.0607835, "bike_id": "0864a1677c8e78bd848cfd7792aadf7a", "rental_uris": {"android": "https://dc.lft.to/lastmile_qr_scan", "ios": "https://dc.lft.to/lastmile_qr_scan"}, "name": "0864a1677c8e78bd848cfd7792aadf7a", "is_reserved": 0}, {"is_disabled": 0, "fusion_lon": 0.0, "fusion_lat": 0.0, "lat": 38.90276583333333, "type": "electric_scooter", "lon": -77.03844233333334, "bike_id": "f476dbe52ef2ef4a804f2a8f83de57e2", "rental_uris": {"android": "https://dc.lft.to/lastmile_qr_scan", "ios": "https://dc.lft.to/lastmile_qr_scan"}, "name": "f476dbe52ef2ef4a804f2a8f83de57e2", "is_reserved": 0}, {"is_disabled": 0, "fusion_lon": 0.0, "fusion_lat": 0.0, "lat": 38.91600916666667, "type": "electric_scooter", "lon": -77.04603766666666, "bike_id": "ca27256830d35a8b79f536dc75eccfa9", "rental_uris": {"android": "https://dc.lft.to/lastmile_qr_scan", "ios": "https://dc.lft.to/lastmile_qr_scan"}, "name": "ca27256830d35a8b79f536dc75eccfa9", "is_reserved": 0}, {"is_disabled": 0, "fusion_lon": 0.0, "fusion_lat": 0.0, "lat": 38.9363185, "type": "electric_scooter", "lon": -77.0269615, "bike_id": "5892f8cfed3acadf0fad2255519023f9", "rental_uris": {"android": "https://dc.lft.to/lastmile_qr_scan", "ios": "https://dc.lft.to/lastmile_qr_scan"}, "name": "5892f8cfed3acadf0fad2255519023f9", "is_reserved": 0}, {"is_disabled": 0, "fusion_lon": 0.0, "fusion_lat": 0.0, "lat": 38.89753966666667, "type": "electric_scooter", "lon": -77.05127616666667, "bike_id": "94ae12c924b403d452ee464d15abb428", "rental_uris": {"android": "https://dc.lft.to/lastmile_qr_scan", "ios": "https://dc.lft.to/lastmile_qr_scan"}, "name": "94ae12c924b403d452ee464d15abb428", "is_reserved": 0}, {"is_disabled": 0, "fusion_lon": 0.0, "fusion_lat": 0.0, "lat": 38.89907766666666, "type": "electric_bike", "lon": -76.9857575, "bike_id": "376b56be8296a6df951e5a63beff0181", "rental_uris": {"android": "https://dc.lft.to/lastmile_qr_scan", "ios": "https://dc.lft.to/lastmile_qr_scan"}, "name": "376b56be8296a6df951e5a63beff0181", "is_reserved": 0}, {"is_disabled": 0, "fusion_lon": 0.0, "fusion_lat": 0.0, "lat": 38.93523066666667, "type": "electric_scooter", "lon": -77.06635716666666, "bike_id": "a83148e80f10a15f9c5436640b21307a", "rental_uris": {"android": "https://dc.lft.to/lastmile_qr_scan", "ios": "https://dc.lft.to/lastmile_qr_scan"}, "name": "a83148e80f10a15f9c5436640b21307a", "is_reserved": 0}, {"is_disabled": 0, "fusion_lon": 0.0, "fusion_lat": 0.0, "lat": 38.93080333333333, "type": "electric_scooter", "lon": -77.0362895, "bike_id": "53c4c77e11af846444ffbb5c6f7e6ee9", "rental_uris": {"android": "https://dc.lft.to/lastmile_qr_scan", "ios": "https://dc.lft.to/lastmile_qr_scan"}, "name": "53c4c77e11af846444ffbb5c6f7e6ee9", "is_reserved": 0}, {"is_disabled": 0, "fusion_lon": 0.0, "fusion_lat": 0.0, "lat": 38.911195166666666, "type": "electric_scooter", "lon": -77.0447215, "bike_id": "58de8a2432c827160453ee6817d14543", "rental_uris": {"android": "https://dc.lft.to/lastmile_qr_scan", "ios": "https://dc.lft.to/lastmile_qr_scan"}, "name": "58de8a2432c827160453ee6817d14543", "is_reserved": 0}, {"is_disabled": 0, "fusion_lon": 0.0, "fusion_lat": 0.0, "lat": 38.892513666666666, "type": "electric_scooter", "lon": -76.99847883333334, "bike_id": "dc522373e59e1df1ce781dc1c25285d6", "rental_uris": {"android": "https://dc.lft.to/lastmile_qr_scan", "ios": "https://dc.lft.to/lastmile_qr_scan"}, "name": "dc522373e59e1df1ce781dc1c25285d6", "is_reserved": 0}, {"is_disabled": 0, "fusion_lon": 0.0, "fusion_lat": 0.0, "lat": 38.91643916666666, "type": "electric_scooter", "lon": -76.9822795, "bike_id": "5ad99d26b87635f26c977c76a2f88865", "rental_uris": {"android": "https://dc.lft.to/lastmile_qr_scan", "ios": "https://dc.lft.to/lastmile_qr_scan"}, "name": "5ad99d26b87635f26c977c76a2f88865", "is_reserved": 0}, {"is_disabled": 0, "fusion_lon": 0.0, "fusion_lat": 0.0, "lat": 38.926896166666666, "type": "electric_scooter", "lon": -77.0377235, "bike_id": "3b0dba57438d836c9b1719a4624d2b38", "rental_uris": {"android": "https://dc.lft.to/lastmile_qr_scan", "ios": "https://dc.lft.to/lastmile_qr_scan"}, "name": "3b0dba57438d836c9b1719a4624d2b38", "is_reserved": 0}, {"is_disabled": 0, "fusion_lon": 0.0, "fusion_lat": 0.0, "lat": 38.897553333333335, "type": "electric_scooter", "lon": -77.05135433333334, "bike_id": "bb9db87c2ef07b3e2b88fa4270670c98", "rental_uris": {"android": "https://dc.lft.to/lastmile_qr_scan", "ios": "https://dc.lft.to/lastmile_qr_scan"}, "name": "bb9db87c2ef07b3e2b88fa4270670c98", "is_reserved": 0}, {"is_disabled": 0, "fusion_lon": 0.0, "fusion_lat": 0.0, "lat": 38.91420866666667, "type": "electric_scooter", "lon": -77.01422433333333, "bike_id": "6c23c5b513c7fc24aca6d3e8325a3411", "rental_uris": {"android": "https://dc.lft.to/lastmile_qr_scan", "ios": "https://dc.lft.to/lastmile_qr_scan"}, "name": "6c23c5b513c7fc24aca6d3e8325a3411", "is_reserved": 0}, {"is_disabled": 0, "fusion_lon": 0.0, "fusion_lat": 0.0, "lat": 38.85209583333334, "type": "electric_bike", "lon": -77.12748316666666, "bike_id": "5f5c58e318c1a4660c39de200901f655", "rental_uris": {"android": "https://dc.lft.to/lastmile_qr_scan", "ios": "https://dc.lft.to/lastmile_qr_scan"}, "name": "5f5c58e318c1a4660c39de200901f655", "is_reserved": 0}, {"is_disabled": 0, "fusion_lon": 0.0, "fusion_lat": 0.0, "lat": 38.865949, "type": "electric_bike", "lon": -76.932273, "bike_id": "4b5837d7d8c41a1c175ec0c9cee47964", "rental_uris": {"android": "https://dc.lft.to/lastmile_qr_scan", "ios": "https://dc.lft.to/lastmile_qr_scan"}, "name": "4b5837d7d8c41a1c175ec0c9cee47964", "is_reserved": 0}, {"is_disabled": 0, "fusion_lon": 0.0, "fusion_lat": 0.0, "lat": 38.9110815, "type": "electric_scooter", "lon": -77.0450455, "bike_id": "13f8e2b00f5ec0e39acbd896e48bcf71", "rental_uris": {"android": "https://dc.lft.to/lastmile_qr_scan", "ios": "https://dc.lft.to/lastmile_qr_scan"}, "name": "13f8e2b00f5ec0e39acbd896e48bcf71", "is_reserved": 0}, {"is_disabled": 0, "fusion_lon": 0.0, "fusion_lat": 0.0, "lat": 38.944941, "type": "electric_bike", "lon": -77.006822, "bike_id": "a222085aded6be2662d48c5df492d4fc", "rental_uris": {"android": "https://dc.lft.to/lastmile_qr_scan", "ios": "https://dc.lft.to/lastmile_qr_scan"}, "name": "a222085aded6be2662d48c5df492d4fc", "is_reserved": 0}, {"is_disabled": 0, "fusion_lon": 0.0, "fusion_lat": 0.0, "lat": 38.905748833333334, "type": "electric_scooter", "lon": -77.0260065, "bike_id": "bd8f69666ad0c35c78895d6d7bf17495", "rental_uris": {"android": "https://dc.lft.to/lastmile_qr_scan", "ios": "https://dc.lft.to/lastmile_qr_scan"},