{"data": {"bikes": [{"fusion_lat": 0.0, "lon": -76.99033333333334, "is_reserved": 0, "bike_id": "58b25a74d08de2e7d76701ebb11d51d7", "fusion_lon": 0.0, "rental_uris": {"android": "https://dc.lft.to/lastmile_qr_scan", "ios": "https://dc.lft.to/lastmile_qr_scan"}, "name": "58b25a74d08de2e7d76701ebb11d51d7", "type": "electric_scooter", "lat": 38.898546, "is_disabled": 0}, {"fusion_lat": 0.0, "lon": -77.0239185, "is_reserved": 0, "bike_id": "810391cedf4e0fa99460ccab4d55b1ff", "fusion_lon": 0.0, "rental_uris": {"android": "https://dc.lft.to/lastmile_qr_scan", "ios": "https://dc.lft.to/lastmile_qr_scan"}, "name": "810391cedf4e0fa99460ccab4d55b1ff", "type": "electric_scooter", "lat": 38.92599383333334, "is_disabled": 0}, {"fusion_lat": 0.0, "lon": -77.0023925, "is_reserved": 0, "bike_id": "d0dac165c0b1c0d2c005d4a6f374e316", "fusion_lon": 0.0, "rental_uris": {"android": "https://dc.lft.to/lastmile_qr_scan", "ios": "https://dc.lft.to/lastmile_qr_scan"}, "name": "d0dac165c0b1c0d2c005d4a6f374e316", "type": "electric_scooter", "lat": 38.9572525, "is_disabled": 0}, {"fusion_lat": 0.0, "lon": -76.98826216666667, "is_reserved": 0, "bike_id": "786118743284fcdcbedaaa425ca3f0c4", "fusion_lon": 0.0, "rental_uris": {"android": "https://dc.lft.to/lastmile_qr_scan", "ios": "https://dc.lft.to/lastmile_qr_scan"}, "name": "786118743284fcdcbedaaa425ca3f0c4", "type": "electric_scooter", "lat": 38.89077316666667, "is_disabled": 0}, {"fusion_lat": 0.0, "lon": -77.02977766666666, "is_reserved": 0, "bike_id": "024f671a50af8eb849a85389b0061b52", "fusion_lon": 0.0, "rental_uris": {"android": "https://dc.lft.to/lastmile_qr_scan", "ios": "https://dc.lft.to/lastmile_qr_scan"}, "name": "024f671a50af8eb849a85389b0061b52", "type": "electric_scooter", "lat": 38.92197433333333, "is_disabled": 0}, {"fusion_lat": 0.0, "lon": -76.99542233333334, "is_reserved": 0, "bike_id": "ae0dba3b047be0b2c550e5acdf84b9e4", "fusion_lon": 0.0, "rental_uris": {"android": "https://dc.lft.to/lastmile_qr_scan", "ios": "https://dc.lft.to/lastmile_qr_scan"}, "name": "ae0dba3b047be0b2c550e5acdf84b9e4", "type": "electric_scooter", "lat": 38.86263433333333, "is_disabled": 0}, {"fusion_lat": 0.0, "lon": -77.22799266666667, "is_reserved": 0, "bike_id": "d771001648377eedc11b9cdb61305b2e", "fusion_lon": 0.0, "rental_uris": {"android": "https://dc.lft.to/lastmile_qr_scan", "ios": "https://dc.lft.to/lastmile_qr_scan"}, "name": "d771001648377eedc11b9cdb61305b2e", "type": "electric_bike", "lat": 38.910167, "is_disabled": 0}, {"fusion_lat": 0.0, "lon": -77.047655, "is_reserved": 0, "bike_id": "c7a69761079d5dcdb86e0dc3f1e733d1", "fusion_lon": 0.0, "rental_uris": {"android": "https://dc.lft.to/lastmile_qr_scan", "ios": "https://dc.lft.to/lastmile_qr_scan"}, "name": "c7a69761079d5dcdb86e0dc3f1e733d1", "type": "electric_scooter", "lat": 38.91754816666667, "is_disabled": 0}, {"fusion_lat": 0.0, "lon": -77.011068, "is_reserved": 0, "bike_id": "5ae6c9dc8a22736fd5296fed7f1b1ea9", "fusion_lon": 0.0, "rental_uris": {"android": "https://dc.lft.to/lastmile_qr_scan", "ios": "https://dc.lft.to/lastmile_qr_scan"}, "name": "5ae6c9dc8a22736fd5296fed7f1b1ea9", "type": "electric_scooter", "lat": 38.895035166666666, "is_disabled": 0}, {"fusion_lat": 0.0, "lon": -77.01695266666667, "is_reserved": 0, "bike_id": "9d43df4d6636d856ac1267d589c4d4c8", "fusion_lon": 0.0, "rental_uris": {"android": "https://dc.lft.to/lastmile_qr_scan", "ios": "https://dc.lft.to/lastmile_qr_scan"}, "name": "9d43df4d6636d856ac1267d589c4d4c8", "type": "electric_scooter", "lat": 38.9749385, "is_disabled": 0}, {"fusion_lat": 0.0, "lon": -77.01792133333333, "is_reserved": 0, "bike_id": "1fc785001c27f20ba7e9f5a44b552850", "fusion_lon": 0.0, "rental_uris": {"android": "https://dc.lft.to/lastmile_qr_scan", "ios": "https://dc.lft.to/lastmile_qr_scan"}, "name": "1fc785001c27f20ba7e9f5a44b552850", "type": "electric_scooter", "lat": 38.9042365, "is_disabled": 0}, {"fusion_lat": 0.0, "lon": -77.024919, "is_reserved": 0, "bike_id": "7a3fbc7165c8b3005f1001a04f2e6fdb", "fusion_lon": 0.0, "rental_uris": {"android": "https://dc.lft.to/lastmile_qr_scan", "ios": "https://dc.lft.to/lastmile_qr_scan"}, "name": "7a3fbc7165c8b3005f1001a04f2e6fdb", "type": "electric_scooter", "lat": 38.93863983333333, "is_disabled": 0}, {"fusion_lat": 0.0, "lon": -77.0455975, "is_reserved": 0, "bike_id": "9fe4029d5a4e8e091bf2ae90e63c2cbb", "fusion_lon": 0.0, "rental_uris": {"android": "https://dc.lft.to/lastmile_qr_scan", "ios": "https://dc.lft.to/lastmile_qr_scan"}, "name": "9fe4029d5a4e8e091bf2ae90e63c2cbb", "type": "electric_scooter", "lat": 38.924206166666664, "is_disabled": 0}, {"fusion_lat": 0.0, "lon": -76.96914633333333, "is_reserved": 0, "bike_id": "d89988129dc8c89b725f6d9052f96e2f", "fusion_lon": 0.0, "rental_uris": {"android": "https://dc.lft.to/lastmile_qr_scan", "ios": "https://dc.lft.to/lastmile_qr_scan"}, "name": "d89988129dc8c89b725f6d9052f96e2f", "type": "electric_bike", "lat": 38.9511885, "is_disabled": 0}, {"fusion_lat": 0.0, "lon": -77.03190416666666, "is_reserved": 0, "bike_id": "08c1c316774e12747978d8f8e39b7c6d", "fusion_lon": 0.0, "rental_uris": {"android": "https://dc.lft.to/lastmile_qr_scan", "ios": "https://dc.lft.to/lastmile_qr_scan"}, "name": "08c1c316774e12747978d8f8e39b7c6d", "type": "electric_scooter", "lat": 38.91791466666667, "is_disabled": 0}, {"fusion_lat": 0.0, "lon": -77.041154, "is_reserved": 0, "bike_id": "84b416ab9fd7ab8f576044e27b019343", "fusion_lon": 0.0, "rental_uris": {"android": "https://dc.lft.to/lastmile_qr_scan", "ios": "https://dc.lft.to/lastmile_qr_scan"}, "name": "84b416ab9fd7ab8f576044e27b019343", "type": "electric_scooter", "lat": 38.91072, "is_disabled": 0}, {"fusion_lat": 0.0, "lon": -77.03336466666667, "is_reserved": 0, "bike_id": "987dcb2f88838643e527b7c10a1d766a", "fusion_lon": 0.0, "rental_uris": {"android": "https://dc.lft.to/lastmile_qr_scan", "ios": "https://dc.lft.to/lastmile_qr_scan"}, "name": "987dcb2f88838643e527b7c10a1d766a", "type": "electric_scooter", "lat": 38.92161383333333, "is_disabled": 0}, {"fusion_lat": 0.0, "lon": -77.07382633333333, "is_reserved": 0, "bike_id": "f6cc4c804139f6c2b0b17f50b54e9d07", "fusion_lon": 0.0, "rental_uris": {"android": "https://dc.lft.to/lastmile_qr_scan", "ios": "https://dc.lft.to/lastmile_qr_scan"}, "name": "f6cc4c804139f6c2b0b17f50b54e9d07", "type": "electric_bike", "lat": 38.961915833333336, "is_disabled": 0}, {"fusion_lat": 0.0, "lon": -77.03869433333334, "is_reserved": 0, "bike_id": "f82d7a2a79c51ca36d7c468f6c7d7257", "fusion_lon": 0.0, "rental_uris": {"android": "https://dc.lft.to/lastmile_qr_scan", "ios": "https://dc.lft.to/lastmile_qr_scan"}, "name": "f82d7a2a79c51ca36d7c468f6c7d7257", "type": "electric_scooter", "lat": 38.92154466666667, "is_disabled": 0}, {"fusion_lat": 0.0, "lon": -77.01208733333333, "is_reserved": 0, "bike_id": "14b79149a486786ad223526088b248c5", "fusion_lon": 0.0, "rental_uris": {"android": "https://dc.lft.to/lastmile_qr_scan", "ios": "https://dc.lft.to/lastmile_qr_scan"}, "name": "14b79149a486786ad223526088b248c5", "type": "electric_scooter", "lat": 38.918399, "is_disabled": 0}, {"fusion_lat": 0.0, "lon": -77.0401775, "is_reserved": 0, "bike_id": "36f64fe0c1f69c3d6c0b32cdedd4bc73", "fusion_lon": 0.0, "rental_uris": {"android": "https://dc.lft.to/lastmile_qr_scan", "ios": "https://dc.lft.to/lastmile_qr_scan"}, "name": "36f64fe0c1f69c3d6c0b32cdedd4bc73", "type": "electric_scooter", "lat": 38.91841216666667, "is_disabled": 0}, {"fusion_lat": 0.0, "lon": -76.99768083333333, "is_reserved": 0, "bike_id": "bfade9833c070dbe8ab59dcd33ed1e5b", "fusion_lon": 0.0, "rental_uris": {"android": "https://dc.lft.to/lastmile_qr_scan", "ios": "https://dc.lft.to/lastmile_qr_scan"}, "name": "bfade9833c070dbe8ab59dcd33ed1e5b", "type": "electric_scooter", "lat": 38.90004833333333, "is_disabled": 0}, {"fusion_lat": 0.0, "lon": -77.04539483333333, "is_reserved": 0, "bike_id": "d0eeddbb87ff423ab224df75f820ba44", "fusion_lon": 0.0, "rental_uris": {"android": "https://dc.lft.to/lastmile_qr_scan", "ios": "https://dc.lft.to/lastmile_qr_scan"}, "name": "d0eeddbb87ff423ab224df75f820ba44", "type": "electric_scooter", "lat": 38.93411533333333, "is_disabled": 0}, {"fusion_lat": 0.0, "lon": -77.02952233333333, "is_reserved": 0, "bike_id": "c15365321ae9e514392490f28ce6332f", "fusion_lon": 0.0, "rental_uris": {"android": "https://dc.lft.to/lastmile_qr_scan", "ios": "https://dc.lft.to/lastmile_qr_scan"}, "name": "c15365321ae9e514392490f28ce6332f", "type": "electric_scooter", "lat": 38.928539, "is_disabled": 0}, {"fusion_lat": 0.0, "lon": -77.039329, "is_reserved": 0, "bike_id": "7c893e7b5582186b87f53085a2edc38d", "fusion_lon": 0.0, "rental_uris": {"android": "https://dc.lft.to/lastmile_qr_scan", "ios": "https://dc.lft.to/lastmile_qr_scan"}, "name": "7c893e7b5582186b87f53085a2edc38d", "type": "electric_scooter", "lat": 38.91755283333333, "is_disabled": 0}, {"fusion_lat": 0.0, "lon": -77.0266625, "is_reserved": 0, "bike_id": "47ccb213042094759243f223146627a7", "fusion_lon": 0.0, "rental_uris": {"android": "https://dc.lft.to/lastmile_qr_scan", "ios": "https://dc.lft.to/lastmile_qr_scan"}, "name": "47ccb213042094759243f223146627a7", "type": "electric_scooter", "lat": 38.930987333333334, "is_disabled": 0}, {"fusion_lat": 0.0, "lon": -77.03772466666666, "is_reserved": 0, "bike_id": "159c2dd7fdf827cc8f26eaa119a79f93", "fusion_lon": 0.0, "rental_uris": {"android": "https://dc.lft.to/lastmile_qr_scan", "ios": "https://dc.lft.to/lastmile_qr_scan"}, "name": "159c2dd7fdf827cc8f26eaa119a79f93", "type": "electric_scooter", "lat": 38.922040833333334, "is_disabled": 0}, {"fusion_lat": 0.0, "lon": -77.00402916666667, "is_reserved": 0, "bike_id": "28b6376d8474e8ef334174a8666e939c", "fusion_lon": 0.0, "rental_uris": {"android": "https://dc.lft.to/lastmile_qr_scan", "ios": "https://dc.lft.to/lastmile_qr_scan"}, "name": "28b6376d8474e8ef334174a8666e939c", "type": "electric_bike", "lat": 38.98548866666667, "is_disabled": 0}, {"fusion_lat": 0.0, "lon": -76.96239666666666, "is_reserved": 0, "bike_id": "e070611bc71dafcfd0bf2d67f19edb97", "fusion_lon": 0.0, "rental_uris": {"android": "https://dc.lft.to/lastmile_qr_scan", "ios": "https://dc.lft.to/lastmile_qr_scan"}, "name": "e070611bc71dafcfd0bf2d67f19edb97", "type": "electric_scooter", "lat": 38.877697833333336, "is_disabled": 0}, {"fusion_lat": 0.0, "lon": -76.931391, "is_reserved": 0, "bike_id": "9d26ff0939405e34c4c95f61ea8b9be4", "fusion_lon": 0.0, "rental_uris": {"android": "https://dc.lft.to/lastmile_qr_scan", "ios": "https://dc.lft.to/lastmile_qr_scan"}, "name": "9d26ff0939405e34c4c95f61ea8b9be4", "type": "electric_scooter", "lat": 38.88078016666667, "is_disabled": 0}, {"fusion_lat": 0.0, "lon": -77.03073916666666, "is_reserved": 0, "bike_id": "1e52e0272ebf4d1d7871ac2a3d490745", "fusion_lon": 0.0, "rental_uris": {"android": "https://dc.lft.to/lastmile_qr_scan", "ios": "https://dc.lft.to/lastmile_qr_scan"}, "name": "1e52e0272ebf4d1d7871ac2a3d490745", "type": "electric_scooter", "lat": 38.9175765, "is_disabled": 0}, {"fusion_lat": 0.0, "lon": -76.99390516666666, "is_reserved": 0, "bike_id": "e6f00a420986f1d2be35d93cf0f76b63", "fusion_lon": 0.0, "rental_uris": {"android": "https://dc.lft.to/lastmile_qr_scan", "ios": "https://dc.lft.to/lastmile_qr_scan"}, "name": "e6f00a420986f1d2be35d93cf0f76b63", "type": "electric_scooter", "lat": 38.897322, "is_disabled": 0}, {"fusion_lat": 0.0, "lon": -76.99830933333334, "is_reserved": 0, "bike_id": "16cd379eb0529bfe64fed3cacf942724", "fusion_lon": 0.0, "rental_uris": {"android": "https://dc.lft.to/lastmile_qr_scan", "ios": "https://dc.lft.to/lastmile_qr_scan"}, "name": "16cd379eb0529bfe64fed3cacf942724", "type": "electric_scooter", "lat": 38.9085795, "is_disabled": 0}, {"fusion_lat": 0.0, "lon": -77.0077045, "is_reserved": 0, "bike_id": "d2c6226365ade689ae78367787b05891", "fusion_lon": 0.0, "rental_uris": {"android": "https://dc.lft.to/lastmile_qr_scan", "ios": "https://dc.lft.to/lastmile_qr_scan"}, "name": "d2c6226365ade689ae78367787b05891", "type": "electric_scooter", "lat": 38.906595833333334, "is_disabled": 0}, {"fusion_lat": 0.0, "lon": -77.00389916666667, "is_reserved": 0, "bike_id": "2af55270045fe1e549026fde357f5c8f", "fusion_lon": 0.0, "rental_uris": {"android": "https://dc.lft.to/lastmile_qr_scan", "ios": "https://dc.lft.to/lastmile_qr_scan"}, "name": "2af55270045fe1e549026fde357f5c8f", "type": "electric_scooter", "lat": 38.9057625, "is_disabled": 0}, {"fusion_lat": 0.0, "lon": -76.9877805, "is_reserved": 0, "bike_id": "40eee54027139411874eebc6df6bc7c9", "fusion_lon": 0.0, "rental_uris": {"android": "https://dc.lft.to/lastmile_qr_scan", "ios": "https://dc.lft.to/lastmile_qr_scan"}, "name": "40eee54027139411874eebc6df6bc7c9", "type": "electric_scooter", "lat": 38.844746, "is_disabled": 0}, {"fusion_lat": 0.0, "lon": -77.03485, "is_reserved": 0, "bike_id": "c708a65e336c0d22e5cbc074ce10f60c", "fusion_lon": 0.0, "rental_uris": {"android": "https://dc.lft.to/lastmile_qr_scan", "ios": "https://dc.lft.to/lastmile_qr_scan"}, "name": "c708a65e336c0d22e5cbc074ce10f60c", "type": "electric_scooter", "lat": 38.92483333333333, "is_disabled": 0}, {"fusion_lat": 0.0, "lon": -77.02224333333334, "is_reserved": 0, "bike_id": "276e34f4ef8eb4c1e5b3bf33dddc37dd", "fusion_lon": 0.0, "rental_uris": {"android": "https://dc.lft.to/lastmile_qr_scan", "ios": "https://dc.lft.to/lastmile_qr_scan"}, "name": "276e34f4ef8eb4c1e5b3bf33dddc37dd", "type": "electric_bike", "lat": 38.956898, "is_disabled": 0}, {"fusion_lat": 0.0, "lon": -76.99864883333333, "is_reserved": 0, "bike_id": "945e7ad252602aebf3571cdf90004e5d", "fusion_lon": 0.0, "rental_uris": {"android": "https://dc.lft.to/lastmile_qr_scan", "ios": "https://dc.lft.to/lastmile_qr_scan"}, "name": "945e7ad252602aebf3571cdf90004e5d", "type": "electric_bike", "lat": 38.8972855, "is_disabled": 0}, {"fusion_lat": 0.0, "lon": -77.03410933333333, "is_reserved": 0, "bike_id": "33e3e378d8faa0cdc9181fee4b88abc5", "fusion_lon": 0.0, "rental_uris": {"android": "https://dc.lft.to/lastmile_qr_scan", "ios": "https://dc.lft.to/lastmile_qr_scan"}, "name": "33e3e378d8faa0cdc9181fee4b88abc5", "type": "electric_scooter", "lat": 38.9231475, "is_disabled": 0}, {"fusion_lat": 0.0, "lon": -77.02393516666666, "is_reserved": 0, "bike_id": "c456e2ee8bb9d2636d180120031b08ed", "fusion_lon": 0.0, "rental_uris": {"android": "https://dc.lft.to/lastmile_qr_scan", "ios": "https://dc.lft.to/lastmile_qr_scan"}, "name": "c456e2ee8bb9d2636d180120031b08ed", "type": "electric_scooter", "lat": 38.957106833333334, "is_disabled": 0}, {"fusion_lat": 0.0, "lon": -77.10332016666666, "is_reserved": 0, "bike_id": "2ec18bd3ac997345dbd7d6975ea87740", "fusion_lon": 0.0, "rental_uris": {"android": "https://dc.lft.to/lastmile_qr_scan", "ios": "https://dc.lft.to/lastmile_qr_scan"}, "name": "2ec18bd3ac997345dbd7d6975ea87740", "type": "electric_bike", "lat": 38.87418516666666, "is_disabled": 0}, {"fusion_lat": 0.0, "lon": -77.00129866666667, "is_reserved": 0, "bike_id": "377a1432d69aea82b85345ec1115c4a4", "fusion_lon": 0.0, "rental_uris": {"android": "https://dc.lft.to/lastmile_qr_scan", "ios": "https://dc.lft.to/lastmile_qr_scan"}, "name": "377a1432d69aea82b85345ec1115c4a4", "type": "electric_scooter", "lat": 38.90744866666667, "is_disabled": 0}, {"fusion_lat": 0.0, "lon": -77.01826666666666, "is_reserved": 0, "bike_id": "423b25800e1923032ff059506c1fba00", "fusion_lon": 0.0, "rental_uris": {"android": "https://dc.lft.to/lastmile_qr_scan", "ios": "https://dc.lft.to/lastmile_qr_scan"}, "name": "423b25800e1923032ff059506c1fba00", "type": "electric_scooter", "lat": 38.901461833333336, "is_disabled": 0}, {"fusion_lat": 0.0, "lon": -76.99941133333333, "is_reserved": 0, "bike_id": "82eb2f67c572b09b39be426557a8f576", "fusion_lon": 0.0, "rental_uris": {"android": "https://dc.lft.to/lastmile_qr_scan", "ios": "https://dc.lft.to/lastmile_qr_scan"}, "name": "82eb2f67c572b09b39be426557a8f576", "type": "electric_scooter", "lat": 38.896472333333335, "is_disabled": 0}, {"fusion_lat": 0.0, "lon": -77.0431025, "is_reserved": 0, "bike_id": "e84698f23431798f243ed65140e99864", "fusion_lon": 0.0, "rental_uris": {"android": "https://dc.lft.to/lastmile_qr_scan", "ios": "https://dc.lft.to/lastmile_qr_scan"}, "name": "e84698f23431798f243ed65140e99864", "type": "electric_scooter", "lat": 38.9266045, "is_disabled": 0}, {"fusion_lat": 0.0, "lon": -77.0359925, "is_reserved": 0, "bike_id": "32147965cb8b1cc6d4aa653df22d798e", "fusion_lon": 0.0, "rental_uris": {"android": "https://dc.lft.to/lastmile_qr_scan", "ios": "https://dc.lft.to/lastmile_qr_scan"}, "name": "32147965cb8b1cc6d4aa653df22d798e", "type": "electric_scooter", "lat": 38.9176075, "is_disabled": 0}, {"fusion_lat": 0.0, "lon": -77.04809816666666, "is_reserved": 0, "bike_id": "fc21499398a2fd615b51cf7e1fc8774b", "fusion_lon": 0.0, "rental_uris": {"android": "https://dc.lft.to/lastmile_qr_scan", "ios": "https://dc.lft.to/lastmile_qr_scan"}, "name": "fc21499398a2fd615b51cf7e1fc8774b", "type": "electric_scooter", "lat": 38.9204645, "is_disabled": 0}, {"fusion_lat": 0.0, "lon": -76.98885516666667, "is_reserved": 0, "bike_id": "749c9e7ff11175decc1a8d17268ac382", "fusion_lon": 0.0, "rental_uris": {"android": "https://dc.lft.to/lastmile_qr_scan", "ios": "https://dc.lft.to/lastmile_qr_scan"}, "name": "749c9e7ff11175decc1a8d17268ac382", "type": "electric_scooter", "lat": 38.86659733333333, "is_disabled": 0}, {"fusion_lat": 0.0, "lon": -77.0472355, "is_reserved": 0, "bike_id": "5f190a3546925ccf00f75feff04bd088", "fusion_lon": 0.0, "rental_uris": {"android": "https://dc.lft.to/lastmile_qr_scan", "ios": "https://dc.lft.to/lastmile_qr_scan"}, "name": "5f190a3546925ccf00f75feff04bd088", "type": "electric_scooter", "lat": 38.91269, "is_disabled": 0}, {"fusion_lat": 0.0, "lon": -76.93733283333333, "is_reserved": 0, "bike_id": "fb2f3e29da8e62aeb9796d2eb3e4d107", "fusion_lon": 0.0, "rental_uris": {"android": "https://dc.lft.to/lastmile_qr_scan", "ios": "https://dc.lft.to/lastmile_qr_scan"}, "name": "fb2f3e29da8e62aeb9796d2eb3e4d107", "type": "electric_scooter", "lat": 38.89015583333333, "is_disabled": 0}, {"fusion_lat": 0.0, "lon": -77.00620383333333, "is_reserved": 0, "bike_id": "c0066bca8cfdb442f86a4bca833bd451", "fusion_lon": 0.0, "rental_uris": {"android": "https://dc.lft.to/lastmile_qr_scan", "ios": "https://dc.lft.to/lastmile_qr_scan"}, "name": "c0066bca8cfdb442f86a4bca833bd451", "type": "electric_scooter", "lat": 38.871743, "is_disabled": 0}, {"fusion_lat": 0.0, "lon": -77.03253816666667, "is_reserved": 0, "bike_id": "e8756dd9d71c6f951e807c95f8c7d7b2", "fusion_lon": 0.0, "rental_uris": {"android": "https://dc.lft.to/lastmile_qr_scan", "ios": "https://dc.lft.to/lastmile_qr_scan"}, "name": "e8756dd9d71c6f951e807c95f8c7d7b2", "type": "electric_scooter", "lat": 38.918185, "is_disabled": 0}, {"fusion_lat": 0.0, "lon": -77.0348855, "is_reserved": 0, "bike_id": "710b981ad37a9ef850ffa6f4a39609bf", "fusion_lon": 0.0, "rental_uris": {"android": "https://dc.lft.to/lastmile_qr_scan", "ios": "https://dc.lft.to/lastmile_qr_scan"}, "name": "710b981ad37a9ef850ffa6f4a39609bf", "type": "electric_scooter", "lat": 38.921444, "is_disabled": 0}, {"fusion_lat": 0.0, "lon": -77.03257766666667, "is_reserved": 0, "bike_id": "5736682068376e0b8bc34e42d9a1c781", "fusion_lon": 0.0, "rental_uris": {"android": "https://dc.lft.to/lastmile_qr_scan", "ios": "https://dc.lft.to/lastmile_qr_scan"}, "name": "5736682068376e0b8bc34e42d9a1c781", "type": "electric_scooter", "lat": 38.9341095, "is_disabled": 0}, {"fusion_lat": 0.0, "lon": -77.043379, "is_reserved": 0, "bike_id": "e472a0a1857708657da88e5d68d123c5", "fusion_lon": 0.0, "rental_uris": {"android": "https://dc.lft.to/lastmile_qr_scan", "ios": "https://dc.lft.to/lastmile_qr_scan"}, "name": "e472a0a1857708657da88e5d68d123c5", "type": "electric_scooter", "lat": 38.8922745, "is_disabled": 0}, {"fusion_lat": 0.0, "lon": -77.00242433333334, "is_reserved": 0, "bike_id": "f74ca754842d8d91640b2ffc8a535e0b", "fusion_lon": 0.0, "rental_uris": {"android": "https://dc.lft.to/lastmile_qr_scan", "ios": "https://dc.lft.to/lastmile_qr_scan"}, "name": "f74ca754842d8d91640b2ffc8a535e0b", "type": "electric_bike", "lat": 38.8749315, "is_disabled": 0}, {"fusion_lat": 0.0, "lon": -76.98384966666667, "is_reserved": 0, "bike_id": "1c233b17bf543ea86813d5d9fe705214", "fusion_lon": 0.0, "rental_uris": {"android": "https://dc.lft.to/lastmile_qr_scan", "ios": "https://dc.lft.to/lastmile_qr_scan"}, "name": "1c233b17bf543ea86813d5d9fe705214", "type": "electric_scooter", "lat": 38.926937, "is_disabled": 0}, {"fusion_lat": 0.0, "lon": -77.045024, "is_reserved": 0, "bike_id": "f11fece02613f634c0c44097f3231183", "fusion_lon": 0.0, "rental_uris": {"android": "https://dc.lft.to/lastmile_qr_scan", "ios": "https://dc.lft.to/lastmile_qr_scan"}, "name": "f11fece02613f634c0c44097f3231183", "type": "electric_scooter", "lat": 38.911140833333334, "is_disabled": 0}, {"fusion_lat": 0.0, "lon": -77.020412, "is_reserved": 0, "bike_id": "0db1e1b936e90fabb51a178749a51fbf", "fusion_lon": 0.0, "rental_uris": {"android": "https://dc.lft.to/lastmile_qr_scan", "ios": "https://dc.lft.to/lastmile_qr_scan"}, "name": "0db1e1b936e90fabb51a178749a51fbf", "type": "electric_scooter", "lat": 38.921943666666664, "is_disabled": 0}, {"fusion_lat": 0.0, "lon": -77.0782285, "is_reserved": 0, "bike_id": "1b071cbc5ca86e77aaed1f54e8831290", "fusion_lon": 0.0, "rental_uris": {"android": "https://dc.lft.to/lastmile_qr_scan", "ios": "https://dc.lft.to/lastmile_qr_scan"}, "name": "1b071cbc5ca86e77aaed1f54e8831290", "type": "electric_bike", "lat": 38.93643933333333, "is_disabled": 0}, {"fusion_lat": 0.0, "lon": -77.02690266666667, "is_reserved": 0, "bike_id": "0dbac8e2cb1be0e0d7d05e841087be44", "fusion_lon": 0.0, "rental_uris": {"android": "https://dc.lft.to/lastmile_qr_scan", "ios": "https://dc.lft.to/lastmile_qr_scan"}, "name": "0dbac8e2cb1be0e0d7d05e841087be44", "type": "electric_scooter", "lat": 38.91580183333333, "is_disabled": 0}, {"fusion_lat": 0.0, "lon": -76.98843933333333, "is_reserved": 0, "bike_id": "948faa7f3f26d7e3fa8038343c1c6206", "fusion_lon": 0.0, "rental_uris": {"android": "https://dc.lft.to/lastmile_qr_scan", "ios": "https://dc.lft.to/lastmile_qr_scan"}, "name": "948faa7f3f26d7e3fa8038343c1c6206", "type": "electric_bike", "lat": 38.842805166666665, "is_disabled": 0}, {"fusion_lat": 0.0, "lon": -76.9761305, "is_reserved": 0, "bike_id": "76910edfb4dcc3fb7f63795e864986c8", "fusion_lon": 0.0, "rental_uris": {"android": "https://dc.lft.to/lastmile_qr_scan", "ios": "https://dc.lft.to/lastmile_qr_scan"}, "name": "76910edfb4dcc3fb7f63795e864986c8", "type": "electric_scooter", "lat": 38.912968666666664, "is_disabled": 0}, {"fusion_lat": 0.0, "lon": -77.036165, "is_reserved": 0, "bike_id": "fe6a08b875d7ce4a41b241eec9ee47ed", "fusion_lon": 0.0, "rental_uris": {"android": "https://dc.lft.to/lastmile_qr_scan", "ios": "https://dc.lft.to/lastmile_qr_scan"}, "name": "fe6a08b875d7ce4a41b241eec9ee47ed", "type": "electric_scooter", "lat": 38.930443833333335, "is_disabled": 0}, {"fusion_lat": 0.0, "lon": -77.026224, "is_reserved": 0, "bike_id": "a666f82a00f104394df2263d7672e628", "fusion_lon": 0.0, "rental_uris": {"android": "https://dc.lft.to/lastmile_qr_scan", "ios": "https://dc.lft.to/lastmile_qr_scan"}, "name": "a666f82a00f104394df2263d7672e628", "type": "electric_scooter", "lat": 38.8943135, "is_disabled": 0}, {"fusion_lat": 0.0, "lon": -77.04223533333334, "is_reserved": 0, "bike_id": "686b97640f509393db87e58c40c43099", "fusion_lon": 0.0, "rental_uris": {"android": "https://dc.lft.to/lastmile_qr_scan", "ios": "https://dc.lft.to/lastmile_qr_scan"}, "name": "686b97640f509393db87e58c40c43099", "type": "electric_scooter", "lat": 38.93154533333333, "is_disabled": 0}, {"fusion_lat": 0.0, "lon": -77.04579116666666, "is_reserved": 0, "bike_id": "834853340166306867831cf68fdf0060", "fusion_lon": 0.0, "rental_uris": {"android": "https://dc.lft.to/lastmile_qr_scan", "ios": "https://dc.lft.to/lastmile_qr_scan"}, "name": "834853340166306867831cf68fdf0060", "type": "electric_scooter", "lat": 38.92119316666667, "is_disabled": 0}, {"fusion_lat": 0.0, "lon": -76.98070316666667, "is_reserved": 0, "bike_id": "30d9b0d7ce36612b4f40cdae13f3e90b", "fusion_lon": 0.0, "rental_uris": {"android": "https://dc.lft.to/lastmile_qr_scan", "ios": "https://dc.lft.to/lastmile_qr_scan"}, "name": "30d9b0d7ce36612b4f40cdae13f3e90b", "type": "electric_scooter", "lat": 38.90179666666667, "is_disabled": 0}, {"fusion_lat": 0.0, "lon": -77.02230183333333, "is_reserved": 0, "bike_id": "cebf6cd62584883ea0b6dc35aa54aa18", "fusion_lon": 0.0, "rental_uris": {"android": "https://dc.lft.to/lastmile_qr_scan", "ios": "https://dc.lft.to/lastmile_qr_scan"}, "name": "cebf6cd62584883ea0b6dc35aa54aa18", "type": "electric_scooter", "lat": 38.892239000000004, "is_disabled": 0}, {"fusion_lat": 0.0, "lon": -77.03189983333333, "is_reserved": 0, "bike_id": "d76bafad641c041fe4757d8ad3d46226", "fusion_lon": 0.0, "rental_uris": {"android": "https://dc.lft.to/lastmile_qr_scan", "ios": "https://dc.lft.to/lastmile_qr_scan"}, "name": "d76bafad641c041fe4757d8ad3d46226", "type": "electric_scooter", "lat": 38.91339333333333, "is_disabled": 0}, {"fusion_lat": 0.0, "lon": -77.03430716666666, "is_reserved": 0, "bike_id": "bf4cace87dac86e536f532a47a3887f1", "fusion_lon": 0.0, "rental_uris": {"android": "https://dc.lft.to/lastmile_qr_scan", "ios": "https://dc.lft.to/lastmile_qr_scan"}, "name": "bf4cace87dac86e536f532a47a3887f1", "type": "electric_scooter", "lat": 38.919426, "is_disabled": 0}, {"fusion_lat": 0.0, "lon": -77.02481283333333, "is_reserved": 0, "bike_id": "9f8b4d9e04862e70d07cbaf11337e6c2", "fusion_lon": 0.0, "rental_uris": {"android": "https://dc.lft.to/lastmile_qr_scan", "ios": "https://dc.lft.to/lastmile_qr_scan"}, "name": "9f8b4d9e04862e70d07cbaf11337e6c2", "type": "electric_scooter", "lat": 38.927488333333336, "is_disabled": 0}, {"fusion_lat": 0.0, "lon": -77.04054616666667, "is_reserved": 0, "bike_id": "343b92213b1759616839ba508c4b47f0", "fusion_lon": 0.0, "rental_uris": {"android": "https://dc.lft.to/lastmile_qr_scan", "ios": "https://dc.lft.to/lastmile_qr_scan"}, "name": "343b92213b1759616839ba508c4b47f0", "type": "electric_scooter", "lat": 38.9187255, "is_disabled": 0}, {"fusion_lat": 0.0, "lon": -77.03860966666667, "is_reserved": 0, "bike_id": "a889027c2dbf9f46175d5be9a63e17f4", "fusion_lon": 0.0, "rental_uris": {"android": "https://dc.lft.to/lastmile_qr_scan", "ios": "https://dc.lft.to/lastmile_qr_scan"}, "name": "a889027c2dbf9f46175d5be9a63e17f4", "type": "electric_scooter", "lat": 38.90659616666667, "is_disabled": 0}, {"fusion_lat": 0.0, "lon": -77.03599133333333, "is_reserved": 0, "bike_id": "0dcdcaf67846a6731d182a92decd427d", "fusion_lon": 0.0, "rental_uris": {"android": "https://dc.lft.to/lastmile_qr_scan", "ios": "https://dc.lft.to/lastmile_qr_scan"}, "name": "0dcdcaf67846a6731d182a92decd427d", "type": "electric_scooter", "lat": 38.939378, "is_disabled": 0}, {"fusion_lat": 0.0, "lon": -77.03256683333333, "is_reserved": 0, "bike_id": "4f7366314e3c0ec9734adb9be44c2d54", "fusion_lon": 0.0, "rental_uris": {"android": "https://dc.lft.to/lastmile_qr_scan", "ios": "https://dc.lft.to/lastmile_qr_scan"}, "name": "4f7366314e3c0ec9734adb9be44c2d54", "type": "electric_scooter", "lat": 38.932508, "is_disabled": 0}, {"fusion_lat": 0.0, "lon": -77.0302815, "is_reserved": 0, "bike_id": "de4784cca326fe1bf9ec15946bab093c", "fusion_lon": 0.0, "rental_uris": {"android": "https://dc.lft.to/lastmile_qr_scan", "ios": "https://dc.lft.to/lastmile_qr_scan"}, "name": "de4784cca326fe1bf9ec15946bab093c", "type": "electric_scooter", "lat": 38.932183, "is_disabled": 0}, {"fusion_lat": 0.0, "lon": -77.03088316666667, "is_reserved": 0, "bike_id": "1f05cbf75bd03d07d089d499b7ddbcee", "fusion_lon": 0.0, "rental_uris": {"android": "https://dc.lft.to/lastmile_qr_scan", "ios": "https://dc.lft.to/lastmile_qr_scan"}, "name": "1f05cbf75bd03d07d089d499b7ddbcee", "type": "electric_scooter", "lat": 38.9272685, "is_disabled": 0}, {"fusion_lat": 0.0, "lon": -77.0556955, "is_reserved": 0, "bike_id": "6881957c7c1771d6b2e77b4b60c79c0f", "fusion_lon": 0.0, "rental_uris": {"android": "https://dc.lft.to/lastmile_qr_scan", "ios": "https://dc.lft.to/lastmile_qr_scan"}, "name": "6881957c7c1771d6b2e77b4b60c79c0f", "type": "electric_scooter", "lat": 38.90931416666667, "is_disabled": 0}, {"fusion_lat": 0.0, "lon": -77.07913133333334, "is_reserved": 0, "bike_id": "efefa931f53f2979e980238ff83002bd", "fusion_lon": 0.0, "rental_uris": {"android": "https://dc.lft.to/lastmile_qr_scan", "ios": "https://dc.lft.to/lastmile_qr_scan"}, "name": "efefa931f53f2979e980238ff83002bd", "type": "electric_scooter", "lat": 38.931092, "is_disabled": 0}, {"fusion_lat": 0.0, "lon": -77.02287416666667, "is_reserved": 0, "bike_id": "dc80c2699f2798b1e57c4d79fc180d13", "fusion_lon": 0.0, "rental_uris": {"android": "https://dc.lft.to/lastmile_qr_scan", "ios": "https://dc.lft.to/lastmile_qr_scan"}, "name": "dc80c2699f2798b1e57c4d79fc180d13", "type": "electric_scooter", "lat": 38.87878083333333, "is_disabled": 0}, {"fusion_lat": 0.0, "lon": -76.98190533333333, "is_reserved": 0, "bike_id": "05fc3514000afaf06fbbb7b7233cde38", "fusion_lon": 0.0, "rental_uris": {"android": "https://dc.lft.to/lastmile_qr_scan", "ios": "https://dc.lft.to/lastmile_qr_scan"}, "name": "05fc3514000afaf06fbbb7b7233cde38", "type": "electric_scooter", "lat": 38.90284533333333, "is_disabled": 0}, {"fusion_lat": 0.0, "lon": -77.02996816666666, "is_reserved": 0, "bike_id": "7d3bd4d7906004d753e46e04b7ebebc3", "fusion_lon": 0.0, "rental_uris": {"android": "https://dc.lft.to/lastmile_qr_scan", "ios": "https://dc.lft.to/lastmile_qr_scan"}, "name": "7d3bd4d7906004d753e46e04b7ebebc3", "type": "electric_scooter", "lat": 38.926800666666665, "is_disabled": 0}, {"fusion_lat": 0.0, "lon": -77.039968, "is_reserved": 0, "bike_id": "c78cad2f0586397bdcedea3d9ca78cf9", "fusion_lon": 0.0, "rental_uris": {"android": "https://dc.lft.to/lastmile_qr_scan", "ios": "https://dc.lft.to/lastmile_qr_scan"}, "name": "c78cad2f0586397bdcedea3d9ca78cf9", "type": "electric_scooter", "lat": 38.91412533333333, "is_disabled": 0}, {"fusion_lat": 0.0, "lon": -77.02324116666666, "is_reserved": 0, "bike_id": "fa9548e72c67253e53060b1c403c0144", "fusion_lon": 0.0, "rental_uris": {"android": "https://dc.lft.to/lastmile_qr_scan", "ios": "https://dc.lft.to/lastmile_qr_scan"}, "name": "fa9548e72c67253e53060b1c403c0144", "type": "electric_scooter", "lat": 38.9206805, "is_disabled": 0}, {"fusion_lat": 0.0, "lon": -77.03867916666667, "is_reserved": 0, "bike_id": "07b3c71c74000c30e6e478cd3793ddde", "fusion_lon": 0.0, "rental_uris": {"android": "https://dc.lft.to/lastmile_qr_scan", "ios": "https://dc.lft.to/lastmile_qr_scan"}, "name": "07b3c71c74000c30e6e478cd3793ddde", "type": "electric_scooter", "lat": 38.9037625, "is_disabled": 0}, {"fusion_lat": 0.0, "lon": -76.98795, "is_reserved": 0, "bike_id": "a0a82a1b34a5c453fc12cba02bf6b473", "fusion_lon": 0.0, "rental_uris": {"android": "https://dc.lft.to/lastmile_qr_scan", "ios": "https://dc.lft.to/lastmile_qr_scan"}, "name": "a0a82a1b34a5c453fc12cba02bf6b473", "type": "electric_scooter", "lat": 38.867300666666665, "is_disabled": 0}, {"fusion_lat": 0.0, "lon": -77.00379433333333, "is_reserved": 0, "bike_id": "e786cf0d16adf02e4566412f7d83095e", "fusion_lon": 0.0, "rental_uris": {"android": "https://dc.lft.to/lastmile_qr_scan", "ios": "https://dc.lft.to/lastmile_qr_scan"}, "name": "e786cf0d16adf02e4566412f7d83095e", "type": "electric_bike", "lat": 38.836054833333336, "is_disabled": 0}, {"fusion_lat": 0.0, "lon": -77.00188683333333, "is_reserved": 0, "bike_id": "e0de5919cca5bd72095b3a3190a7868d", "fusion_lon": 0.0, "rental_uris": {"android": "https://dc.lft.to/lastmile_qr_scan", "ios": "https://dc.lft.to/lastmile_qr_scan"}, "name": "e0de5919cca5bd72095b3a3190a7868d", "type": "electric_scooter", "lat": 38.89450133333333, "is_disabled": 0}, {"fusion_lat": 0.0, "lon": -76.98301466666666, "is_reserved": 0, "bike_id": "0b3a0c5540ecb08d969db0fa6cb13901", "fusion_lon": 0.0, "rental_uris": {"android": "https://dc.lft.to/lastmile_qr_scan", "ios": "https://dc.lft.to/lastmile_qr_scan"}, "name": "0b3a0c5540ecb08d969db0fa6cb13901", "type": "electric_scooter", "lat": 38.905252, "is_disabled": 0}, {"fusion_lat": 0.0, "lon": -76.97672383333334, "is_reserved": 0, "bike_id": "d9a5735a75587cb72ff8f3d00349be24", "fusion_lon": 0.0, "rental_uris": {"android": "https://dc.lft.to/lastmile_qr_scan", "ios": "https://dc.lft.to/lastmile_qr_scan"}, "name": "d9a5735a75587cb72ff8f3d00349be24", "type": "electric_bike", "lat": 38.952479333333336, "is_disabled": 0}, {"fusion_lat": 0.0, "lon": -76.997566, "is_reserved": 0, "bike_id": "68c0a43a61ce4183ef39ed2c981e3f63", "fusion_lon": 0.0, "rental_uris": {"android": "https://dc.lft.to/lastmile_qr_scan", "ios": "https://dc.lft.to/lastmile_qr_scan"}, "name": "68c0a43a61ce4183ef39ed2c981e3f63", "type": "electric_scooter", "lat": 38.887659166666666, "is_disabled": 0}, {"fusion_lat": 0.0, "lon": -77.03751583333333, "is_reserved": 0, "bike_id": "dba483bd121adb7f2326361ba395c54b", "fusion_lon": 0.0, "rental_uris": {"android": "https://dc.lft.to/lastmile_qr_scan", "ios": "https://dc.lft.to/lastmile_qr_scan"}, "name": "dba483bd121adb7f2326361ba395c54b", "type": "electric_scooter", "lat": 38.91114666666667, "is_disabled": 0}, {"fusion_lat": 0.0, "lon": -77.03151366666667, "is_reserved": 0, "bike_id": "cc5f3a3b0b4741b277207fe96f7fa37d", "fusion_lon": 0.0, "rental_uris": {"android": "https://dc.lft.to/lastmile_qr_scan", "ios": "https://dc.lft.to/lastmile_qr_scan"}, "name": "cc5f3a3b0b4741b277207fe96f7fa37d", "type": "electric_scooter", "lat": 38.927896, "is_disabled": 0}, {"fusion_lat": 0.0, "lon": -77.0435655, "is_reserved": 0, "bike_id": "c8615156576943bf6b427158728d207a", "fusion_lon": 0.0, "rental_uris": {"android": "https://dc.lft.to/lastmile_qr_scan", "ios": "https://dc.lft.to/lastmile_qr_scan"}, "name": "c8615156576943bf6b427158728d207a", "type": "electric_scooter", "lat": 38.89229516666666, "is_disabled": 0}, {"fusion_lat": 0.0, "lon": -76.94681933333334, "is_reserved": 0, "bike_id": "681b96a384e1d9aa37d41e16ee0c8340", "fusion_lon": 0.0, "rental_uris": {"android": "https://dc.lft.to/lastmile_qr_scan", "ios": "https://dc.lft.to/lastmile_qr_scan"}, "name": "681b96a384e1d9aa37d41e16ee0c8340", "type": "electric_scooter", "lat": 38.886315833333335, "is_disabled": 0}, {"fusion_lat": 0.0, "lon": -77.03847033333334, "is_reserved": 0, "bike_id": "e49a9dc4899727dc1d181c9b3c25cd19", "fusion_lon": 0.0, "rental_uris": {"android": "https://dc.lft.to/lastmile_qr_scan", "ios": "https://dc.lft.to/lastmile_qr_scan"}, "name": "e49a9dc4899727dc1d181c9b3c25cd19", "type": "electric_scooter", "lat": 38.92526316666667, "is_disabled": 0}, {"fusion_lat": 0.0, "lon": -77.00383, "is_reserved": 0, "bike_id": "04cc4f68cd2a63fc1148a33ff4e0a3f0", "fusion_lon": 0.0, "rental_uris": {"android": "https://dc.lft.to/lastmile_qr_scan", "ios": "https://dc.lft.to/lastmile_qr_scan"}, "name": "04cc4f68cd2a63fc1148a33ff4e0a3f0", "type": "electric_scooter", "lat": 38.87637566666667, "is_disabled": 0}, {"fusion_lat": 0.0, "lon": -77.04506166666667, "is_reserved": 0, "bike_id": "9589df480605f8f90823df3281ade7e1", "fusion_lon": 0.0, "rental_uris": {"android": "https://dc.lft.to/lastmile_qr_scan", "ios": "https://dc.lft.to/lastmile_qr_scan"}, "name": "9589df480605f8f90823df3281ade7e1", "type": "electric_scooter", "lat": 38.91113216666667, "is_disabled": 0}, {"fusion_lat": 0.0, "lon": -77.00342466666666, "is_reserved": 0, "bike_id": "392412e6e2ecc3df04820884b30609f9", "fusion_lon": 0.0, "rental_uris": {"android": "https://dc.lft.to/lastmile_qr_scan", "ios": "https://dc.lft.to/lastmile_qr_scan"}, "name": "392412e6e2ecc3df04820884b30609f9", "type": "electric_scooter", "lat": 38.90359683333333, "is_disabled": 0}, {"fusion_lat": 0.0, "lon": -77.04499166666666, "is_reserved": 0, "bike_id": "1b3178fc87c1339ff483f333843cbe68", "fusion_lon": 0.0, "rental_uris": {"android": "https://dc.lft.to/lastmile_qr_scan", "ios": "https://dc.lft.to/lastmile_qr_scan"}, "name": "1b3178fc87c1339ff483f333843cbe68", "type": "electric_scooter", "lat": 38.90510583333333, "is_disabled": 0}, {"fusion_lat": 0.0, "lon": -77.07885783333333, "is_reserved": 0, "bike_id": "dd0a51f0fa663c537425b5764d5a80a3", "fusion_lon": 0.0, "rental_uris": {"android": "https://dc.lft.to/lastmile_qr_scan", "ios": "https://dc.lft.to/lastmile_qr_scan"}, "name": "dd0a51f0fa663c537425b5764d5a80a3", "type": "electric_bike", "lat": 38.95024566666667, "is_disabled": 0}, {"fusion_lat": 0.0, "lon": -76.94197333333334, "is_reserved": 0, "bike_id": "d53c668ea5940430ebb814e74a9a2f4c", "fusion_lon": 0.0, "rental_uris": {"android": "https://dc.lft.to/lastmile_qr_scan", "ios": "https://dc.lft.to/lastmile_qr_scan"}, "name": "d53c668ea5940430ebb814e74a9a2f4c", "type": "electric_scooter", "lat": 38.89376766666667, "is_disabled": 0}, {"fusion_lat": 0.0, "lon": -76.98554533333333, "is_reserved": 0, "bike_id": "024c3d7140c46b78eb630f2eeadea488", "fusion_lon": 0.0, "rental_uris": {"android": "https://dc.lft.to/lastmile_qr_scan", "ios": "https://dc.lft.to/lastmile_qr_scan"}, "name": "024c3d7140c46b78eb630f2eeadea488", "type": "electric_scooter", "lat": 38.910362, "is_disabled": 0}, {"fusion_lat": 0.0, "lon": -77.0395765, "is_reserved": 0, "bike_id": "531ce4391baa227af0d7eee2086bdd81", "fusion_lon": 0.0, "rental_uris": {"android": "https://dc.lft.to/lastmile_qr_scan", "ios": "https://dc.lft.to/lastmile_qr_scan"}, "name": "531ce4391baa227af0d7eee2086bdd81", "type": "electric_scooter", "lat": 38.89732016666667, "is_disabled": 0}, {"fusion_lat": 0.0, "lon": -76.92372766666666, "is_reserved": 0, "bike_id": "2966fe4f9e7dabe64a1abc96a3d83e5a", "fusion_lon": 0.0, "rental_uris": {"android": "https://dc.lft.to/lastmile_qr_scan", "ios": "https://dc.lft.to/lastmile_qr_scan"}, "name": "2966fe4f9e7dabe64a1abc96a3d83e5a", "type": "electric_bike", "lat": 38.883775166666666, "is_disabled": 0}, {"fusion_lat": 0.0, "lon": -77.04477866666667, "is_reserved": 0, "bike_id": "16049dfa33229f268fc89fc8e8e7d6e6", "fusion_lon": 0.0, "rental_uris": {"android": "https://dc.lft.to/lastmile_qr_scan", "ios": "https://dc.lft.to/lastmile_qr_scan"}, "name": "16049dfa33229f268fc89fc8e8e7d6e6", "type": "electric_scooter", "lat": 38.91869166666667, "is_disabled": 0}, {"fusion_lat": 0.0, "lon": -77.03465116666666, "is_reserved": 0, "bike_id": "9ddf45f82bfa31a651857b160011d5b4", "fusion_lon": 0.0, "rental_uris": {"android": "https://dc.lft.to/lastmile_qr_scan", "ios": "https://dc.lft.to/lastmile_qr_scan"}, "name": "9ddf45f82bfa31a651857b160011d5b4", "type": "electric_scooter", "lat": 38.908113, "is_disabled": 0}, {"fusion_lat": 0.0, "lon": -76.9319555, "is_reserved": 0, "bike_id": "ca1bdd81a65aa2cc30449d0e354b55a1", "fusion_lon": 0.0, "rental_uris": {"android": "https://dc.lft.to/lastmile_qr_scan", "ios": "https://dc.lft.to/lastmile_qr_scan"}, "name": "ca1bdd81a65aa2cc30449d0e354b55a1", "type": "electric_scooter", "lat": 38.89881466666667, "is_disabled": 0}, {"fusion_lat": 0.0, "lon": -76.93541016666667, "is_reserved": 0, "bike_id": "d6130016a87fcd09598ed247d3072f55", "fusion_lon": 0.0, "rental_uris": {"android": "https://dc.lft.to/lastmile_qr_scan", "ios": "https://dc.lft.to/lastmile_qr_scan"}, "name": "d6130016a87fcd09598ed247d3072f55", "type": "electric_bike", "lat": 38.95562233333333, "is_disabled": 0}, {"fusion_lat": 0.0, "lon": -77.03649066666667, "is_reserved": 0, "bike_id": "54585b45e10efe8fa38df48b3873e53b", "fusion_lon": 0.0, "rental_uris": {"android": "https://dc.lft.to/lastmile_qr_scan", "ios": "https://dc.lft.to/lastmile_qr_scan"}, "name": "54585b45e10efe8fa38df48b3873e53b", "type": "electric_bike", "lat": 38.92319083333334, "is_disabled": 0}, {"fusion_lat": 0.0, "lon": -76.98523083333333, "is_reserved": 0, "bike_id": "6065b9e6641cb2fc9ad7c0f2e98f353c", "fusion_lon": 0.0, "rental_uris": {"android": "https://dc.lft.to/lastmile_qr_scan", "ios": "https://dc.lft.to/lastmile_qr_scan"}, "name": "6065b9e6641cb2fc9ad7c0f2e98f353c", "type": "electric_scooter", "lat": 38.866667, "is_disabled": 0}, {"fusion_lat": 0.0, "lon": -77.05120183333334, "is_reserved": 0, "bike_id": "89688ce11c36f0793121faea51b01b47", "fusion_lon": 0.0, "rental_uris": {"android": "https://dc.lft.to/lastmile_qr_scan", "ios": "https://dc.lft.to/lastmile_qr_scan"}, "name": "89688ce11c36f0793121faea51b01b47", "type": "electric_scooter", "lat": 38.9051885, "is_disabled": 0}, {"fusion_lat": 0.0, "lon": -77.01696283333334, "is_reserved": 0, "bike_id": "da662bd66dbb86efcd25b63cf428140a", "fusion_lon": 0.0, "rental_uris": {"android": "https://dc.lft.to/lastmile_qr_scan", "ios": "https://dc.lft.to/lastmile_qr_scan"}, "name": "da662bd66dbb86efcd25b63cf428140a", "type": "electric_scooter", "lat": 38.97497366666666, "is_disabled": 0}, {"fusion_lat": 0.0, "lon": -77.0004455, "is_reserved": 0, "bike_id": "df0628058035459107aecd2af16e4d1c", "fusion_lon": 0.0, "rental_uris": {"android": "https://dc.lft.to/lastmile_qr_scan", "ios": "https://dc.lft.to/lastmile_qr_scan"}, "name": "df0628058035459107aecd2af16e4d1c", "type": "electric_scooter", "lat": 38.907991833333334, "is_disabled": 0}, {"fusion_lat": 0.0, "lon": -77.02742216666667, "is_reserved": 0, "bike_id": "abc43b3c6e55130c9a749661a23167f5", "fusion_lon": 0.0, "rental_uris": {"android": "https://dc.lft.to/lastmile_qr_scan", "ios": "https://dc.lft.to/lastmile_qr_scan"}, "name": "abc43b3c6e55130c9a749661a23167f5", "type": "electric_scooter", "lat": 38.92385016666667, "is_disabled": 0}, {"fusion_lat": 0.0, "lon": -77.00923283333333, "is_reserved": 0, "bike_id": "083aacc71c21059b99dcc539a8947fe8", "fusion_lon": 0.0, "rental_uris": {"android": "https://dc.lft.to/lastmile_qr_scan", "ios": "https://dc.lft.to/lastmile_qr_scan"}, "name": "083aacc71c21059b99dcc539a8947fe8", "type": "electric_scooter", "lat": 38.89609883333333, "is_disabled": 0}, {"fusion_lat": 0.0, "lon": -76.98764016666667, "is_reserved": 0, "bike_id": "8b3d992af328a74bcc801fa2d2bea675", "fusion_lon": 0.0, "rental_uris": {"android": "https://dc.lft.to/lastmile_qr_scan", "ios": "https://dc.lft.to/lastmile_qr_scan"}, "name": "8b3d992af328a74bcc801fa2d2bea675", "type": "electric_scooter", "lat": 38.900323666666665, "is_disabled": 0}, {"fusion_lat": 0.0, "lon": -77.03131766666667, "is_reserved": 0, "bike_id": "77ba210d6bea872746e12c6113dc353e", "fusion_lon": 0.0, "rental_uris": {"android": "https://dc.lft.to/lastmile_qr_scan", "ios": "https://dc.lft.to/lastmile_qr_scan"}, "name": "77ba210d6bea872746e12c6113dc353e", "type": "electric_scooter", "lat": 38.923741166666666, "is_disabled": 0}, {"fusion_lat": 0.0, "lon": -76.99707083333334, "is_reserved": 0, "bike_id": "7ded34e926ca34438a77fb0f327ec45c", "fusion_lon": 0.0, "rental_uris": {"android": "https://dc.lft.to/lastmile_qr_scan", "ios": "https://dc.lft.to/lastmile_qr_scan"}, "name": "7ded34e926ca34438a77fb0f327ec45c", "type": "electric_scooter", "lat": 38.84436183333333, "is_disabled": 0}, {"fusion_lat": 0.0, "lon": -77.00230216666667, "is_reserved": 0, "bike_id": "cac85bbd18686d19037d844abc36751f", "fusion_lon": 0.0, "rental_uris": {"android": "https://dc.lft.to/lastmile_qr_scan", "ios": "https://dc.lft.to/lastmile_qr_scan"}, "name": "cac85bbd18686d19037d844abc36751f", "type": "electric_scooter", "lat": 38.900528, "is_disabled": 0}, {"fusion_lat": 0.0, "lon": -77.02206033333333, "is_reserved": 0, "bike_id": "aa64d0fc819a55f48135993faaf0d853", "fusion_lon": 0.0, "rental_uris": {"android": "https://dc.lft.to/lastmile_qr_scan", "ios": "https://dc.lft.to/lastmile_qr_scan"}, "name": "aa64d0fc819a55f48135993faaf0d853", "type": "electric_scooter", "lat": 38.92052966666667, "is_disabled": 0}, {"fusion_lat": 0.0, "lon": -77.021817, "is_reserved": 0, "bike_id": "cb1c59cf903a1a44ceedbd02fe972e6c", "fusion_lon": 0.0, "rental_uris": {"android": "https://dc.lft.to/lastmile_qr_scan", "ios": "https://dc.lft.to/lastmile_qr_scan"}, "name": "cb1c59cf903a1a44ceedbd02fe972e6c", "type": "electric_scooter", "lat": 38.92060166666667, "is_disabled": 0}, {"fusion_lat": 0.0, "lon": -77.04818866666666, "is_reserved": 0, "bike_id": "5ba88520fe8ce8b75db38f868279bf3f", "fusion_lon": 0.0, "rental_uris": {"android": "https://dc.lft.to/lastmile_qr_scan", "ios": "https://dc.lft.to/lastmile_qr_scan"}, "name": "5ba88520fe8ce8b75db38f868279bf3f", "type": "electric_scooter", "lat": 38.9104675, "is_disabled": 0}, {"fusion_lat": 0.0, "lon": -76.99805616666667, "is_reserved": 0, "bike_id": "72f260927dae478679d5e06750f50a15", "fusion_lon": 0.0, "rental_uris": {"android": "https://dc.lft.to/lastmile_qr_scan", "ios": "https://dc.lft.to/lastmile_qr_scan"}, "name": "72f260927dae478679d5e06750f50a15", "type": "electric_scooter", "lat": 38.885655666666665, "is_disabled": 0}, {"fusion_lat": 0.0, "lon": -77.04179166666667, "is_reserved": 0, "bike_id": "98566e781d98615ee29c57b1b27cb692", "fusion_lon": 0.0, "rental_uris": {"android": "https://dc.lft.to/lastmile_qr_scan", "ios": "https://dc.lft.to/lastmile_qr_scan"}, "name": "98566e781d98615ee29c57b1b27cb692", "type": "electric_scooter", "lat": 38.919883166666665, "is_disabled": 0}, {"fusion_lat": 0.0, "lon": -77.00340133333333, "is_reserved": 0, "bike_id": "3f55c2e5aaf4ba14434fb3fe7e57cfda", "fusion_lon": 0.0, "rental_uris": {"android": "https://dc.lft.to/lastmile_qr_scan", "ios": "https://dc.lft.to/lastmile_qr_scan"}, "name": "3f55c2e5aaf4ba14434fb3fe7e57cfda", "type": "electric_scooter", "lat": 38.8898835, "is_disabled": 0}, {"fusion_lat": 0.0, "lon": -77.03257866666667, "is_reserved": 0, "bike_id": "c50c460fbfbedaee93c0146b44432b22", "fusion_lon": 0.0, "rental_uris": {"android": "https://dc.lft.to/lastmile_qr_scan", "ios": "https://dc.lft.to/lastmile_qr_scan"}, "name": "c50c460fbfbedaee93c0146b44432b22", "type": "electric_scooter", "lat": 38.90244783333333, "is_disabled": 0}, {"fusion_lat": 0.0, "lon": -76.99573233333334, "is_reserved": 0, "bike_id": "062f8e7cd54bf8544bc93a5aaf9f52cb", "fusion_lon": 0.0, "rental_uris": {"android": "https://dc.lft.to/lastmile_qr_scan", "ios": "https://dc.lft.to/lastmile_qr_scan"}, "name": "062f8e7cd54bf8544bc93a5aaf9f52cb", "type": "electric_scooter", "lat": 38.884276, "is_disabled": 0}, {"fusion_lat": 0.0, "lon": -77.01980916666666, "is_reserved": 0, "bike_id": "429714485a739f053708875c4b92e33e", "fusion_lon": 0.0, "rental_uris": {"android": "https://dc.lft.to/lastmile_qr_scan", "ios": "https://dc.lft.to/lastmile_qr_scan"}, "name": "429714485a739f053708875c4b92e33e", "type": "electric_scooter", "lat": 38.895594833333334, "is_disabled": 0}, {"fusion_lat": 0.0, "lon": -77.006058, "is_reserved": 0, "bike_id": "4fa3a71733fb906f4001917be8ecee2b", "fusion_lon": 0.0, "rental_uris": {"android": "https://dc.lft.to/lastmile_qr_scan", "ios": "https://dc.lft.to/lastmile_qr_scan"}, "name": "4fa3a71733fb906f4001917be8ecee2b", "type": "electric_scooter", "lat": 38.8754955, "is_disabled": 0}, {"fusion_lat": 0.0, "lon": -77.003245, "is_reserved": 0, "bike_id": "a9870a8672fc14ab2d105b52877fda20", "fusion_lon": 0.0, "rental_uris": {"android": "https://dc.lft.to/lastmile_qr_scan", "ios": "https://dc.lft.to/lastmile_qr_scan"}, "name": "a9870a8672fc14ab2d105b52877fda20", "type": "electric_scooter", "lat": 38.90265383333333, "is_disabled": 0}, {"fusion_lat": 0.0, "lon": -77.020568, "is_reserved": 0, "bike_id": "d43eafcc6d7405e73889c69d9bc0295e", "fusion_lon": 0.0, "rental_uris": {"android": "https://dc.lft.to/lastmile_qr_scan", "ios": "https://dc.lft.to/lastmile_qr_scan"}, "name": "d43eafcc6d7405e73889c69d9bc0295e", "type": "electric_bike", "lat": 38.957589166666665, "is_disabled": 0}, {"fusion_lat": 0.0, "lon": -77.07609883333333, "is_reserved": 0, "bike_id": "53b787ff05236f550f70398e922b09db", "fusion_lon": 0.0, "rental_uris": {"android": "https://dc.lft.to/lastmile_qr_scan", "ios": "https://dc.lft.to/lastmile_qr_scan"}, "name": "53b787ff05236f550f70398e922b09db", "type": "electric_scooter", "lat": 38.9206025, "is_disabled": 0}, {"fusion_lat": 0.0, "lon": -77.04840766666666, "is_reserved": 0, "bike_id": "9ecd7b886d200cb0ba634b140d45db57", "fusion_lon": 0.0, "rental_uris": {"android": "https://dc.lft.to/lastmile_qr_scan", "ios": "https://dc.lft.to/lastmile_qr_scan"}, "name": "9ecd7b886d200cb0ba634b140d45db57", "type": "electric_scooter", "lat": 38.91045783333333, "is_disabled": 0}, {"fusion_lat": 0.0, "lon": -77.02232383333333, "is_reserved": 0, "bike_id": "05309c34af4dd7d43c3add78fb33f427", "fusion_lon": 0.0, "rental_uris": {"android": "https://dc.lft.to/lastmile_qr_scan", "ios": "https://dc.lft.to/lastmile_qr_scan"}, "name": "05309c34af4dd7d43c3add78fb33f427", "type": "electric_scooter", "lat": 38.892236833333335, "is_disabled": 0}, {"fusion_lat": 0.0, "lon": -76.99766183333334, "is_reserved": 0, "bike_id": "a4dd20cd4f598a3fdd89a63b362021c3", "fusion_lon": 0.0, "rental_uris": {"android": "https://dc.lft.to/lastmile_qr_scan", "ios": "https://dc.lft.to/lastmile_qr_scan"}, "name": "a4dd20cd4f598a3fdd89a63b362021c3", "type": "electric_scooter", "lat": 38.924472, "is_disabled": 0}, {"fusion_lat": 0.0, "lon": -76.97751033333333, "is_reserved": 0, "bike_id": "a3bf9fe1522238576117488482bc4034", "fusion_lon": 0.0, "rental_uris": {"android": "https://dc.lft.to/lastmile_qr_scan", "ios": "https://dc.lft.to/lastmile_qr_scan"}, "name": "a3bf9fe1522238576117488482bc4034", "type": "electric_bike", "lat": 38.864607, "is_disabled": 0}, {"fusion_lat": 0.0, "lon": -77.0298915, "is_reserved": 0, "bike_id": "1672817d7d7305f341d3f4af91009a48", "fusion_lon": 0.0, "rental_uris": {"android": "https://dc.lft.to/lastmile_qr_scan", "ios": "https://dc.lft.to/lastmile_qr_scan"}, "name": "1672817d7d7305f341d3f4af91009a48", "type": "electric_bike", "lat": 38.974407666666664, "is_disabled": 0}, {"fusion_lat": 0.0, "lon": -77.03498233333333, "is_reserved": 0, "bike_id": "e384d634bfb885d64da2265bb7d1db6c", "fusion_lon": 0.0, "rental_uris": {"android": "https://dc.lft.to/lastmile_qr_scan", "ios": "https://dc.lft.to/lastmile_qr_scan"}, "name": "e384d634bfb885d64da2265bb7d1db6c", "type": "electric_scooter", "lat": 38.9234765, "is_disabled": 0}, {"fusion_lat": 0.0, "lon": -77.0414675, "is_reserved": 0, "bike_id": "cbca6494ec2cfd5302d6d21cc5e4e81d", "fusion_lon": 0.0, "rental_uris": {"android": "https://dc.lft.to/lastmile_qr_scan", "ios": "https://dc.lft.to/lastmile_qr_scan"}, "name": "cbca6494ec2cfd5302d6d21cc5e4e81d", "type": "electric_scooter", "lat": 38.917094666666664, "is_disabled": 0}, {"fusion_lat": 0.0, "lon": -77.02414833333333, "is_reserved": 0, "bike_id": "29f34e45af2c69b0d653328f8bef8e66", "fusion_lon": 0.0, "rental_uris": {"android": "https://dc.lft.to/lastmile_qr_scan", "ios": "https://dc.lft.to/lastmile_qr_scan"}, "name": "29f34e45af2c69b0d653328f8bef8e66", "type": "electric_scooter", "lat": 38.91167, "is_disabled": 0}, {"fusion_lat": 0.0, "lon": -77.051484, "is_reserved": 0, "bike_id": "ddba767d836e7a0c4b0e3a058d92c1f7", "fusion_lon": 0.0, "rental_uris": {"android": "https://dc.lft.to/lastmile_qr_scan", "ios": "https://dc.lft.to/lastmile_qr_scan"}, "name": "ddba767d836e7a0c4b0e3a058d92c1f7", "type": "electric_scooter", "lat": 38.90508633333334, "is_disabled": 0}, {"fusion_lat": 0.0, "lon": -77.03860416666667, "is_reserved": 0, "bike_id": "d846762d259414231e03044b6535e84a", "fusion_lon": 0.0, "rental_uris": {"android": "https://dc.lft.to/lastmile_qr_scan", "ios": "https://dc.lft.to/lastmile_qr_scan"}, "name": "d846762d259414231e03044b6535e84a", "type": "electric_scooter", "lat": 38.89188816666667, "is_disabled": 0}, {"fusion_lat": 0.0, "lon": -76.97859333333334, "is_reserved": 0, "bike_id": "bd4c385b78bee8c81691f59b6f047dad", "fusion_lon": 0.0, "rental_uris": {"android": "https://dc.lft.to/lastmile_qr_scan", "ios": "https://dc.lft.to/lastmile_qr_scan"}, "name": "bd4c385b78bee8c81691f59b6f047dad", "type": "electric_scooter", "lat": 38.87073516666667, "is_disabled": 0}, {"fusion_lat": 0.0, "lon": -77.00744666666667, "is_reserved": 0, "bike_id": "c358a962fbe6a83a95fbabb210a6cd16", "fusion_lon": 0.0, "rental_uris": {"android": "https://dc.lft.to/lastmile_qr_scan", "ios": "https://dc.lft.to/lastmile_qr_scan"}, "name": "c358a962fbe6a83a95fbabb210a6cd16", "type": "electric_scooter", "lat": 38.92677283333333, "is_disabled": 0}, {"fusion_lat": 0.0, "lon": -77.02801533333333, "is_reserved": 0, "bike_id": "55907ed814f7c46199d64a1fc6ffc6c3", "fusion_lon": 0.0, "rental_uris": {"android": "https://dc.lft.to/lastmile_qr_scan", "ios": "https://dc.lft.to/lastmile_qr_scan"}, "name": "55907ed814f7c46199d64a1fc6ffc6c3", "type": "electric_scooter", "lat": 38.8922885, "is_disabled": 0}, {"fusion_lat": 0.0, "lon": -76.96564133333334, "is_reserved": 0, "bike_id": "29a71f9e2caf2d7c99ab2d64ade7e2e9", "fusion_lon": 0.0, "rental_uris": {"android": "https://dc.lft.to/lastmile_qr_scan", "ios": "https://dc.lft.to/lastmile_qr_scan"}, "name": "29a71f9e2caf2d7c99ab2d64ade7e2e9", "type": "electric_bike", "lat": 38.8737815, "is_disabled": 0}, {"fusion_lat": 0.0, "lon": -77.028991, "is_reserved": 0, "bike_id": "1239252c54742cd3497c74242f9e704d", "fusion_lon": 0.0, "rental_uris": {"android": "https://dc.lft.to/lastmile_qr_scan", "ios": "https://dc.lft.to/lastmile_qr_scan"}, "name": "1239252c54742cd3497c74242f9e704d", "type": "electric_scooter", "lat": 38.94045666666667, "is_disabled": 0}, {"fusion_lat": 0.0, "lon": -77.04335883333333, "is_reserved": 0, "bike_id": "7a4fdb31e5bcdb7d3e481a1cfdb0c643", "fusion_lon": 0.0, "rental_uris": {"android": "https://dc.lft.to/lastmile_qr_scan", "ios": "https://dc.lft.to/lastmile_qr_scan"}, "name": "7a4fdb31e5bcdb7d3e481a1cfdb0c643", "type": "electric_scooter", "lat": 38.907601166666666, "is_disabled": 0}, {"fusion_lat": 0.0, "lon": -77.03508816666667, "is_reserved": 0, "bike_id": "110d075c0c168e3eef280978540e53a7", "fusion_lon": 0.0, "rental_uris": {"android": "https://dc.lft.to/lastmile_qr_scan", "ios": "https://dc.lft.to/lastmile_qr_scan"}, "name": "110d075c0c168e3eef280978540e53a7", "type": "electric_scooter", "lat": 38.918851333333336, "is_disabled": 0}, {"fusion_lat": 0.0, "lon": -76.99908283333333, "is_reserved": 0, "bike_id": "c14b093566d19c46b92f06b4cea7f311", "fusion_lon": 0.0, "rental_uris": {"android": "https://dc.lft.to/lastmile_qr_scan", "ios": "https://dc.lft.to/lastmile_qr_scan"}, "name": "c14b093566d19c46b92f06b4cea7f311", "type": "electric_scooter", "lat": 38.924614, "is_disabled": 0}, {"fusion_lat": 0.0, "lon": -77.02898433333333, "is_reserved": 0, "bike_id": "42c875d6981d6cab7c72b19953007d9b", "fusion_lon": 0.0, "rental_uris": {"android": "https://dc.lft.to/lastmile_qr_scan", "ios": "https://dc.lft.to/lastmile_qr_scan"}, "name": "42c875d6981d6cab7c72b19953007d9b", "type": "electric_scooter", "lat": 38.9613135, "is_disabled": 0}, {"fusion_lat": 0.0, "lon": -77.05308333333333, "is_reserved": 0, "bike_id": "66e944194af5bdad0ca0004a1dc67644", "fusion_lon": 0.0, "rental_uris": {"android": "https://dc.lft.to/lastmile_qr_scan", "ios": "https://dc.lft.to/lastmile_qr_scan"}, "name": "66e944194af5bdad0ca0004a1dc67644", "type": "electric_scooter", "lat": 38.89852883333333, "is_disabled": 0}, {"fusion_lat": 0.0, "lon": -77.02906366666667, "is_reserved": 0, "bike_id": "27fa8eddaa5eb9ead5f72d2848139855", "fusion_lon": 0.0, "rental_uris": {"android": "https://dc.lft.to/lastmile_qr_scan", "ios": "https://dc.lft.to/lastmile_qr_scan"}, "name": "27fa8eddaa5eb9ead5f72d2848139855", "type": "electric_scooter", "lat": 38.9036645, "is_disabled": 0}, {"fusion_lat": 0.0, "lon": -77.012207, "is_reserved": 0, "bike_id": "957ad5c25b8d4ddeeecba990f48a39c1", "fusion_lon": 0.0, "rental_uris": {"android": "https://dc.lft.to/lastmile_qr_scan", "ios": "https://dc.lft.to/lastmile_qr_scan"}, "name": "957ad5c25b8d4ddeeecba990f48a39c1", "type": "electric_scooter", "lat": 38.915198333333336, "is_disabled": 0}, {"fusion_lat": 0.0, "lon": -77.02951533333334, "is_reserved": 0, "bike_id": "a49dac7f48f6e1c8b428a4243b7fb752", "fusion_lon": 0.0, "rental_uris": {"android": "https://dc.lft.to/lastmile_qr_scan", "ios": "https://dc.lft.to/lastmile_qr_scan"}, "name": "a49dac7f48f6e1c8b428a4243b7fb752", "type": "electric_scooter", "lat": 38.921766833333336, "is_disabled": 0}, {"fusion_lat": 0.0, "lon": -76.98554683333333, "is_reserved": 0, "bike_id": "ac5d80df08a0b24bbac94c6259e3af24", "fusion_lon": 0.0, "rental_uris": {"android": "https://dc.lft.to/lastmile_qr_scan", "ios": "https://dc.lft.to/lastmile_qr_scan"}, "name": "ac5d80df08a0b24bbac94c6259e3af24", "type": "electric_scooter", "lat": 38.910357166666664, "is_disabled": 0}, {"fusion_lat": 0.0, "lon": -77.03336016666667, "is_reserved": 0, "bike_id": "00fe7f1337dc6b133b9e5c3ccc5ec8ba", "fusion_lon": 0.0, "rental_uris": {"android": "https://dc.lft.to/lastmile_qr_scan", "ios": "https://dc.lft.to/lastmile_qr_scan"}, "name": "00fe7f1337dc6b133b9e5c3ccc5ec8ba", "type": "electric_scooter", "lat": 38.917230333333336, "is_disabled": 0}, {"fusion_lat": 0.0, "lon": -77.03560016666667, "is_reserved": 0, "bike_id": "dd561cc32d8d9064e15a1f5c65da7616", "fusion_lon": 0.0, "rental_uris": {"android": "https://dc.lft.to/lastmile_qr_scan", "ios": "https://dc.lft.to/lastmile_qr_scan"}, "name": "dd561cc32d8d9064e15a1f5c65da7616", "type": "electric_scooter", "lat": 38.917118333333335, "is_disabled": 0}, {"fusion_lat": 0.0, "lon": -76.97099766666666, "is_reserved": 0, "bike_id": "b089b16277c8e2360a2cc052880b533a", "fusion_lon": 0.0, "rental_uris": {"android": "https://dc.lft.to/lastmile_qr_scan", "ios": "https://dc.lft.to/lastmile_qr_scan"}, "name": "b089b16277c8e2360a2cc052880b533a", "type": "electric_bike", "lat": 38.91809533333333, "is_disabled": 0}, {"fusion_lat": 0.0, "lon": -77.0137565, "is_reserved": 0, "bike_id": "bc3fa5da2471cb53d3ecdf21dc7cf802", "fusion_lon": 0.0, "rental_uris": {"android": "https://dc.lft.to/lastmile_qr_scan", "ios": "https://dc.lft.to/lastmile_qr_scan"}, "name": "bc3fa5da2471cb53d3ecdf21dc7cf802", "type": "electric_bike", "lat": 38.942362833333334, "is_disabled": 0}, {"fusion_lat": 0.0, "lon": -77.033468, "is_reserved": 0, "bike_id": "196fa5f272af40e037ff224b5d25a95f", "fusion_lon": 0.0, "rental_uris": {"android": "https://dc.lft.to/lastmile_qr_scan", "ios": "https://dc.lft.to/lastmile_qr_scan"}, "name": "196fa5f272af40e037ff224b5d25a95f", "type": "electric_scooter", "lat": 38.93221533333333, "is_disabled": 0}, {"fusion_lat": 0.0, "lon": -77.02155933333333, "is_reserved": 0, "bike_id": "74b58cc097c8814cd0a9c93c9478e000", "fusion_lon": 0.0, "rental_uris": {"android": "https://dc.lft.to/lastmile_qr_scan", "ios": "https://dc.lft.to/lastmile_qr_scan"}, "name": "74b58cc097c8814cd0a9c93c9478e000", "type": "electric_scooter", "lat": 38.92608216666667, "is_disabled": 0}, {"fusion_lat": 0.0, "lon": -77.03755516666666, "is_reserved": 0, "bike_id": "88204851e9e242484a6be3e2f9949d2c", "fusion_lon": 0.0, "rental_uris": {"android": "https://dc.lft.to/lastmile_qr_scan", "ios": "https://dc.lft.to/lastmile_qr_scan"}, "name": "88204851e9e242484a6be3e2f9949d2c", "type": "electric_scooter", "lat": 38.90691616666667, "is_disabled": 0}, {"fusion_lat": 0.0, "lon": -76.96836983333333, "is_reserved": 0, "bike_id": "796af4b5652c9d28ffe338632174b3c5", "fusion_lon": 0.0, "rental_uris": {"android": "https://dc.lft.to/lastmile_qr_scan", "ios": "https://dc.lft.to/lastmile_qr_scan"}, "name": "796af4b5652c9d28ffe338632174b3c5", "type": "electric_bike", "lat": 38.94324683333333, "is_disabled": 0}, {"fusion_lat": 0.0, "lon": -77.02398516666666, "is_reserved": 0, "bike_id": "63adf8124d5f66afaacee7da9555dc99", "fusion_lon": 0.0, "rental_uris": {"android": "https://dc.lft.to/lastmile_qr_scan", "ios": "https://dc.lft.to/lastmile_qr_scan"}, "name": "63adf8124d5f66afaacee7da9555dc99", "type": "electric_scooter", "lat": 38.931156333333334, "is_disabled": 0}, {"fusion_lat": 0.0, "lon": -77.04660733333333, "is_reserved": 0, "bike_id": "27795146b1a15776b14332dbf893119b", "fusion_lon": 0.0, "rental_uris": {"android": "https://dc.lft.to/lastmile_qr_scan", "ios": "https://dc.lft.to/lastmile_qr_scan"}, "name": "27795146b1a15776b14332dbf893119b", "type": "electric_scooter", "lat": 38.90381583333333, "is_disabled": 0}, {"fusion_lat": 0.0, "lon": -77.01808033333333, "is_reserved": 0, "bike_id": "da3324586d8581bbb7c0b879074ae1db", "fusion_lon": 0.0, "rental_uris": {"android": "https://dc.lft.to/lastmile_qr_scan", "ios": "https://dc.lft.to/lastmile_qr_scan"}, "name": "da3324586d8581bbb7c0b879074ae1db", "type": "electric_scooter", "lat": 38.964865833333334, "is_disabled": 0}, {"fusion_lat": 0.0, "lon": -76.8839995, "is_reserved": 0, "bike_id": "30f9378668c63c8acb596514f40c6ab9", "fusion_lon": 0.0, "rental_uris": {"android": "https://dc.lft.to/lastmile_qr_scan", "ios": "https://dc.lft.to/lastmile_qr_scan"}, "name": "30f9378668c63c8acb596514f40c6ab9", "type": "electric_bike", "lat": 38.93170966666667, "is_disabled": 0}, {"fusion_lat": 0.0, "lon": -77.00732733333334, "is_reserved": 0, "bike_id": "93af4d97f6dec712aec6a8ebf0b1fa1e", "fusion_lon": 0.0, "rental_uris": {"android": "https://dc.lft.to/lastmile_qr_scan", "ios": "https://dc.lft.to/lastmile_qr_scan"}, "name": "93af4d97f6dec712aec6a8ebf0b1fa1e", "type": "electric_scooter", "lat": 38.876575833333334, "is_disabled": 0}, {"fusion_lat": 0.0, "lon": -76.9882995, "is_reserved": 0, "bike_id": "f4e055e0acd5ad2b7e5cfe5c742c43a1", "fusion_lon": 0.0, "rental_uris": {"android": "https://dc.lft.to/lastmile_qr_scan", "ios": "https://dc.lft.to/lastmile_qr_scan"}, "name": "f4e055e0acd5ad2b7e5cfe5c742c43a1", "type": "electric_scooter", "lat": 38.890747833333336, "is_disabled": 0}, {"fusion_lat": 0.0, "lon": -77.0383965, "is_reserved": 0, "bike_id": "5d9028414eeceac51922ad89be87409e", "fusion_lon": 0.0, "rental_uris": {"android": "https://dc.lft.to/lastmile_qr_scan", "ios": "https://dc.lft.to/lastmile_qr_scan"}, "name": "5d9028414eeceac51922ad89be87409e", "type": "electric_scooter", "lat": 38.91246733333333, "is_disabled": 0}, {"fusion_lat": 0.0, "lon": -77.0079735, "is_reserved": 0, "bike_id": "8e545c66a9e3f532c388a5fa2930bfa6", "fusion_lon": 0.0, "rental_uris": {"android": "https://dc.lft.to/lastmile_qr_scan", "ios": "https://dc.lft.to/lastmile_qr_scan"}, "name": "8e545c66a9e3f532c388a5fa2930bfa6", "type": "electric_bike", "lat": 38.94917483333333, "is_disabled": 0}, {"fusion_lat": 0.0, "lon": -77.03473633333333, "is_reserved": 0, "bike_id": "c1b68c20083cc4be3f305daa3f2064e1", "fusion_lon": 0.0, "rental_uris": {"android": "https://dc.lft.to/lastmile_qr_scan", "ios": "https://dc.lft.to/lastmile_qr_scan"}, "name": "c1b68c20083cc4be3f305daa3f2064e1", "type": "electric_scooter", "lat": 38.917117166666664, "is_disabled": 0}, {"fusion_lat": 0.0, "lon": -77.01690433333333, "is_reserved": 0, "bike_id": "1b71affa6479c2b06945395ea4b47eed", "fusion_lon": 0.0, "rental_uris": {"android": "https://dc.lft.to/lastmile_qr_scan", "ios": "https://dc.lft.to/lastmile_qr_scan"}, "name": "1b71affa6479c2b06945395ea4b47eed", "type": "electric_scooter", "lat": 38.872172, "is_disabled": 0}, {"fusion_lat": 0.0, "lon": -77.02178283333333, "is_reserved": 0, "bike_id": "35e33de4b95eb7c783a8360b3623a61a", "fusion_lon": 0.0, "rental_uris": {"android": "https://dc.lft.to/lastmile_qr_scan", "ios": "https://dc.lft.to/lastmile_qr_scan"}, "name": "35e33de4b95eb7c783a8360b3623a61a", "type": "electric_scooter", "lat": 38.90957566666667, "is_disabled": 0}, {"fusion_lat": 0.0, "lon": -77.02717833333334, "is_reserved": 0, "bike_id": "a3533a6f53a135af4ddf4d83dd1905bb", "fusion_lon": 0.0, "rental_uris": {"android": "https://dc.lft.to/lastmile_qr_scan", "ios": "https://dc.lft.to/lastmile_qr_scan"}, "name": "a3533a6f53a135af4ddf4d83dd1905bb", "type": "electric_scooter", "lat": 38.92575133333333, "is_disabled": 0}, {"fusion_lat": 0.0, "lon": -76.95656033333333, "is_reserved": 0, "bike_id": "a8ccd7013b38039c56e714a4f4f25d49", "fusion_lon": 0.0, "rental_uris": {"android": "https://dc.lft.to/lastmile_qr_scan", "ios": "https://dc.lft.to/lastmile_qr_scan"}, "name": "a8ccd7013b38039c56e714a4f4f25d49", "type": "electric_scooter", "lat": 38.896142833333336, "is_disabled": 0}, {"fusion_lat": 0.0, "lon": -77.04654133333334, "is_reserved": 0, "bike_id": "024706452ced25451eb25cbee4c5f7bc", "fusion_lon": 0.0, "rental_uris": {"android": "https://dc.lft.to/lastmile_qr_scan", "ios": "https://dc.lft.to/lastmile_qr_scan"}, "name": "024706452ced25451eb25cbee4c5f7bc", "type": "electric_bike", "lat": 39.055023, "is_disabled": 0}, {"fusion_lat": 0.0, "lon": -77.059544, "is_reserved": 0, "bike_id": "f64ab1cafd06bfc32accc4d4258d9eff", "fusion_lon": 0.0, "rental_uris": {"android": "https://dc.lft.to/lastmile_qr_scan", "ios": "https://dc.lft.to/lastmile_qr_scan"}, "name": "f64ab1cafd06bfc32accc4d4258d9eff", "type": "electric_scooter", "lat": 38.90766033333333, "is_disabled": 0}, {"fusion_lat": 0.0, "lon": -77.012099, "is_reserved": 0, "bike_id": "cf5c74c8874045c19e1c06fdb08752db", "fusion_lon": 0.0, "rental_uris": {"android": "https://dc.lft.to/lastmile_qr_scan", "ios": "https://dc.lft.to/lastmile_qr_scan"}, "name": "cf5c74c8874045c19e1c06fdb08752db", "type": "electric_scooter", "lat": 38.91599033333333, "is_disabled": 0}, {"fusion_lat": 0.0, "lon": -76.97941916666667, "is_reserved": 0, "bike_id": "44ea17b72ecd48c2fa2371a2201eca88", "fusion_lon": 0.0, "rental_uris": {"android": "https://dc.lft.to/lastmile_qr_scan", "ios": "https://dc.lft.to/lastmile_qr_scan"}, "name": "44ea17b72ecd48c2fa2371a2201eca88", "type": "electric_scooter", "lat": 38.90189733333333, "is_disabled": 0}, {"fusion_lat": 0.0, "lon": -77.032049, "is_reserved": 0, "bike_id": "8defd3b36a8c42d23e1285190bbe9c0c", "fusion_lon": 0.0, "rental_uris": {"android": "https://dc.lft.to/lastmile_qr_scan", "ios": "https://dc.lft.to/lastmile_qr_scan"}, "name": "8defd3b36a8c42d23e1285190bbe9c0c", "type": "electric_scooter", "lat": 38.92071116666666, "is_disabled": 0}, {"fusion_lat": 0.0, "lon": -76.936059, "is_reserved": 0, "bike_id": "4c8aed65e039486603d9552bdebf5417", "fusion_lon": 0.0, "rental_uris": {"android": "https://dc.lft.to/lastmile_qr_scan", "ios": "https://dc.lft.to/lastmile_qr_scan"}, "name": "4c8aed65e039486603d9552bdebf5417", "type": "electric_scooter", "lat": 38.89686566666666, "is_disabled": 0}, {"fusion_lat": 0.0, "lon": -77.0356515, "is_reserved": 0, "bike_id": "56c7429d9b5b22f6a6c50817264be6c2", "fusion_lon": 0.0, "rental_uris": {"android": "https://dc.lft.to/lastmile_qr_scan", "ios": "https://dc.lft.to/lastmile_qr_scan"}, "name": "56c7429d9b5b22f6a6c50817264be6c2", "type": "electric_scooter", "lat": 38.90964966666667, "is_disabled": 0}, {"fusion_lat": 0.0, "lon": -76.97531566666666, "is_reserved": 0, "bike_id": "ab999997a515f45db6d2679c2b0936a5", "fusion_lon": 0.0, "rental_uris": {"android": "https://dc.lft.to/lastmile_qr_scan", "ios": "https://dc.lft.to/lastmile_qr_scan"}, "name": "ab999997a515f45db6d2679c2b0936a5", "type": "electric_scooter", "lat": 38.899550833333336, "is_disabled": 0}, {"fusion_lat": 0.0, "lon": -77.02559866666667, "is_reserved": 0, "bike_id": "837b528af4f69a76c7278425c9ef7568", "fusion_lon": 0.0, "rental_uris": {"android": "https://dc.lft.to/lastmile_qr_scan", "ios": "https://dc.lft.to/lastmile_qr_scan"}, "name": "837b528af4f69a76c7278425c9ef7568", "type": "electric_scooter", "lat": 38.93086133333333, "is_disabled": 0}, {"fusion_lat": 0.0, "lon": -77.02836533333333, "is_reserved": 0, "bike_id": "5a96bff26002b0e5b304abdd2c7d35ac", "fusion_lon": 0.0, "rental_uris": {"android": "https://dc.lft.to/lastmile_qr_scan", "ios": "https://dc.lft.to/lastmile_qr_scan"}, "name": "5a96bff26002b0e5b304abdd2c7d35ac", "type": "electric_scooter", "lat": 38.9247445, "is_disabled": 0}, {"fusion_lat": 0.0, "lon": -77.00113866666666, "is_reserved": 0, "bike_id": "83ba43ccfc4b2fd5c2d32f6437573800", "fusion_lon": 0.0, "rental_uris": {"android": "https://dc.lft.to/lastmile_qr_scan", "ios": "https://dc.lft.to/lastmile_qr_scan"}, "name": "83ba43ccfc4b2fd5c2d32f6437573800", "type": "electric_scooter", "lat": 38.91708216666667, "is_disabled": 0}, {"fusion_lat": 0.0, "lon": -77.1091245, "is_reserved": 0, "bike_id": "e1e050d6e1ef5e0a6ad5137558f4ab3e", "fusion_lon": 0.0, "rental_uris": {"android": "https://dc.lft.to/lastmile_qr_scan", "ios": "https://dc.lft.to/lastmile_qr_scan"}, "name": "e1e050d6e1ef5e0a6ad5137558f4ab3e", "type": "electric_bike", "lat": 39.05206333333334, "is_disabled": 0}, {"fusion_lat": 0.0, "lon": -77.0366055, "is_reserved": 0, "bike_id": "b6b386bd25b716642a13e5759b244a4e", "fusion_lon": 0.0, "rental_uris": {"android": "https://dc.lft.to/lastmile_qr_scan", "ios": "https://dc.lft.to/lastmile_qr_scan"}, "name": "b6b386bd25b716642a13e5759b244a4e", "type": "electric_scooter", "lat": 38.9229865, "is_disabled": 0}, {"fusion_lat": 0.0, "lon": -77.027828, "is_reserved": 0, "bike_id": "c895495affc377df84d9354358f04fdd", "fusion_lon": 0.0, "rental_uris": {"android": "https://dc.lft.to/lastmile_qr_scan", "ios": "https://dc.lft.to/lastmile_qr_scan"}, "name": "c895495affc377df84d9354358f04fdd", "type": "electric_scooter", "lat": 38.9277945, "is_disabled": 0}, {"fusion_lat": 0.0, "lon": -77.01416283333333, "is_reserved": 0, "bike_id": "27f970a55ae1f9e150c8bc40b8f5c597", "fusion_lon": 0.0, "rental_uris": {"android": "https://dc.lft.to/lastmile_qr_scan", "ios": "https://dc.lft.to/lastmile_qr_scan"}, "name": "27f970a55ae1f9e150c8bc40b8f5c597", "type": "electric_scooter", "lat": 38.928573666666665, "is_disabled": 0}, {"fusion_lat": 0.0, "lon": -77.04658616666667, "is_reserved": 0, "bike_id": "99ec5d6c91817974dc4b3ef2022395a0", "fusion_lon": 0.0, "rental_uris": {"android": "https://dc.lft.to/lastmile_qr_scan", "ios": "https://dc.lft.to/lastmile_qr_scan"}, "name": "99ec5d6c91817974dc4b3ef2022395a0", "type": "electric_scooter", "lat": 38.912735166666664, "is_disabled": 0}, {"fusion_lat": 0.0, "lon": -77.04677833333334, "is_reserved": 0, "bike_id": "2388eec2ae22720da9c24a8dfd75fd2e", "fusion_lon": 0.0, "rental_uris": {"android": "https://dc.lft.to/lastmile_qr_scan", "ios": "https://dc.lft.to/lastmile_qr_scan"}, "name": "2388eec2ae22720da9c24a8dfd75fd2e", "type": "electric_scooter", "lat": 38.903667, "is_disabled": 0}, {"fusion_lat": 0.0, "lon": -77.04302433333334, "is_reserved": 0, "bike_id": "d7367ec3194be854e22dcf017d20599b", "fusion_lon": 0.0, "rental_uris": {"android": "https://dc.lft.to/lastmile_qr_scan", "ios": "https://dc.lft.to/lastmile_qr_scan"}, "name": "d7367ec3194be854e22dcf017d20599b", "type": "electric_scooter", "lat": 38.92298916666667, "is_disabled": 0}, {"fusion_lat": 0.0, "lon": -77.00279583333334, "is_reserved": 0, "bike_id": "75377e19a7aab28b2906d5f9172fc43d", "fusion_lon": 0.0, "rental_uris": {"android": "https://dc.lft.to/lastmile_qr_scan", "ios": "https://dc.lft.to/lastmile_qr_scan"}, "name": "75377e19a7aab28b2906d5f9172fc43d", "type": "electric_bike", "lat": 38.91190233333333, "is_disabled": 0}, {"fusion_lat": 0.0, "lon": -76.9299325, "is_reserved": 0, "bike_id": "83d3933cfa30591497de5e1e5e444527", "fusion_lon": 0.0, "rental_uris": {"android": "https://dc.lft.to/lastmile_qr_scan", "ios": "https://dc.lft.to/lastmile_qr_scan"}, "name": "83d3933cfa30591497de5e1e5e444527", "type": "electric_scooter", "lat": 38.901888666666665, "is_disabled": 0}, {"fusion_lat": 0.0, "lon": -77.03182833333334, "is_reserved": 0, "bike_id": "e4100aced7b36a75587b9e7a09b472d3", "fusion_lon": 0.0, "rental_uris": {"android": "https://dc.lft.to/lastmile_qr_scan", "ios": "https://dc.lft.to/lastmile_qr_scan"}, "name": "e4100aced7b36a75587b9e7a09b472d3", "type": "electric_scooter", "lat": 38.919665, "is_disabled": 0}, {"fusion_lat": 0.0, "lon": -77.0581875, "is_reserved": 0, "bike_id": "d1cdc2327cc0de8d31ea4ae06f9c0f47", "fusion_lon": 0.0, "rental_uris": {"android": "https://dc.lft.to/lastmile_qr_scan", "ios": "https://dc.lft.to/lastmile_qr_scan"}, "name": "d1cdc2327cc0de8d31ea4ae06f9c0f47", "type": "electric_scooter", "lat": 38.93536783333333, "is_disabled": 0}, {"fusion_lat": 0.0, "lon": -77.05487166666667, "is_reserved": 0, "bike_id": "e8950e5d13a0c61fdfae696339511a62", "fusion_lon": 0.0, "rental_uris": {"android": "https://dc.lft.to/lastmile_qr_scan", "ios": "https://dc.lft.to/lastmile_qr_scan"}, "name": "e8950e5d13a0c61fdfae696339511a62", "type": "electric_scooter", "lat": 38.893847666666666, "is_disabled": 0}, {"fusion_lat": 0.0, "lon": -77.0505145, "is_reserved": 0, "bike_id": "19e7e61072394e61bbac993ab2e4b747", "fusion_lon": 0.0, "rental_uris": {"android": "https://dc.lft.to/lastmile_qr_scan", "ios": "https://dc.lft.to/lastmile_qr_scan"}, "name": "19e7e61072394e61bbac993ab2e4b747", "type": "electric_scooter", "lat": 38.9054375, "is_disabled": 0}, {"fusion_lat": 0.0, "lon": -77.019681, "is_reserved": 0, "bike_id": "c9007e55f1d4bb92ce44343020f45c47", "fusion_lon": 0.0, "rental_uris": {"android": "https://dc.lft.to/lastmile_qr_scan", "ios": "https://dc.lft.to/lastmile_qr_scan"}, "name": "c9007e55f1d4bb92ce44343020f45c47", "type": "electric_scooter", "lat": 38.95019383333333, "is_disabled": 0}, {"fusion_lat": 0.0, "lon": -77.03012883333334, "is_reserved": 0, "bike_id": "31779b98d00da4400f662b024c238f63", "fusion_lon": 0.0, "rental_uris": {"android": "https://dc.lft.to/lastmile_qr_scan", "ios": "https://dc.lft.to/lastmile_qr_scan"}, "name": "31779b98d00da4400f662b024c238f63", "type": "electric_scooter", "lat": 38.92672783333333, "is_disabled": 0}, {"fusion_lat": 0.0, "lon": -77.02360066666667, "is_reserved": 0, "bike_id": "4a50d510bdf21eda214348656373c46f", "fusion_lon": 0.0, "rental_uris": {"android": "https://dc.lft.to/lastmile_qr_scan", "ios": "https://dc.lft.to/lastmile_qr_scan"}, "name": "4a50d510bdf21eda214348656373c46f", "type": "electric_scooter", "lat": 38.892211333333336, "is_disabled": 0}, {"fusion_lat": 0.0, "lon": -77.0385505, "is_reserved": 0, "bike_id": "f64db3f48becea1b2402410dafc965bc", "fusion_lon": 0.0, "rental_uris": {"android": "https://dc.lft.to/lastmile_qr_scan", "ios": "https://dc.lft.to/lastmile_qr_scan"}, "name": "f64db3f48becea1b2402410dafc965bc", "type": "electric_scooter", "lat": 38.9217335, "is_disabled": 0}, {"fusion_lat": 0.0, "lon": -77.05022633333333, "is_reserved": 0, "bike_id": "fed2d067a9fab0f539bc4415fb61cdeb", "fusion_lon": 0.0, "rental_uris": {"android": "https://dc.lft.to/lastmile_qr_scan", "ios": "https://dc.lft.to/lastmile_qr_scan"}, "name": "fed2d067a9fab0f539bc4415fb61cdeb", "type": "electric_scooter", "lat": 38.90562716666667, "is_disabled": 0}, {"fusion_lat": 0.0, "lon": -77.06321133333333, "is_reserved": 0, "bike_id": "3d0c77e6278e9a509b2712a757fe289f", "fusion_lon": 0.0, "rental_uris": {"android": "https://dc.lft.to/lastmile_qr_scan", "ios": "https://dc.lft.to/lastmile_qr_scan"}, "name": "3d0c77e6278e9a509b2712a757fe289f", "type": "electric_scooter", "lat": 38.94416116666667, "is_disabled": 0}, {"fusion_lat": 0.0, "lon": -77.01978333333334, "is_reserved": 0, "bike_id": "7bad0e3ddaeb13881b747ead53113f53", "fusion_lon": 0.0, "rental_uris": {"android": "https://dc.lft.to/lastmile_qr_scan", "ios": "https://dc.lft.to/lastmile_qr_scan"}, "name": "7bad0e3ddaeb13881b747ead53113f53", "type": "electric_scooter", "lat": 38.885832666666666, "is_disabled": 0}, {"fusion_lat": 0.0, "lon": -76.95405016666666, "is_reserved": 0, "bike_id": "cd49d7ff46a0d269e123f6b6f821c24d", "fusion_lon": 0.0, "rental_uris": {"android": "https://dc.lft.to/lastmile_qr_scan", "ios": "https://dc.lft.to/lastmile_qr_scan"}, "name": "cd49d7ff46a0d269e123f6b6f821c24d", "type": "electric_scooter", "lat": 38.88471116666667, "is_disabled": 0}, {"fusion_lat": 0.0, "lon": -77.02709733333333, "is_reserved": 0, "bike_id": "24f3de8b56f4a2af2f6ee38bf859eea8", "fusion_lon": 0.0, "rental_uris": {"android": "https://dc.lft.to/lastmile_qr_scan", "ios": "https://dc.lft.to/lastmile_qr_scan"}, "name": "24f3de8b56f4a2af2f6ee38bf859eea8", "type": "electric_scooter", "lat": 38.90673983333333, "is_disabled": 0}, {"fusion_lat": 0.0, "lon": -77.05919216666666, "is_reserved": 0, "bike_id": "ec14a07d01306682eb7c57bf3b4d8e8d", "fusion_lon": 0.0, "rental_uris": {"android": "https://dc.lft.to/lastmile_qr_scan", "ios": "https://dc.lft.to/lastmile_qr_scan"}, "name": "ec14a07d01306682eb7c57bf3b4d8e8d", "type": "electric_scooter", "lat": 38.90163066666667, "is_disabled": 0}, {"fusion_lat": 0.0, "lon": -76.9871325, "is_reserved": 0, "bike_id": "b0078ff960bad76c7cd660d8a62d1721", "fusion_lon": 0.0, "rental_uris": {"android": "https://dc.lft.to/lastmile_qr_scan", "ios": "https://dc.lft.to/lastmile_qr_scan"}, "name": "b0078ff960bad76c7cd660d8a62d1721", "type": "electric_scooter", "lat": 38.866276666666664, "is_disabled": 0}, {"fusion_lat": 0.0, "lon": -77.0397245, "is_reserved": 0, "bike_id": "b582492e8e06125534d38eaaf7be4249", "fusion_lon": 0.0, "rental_uris": {"android": "https://dc.lft.to/lastmile_qr_scan", "ios": "https://dc.lft.to/lastmile_qr_scan"}, "name": "b582492e8e06125534d38eaaf7be4249", "type": "electric_scooter", "lat": 38.92026166666667, "is_disabled": 0}, {"fusion_lat": 0.0, "lon": -77.04871816666666, "is_reserved": 0, "bike_id": "373f79e65b1063d5f77772e197540e90", "fusion_lon": 0.0, "rental_uris": {"android": "https://dc.lft.to/lastmile_qr_scan", "ios": "https://dc.lft.to/lastmile_qr_scan"}, "name": "373f79e65b1063d5f77772e197540e90", "type": "electric_scooter", "lat": 38.9097915, "is_disabled": 0}, {"fusion_lat": 0.0, "lon": -77.02679416666666, "is_reserved": 0, "bike_id": "8eff716160b781568df4a623a056516d", "fusion_lon": 0.0, "rental_uris": {"android": "https://dc.lft.to/lastmile_qr_scan", "ios": "https://dc.lft.to/lastmile_qr_scan"}, "name": "8eff716160b781568df4a623a056516d", "type": "electric_scooter", "lat": 38.9011265, "is_disabled": 0}, {"fusion_lat": 0.0, "lon": -77.02690183333333, "is_reserved": 0, "bike_id": "e5dd16079860332a9de62bb3eb188a1b", "fusion_lon": 0.0, "rental_uris": {"android": "https://dc.lft.to/lastmile_qr_scan", "ios": "https://dc.lft.to/lastmile_qr_scan"}, "name": "e5dd16079860332a9de62bb3eb188a1b", "type": "electric_scooter", "lat": 38.90237233333333, "is_disabled": 0}, {"fusion_lat": 0.0, "lon": -77.01774933333333, "is_reserved": 0, "bike_id": "7ccde7befd38f4cf9ce5e2079dc037d0", "fusion_lon": 0.0, "rental_uris": {"android": "https://dc.lft.to/lastmile_qr_scan", "ios": "https://dc.lft.to/lastmile_qr_scan"}, "name": "7ccde7befd38f4cf9ce5e2079dc037d0", "type": "electric_scooter", "lat": 38.883330666666666, "is_disabled": 0}, {"fusion_lat": 0.0, "lon": -77.02365, "is_reserved": 0, "bike_id": "ff85bb16e089045363c3abc62d9fddc2", "fusion_lon": 0.0, "rental_uris": {"android": "https://dc.lft.to/lastmile_qr_scan", "ios": "https://dc.lft.to/lastmile_qr_scan"}, "name": "ff85bb16e089045363c3abc62d9fddc2", "type": "electric_scooter", "lat": 38.89225366666667, "is_disabled": 0}, {"fusion_lat": 0.0, "lon": -77.03813716666667, "is_reserved": 0, "bike_id": "8b327c66dd94a194584f9bef06b2ab5b", "fusion_lon": 0.0, "rental_uris": {"android": "https://dc.lft.to/lastmile_qr_scan", "ios": "https://dc.lft.to/lastmile_qr_scan"}, "name": "8b327c66dd94a194584f9bef06b2ab5b", "type": "electric_scooter", "lat": 38.91420816666667, "is_disabled": 0}, {"fusion_lat": 0.0, "lon": -77.01931883333333, "is_reserved": 0, "bike_id": "4d6249b93ce6240f29d6d46eab01dbd2", "fusion_lon": 0.0, "rental_uris": {"android": "https://dc.lft.to/lastmile_qr_scan", "ios": "https://dc.lft.to/lastmile_qr_scan"}, "name": "4d6249b93ce6240f29d6d46eab01dbd2", "type": "electric_scooter", "lat": 38.9056195, "is_disabled": 0}, {"fusion_lat": 0.0, "lon": -77.02518483333333, "is_reserved": 0, "bike_id": "0621664cc5adf9da82f1d8784a2dd273", "fusion_lon": 0.0, "rental_uris": {"android": "https://dc.lft.to/lastmile_qr_scan", "ios": "https://dc.lft.to/lastmile_qr_scan"}, "name": "0621664cc5adf9da82f1d8784a2dd273", "type": "electric_scooter", "lat": 38.93095016666667, "is_disabled": 0}, {"fusion_lat": 0.0, "lon": -77.02626333333333, "is_reserved": 0, "bike_id": "b54aae083d17060d806261af7a847b63", "fusion_lon": 0.0, "rental_uris": {"android": "https://dc.lft.to/lastmile_qr_scan", "ios": "https://dc.lft.to/lastmile_qr_scan"}, "name": "b54aae083d17060d806261af7a847b63", "type": "electric_bike", "lat": 38.96226033333333, "is_disabled": 0}, {"fusion_lat": 0.0, "lon": -77.36103516666667, "is_reserved": 0, "bike_id": "ce1da9298dfdcd1f4a0d69af47f618e7", "fusion_lon": 0.0, "rental_uris": {"android": "https://dc.lft.to/lastmile_qr_scan", "ios": "https://dc.lft.to/lastmile_qr_scan"}, "name": "ce1da9298dfdcd1f4a0d69af47f618e7", "type": "electric_bike", "lat": 38.93956983333333, "is_disabled": 0}, {"fusion_lat": 0.0, "lon": -76.9514085, "is_reserved": 0, "bike_id": "bbb9bbc17f1ac239dcc7565627bb86f2", "fusion_lon": 0.0, "rental_uris": {"android": "https://dc.lft.to/lastmile_qr_scan", "ios": "https://dc.lft.to/lastmile_qr_scan"}, "name": "bbb9bbc17f1ac239dcc7565627bb86f2", "type": "electric_scooter", "lat": 38.890426166666664, "is_disabled": 0}, {"fusion_lat": 0.0, "lon": -76.88368266666667, "is_reserved": 0, "bike_id": "262b969e95671b28d06a8ea8df69b097", "fusion_lon": 0.0, "rental_uris": {"android": "https://dc.lft.to/lastmile_qr_scan", "ios": "https://dc.lft.to/lastmile_qr_scan"}, "name": "262b969e95671b28d06a8ea8df69b097", "type": "electric_bike", "lat": 38.998334166666666, "is_disabled": 0}, {"fusion_lat": 0.0, "lon": -77.03252383333333, "is_reserved": 0, "bike_id": "964e2f8e838dd87ad4801fb7fc8afd53", "fusion_lon": 0.0, "rental_uris": {"android": "https://dc.lft.to/lastmile_qr_scan", "ios": "https://dc.lft.to/lastmile_qr_scan"}, "name": "964e2f8e838dd87ad4801fb7fc8afd53", "type": "electric_scooter", "lat": 38.9236275, "is_disabled": 0}, {"fusion_lat": 0.0, "lon": -77.028888, "is_reserved": 0, "bike_id": "d4cc5b47ad74668384dd8396efe3428b", "fusion_lon": 0.0, "rental_uris": {"android": "https://dc.lft.to/lastmile_qr_scan", "ios": "https://dc.lft.to/lastmile_qr_scan"}, "name": "d4cc5b47ad74668384dd8396efe3428b", "type": "electric_scooter", "lat": 38.93984566666666, "is_disabled": 0}, {"fusion_lat": 0.0, "lon": -77.00404466666667, "is_reserved": 0, "bike_id": "ff12d5ab656d2447ad6029a309dcd555", "fusion_lon": 0.0, "rental_uris": {"android": "https://dc.lft.to/lastmile_qr_scan", "ios": "https://dc.lft.to/lastmile_qr_scan"}, "name": "ff12d5ab656d2447ad6029a309dcd555", "type": "electric_scooter", "lat": 38.9213685, "is_disabled": 0}, {"fusion_lat": 0.0, "lon": -76.9861365, "is_reserved": 0, "bike_id": "7833ba4df41ceba2044066a6d86d0746", "fusion_lon": 0.0, "rental_uris": {"android": "https://dc.lft.to/lastmile_qr_scan", "ios": "https://dc.lft.to/lastmile_qr_scan"}, "name": "7833ba4df41ceba2044066a6d86d0746", "type": "electric_scooter", "lat": 38.93828883333333, "is_disabled": 0}, {"fusion_lat": 0.0, "lon": -76.9770395, "is_reserved": 0, "bike_id": "ce664583ef5f599192ed6c11b3ad4678", "fusion_lon": 0.0, "rental_uris": {"android": "https://dc.lft.to/lastmile_qr_scan", "ios": "https://dc.lft.to/lastmile_qr_scan"}, "name": "ce664583ef5f599192ed6c11b3ad4678", "type": "electric_bike", "lat": 38.94915483333333, "is_disabled": 0}, {"fusion_lat": 0.0, "lon": -77.04376316666666, "is_reserved": 0, "bike_id": "55ed87fc63eebc3215983e4ed40e8bc7", "fusion_lon": 0.0, "rental_uris": {"android": "https://dc.lft.to/lastmile_qr_scan", "ios": "https://dc.lft.to/lastmile_qr_scan"}, "name": "55ed87fc63eebc3215983e4ed40e8bc7", "type": "electric_scooter", "lat": 38.922300166666666, "is_disabled": 0}, {"fusion_lat": 0.0, "lon": -77.02803916666667, "is_reserved": 0, "bike_id": "55dddf6590ba50fa369f880d2640f22e", "fusion_lon": 0.0, "rental_uris": {"android": "https://dc.lft.to/lastmile_qr_scan", "ios": "https://dc.lft.to/lastmile_qr_scan"}, "name": "55dddf6590ba50fa369f880d2640f22e", "type": "electric_scooter", "lat": 38.9308455, "is_disabled": 0}, {"fusion_lat": 0.0, "lon": -76.98837716666667, "is_reserved": 0, "bike_id": "5a16e8fee26851daa4d62468f905f922", "fusion_lon": 0.0, "rental_uris": {"android": "https://dc.lft.to/lastmile_qr_scan", "ios": "https://dc.lft.to/lastmile_qr_scan"}, "name": "5a16e8fee26851daa4d62468f905f922", "type": "electric_scooter", "lat": 38.90047066666666, "is_disabled": 0}, {"fusion_lat": 0.0, "lon": -77.014935, "is_reserved": 0, "bike_id": "a57f0d3162401f30c7b59149d07e8d12", "fusion_lon": 0.0, "rental_uris": {"android": "https://dc.lft.to/lastmile_qr_scan", "ios": "https://dc.lft.to/lastmile_qr_scan"}, "name": "a57f0d3162401f30c7b59149d07e8d12", "type": "electric_scooter", "lat": 38.917642, "is_disabled": 0}, {"fusion_lat": 0.0, "lon": -76.98746766666666, "is_reserved": 0, "bike_id": "bb35d2cfb916e43bac9d9f1b02dd67a6", "fusion_lon": 0.0, "rental_uris": {"android": "https://dc.lft.to/lastmile_qr_scan", "ios": "https://dc.lft.to/lastmile_qr_scan"}, "name": "bb35d2cfb916e43bac9d9f1b02dd67a6", "type": "electric_scooter", "lat": 38.88616733333333, "is_disabled": 0}, {"fusion_lat": 0.0, "lon": -77.03767566666667, "is_reserved": 0, "bike_id": "232ed1f6bebdd4b0b856f671b5923549", "fusion_lon": 0.0, "rental_uris": {"android": "https://dc.lft.to/lastmile_qr_scan", "ios": "https://dc.lft.to/lastmile_qr_scan"}, "name": "232ed1f6bebdd4b0b856f671b5923549", "type": "electric_scooter", "lat": 38.91697766666667, "is_disabled": 0}, {"fusion_lat": 0.0, "lon": -77.04847683333334, "is_reserved": 0, "bike_id": "7e46b2514dca3876d2c43d6565ebeeb1", "fusion_lon": 0.0, "rental_uris": {"android": "https://dc.lft.to/lastmile_qr_scan", "ios": "https://dc.lft.to/lastmile_qr_scan"}, "name": "7e46b2514dca3876d2c43d6565ebeeb1", "type": "electric_scooter", "lat": 38.919713, "is_disabled": 0}, {"fusion_lat": 0.0, "lon": -77.02802416666667, "is_reserved": 0, "bike_id": "68489d7c6972a4614e4314480f5f1c47", "fusion_lon": 0.0, "rental_uris": {"android": "https://dc.lft.to/lastmile_qr_scan", "ios": "https://dc.lft.to/lastmile_qr_scan"}, "name": "68489d7c6972a4614e4314480f5f1c47", "type": "electric_scooter", "lat": 38.892333, "is_disabled": 0}, {"fusion_lat": 0.0, "lon": -77.01990816666667, "is_reserved": 0, "bike_id": "900bbd7da44bfbbf177f453e44886fe6", "fusion_lon": 0.0, "rental_uris": {"android": "https://dc.lft.to/lastmile_qr_scan", "ios": "https://dc.lft.to/lastmile_qr_scan"}, "name": "900bbd7da44bfbbf177f453e44886fe6", "type": "electric_scooter", "lat": 38.875952, "is_disabled": 0}, {"fusion_lat": 0.0, "lon": -76.9888815, "is_reserved": 0, "bike_id": "aafa8040b3c49f6d23e5f8eabfad3627", "fusion_lon": 0.0, "rental_uris": {"android": "https://dc.lft.to/lastmile_qr_scan", "ios": "https://dc.lft.to/lastmile_qr_scan"}, "name": "aafa8040b3c49f6d23e5f8eabfad3627", "type": "electric_scooter", "lat": 38.86661133333333, "is_disabled": 0}, {"fusion_lat": 0.0, "lon": -77.0253145, "is_reserved": 0, "bike_id": "1b6117a245c533cfcdac5d88ecad68c7", "fusion_lon": 0.0, "rental_uris": {"android": "https://dc.lft.to/lastmile_qr_scan", "ios": "https://dc.lft.to/lastmile_qr_scan"}, "name": "1b6117a245c533cfcdac5d88ecad68c7", "type": "electric_scooter", "lat": 38.94260166666667, "is_disabled": 0}, {"fusion_lat": 0.0, "lon": -77.07388733333333, "is_reserved": 0, "bike_id": "c4ac52591ca34c6782d94b9428013f65", "fusion_lon": 0.0, "rental_uris": {"android": "https://dc.lft.to/lastmile_qr_scan", "ios": "https://dc.lft.to/lastmile_qr_scan"}, "name": "c4ac52591ca34c6782d94b9428013f65", "type": "electric_bike", "lat": 38.961816166666665, "is_disabled": 0}, {"fusion_lat": 0.0, "lon": -77.02963766666667, "is_reserved": 0, "bike_id": "947603a524be824450265dd2629a7dc7", "fusion_lon": 0.0, "rental_uris": {"android": "https://dc.lft.to/lastmile_qr_scan", "ios": "https://dc.lft.to/lastmile_qr_scan"}, "name": "947603a524be824450265dd2629a7dc7", "type": "electric_scooter", "lat": 38.9257065, "is_disabled": 0}, {"fusion_lat": 0.0, "lon": -77.08580083333334, "is_reserved": 0, "bike_id": "f0c8f911233594188b4fe02aed04aab2", "fusion_lon": 0.0, "rental_uris": {"android": "https://dc.lft.to/lastmile_qr_scan", "ios": "https://dc.lft.to/lastmile_qr_scan"}, "name": "f0c8f911233594188b4fe02aed04aab2", "type": "electric_bike", "lat": 38.84428166666667, "is_disabled": 0}, {"fusion_lat": 0.0, "lon": -77.063995, "is_reserved": 0, "bike_id": "55cc5d6366b226c37467a080dbc60333", "fusion_lon": 0.0, "rental_uris": {"android": "https://dc.lft.to/lastmile_qr_scan", "ios": "https://dc.lft.to/lastmile_qr_scan"}, "name": "55cc5d6366b226c37467a080dbc60333", "type": "electric_scooter", "lat": 38.94326233333334, "is_disabled": 0}, {"fusion_lat": 0.0, "lon": -77.03834083333334, "is_reserved": 0, "bike_id": "0b1083a6f528b1c581a26188c08b1168", "fusion_lon": 0.0, "rental_uris": {"android": "https://dc.lft.to/lastmile_qr_scan", "ios": "https://dc.lft.to/lastmile_qr_scan"}, "name": "0b1083a6f528b1c581a26188c08b1168", "type": "electric_scooter", "lat": 38.91193666666667, "is_disabled": 0}, {"fusion_lat": 0.0, "lon": -76.93732583333333, "is_reserved": 0, "bike_id": "4a35a028611548573183321691d5ba9a", "fusion_lon": 0.0, "rental_uris": {"android": "https://dc.lft.to/lastmile_qr_scan", "ios": "https://dc.lft.to/lastmile_qr_scan"}, "name": "4a35a028611548573183321691d5ba9a", "type": "electric_scooter", "lat": 38.89016316666667, "is_disabled": 0}, {"fusion_lat": 0.0, "lon": -77.02602183333333, "is_reserved": 0, "bike_id": "62e15152484847be145af36c153787e0", "fusion_lon": 0.0, "rental_uris": {"android": "https://dc.lft.to/lastmile_qr_scan", "ios": "https://dc.lft.to/lastmile_qr_scan"}, "name": "62e15152484847be145af36c153787e0", "type": "electric_scooter", "lat": 38.90515966666667, "is_disabled": 0}, {"fusion_lat": 0.0, "lon": -76.99033166666666, "is_reserved": 0, "bike_id": "76536bc2a65342be43904a5d96d6889d", "fusion_lon": 0.0, "rental_uris": {"android": "https://dc.lft.to/lastmile_qr_scan", "ios": "https://dc.lft.to/lastmile_qr_scan"}, "name": "76536bc2a65342be43904a5d96d6889d", "type": "electric_scooter", "lat": 38.902898666666665, "is_disabled": 0}, {"fusion_lat": 0.0, "lon": -77.0059775, "is_reserved": 0, "bike_id": "cbbf932c2a77b10c0ae5070a50fa8e82", "fusion_lon": 0.0, "rental_uris": {"android": "https://dc.lft.to/lastmile_qr_scan", "ios": "https://dc.lft.to/lastmile_qr_scan"}, "name": "cbbf932c2a77b10c0ae5070a50fa8e82", "type": "electric_scooter", "lat": 38.885221666666666, "is_disabled": 0}, {"fusion_lat": 0.0, "lon": -77.03637166666667, "is_reserved": 0, "bike_id": "f624e5b216b524254e6e64f0c4a42ac3", "fusion_lon": 0.0, "rental_uris": {"android": "https://dc.lft.to/lastmile_qr_scan", "ios": "https://dc.lft.to/lastmile_qr_scan"}, "name": "f624e5b216b524254e6e64f0c4a42ac3", "type": "electric_scooter", "lat": 38.9183105, "is_disabled": 0}, {"fusion_lat": 0.0, "lon": -77.041001, "is_reserved": 0, "bike_id": "5f810c0988816ea61ae3e344b7d5a2e2", "fusion_lon": 0.0, "rental_uris": {"android": "https://dc.lft.to/lastmile_qr_scan", "ios": "https://dc.lft.to/lastmile_qr_scan"}, "name": "5f810c0988816ea61ae3e344b7d5a2e2", "type": "electric_scooter", "lat": 38.917722166666664, "is_disabled": 0}, {"fusion_lat": 0.0, "lon": -77.02367266666667, "is_reserved": 0, "bike_id": "875c35f17447b11ed286abea62d1e802", "fusion_lon": 0.0, "rental_uris": {"android": "https://dc.lft.to/lastmile_qr_scan", "ios": "https://dc.lft.to/lastmile_qr_scan"}, "name": "875c35f17447b11ed286abea62d1e802", "type": "electric_scooter", "lat": 38.892233, "is_disabled": 0}, {"fusion_lat": 0.0, "lon": -76.97332366666667, "is_reserved": 0, "bike_id": "6d8da254642bbbab1b1534c19bf99b02", "fusion_lon": 0.0, "rental_uris": {"android": "https://dc.lft.to/lastmile_qr_scan", "ios": "https://dc.lft.to/lastmile_qr_scan"}, "name": "6d8da254642bbbab1b1534c19bf99b02", "type": "electric_scooter", "lat": 38.90411833333334, "is_disabled": 0}, {"fusion_lat": 0.0, "lon": -77.02730466666667, "is_reserved": 0, "bike_id": "9d886c748ee8a60676a0b4f2740c3137", "fusion_lon": 0.0, "rental_uris": {"android": "https://dc.lft.to/lastmile_qr_scan", "ios": "https://dc.lft.to/lastmile_qr_scan"}, "name": "9d886c748ee8a60676a0b4f2740c3137", "type": "electric_scooter", "lat": 38.95012466666667, "is_disabled": 0}, {"fusion_lat": 0.0, "lon": -77.02387283333333, "is_reserved": 0, "bike_id": "e5c2af3673d04b5b986e09bfe2151b04", "fusion_lon": 0.0, "rental_uris": {"android": "https://dc.lft.to/lastmile_qr_scan", "ios": "https://dc.lft.to/lastmile_qr_scan"}, "name": "e5c2af3673d04b5b986e09bfe2151b04", "type": "electric_scooter", "lat": 38.909606833333335, "is_disabled": 0}, {"fusion_lat": 0.0, "lon": -77.02388566666667, "is_reserved": 0, "bike_id": "e7fe3643e9aafd0243094c68dad3c85c", "fusion_lon": 0.0, "rental_uris": {"android": "https://dc.lft.to/lastmile_qr_scan", "ios": "https://dc.lft.to/lastmile_qr_scan"}, "name": "e7fe3643e9aafd0243094c68dad3c85c", "type": "electric_scooter", "lat": 38.919957333333336, "is_disabled": 0}, {"fusion_lat": 0.0, "lon": -77.02523066666667, "is_reserved": 0, "bike_id": "c70d602f3b2280cb7d7d883ea2c57316", "fusion_lon": 0.0, "rental_uris": {"android": "https://dc.lft.to/lastmile_qr_scan", "ios": "https://dc.lft.to/lastmile_qr_scan"}, "name": "c70d602f3b2280cb7d7d883ea2c57316", "type": "electric_scooter", "lat": 38.929811, "is_disabled": 0}, {"fusion_lat": 0.0, "lon": -77.03082283333333, "is_reserved": 0, "bike_id": "30b8608f0794f94e62ca21520cb18ba7", "fusion_lon": 0.0, "rental_uris": {"android": "https://dc.lft.to/lastmile_qr_scan", "ios": "https://dc.lft.to/lastmile_qr_scan"}, "name": "30b8608f0794f94e62ca21520cb18ba7", "type": "electric_scooter", "lat": 38.92251, "is_disabled": 0}, {"fusion_lat": 0.0, "lon": -77.0038695, "is_reserved": 0, "bike_id": "98a991a9e22eacb30b4bf5fc24f2b158", "fusion_lon": 0.0, "rental_uris": {"android": "https://dc.lft.to/lastmile_qr_scan", "ios": "https://dc.lft.to/lastmile_qr_scan"}, "name": "98a991a9e22eacb30b4bf5fc24f2b158", "type": "electric_scooter", "lat": 38.923672333333336, "is_disabled": 0}, {"fusion_lat": 0.0, "lon": -77.05593483333334, "is_reserved": 0, "bike_id": "8e6321dfa558aa0d9a50104d080d2a72", "fusion_lon": 0.0, "rental_uris": {"android": "https://dc.lft.to/lastmile_qr_scan", "ios": "https://dc.lft.to/lastmile_qr_scan"}, "name": "8e6321dfa558aa0d9a50104d080d2a72", "type": "electric_scooter", "lat": 38.907757, "is_disabled": 0}, {"fusion_lat": 0.0, "lon": -77.0236795, "is_reserved": 0, "bike_id": "39251cdac6ca14162115060bf10de701", "fusion_lon": 0.0, "rental_uris": {"android": "https://dc.lft.to/lastmile_qr_scan", "ios": "https://dc.lft.to/lastmile_qr_scan"}, "name": "39251cdac6ca14162115060bf10de701", "type": "electric_scooter", "lat": 38.901956166666665, "is_disabled": 0}, {"fusion_lat": 0.0, "lon": -77.02396966666667, "is_reserved": 0, "bike_id": "c9067676c7745bc79aa314560715b552", "fusion_lon": 0.0, "rental_uris": {"android": "https://dc.lft.to/lastmile_qr_scan", "ios": "https://dc.lft.to/lastmile_qr_scan"}, "name": "c9067676c7745bc79aa314560715b552", "type": "electric_scooter", "lat": 38.919967666666665, "is_disabled": 0}, {"fusion_lat": 0.0, "lon": -77.04567133333333, "is_reserved": 0, "bike_id": "77c73ddc852fab7f86eea548b83983d8", "fusion_lon": 0.0, "rental_uris": {"android": "https://dc.lft.to/lastmile_qr_scan", "ios": "https://dc.lft.to/lastmile_qr_scan"}, "name": "77c73ddc852fab7f86eea548b83983d8", "type": "electric_scooter", "lat": 38.89747216666667, "is_disabled": 0}, {"fusion_lat": 0.0, "lon": -77.11591683333333, "is_reserved": 0, "bike_id": "c5401cb9bcd4b4eb7169c5818c653f8e", "fusion_lon": 0.0, "rental_uris": {"android": "https://dc.lft.to/lastmile_qr_scan", "ios": "https://dc.lft.to/lastmile_qr_scan"}, "name": "c5401cb9bcd4b4eb7169c5818c653f8e", "type": "electric_bike", "lat": 39.0749605, "is_disabled": 0}, {"fusion_lat": 0.0, "lon": -77.0297715, "is_reserved": 0, "bike_id": "8b2f9d31bf20b098f2dc209870b3b026", "fusion_lon": 0.0, "rental_uris": {"android": "https://dc.lft.to/lastmile_qr_scan", "ios": "https://dc.lft.to/lastmile_qr_scan"}, "name": "8b2f9d31bf20b098f2dc209870b3b026", "type": "electric_bike", "lat": 38.924462, "is_disabled": 0}, {"fusion_lat": 0.0, "lon": -77.03551866666666, "is_reserved": 0, "bike_id": "3656632ca8b10d6768e09f983da57267", "fusion_lon": 0.0, "rental_uris": {"android": "https://dc.lft.to/lastmile_qr_scan", "ios": "https://dc.lft.to/lastmile_qr_scan"}, "name": "3656632ca8b10d6768e09f983da57267", "type": "electric_scooter", "lat": 38.928667833333336, "is_disabled": 0}, {"fusion_lat": 0.0, "lon": -77.0352155, "is_reserved": 0, "bike_id": "55acec9180d9d2d26f7757e3e40d5f3b", "fusion_lon": 0.0, "rental_uris": {"android": "https://dc.lft.to/lastmile_qr_scan", "ios": "https://dc.lft.to/lastmile_qr_scan"}, "name": "55acec9180d9d2d26f7757e3e40d5f3b", "type": "electric_scooter", "lat": 38.921971166666665, "is_disabled": 0}, {"fusion_lat": 0.0, "lon": -77.02976883333334, "is_reserved": 0, "bike_id": "9cbf65278a9a6e81ffe94ad7c8c5430b", "fusion_lon": 0.0, "rental_uris": {"android": "https://dc.lft.to/lastmile_qr_scan", "ios": "https://dc.lft.to/lastmile_qr_scan"}, "name": "9cbf65278a9a6e81ffe94ad7c8c5430b", "type": "electric_scooter", "lat": 38.929576833333336, "is_disabled": 0}, {"fusion_lat": 0.0, "lon": -76.98546183333333, "is_reserved": 0, "bike_id": "132736226c20a25819e6e516f7919c51", "fusion_lon": 0.0, "rental_uris": {"android": "https://dc.lft.to/lastmile_qr_scan", "ios": "https://dc.lft.to/lastmile_qr_scan"}, "name": "132736226c20a25819e6e516f7919c51", "type": "electric_bike", "lat": 38.88191416666667, "is_disabled": 0}, {"fusion_lat": 0.0, "lon": -77.00609433333334, "is_reserved": 0, "bike_id": "36ca0c0e604d6cd52795cec890fde30c", "fusion_lon": 0.0, "rental_uris": {"android": "https://dc.lft.to/lastmile_qr_scan", "ios": "https://dc.lft.to/lastmile_qr_scan"}, "name": "36ca0c0e604d6cd52795cec890fde30c", "type": "electric_scooter", "lat": 38.905810333333335, "is_disabled": 0}, {"fusion_lat": 0.0, "lon": -77.01140733333334, "is_reserved": 0, "bike_id": "e1bc05c6625cd2804c7030e99e2ae2b3", "fusion_lon": 0.0, "rental_uris": {"android": "https://dc.lft.to/lastmile_qr_scan", "ios": "https://dc.lft.to/lastmile_qr_scan"}, "name": "e1bc05c6625cd2804c7030e99e2ae2b3", "type": "electric_scooter", "lat": 38.90647166666667, "is_disabled": 0}, {"fusion_lat": 0.0, "lon": -76.98549516666667, "is_reserved": 0, "bike_id": "d7f3c1edd433ae7418904eac3158bc42", "fusion_lon": 0.0, "rental_uris": {"android": "https://dc.lft.to/lastmile_qr_scan", "ios": "https://dc.lft.to/lastmile_qr_scan"}, "name": "d7f3c1edd433ae7418904eac3158bc42", "type": "electric_scooter", "lat": 38.91032116666667, "is_disabled": 0}, {"fusion_lat": 0.0, "lon": -76.9915065, "is_reserved": 0, "bike_id": "4f3a2047928dacdf7db704619aa9c048", "fusion_lon": 0.0, "rental_uris": {"android": "https://dc.lft.to/lastmile_qr_scan", "ios": "https://dc.lft.to/lastmile_qr_scan"}, "name": "4f3a2047928dacdf7db704619aa9c048", "type": "electric_scooter", "lat": 38.9011975, "is_disabled": 0}, {"fusion_lat": 0.0, "lon": -76.989509, "is_reserved": 0, "bike_id": "b05ba8f21b6d2b543b497d9814723ba5", "fusion_lon": 0.0, "rental_uris": {"android": "https://dc.lft.to/lastmile_qr_scan", "ios": "https://dc.lft.to/lastmile_qr_scan"}, "name": "b05ba8f21b6d2b543b497d9814723ba5", "type": "electric_scooter", "lat": 38.90039816666667, "is_disabled": 0}, {"fusion_lat": 0.0, "lon": -77.07514633333334, "is_reserved": 0, "bike_id": "346032b40195681333883e4418320365", "fusion_lon": 0.0, "rental_uris": {"android": "https://dc.lft.to/lastmile_qr_scan", "ios": "https://dc.lft.to/lastmile_qr_scan"}, "name": "346032b40195681333883e4418320365", "type": "electric_scooter", "lat": 38.894523666666664, "is_disabled": 0}, {"fusion_lat": 0.0, "lon": -76.97627616666666, "is_reserved": 0, "bike_id": "c94001c40139a6f8a79de582b4ae1483", "fusion_lon": 0.0, "rental_uris": {"android": "https://dc.lft.to/lastmile_qr_scan", "ios": "https://dc.lft.to/lastmile_qr_scan"}, "name": "c94001c40139a6f8a79de582b4ae1483", "type": "electric_scooter", "lat": 38.9057485, "is_disabled": 0}, {"fusion_lat": 0.0, "lon": -77.032502, "is_reserved": 0, "bike_id": "60f6a0b9b40baabfe43c27f3e1595940", "fusion_lon": 0.0, "rental_uris": {"android": "https://dc.lft.to/lastmile_qr_scan", "ios": "https://dc.lft.to/lastmile_qr_scan"}, "name": "60f6a0b9b40baabfe43c27f3e1595940", "type": "electric_scooter", "lat": 38.90282533333333, "is_disabled": 0}, {"fusion_lat": 0.0, "lon": -77.02367383333333, "is_reserved": 0, "bike_id": "a28c21d446562fc80cb373ac580fa92a", "fusion_lon": 0.0, "rental_uris": {"android": "https://dc.lft.to/lastmile_qr_scan", "ios": "https://dc.lft.to/lastmile_qr_scan"}, "name": "a28c21d446562fc80cb373ac580fa92a", "type": "electric_scooter", "lat": 38.920495333333335, "is_disabled": 0},