{"data": {"bikes": [{"lon": -77.04041916666667, "bike_id": "a3072bcbcbae17303f0f218b3025cb03", "lat": 38.90850416666667, "fusion_lon": 0.0, "fusion_lat": 0.0, "type": "electric_bike", "name": "a3072bcbcbae17303f0f218b3025cb03", "is_disabled": 0, "rental_uris": {"ios": "https://dc.lft.to/lastmile_qr_scan", "android": "https://dc.lft.to/lastmile_qr_scan"}, "is_reserved": 0}, {"lon": -77.03800816666667, "bike_id": "b940ab97d29bb01fb2816bec50a1f165", "lat": 38.920615, "fusion_lon": 0.0, "fusion_lat": 0.0, "type": "electric_scooter", "name": "b940ab97d29bb01fb2816bec50a1f165", "is_disabled": 0, "rental_uris": {"ios": "https://dc.lft.to/lastmile_qr_scan", "android": "https://dc.lft.to/lastmile_qr_scan"}, "is_reserved": 0}, {"lon": -77.02596733333333, "bike_id": "06df819d14eb12dcc9c7690644978474", "lat": 38.94201183333333, "fusion_lon": 0.0, "fusion_lat": 0.0, "type": "electric_scooter", "name": "06df819d14eb12dcc9c7690644978474", "is_disabled": 0, "rental_uris": {"ios": "https://dc.lft.to/lastmile_qr_scan", "android": "https://dc.lft.to/lastmile_qr_scan"}, "is_reserved": 0}, {"lon": -76.979527, "bike_id": "7c32579cb7ba99efcbb4f289c7313887", "lat": 38.9524075, "fusion_lon": 0.0, "fusion_lat": 0.0, "type": "electric_bike", "name": "7c32579cb7ba99efcbb4f289c7313887", "is_disabled": 0, "rental_uris": {"ios": "https://dc.lft.to/lastmile_qr_scan", "android": "https://dc.lft.to/lastmile_qr_scan"}, "is_reserved": 0}, {"lon": -77.0176875, "bike_id": "4e64169bf1ce1bdf0115b367f6616b69", "lat": 38.88597383333333, "fusion_lon": 0.0, "fusion_lat": 0.0, "type": "electric_scooter", "name": "4e64169bf1ce1bdf0115b367f6616b69", "is_disabled": 0, "rental_uris": {"ios": "https://dc.lft.to/lastmile_qr_scan", "android": "https://dc.lft.to/lastmile_qr_scan"}, "is_reserved": 0}, {"lon": -77.032137, "bike_id": "61fb2ba2ef6678860a3cb393cf2f9c93", "lat": 38.89870033333333, "fusion_lon": 0.0, "fusion_lat": 0.0, "type": "electric_scooter", "name": "61fb2ba2ef6678860a3cb393cf2f9c93", "is_disabled": 0, "rental_uris": {"ios": "https://dc.lft.to/lastmile_qr_scan", "android": "https://dc.lft.to/lastmile_qr_scan"}, "is_reserved": 0}, {"lon": -77.00675416666667, "bike_id": "fc8efd39bcc5ee749909fc3ce0692467", "lat": 38.94512183333333, "fusion_lon": 0.0, "fusion_lat": 0.0, "type": "electric_bike", "name": "fc8efd39bcc5ee749909fc3ce0692467", "is_disabled": 0, "rental_uris": {"ios": "https://dc.lft.to/lastmile_qr_scan", "android": "https://dc.lft.to/lastmile_qr_scan"}, "is_reserved": 0}, {"lon": -77.003125, "bike_id": "19ed45785ad195e8909e3ba6d2e22a1d", "lat": 38.92351516666667, "fusion_lon": 0.0, "fusion_lat": 0.0, "type": "electric_scooter", "name": "19ed45785ad195e8909e3ba6d2e22a1d", "is_disabled": 0, "rental_uris": {"ios": "https://dc.lft.to/lastmile_qr_scan", "android": "https://dc.lft.to/lastmile_qr_scan"}, "is_reserved": 0}, {"lon": -77.03642216666667, "bike_id": "7229a214ed4e3a4ecdae6665d4afd31a", "lat": 38.911802333333334, "fusion_lon": 0.0, "fusion_lat": 0.0, "type": "electric_scooter", "name": "7229a214ed4e3a4ecdae6665d4afd31a", "is_disabled": 0, "rental_uris": {"ios": "https://dc.lft.to/lastmile_qr_scan", "android": "https://dc.lft.to/lastmile_qr_scan"}, "is_reserved": 0}, {"lon": -77.02310283333334, "bike_id": "0c96fe9c54986a2274f8aed8a83e85e1", "lat": 38.878798, "fusion_lon": 0.0, "fusion_lat": 0.0, "type": "electric_scooter", "name": "0c96fe9c54986a2274f8aed8a83e85e1", "is_disabled": 0, "rental_uris": {"ios": "https://dc.lft.to/lastmile_qr_scan", "android": "https://dc.lft.to/lastmile_qr_scan"}, "is_reserved": 0}, {"lon": -77.02117366666667, "bike_id": "79a817c439a395957700dc6df190d9ff", "lat": 38.93017016666667, "fusion_lon": 0.0, "fusion_lat": 0.0, "type": "electric_scooter", "name": "79a817c439a395957700dc6df190d9ff", "is_disabled": 0, "rental_uris": {"ios": "https://dc.lft.to/lastmile_qr_scan", "android": "https://dc.lft.to/lastmile_qr_scan"}, "is_reserved": 0}, {"lon": -76.94633133333333, "bike_id": "b480e6a0d8995942a504444f5abc80b9", "lat": 38.89831683333333, "fusion_lon": 0.0, "fusion_lat": 0.0, "type": "electric_scooter", "name": "b480e6a0d8995942a504444f5abc80b9", "is_disabled": 0, "rental_uris": {"ios": "https://dc.lft.to/lastmile_qr_scan", "android": "https://dc.lft.to/lastmile_qr_scan"}, "is_reserved": 0}, {"lon": -77.030879, "bike_id": "0be750d3d54ac9fffb92952d7384e70e", "lat": 38.909972333333336, "fusion_lon": 0.0, "fusion_lat": 0.0, "type": "electric_scooter", "name": "0be750d3d54ac9fffb92952d7384e70e", "is_disabled": 0, "rental_uris": {"ios": "https://dc.lft.to/lastmile_qr_scan", "android": "https://dc.lft.to/lastmile_qr_scan"}, "is_reserved": 0}, {"lon": -77.00048333333334, "bike_id": "2a0f68771a811d784e573411b8fa6129", "lat": 38.906955333333336, "fusion_lon": 0.0, "fusion_lat": 0.0, "type": "electric_scooter", "name": "2a0f68771a811d784e573411b8fa6129", "is_disabled": 0, "rental_uris": {"ios": "https://dc.lft.to/lastmile_qr_scan", "android": "https://dc.lft.to/lastmile_qr_scan"}, "is_reserved": 0}, {"lon": -76.98365166666666, "bike_id": "fa01495326a65b012254c504be6ee54f", "lat": 38.906505333333335, "fusion_lon": 0.0, "fusion_lat": 0.0, "type": "electric_scooter", "name": "fa01495326a65b012254c504be6ee54f", "is_disabled": 0, "rental_uris": {"ios": "https://dc.lft.to/lastmile_qr_scan", "android": "https://dc.lft.to/lastmile_qr_scan"}, "is_reserved": 0}, {"lon": -77.068903, "bike_id": "c149372b776d32df412b2b7ef902d37c", "lat": 38.905053, "fusion_lon": 0.0, "fusion_lat": 0.0, "type": "electric_scooter", "name": "c149372b776d32df412b2b7ef902d37c", "is_disabled": 0, "rental_uris": {"ios": "https://dc.lft.to/lastmile_qr_scan", "android": "https://dc.lft.to/lastmile_qr_scan"}, "is_reserved": 0}, {"lon": -76.98499633333333, "bike_id": "59438727fcb9f733e7b2a95e15a3bc72", "lat": 38.879330333333336, "fusion_lon": 0.0, "fusion_lat": 0.0, "type": "electric_bike", "name": "59438727fcb9f733e7b2a95e15a3bc72", "is_disabled": 0, "rental_uris": {"ios": "https://dc.lft.to/lastmile_qr_scan", "android": "https://dc.lft.to/lastmile_qr_scan"}, "is_reserved": 0}, {"lon": -76.9938415, "bike_id": "c69db830b2db94e641ca17b25ae15f0f", "lat": 38.923979, "fusion_lon": 0.0, "fusion_lat": 0.0, "type": "electric_scooter", "name": "c69db830b2db94e641ca17b25ae15f0f", "is_disabled": 0, "rental_uris": {"ios": "https://dc.lft.to/lastmile_qr_scan", "android": "https://dc.lft.to/lastmile_qr_scan"}, "is_reserved": 0}, {"lon": -77.0500795, "bike_id": "d3de89b19700c6d75de391ea5dbfdb91", "lat": 38.915675666666665, "fusion_lon": 0.0, "fusion_lat": 0.0, "type": "electric_bike", "name": "d3de89b19700c6d75de391ea5dbfdb91", "is_disabled": 0, "rental_uris": {"ios": "https://dc.lft.to/lastmile_qr_scan", "android": "https://dc.lft.to/lastmile_qr_scan"}, "is_reserved": 0}, {"lon": -77.03260983333334, "bike_id": "cc333300333835cb56fbd2976b612b6a", "lat": 38.93900216666667, "fusion_lon": 0.0, "fusion_lat": 0.0, "type": "electric_scooter", "name": "cc333300333835cb56fbd2976b612b6a", "is_disabled": 0, "rental_uris": {"ios": "https://dc.lft.to/lastmile_qr_scan", "android": "https://dc.lft.to/lastmile_qr_scan"}, "is_reserved": 0}, {"lon": -77.041267, "bike_id": "95fa85606c98f8b445b955272c9e4e8e", "lat": 38.92131916666666, "fusion_lon": 0.0, "fusion_lat": 0.0, "type": "electric_scooter", "name": "95fa85606c98f8b445b955272c9e4e8e", "is_disabled": 0, "rental_uris": {"ios": "https://dc.lft.to/lastmile_qr_scan", "android": "https://dc.lft.to/lastmile_qr_scan"}, "is_reserved": 0}, {"lon": -77.03249366666667, "bike_id": "7ea812a2e9f7a9b5ae1bc6f0482c2ca7", "lat": 38.9097575, "fusion_lon": 0.0, "fusion_lat": 0.0, "type": "electric_scooter", "name": "7ea812a2e9f7a9b5ae1bc6f0482c2ca7", "is_disabled": 0, "rental_uris": {"ios": "https://dc.lft.to/lastmile_qr_scan", "android": "https://dc.lft.to/lastmile_qr_scan"}, "is_reserved": 0}, {"lon": -77.0340285, "bike_id": "51e04674ec2b8b2450d4359ac3acecb2", "lat": 38.905439666666666, "fusion_lon": 0.0, "fusion_lat": 0.0, "type": "electric_scooter", "name": "51e04674ec2b8b2450d4359ac3acecb2", "is_disabled": 0, "rental_uris": {"ios": "https://dc.lft.to/lastmile_qr_scan", "android": "https://dc.lft.to/lastmile_qr_scan"}, "is_reserved": 0}, {"lon": -77.03517416666666, "bike_id": "bd3affbaf4a335175cde10d05de7186d", "lat": 38.91598033333333, "fusion_lon": 0.0, "fusion_lat": 0.0, "type": "electric_scooter", "name": "bd3affbaf4a335175cde10d05de7186d", "is_disabled": 0, "rental_uris": {"ios": "https://dc.lft.to/lastmile_qr_scan", "android": "https://dc.lft.to/lastmile_qr_scan"}, "is_reserved": 0}, {"lon": -77.03325666666667, "bike_id": "d04b45cc3cfb88a684e5c63bd3ade8dd", "lat": 38.93893816666667, "fusion_lon": 0.0, "fusion_lat": 0.0, "type": "electric_scooter", "name": "d04b45cc3cfb88a684e5c63bd3ade8dd", "is_disabled": 0, "rental_uris": {"ios": "https://dc.lft.to/lastmile_qr_scan", "android": "https://dc.lft.to/lastmile_qr_scan"}, "is_reserved": 0}, {"lon": -77.04210316666666, "bike_id": "36d9a42c91cca10458e0e598be5eaa17", "lat": 38.921240833333336, "fusion_lon": 0.0, "fusion_lat": 0.0, "type": "electric_scooter", "name": "36d9a42c91cca10458e0e598be5eaa17", "is_disabled": 0, "rental_uris": {"ios": "https://dc.lft.to/lastmile_qr_scan", "android": "https://dc.lft.to/lastmile_qr_scan"}, "is_reserved": 0}, {"lon": -77.00256266666666, "bike_id": "7f94f7ec3df794167951ffd161848b16", "lat": 38.9181665, "fusion_lon": 0.0, "fusion_lat": 0.0, "type": "electric_scooter", "name": "7f94f7ec3df794167951ffd161848b16", "is_disabled": 0, "rental_uris": {"ios": "https://dc.lft.to/lastmile_qr_scan", "android": "https://dc.lft.to/lastmile_qr_scan"}, "is_reserved": 0}, {"lon": -77.02705983333334, "bike_id": "347397c917280f2ba28b16326e75fba8", "lat": 38.90669183333333, "fusion_lon": 0.0, "fusion_lat": 0.0, "type": "electric_scooter", "name": "347397c917280f2ba28b16326e75fba8", "is_disabled": 0, "rental_uris": {"ios": "https://dc.lft.to/lastmile_qr_scan", "android": "https://dc.lft.to/lastmile_qr_scan"}, "is_reserved": 0}, {"lon": -77.032627, "bike_id": "6d4b5ea94078ff28f20f940c1f9ba100", "lat": 38.932626, "fusion_lon": 0.0, "fusion_lat": 0.0, "type": "electric_scooter", "name": "6d4b5ea94078ff28f20f940c1f9ba100", "is_disabled": 0, "rental_uris": {"ios": "https://dc.lft.to/lastmile_qr_scan", "android": "https://dc.lft.to/lastmile_qr_scan"}, "is_reserved": 0}, {"lon": -77.02505816666667, "bike_id": "00a744ece6226361cb73f8ecce8a6861", "lat": 38.920532666666666, "fusion_lon": 0.0, "fusion_lat": 0.0, "type": "electric_scooter", "name": "00a744ece6226361cb73f8ecce8a6861", "is_disabled": 0, "rental_uris": {"ios": "https://dc.lft.to/lastmile_qr_scan", "android": "https://dc.lft.to/lastmile_qr_scan"}, "is_reserved": 0}, {"lon": -77.025899, "bike_id": "764003fd495af29a67aecc76a4d70b4e", "lat": 38.914133, "fusion_lon": 0.0, "fusion_lat": 0.0, "type": "electric_scooter", "name": "764003fd495af29a67aecc76a4d70b4e", "is_disabled": 0, "rental_uris": {"ios": "https://dc.lft.to/lastmile_qr_scan", "android": "https://dc.lft.to/lastmile_qr_scan"}, "is_reserved": 0}, {"lon": -77.046782, "bike_id": "03f8c98f69e0111881ab9193e792f274", "lat": 38.90042666666667, "fusion_lon": 0.0, "fusion_lat": 0.0, "type": "electric_scooter", "name": "03f8c98f69e0111881ab9193e792f274", "is_disabled": 0, "rental_uris": {"ios": "https://dc.lft.to/lastmile_qr_scan", "android": "https://dc.lft.to/lastmile_qr_scan"}, "is_reserved": 0}, {"lon": -77.037115, "bike_id": "fcdd3ce4a94440ffb0990bda5d522707", "lat": 38.914818333333336, "fusion_lon": 0.0, "fusion_lat": 0.0, "type": "electric_scooter", "name": "fcdd3ce4a94440ffb0990bda5d522707", "is_disabled": 0, "rental_uris": {"ios": "https://dc.lft.to/lastmile_qr_scan", "android": "https://dc.lft.to/lastmile_qr_scan"}, "is_reserved": 0}, {"lon": -77.0189395, "bike_id": "edf0f974c69d1e3b1a4e5c401996fd7b", "lat": 38.87462083333333, "fusion_lon": 0.0, "fusion_lat": 0.0, "type": "electric_scooter", "name": "edf0f974c69d1e3b1a4e5c401996fd7b", "is_disabled": 0, "rental_uris": {"ios": "https://dc.lft.to/lastmile_qr_scan", "android": "https://dc.lft.to/lastmile_qr_scan"}, "is_reserved": 0}, {"lon": -77.0320125, "bike_id": "0f4dac3cd3b36b73db465518e089ddc2", "lat": 38.9095015, "fusion_lon": 0.0, "fusion_lat": 0.0, "type": "electric_scooter", "name": "0f4dac3cd3b36b73db465518e089ddc2", "is_disabled": 0, "rental_uris": {"ios": "https://dc.lft.to/lastmile_qr_scan", "android": "https://dc.lft.to/lastmile_qr_scan"}, "is_reserved": 0}, {"lon": -77.03906766666667, "bike_id": "b2b0021064ea53b6ca26eb5152b3b210", "lat": 38.91422683333333, "fusion_lon": 0.0, "fusion_lat": 0.0, "type": "electric_scooter", "name": "b2b0021064ea53b6ca26eb5152b3b210", "is_disabled": 0, "rental_uris": {"ios": "https://dc.lft.to/lastmile_qr_scan", "android": "https://dc.lft.to/lastmile_qr_scan"}, "is_reserved": 0}, {"lon": -77.04169083333333, "bike_id": "5d8ee7c2bfecab5805b0107ca6fd85c2", "lat": 38.913956166666665, "fusion_lon": 0.0, "fusion_lat": 0.0, "type": "electric_scooter", "name": "5d8ee7c2bfecab5805b0107ca6fd85c2", "is_disabled": 0, "rental_uris": {"ios": "https://dc.lft.to/lastmile_qr_scan", "android": "https://dc.lft.to/lastmile_qr_scan"}, "is_reserved": 0}, {"lon": -77.03217516666666, "bike_id": "f1b4cf5782b0cfbb135a64337a5a6335", "lat": 38.908685166666665, "fusion_lon": 0.0, "fusion_lat": 0.0, "type": "electric_scooter", "name": "f1b4cf5782b0cfbb135a64337a5a6335", "is_disabled": 0, "rental_uris": {"ios": "https://dc.lft.to/lastmile_qr_scan", "android": "https://dc.lft.to/lastmile_qr_scan"}, "is_reserved": 0}, {"lon": -77.0833455, "bike_id": "e0d0eb5d583dfda15d1fc21cd45bec3b", "lat": 38.854377166666666, "fusion_lon": 0.0, "fusion_lat": 0.0, "type": "electric_bike", "name": "e0d0eb5d583dfda15d1fc21cd45bec3b", "is_disabled": 0, "rental_uris": {"ios": "https://dc.lft.to/lastmile_qr_scan", "android": "https://dc.lft.to/lastmile_qr_scan"}, "is_reserved": 0}, {"lon": -77.03587466666667, "bike_id": "010076b790815861a9982ce78c76708d", "lat": 38.99225883333333, "fusion_lon": 0.0, "fusion_lat": 0.0, "type": "electric_scooter", "name": "010076b790815861a9982ce78c76708d", "is_disabled": 0, "rental_uris": {"ios": "https://dc.lft.to/lastmile_qr_scan", "android": "https://dc.lft.to/lastmile_qr_scan"}, "is_reserved": 0}, {"lon": -77.038367, "bike_id": "21438c66b728eb6a82e47ad89d1f30ad", "lat": 38.904069166666666, "fusion_lon": 0.0, "fusion_lat": 0.0, "type": "electric_scooter", "name": "21438c66b728eb6a82e47ad89d1f30ad", "is_disabled": 0, "rental_uris": {"ios": "https://dc.lft.to/lastmile_qr_scan", "android": "https://dc.lft.to/lastmile_qr_scan"}, "is_reserved": 0}, {"lon": -77.02509283333333, "bike_id": "f708983710aed20a2bfcf830a4cfbe96", "lat": 38.904072, "fusion_lon": 0.0, "fusion_lat": 0.0, "type": "electric_scooter", "name": "f708983710aed20a2bfcf830a4cfbe96", "is_disabled": 0, "rental_uris": {"ios": "https://dc.lft.to/lastmile_qr_scan", "android": "https://dc.lft.to/lastmile_qr_scan"}, "is_reserved": 0}, {"lon": -76.9782805, "bike_id": "9ded2eff17b0596614ce91d6f53c0d6e", "lat": 38.84370533333333, "fusion_lon": 0.0, "fusion_lat": 0.0, "type": "electric_bike", "name": "9ded2eff17b0596614ce91d6f53c0d6e", "is_disabled": 0, "rental_uris": {"ios": "https://dc.lft.to/lastmile_qr_scan", "android": "https://dc.lft.to/lastmile_qr_scan"}, "is_reserved": 0}, {"lon": -77.03318216666666, "bike_id": "aeb9da5036ca5d261b9b374a52a6d513", "lat": 38.92156766666667, "fusion_lon": 0.0, "fusion_lat": 0.0, "type": "electric_scooter", "name": "aeb9da5036ca5d261b9b374a52a6d513", "is_disabled": 0, "rental_uris": {"ios": "https://dc.lft.to/lastmile_qr_scan", "android": "https://dc.lft.to/lastmile_qr_scan"}, "is_reserved": 0}, {"lon": -77.00915833333333, "bike_id": "802b8b5aea11a0dd3ec3f30a747d7163", "lat": 38.899832, "fusion_lon": 0.0, "fusion_lat": 0.0, "type": "electric_scooter", "name": "802b8b5aea11a0dd3ec3f30a747d7163", "is_disabled": 0, "rental_uris": {"ios": "https://dc.lft.to/lastmile_qr_scan", "android": "https://dc.lft.to/lastmile_qr_scan"}, "is_reserved": 0}, {"lon": -76.98834983333333, "bike_id": "dd51638d9445a1dd8467818683ca40ba", "lat": 38.900966833333335, "fusion_lon": 0.0, "fusion_lat": 0.0, "type": "electric_scooter", "name": "dd51638d9445a1dd8467818683ca40ba", "is_disabled": 0, "rental_uris": {"ios": "https://dc.lft.to/lastmile_qr_scan", "android": "https://dc.lft.to/lastmile_qr_scan"}, "is_reserved": 0}, {"lon": -77.1080685, "bike_id": "320eac2b552b2670335418efbbacf03d", "lat": 38.812033, "fusion_lon": 0.0, "fusion_lat": 0.0, "type": "electric_bike", "name": "320eac2b552b2670335418efbbacf03d", "is_disabled": 0, "rental_uris": {"ios": "https://dc.lft.to/lastmile_qr_scan", "android": "https://dc.lft.to/lastmile_qr_scan"}, "is_reserved": 0}, {"lon": -77.02592033333333, "bike_id": "82d1e25e50ed2ef2175b7428f5d8ce69", "lat": 38.94198266666667, "fusion_lon": 0.0, "fusion_lat": 0.0, "type": "electric_scooter", "name": "82d1e25e50ed2ef2175b7428f5d8ce69", "is_disabled": 0, "rental_uris": {"ios": "https://dc.lft.to/lastmile_qr_scan", "android": "https://dc.lft.to/lastmile_qr_scan"}, "is_reserved": 0}, {"lon": -76.99939666666667, "bike_id": "2877b52470061a9572f8c9529e92cdc1", "lat": 38.91927866666666, "fusion_lon": 0.0, "fusion_lat": 0.0, "type": "electric_scooter", "name": "2877b52470061a9572f8c9529e92cdc1", "is_disabled": 0, "rental_uris": {"ios": "https://dc.lft.to/lastmile_qr_scan", "android": "https://dc.lft.to/lastmile_qr_scan"}, "is_reserved": 0}, {"lon": -77.03387116666667, "bike_id": "984abfec841097308246ac7711873635", "lat": 38.90266483333333, "fusion_lon": 0.0, "fusion_lat": 0.0, "type": "electric_scooter", "name": "984abfec841097308246ac7711873635", "is_disabled": 0, "rental_uris": {"ios": "https://dc.lft.to/lastmile_qr_scan", "android": "https://dc.lft.to/lastmile_qr_scan"}, "is_reserved": 0}, {"lon": -77.04002416666667, "bike_id": "80b956fd4753c557f44505923d5506f7", "lat": 38.918189, "fusion_lon": 0.0, "fusion_lat": 0.0, "type": "electric_scooter", "name": "80b956fd4753c557f44505923d5506f7", "is_disabled": 0, "rental_uris": {"ios": "https://dc.lft.to/lastmile_qr_scan", "android": "https://dc.lft.to/lastmile_qr_scan"}, "is_reserved": 0}, {"lon": -77.02201733333334, "bike_id": "ee65ef43cec3bc6acc6004e7c34bf885", "lat": 38.892928833333336, "fusion_lon": 0.0, "fusion_lat": 0.0, "type": "electric_scooter", "name": "ee65ef43cec3bc6acc6004e7c34bf885", "is_disabled": 0, "rental_uris": {"ios": "https://dc.lft.to/lastmile_qr_scan", "android": "https://dc.lft.to/lastmile_qr_scan"}, "is_reserved": 0}, {"lon": -77.031853, "bike_id": "86b5760b4614f959205a0b1b230cea42", "lat": 38.902918, "fusion_lon": 0.0, "fusion_lat": 0.0, "type": "electric_scooter", "name": "86b5760b4614f959205a0b1b230cea42", "is_disabled": 0, "rental_uris": {"ios": "https://dc.lft.to/lastmile_qr_scan", "android": "https://dc.lft.to/lastmile_qr_scan"}, "is_reserved": 0}, {"lon": -77.04173133333333, "bike_id": "0a97e94b50bbcf1476b88fdd4ee8323e", "lat": 38.91700133333333, "fusion_lon": 0.0, "fusion_lat": 0.0, "type": "electric_scooter", "name": "0a97e94b50bbcf1476b88fdd4ee8323e", "is_disabled": 0, "rental_uris": {"ios": "https://dc.lft.to/lastmile_qr_scan", "android": "https://dc.lft.to/lastmile_qr_scan"}, "is_reserved": 0}, {"lon": -77.05575133333333, "bike_id": "159e96e6d1c3792311d49da11aeb0667", "lat": 38.93057066666667, "fusion_lon": 0.0, "fusion_lat": 0.0, "type": "electric_scooter", "name": "159e96e6d1c3792311d49da11aeb0667", "is_disabled": 0, "rental_uris": {"ios": "https://dc.lft.to/lastmile_qr_scan", "android": "https://dc.lft.to/lastmile_qr_scan"}, "is_reserved": 0}, {"lon": -77.124315, "bike_id": "9c7fa7c5ad8e934e92b459e3b7d25a3d", "lat": 38.853813, "fusion_lon": 0.0, "fusion_lat": 0.0, "type": "electric_bike", "name": "9c7fa7c5ad8e934e92b459e3b7d25a3d", "is_disabled": 0, "rental_uris": {"ios": "https://dc.lft.to/lastmile_qr_scan", "android": "https://dc.lft.to/lastmile_qr_scan"}, "is_reserved": 0}, {"lon": -76.97206766666666, "bike_id": "076e905207ff731ac54e0bf3d500ac0d", "lat": 38.892885, "fusion_lon": 0.0, "fusion_lat": 0.0, "type": "electric_bike", "name": "076e905207ff731ac54e0bf3d500ac0d", "is_disabled": 0, "rental_uris": {"ios": "https://dc.lft.to/lastmile_qr_scan", "android": "https://dc.lft.to/lastmile_qr_scan"}, "is_reserved": 0}, {"lon": -77.009751, "bike_id": "ef2a9b196512f70631ffa13e7c2cce43", "lat": 38.87070333333333, "fusion_lon": 0.0, "fusion_lat": 0.0, "type": "electric_scooter", "name": "ef2a9b196512f70631ffa13e7c2cce43", "is_disabled": 0, "rental_uris": {"ios": "https://dc.lft.to/lastmile_qr_scan", "android": "https://dc.lft.to/lastmile_qr_scan"}, "is_reserved": 0}, {"lon": -77.02707283333334, "bike_id": "17338c78bf363f164798c61d859b93d2", "lat": 38.949829, "fusion_lon": 0.0, "fusion_lat": 0.0, "type": "electric_scooter", "name": "17338c78bf363f164798c61d859b93d2", "is_disabled": 0, "rental_uris": {"ios": "https://dc.lft.to/lastmile_qr_scan", "android": "https://dc.lft.to/lastmile_qr_scan"}, "is_reserved": 0}, {"lon": -77.13930133333334, "bike_id": "b114a52e20e141845c87360f04008af7", "lat": 38.87299816666667, "fusion_lon": 0.0, "fusion_lat": 0.0, "type": "electric_bike", "name": "b114a52e20e141845c87360f04008af7", "is_disabled": 0, "rental_uris": {"ios": "https://dc.lft.to/lastmile_qr_scan", "android": "https://dc.lft.to/lastmile_qr_scan"}, "is_reserved": 0}, {"lon": -77.00878333333333, "bike_id": "9250b23db7a42b5bf65a9ea8e8977aa2", "lat": 38.8253325, "fusion_lon": 0.0, "fusion_lat": 0.0, "type": "electric_scooter", "name": "9250b23db7a42b5bf65a9ea8e8977aa2", "is_disabled": 0, "rental_uris": {"ios": "https://dc.lft.to/lastmile_qr_scan", "android": "https://dc.lft.to/lastmile_qr_scan"}, "is_reserved": 0}, {"lon": -77.03816216666667, "bike_id": "f294eb8509d0e33dcd42e58f8070c1ad", "lat": 38.9309665, "fusion_lon": 0.0, "fusion_lat": 0.0, "type": "electric_scooter", "name": "f294eb8509d0e33dcd42e58f8070c1ad", "is_disabled": 0, "rental_uris": {"ios": "https://dc.lft.to/lastmile_qr_scan", "android": "https://dc.lft.to/lastmile_qr_scan"}, "is_reserved": 0}, {"lon": -76.992692, "bike_id": "c6a71cd55cdb62d4536f0341503abe57", "lat": 38.860323, "fusion_lon": 0.0, "fusion_lat": 0.0, "type": "electric_scooter", "name": "c6a71cd55cdb62d4536f0341503abe57", "is_disabled": 0, "rental_uris": {"ios": "https://dc.lft.to/lastmile_qr_scan", "android": "https://dc.lft.to/lastmile_qr_scan"}, "is_reserved": 0}, {"lon": -76.988384, "bike_id": "c2fbda03f0226e38c9a8617f0846f66d", "lat": 38.896652833333334, "fusion_lon": 0.0, "fusion_lat": 0.0, "type": "electric_scooter", "name": "c2fbda03f0226e38c9a8617f0846f66d", "is_disabled": 0, "rental_uris": {"ios": "https://dc.lft.to/lastmile_qr_scan", "android": "https://dc.lft.to/lastmile_qr_scan"}, "is_reserved": 0}, {"lon": -77.04488383333333, "bike_id": "f62acf501be973ca08377f51c7004603", "lat": 38.913279333333335, "fusion_lon": 0.0, "fusion_lat": 0.0, "type": "electric_scooter", "name": "f62acf501be973ca08377f51c7004603", "is_disabled": 0, "rental_uris": {"ios": "https://dc.lft.to/lastmile_qr_scan", "android": "https://dc.lft.to/lastmile_qr_scan"}, "is_reserved": 0}, {"lon": -77.02209116666667, "bike_id": "48c21b35d1b800904fb70c878b2bd4de", "lat": 38.8934895, "fusion_lon": 0.0, "fusion_lat": 0.0, "type": "electric_scooter", "name": "48c21b35d1b800904fb70c878b2bd4de", "is_disabled": 0, "rental_uris": {"ios": "https://dc.lft.to/lastmile_qr_scan", "android": "https://dc.lft.to/lastmile_qr_scan"}, "is_reserved": 0}, {"lon": -77.077616, "bike_id": "f67d45197024280bd32c0b63b8d93e1f", "lat": 38.95773366666667, "fusion_lon": 0.0, "fusion_lat": 0.0, "type": "electric_scooter", "name": "f67d45197024280bd32c0b63b8d93e1f", "is_disabled": 0, "rental_uris": {"ios": "https://dc.lft.to/lastmile_qr_scan", "android": "https://dc.lft.to/lastmile_qr_scan"}, "is_reserved": 0}, {"lon": -76.95182, "bike_id": "ae14bbf21456aa508c0ad26ef3ffab26", "lat": 38.907409, "fusion_lon": 0.0, "fusion_lat": 0.0, "type": "electric_scooter", "name": "ae14bbf21456aa508c0ad26ef3ffab26", "is_disabled": 0, "rental_uris": {"ios": "https://dc.lft.to/lastmile_qr_scan", "android": "https://dc.lft.to/lastmile_qr_scan"}, "is_reserved": 0}, {"lon": -76.98716116666667, "bike_id": "6695f5e98c2d56871908e0a09bdc2d8b", "lat": 38.866273666666665, "fusion_lon": 0.0, "fusion_lat": 0.0, "type": "electric_scooter", "name": "6695f5e98c2d56871908e0a09bdc2d8b", "is_disabled": 0, "rental_uris": {"ios": "https://dc.lft.to/lastmile_qr_scan", "android": "https://dc.lft.to/lastmile_qr_scan"}, "is_reserved": 0}, {"lon": -77.00456666666666, "bike_id": "e28400b7dd9c52116512903e700b06df", "lat": 38.914370166666664, "fusion_lon": 0.0, "fusion_lat": 0.0, "type": "electric_scooter", "name": "e28400b7dd9c52116512903e700b06df", "is_disabled": 0, "rental_uris": {"ios": "https://dc.lft.to/lastmile_qr_scan", "android": "https://dc.lft.to/lastmile_qr_scan"}, "is_reserved": 0}, {"lon": -77.0385045, "bike_id": "419d07c1accd1bb6cf60decec40b0205", "lat": 38.9117145, "fusion_lon": 0.0, "fusion_lat": 0.0, "type": "electric_scooter", "name": "419d07c1accd1bb6cf60decec40b0205", "is_disabled": 0, "rental_uris": {"ios": "https://dc.lft.to/lastmile_qr_scan", "android": "https://dc.lft.to/lastmile_qr_scan"}, "is_reserved": 0}, {"lon": -77.02688566666667, "bike_id": "ec0a03413cd9ad4325797de31027eb77", "lat": 38.9117005, "fusion_lon": 0.0, "fusion_lat": 0.0, "type": "electric_scooter", "name": "ec0a03413cd9ad4325797de31027eb77", "is_disabled": 0, "rental_uris": {"ios": "https://dc.lft.to/lastmile_qr_scan", "android": "https://dc.lft.to/lastmile_qr_scan"}, "is_reserved": 0}, {"lon": -76.98264766666667, "bike_id": "b86a4865145d85350dc40e49896411ad", "lat": 38.90854233333334, "fusion_lon": 0.0, "fusion_lat": 0.0, "type": "electric_scooter", "name": "b86a4865145d85350dc40e49896411ad", "is_disabled": 0, "rental_uris": {"ios": "https://dc.lft.to/lastmile_qr_scan", "android": "https://dc.lft.to/lastmile_qr_scan"}, "is_reserved": 0}, {"lon": -77.0282785, "bike_id": "f4c0de52da6efae2a1bc89f16b06aec2", "lat": 38.93144, "fusion_lon": 0.0, "fusion_lat": 0.0, "type": "electric_scooter", "name": "f4c0de52da6efae2a1bc89f16b06aec2", "is_disabled": 0, "rental_uris": {"ios": "https://dc.lft.to/lastmile_qr_scan", "android": "https://dc.lft.to/lastmile_qr_scan"}, "is_reserved": 0}, {"lon": -76.98195533333333, "bike_id": "260c24a846b75a0d047bf919e0efa0af", "lat": 38.89944716666667, "fusion_lon": 0.0, "fusion_lat": 0.0, "type": "electric_scooter", "name": "260c24a846b75a0d047bf919e0efa0af", "is_disabled": 0, "rental_uris": {"ios": "https://dc.lft.to/lastmile_qr_scan", "android": "https://dc.lft.to/lastmile_qr_scan"}, "is_reserved": 0}, {"lon": -77.06217316666667, "bike_id": "710b5679aacb8bd1bafceec333075ec3", "lat": 38.86296933333333, "fusion_lon": 0.0, "fusion_lat": 0.0, "type": "electric_bike", "name": "710b5679aacb8bd1bafceec333075ec3", "is_disabled": 0, "rental_uris": {"ios": "https://dc.lft.to/lastmile_qr_scan", "android": "https://dc.lft.to/lastmile_qr_scan"}, "is_reserved": 0}, {"lon": -77.03263733333333, "bike_id": "23fa27d3f6c053254126714952d4b827", "lat": 38.929391833333334, "fusion_lon": 0.0, "fusion_lat": 0.0, "type": "electric_scooter", "name": "23fa27d3f6c053254126714952d4b827", "is_disabled": 0, "rental_uris": {"ios": "https://dc.lft.to/lastmile_qr_scan", "android": "https://dc.lft.to/lastmile_qr_scan"}, "is_reserved": 0}, {"lon": -77.02415433333333, "bike_id": "dcefcd563bb0b1115216deff011060b4", "lat": 38.879687833333335, "fusion_lon": 0.0, "fusion_lat": 0.0, "type": "electric_scooter", "name": "dcefcd563bb0b1115216deff011060b4", "is_disabled": 0, "rental_uris": {"ios": "https://dc.lft.to/lastmile_qr_scan", "android": "https://dc.lft.to/lastmile_qr_scan"}, "is_reserved": 0}, {"lon": -77.01963116666667, "bike_id": "9e8c3f6d2ad0a816c4454be60164e04b", "lat": 38.9220825, "fusion_lon": 0.0, "fusion_lat": 0.0, "type": "electric_scooter", "name": "9e8c3f6d2ad0a816c4454be60164e04b", "is_disabled": 0, "rental_uris": {"ios": "https://dc.lft.to/lastmile_qr_scan", "android": "https://dc.lft.to/lastmile_qr_scan"}, "is_reserved": 0}, {"lon": -77.03655166666667, "bike_id": "f220a39057643e97b7bdd224f7741c41", "lat": 38.921141, "fusion_lon": 0.0, "fusion_lat": 0.0, "type": "electric_scooter", "name": "f220a39057643e97b7bdd224f7741c41", "is_disabled": 0, "rental_uris": {"ios": "https://dc.lft.to/lastmile_qr_scan", "android": "https://dc.lft.to/lastmile_qr_scan"}, "is_reserved": 0}, {"lon": -77.04354433333333, "bike_id": "94227652b8a5241495b9e1daee2be821", "lat": 38.901349333333336, "fusion_lon": 0.0, "fusion_lat": 0.0, "type": "electric_scooter", "name": "94227652b8a5241495b9e1daee2be821", "is_disabled": 0, "rental_uris": {"ios": "https://dc.lft.to/lastmile_qr_scan", "android": "https://dc.lft.to/lastmile_qr_scan"}, "is_reserved": 0}, {"lon": -76.982163, "bike_id": "59d99eba22cafef78c55e3c499b1ac5b", "lat": 38.866565333333334, "fusion_lon": 0.0, "fusion_lat": 0.0, "type": "electric_scooter", "name": "59d99eba22cafef78c55e3c499b1ac5b", "is_disabled": 0, "rental_uris": {"ios": "https://dc.lft.to/lastmile_qr_scan", "android": "https://dc.lft.to/lastmile_qr_scan"}, "is_reserved": 0}, {"lon": -76.930029, "bike_id": "74c9f30dea1301a7858926b27f4e5e4b", "lat": 38.891947333333334, "fusion_lon": 0.0, "fusion_lat": 0.0, "type": "electric_scooter", "name": "74c9f30dea1301a7858926b27f4e5e4b", "is_disabled": 0, "rental_uris": {"ios": "https://dc.lft.to/lastmile_qr_scan", "android": "https://dc.lft.to/lastmile_qr_scan"}, "is_reserved": 0}, {"lon": -77.0383065, "bike_id": "a3f0d24c024d64c5013fbbf253e552ca", "lat": 38.911201, "fusion_lon": 0.0, "fusion_lat": 0.0, "type": "electric_scooter", "name": "a3f0d24c024d64c5013fbbf253e552ca", "is_disabled": 0, "rental_uris": {"ios": "https://dc.lft.to/lastmile_qr_scan", "android": "https://dc.lft.to/lastmile_qr_scan"}, "is_reserved": 0}, {"lon": -77.031798, "bike_id": "11b0bd2506aef0af972cb0ba423b249e", "lat": 38.93690933333333, "fusion_lon": 0.0, "fusion_lat": 0.0, "type": "electric_scooter", "name": "11b0bd2506aef0af972cb0ba423b249e", "is_disabled": 0, "rental_uris": {"ios": "https://dc.lft.to/lastmile_qr_scan", "android": "https://dc.lft.to/lastmile_qr_scan"}, "is_reserved": 0}, {"lon": -77.05691566666667, "bike_id": "9ab77e1b31baa54920846f269e5a802a", "lat": 38.937177, "fusion_lon": 0.0, "fusion_lat": 0.0, "type": "electric_scooter", "name": "9ab77e1b31baa54920846f269e5a802a", "is_disabled": 0, "rental_uris": {"ios": "https://dc.lft.to/lastmile_qr_scan", "android": "https://dc.lft.to/lastmile_qr_scan"}, "is_reserved": 0}, {"lon": -76.9952995, "bike_id": "75eb422bc9a5063eac162b4b03978745", "lat": 38.883720333333336, "fusion_lon": 0.0, "fusion_lat": 0.0, "type": "electric_scooter", "name": "75eb422bc9a5063eac162b4b03978745", "is_disabled": 0, "rental_uris": {"ios": "https://dc.lft.to/lastmile_qr_scan", "android": "https://dc.lft.to/lastmile_qr_scan"}, "is_reserved": 0}, {"lon": -77.05717883333334, "bike_id": "cc382c16439dda273397b6e024fc5183", "lat": 38.933691833333334, "fusion_lon": 0.0, "fusion_lat": 0.0, "type": "electric_scooter", "name": "cc382c16439dda273397b6e024fc5183", "is_disabled": 0, "rental_uris": {"ios": "https://dc.lft.to/lastmile_qr_scan", "android": "https://dc.lft.to/lastmile_qr_scan"}, "is_reserved": 0}, {"lon": -77.012054, "bike_id": "1cde8f6c2274d8263fad4fe55dde722a", "lat": 38.921183166666665, "fusion_lon": 0.0, "fusion_lat": 0.0, "type": "electric_scooter", "name": "1cde8f6c2274d8263fad4fe55dde722a", "is_disabled": 0, "rental_uris": {"ios": "https://dc.lft.to/lastmile_qr_scan", "android": "https://dc.lft.to/lastmile_qr_scan"}, "is_reserved": 0}, {"lon": -77.11156683333333, "bike_id": "9ab56e848d39353d15e83d8d934f8f42", "lat": 38.855063666666666, "fusion_lon": 0.0, "fusion_lat": 0.0, "type": "electric_bike", "name": "9ab56e848d39353d15e83d8d934f8f42", "is_disabled": 0, "rental_uris": {"ios": "https://dc.lft.to/lastmile_qr_scan", "android": "https://dc.lft.to/lastmile_qr_scan"}, "is_reserved": 0}, {"lon": -76.98109616666666, "bike_id": "85a0890026c38007acda51f36925e770", "lat": 38.91473083333333, "fusion_lon": 0.0, "fusion_lat": 0.0, "type": "electric_scooter", "name": "85a0890026c38007acda51f36925e770", "is_disabled": 0, "rental_uris": {"ios": "https://dc.lft.to/lastmile_qr_scan", "android": "https://dc.lft.to/lastmile_qr_scan"}, "is_reserved": 0}, {"lon": -77.04157466666666, "bike_id": "ebe3c723865cacd48cd80330d244c929", "lat": 38.914228666666666, "fusion_lon": 0.0, "fusion_lat": 0.0, "type": "electric_scooter", "name": "ebe3c723865cacd48cd80330d244c929", "is_disabled": 0, "rental_uris": {"ios": "https://dc.lft.to/lastmile_qr_scan", "android": "https://dc.lft.to/lastmile_qr_scan"}, "is_reserved": 0}, {"lon": -77.00064966666666, "bike_id": "35b61d853e074979a5e515d039ea89dc", "lat": 38.89497466666667, "fusion_lon": 0.0, "fusion_lat": 0.0, "type": "electric_scooter", "name": "35b61d853e074979a5e515d039ea89dc", "is_disabled": 0, "rental_uris": {"ios": "https://dc.lft.to/lastmile_qr_scan", "android": "https://dc.lft.to/lastmile_qr_scan"}, "is_reserved": 0}, {"lon": -77.04270983333333, "bike_id": "48c05a4e61a485a3f32ffe663f9c4c09", "lat": 38.907321833333334, "fusion_lon": 0.0, "fusion_lat": 0.0, "type": "electric_scooter", "name": "48c05a4e61a485a3f32ffe663f9c4c09", "is_disabled": 0, "rental_uris": {"ios": "https://dc.lft.to/lastmile_qr_scan", "android": "https://dc.lft.to/lastmile_qr_scan"}, "is_reserved": 0}, {"lon": -77.04331766666667, "bike_id": "58bd8a7ad2864dc5583bc68427e1ef82", "lat": 38.92218883333334, "fusion_lon": 0.0, "fusion_lat": 0.0, "type": "electric_scooter", "name": "58bd8a7ad2864dc5583bc68427e1ef82", "is_disabled": 0, "rental_uris": {"ios": "https://dc.lft.to/lastmile_qr_scan", "android": "https://dc.lft.to/lastmile_qr_scan"}, "is_reserved": 0}, {"lon": -77.05157633333333, "bike_id": "ca5b6adab1a8239795954c345e598969", "lat": 39.043052333333335, "fusion_lon": 0.0, "fusion_lat": 0.0, "type": "electric_bike", "name": "ca5b6adab1a8239795954c345e598969", "is_disabled": 0, "rental_uris": {"ios": "https://dc.lft.to/lastmile_qr_scan", "android": "https://dc.lft.to/lastmile_qr_scan"}, "is_reserved": 0}, {"lon": -77.039957, "bike_id": "e97124f1a42875a976d48e4821ea9601", "lat": 38.914038, "fusion_lon": 0.0, "fusion_lat": 0.0, "type": "electric_scooter", "name": "e97124f1a42875a976d48e4821ea9601", "is_disabled": 0, "rental_uris": {"ios": "https://dc.lft.to/lastmile_qr_scan", "android": "https://dc.lft.to/lastmile_qr_scan"}, "is_reserved": 0}, {"lon": -76.98222466666667, "bike_id": "3a9bf39f665c2850b51b72bcc5634548", "lat": 38.886449, "fusion_lon": 0.0, "fusion_lat": 0.0, "type": "electric_scooter", "name": "3a9bf39f665c2850b51b72bcc5634548", "is_disabled": 0, "rental_uris": {"ios": "https://dc.lft.to/lastmile_qr_scan", "android": "https://dc.lft.to/lastmile_qr_scan"}, "is_reserved": 0}, {"lon": -77.10491666666667, "bike_id": "91d0d16911dd0f5fa0e296da63db0fc8", "lat": 38.8560535, "fusion_lon": 0.0, "fusion_lat": 0.0, "type": "electric_bike", "name": "91d0d16911dd0f5fa0e296da63db0fc8", "is_disabled": 0, "rental_uris": {"ios": "https://dc.lft.to/lastmile_qr_scan", "android": "https://dc.lft.to/lastmile_qr_scan"}, "is_reserved": 0}, {"lon": -77.03437783333334, "bike_id": "e835da5979fbf4c6e9c7534b5a66cfa8", "lat": 38.9097175, "fusion_lon": 0.0, "fusion_lat": 0.0, "type": "electric_scooter", "name": "e835da5979fbf4c6e9c7534b5a66cfa8", "is_disabled": 0, "rental_uris": {"ios": "https://dc.lft.to/lastmile_qr_scan", "android": "https://dc.lft.to/lastmile_qr_scan"}, "is_reserved": 0}, {"lon": -77.01941433333333, "bike_id": "fa2809e7c67a12d8d3b05adca870efe2", "lat": 38.9352435, "fusion_lon": 0.0, "fusion_lat": 0.0, "type": "electric_scooter", "name": "fa2809e7c67a12d8d3b05adca870efe2", "is_disabled": 0, "rental_uris": {"ios": "https://dc.lft.to/lastmile_qr_scan", "android": "https://dc.lft.to/lastmile_qr_scan"}, "is_reserved": 0}, {"lon": -77.032062, "bike_id": "c19e78b4a1175dc132bf66e30b672123", "lat": 38.919251, "fusion_lon": 0.0, "fusion_lat": 0.0, "type": "electric_scooter", "name": "c19e78b4a1175dc132bf66e30b672123", "is_disabled": 0, "rental_uris": {"ios": "https://dc.lft.to/lastmile_qr_scan", "android": "https://dc.lft.to/lastmile_qr_scan"}, "is_reserved": 0}, {"lon": -77.024967, "bike_id": "717f3979780c16448e076578adb69022", "lat": 38.92080333333333, "fusion_lon": 0.0, "fusion_lat": 0.0, "type": "electric_scooter", "name": "717f3979780c16448e076578adb69022", "is_disabled": 0, "rental_uris": {"ios": "https://dc.lft.to/lastmile_qr_scan", "android": "https://dc.lft.to/lastmile_qr_scan"}, "is_reserved": 0}, {"lon": -76.995306, "bike_id": "9b07d46aacf3e4ba4e6f1e196c309458", "lat": 38.883730166666666, "fusion_lon": 0.0, "fusion_lat": 0.0, "type": "electric_scooter", "name": "9b07d46aacf3e4ba4e6f1e196c309458", "is_disabled": 0, "rental_uris": {"ios": "https://dc.lft.to/lastmile_qr_scan", "android": "https://dc.lft.to/lastmile_qr_scan"}, "is_reserved": 0}, {"lon": -77.0277875, "bike_id": "f7ae3d446fd444fc1dab7dc61bb41306", "lat": 38.917108, "fusion_lon": 0.0, "fusion_lat": 0.0, "type": "electric_scooter", "name": "f7ae3d446fd444fc1dab7dc61bb41306", "is_disabled": 0, "rental_uris": {"ios": "https://dc.lft.to/lastmile_qr_scan", "android": "https://dc.lft.to/lastmile_qr_scan"}, "is_reserved": 0}, {"lon": -77.00214133333333, "bike_id": "273010e66c6e2c5f56717329c2b85ad7", "lat": 38.90030383333333, "fusion_lon": 0.0, "fusion_lat": 0.0, "type": "electric_scooter", "name": "273010e66c6e2c5f56717329c2b85ad7", "is_disabled": 0, "rental_uris": {"ios": "https://dc.lft.to/lastmile_qr_scan", "android": "https://dc.lft.to/lastmile_qr_scan"}, "is_reserved": 0}, {"lon": -77.006464, "bike_id": "4ec66f641b33b622c908f68a35421022", "lat": 38.92618233333334, "fusion_lon": 0.0, "fusion_lat": 0.0, "type": "electric_scooter", "name": "4ec66f641b33b622c908f68a35421022", "is_disabled": 0, "rental_uris": {"ios": "https://dc.lft.to/lastmile_qr_scan", "android": "https://dc.lft.to/lastmile_qr_scan"}, "is_reserved": 0}, {"lon": -77.02177583333334, "bike_id": "d091241a6847eccbfb46962e0985706f", "lat": 38.89606933333334, "fusion_lon": 0.0, "fusion_lat": 0.0, "type": "electric_scooter", "name": "d091241a6847eccbfb46962e0985706f", "is_disabled": 0, "rental_uris": {"ios": "https://dc.lft.to/lastmile_qr_scan", "android": "https://dc.lft.to/lastmile_qr_scan"}, "is_reserved": 0}, {"lon": -76.97480466666667, "bike_id": "d9c88d59dbf176361735740358d531e3", "lat": 38.903516833333335, "fusion_lon": 0.0, "fusion_lat": 0.0, "type": "electric_scooter", "name": "d9c88d59dbf176361735740358d531e3", "is_disabled": 0, "rental_uris": {"ios": "https://dc.lft.to/lastmile_qr_scan", "android": "https://dc.lft.to/lastmile_qr_scan"}, "is_reserved": 0}, {"lon": -77.065132, "bike_id": "50d079492a8b21cc3ae4a470a009def9", "lat": 38.90392683333334, "fusion_lon": 0.0, "fusion_lat": 0.0, "type": "electric_scooter", "name": "50d079492a8b21cc3ae4a470a009def9", "is_disabled": 0, "rental_uris": {"ios": "https://dc.lft.to/lastmile_qr_scan", "android": "https://dc.lft.to/lastmile_qr_scan"}, "is_reserved": 0}, {"lon": -77.0806655, "bike_id": "40151c9363abcb29cf4185b17d2b9c79", "lat": 39.052804333333334, "fusion_lon": 0.0, "fusion_lat": 0.0, "type": "electric_bike", "name": "40151c9363abcb29cf4185b17d2b9c79", "is_disabled": 0, "rental_uris": {"ios": "https://dc.lft.to/lastmile_qr_scan", "android": "https://dc.lft.to/lastmile_qr_scan"}, "is_reserved": 0}, {"lon": -76.9908635, "bike_id": "b55f4dfe1303be92437bf6e777bd326c", "lat": 38.862359166666664, "fusion_lon": 0.0, "fusion_lat": 0.0, "type": "electric_bike", "name": "b55f4dfe1303be92437bf6e777bd326c", "is_disabled": 0, "rental_uris": {"ios": "https://dc.lft.to/lastmile_qr_scan", "android": "https://dc.lft.to/lastmile_qr_scan"}, "is_reserved": 0}, {"lon": -76.99018933333333, "bike_id": "a967da6e9eb1bb12000435c7fa82e5ef", "lat": 38.866441, "fusion_lon": 0.0, "fusion_lat": 0.0, "type": "electric_scooter", "name": "a967da6e9eb1bb12000435c7fa82e5ef", "is_disabled": 0, "rental_uris": {"ios": "https://dc.lft.to/lastmile_qr_scan", "android": "https://dc.lft.to/lastmile_qr_scan"}, "is_reserved": 0}, {"lon": -77.02225766666666, "bike_id": "024f5a7ea49d66ff72e221f30ba4304b", "lat": 38.956866, "fusion_lon": 0.0, "fusion_lat": 0.0, "type": "electric_bike", "name": "024f5a7ea49d66ff72e221f30ba4304b", "is_disabled": 0, "rental_uris": {"ios": "https://dc.lft.to/lastmile_qr_scan", "android": "https://dc.lft.to/lastmile_qr_scan"}, "is_reserved": 0}, {"lon": -77.051785, "bike_id": "5b75e78ae02063c27c84af386f7b6ccd", "lat": 38.89965883333333, "fusion_lon": 0.0, "fusion_lat": 0.0, "type": "electric_scooter", "name": "5b75e78ae02063c27c84af386f7b6ccd", "is_disabled": 0, "rental_uris": {"ios": "https://dc.lft.to/lastmile_qr_scan", "android": "https://dc.lft.to/lastmile_qr_scan"}, "is_reserved": 0}, {"lon": -77.03177566666666, "bike_id": "bd57c40f27ae051d7606ec972ca786dc", "lat": 38.912632333333335, "fusion_lon": 0.0, "fusion_lat": 0.0, "type": "electric_scooter", "name": "bd57c40f27ae051d7606ec972ca786dc", "is_disabled": 0, "rental_uris": {"ios": "https://dc.lft.to/lastmile_qr_scan", "android": "https://dc.lft.to/lastmile_qr_scan"}, "is_reserved": 0}, {"lon": -77.044255, "bike_id": "6bc8b8330f1d39fd8217cab3e2f4d6c0", "lat": 38.9113145, "fusion_lon": 0.0, "fusion_lat": 0.0, "type": "electric_scooter", "name": "6bc8b8330f1d39fd8217cab3e2f4d6c0", "is_disabled": 0, "rental_uris": {"ios": "https://dc.lft.to/lastmile_qr_scan", "android": "https://dc.lft.to/lastmile_qr_scan"}, "is_reserved": 0}, {"lon": -76.98722933333333, "bike_id": "b4b10ae43d42dad4a1edf9ceed6364d0", "lat": 38.867111333333334, "fusion_lon": 0.0, "fusion_lat": 0.0, "type": "electric_scooter", "name": "b4b10ae43d42dad4a1edf9ceed6364d0", "is_disabled": 0, "rental_uris": {"ios": "https://dc.lft.to/lastmile_qr_scan", "android": "https://dc.lft.to/lastmile_qr_scan"}, "is_reserved": 0}, {"lon": -76.98704166666667, "bike_id": "ab9531fb690764f77b3c57a9ed2b4f6d", "lat": 38.865351, "fusion_lon": 0.0, "fusion_lat": 0.0, "type": "electric_scooter", "name": "ab9531fb690764f77b3c57a9ed2b4f6d", "is_disabled": 0, "rental_uris": {"ios": "https://dc.lft.to/lastmile_qr_scan", "android": "https://dc.lft.to/lastmile_qr_scan"}, "is_reserved": 0}, {"lon": -77.020867, "bike_id": "f29a5805917324c0773b4d0af05a82b5", "lat": 38.95748533333333, "fusion_lon": 0.0, "fusion_lat": 0.0, "type": "electric_scooter", "name": "f29a5805917324c0773b4d0af05a82b5", "is_disabled": 0, "rental_uris": {"ios": "https://dc.lft.to/lastmile_qr_scan", "android": "https://dc.lft.to/lastmile_qr_scan"}, "is_reserved": 0}, {"lon": -77.039249, "bike_id": "1eeecd7807971eeff189821215491350", "lat": 38.926155, "fusion_lon": 0.0, "fusion_lat": 0.0, "type": "electric_scooter", "name": "1eeecd7807971eeff189821215491350", "is_disabled": 0, "rental_uris": {"ios": "https://dc.lft.to/lastmile_qr_scan", "android": "https://dc.lft.to/lastmile_qr_scan"}, "is_reserved": 0}, {"lon": -77.031221, "bike_id": "466dfaa84ab3c861a0d0e8298e9f9972", "lat": 38.91711333333333, "fusion_lon": 0.0, "fusion_lat": 0.0, "type": "electric_scooter", "name": "466dfaa84ab3c861a0d0e8298e9f9972", "is_disabled": 0, "rental_uris": {"ios": "https://dc.lft.to/lastmile_qr_scan", "android": "https://dc.lft.to/lastmile_qr_scan"}, "is_reserved": 0}, {"lon": -77.0232365, "bike_id": "703c17af4e4c1a6506c709a3d9f2408a", "lat": 38.922262, "fusion_lon": 0.0, "fusion_lat": 0.0, "type": "electric_scooter", "name": "703c17af4e4c1a6506c709a3d9f2408a", "is_disabled": 0, "rental_uris": {"ios": "https://dc.lft.to/lastmile_qr_scan", "android": "https://dc.lft.to/lastmile_qr_scan"}, "is_reserved": 0}, {"lon": -77.033286, "bike_id": "9ded20b3da0778d118c94c0dcb759709", "lat": 38.903690166666664, "fusion_lon": 0.0, "fusion_lat": 0.0, "type": "electric_scooter", "name": "9ded20b3da0778d118c94c0dcb759709", "is_disabled": 0, "rental_uris": {"ios": "https://dc.lft.to/lastmile_qr_scan", "android": "https://dc.lft.to/lastmile_qr_scan"}, "is_reserved": 0}, {"lon": -77.0247845, "bike_id": "165c75213f4c8eeeb8627d3b53723cde", "lat": 38.8801855, "fusion_lon": 0.0, "fusion_lat": 0.0, "type": "electric_scooter", "name": "165c75213f4c8eeeb8627d3b53723cde", "is_disabled": 0, "rental_uris": {"ios": "https://dc.lft.to/lastmile_qr_scan", "android": "https://dc.lft.to/lastmile_qr_scan"}, "is_reserved": 0}, {"lon": -77.025718, "bike_id": "38e997b322a6acef0dab81760b47cb66", "lat": 38.897385166666666, "fusion_lon": 0.0, "fusion_lat": 0.0, "type": "electric_scooter", "name": "38e997b322a6acef0dab81760b47cb66", "is_disabled": 0, "rental_uris": {"ios": "https://dc.lft.to/lastmile_qr_scan", "android": "https://dc.lft.to/lastmile_qr_scan"}, "is_reserved": 0}, {"lon": -77.05574266666666, "bike_id": "b45831d404a603ba957bdf97e332a27f", "lat": 38.915951166666666, "fusion_lon": 0.0, "fusion_lat": 0.0, "type": "electric_scooter", "name": "b45831d404a603ba957bdf97e332a27f", "is_disabled": 0, "rental_uris": {"ios": "https://dc.lft.to/lastmile_qr_scan", "android": "https://dc.lft.to/lastmile_qr_scan"}, "is_reserved": 0}, {"lon": -76.990025, "bike_id": "a752cc9f4707b55bde44187c1776c339", "lat": 38.86503966666667, "fusion_lon": 0.0, "fusion_lat": 0.0, "type": "electric_scooter", "name": "a752cc9f4707b55bde44187c1776c339", "is_disabled": 0, "rental_uris": {"ios": "https://dc.lft.to/lastmile_qr_scan", "android": "https://dc.lft.to/lastmile_qr_scan"}, "is_reserved": 0}, {"lon": -77.03331033333333, "bike_id": "8858164ba0a8a06977420cae76e70adc", "lat": 38.9364535, "fusion_lon": 0.0, "fusion_lat": 0.0, "type": "electric_scooter", "name": "8858164ba0a8a06977420cae76e70adc", "is_disabled": 0, "rental_uris": {"ios": "https://dc.lft.to/lastmile_qr_scan", "android": "https://dc.lft.to/lastmile_qr_scan"}, "is_reserved": 0}, {"lon": -77.040312, "bike_id": "04f12559e05ad3e516630b5538492cda", "lat": 38.925642833333335, "fusion_lon": 0.0, "fusion_lat": 0.0, "type": "electric_scooter", "name": "04f12559e05ad3e516630b5538492cda", "is_disabled": 0, "rental_uris": {"ios": "https://dc.lft.to/lastmile_qr_scan", "android": "https://dc.lft.to/lastmile_qr_scan"}, "is_reserved": 0}, {"lon": -77.03411316666667, "bike_id": "24040bc2781937c21192b280d44736ec", "lat": 38.93419983333333, "fusion_lon": 0.0, "fusion_lat": 0.0, "type": "electric_scooter", "name": "24040bc2781937c21192b280d44736ec", "is_disabled": 0, "rental_uris": {"ios": "https://dc.lft.to/lastmile_qr_scan", "android": "https://dc.lft.to/lastmile_qr_scan"}, "is_reserved": 0}, {"lon": -77.02707966666667, "bike_id": "6a53ad1459feb4468a1bb4c84bf6b830", "lat": 38.91138183333333, "fusion_lon": 0.0, "fusion_lat": 0.0, "type": "electric_scooter", "name": "6a53ad1459feb4468a1bb4c84bf6b830", "is_disabled": 0, "rental_uris": {"ios": "https://dc.lft.to/lastmile_qr_scan", "android": "https://dc.lft.to/lastmile_qr_scan"}, "is_reserved": 0}, {"lon": -77.06913216666666, "bike_id": "ccdb34479953be8a054ce83ba9a3e80c", "lat": 38.955489666666665, "fusion_lon": 0.0, "fusion_lat": 0.0, "type": "electric_bike", "name": "ccdb34479953be8a054ce83ba9a3e80c", "is_disabled": 0, "rental_uris": {"ios": "https://dc.lft.to/lastmile_qr_scan", "android": "https://dc.lft.to/lastmile_qr_scan"}, "is_reserved": 0}, {"lon": -77.02352616666667, "bike_id": "79c162fe9a8dde67c4cba46b9895264a", "lat": 38.935302166666666, "fusion_lon": 0.0, "fusion_lat": 0.0, "type": "electric_scooter", "name": "79c162fe9a8dde67c4cba46b9895264a", "is_disabled": 0, "rental_uris": {"ios": "https://dc.lft.to/lastmile_qr_scan", "android": "https://dc.lft.to/lastmile_qr_scan"}, "is_reserved": 0}, {"lon": -77.0365385, "bike_id": "bd2f7b6d7ab87c91fb85a9e05599ab2b", "lat": 38.904646166666666, "fusion_lon": 0.0, "fusion_lat": 0.0, "type": "electric_scooter", "name": "bd2f7b6d7ab87c91fb85a9e05599ab2b", "is_disabled": 0, "rental_uris": {"ios": "https://dc.lft.to/lastmile_qr_scan", "android": "https://dc.lft.to/lastmile_qr_scan"}, "is_reserved": 0}, {"lon": -77.03907533333333, "bike_id": "03e93a2de7075a85dc988007ee29c98d", "lat": 38.914221833333336, "fusion_lon": 0.0, "fusion_lat": 0.0, "type": "electric_scooter", "name": "03e93a2de7075a85dc988007ee29c98d", "is_disabled": 0, "rental_uris": {"ios": "https://dc.lft.to/lastmile_qr_scan", "android": "https://dc.lft.to/lastmile_qr_scan"}, "is_reserved": 0}, {"lon": -77.04641483333333, "bike_id": "a49d8be8cdd489462108a06734b6191d", "lat": 38.921195, "fusion_lon": 0.0, "fusion_lat": 0.0, "type": "electric_scooter", "name": "a49d8be8cdd489462108a06734b6191d", "is_disabled": 0, "rental_uris": {"ios": "https://dc.lft.to/lastmile_qr_scan", "android": "https://dc.lft.to/lastmile_qr_scan"}, "is_reserved": 0}, {"lon": -77.041232, "bike_id": "d8d446dd384725ac4205ccd80cd5c2b3", "lat": 38.923044166666664, "fusion_lon": 0.0, "fusion_lat": 0.0, "type": "electric_scooter", "name": "d8d446dd384725ac4205ccd80cd5c2b3", "is_disabled": 0, "rental_uris": {"ios": "https://dc.lft.to/lastmile_qr_scan", "android": "https://dc.lft.to/lastmile_qr_scan"}, "is_reserved": 0}, {"lon": -77.037004, "bike_id": "94aaf188c0c6933adcc0d8986dc7930e", "lat": 38.93657566666667, "fusion_lon": 0.0, "fusion_lat": 0.0, "type": "electric_bike", "name": "94aaf188c0c6933adcc0d8986dc7930e", "is_disabled": 0, "rental_uris": {"ios": "https://dc.lft.to/lastmile_qr_scan", "android": "https://dc.lft.to/lastmile_qr_scan"}, "is_reserved": 0}, {"lon": -77.0591085, "bike_id": "c3d655759b5ff0f2ebf7d364fd2b48f0", "lat": 38.93635166666667, "fusion_lon": 0.0, "fusion_lat": 0.0, "type": "electric_scooter", "name": "c3d655759b5ff0f2ebf7d364fd2b48f0", "is_disabled": 0, "rental_uris": {"ios": "https://dc.lft.to/lastmile_qr_scan", "android": "https://dc.lft.to/lastmile_qr_scan"}, "is_reserved": 0}, {"lon": -77.038381, "bike_id": "eca47f4d1fb6ae393e8f86eebfba8d5c", "lat": 38.9171685, "fusion_lon": 0.0, "fusion_lat": 0.0, "type": "electric_scooter", "name": "eca47f4d1fb6ae393e8f86eebfba8d5c", "is_disabled": 0, "rental_uris": {"ios": "https://dc.lft.to/lastmile_qr_scan", "android": "https://dc.lft.to/lastmile_qr_scan"}, "is_reserved": 0}, {"lon": -76.99983666666667, "bike_id": "b69ae90076a7a14b091a009c74c7f812", "lat": 38.908512333333334, "fusion_lon": 0.0, "fusion_lat": 0.0, "type": "electric_scooter", "name": "b69ae90076a7a14b091a009c74c7f812", "is_disabled": 0, "rental_uris": {"ios": "https://dc.lft.to/lastmile_qr_scan", "android": "https://dc.lft.to/lastmile_qr_scan"}, "is_reserved": 0}, {"lon": -77.04152433333333, "bike_id": "c00a447e4e6491bf6451ac7e7ebf15c8", "lat": 38.91813883333333, "fusion_lon": 0.0, "fusion_lat": 0.0, "type": "electric_scooter", "name": "c00a447e4e6491bf6451ac7e7ebf15c8", "is_disabled": 0, "rental_uris": {"ios": "https://dc.lft.to/lastmile_qr_scan", "android": "https://dc.lft.to/lastmile_qr_scan"}, "is_reserved": 0}, {"lon": -77.034728, "bike_id": "d98df388eeea27d2e4784f7da0bdc9ea", "lat": 38.9072965, "fusion_lon": 0.0, "fusion_lat": 0.0, "type": "electric_scooter", "name": "d98df388eeea27d2e4784f7da0bdc9ea", "is_disabled": 0, "rental_uris": {"ios": "https://dc.lft.to/lastmile_qr_scan", "android": "https://dc.lft.to/lastmile_qr_scan"}, "is_reserved": 0}, {"lon": -77.060988, "bike_id": "9ab773b46172ed1ed06baf4a18acbe3c", "lat": 38.93698416666667, "fusion_lon": 0.0, "fusion_lat": 0.0, "type": "electric_scooter", "name": "9ab773b46172ed1ed06baf4a18acbe3c", "is_disabled": 0, "rental_uris": {"ios": "https://dc.lft.to/lastmile_qr_scan", "android": "https://dc.lft.to/lastmile_qr_scan"}, "is_reserved": 0}, {"lon": -77.029731, "bike_id": "acebc987d757be48216a1b4a3d1c3a00", "lat": 38.90701383333333, "fusion_lon": 0.0, "fusion_lat": 0.0, "type": "electric_scooter", "name": "acebc987d757be48216a1b4a3d1c3a00", "is_disabled": 0, "rental_uris": {"ios": "https://dc.lft.to/lastmile_qr_scan", "android": "https://dc.lft.to/lastmile_qr_scan"}, "is_reserved": 0}, {"lon": -77.0270045, "bike_id": "cce0dcd17d000dea5a2e71d50c3994b9", "lat": 38.949863666666666, "fusion_lon": 0.0, "fusion_lat": 0.0, "type": "electric_scooter", "name": "cce0dcd17d000dea5a2e71d50c3994b9", "is_disabled": 0, "rental_uris": {"ios": "https://dc.lft.to/lastmile_qr_scan", "android": "https://dc.lft.to/lastmile_qr_scan"}, "is_reserved": 0}, {"lon": -77.031868, "bike_id": "98034ba49f2632486cd5742c9178e72e", "lat": 38.9127645, "fusion_lon": 0.0, "fusion_lat": 0.0, "type": "electric_scooter", "name": "98034ba49f2632486cd5742c9178e72e", "is_disabled": 0, "rental_uris": {"ios": "https://dc.lft.to/lastmile_qr_scan", "android": "https://dc.lft.to/lastmile_qr_scan"}, "is_reserved": 0}, {"lon": -76.94882316666667, "bike_id": "5d8f172724d7a99676ba63dea232ed2d", "lat": 38.8950995, "fusion_lon": 0.0, "fusion_lat": 0.0, "type": "electric_scooter", "name": "5d8f172724d7a99676ba63dea232ed2d", "is_disabled": 0, "rental_uris": {"ios": "https://dc.lft.to/lastmile_qr_scan", "android": "https://dc.lft.to/lastmile_qr_scan"}, "is_reserved": 0}, {"lon": -77.03379866666667, "bike_id": "d3218bec904c8c89a7f7ef3a91b9efbe", "lat": 38.899691, "fusion_lon": 0.0, "fusion_lat": 0.0, "type": "electric_scooter", "name": "d3218bec904c8c89a7f7ef3a91b9efbe", "is_disabled": 0, "rental_uris": {"ios": "https://dc.lft.to/lastmile_qr_scan", "android": "https://dc.lft.to/lastmile_qr_scan"}, "is_reserved": 0}, {"lon": -77.026649, "bike_id": "e9262f51df78052d5af2443bed1165e3", "lat": 38.90252816666667, "fusion_lon": 0.0, "fusion_lat": 0.0, "type": "electric_scooter", "name": "e9262f51df78052d5af2443bed1165e3", "is_disabled": 0, "rental_uris": {"ios": "https://dc.lft.to/lastmile_qr_scan", "android": "https://dc.lft.to/lastmile_qr_scan"}, "is_reserved": 0}, {"lon": -77.04276083333333, "bike_id": "5e002827ba2243c5dcf14af930bbbd66", "lat": 38.90010266666667, "fusion_lon": 0.0, "fusion_lat": 0.0, "type": "electric_scooter", "name": "5e002827ba2243c5dcf14af930bbbd66", "is_disabled": 0, "rental_uris": {"ios": "https://dc.lft.to/lastmile_qr_scan", "android": "https://dc.lft.to/lastmile_qr_scan"}, "is_reserved": 0}, {"lon": -77.03386783333333, "bike_id": "013e865574298d6177ab863af63db33f", "lat": 38.9026855, "fusion_lon": 0.0, "fusion_lat": 0.0, "type": "electric_scooter", "name": "013e865574298d6177ab863af63db33f", "is_disabled": 0, "rental_uris": {"ios": "https://dc.lft.to/lastmile_qr_scan", "android": "https://dc.lft.to/lastmile_qr_scan"}, "is_reserved": 0}, {"lon": -77.03843766666667, "bike_id": "f41cebc897b03a3d3cef669066d3dd86", "lat": 38.910086, "fusion_lon": 0.0, "fusion_lat": 0.0, "type": "electric_scooter", "name": "f41cebc897b03a3d3cef669066d3dd86", "is_disabled": 0, "rental_uris": {"ios": "https://dc.lft.to/lastmile_qr_scan", "android": "https://dc.lft.to/lastmile_qr_scan"}, "is_reserved": 0}, {"lon": -77.01212716666667, "bike_id": "98f4e3d0cddb224968d052e81a0c064b", "lat": 38.870841166666665, "fusion_lon": 0.0, "fusion_lat": 0.0, "type": "electric_bike", "name": "98f4e3d0cddb224968d052e81a0c064b", "is_disabled": 0, "rental_uris": {"ios": "https://dc.lft.to/lastmile_qr_scan", "android": "https://dc.lft.to/lastmile_qr_scan"}, "is_reserved": 0}, {"lon": -77.04477483333334, "bike_id": "44f8f153d02e4f6c90100b8a29658b8f", "lat": 38.92426433333333, "fusion_lon": 0.0, "fusion_lat": 0.0, "type": "electric_scooter", "name": "44f8f153d02e4f6c90100b8a29658b8f", "is_disabled": 0, "rental_uris": {"ios": "https://dc.lft.to/lastmile_qr_scan", "android": "https://dc.lft.to/lastmile_qr_scan"}, "is_reserved": 0}, {"lon": -77.00201133333333, "bike_id": "e2572afb0b519987ac0fdd83887db432", "lat": 38.90235833333333, "fusion_lon": 0.0, "fusion_lat": 0.0, "type": "electric_scooter", "name": "e2572afb0b519987ac0fdd83887db432", "is_disabled": 0, "rental_uris": {"ios": "https://dc.lft.to/lastmile_qr_scan", "android": "https://dc.lft.to/lastmile_qr_scan"}, "is_reserved": 0}, {"lon": -77.05198466666667, "bike_id": "3cf784ab1cf5fc5188b2f780e06f89d5", "lat": 38.8995035, "fusion_lon": 0.0, "fusion_lat": 0.0, "type": "electric_scooter", "name": "3cf784ab1cf5fc5188b2f780e06f89d5", "is_disabled": 0, "rental_uris": {"ios": "https://dc.lft.to/lastmile_qr_scan", "android": "https://dc.lft.to/lastmile_qr_scan"}, "is_reserved": 0}, {"lon": -77.03555933333334, "bike_id": "8e01bbc435a693f17a670d1c3f846fa7", "lat": 38.933836166666666, "fusion_lon": 0.0, "fusion_lat": 0.0, "type": "electric_scooter", "name": "8e01bbc435a693f17a670d1c3f846fa7", "is_disabled": 0, "rental_uris": {"ios": "https://dc.lft.to/lastmile_qr_scan", "android": "https://dc.lft.to/lastmile_qr_scan"}, "is_reserved": 0}, {"lon": -76.97858883333333, "bike_id": "7eac16a39166d30846700abc6e899309", "lat": 38.90721633333333, "fusion_lon": 0.0, "fusion_lat": 0.0, "type": "electric_scooter", "name": "7eac16a39166d30846700abc6e899309", "is_disabled": 0, "rental_uris": {"ios": "https://dc.lft.to/lastmile_qr_scan", "android": "https://dc.lft.to/lastmile_qr_scan"}, "is_reserved": 0}, {"lon": -77.03264, "bike_id": "bbfc333c27457c3ce0446d7650bc9e7e", "lat": 38.937739, "fusion_lon": 0.0, "fusion_lat": 0.0, "type": "electric_scooter", "name": "bbfc333c27457c3ce0446d7650bc9e7e", "is_disabled": 0, "rental_uris": {"ios": "https://dc.lft.to/lastmile_qr_scan", "android": "https://dc.lft.to/lastmile_qr_scan"}, "is_reserved": 0}, {"lon": -77.0208745, "bike_id": "bf060538ad229254f054961098660be9", "lat": 38.9290845, "fusion_lon": 0.0, "fusion_lat": 0.0, "type": "electric_scooter", "name": "bf060538ad229254f054961098660be9", "is_disabled": 0, "rental_uris": {"ios": "https://dc.lft.to/lastmile_qr_scan", "android": "https://dc.lft.to/lastmile_qr_scan"}, "is_reserved": 0}, {"lon": -77.0388495, "bike_id": "0f23ec7acd3c3a2eaaf1ac0e2c9b324c", "lat": 38.925038, "fusion_lon": 0.0, "fusion_lat": 0.0, "type": "electric_scooter", "name": "0f23ec7acd3c3a2eaaf1ac0e2c9b324c", "is_disabled": 0, "rental_uris": {"ios": "https://dc.lft.to/lastmile_qr_scan", "android": "https://dc.lft.to/lastmile_qr_scan"}, "is_reserved": 0}, {"lon": -77.03850466666667, "bike_id": "bc420c1740dd3ad98f5e639d44d471ff", "lat": 38.93240216666667, "fusion_lon": 0.0, "fusion_lat": 0.0, "type": "electric_scooter", "name": "bc420c1740dd3ad98f5e639d44d471ff", "is_disabled": 0, "rental_uris": {"ios": "https://dc.lft.to/lastmile_qr_scan", "android": "https://dc.lft.to/lastmile_qr_scan"}, "is_reserved": 0}, {"lon": -77.04483533333334, "bike_id": "7c67e78981089b40b0f5ee7153b76ba4", "lat": 38.90550266666666, "fusion_lon": 0.0, "fusion_lat": 0.0, "type": "electric_scooter", "name": "7c67e78981089b40b0f5ee7153b76ba4", "is_disabled": 0, "rental_uris": {"ios": "https://dc.lft.to/lastmile_qr_scan", "android": "https://dc.lft.to/lastmile_qr_scan"}, "is_reserved": 0}, {"lon": -76.975606, "bike_id": "80f9060253222bfd65df5c3e5d38755b", "lat": 38.92454433333333, "fusion_lon": 0.0, "fusion_lat": 0.0, "type": "electric_bike", "name": "80f9060253222bfd65df5c3e5d38755b", "is_disabled": 0, "rental_uris": {"ios": "https://dc.lft.to/lastmile_qr_scan", "android": "https://dc.lft.to/lastmile_qr_scan"}, "is_reserved": 0}, {"lon": -76.949941, "bike_id": "11756f9278caf5efa04553db961ba938", "lat": 38.89382783333333, "fusion_lon": 0.0, "fusion_lat": 0.0, "type": "electric_scooter", "name": "11756f9278caf5efa04553db961ba938", "is_disabled": 0, "rental_uris": {"ios": "https://dc.lft.to/lastmile_qr_scan", "android": "https://dc.lft.to/lastmile_qr_scan"}, "is_reserved": 0}, {"lon": -77.07312533333334, "bike_id": "a4c0f39feaeb5a0494ceae29a32d363b", "lat": 38.93349166666667, "fusion_lon": 0.0, "fusion_lat": 0.0, "type": "electric_scooter", "name": "a4c0f39feaeb5a0494ceae29a32d363b", "is_disabled": 0, "rental_uris": {"ios": "https://dc.lft.to/lastmile_qr_scan", "android": "https://dc.lft.to/lastmile_qr_scan"}, "is_reserved": 0}, {"lon": -76.99595633333334, "bike_id": "1504342921fa81d6d2da307c19f7c6f5", "lat": 38.95074133333333, "fusion_lon": 0.0, "fusion_lat": 0.0, "type": "electric_bike", "name": "1504342921fa81d6d2da307c19f7c6f5", "is_disabled": 0, "rental_uris": {"ios": "https://dc.lft.to/lastmile_qr_scan", "android": "https://dc.lft.to/lastmile_qr_scan"}, "is_reserved": 0}, {"lon": -77.0157725, "bike_id": "8a2a8c6f24ee469dc20d9e4508de6d4d", "lat": 38.88296666666667, "fusion_lon": 0.0, "fusion_lat": 0.0, "type": "electric_scooter", "name": "8a2a8c6f24ee469dc20d9e4508de6d4d", "is_disabled": 0, "rental_uris": {"ios": "https://dc.lft.to/lastmile_qr_scan", "android": "https://dc.lft.to/lastmile_qr_scan"}, "is_reserved": 0}, {"lon": -77.03254083333333, "bike_id": "08611d53ad9d961815484ae40764e557", "lat": 38.93137933333333, "fusion_lon": 0.0, "fusion_lat": 0.0, "type": "electric_scooter", "name": "08611d53ad9d961815484ae40764e557", "is_disabled": 0, "rental_uris": {"ios": "https://dc.lft.to/lastmile_qr_scan", "android": "https://dc.lft.to/lastmile_qr_scan"}, "is_reserved": 0}, {"lon": -76.929965, "bike_id": "8195a0fc1ead3cc7beb257bc597ea0a6", "lat": 38.90185816666666, "fusion_lon": 0.0, "fusion_lat": 0.0, "type": "electric_scooter", "name": "8195a0fc1ead3cc7beb257bc597ea0a6", "is_disabled": 0, "rental_uris": {"ios": "https://dc.lft.to/lastmile_qr_scan", "android": "https://dc.lft.to/lastmile_qr_scan"}, "is_reserved": 0}, {"lon": -77.035867, "bike_id": "2b178f25599288d53390f328480c51d6", "lat": 38.917737833333334, "fusion_lon": 0.0, "fusion_lat": 0.0, "type": "electric_scooter", "name": "2b178f25599288d53390f328480c51d6", "is_disabled": 0, "rental_uris": {"ios": "https://dc.lft.to/lastmile_qr_scan", "android": "https://dc.lft.to/lastmile_qr_scan"}, "is_reserved": 0}, {"lon": -77.03209133333333, "bike_id": "288bc9cf7512fedcec306013b93c408d", "lat": 38.896383166666666, "fusion_lon": 0.0, "fusion_lat": 0.0, "type": "electric_scooter", "name": "288bc9cf7512fedcec306013b93c408d", "is_disabled": 0, "rental_uris": {"ios": "https://dc.lft.to/lastmile_qr_scan", "android": "https://dc.lft.to/lastmile_qr_scan"}, "is_reserved": 0}, {"lon": -77.01972416666666, "bike_id": "26a0349da1fe45ad7173009030a32157", "lat": 38.90244233333333, "fusion_lon": 0.0, "fusion_lat": 0.0, "type": "electric_scooter", "name": "26a0349da1fe45ad7173009030a32157", "is_disabled": 0, "rental_uris": {"ios": "https://dc.lft.to/lastmile_qr_scan", "android": "https://dc.lft.to/lastmile_qr_scan"}, "is_reserved": 0}, {"lon": -77.0385835, "bike_id": "cbc4c6ab990f6dd270a07a248c9124a2", "lat": 38.9066265, "fusion_lon": 0.0, "fusion_lat": 0.0, "type": "electric_scooter", "name": "cbc4c6ab990f6dd270a07a248c9124a2", "is_disabled": 0, "rental_uris": {"ios": "https://dc.lft.to/lastmile_qr_scan", "android": "https://dc.lft.to/lastmile_qr_scan"}, "is_reserved": 0}, {"lon": -77.01412116666667, "bike_id": "bd4d6c13292365fc4837f7b8f9b10c8e", "lat": 38.92859833333333, "fusion_lon": 0.0, "fusion_lat": 0.0, "type": "electric_scooter", "name": "bd4d6c13292365fc4837f7b8f9b10c8e", "is_disabled": 0, "rental_uris": {"ios": "https://dc.lft.to/lastmile_qr_scan", "android": "https://dc.lft.to/lastmile_qr_scan"}, "is_reserved": 0}, {"lon": -77.0271365, "bike_id": "987ab12b545093c6d43e8aed288dd8b9", "lat": 38.925884, "fusion_lon": 0.0, "fusion_lat": 0.0, "type": "electric_scooter", "name": "987ab12b545093c6d43e8aed288dd8b9", "is_disabled": 0, "rental_uris": {"ios": "https://dc.lft.to/lastmile_qr_scan", "android": "https://dc.lft.to/lastmile_qr_scan"}, "is_reserved": 0}, {"lon": -77.0402585, "bike_id": "1f95cc92d9ee0d75503c72d8b5cd8c4c", "lat": 38.91115283333333, "fusion_lon": 0.0, "fusion_lat": 0.0, "type": "electric_scooter", "name": "1f95cc92d9ee0d75503c72d8b5cd8c4c", "is_disabled": 0, "rental_uris": {"ios": "https://dc.lft.to/lastmile_qr_scan", "android": "https://dc.lft.to/lastmile_qr_scan"}, "is_reserved": 0}, {"lon": -77.0737085, "bike_id": "8f1a5111eb2ba59521aeea228c0855b4", "lat": 38.96183216666667, "fusion_lon": 0.0, "fusion_lat": 0.0, "type": "electric_bike", "name": "8f1a5111eb2ba59521aeea228c0855b4", "is_disabled": 0, "rental_uris": {"ios": "https://dc.lft.to/lastmile_qr_scan", "android": "https://dc.lft.to/lastmile_qr_scan"}, "is_reserved": 0}, {"lon": -77.02307, "bike_id": "d4a96e21473e894b583502381fd7e30f", "lat": 38.8949855, "fusion_lon": 0.0, "fusion_lat": 0.0, "type": "electric_scooter", "name": "d4a96e21473e894b583502381fd7e30f", "is_disabled": 0, "rental_uris": {"ios": "https://dc.lft.to/lastmile_qr_scan", "android": "https://dc.lft.to/lastmile_qr_scan"}, "is_reserved": 0}, {"lon": -77.03426, "bike_id": "a4c48628256e8ee9de1a8adeda834403", "lat": 38.965275, "fusion_lon": 0.0, "fusion_lat": 0.0, "type": "electric_bike", "name": "a4c48628256e8ee9de1a8adeda834403", "is_disabled": 0, "rental_uris": {"ios": "https://dc.lft.to/lastmile_qr_scan", "android": "https://dc.lft.to/lastmile_qr_scan"}, "is_reserved": 0}, {"lon": -76.998087, "bike_id": "48517523397e60339d10148ae5fd2ee6", "lat": 38.829127, "fusion_lon": 0.0, "fusion_lat": 0.0, "type": "electric_bike", "name": "48517523397e60339d10148ae5fd2ee6", "is_disabled": 0, "rental_uris": {"ios": "https://dc.lft.to/lastmile_qr_scan", "android": "https://dc.lft.to/lastmile_qr_scan"}, "is_reserved": 0}, {"lon": -77.02357366666666, "bike_id": "d8fca6018fc88cce3b4d066da9906520", "lat": 38.922246333333334, "fusion_lon": 0.0, "fusion_lat": 0.0, "type": "electric_scooter", "name": "d8fca6018fc88cce3b4d066da9906520", "is_disabled": 0, "rental_uris": {"ios": "https://dc.lft.to/lastmile_qr_scan", "android": "https://dc.lft.to/lastmile_qr_scan"}, "is_reserved": 0}, {"lon": -77.01697866666666, "bike_id": "c8ed593a88c863de941a0d5be4f804c3", "lat": 38.914278, "fusion_lon": 0.0, "fusion_lat": 0.0, "type": "electric_scooter", "name": "c8ed593a88c863de941a0d5be4f804c3", "is_disabled": 0, "rental_uris": {"ios": "https://dc.lft.to/lastmile_qr_scan", "android": "https://dc.lft.to/lastmile_qr_scan"}, "is_reserved": 0}, {"lon": -77.03606183333333, "bike_id": "7f67eb2f5aa4a40e46a011976054cb64", "lat": 38.93682333333334, "fusion_lon": 0.0, "fusion_lat": 0.0, "type": "electric_scooter", "name": "7f67eb2f5aa4a40e46a011976054cb64", "is_disabled": 0, "rental_uris": {"ios": "https://dc.lft.to/lastmile_qr_scan", "android": "https://dc.lft.to/lastmile_qr_scan"}, "is_reserved": 0}, {"lon": -77.0176305, "bike_id": "deaf9aac300d569c966ba0e2c20717a1", "lat": 38.903925666666666, "fusion_lon": 0.0, "fusion_lat": 0.0, "type": "electric_scooter", "name": "deaf9aac300d569c966ba0e2c20717a1", "is_disabled": 0, "rental_uris": {"ios": "https://dc.lft.to/lastmile_qr_scan", "android": "https://dc.lft.to/lastmile_qr_scan"}, "is_reserved": 0}, {"lon": -77.027084, "bike_id": "5ec393a9421081d04ff6734e0e796fd6", "lat": 38.9266425, "fusion_lon": 0.0, "fusion_lat": 0.0, "type": "electric_scooter", "name": "5ec393a9421081d04ff6734e0e796fd6", "is_disabled": 0, "rental_uris": {"ios": "https://dc.lft.to/lastmile_qr_scan", "android": "https://dc.lft.to/lastmile_qr_scan"}, "is_reserved": 0}, {"lon": -76.95745583333333, "bike_id": "64badb237db85354fa4828dbfe3926ea", "lat": 38.8842735, "fusion_lon": 0.0, "fusion_lat": 0.0, "type": "electric_scooter", "name": "64badb237db85354fa4828dbfe3926ea", "is_disabled": 0, "rental_uris": {"ios": "https://dc.lft.to/lastmile_qr_scan", "android": "https://dc.lft.to/lastmile_qr_scan"}, "is_reserved": 0}, {"lon": -77.04188766666667, "bike_id": "7640cb579d73e9527847e34aaeabbd03", "lat": 38.89977233333333, "fusion_lon": 0.0, "fusion_lat": 0.0, "type": "electric_scooter", "name": "7640cb579d73e9527847e34aaeabbd03", "is_disabled": 0, "rental_uris": {"ios": "https://dc.lft.to/lastmile_qr_scan", "android": "https://dc.lft.to/lastmile_qr_scan"}, "is_reserved": 0}, {"lon": -77.0230735, "bike_id": "833097831208a350043fd0c8e742b58a", "lat": 38.9178115, "fusion_lon": 0.0, "fusion_lat": 0.0, "type": "electric_scooter", "name": "833097831208a350043fd0c8e742b58a", "is_disabled": 0, "rental_uris": {"ios": "https://dc.lft.to/lastmile_qr_scan", "android": "https://dc.lft.to/lastmile_qr_scan"}, "is_reserved": 0}, {"lon": -77.000484, "bike_id": "ed6b903050df4f6b313cc7e2b70a169c", "lat": 38.9239675, "fusion_lon": 0.0, "fusion_lat": 0.0, "type": "electric_scooter", "name": "ed6b903050df4f6b313cc7e2b70a169c", "is_disabled": 0, "rental_uris": {"ios": "https://dc.lft.to/lastmile_qr_scan", "android": "https://dc.lft.to/lastmile_qr_scan"}, "is_reserved": 0}, {"lon": -77.11708533333334, "bike_id": "74366455644c6c16393dc49fd0f441c3", "lat": 38.8674835, "fusion_lon": 0.0, "fusion_lat": 0.0, "type": "electric_bike", "name": "74366455644c6c16393dc49fd0f441c3", "is_disabled": 0, "rental_uris": {"ios": "https://dc.lft.to/lastmile_qr_scan", "android": "https://dc.lft.to/lastmile_qr_scan"}, "is_reserved": 0}, {"lon": -76.94067433333333, "bike_id": "c65a69c464c50bb6cd53d6153a6aa56b", "lat": 38.8931845, "fusion_lon": 0.0, "fusion_lat": 0.0, "type": "electric_scooter", "name": "c65a69c464c50bb6cd53d6153a6aa56b", "is_disabled": 0, "rental_uris": {"ios": "https://dc.lft.to/lastmile_qr_scan", "android": "https://dc.lft.to/lastmile_qr_scan"}, "is_reserved": 0}, {"lon": -77.030216, "bike_id": "595fd3a7c8fddf194f4716378ff91c7e", "lat": 38.88443083333333, "fusion_lon": 0.0, "fusion_lat": 0.0, "type": "electric_scooter", "name": "595fd3a7c8fddf194f4716378ff91c7e", "is_disabled": 0, "rental_uris": {"ios": "https://dc.lft.to/lastmile_qr_scan", "android": "https://dc.lft.to/lastmile_qr_scan"}, "is_reserved": 0}, {"lon": -77.03197083333333, "bike_id": "4373b17118308e1d6dd511eca2811733", "lat": 38.90689716666667, "fusion_lon": 0.0, "fusion_lat": 0.0, "type": "electric_scooter", "name": "4373b17118308e1d6dd511eca2811733", "is_disabled": 0, "rental_uris": {"ios": "https://dc.lft.to/lastmile_qr_scan", "android": "https://dc.lft.to/lastmile_qr_scan"}, "is_reserved": 0}, {"lon": -77.0678195, "bike_id": "8b7c8ea8508072565c0900db7d85cfa3", "lat": 38.904587166666666, "fusion_lon": 0.0, "fusion_lat": 0.0, "type": "electric_scooter", "name": "8b7c8ea8508072565c0900db7d85cfa3", "is_disabled": 0, "rental_uris": {"ios": "https://dc.lft.to/lastmile_qr_scan", "android": "https://dc.lft.to/lastmile_qr_scan"}, "is_reserved": 0}, {"lon": -77.01843283333334, "bike_id": "a22325f79e7a7be83958c58458933547", "lat": 38.9038565, "fusion_lon": 0.0, "fusion_lat": 0.0, "type": "electric_scooter", "name": "a22325f79e7a7be83958c58458933547", "is_disabled": 0, "rental_uris": {"ios": "https://dc.lft.to/lastmile_qr_scan", "android": "https://dc.lft.to/lastmile_qr_scan"}, "is_reserved": 0}, {"lon": -77.09070766666666, "bike_id": "2c9c544e2c112d044eecdb55cfb97547", "lat": 38.978473666666666, "fusion_lon": 0.0, "fusion_lat": 0.0, "type": "electric_bike", "name": "2c9c544e2c112d044eecdb55cfb97547", "is_disabled": 0, "rental_uris": {"ios": "https://dc.lft.to/lastmile_qr_scan", "android": "https://dc.lft.to/lastmile_qr_scan"}, "is_reserved": 0}, {"lon": -77.03855433333334, "bike_id": "6870fdf5decae0c76456c1f5c7ec2a95", "lat": 38.91543166666666, "fusion_lon": 0.0, "fusion_lat": 0.0, "type": "electric_scooter", "name": "6870fdf5decae0c76456c1f5c7ec2a95", "is_disabled": 0, "rental_uris": {"ios": "https://dc.lft.to/lastmile_qr_scan", "android": "https://dc.lft.to/lastmile_qr_scan"}, "is_reserved": 0}, {"lon": -77.04678333333334, "bike_id": "29c3ed6afe7a360be6e89161ab0b0381", "lat": 38.90538166666666, "fusion_lon": 0.0, "fusion_lat": 0.0, "type": "electric_scooter", "name": "29c3ed6afe7a360be6e89161ab0b0381", "is_disabled": 0, "rental_uris": {"ios": "https://dc.lft.to/lastmile_qr_scan", "android": "https://dc.lft.to/lastmile_qr_scan"}, "is_reserved": 0}, {"lon": -77.03261233333333, "bike_id": "0bdb963f0065400488827e40ec20bca7", "lat": 38.925467833333336, "fusion_lon": 0.0, "fusion_lat": 0.0, "type": "electric_scooter", "name": "0bdb963f0065400488827e40ec20bca7", "is_disabled": 0, "rental_uris": {"ios": "https://dc.lft.to/lastmile_qr_scan", "android": "https://dc.lft.to/lastmile_qr_scan"}, "is_reserved": 0}, {"lon": -77.0417135, "bike_id": "a9e523445e1539a0da90b979e57e95c0", "lat": 38.9179015, "fusion_lon": 0.0, "fusion_lat": 0.0, "type": "electric_scooter", "name": "a9e523445e1539a0da90b979e57e95c0", "is_disabled": 0, "rental_uris": {"ios": "https://dc.lft.to/lastmile_qr_scan", "android": "https://dc.lft.to/lastmile_qr_scan"}, "is_reserved": 0}, {"lon": -77.01924466666667, "bike_id": "45f336742205e06b33d3e504c3326496", "lat": 38.92215383333333, "fusion_lon": 0.0, "fusion_lat": 0.0, "type": "electric_scooter", "name": "45f336742205e06b33d3e504c3326496", "is_disabled": 0, "rental_uris": {"ios": "https://dc.lft.to/lastmile_qr_scan", "android": "https://dc.lft.to/lastmile_qr_scan"}, "is_reserved": 0}, {"lon": -77.1310045, "bike_id": "6f78a19a8417b1a3d88119084e82d398", "lat": 39.02435783333333, "fusion_lon": 0.0, "fusion_lat": 0.0, "type": "electric_bike", "name": "6f78a19a8417b1a3d88119084e82d398", "is_disabled": 0, "rental_uris": {"ios": "https://dc.lft.to/lastmile_qr_scan", "android": "https://dc.lft.to/lastmile_qr_scan"}, "is_reserved": 0}, {"lon": -77.02707266666667, "bike_id": "55a43d67caf0cc79d4fec2622239e8a1", "lat": 38.9167195, "fusion_lon": 0.0, "fusion_lat": 0.0, "type": "electric_scooter", "name": "55a43d67caf0cc79d4fec2622239e8a1", "is_disabled": 0, "rental_uris": {"ios": "https://dc.lft.to/lastmile_qr_scan", "android": "https://dc.lft.to/lastmile_qr_scan"}, "is_reserved": 0}, {"lon": -77.015375, "bike_id": "865933800444a6050c351a114fb0b7a5", "lat": 38.902725833333335, "fusion_lon": 0.0, "fusion_lat": 0.0, "type": "electric_scooter", "name": "865933800444a6050c351a114fb0b7a5", "is_disabled": 0, "rental_uris": {"ios": "https://dc.lft.to/lastmile_qr_scan", "android": "https://dc.lft.to/lastmile_qr_scan"}, "is_reserved": 0}, {"lon": -76.98378233333334, "bike_id": "4b20ba13b4462167ca92b0811fb8664e", "lat": 38.899701666666665, "fusion_lon": 0.0, "fusion_lat": 0.0, "type": "electric_scooter", "name": "4b20ba13b4462167ca92b0811fb8664e", "is_disabled": 0, "rental_uris": {"ios": "https://dc.lft.to/lastmile_qr_scan", "android": "https://dc.lft.to/lastmile_qr_scan"}, "is_reserved": 0}, {"lon": -77.00369183333333, "bike_id": "0687fd025719f1f25a8483edf1a94cfb", "lat": 38.89729166666667, "fusion_lon": 0.0, "fusion_lat": 0.0, "type": "electric_scooter", "name": "0687fd025719f1f25a8483edf1a94cfb", "is_disabled": 0, "rental_uris": {"ios": "https://dc.lft.to/lastmile_qr_scan", "android": "https://dc.lft.to/lastmile_qr_scan"}, "is_reserved": 0}, {"lon": -76.98846583333334, "bike_id": "0aa769e8965e4c8f33e658f10af560ef", "lat": 38.90129116666667, "fusion_lon": 0.0, "fusion_lat": 0.0, "type": "electric_scooter", "name": "0aa769e8965e4c8f33e658f10af560ef", "is_disabled": 0, "rental_uris": {"ios": "https://dc.lft.to/lastmile_qr_scan", "android": "https://dc.lft.to/lastmile_qr_scan"}, "is_reserved": 0}, {"lon": -77.03546033333333, "bike_id": "baf54a89b67062c27dd2ac82f547be8d", "lat": 38.9240175, "fusion_lon": 0.0, "fusion_lat": 0.0, "type": "electric_scooter", "name": "baf54a89b67062c27dd2ac82f547be8d", "is_disabled": 0, "rental_uris": {"ios": "https://dc.lft.to/lastmile_qr_scan", "android": "https://dc.lft.to/lastmile_qr_scan"}, "is_reserved": 0}, {"lon": -77.02504866666666, "bike_id": "ecefb1e52e990ef4f8b48333b52e8928", "lat": 38.920525, "fusion_lon": 0.0, "fusion_lat": 0.0, "type": "electric_scooter", "name": "ecefb1e52e990ef4f8b48333b52e8928", "is_disabled": 0, "rental_uris": {"ios": "https://dc.lft.to/lastmile_qr_scan", "android": "https://dc.lft.to/lastmile_qr_scan"}, "is_reserved": 0}, {"lon": -77.01932816666667, "bike_id": "c00475560bce5a0b8a99111260867047", "lat": 38.8944485, "fusion_lon": 0.0, "fusion_lat": 0.0, "type": "electric_scooter", "name": "c00475560bce5a0b8a99111260867047", "is_disabled": 0, "rental_uris": {"ios": "https://dc.lft.to/lastmile_qr_scan", "android": "https://dc.lft.to/lastmile_qr_scan"}, "is_reserved": 0}, {"lon": -77.0281065, "bike_id": "54c2807a78447029490586a13a4ebea2", "lat": 38.930837333333336, "fusion_lon": 0.0, "fusion_lat": 0.0, "type": "electric_scooter", "name": "54c2807a78447029490586a13a4ebea2", "is_disabled": 0, "rental_uris": {"ios": "https://dc.lft.to/lastmile_qr_scan", "android": "https://dc.lft.to/lastmile_qr_scan"}, "is_reserved": 0}, {"lon": -77.02001783333333, "bike_id": "fd26ee8d6063ca015a51d573a93773b6", "lat": 38.91362783333334, "fusion_lon": 0.0, "fusion_lat": 0.0, "type": "electric_scooter", "name": "fd26ee8d6063ca015a51d573a93773b6", "is_disabled": 0, "rental_uris": {"ios": "https://dc.lft.to/lastmile_qr_scan", "android": "https://dc.lft.to/lastmile_qr_scan"}, "is_reserved": 0}, {"lon": -77.02982666666666, "bike_id": "eaa48f06654d5a374df001906ce82245", "lat": 38.92473716666667, "fusion_lon": 0.0, "fusion_lat": 0.0, "type": "electric_scooter", "name": "eaa48f06654d5a374df001906ce82245", "is_disabled": 0, "rental_uris": {"ios": "https://dc.lft.to/lastmile_qr_scan", "android": "https://dc.lft.to/lastmile_qr_scan"}, "is_reserved": 0}, {"lon": -76.9995665, "bike_id": "c6542c7234aac3f199014aaa6d473f06", "lat": 38.904076833333335, "fusion_lon": 0.0, "fusion_lat": 0.0, "type": "electric_scooter", "name": "c6542c7234aac3f199014aaa6d473f06", "is_disabled": 0, "rental_uris": {"ios": "https://dc.lft.to/lastmile_qr_scan", "android": "https://dc.lft.to/lastmile_qr_scan"}, "is_reserved": 0}, {"lon": -76.97733066666666, "bike_id": "f75c2e8eae7ff053c976c8e964b2602e", "lat": 38.86470816666667, "fusion_lon": 0.0, "fusion_lat": 0.0, "type": "electric_scooter", "name": "f75c2e8eae7ff053c976c8e964b2602e", "is_disabled": 0, "rental_uris": {"ios": "https://dc.lft.to/lastmile_qr_scan", "android": "https://dc.lft.to/lastmile_qr_scan"}, "is_reserved": 0}, {"lon": -76.984907, "bike_id": "6e58093cfe099607dd5578b12ac94c40", "lat": 38.878362333333335, "fusion_lon": 0.0, "fusion_lat": 0.0, "type": "electric_scooter", "name": "6e58093cfe099607dd5578b12ac94c40", "is_disabled": 0, "rental_uris": {"ios": "https://dc.lft.to/lastmile_qr_scan", "android": "https://dc.lft.to/lastmile_qr_scan"}, "is_reserved": 0}, {"lon": -76.9441225, "bike_id": "b2dab354c77dd21046853aef6a35771f", "lat": 38.88612333333333, "fusion_lon": 0.0, "fusion_lat": 0.0, "type": "electric_scooter", "name": "b2dab354c77dd21046853aef6a35771f", "is_disabled": 0, "rental_uris": {"ios": "https://dc.lft.to/lastmile_qr_scan", "android": "https://dc.lft.to/lastmile_qr_scan"}, "is_reserved": 0}, {"lon": -77.023877, "bike_id": "e2b83f4dd59c29950b6a13ed22fb1c83", "lat": 38.89825066666667, "fusion_lon": 0.0, "fusion_lat": 0.0, "type": "electric_scooter", "name": "e2b83f4dd59c29950b6a13ed22fb1c83", "is_disabled": 0, "rental_uris": {"ios": "https://dc.lft.to/lastmile_qr_scan", "android": "https://dc.lft.to/lastmile_qr_scan"}, "is_reserved": 0}, {"lon": -77.0600895, "bike_id": "499c2846d3c465c06b94bd6d18a285d3", "lat": 38.9011415, "fusion_lon": 0.0, "fusion_lat": 0.0, "type": "electric_scooter", "name": "499c2846d3c465c06b94bd6d18a285d3", "is_disabled": 0, "rental_uris": {"ios": "https://dc.lft.to/lastmile_qr_scan", "android": "https://dc.lft.to/lastmile_qr_scan"}, "is_reserved": 0}, {"lon": -77.02511383333334, "bike_id": "85b990b066afb9ab05bf6fffd9282fb7", "lat": 38.916830166666664, "fusion_lon": 0.0, "fusion_lat": 0.0, "type": "electric_scooter", "name": "85b990b066afb9ab05bf6fffd9282fb7", "is_disabled": 0, "rental_uris": {"ios": "https://dc.lft.to/lastmile_qr_scan", "android": "https://dc.lft.to/lastmile_qr_scan"}, "is_reserved": 0}, {"lon": -77.043294, "bike_id": "5e99db2acbf181403aa5acefe1b3b740", "lat": 38.9160345, "fusion_lon": 0.0, "fusion_lat": 0.0, "type": "electric_scooter", "name": "5e99db2acbf181403aa5acefe1b3b740", "is_disabled": 0, "rental_uris": {"ios": "https://dc.lft.to/lastmile_qr_scan", "android": "https://dc.lft.to/lastmile_qr_scan"}, "is_reserved": 0}, {"lon": -77.0449485, "bike_id": "549a7b6006631c92a5aed3d4e8e3bf18", "lat": 38.91356, "fusion_lon": 0.0, "fusion_lat": 0.0, "type": "electric_scooter", "name": "549a7b6006631c92a5aed3d4e8e3bf18", "is_disabled": 0, "rental_uris": {"ios": "https://dc.lft.to/lastmile_qr_scan", "android": "https://dc.lft.to/lastmile_qr_scan"}, "is_reserved": 0}, {"lon": -77.03261133333334, "bike_id": "fbe697698fe05c64f4051ea3b3aa292a", "lat": 38.937757833333336, "fusion_lon": 0.0, "fusion_lat": 0.0, "type": "electric_scooter", "name": "fbe697698fe05c64f4051ea3b3aa292a", "is_disabled": 0, "rental_uris": {"ios": "https://dc.lft.to/lastmile_qr_scan", "android": "https://dc.lft.to/lastmile_qr_scan"}, "is_reserved": 0}, {"lon": -76.96524566666666, "bike_id": "e7e0df48a594226afcb91e571c56d6e2", "lat": 38.87626216666666, "fusion_lon": 0.0, "fusion_lat": 0.0, "type": "electric_scooter", "name": "e7e0df48a594226afcb91e571c56d6e2", "is_disabled": 0, "rental_uris": {"ios": "https://dc.lft.to/lastmile_qr_scan", "android": "https://dc.lft.to/lastmile_qr_scan"}, "is_reserved": 0}, {"lon": -77.02513166666667, "bike_id": "04b5c2bc6475edb716e6ade6bad7bda4", "lat": 38.91263816666667, "fusion_lon": 0.0, "fusion_lat": 0.0, "type": "electric_scooter", "name": "04b5c2bc6475edb716e6ade6bad7bda4", "is_disabled": 0, "rental_uris": {"ios": "https://dc.lft.to/lastmile_qr_scan", "android": "https://dc.lft.to/lastmile_qr_scan"}, "is_reserved": 0}, {"lon": -77.0502035, "bike_id": "8a3a084e8f9321a7cba1aba75a3111ae", "lat": 38.9157475, "fusion_lon": 0.0, "fusion_lat": 0.0, "type": "electric_scooter", "name": "8a3a084e8f9321a7cba1aba75a3111ae", "is_disabled": 0, "rental_uris": {"ios": "https://dc.lft.to/lastmile_qr_scan", "android": "https://dc.lft.to/lastmile_qr_scan"}, "is_reserved": 0}, {"lon": -76.96383583333333, "bike_id": "88252fa1f86bd2e1ee69d4d53f63cd23", "lat": 38.9517285, "fusion_lon": 0.0, "fusion_lat": 0.0, "type": "electric_bike", "name": "88252fa1f86bd2e1ee69d4d53f63cd23", "is_disabled": 0, "rental_uris": {"ios": "https://dc.lft.to/lastmile_qr_scan", "android": "https://dc.lft.to/lastmile_qr_scan"}, "is_reserved": 0}, {"lon": -77.0278535, "bike_id": "5ac4a6895097739e9af0900c8beb998e", "lat": 38.954083833333335, "fusion_lon": 0.0, "fusion_lat": 0.0, "type": "electric_scooter", "name": "5ac4a6895097739e9af0900c8beb998e", "is_disabled": 0, "rental_uris": {"ios": "https://dc.lft.to/lastmile_qr_scan", "android": "https://dc.lft.to/lastmile_qr_scan"}, "is_reserved": 0}, {"lon": -77.02384433333333, "bike_id": "c2ac26548407cb9c53f833899e81f31c", "lat": 38.9161945, "fusion_lon": 0.0, "fusion_lat": 0.0, "type": "electric_scooter", "name": "c2ac26548407cb9c53f833899e81f31c", "is_disabled": 0, "rental_uris": {"ios": "https://dc.lft.to/lastmile_qr_scan", "android": "https://dc.lft.to/lastmile_qr_scan"}, "is_reserved": 0}, {"lon": -77.00743433333334, "bike_id": "6f69b3f1cf2d959310070ee355ada1bb", "lat": 38.92529566666666, "fusion_lon": 0.0, "fusion_lat": 0.0, "type": "electric_scooter", "name": "6f69b3f1cf2d959310070ee355ada1bb", "is_disabled": 0, "rental_uris": {"ios": "https://dc.lft.to/lastmile_qr_scan", "android": "https://dc.lft.to/lastmile_qr_scan"}, "is_reserved": 0}, {"lon": -77.020903, "bike_id": "d4cbe4b5087091b7c7af08e044952fc1", "lat": 38.9290845, "fusion_lon": 0.0, "fusion_lat": 0.0, "type": "electric_scooter", "name": "d4cbe4b5087091b7c7af08e044952fc1", "is_disabled": 0, "rental_uris": {"ios": "https://dc.lft.to/lastmile_qr_scan", "android": "https://dc.lft.to/lastmile_qr_scan"}, "is_reserved": 0}, {"lon": -77.2280225, "bike_id": "1b6c56a2554de500c066740f45fab714", "lat": 38.91012683333334, "fusion_lon": 0.0, "fusion_lat": 0.0, "type": "electric_bike", "name": "1b6c56a2554de500c066740f45fab714", "is_disabled": 0, "rental_uris": {"ios": "https://dc.lft.to/lastmile_qr_scan", "android": "https://dc.lft.to/lastmile_qr_scan"}, "is_reserved": 0}, {"lon": -76.99943383333333, "bike_id": "b09ed64cb04fa31530fe54ca8e44978b", "lat": 38.90756433333333, "fusion_lon": 0.0, "fusion_lat": 0.0, "type": "electric_scooter", "name": "b09ed64cb04fa31530fe54ca8e44978b", "is_disabled": 0, "rental_uris": {"ios": "https://dc.lft.to/lastmile_qr_scan", "android": "https://dc.lft.to/lastmile_qr_scan"}, "is_reserved": 0}, {"lon": -77.02953766666667, "bike_id": "7bdf68f57c5eabe8be46e3fce4a9e41b", "lat": 38.92768233333334, "fusion_lon": 0.0, "fusion_lat": 0.0, "type": "electric_scooter", "name": "7bdf68f57c5eabe8be46e3fce4a9e41b", "is_disabled": 0, "rental_uris": {"ios": "https://dc.lft.to/lastmile_qr_scan", "android": "https://dc.lft.to/lastmile_qr_scan"}, "is_reserved": 0}, {"lon": -77.05872966666666, "bike_id": "cd0a37ac1d06093f1e5798350df758bc", "lat": 38.9355615, "fusion_lon": 0.0, "fusion_lat": 0.0, "type": "electric_scooter", "name": "cd0a37ac1d06093f1e5798350df758bc", "is_disabled": 0, "rental_uris": {"ios": "https://dc.lft.to/lastmile_qr_scan", "android": "https://dc.lft.to/lastmile_qr_scan"}, "is_reserved": 0}, {"lon": -77.03120316666667, "bike_id": "33f8cad174f263091936e758b4d90469", "lat": 38.98832, "fusion_lon": 0.0, "fusion_lat": 0.0, "type": "electric_scooter", "name": "33f8cad174f263091936e758b4d90469", "is_disabled": 0, "rental_uris": {"ios": "https://dc.lft.to/lastmile_qr_scan", "android": "https://dc.lft.to/lastmile_qr_scan"}, "is_reserved": 0}, {"lon": -77.0416925, "bike_id": "8dcf86c11f119865095599f1f05a473e", "lat": 38.90664133333333, "fusion_lon": 0.0, "fusion_lat": 0.0, "type": "electric_scooter", "name": "8dcf86c11f119865095599f1f05a473e", "is_disabled": 0, "rental_uris": {"ios": "https://dc.lft.to/lastmile_qr_scan", "android": "https://dc.lft.to/lastmile_qr_scan"}, "is_reserved": 0}, {"lon": -77.05315966666667, "bike_id": "f26e723c126865f2a41b73220fecb902", "lat": 38.9410505, "fusion_lon": 0.0, "fusion_lat": 0.0, "type": "electric_bike", "name": "f26e723c126865f2a41b73220fecb902", "is_disabled": 0, "rental_uris": {"ios": "https://dc.lft.to/lastmile_qr_scan", "android": "https://dc.lft.to/lastmile_qr_scan"}, "is_reserved": 0}, {"lon": -77.02966, "bike_id": "c20ebe6732aba305ec396a008adb5642", "lat": 38.9127495, "fusion_lon": 0.0, "fusion_lat": 0.0, "type": "electric_scooter", "name": "c20ebe6732aba305ec396a008adb5642", "is_disabled": 0, "rental_uris": {"ios": "https://dc.lft.to/lastmile_qr_scan", "android": "https://dc.lft.to/lastmile_qr_scan"}, "is_reserved": 0}, {"lon": -77.0256055, "bike_id": "6865bf117eb3a4b78edf90dfb1035402", "lat": 38.941737833333335, "fusion_lon": 0.0, "fusion_lat": 0.0, "type": "electric_scooter", "name": "6865bf117eb3a4b78edf90dfb1035402", "is_disabled": 0, "rental_uris": {"ios": "https://dc.lft.to/lastmile_qr_scan", "android": "https://dc.lft.to/lastmile_qr_scan"}, "is_reserved": 0}, {"lon": -76.9901215, "bike_id": "3ef6ad8044459807d8f9ae0f646c23bb", "lat": 38.946012833333334, "fusion_lon": 0.0, "fusion_lat": 0.0, "type": "electric_scooter", "name": "3ef6ad8044459807d8f9ae0f646c23bb", "is_disabled": 0, "rental_uris": {"ios": "https://dc.lft.to/lastmile_qr_scan", "android": "https://dc.lft.to/lastmile_qr_scan"}, "is_reserved": 0}, {"lon": -77.038603, "bike_id": "3938b6d28dc152807a4437fa357c7aec", "lat": 38.92013716666666, "fusion_lon": 0.0, "fusion_lat": 0.0, "type": "electric_scooter", "name": "3938b6d28dc152807a4437fa357c7aec", "is_disabled": 0, "rental_uris": {"ios": "https://dc.lft.to/lastmile_qr_scan", "android": "https://dc.lft.to/lastmile_qr_scan"}, "is_reserved": 0}, {"lon": -77.04978983333334, "bike_id": "6f16462aa716d075801cd7769c067723", "lat": 39.062939166666666, "fusion_lon": 0.0, "fusion_lat": 0.0, "type": "electric_bike", "name": "6f16462aa716d075801cd7769c067723", "is_disabled": 0, "rental_uris": {"ios": "https://dc.lft.to/lastmile_qr_scan", "android": "https://dc.lft.to/lastmile_qr_scan"}, "is_reserved": 0}, {"lon": -77.03816066666667, "bike_id": "4c380c294ce9e3bdaeb7b358ac12591e", "lat": 38.90975433333333, "fusion_lon": 0.0, "fusion_lat": 0.0, "type": "electric_scooter", "name": "4c380c294ce9e3bdaeb7b358ac12591e", "is_disabled": 0, "rental_uris": {"ios": "https://dc.lft.to/lastmile_qr_scan", "android": "https://dc.lft.to/lastmile_qr_scan"}, "is_reserved": 0}, {"lon": -77.05133383333333, "bike_id": "b014279fd4eb28cf719b8b100d331f2a", "lat": 38.898618666666664, "fusion_lon": 0.0, "fusion_lat": 0.0, "type": "electric_scooter", "name": "b014279fd4eb28cf719b8b100d331f2a", "is_disabled": 0, "rental_uris": {"ios": "https://dc.lft.to/lastmile_qr_scan", "android": "https://dc.lft.to/lastmile_qr_scan"}, "is_reserved": 0}, {"lon": -77.06276633333333, "bike_id": "f67a1115221236bf9f9209743e2c9fc9", "lat": 38.86538633333333, "fusion_lon": 0.0, "fusion_lat": 0.0, "type": "electric_bike", "name": "f67a1115221236bf9f9209743e2c9fc9", "is_disabled": 0, "rental_uris": {"ios": "https://dc.lft.to/lastmile_qr_scan", "android": "https://dc.lft.to/lastmile_qr_scan"}, "is_reserved": 0}, {"lon": -76.97865416666667, "bike_id": "5d8483dfc46d8d9a8d3355826e621161", "lat": 38.88297283333333, "fusion_lon": 0.0, "fusion_lat": 0.0, "type": "electric_scooter", "name": "5d8483dfc46d8d9a8d3355826e621161", "is_disabled": 0, "rental_uris": {"ios": "https://dc.lft.to/lastmile_qr_scan", "android": "https://dc.lft.to/lastmile_qr_scan"}, "is_reserved": 0}, {"lon": -76.99364833333334, "bike_id": "ac38fd2f7ad375b9c44f1f59d5d07672", "lat": 38.940226333333335, "fusion_lon": 0.0, "fusion_lat": 0.0, "type": "electric_scooter", "name": "ac38fd2f7ad375b9c44f1f59d5d07672", "is_disabled": 0, "rental_uris": {"ios": "https://dc.lft.to/lastmile_qr_scan", "android": "https://dc.lft.to/lastmile_qr_scan"}, "is_reserved": 0}, {"lon": -76.985866, "bike_id": "962d4f33eb328d0414bae902e261228b", "lat": 38.88401866666667, "fusion_lon": 0.0, "fusion_lat": 0.0, "type": "electric_scooter", "name": "962d4f33eb328d0414bae902e261228b", "is_disabled": 0, "rental_uris": {"ios": "https://dc.lft.to/lastmile_qr_scan", "android": "https://dc.lft.to/lastmile_qr_scan"}, "is_reserved": 0}, {"lon": -77.02681266666667, "bike_id": "f7fd345290300ff9cf31bdec53af68d1", "lat": 38.94325383333333, "fusion_lon": 0.0, "fusion_lat": 0.0, "type": "electric_scooter", "name": "f7fd345290300ff9cf31bdec53af68d1", "is_disabled": 0, "rental_uris": {"ios": "https://dc.lft.to/lastmile_qr_scan", "android": "https://dc.lft.to/lastmile_qr_scan"}, "is_reserved": 0}, {"lon": -77.126508, "bike_id": "97466b2228c7e1d91a15dd293326e26c", "lat": 38.81513966666667, "fusion_lon": 0.0, "fusion_lat": 0.0, "type": "electric_bike", "name": "97466b2228c7e1d91a15dd293326e26c", "is_disabled": 0, "rental_uris": {"ios": "https://dc.lft.to/lastmile_qr_scan", "android": "https://dc.lft.to/lastmile_qr_scan"}, "is_reserved": 0}, {"lon": -76.933762, "bike_id": "005b61b5eeeb5ae83cce5c322aa4128f", "lat": 38.9103105, "fusion_lon": 0.0, "fusion_lat": 0.0, "type": "electric_scooter", "name": "005b61b5eeeb5ae83cce5c322aa4128f", "is_disabled": 0, "rental_uris": {"ios": "https://dc.lft.to/lastmile_qr_scan", "android": "https://dc.lft.to/lastmile_qr_scan"}, "is_reserved": 0}, {"lon": -76.93350816666667, "bike_id": "129d4324102f6b596a5da1215ff645e7", "lat": 38.89908533333333, "fusion_lon": 0.0, "fusion_lat": 0.0, "type": "electric_scooter", "name": "129d4324102f6b596a5da1215ff645e7", "is_disabled": 0, "rental_uris": {"ios": "https://dc.lft.to/lastmile_qr_scan", "android": "https://dc.lft.to/lastmile_qr_scan"}, "is_reserved": 0}, {"lon": -77.0445455, "bike_id": "36e38559c2ba6239d6f6eb0d6588d4a0", "lat": 38.91882066666667, "fusion_lon": 0.0, "fusion_lat": 0.0, "type": "electric_scooter", "name": "36e38559c2ba6239d6f6eb0d6588d4a0", "is_disabled": 0, "rental_uris": {"ios": "https://dc.lft.to/lastmile_qr_scan", "android": "https://dc.lft.to/lastmile_qr_scan"}, "is_reserved": 0}, {"lon": -76.98179666666667, "bike_id": "58376282ab64bae5f5e7b558d21107a5", "lat": 38.926065, "fusion_lon": 0.0, "fusion_lat": 0.0, "type": "electric_scooter", "name": "58376282ab64bae5f5e7b558d21107a5", "is_disabled": 0, "rental_uris": {"ios": "https://dc.lft.to/lastmile_qr_scan", "android": "https://dc.lft.to/lastmile_qr_scan"}, "is_reserved": 0}, {"lon": -76.98566216666667, "bike_id": "04a786c1a9cf7728691ac52e1c01ebad", "lat": 38.89958016666667, "fusion_lon": 0.0, "fusion_lat": 0.0, "type": "electric_scooter", "name": "04a786c1a9cf7728691ac52e1c01ebad", "is_disabled": 0, "rental_uris": {"ios": "https://dc.lft.to/lastmile_qr_scan", "android": "https://dc.lft.to/lastmile_qr_scan"}, "is_reserved": 0}, {"lon": -77.07170866666667, "bike_id": "f18491bebdefaad2ec0e4e6da631478f", "lat": 38.90777, "fusion_lon": 0.0, "fusion_lat": 0.0, "type": "electric_scooter", "name": "f18491bebdefaad2ec0e4e6da631478f", "is_disabled": 0, "rental_uris": {"ios": "https://dc.lft.to/lastmile_qr_scan", "android": "https://dc.lft.to/lastmile_qr_scan"}, "is_reserved": 0}, {"lon": -77.0382335, "bike_id": "7e8e98022193efba9cac6267d0e48d8a", "lat": 38.911184166666665, "fusion_lon": 0.0, "fusion_lat": 0.0, "type": "electric_scooter", "name": "7e8e98022193efba9cac6267d0e48d8a", "is_disabled": 0, "rental_uris": {"ios": "https://dc.lft.to/lastmile_qr_scan", "android": "https://dc.lft.to/lastmile_qr_scan"}, "is_reserved": 0}, {"lon": -76.99106483333334, "bike_id": "1690b1fd9d0a979cdc34dd2121077170", "lat": 38.903220166666664, "fusion_lon": 0.0, "fusion_lat": 0.0, "type": "electric_scooter", "name": "1690b1fd9d0a979cdc34dd2121077170", "is_disabled": 0, "rental_uris": {"ios": "https://dc.lft.to/lastmile_qr_scan", "android": "https://dc.lft.to/lastmile_qr_scan"}, "is_reserved": 0}, {"lon": -77.046271, "bike_id": "9453250a019d29d6bb4031f1d35495dc", "lat": 38.91913866666667, "fusion_lon": 0.0, "fusion_lat": 0.0, "type": "electric_scooter", "name": "9453250a019d29d6bb4031f1d35495dc", "is_disabled": 0, "rental_uris": {"ios": "https://dc.lft.to/lastmile_qr_scan", "android": "https://dc.lft.to/lastmile_qr_scan"}, "is_reserved": 0}, {"lon": -77.03853483333333, "bike_id": "fc02945c10bfe315569e3d670ddd7f41", "lat": 38.914660833333336, "fusion_lon": 0.0, "fusion_lat": 0.0, "type": "electric_scooter", "name": "fc02945c10bfe315569e3d670ddd7f41", "is_disabled": 0, "rental_uris": {"ios": "https://dc.lft.to/lastmile_qr_scan", "android": "https://dc.lft.to/lastmile_qr_scan"}, "is_reserved": 0}, {"lon": -77.00343783333334, "bike_id": "fb8b6b277055b59a77e7b704cd68d771", "lat": 38.91624566666667, "fusion_lon": 0.0, "fusion_lat": 0.0, "type": "electric_scooter", "name": "fb8b6b277055b59a77e7b704cd68d771", "is_disabled": 0, "rental_uris": {"ios": "https://dc.lft.to/lastmile_qr_scan", "android": "https://dc.lft.to/lastmile_qr_scan"}, "is_reserved": 0}, {"lon": -77.02428583333334, "bike_id": "0c4cc8ec5a4894736150e85ea500f8d8", "lat": 38.923518333333334, "fusion_lon": 0.0, "fusion_lat": 0.0, "type": "electric_scooter", "name": "0c4cc8ec5a4894736150e85ea500f8d8", "is_disabled": 0, "rental_uris": {"ios": "https://dc.lft.to/lastmile_qr_scan", "android": "https://dc.lft.to/lastmile_qr_scan"}, "is_reserved": 0}, {"lon": -77.0505825, "bike_id": "474575616c7536377cd1875ca8d0f60e", "lat": 38.92583583333333, "fusion_lon": 0.0, "fusion_lat": 0.0, "type": "electric_scooter", "name": "474575616c7536377cd1875ca8d0f60e", "is_disabled": 0, "rental_uris": {"ios": "https://dc.lft.to/lastmile_qr_scan", "android": "https://dc.lft.to/lastmile_qr_scan"}, "is_reserved": 0}, {"lon": -76.99177183333333, "bike_id": "919303714b84b524ee1399733837abbd", "lat": 38.889909833333334, "fusion_lon": 0.0, "fusion_lat": 0.0, "type": "electric_scooter", "name": "919303714b84b524ee1399733837abbd", "is_disabled": 0, "rental_uris": {"ios": "https://dc.lft.to/lastmile_qr_scan", "android": "https://dc.lft.to/lastmile_qr_scan"}, "is_reserved": 0}, {"lon": -77.02718666666667, "bike_id": "f31d2c5cf30601d1165a802e470d581a", "lat": 38.90934983333333, "fusion_lon": 0.0, "fusion_lat": 0.0, "type": "electric_scooter", "name": "f31d2c5cf30601d1165a802e470d581a", "is_disabled": 0, "rental_uris": {"ios": "https://dc.lft.to/lastmile_qr_scan", "android": "https://dc.lft.to/lastmile_qr_scan"}, "is_reserved": 0}, {"lon": -76.98455466666667, "bike_id": "72545a4be42f7cc9659c8457c3fc2154", "lat": 38.905503, "fusion_lon": 0.0, "fusion_lat": 0.0, "type": "electric_scooter", "name": "72545a4be42f7cc9659c8457c3fc2154", "is_disabled": 0, "rental_uris": {"ios": "https://dc.lft.to/lastmile_qr_scan", "android": "https://dc.lft.to/lastmile_qr_scan"}, "is_reserved": 0}, {"lon": -77.03632416666666, "bike_id": "cfeaa7e7cd7f69b9ee26a01b4f5ac4d0", "lat": 38.9176285, "fusion_lon": 0.0, "fusion_lat": 0.0, "type": "electric_scooter", "name": "cfeaa7e7cd7f69b9ee26a01b4f5ac4d0", "is_disabled": 0, "rental_uris": {"ios": "https://dc.lft.to/lastmile_qr_scan", "android": "https://dc.lft.to/lastmile_qr_scan"}, "is_reserved": 0}, {"lon": -77.032531, "bike_id": "0e013980f68d52dc34cdb36412e4247f", "lat": 38.92874483333333, "fusion_lon": 0.0, "fusion_lat": 0.0, "type": "electric_scooter", "name": "0e013980f68d52dc34cdb36412e4247f", "is_disabled": 0, "rental_uris": {"ios": "https://dc.lft.to/lastmile_qr_scan", "android": "https://dc.lft.to/lastmile_qr_scan"}, "is_reserved": 0}, {"lon": -77.0006455, "bike_id": "6dae87ffaa9747c083ffcfee24884560", "lat": 38.886757833333334, "fusion_lon": 0.0, "fusion_lat": 0.0, "type": "electric_scooter", "name": "6dae87ffaa9747c083ffcfee24884560", "is_disabled": 0, "rental_uris": {"ios": "https://dc.lft.to/lastmile_qr_scan", "android": "https://dc.lft.to/lastmile_qr_scan"}, "is_reserved": 0}, {"lon": -76.99788933333333, "bike_id": "da2f1a5b84c1742f6dce77fcb3b617a8", "lat": 38.890967833333335, "fusion_lon": 0.0, "fusion_lat": 0.0, "type": "electric_scooter", "name": "da2f1a5b84c1742f6dce77fcb3b617a8", "is_disabled": 0, "rental_uris": {"ios": "https://dc.lft.to/lastmile_qr_scan", "android": "https://dc.lft.to/lastmile_qr_scan"}, "is_reserved": 0}, {"lon": -77.02089483333333, "bike_id": "a1e7aaeffa8904fe86e0d443141b4340", "lat": 38.911263166666664, "fusion_lon": 0.0, "fusion_lat": 0.0, "type": "electric_scooter", "name": "a1e7aaeffa8904fe86e0d443141b4340", "is_disabled": 0, "rental_uris": {"ios": "https://dc.lft.to/lastmile_qr_scan", "android": "https://dc.lft.to/lastmile_qr_scan"}, "is_reserved": 0}, {"lon": -77.02294366666666, "bike_id": "2621c84a6213a4612237758ca2cdefc3", "lat": 38.91841066666667, "fusion_lon": 0.0, "fusion_lat": 0.0, "type": "electric_scooter", "name": "2621c84a6213a4612237758ca2cdefc3", "is_disabled": 0, "rental_uris": {"ios": "https://dc.lft.to/lastmile_qr_scan", "android": "https://dc.lft.to/lastmile_qr_scan"}, "is_reserved": 0}, {"lon": -77.02444983333334, "bike_id": "67ce7fcadf9c1c1247bbfb27629d83ae", "lat": 38.90257916666667, "fusion_lon": 0.0, "fusion_lat": 0.0, "type": "electric_scooter", "name": "67ce7fcadf9c1c1247bbfb27629d83ae", "is_disabled": 0, "rental_uris": {"ios": "https://dc.lft.to/lastmile_qr_scan", "android": "https://dc.lft.to/lastmile_qr_scan"}, "is_reserved": 0}, {"lon": -76.99920166666666, "bike_id": "069a9c0d729a459a6159aaf0df749df6", "lat": 38.889723333333336, "fusion_lon": 0.0, "fusion_lat": 0.0, "type": "electric_scooter", "name": "069a9c0d729a459a6159aaf0df749df6", "is_disabled": 0, "rental_uris": {"ios": "https://dc.lft.to/lastmile_qr_scan", "android": "https://dc.lft.to/lastmile_qr_scan"}, "is_reserved": 0}, {"lon": -76.981053, "bike_id": "b87db84093edaa3ce0775adcb04b8275", "lat": 38.877277166666666, "fusion_lon": 0.0, "fusion_lat": 0.0, "type": "electric_bike", "name": "b87db84093edaa3ce0775adcb04b8275", "is_disabled": 0, "rental_uris": {"ios": "https://dc.lft.to/lastmile_qr_scan", "android": "https://dc.lft.to/lastmile_qr_scan"}, "is_reserved": 0}, {"lon": -77.0330225, "bike_id": "e7a1dcfa314bdc2c456e1e58ffcbb756", "lat": 38.930405666666665, "fusion_lon": 0.0, "fusion_lat": 0.0, "type": "electric_scooter", "name": "e7a1dcfa314bdc2c456e1e58ffcbb756", "is_disabled": 0, "rental_uris": {"ios": "https://dc.lft.to/lastmile_qr_scan", "android": "https://dc.lft.to/lastmile_qr_scan"}, "is_reserved": 0}, {"lon": -77.03662983333334, "bike_id": "8f27497da17c878a448ff0d86ae93726", "lat": 38.933392833333336, "fusion_lon": 0.0, "fusion_lat": 0.0, "type": "electric_scooter", "name": "8f27497da17c878a448ff0d86ae93726", "is_disabled": 0, "rental_uris": {"ios": "https://dc.lft.to/lastmile_qr_scan", "android": "https://dc.lft.to/lastmile_qr_scan"}, "is_reserved": 0}, {"lon": -77.03318516666667, "bike_id": "1d80b4369d83847cd44e35e883cb9098", "lat": 38.92648633333334, "fusion_lon": 0.0, "fusion_lat": 0.0, "type": "electric_scooter", "name": "1d80b4369d83847cd44e35e883cb9098", "is_disabled": 0, "rental_uris": {"ios": "https://dc.lft.to/lastmile_qr_scan", "android": "https://dc.lft.to/lastmile_qr_scan"}, "is_reserved": 0}, {"lon": -77.03230383333333, "bike_id": "177d3687941ff0da7242b00a864a8615", "lat": 38.92985133333333, "fusion_lon": 0.0, "fusion_lat": 0.0, "type": "electric_scooter", "name": "177d3687941ff0da7242b00a864a8615", "is_disabled": 0, "rental_uris": {"ios": "https://dc.lft.to/lastmile_qr_scan", "android": "https://dc.lft.to/lastmile_qr_scan"},