{"data": {"bikes": [{"name": "adddf29055576a7b94c2c53096981098", "fusion_lat": 0.0, "fusion_lon": 0.0, "bike_id": "adddf29055576a7b94c2c53096981098", "rental_uris": {"ios": "https://dc.lft.to/lastmile_qr_scan", "android": "https://dc.lft.to/lastmile_qr_scan"}, "type": "electric_scooter", "lat": 38.88442216666667, "is_disabled": 0, "lon": -76.954053, "is_reserved": 0}, {"name": "9b68911bc459783571cd0874f4d14c4d", "fusion_lat": 0.0, "fusion_lon": 0.0, "bike_id": "9b68911bc459783571cd0874f4d14c4d", "rental_uris": {"ios": "https://dc.lft.to/lastmile_qr_scan", "android": "https://dc.lft.to/lastmile_qr_scan"}, "type": "electric_scooter", "lat": 38.8650585, "is_disabled": 0, "lon": -76.99005733333334, "is_reserved": 0}, {"name": "bf88a055b098904aff1f62568513e14f", "fusion_lat": 0.0, "fusion_lon": 0.0, "bike_id": "bf88a055b098904aff1f62568513e14f", "rental_uris": {"ios": "https://dc.lft.to/lastmile_qr_scan", "android": "https://dc.lft.to/lastmile_qr_scan"}, "type": "electric_scooter", "lat": 38.9148485, "is_disabled": 0, "lon": -77.03469416666667, "is_reserved": 0}, {"name": "81a5eef3cfba7c3f6c3ca13b87c980e2", "fusion_lat": 0.0, "fusion_lon": 0.0, "bike_id": "81a5eef3cfba7c3f6c3ca13b87c980e2", "rental_uris": {"ios": "https://dc.lft.to/lastmile_qr_scan", "android": "https://dc.lft.to/lastmile_qr_scan"}, "type": "electric_scooter", "lat": 38.866791166666665, "is_disabled": 0, "lon": -76.98889933333334, "is_reserved": 0}, {"name": "4bc9cfa65282c09b9f76489f3a85a3b8", "fusion_lat": 0.0, "fusion_lon": 0.0, "bike_id": "4bc9cfa65282c09b9f76489f3a85a3b8", "rental_uris": {"ios": "https://dc.lft.to/lastmile_qr_scan", "android": "https://dc.lft.to/lastmile_qr_scan"}, "type": "electric_bike", "lat": 39.08838333333333, "is_disabled": 0, "lon": -77.17801583333333, "is_reserved": 0}, {"name": "45b598935540e82a358e2db66b05644b", "fusion_lat": 0.0, "fusion_lon": 0.0, "bike_id": "45b598935540e82a358e2db66b05644b", "rental_uris": {"ios": "https://dc.lft.to/lastmile_qr_scan", "android": "https://dc.lft.to/lastmile_qr_scan"}, "type": "electric_scooter", "lat": 38.91338116666667, "is_disabled": 0, "lon": -77.03269, "is_reserved": 0}, {"name": "d279b2055b41c86f183a77066140ae21", "fusion_lat": 0.0, "fusion_lon": 0.0, "bike_id": "d279b2055b41c86f183a77066140ae21", "rental_uris": {"ios": "https://dc.lft.to/lastmile_qr_scan", "android": "https://dc.lft.to/lastmile_qr_scan"}, "type": "electric_scooter", "lat": 38.91807583333333, "is_disabled": 0, "lon": -77.03441033333333, "is_reserved": 0}, {"name": "7b5a64ef7ff75754d3d047cf3f357621", "fusion_lat": 0.0, "fusion_lon": 0.0, "bike_id": "7b5a64ef7ff75754d3d047cf3f357621", "rental_uris": {"ios": "https://dc.lft.to/lastmile_qr_scan", "android": "https://dc.lft.to/lastmile_qr_scan"}, "type": "electric_scooter", "lat": 38.911868, "is_disabled": 0, "lon": -77.03833266666666, "is_reserved": 0}, {"name": "1bd272af3743e52e5c490e82eda930e1", "fusion_lat": 0.0, "fusion_lon": 0.0, "bike_id": "1bd272af3743e52e5c490e82eda930e1", "rental_uris": {"ios": "https://dc.lft.to/lastmile_qr_scan", "android": "https://dc.lft.to/lastmile_qr_scan"}, "type": "electric_scooter", "lat": 38.931921, "is_disabled": 0, "lon": -77.02835083333333, "is_reserved": 0}, {"name": "a80d62b7d2fc60bf490f99e3fd5aef55", "fusion_lat": 0.0, "fusion_lon": 0.0, "bike_id": "a80d62b7d2fc60bf490f99e3fd5aef55", "rental_uris": {"ios": "https://dc.lft.to/lastmile_qr_scan", "android": "https://dc.lft.to/lastmile_qr_scan"}, "type": "electric_scooter", "lat": 38.89836716666667, "is_disabled": 0, "lon": -77.04344466666667, "is_reserved": 0}, {"name": "e0dfe6afbc6cc81882a6b0547202ab2e", "fusion_lat": 0.0, "fusion_lon": 0.0, "bike_id": "e0dfe6afbc6cc81882a6b0547202ab2e", "rental_uris": {"ios": "https://dc.lft.to/lastmile_qr_scan", "android": "https://dc.lft.to/lastmile_qr_scan"}, "type": "electric_scooter", "lat": 38.910461, "is_disabled": 0, "lon": -77.01515133333334, "is_reserved": 0}, {"name": "68d30890a0211b207d4567a3558cca8e", "fusion_lat": 0.0, "fusion_lon": 0.0, "bike_id": "68d30890a0211b207d4567a3558cca8e", "rental_uris": {"ios": "https://dc.lft.to/lastmile_qr_scan", "android": "https://dc.lft.to/lastmile_qr_scan"}, "type": "electric_scooter", "lat": 38.89785883333333, "is_disabled": 0, "lon": -77.051201, "is_reserved": 0}, {"name": "c7f43a681c89e71a10d8106afd71d26c", "fusion_lat": 0.0, "fusion_lon": 0.0, "bike_id": "c7f43a681c89e71a10d8106afd71d26c", "rental_uris": {"ios": "https://dc.lft.to/lastmile_qr_scan", "android": "https://dc.lft.to/lastmile_qr_scan"}, "type": "electric_scooter", "lat": 38.927389833333336, "is_disabled": 0, "lon": -77.0329695, "is_reserved": 0}, {"name": "5f71efb946045196e740c4e51097d707", "fusion_lat": 0.0, "fusion_lon": 0.0, "bike_id": "5f71efb946045196e740c4e51097d707", "rental_uris": {"ios": "https://dc.lft.to/lastmile_qr_scan", "android": "https://dc.lft.to/lastmile_qr_scan"}, "type": "electric_scooter", "lat": 38.866781333333336, "is_disabled": 0, "lon": -76.98898016666666, "is_reserved": 0}, {"name": "57152f8ff8e2f44c48c863e05f3d545f", "fusion_lat": 0.0, "fusion_lon": 0.0, "bike_id": "57152f8ff8e2f44c48c863e05f3d545f", "rental_uris": {"ios": "https://dc.lft.to/lastmile_qr_scan", "android": "https://dc.lft.to/lastmile_qr_scan"}, "type": "electric_scooter", "lat": 38.868082666666666, "is_disabled": 0, "lon": -77.011825, "is_reserved": 0}, {"name": "21fbd8131a8c66686f9b3ee4943bea76", "fusion_lat": 0.0, "fusion_lon": 0.0, "bike_id": "21fbd8131a8c66686f9b3ee4943bea76", "rental_uris": {"ios": "https://dc.lft.to/lastmile_qr_scan", "android": "https://dc.lft.to/lastmile_qr_scan"}, "type": "electric_scooter", "lat": 38.95009366666667, "is_disabled": 0, "lon": -77.01930483333334, "is_reserved": 0}, {"name": "df6acee2c84e4d5bb3f26805f3d1d7a3", "fusion_lat": 0.0, "fusion_lon": 0.0, "bike_id": "df6acee2c84e4d5bb3f26805f3d1d7a3", "rental_uris": {"ios": "https://dc.lft.to/lastmile_qr_scan", "android": "https://dc.lft.to/lastmile_qr_scan"}, "type": "electric_bike", "lat": 39.05455766666667, "is_disabled": 0, "lon": -77.1431275, "is_reserved": 0}, {"name": "6f02c337f9b3c8c3c6da29d8a7cf3d16", "fusion_lat": 0.0, "fusion_lon": 0.0, "bike_id": "6f02c337f9b3c8c3c6da29d8a7cf3d16", "rental_uris": {"ios": "https://dc.lft.to/lastmile_qr_scan", "android": "https://dc.lft.to/lastmile_qr_scan"}, "type": "electric_bike", "lat": 38.94595416666667, "is_disabled": 0, "lon": -77.34403883333333, "is_reserved": 0}, {"name": "55a920119028cf38f623715c79f65343", "fusion_lat": 0.0, "fusion_lon": 0.0, "bike_id": "55a920119028cf38f623715c79f65343", "rental_uris": {"ios": "https://dc.lft.to/lastmile_qr_scan", "android": "https://dc.lft.to/lastmile_qr_scan"}, "type": "electric_scooter", "lat": 38.930201, "is_disabled": 0, "lon": -77.0618755, "is_reserved": 0}, {"name": "f1adcdea72efc967bc77dc632b4f23d7", "fusion_lat": 0.0, "fusion_lon": 0.0, "bike_id": "f1adcdea72efc967bc77dc632b4f23d7", "rental_uris": {"ios": "https://dc.lft.to/lastmile_qr_scan", "android": "https://dc.lft.to/lastmile_qr_scan"}, "type": "electric_scooter", "lat": 38.893917333333334, "is_disabled": 0, "lon": -76.94996383333333, "is_reserved": 0}, {"name": "57d2ea23fa5373ecb3d1fa445bf46c84", "fusion_lat": 0.0, "fusion_lon": 0.0, "bike_id": "57d2ea23fa5373ecb3d1fa445bf46c84", "rental_uris": {"ios": "https://dc.lft.to/lastmile_qr_scan", "android": "https://dc.lft.to/lastmile_qr_scan"}, "type": "electric_scooter", "lat": 38.917131499999996, "is_disabled": 0, "lon": -77.03476033333334, "is_reserved": 0}, {"name": "2656dd6d4b03b38eee474b48cb48869b", "fusion_lat": 0.0, "fusion_lon": 0.0, "bike_id": "2656dd6d4b03b38eee474b48cb48869b", "rental_uris": {"ios": "https://dc.lft.to/lastmile_qr_scan", "android": "https://dc.lft.to/lastmile_qr_scan"}, "type": "electric_scooter", "lat": 38.83813583333333, "is_disabled": 0, "lon": -77.00431283333333, "is_reserved": 0}, {"name": "b03323aff9faf2a63b2c97204c80a0e7", "fusion_lat": 0.0, "fusion_lon": 0.0, "bike_id": "b03323aff9faf2a63b2c97204c80a0e7", "rental_uris": {"ios": "https://dc.lft.to/lastmile_qr_scan", "android": "https://dc.lft.to/lastmile_qr_scan"}, "type": "electric_scooter", "lat": 38.921053, "is_disabled": 0, "lon": -77.01810966666666, "is_reserved": 0}, {"name": "ddc9fe3d7397597e891372e824df8be5", "fusion_lat": 0.0, "fusion_lon": 0.0, "bike_id": "ddc9fe3d7397597e891372e824df8be5", "rental_uris": {"ios": "https://dc.lft.to/lastmile_qr_scan", "android": "https://dc.lft.to/lastmile_qr_scan"}, "type": "electric_scooter", "lat": 38.91013266666667, "is_disabled": 0, "lon": -76.98490616666666, "is_reserved": 0}, {"name": "fcbbf667396e9bc5e825deadfafa788d", "fusion_lat": 0.0, "fusion_lon": 0.0, "bike_id": "fcbbf667396e9bc5e825deadfafa788d", "rental_uris": {"ios": "https://dc.lft.to/lastmile_qr_scan", "android": "https://dc.lft.to/lastmile_qr_scan"}, "type": "electric_scooter", "lat": 38.89410983333333, "is_disabled": 0, "lon": -76.91231366666666, "is_reserved": 0}, {"name": "b5236b7fb82036f451c50dbfdd0f9331", "fusion_lat": 0.0, "fusion_lon": 0.0, "bike_id": "b5236b7fb82036f451c50dbfdd0f9331", "rental_uris": {"ios": "https://dc.lft.to/lastmile_qr_scan", "android": "https://dc.lft.to/lastmile_qr_scan"}, "type": "electric_scooter", "lat": 38.91232266666667, "is_disabled": 0, "lon": -77.03200116666666, "is_reserved": 0}, {"name": "f9a07e31ff5e581ac663fd953530a495", "fusion_lat": 0.0, "fusion_lon": 0.0, "bike_id": "f9a07e31ff5e581ac663fd953530a495", "rental_uris": {"ios": "https://dc.lft.to/lastmile_qr_scan", "android": "https://dc.lft.to/lastmile_qr_scan"}, "type": "electric_scooter", "lat": 38.90826883333333, "is_disabled": 0, "lon": -76.98810433333334, "is_reserved": 0}, {"name": "fa815f20cfbb2c157618a5a592416289", "fusion_lat": 0.0, "fusion_lon": 0.0, "bike_id": "fa815f20cfbb2c157618a5a592416289", "rental_uris": {"ios": "https://dc.lft.to/lastmile_qr_scan", "android": "https://dc.lft.to/lastmile_qr_scan"}, "type": "electric_scooter", "lat": 38.9368795, "is_disabled": 0, "lon": -77.03573716666666, "is_reserved": 0}, {"name": "6d466ac27c5338f0295bd2bf40b7bc8d", "fusion_lat": 0.0, "fusion_lon": 0.0, "bike_id": "6d466ac27c5338f0295bd2bf40b7bc8d", "rental_uris": {"ios": "https://dc.lft.to/lastmile_qr_scan", "android": "https://dc.lft.to/lastmile_qr_scan"}, "type": "electric_scooter", "lat": 38.937135, "is_disabled": 0, "lon": -77.061064, "is_reserved": 0}, {"name": "c783c7a9f26ec8a2abc6ea1c48d26385", "fusion_lat": 0.0, "fusion_lon": 0.0, "bike_id": "c783c7a9f26ec8a2abc6ea1c48d26385", "rental_uris": {"ios": "https://dc.lft.to/lastmile_qr_scan", "android": "https://dc.lft.to/lastmile_qr_scan"}, "type": "electric_scooter", "lat": 38.93711483333333, "is_disabled": 0, "lon": -77.02388066666667, "is_reserved": 0}, {"name": "bd347c2962e808702868a073094ff21b", "fusion_lat": 0.0, "fusion_lon": 0.0, "bike_id": "bd347c2962e808702868a073094ff21b", "rental_uris": {"ios": "https://dc.lft.to/lastmile_qr_scan", "android": "https://dc.lft.to/lastmile_qr_scan"}, "type": "electric_scooter", "lat": 38.900107166666665, "is_disabled": 0, "lon": -77.039249, "is_reserved": 0}, {"name": "95f50d25b47422a732936a4c75537ea9", "fusion_lat": 0.0, "fusion_lon": 0.0, "bike_id": "95f50d25b47422a732936a4c75537ea9", "rental_uris": {"ios": "https://dc.lft.to/lastmile_qr_scan", "android": "https://dc.lft.to/lastmile_qr_scan"}, "type": "electric_scooter", "lat": 38.9217265, "is_disabled": 0, "lon": -77.04149533333333, "is_reserved": 0}, {"name": "c49eae10c6107cc222299a5455c5f97f", "fusion_lat": 0.0, "fusion_lon": 0.0, "bike_id": "c49eae10c6107cc222299a5455c5f97f", "rental_uris": {"ios": "https://dc.lft.to/lastmile_qr_scan", "android": "https://dc.lft.to/lastmile_qr_scan"}, "type": "electric_scooter", "lat": 38.916997, "is_disabled": 0, "lon": -77.04008683333333, "is_reserved": 0}, {"name": "d83ca0f20cc2a91fd2031d9110db0df1", "fusion_lat": 0.0, "fusion_lon": 0.0, "bike_id": "d83ca0f20cc2a91fd2031d9110db0df1", "rental_uris": {"ios": "https://dc.lft.to/lastmile_qr_scan", "android": "https://dc.lft.to/lastmile_qr_scan"}, "type": "electric_scooter", "lat": 38.932447333333336, "is_disabled": 0, "lon": -77.03414583333333, "is_reserved": 0}, {"name": "6c44c6df3202f4bfdaf8a5ec5363c424", "fusion_lat": 0.0, "fusion_lon": 0.0, "bike_id": "6c44c6df3202f4bfdaf8a5ec5363c424", "rental_uris": {"ios": "https://dc.lft.to/lastmile_qr_scan", "android": "https://dc.lft.to/lastmile_qr_scan"}, "type": "electric_scooter", "lat": 38.90528466666667, "is_disabled": 0, "lon": -77.05973183333333, "is_reserved": 0}, {"name": "e5a6fd67541be50707b97b1762260033", "fusion_lat": 0.0, "fusion_lon": 0.0, "bike_id": "e5a6fd67541be50707b97b1762260033", "rental_uris": {"ios": "https://dc.lft.to/lastmile_qr_scan", "android": "https://dc.lft.to/lastmile_qr_scan"}, "type": "electric_scooter", "lat": 38.905151333333336, "is_disabled": 0, "lon": -77.066042, "is_reserved": 0}, {"name": "0b708a51b159340de5d2abeb0c04b81a", "fusion_lat": 0.0, "fusion_lon": 0.0, "bike_id": "0b708a51b159340de5d2abeb0c04b81a", "rental_uris": {"ios": "https://dc.lft.to/lastmile_qr_scan", "android": "https://dc.lft.to/lastmile_qr_scan"}, "type": "electric_scooter", "lat": 38.91940616666667, "is_disabled": 0, "lon": -77.0454965, "is_reserved": 0}, {"name": "d8c03ac787c4d86b8e33ef8a831b1c2b", "fusion_lat": 0.0, "fusion_lon": 0.0, "bike_id": "d8c03ac787c4d86b8e33ef8a831b1c2b", "rental_uris": {"ios": "https://dc.lft.to/lastmile_qr_scan", "android": "https://dc.lft.to/lastmile_qr_scan"}, "type": "electric_scooter", "lat": 38.911083833333336, "is_disabled": 0, "lon": -77.04308683333333, "is_reserved": 0}, {"name": "2871f2b681fc7cffac098a7e4e68e6ee", "fusion_lat": 0.0, "fusion_lon": 0.0, "bike_id": "2871f2b681fc7cffac098a7e4e68e6ee", "rental_uris": {"ios": "https://dc.lft.to/lastmile_qr_scan", "android": "https://dc.lft.to/lastmile_qr_scan"}, "type": "electric_scooter", "lat": 38.887519833333336, "is_disabled": 0, "lon": -77.02125166666667, "is_reserved": 0}, {"name": "994fa9b2e994e8c2bfb534d0bb3c4a5c", "fusion_lat": 0.0, "fusion_lon": 0.0, "bike_id": "994fa9b2e994e8c2bfb534d0bb3c4a5c", "rental_uris": {"ios": "https://dc.lft.to/lastmile_qr_scan", "android": "https://dc.lft.to/lastmile_qr_scan"}, "type": "electric_scooter", "lat": 38.90793083333333, "is_disabled": 0, "lon": -77.0297285, "is_reserved": 0}, {"name": "fdc9b1eabf495d3903a3a6d4c56f148b", "fusion_lat": 0.0, "fusion_lon": 0.0, "bike_id": "fdc9b1eabf495d3903a3a6d4c56f148b", "rental_uris": {"ios": "https://dc.lft.to/lastmile_qr_scan", "android": "https://dc.lft.to/lastmile_qr_scan"}, "type": "electric_scooter", "lat": 38.876304, "is_disabled": 0, "lon": -77.012567, "is_reserved": 0}, {"name": "726241a535877438124a48aed093b02b", "fusion_lat": 0.0, "fusion_lon": 0.0, "bike_id": "726241a535877438124a48aed093b02b", "rental_uris": {"ios": "https://dc.lft.to/lastmile_qr_scan", "android": "https://dc.lft.to/lastmile_qr_scan"}, "type": "electric_scooter", "lat": 38.90977816666667, "is_disabled": 0, "lon": -77.03725183333333, "is_reserved": 0}, {"name": "a92aed38a5a346922b19329683a05332", "fusion_lat": 0.0, "fusion_lon": 0.0, "bike_id": "a92aed38a5a346922b19329683a05332", "rental_uris": {"ios": "https://dc.lft.to/lastmile_qr_scan", "android": "https://dc.lft.to/lastmile_qr_scan"}, "type": "electric_scooter", "lat": 38.92969, "is_disabled": 0, "lon": -77.02818433333333, "is_reserved": 0}, {"name": "0d494dcbfdaceb63284916a966b8433f", "fusion_lat": 0.0, "fusion_lon": 0.0, "bike_id": "0d494dcbfdaceb63284916a966b8433f", "rental_uris": {"ios": "https://dc.lft.to/lastmile_qr_scan", "android": "https://dc.lft.to/lastmile_qr_scan"}, "type": "electric_scooter", "lat": 38.93876783333333, "is_disabled": 0, "lon": -77.0292015, "is_reserved": 0}, {"name": "2f6c1a7edf3b44c06a908a3d15367225", "fusion_lat": 0.0, "fusion_lon": 0.0, "bike_id": "2f6c1a7edf3b44c06a908a3d15367225", "rental_uris": {"ios": "https://dc.lft.to/lastmile_qr_scan", "android": "https://dc.lft.to/lastmile_qr_scan"}, "type": "electric_bike", "lat": 38.94624366666667, "is_disabled": 0, "lon": -76.934134, "is_reserved": 0}, {"name": "490a8e6d21ed00cea2a5c548f2953207", "fusion_lat": 0.0, "fusion_lon": 0.0, "bike_id": "490a8e6d21ed00cea2a5c548f2953207", "rental_uris": {"ios": "https://dc.lft.to/lastmile_qr_scan", "android": "https://dc.lft.to/lastmile_qr_scan"}, "type": "electric_scooter", "lat": 38.87631283333333, "is_disabled": 0, "lon": -77.0082015, "is_reserved": 0}, {"name": "e563d48c0cb35838540f473808b70ae3", "fusion_lat": 0.0, "fusion_lon": 0.0, "bike_id": "e563d48c0cb35838540f473808b70ae3", "rental_uris": {"ios": "https://dc.lft.to/lastmile_qr_scan", "android": "https://dc.lft.to/lastmile_qr_scan"}, "type": "electric_scooter", "lat": 38.88982883333333, "is_disabled": 0, "lon": -77.0033795, "is_reserved": 0}, {"name": "8a7d27e2224c196061d86c3f5ecd2a23", "fusion_lat": 0.0, "fusion_lon": 0.0, "bike_id": "8a7d27e2224c196061d86c3f5ecd2a23", "rental_uris": {"ios": "https://dc.lft.to/lastmile_qr_scan", "android": "https://dc.lft.to/lastmile_qr_scan"}, "type": "electric_scooter", "lat": 38.88526483333333, "is_disabled": 0, "lon": -77.02086066666666, "is_reserved": 0}, {"name": "ace82422d61b265209ffd733ecf86a0b", "fusion_lat": 0.0, "fusion_lon": 0.0, "bike_id": "ace82422d61b265209ffd733ecf86a0b", "rental_uris": {"ios": "https://dc.lft.to/lastmile_qr_scan", "android": "https://dc.lft.to/lastmile_qr_scan"}, "type": "electric_scooter", "lat": 38.89840066666667, "is_disabled": 0, "lon": -77.03174783333333, "is_reserved": 0}, {"name": "704209cfcaf059886e4a7967f42b38fb", "fusion_lat": 0.0, "fusion_lon": 0.0, "bike_id": "704209cfcaf059886e4a7967f42b38fb", "rental_uris": {"ios": "https://dc.lft.to/lastmile_qr_scan", "android": "https://dc.lft.to/lastmile_qr_scan"}, "type": "electric_scooter", "lat": 38.885859833333335, "is_disabled": 0, "lon": -77.0122725, "is_reserved": 0}, {"name": "2c45faa2ea41c55957c8fb2b1bfd9a81", "fusion_lat": 0.0, "fusion_lon": 0.0, "bike_id": "2c45faa2ea41c55957c8fb2b1bfd9a81", "rental_uris": {"ios": "https://dc.lft.to/lastmile_qr_scan", "android": "https://dc.lft.to/lastmile_qr_scan"}, "type": "electric_scooter", "lat": 38.864682, "is_disabled": 0, "lon": -76.996084, "is_reserved": 0}, {"name": "9b999cb7310b7d50284f628aa0464d32", "fusion_lat": 0.0, "fusion_lon": 0.0, "bike_id": "9b999cb7310b7d50284f628aa0464d32", "rental_uris": {"ios": "https://dc.lft.to/lastmile_qr_scan", "android": "https://dc.lft.to/lastmile_qr_scan"}, "type": "electric_scooter", "lat": 38.896099666666665, "is_disabled": 0, "lon": -77.02672216666667, "is_reserved": 0}, {"name": "74b18f8d2217340755569f3b7eaa1be1", "fusion_lat": 0.0, "fusion_lon": 0.0, "bike_id": "74b18f8d2217340755569f3b7eaa1be1", "rental_uris": {"ios": "https://dc.lft.to/lastmile_qr_scan", "android": "https://dc.lft.to/lastmile_qr_scan"}, "type": "electric_scooter", "lat": 38.896821333333335, "is_disabled": 0, "lon": -77.00631583333333, "is_reserved": 0}, {"name": "0b2865a95e63812c44b811aa768805f7", "fusion_lat": 0.0, "fusion_lon": 0.0, "bike_id": "0b2865a95e63812c44b811aa768805f7", "rental_uris": {"ios": "https://dc.lft.to/lastmile_qr_scan", "android": "https://dc.lft.to/lastmile_qr_scan"}, "type": "electric_scooter", "lat": 38.93904066666666, "is_disabled": 0, "lon": -77.070793, "is_reserved": 0}, {"name": "c4b01ede85d3769914a709cc0a033270", "fusion_lat": 0.0, "fusion_lon": 0.0, "bike_id": "c4b01ede85d3769914a709cc0a033270", "rental_uris": {"ios": "https://dc.lft.to/lastmile_qr_scan", "android": "https://dc.lft.to/lastmile_qr_scan"}, "type": "electric_scooter", "lat": 38.91010516666667, "is_disabled": 0, "lon": -77.03182583333333, "is_reserved": 0}, {"name": "8cf7cb5634520b928fe1341a9bccfe52", "fusion_lat": 0.0, "fusion_lon": 0.0, "bike_id": "8cf7cb5634520b928fe1341a9bccfe52", "rental_uris": {"ios": "https://dc.lft.to/lastmile_qr_scan", "android": "https://dc.lft.to/lastmile_qr_scan"}, "type": "electric_scooter", "lat": 38.8719225, "is_disabled": 0, "lon": -77.00610733333333, "is_reserved": 0}, {"name": "98e0c9e3d8d727404273dd719f1a337c", "fusion_lat": 0.0, "fusion_lon": 0.0, "bike_id": "98e0c9e3d8d727404273dd719f1a337c", "rental_uris": {"ios": "https://dc.lft.to/lastmile_qr_scan", "android": "https://dc.lft.to/lastmile_qr_scan"}, "type": "electric_scooter", "lat": 38.918166666666664, "is_disabled": 0, "lon": -77.03215, "is_reserved": 0}, {"name": "936dceaa8c0b561dc3df5297d01f455f", "fusion_lat": 0.0, "fusion_lon": 0.0, "bike_id": "936dceaa8c0b561dc3df5297d01f455f", "rental_uris": {"ios": "https://dc.lft.to/lastmile_qr_scan", "android": "https://dc.lft.to/lastmile_qr_scan"}, "type": "electric_bike", "lat": 38.87495416666667, "is_disabled": 0, "lon": -77.04901766666667, "is_reserved": 0}, {"name": "5324ff363f3d3e7f9ffd444a6a46e56c", "fusion_lat": 0.0, "fusion_lon": 0.0, "bike_id": "5324ff363f3d3e7f9ffd444a6a46e56c", "rental_uris": {"ios": "https://dc.lft.to/lastmile_qr_scan", "android": "https://dc.lft.to/lastmile_qr_scan"}, "type": "electric_bike", "lat": 38.9516305, "is_disabled": 0, "lon": -77.012881, "is_reserved": 0}, {"name": "a64fb5d02a5f38469fd2ea3302301b63", "fusion_lat": 0.0, "fusion_lon": 0.0, "bike_id": "a64fb5d02a5f38469fd2ea3302301b63", "rental_uris": {"ios": "https://dc.lft.to/lastmile_qr_scan", "android": "https://dc.lft.to/lastmile_qr_scan"}, "type": "electric_scooter", "lat": 38.92979316666667, "is_disabled": 0, "lon": -77.05501666666666, "is_reserved": 0}, {"name": "abfe9e9db38b3dad4e425822829af6c1", "fusion_lat": 0.0, "fusion_lon": 0.0, "bike_id": "abfe9e9db38b3dad4e425822829af6c1", "rental_uris": {"ios": "https://dc.lft.to/lastmile_qr_scan", "android": "https://dc.lft.to/lastmile_qr_scan"}, "type": "electric_scooter", "lat": 38.9045265, "is_disabled": 0, "lon": -77.02823866666667, "is_reserved": 0}, {"name": "58b380690977402f6387846dd00a9a73", "fusion_lat": 0.0, "fusion_lon": 0.0, "bike_id": "58b380690977402f6387846dd00a9a73", "rental_uris": {"ios": "https://dc.lft.to/lastmile_qr_scan", "android": "https://dc.lft.to/lastmile_qr_scan"}, "type": "electric_scooter", "lat": 38.914882, "is_disabled": 0, "lon": -77.0383025, "is_reserved": 0}, {"name": "d542ccea59b1d16b6eede29769439d10", "fusion_lat": 0.0, "fusion_lon": 0.0, "bike_id": "d542ccea59b1d16b6eede29769439d10", "rental_uris": {"ios": "https://dc.lft.to/lastmile_qr_scan", "android": "https://dc.lft.to/lastmile_qr_scan"}, "type": "electric_scooter", "lat": 38.92607916666667, "is_disabled": 0, "lon": -77.021551, "is_reserved": 0}, {"name": "2256aefae750c249f563d48ce96080e3", "fusion_lat": 0.0, "fusion_lon": 0.0, "bike_id": "2256aefae750c249f563d48ce96080e3", "rental_uris": {"ios": "https://dc.lft.to/lastmile_qr_scan", "android": "https://dc.lft.to/lastmile_qr_scan"}, "type": "electric_scooter", "lat": 38.8805005, "is_disabled": 0, "lon": -77.0052725, "is_reserved": 0}, {"name": "311185e3462a1c0a5795049d9284cb0a", "fusion_lat": 0.0, "fusion_lon": 0.0, "bike_id": "311185e3462a1c0a5795049d9284cb0a", "rental_uris": {"ios": "https://dc.lft.to/lastmile_qr_scan", "android": "https://dc.lft.to/lastmile_qr_scan"}, "type": "electric_scooter", "lat": 38.962126, "is_disabled": 0, "lon": -77.02800333333333, "is_reserved": 0}, {"name": "d33af8e42ce36818eea79df173b27cca", "fusion_lat": 0.0, "fusion_lon": 0.0, "bike_id": "d33af8e42ce36818eea79df173b27cca", "rental_uris": {"ios": "https://dc.lft.to/lastmile_qr_scan", "android": "https://dc.lft.to/lastmile_qr_scan"}, "type": "electric_bike", "lat": 38.99060433333333, "is_disabled": 0, "lon": -77.10027233333334, "is_reserved": 0}, {"name": "669dcac19b7c5fdc73639694aa554eac", "fusion_lat": 0.0, "fusion_lon": 0.0, "bike_id": "669dcac19b7c5fdc73639694aa554eac", "rental_uris": {"ios": "https://dc.lft.to/lastmile_qr_scan", "android": "https://dc.lft.to/lastmile_qr_scan"}, "type": "electric_scooter", "lat": 38.87654966666667, "is_disabled": 0, "lon": -77.01079833333333, "is_reserved": 0}, {"name": "c5006ec6d17a66840c0dee4c64fb439f", "fusion_lat": 0.0, "fusion_lon": 0.0, "bike_id": "c5006ec6d17a66840c0dee4c64fb439f", "rental_uris": {"ios": "https://dc.lft.to/lastmile_qr_scan", "android": "https://dc.lft.to/lastmile_qr_scan"}, "type": "electric_scooter", "lat": 38.90254083333333, "is_disabled": 0, "lon": -76.9462585, "is_reserved": 0}, {"name": "ea4e4aa2cbf44741529d66c5ecc899a8", "fusion_lat": 0.0, "fusion_lon": 0.0, "bike_id": "ea4e4aa2cbf44741529d66c5ecc899a8", "rental_uris": {"ios": "https://dc.lft.to/lastmile_qr_scan", "android": "https://dc.lft.to/lastmile_qr_scan"}, "type": "electric_scooter", "lat": 38.90363083333333, "is_disabled": 0, "lon": -77.03934583333333, "is_reserved": 0}, {"name": "51bb719e2bb79dcfba6c74958b2791f6", "fusion_lat": 0.0, "fusion_lon": 0.0, "bike_id": "51bb719e2bb79dcfba6c74958b2791f6", "rental_uris": {"ios": "https://dc.lft.to/lastmile_qr_scan", "android": "https://dc.lft.to/lastmile_qr_scan"}, "type": "electric_bike", "lat": 38.9909135, "is_disabled": 0, "lon": -76.87494916666667, "is_reserved": 0}, {"name": "c965e7b786b027b921a21cdb4a6a3f31", "fusion_lat": 0.0, "fusion_lon": 0.0, "bike_id": "c965e7b786b027b921a21cdb4a6a3f31", "rental_uris": {"ios": "https://dc.lft.to/lastmile_qr_scan", "android": "https://dc.lft.to/lastmile_qr_scan"}, "type": "electric_scooter", "lat": 38.918098, "is_disabled": 0, "lon": -77.032149, "is_reserved": 0}, {"name": "e1c21fcd81a4a1716b31f04f2046a023", "fusion_lat": 0.0, "fusion_lon": 0.0, "bike_id": "e1c21fcd81a4a1716b31f04f2046a023", "rental_uris": {"ios": "https://dc.lft.to/lastmile_qr_scan", "android": "https://dc.lft.to/lastmile_qr_scan"}, "type": "electric_scooter", "lat": 38.90410683333333, "is_disabled": 0, "lon": -77.02511616666666, "is_reserved": 0}, {"name": "c39c17547129391a2a2136cec43bc10f", "fusion_lat": 0.0, "fusion_lon": 0.0, "bike_id": "c39c17547129391a2a2136cec43bc10f", "rental_uris": {"ios": "https://dc.lft.to/lastmile_qr_scan", "android": "https://dc.lft.to/lastmile_qr_scan"}, "type": "electric_scooter", "lat": 38.8762255, "is_disabled": 0, "lon": -77.00932166666666, "is_reserved": 0}, {"name": "13482d0dda2b143d659ce937a837cf8d", "fusion_lat": 0.0, "fusion_lon": 0.0, "bike_id": "13482d0dda2b143d659ce937a837cf8d", "rental_uris": {"ios": "https://dc.lft.to/lastmile_qr_scan", "android": "https://dc.lft.to/lastmile_qr_scan"}, "type": "electric_scooter", "lat": 38.9213385, "is_disabled": 0, "lon": -77.03514566666666, "is_reserved": 0}, {"name": "658ef874d42e2f5b8b7fb257c09957dd", "fusion_lat": 0.0, "fusion_lon": 0.0, "bike_id": "658ef874d42e2f5b8b7fb257c09957dd", "rental_uris": {"ios": "https://dc.lft.to/lastmile_qr_scan", "android": "https://dc.lft.to/lastmile_qr_scan"}, "type": "electric_scooter", "lat": 38.92156583333333, "is_disabled": 0, "lon": -77.03870516666667, "is_reserved": 0}, {"name": "0747ee5d4346c5a4c53739f3899381d3", "fusion_lat": 0.0, "fusion_lon": 0.0, "bike_id": "0747ee5d4346c5a4c53739f3899381d3", "rental_uris": {"ios": "https://dc.lft.to/lastmile_qr_scan", "android": "https://dc.lft.to/lastmile_qr_scan"}, "type": "electric_scooter", "lat": 38.928210166666666, "is_disabled": 0, "lon": -77.0140065, "is_reserved": 0}, {"name": "88635212c054d7dbb1388a781b4f4d97", "fusion_lat": 0.0, "fusion_lon": 0.0, "bike_id": "88635212c054d7dbb1388a781b4f4d97", "rental_uris": {"ios": "https://dc.lft.to/lastmile_qr_scan", "android": "https://dc.lft.to/lastmile_qr_scan"}, "type": "electric_scooter", "lat": 38.901603333333334, "is_disabled": 0, "lon": -77.04155933333334, "is_reserved": 0}, {"name": "8db9da45d937e7501ae0b5b9039c23c8", "fusion_lat": 0.0, "fusion_lon": 0.0, "bike_id": "8db9da45d937e7501ae0b5b9039c23c8", "rental_uris": {"ios": "https://dc.lft.to/lastmile_qr_scan", "android": "https://dc.lft.to/lastmile_qr_scan"}, "type": "electric_scooter", "lat": 38.89541366666667, "is_disabled": 0, "lon": -77.01623566666666, "is_reserved": 0}, {"name": "d25a7e37ee7e6c36048efeff07a409bd", "fusion_lat": 0.0, "fusion_lon": 0.0, "bike_id": "d25a7e37ee7e6c36048efeff07a409bd", "rental_uris": {"ios": "https://dc.lft.to/lastmile_qr_scan", "android": "https://dc.lft.to/lastmile_qr_scan"}, "type": "electric_scooter", "lat": 38.898327, "is_disabled": 0, "lon": -76.9463305, "is_reserved": 0}, {"name": "61e692be111d53cdb838c6463a57f6e6", "fusion_lat": 0.0, "fusion_lon": 0.0, "bike_id": "61e692be111d53cdb838c6463a57f6e6", "rental_uris": {"ios": "https://dc.lft.to/lastmile_qr_scan", "android": "https://dc.lft.to/lastmile_qr_scan"}, "type": "electric_scooter", "lat": 38.911053333333335, "is_disabled": 0, "lon": -77.0316815, "is_reserved": 0}, {"name": "b9c9c6657794782ded91fa00b091ed98", "fusion_lat": 0.0, "fusion_lon": 0.0, "bike_id": "b9c9c6657794782ded91fa00b091ed98", "rental_uris": {"ios": "https://dc.lft.to/lastmile_qr_scan", "android": "https://dc.lft.to/lastmile_qr_scan"}, "type": "electric_scooter", "lat": 38.924853666666664, "is_disabled": 0, "lon": -77.039441, "is_reserved": 0}, {"name": "962835c44e39b067ae55e458afd7910a", "fusion_lat": 0.0, "fusion_lon": 0.0, "bike_id": "962835c44e39b067ae55e458afd7910a", "rental_uris": {"ios": "https://dc.lft.to/lastmile_qr_scan", "android": "https://dc.lft.to/lastmile_qr_scan"}, "type": "electric_scooter", "lat": 38.9132455, "is_disabled": 0, "lon": -77.062513, "is_reserved": 0}, {"name": "c4092927f0481e780eadc3349e969190", "fusion_lat": 0.0, "fusion_lon": 0.0, "bike_id": "c4092927f0481e780eadc3349e969190", "rental_uris": {"ios": "https://dc.lft.to/lastmile_qr_scan", "android": "https://dc.lft.to/lastmile_qr_scan"}, "type": "electric_bike", "lat": 38.915867666666664, "is_disabled": 0, "lon": -76.97149266666666, "is_reserved": 0}, {"name": "5ff7d989c5499af3834026d1b8576925", "fusion_lat": 0.0, "fusion_lon": 0.0, "bike_id": "5ff7d989c5499af3834026d1b8576925", "rental_uris": {"ios": "https://dc.lft.to/lastmile_qr_scan", "android": "https://dc.lft.to/lastmile_qr_scan"}, "type": "electric_scooter", "lat": 38.903766833333336, "is_disabled": 0, "lon": -77.0280035, "is_reserved": 0}, {"name": "b1efd8b75f344831d0f40818ed02531d", "fusion_lat": 0.0, "fusion_lon": 0.0, "bike_id": "b1efd8b75f344831d0f40818ed02531d", "rental_uris": {"ios": "https://dc.lft.to/lastmile_qr_scan", "android": "https://dc.lft.to/lastmile_qr_scan"}, "type": "electric_scooter", "lat": 38.904466666666664, "is_disabled": 0, "lon": -77.02823316666667, "is_reserved": 0}, {"name": "381181ad25cfba6d8455143c60c95792", "fusion_lat": 0.0, "fusion_lon": 0.0, "bike_id": "381181ad25cfba6d8455143c60c95792", "rental_uris": {"ios": "https://dc.lft.to/lastmile_qr_scan", "android": "https://dc.lft.to/lastmile_qr_scan"}, "type": "electric_scooter", "lat": 38.885067166666666, "is_disabled": 0, "lon": -77.0208455, "is_reserved": 0}, {"name": "a1853aa8dda11bcc69554d87e1340492", "fusion_lat": 0.0, "fusion_lon": 0.0, "bike_id": "a1853aa8dda11bcc69554d87e1340492", "rental_uris": {"ios": "https://dc.lft.to/lastmile_qr_scan", "android": "https://dc.lft.to/lastmile_qr_scan"}, "type": "electric_bike", "lat": 38.86907516666667, "is_disabled": 0, "lon": -77.13176333333334, "is_reserved": 0}, {"name": "d3e052f71431fe733233385b6bb8fede", "fusion_lat": 0.0, "fusion_lon": 0.0, "bike_id": "d3e052f71431fe733233385b6bb8fede", "rental_uris": {"ios": "https://dc.lft.to/lastmile_qr_scan", "android": "https://dc.lft.to/lastmile_qr_scan"}, "type": "electric_scooter", "lat": 38.902652833333335, "is_disabled": 0, "lon": -77.0398935, "is_reserved": 0}, {"name": "ce49bacd4940d7f895d1b48d7c16e14b", "fusion_lat": 0.0, "fusion_lon": 0.0, "bike_id": "ce49bacd4940d7f895d1b48d7c16e14b", "rental_uris": {"ios": "https://dc.lft.to/lastmile_qr_scan", "android": "https://dc.lft.to/lastmile_qr_scan"}, "type": "electric_bike", "lat": 38.9022575, "is_disabled": 0, "lon": -77.0216245, "is_reserved": 0}, {"name": "ed2a2e9b4501517f9659ab9ff5e85a58", "fusion_lat": 0.0, "fusion_lon": 0.0, "bike_id": "ed2a2e9b4501517f9659ab9ff5e85a58", "rental_uris": {"ios": "https://dc.lft.to/lastmile_qr_scan", "android": "https://dc.lft.to/lastmile_qr_scan"}, "type": "electric_scooter", "lat": 38.899301333333334, "is_disabled": 0, "lon": -77.02938566666667, "is_reserved": 0}, {"name": "2cf22520b3b0d3297daa6796d264ffe2", "fusion_lat": 0.0, "fusion_lon": 0.0, "bike_id": "2cf22520b3b0d3297daa6796d264ffe2", "rental_uris": {"ios": "https://dc.lft.to/lastmile_qr_scan", "android": "https://dc.lft.to/lastmile_qr_scan"}, "type": "electric_scooter", "lat": 38.9170235, "is_disabled": 0, "lon": -77.02991266666666, "is_reserved": 0}, {"name": "0c020fdcd64a1f761c8f8d64a5b481f9", "fusion_lat": 0.0, "fusion_lon": 0.0, "bike_id": "0c020fdcd64a1f761c8f8d64a5b481f9", "rental_uris": {"ios": "https://dc.lft.to/lastmile_qr_scan", "android": "https://dc.lft.to/lastmile_qr_scan"}, "type": "electric_scooter", "lat": 38.908699166666665, "is_disabled": 0, "lon": -77.0339055, "is_reserved": 0}, {"name": "20330d766251010e0ee32af6b1958d7d", "fusion_lat": 0.0, "fusion_lon": 0.0, "bike_id": "20330d766251010e0ee32af6b1958d7d", "rental_uris": {"ios": "https://dc.lft.to/lastmile_qr_scan", "android": "https://dc.lft.to/lastmile_qr_scan"}, "type": "electric_scooter", "lat": 38.93875583333333, "is_disabled": 0, "lon": -77.03224283333333, "is_reserved": 0}, {"name": "3e518a335cbf93d0f39afaa33b4dfb27", "fusion_lat": 0.0, "fusion_lon": 0.0, "bike_id": "3e518a335cbf93d0f39afaa33b4dfb27", "rental_uris": {"ios": "https://dc.lft.to/lastmile_qr_scan", "android": "https://dc.lft.to/lastmile_qr_scan"}, "type": "electric_scooter", "lat": 38.88738333333333, "is_disabled": 0, "lon": -77.01531266666667, "is_reserved": 0}, {"name": "166bde6cfc109f1a4a3dc12391b2080a", "fusion_lat": 0.0, "fusion_lon": 0.0, "bike_id": "166bde6cfc109f1a4a3dc12391b2080a", "rental_uris": {"ios": "https://dc.lft.to/lastmile_qr_scan", "android": "https://dc.lft.to/lastmile_qr_scan"}, "type": "electric_bike", "lat": 38.95088533333333, "is_disabled": 0, "lon": -76.965605, "is_reserved": 0}, {"name": "f6f59b1022df6cfad0a50348f8101bbb", "fusion_lat": 0.0, "fusion_lon": 0.0, "bike_id": "f6f59b1022df6cfad0a50348f8101bbb", "rental_uris": {"ios": "https://dc.lft.to/lastmile_qr_scan", "android": "https://dc.lft.to/lastmile_qr_scan"}, "type": "electric_scooter", "lat": 38.90805483333333, "is_disabled": 0, "lon": -77.04097366666667, "is_reserved": 0}, {"name": "9dbb058398cf0d69a077ce6fe5f7ef1a", "fusion_lat": 0.0, "fusion_lon": 0.0, "bike_id": "9dbb058398cf0d69a077ce6fe5f7ef1a", "rental_uris": {"ios": "https://dc.lft.to/lastmile_qr_scan", "android": "https://dc.lft.to/lastmile_qr_scan"}, "type": "electric_scooter", "lat": 38.8762975, "is_disabled": 0, "lon": -76.96524816666667, "is_reserved": 0}, {"name": "b92bdc5b16f0206a36a64d974ff81387", "fusion_lat": 0.0, "fusion_lon": 0.0, "bike_id": "b92bdc5b16f0206a36a64d974ff81387", "rental_uris": {"ios": "https://dc.lft.to/lastmile_qr_scan", "android": "https://dc.lft.to/lastmile_qr_scan"}, "type": "electric_scooter", "lat": 38.912524166666664, "is_disabled": 0, "lon": -77.0279335, "is_reserved": 0}, {"name": "3290c779f031404426367a599f3a27b8", "fusion_lat": 0.0, "fusion_lon": 0.0, "bike_id": "3290c779f031404426367a599f3a27b8", "rental_uris": {"ios": "https://dc.lft.to/lastmile_qr_scan", "android": "https://dc.lft.to/lastmile_qr_scan"}, "type": "electric_scooter", "lat": 38.917103833333336, "is_disabled": 0, "lon": -77.0347475, "is_reserved": 0}, {"name": "57907d0e1d96afe4af9bcb9244587f4e", "fusion_lat": 0.0, "fusion_lon": 0.0, "bike_id": "57907d0e1d96afe4af9bcb9244587f4e", "rental_uris": {"ios": "https://dc.lft.to/lastmile_qr_scan", "android": "https://dc.lft.to/lastmile_qr_scan"}, "type": "electric_scooter", "lat": 38.916684833333335, "is_disabled": 0, "lon": -77.03854916666667, "is_reserved": 0}, {"name": "844aa865b3b233a3619b0ed051145e9f", "fusion_lat": 0.0, "fusion_lon": 0.0, "bike_id": "844aa865b3b233a3619b0ed051145e9f", "rental_uris": {"ios": "https://dc.lft.to/lastmile_qr_scan", "android": "https://dc.lft.to/lastmile_qr_scan"}, "type": "electric_bike", "lat": 38.903312666666665, "is_disabled": 0, "lon": -76.97530783333333, "is_reserved": 0}, {"name": "d3a5b8e6eaec8b5d23e0f609c1497b82", "fusion_lat": 0.0, "fusion_lon": 0.0, "bike_id": "d3a5b8e6eaec8b5d23e0f609c1497b82", "rental_uris": {"ios": "https://dc.lft.to/lastmile_qr_scan", "android": "https://dc.lft.to/lastmile_qr_scan"}, "type": "electric_scooter", "lat": 38.88586033333333, "is_disabled": 0, "lon": -77.01224533333334, "is_reserved": 0}, {"name": "0f7b746bb93ce3edee6625caa0537547", "fusion_lat": 0.0, "fusion_lon": 0.0, "bike_id": "0f7b746bb93ce3edee6625caa0537547", "rental_uris": {"ios": "https://dc.lft.to/lastmile_qr_scan", "android": "https://dc.lft.to/lastmile_qr_scan"}, "type": "electric_scooter", "lat": 38.910381666666666, "is_disabled": 0, "lon": -77.0361745, "is_reserved": 0}, {"name": "27ebde5f2f6f6ed69513c6cafbf20086", "fusion_lat": 0.0, "fusion_lon": 0.0, "bike_id": "27ebde5f2f6f6ed69513c6cafbf20086", "rental_uris": {"ios": "https://dc.lft.to/lastmile_qr_scan", "android": "https://dc.lft.to/lastmile_qr_scan"}, "type": "electric_scooter", "lat": 38.91596366666667, "is_disabled": 0, "lon": -77.02308916666667, "is_reserved": 0}, {"name": "27d794c13b1418e2f8fbe121d46f2ec1", "fusion_lat": 0.0, "fusion_lon": 0.0, "bike_id": "27d794c13b1418e2f8fbe121d46f2ec1", "rental_uris": {"ios": "https://dc.lft.to/lastmile_qr_scan", "android": "https://dc.lft.to/lastmile_qr_scan"}, "type": "electric_scooter", "lat": 38.8960365, "is_disabled": 0, "lon": -77.054394, "is_reserved": 0}, {"name": "73f41f309c16a08eb0cc02ffc5830c61", "fusion_lat": 0.0, "fusion_lon": 0.0, "bike_id": "73f41f309c16a08eb0cc02ffc5830c61", "rental_uris": {"ios": "https://dc.lft.to/lastmile_qr_scan", "android": "https://dc.lft.to/lastmile_qr_scan"}, "type": "electric_scooter", "lat": 38.91589666666667, "is_disabled": 0, "lon": -77.02354983333333, "is_reserved": 0}, {"name": "4a9268a0ba7ecbdd5f835fedf0e1c502", "fusion_lat": 0.0, "fusion_lon": 0.0, "bike_id": "4a9268a0ba7ecbdd5f835fedf0e1c502", "rental_uris": {"ios": "https://dc.lft.to/lastmile_qr_scan", "android": "https://dc.lft.to/lastmile_qr_scan"}, "type": "electric_scooter", "lat": 38.898276333333335, "is_disabled": 0, "lon": -77.03313166666666, "is_reserved": 0}, {"name": "9ed03c5117eb97b00733e4cd4e6c30f7", "fusion_lat": 0.0, "fusion_lon": 0.0, "bike_id": "9ed03c5117eb97b00733e4cd4e6c30f7", "rental_uris": {"ios": "https://dc.lft.to/lastmile_qr_scan", "android": "https://dc.lft.to/lastmile_qr_scan"}, "type": "electric_scooter", "lat": 38.88515433333333, "is_disabled": 0, "lon": -76.948248, "is_reserved": 0}, {"name": "20425228c66210b3405db34c79c47f2f", "fusion_lat": 0.0, "fusion_lon": 0.0, "bike_id": "20425228c66210b3405db34c79c47f2f", "rental_uris": {"ios": "https://dc.lft.to/lastmile_qr_scan", "android": "https://dc.lft.to/lastmile_qr_scan"}, "type": "electric_bike", "lat": 39.02865416666667, "is_disabled": 0, "lon": -77.10435383333333, "is_reserved": 0}, {"name": "93806f1b1f9255e5e4ad07d3c2b54b75", "fusion_lat": 0.0, "fusion_lon": 0.0, "bike_id": "93806f1b1f9255e5e4ad07d3c2b54b75", "rental_uris": {"ios": "https://dc.lft.to/lastmile_qr_scan", "android": "https://dc.lft.to/lastmile_qr_scan"}, "type": "electric_scooter", "lat": 38.91833616666667, "is_disabled": 0, "lon": -77.04541333333333, "is_reserved": 0}, {"name": "1f7b8646c824694c6b09c3112a9196ba", "fusion_lat": 0.0, "fusion_lon": 0.0, "bike_id": "1f7b8646c824694c6b09c3112a9196ba", "rental_uris": {"ios": "https://dc.lft.to/lastmile_qr_scan", "android": "https://dc.lft.to/lastmile_qr_scan"}, "type": "electric_scooter", "lat": 38.91579316666667, "is_disabled": 0, "lon": -77.02004333333333, "is_reserved": 0}, {"name": "2010296c214d96680b8a445356558168", "fusion_lat": 0.0, "fusion_lon": 0.0, "bike_id": "2010296c214d96680b8a445356558168", "rental_uris": {"ios": "https://dc.lft.to/lastmile_qr_scan", "android": "https://dc.lft.to/lastmile_qr_scan"}, "type": "electric_scooter", "lat": 38.927267666666665, "is_disabled": 0, "lon": -76.97882516666667, "is_reserved": 0}, {"name": "0941b32380b1be921c73c26a28fd2b17", "fusion_lat": 0.0, "fusion_lon": 0.0, "bike_id": "0941b32380b1be921c73c26a28fd2b17", "rental_uris": {"ios": "https://dc.lft.to/lastmile_qr_scan", "android": "https://dc.lft.to/lastmile_qr_scan"}, "type": "electric_scooter", "lat": 38.949827166666665, "is_disabled": 0, "lon": -77.02704916666667, "is_reserved": 0}, {"name": "ab76c148e448f8840f0b56f14f316b86", "fusion_lat": 0.0, "fusion_lon": 0.0, "bike_id": "ab76c148e448f8840f0b56f14f316b86", "rental_uris": {"ios": "https://dc.lft.to/lastmile_qr_scan", "android": "https://dc.lft.to/lastmile_qr_scan"}, "type": "electric_scooter", "lat": 38.93256233333334, "is_disabled": 0, "lon": -77.0385245, "is_reserved": 0}, {"name": "620451656a6e498abaeafd44b2607eb9", "fusion_lat": 0.0, "fusion_lon": 0.0, "bike_id": "620451656a6e498abaeafd44b2607eb9", "rental_uris": {"ios": "https://dc.lft.to/lastmile_qr_scan", "android": "https://dc.lft.to/lastmile_qr_scan"}, "type": "electric_bike", "lat": 38.91705066666667, "is_disabled": 0, "lon": -77.09565933333333, "is_reserved": 0}, {"name": "4a753fd0f69846876f78a640e0c7d314", "fusion_lat": 0.0, "fusion_lon": 0.0, "bike_id": "4a753fd0f69846876f78a640e0c7d314", "rental_uris": {"ios": "https://dc.lft.to/lastmile_qr_scan", "android": "https://dc.lft.to/lastmile_qr_scan"}, "type": "electric_scooter", "lat": 38.910359166666666, "is_disabled": 0, "lon": -77.01376133333333, "is_reserved": 0}, {"name": "f4c1b01a9354a1997d69e77571939bec", "fusion_lat": 0.0, "fusion_lon": 0.0, "bike_id": "f4c1b01a9354a1997d69e77571939bec", "rental_uris": {"ios": "https://dc.lft.to/lastmile_qr_scan", "android": "https://dc.lft.to/lastmile_qr_scan"}, "type": "electric_scooter", "lat": 38.908486833333335, "is_disabled": 0, "lon": -77.023437, "is_reserved": 0}, {"name": "123b27d4af7416d0117bde9ed397fb28", "fusion_lat": 0.0, "fusion_lon": 0.0, "bike_id": "123b27d4af7416d0117bde9ed397fb28", "rental_uris": {"ios": "https://dc.lft.to/lastmile_qr_scan", "android": "https://dc.lft.to/lastmile_qr_scan"}, "type": "electric_scooter", "lat": 38.865131, "is_disabled": 0, "lon": -76.99002483333334, "is_reserved": 0}, {"name": "bfefa18fb919285a64a859f63c2b8992", "fusion_lat": 0.0, "fusion_lon": 0.0, "bike_id": "bfefa18fb919285a64a859f63c2b8992", "rental_uris": {"ios": "https://dc.lft.to/lastmile_qr_scan", "android": "https://dc.lft.to/lastmile_qr_scan"}, "type": "electric_scooter", "lat": 38.897271833333335, "is_disabled": 0, "lon": -77.0003605, "is_reserved": 0}, {"name": "be5c0753dc9995357869a97d0f51bd43", "fusion_lat": 0.0, "fusion_lon": 0.0, "bike_id": "be5c0753dc9995357869a97d0f51bd43", "rental_uris": {"ios": "https://dc.lft.to/lastmile_qr_scan", "android": "https://dc.lft.to/lastmile_qr_scan"}, "type": "electric_scooter", "lat": 38.931113, "is_disabled": 0, "lon": -77.04116183333333, "is_reserved": 0}, {"name": "62ca7d61c36cd613d08a932c9ad74fdf", "fusion_lat": 0.0, "fusion_lon": 0.0, "bike_id": "62ca7d61c36cd613d08a932c9ad74fdf", "rental_uris": {"ios": "https://dc.lft.to/lastmile_qr_scan", "android": "https://dc.lft.to/lastmile_qr_scan"}, "type": "electric_bike", "lat": 38.857127, "is_disabled": 0, "lon": -76.98113616666667, "is_reserved": 0}, {"name": "28db7448b0662188d97ecf22c8fc09b1", "fusion_lat": 0.0, "fusion_lon": 0.0, "bike_id": "28db7448b0662188d97ecf22c8fc09b1", "rental_uris": {"ios": "https://dc.lft.to/lastmile_qr_scan", "android": "https://dc.lft.to/lastmile_qr_scan"}, "type": "electric_scooter", "lat": 38.874648, "is_disabled": 0, "lon": -77.009868, "is_reserved": 0}, {"name": "08355ab8d0e57804ec9546d7fd5d7d36", "fusion_lat": 0.0, "fusion_lon": 0.0, "bike_id": "08355ab8d0e57804ec9546d7fd5d7d36", "rental_uris": {"ios": "https://dc.lft.to/lastmile_qr_scan", "android": "https://dc.lft.to/lastmile_qr_scan"}, "type": "electric_scooter", "lat": 38.90534, "is_disabled": 0, "lon": -77.0591655, "is_reserved": 0}, {"name": "fafafc64d02e1f50c4298aca3fcefa9b", "fusion_lat": 0.0, "fusion_lon": 0.0, "bike_id": "fafafc64d02e1f50c4298aca3fcefa9b", "rental_uris": {"ios": "https://dc.lft.to/lastmile_qr_scan", "android": "https://dc.lft.to/lastmile_qr_scan"}, "type": "electric_bike", "lat": 39.114981666666665, "is_disabled": 0, "lon": -77.19546633333333, "is_reserved": 0}, {"name": "c8d626f05ef312e86e3b801d2884d6cd", "fusion_lat": 0.0, "fusion_lon": 0.0, "bike_id": "c8d626f05ef312e86e3b801d2884d6cd", "rental_uris": {"ios": "https://dc.lft.to/lastmile_qr_scan", "android": "https://dc.lft.to/lastmile_qr_scan"}, "type": "electric_scooter", "lat": 38.838144166666666, "is_disabled": 0, "lon": -77.00432783333333, "is_reserved": 0}, {"name": "ab68691fcd97dade9e751e3a80a1daa5", "fusion_lat": 0.0, "fusion_lon": 0.0, "bike_id": "ab68691fcd97dade9e751e3a80a1daa5", "rental_uris": {"ios": "https://dc.lft.to/lastmile_qr_scan", "android": "https://dc.lft.to/lastmile_qr_scan"}, "type": "electric_bike", "lat": 38.992494666666666, "is_disabled": 0, "lon": -77.04980233333333, "is_reserved": 0}, {"name": "e05f607a4ede0851fabafdc89f56b770", "fusion_lat": 0.0, "fusion_lon": 0.0, "bike_id": "e05f607a4ede0851fabafdc89f56b770", "rental_uris": {"ios": "https://dc.lft.to/lastmile_qr_scan", "android": "https://dc.lft.to/lastmile_qr_scan"}, "type": "electric_scooter", "lat": 38.91574383333333, "is_disabled": 0, "lon": -77.04670166666666, "is_reserved": 0}, {"name": "03c8c48ce75102bad184f38cfd74018b", "fusion_lat": 0.0, "fusion_lon": 0.0, "bike_id": "03c8c48ce75102bad184f38cfd74018b", "rental_uris": {"ios": "https://dc.lft.to/lastmile_qr_scan", "android": "https://dc.lft.to/lastmile_qr_scan"}, "type": "electric_scooter", "lat": 38.930484166666666, "is_disabled": 0, "lon": -77.0041585, "is_reserved": 0}, {"name": "54a018ce557ad4a7adf2afc3ce9cf95e", "fusion_lat": 0.0, "fusion_lon": 0.0, "bike_id": "54a018ce557ad4a7adf2afc3ce9cf95e", "rental_uris": {"ios": "https://dc.lft.to/lastmile_qr_scan", "android": "https://dc.lft.to/lastmile_qr_scan"}, "type": "electric_scooter", "lat": 38.94281616666667, "is_disabled": 0, "lon": -77.02352633333334, "is_reserved": 0}, {"name": "b566bfa49b0d9cf9418b39783e688624", "fusion_lat": 0.0, "fusion_lon": 0.0, "bike_id": "b566bfa49b0d9cf9418b39783e688624", "rental_uris": {"ios": "https://dc.lft.to/lastmile_qr_scan", "android": "https://dc.lft.to/lastmile_qr_scan"}, "type": "electric_scooter", "lat": 38.8923095, "is_disabled": 0, "lon": -77.03337683333334, "is_reserved": 0}, {"name": "e2f782f901027d535a8822c9a6fb0e2b", "fusion_lat": 0.0, "fusion_lon": 0.0, "bike_id": "e2f782f901027d535a8822c9a6fb0e2b", "rental_uris": {"ios": "https://dc.lft.to/lastmile_qr_scan", "android": "https://dc.lft.to/lastmile_qr_scan"}, "type": "electric_scooter", "lat": 38.910811833333334, "is_disabled": 0, "lon": -77.00153133333333, "is_reserved": 0}, {"name": "88418e91677930eb11f7a053e42b51b0", "fusion_lat": 0.0, "fusion_lon": 0.0, "bike_id": "88418e91677930eb11f7a053e42b51b0", "rental_uris": {"ios": "https://dc.lft.to/lastmile_qr_scan", "android": "https://dc.lft.to/lastmile_qr_scan"}, "type": "electric_scooter", "lat": 38.90017916666667, "is_disabled": 0, "lon": -77.01194433333333, "is_reserved": 0}, {"name": "7cd347b58defbd452a087ebd99d86160", "fusion_lat": 0.0, "fusion_lon": 0.0, "bike_id": "7cd347b58defbd452a087ebd99d86160", "rental_uris": {"ios": "https://dc.lft.to/lastmile_qr_scan", "android": "https://dc.lft.to/lastmile_qr_scan"}, "type": "electric_scooter", "lat": 38.902615833333336, "is_disabled": 0, "lon": -77.01561616666666, "is_reserved": 0}, {"name": "30ef91ff3933e6fbd4bdcaf41b77b4d8", "fusion_lat": 0.0, "fusion_lon": 0.0, "bike_id": "30ef91ff3933e6fbd4bdcaf41b77b4d8", "rental_uris": {"ios": "https://dc.lft.to/lastmile_qr_scan", "android": "https://dc.lft.to/lastmile_qr_scan"}, "type": "electric_scooter", "lat": 38.9163485, "is_disabled": 0, "lon": -77.0506025, "is_reserved": 0}, {"name": "16dbe943366d48fdab710d83ab960a78", "fusion_lat": 0.0, "fusion_lon": 0.0, "bike_id": "16dbe943366d48fdab710d83ab960a78", "rental_uris": {"ios": "https://dc.lft.to/lastmile_qr_scan", "android": "https://dc.lft.to/lastmile_qr_scan"}, "type": "electric_scooter", "lat": 38.89835183333334, "is_disabled": 0, "lon": -77.03312566666666, "is_reserved": 0}, {"name": "690602e99875e888846448116f283ffe", "fusion_lat": 0.0, "fusion_lon": 0.0, "bike_id": "690602e99875e888846448116f283ffe", "rental_uris": {"ios": "https://dc.lft.to/lastmile_qr_scan", "android": "https://dc.lft.to/lastmile_qr_scan"}, "type": "electric_scooter", "lat": 38.918181833333335, "is_disabled": 0, "lon": -77.037282, "is_reserved": 0}, {"name": "fbee4703523a43d60660af9c514571c6", "fusion_lat": 0.0, "fusion_lon": 0.0, "bike_id": "fbee4703523a43d60660af9c514571c6", "rental_uris": {"ios": "https://dc.lft.to/lastmile_qr_scan", "android": "https://dc.lft.to/lastmile_qr_scan"}, "type": "electric_scooter", "lat": 38.903626333333335, "is_disabled": 0, "lon": -77.01902783333334, "is_reserved": 0}, {"name": "7f0a566fbc9f3679b0f1e88cf278dc86", "fusion_lat": 0.0, "fusion_lon": 0.0, "bike_id": "7f0a566fbc9f3679b0f1e88cf278dc86", "rental_uris": {"ios": "https://dc.lft.to/lastmile_qr_scan", "android": "https://dc.lft.to/lastmile_qr_scan"}, "type": "electric_scooter", "lat": 38.931933, "is_disabled": 0, "lon": -77.0283825, "is_reserved": 0}, {"name": "9c03def52b6cfd65ef611de3b0c1abf1", "fusion_lat": 0.0, "fusion_lon": 0.0, "bike_id": "9c03def52b6cfd65ef611de3b0c1abf1", "rental_uris": {"ios": "https://dc.lft.to/lastmile_qr_scan", "android": "https://dc.lft.to/lastmile_qr_scan"}, "type": "electric_scooter", "lat": 38.92415333333334, "is_disabled": 0, "lon": -77.02008866666667, "is_reserved": 0}, {"name": "9c3f5968d57a3d6275b116b6bcc2d232", "fusion_lat": 0.0, "fusion_lon": 0.0, "bike_id": "9c3f5968d57a3d6275b116b6bcc2d232", "rental_uris": {"ios": "https://dc.lft.to/lastmile_qr_scan", "android": "https://dc.lft.to/lastmile_qr_scan"}, "type": "electric_scooter", "lat": 38.897963, "is_disabled": 0, "lon": -77.03951616666667, "is_reserved": 0}, {"name": "727acb6263f3f9866cb2f5b392c6a9aa", "fusion_lat": 0.0, "fusion_lon": 0.0, "bike_id": "727acb6263f3f9866cb2f5b392c6a9aa", "rental_uris": {"ios": "https://dc.lft.to/lastmile_qr_scan", "android": "https://dc.lft.to/lastmile_qr_scan"}, "type": "electric_scooter", "lat": 38.913759666666664, "is_disabled": 0, "lon": -77.0434715, "is_reserved": 0}, {"name": "2c8086e934eaa857d94079c424a23d9a", "fusion_lat": 0.0, "fusion_lon": 0.0, "bike_id": "2c8086e934eaa857d94079c424a23d9a", "rental_uris": {"ios": "https://dc.lft.to/lastmile_qr_scan", "android": "https://dc.lft.to/lastmile_qr_scan"}, "type": "electric_scooter", "lat": 38.903811, "is_disabled": 0, "lon": -77.04534, "is_reserved": 0}, {"name": "3e66e00b8f7e067fecea2d24065740c1", "fusion_lat": 0.0, "fusion_lon": 0.0, "bike_id": "3e66e00b8f7e067fecea2d24065740c1", "rental_uris": {"ios": "https://dc.lft.to/lastmile_qr_scan", "android": "https://dc.lft.to/lastmile_qr_scan"}, "type": "electric_scooter", "lat": 38.904964, "is_disabled": 0, "lon": -76.979455, "is_reserved": 0}, {"name": "57a47b5019c2f0226bfcaaec65399d92", "fusion_lat": 0.0, "fusion_lon": 0.0, "bike_id": "57a47b5019c2f0226bfcaaec65399d92", "rental_uris": {"ios": "https://dc.lft.to/lastmile_qr_scan", "android": "https://dc.lft.to/lastmile_qr_scan"}, "type": "electric_scooter", "lat": 38.896829, "is_disabled": 0, "lon": -76.93533733333334, "is_reserved": 0}, {"name": "778fae2e1bc2c9920e348e6b1fc5863f", "fusion_lat": 0.0, "fusion_lon": 0.0, "bike_id": "778fae2e1bc2c9920e348e6b1fc5863f", "rental_uris": {"ios": "https://dc.lft.to/lastmile_qr_scan", "android": "https://dc.lft.to/lastmile_qr_scan"}, "type": "electric_scooter", "lat": 38.921453, "is_disabled": 0, "lon": -77.02527433333333, "is_reserved": 0}, {"name": "65ef457be9c5457f7f5a3e0ecad36790", "fusion_lat": 0.0, "fusion_lon": 0.0, "bike_id": "65ef457be9c5457f7f5a3e0ecad36790", "rental_uris": {"ios": "https://dc.lft.to/lastmile_qr_scan", "android": "https://dc.lft.to/lastmile_qr_scan"}, "type": "electric_scooter", "lat": 38.89876366666667, "is_disabled": 0, "lon": -76.931823, "is_reserved": 0}, {"name": "2ed599218e279a507bdedc9c668c203f", "fusion_lat": 0.0, "fusion_lon": 0.0, "bike_id": "2ed599218e279a507bdedc9c668c203f", "rental_uris": {"ios": "https://dc.lft.to/lastmile_qr_scan", "android": "https://dc.lft.to/lastmile_qr_scan"}, "type": "electric_scooter", "lat": 38.9002095, "is_disabled": 0, "lon": -77.01167183333334, "is_reserved": 0}, {"name": "e2b330d84331f508c59aa74c80252b00", "fusion_lat": 0.0, "fusion_lon": 0.0, "bike_id": "e2b330d84331f508c59aa74c80252b00", "rental_uris": {"ios": "https://dc.lft.to/lastmile_qr_scan", "android": "https://dc.lft.to/lastmile_qr_scan"}, "type": "electric_scooter", "lat": 38.89563783333333, "is_disabled": 0, "lon": -76.97469916666667, "is_reserved": 0}, {"name": "d47ab8860af1ab87b01813a3b1c3b65b", "fusion_lat": 0.0, "fusion_lon": 0.0, "bike_id": "d47ab8860af1ab87b01813a3b1c3b65b", "rental_uris": {"ios": "https://dc.lft.to/lastmile_qr_scan", "android": "https://dc.lft.to/lastmile_qr_scan"}, "type": "electric_scooter", "lat": 38.8876865, "is_disabled": 0, "lon": -76.95675166666666, "is_reserved": 0}, {"name": "8d470bb136e8fff0ba3fd712ed747981", "fusion_lat": 0.0, "fusion_lon": 0.0, "bike_id": "8d470bb136e8fff0ba3fd712ed747981", "rental_uris": {"ios": "https://dc.lft.to/lastmile_qr_scan", "android": "https://dc.lft.to/lastmile_qr_scan"}, "type": "electric_scooter", "lat": 38.92625816666666, "is_disabled": 0, "lon": -77.057053, "is_reserved": 0}, {"name": "ea5fc419746b2b9e09fab09a4bcc6e67", "fusion_lat": 0.0, "fusion_lon": 0.0, "bike_id": "ea5fc419746b2b9e09fab09a4bcc6e67", "rental_uris": {"ios": "https://dc.lft.to/lastmile_qr_scan", "android": "https://dc.lft.to/lastmile_qr_scan"}, "type": "electric_scooter", "lat": 38.899739833333335, "is_disabled": 0, "lon": -76.99505733333334, "is_reserved": 0}, {"name": "22132228d8317aac1b2f68aed86b28f6", "fusion_lat": 0.0, "fusion_lon": 0.0, "bike_id": "22132228d8317aac1b2f68aed86b28f6", "rental_uris": {"ios": "https://dc.lft.to/lastmile_qr_scan", "android": "https://dc.lft.to/lastmile_qr_scan"}, "type": "electric_bike", "lat": 38.9557955, "is_disabled": 0, "lon": -77.02464216666667, "is_reserved": 0}, {"name": "a7beec570ee3b647c1d9762070d5161d", "fusion_lat": 0.0, "fusion_lon": 0.0, "bike_id": "a7beec570ee3b647c1d9762070d5161d", "rental_uris": {"ios": "https://dc.lft.to/lastmile_qr_scan", "android": "https://dc.lft.to/lastmile_qr_scan"}, "type": "electric_scooter", "lat": 38.9119405, "is_disabled": 0, "lon": -77.0198425, "is_reserved": 0}, {"name": "fd8bacf73defe7425ec10f2b16e87d0a", "fusion_lat": 0.0, "fusion_lon": 0.0, "bike_id": "fd8bacf73defe7425ec10f2b16e87d0a", "rental_uris": {"ios": "https://dc.lft.to/lastmile_qr_scan", "android": "https://dc.lft.to/lastmile_qr_scan"}, "type": "electric_bike", "lat": 38.959631, "is_disabled": 0, "lon": -76.981598, "is_reserved": 0}, {"name": "f12148d6d5f5dded12b6bf684dd9eefe", "fusion_lat": 0.0, "fusion_lon": 0.0, "bike_id": "f12148d6d5f5dded12b6bf684dd9eefe", "rental_uris": {"ios": "https://dc.lft.to/lastmile_qr_scan", "android": "https://dc.lft.to/lastmile_qr_scan"}, "type": "electric_scooter", "lat": 38.94438666666667, "is_disabled": 0, "lon": -77.06406133333333, "is_reserved": 0}, {"name": "4af9e5684148d2ddc98621ef5ff7579f", "fusion_lat": 0.0, "fusion_lon": 0.0, "bike_id": "4af9e5684148d2ddc98621ef5ff7579f", "rental_uris": {"ios": "https://dc.lft.to/lastmile_qr_scan", "android": "https://dc.lft.to/lastmile_qr_scan"}, "type": "electric_scooter", "lat": 38.910424166666665, "is_disabled": 0, "lon": -77.04063283333333, "is_reserved": 0}, {"name": "5f1c0c22993221a7d8ec9799d7c6b1a3", "fusion_lat": 0.0, "fusion_lon": 0.0, "bike_id": "5f1c0c22993221a7d8ec9799d7c6b1a3", "rental_uris": {"ios": "https://dc.lft.to/lastmile_qr_scan", "android": "https://dc.lft.to/lastmile_qr_scan"}, "type": "electric_scooter", "lat": 38.900273166666665, "is_disabled": 0, "lon": -76.9959625, "is_reserved": 0}, {"name": "7d32e00a335fdbb13acb2173064b93df", "fusion_lat": 0.0, "fusion_lon": 0.0, "bike_id": "7d32e00a335fdbb13acb2173064b93df", "rental_uris": {"ios": "https://dc.lft.to/lastmile_qr_scan", "android": "https://dc.lft.to/lastmile_qr_scan"}, "type": "electric_scooter", "lat": 38.89508583333333, "is_disabled": 0, "lon": -76.94885766666667, "is_reserved": 0}, {"name": "9f61db518820b14f137d2500c2ded6e3", "fusion_lat": 0.0, "fusion_lon": 0.0, "bike_id": "9f61db518820b14f137d2500c2ded6e3", "rental_uris": {"ios": "https://dc.lft.to/lastmile_qr_scan", "android": "https://dc.lft.to/lastmile_qr_scan"}, "type": "electric_scooter", "lat": 38.90376233333333, "is_disabled": 0, "lon": -77.01854816666666, "is_reserved": 0}, {"name": "08170ef37413f3b770e70acbfedc13fa", "fusion_lat": 0.0, "fusion_lon": 0.0, "bike_id": "08170ef37413f3b770e70acbfedc13fa", "rental_uris": {"ios": "https://dc.lft.to/lastmile_qr_scan", "android": "https://dc.lft.to/lastmile_qr_scan"}, "type": "electric_scooter", "lat": 38.860353, "is_disabled": 0, "lon": -76.99686116666666, "is_reserved": 0}, {"name": "a717cb0763ba0ca624cb21daae73d7bb", "fusion_lat": 0.0, "fusion_lon": 0.0, "bike_id": "a717cb0763ba0ca624cb21daae73d7bb", "rental_uris": {"ios": "https://dc.lft.to/lastmile_qr_scan", "android": "https://dc.lft.to/lastmile_qr_scan"}, "type": "electric_scooter", "lat": 38.899473, "is_disabled": 0, "lon": -77.0257635, "is_reserved": 0}, {"name": "63f13eb1043d27a78ce67537f341cb69", "fusion_lat": 0.0, "fusion_lon": 0.0, "bike_id": "63f13eb1043d27a78ce67537f341cb69", "rental_uris": {"ios": "https://dc.lft.to/lastmile_qr_scan", "android": "https://dc.lft.to/lastmile_qr_scan"}, "type": "electric_scooter", "lat": 38.91189983333334, "is_disabled": 0, "lon": -77.0025715, "is_reserved": 0}, {"name": "069f461ff7eaf0dd540cc7ddb60f4246", "fusion_lat": 0.0, "fusion_lon": 0.0, "bike_id": "069f461ff7eaf0dd540cc7ddb60f4246", "rental_uris": {"ios": "https://dc.lft.to/lastmile_qr_scan", "android": "https://dc.lft.to/lastmile_qr_scan"}, "type": "electric_bike", "lat": 39.09591733333333, "is_disabled": 0, "lon": -77.1477745, "is_reserved": 0}, {"name": "cbbb188559bccc06fe7fda40ed468fb1", "fusion_lat": 0.0, "fusion_lon": 0.0, "bike_id": "cbbb188559bccc06fe7fda40ed468fb1", "rental_uris": {"ios": "https://dc.lft.to/lastmile_qr_scan", "android": "https://dc.lft.to/lastmile_qr_scan"}, "type": "electric_scooter", "lat": 38.956065333333335, "is_disabled": 0, "lon": -77.036304, "is_reserved": 0}, {"name": "f3f2dd99a128af2d87d2746298e68f2c", "fusion_lat": 0.0, "fusion_lon": 0.0, "bike_id": "f3f2dd99a128af2d87d2746298e68f2c", "rental_uris": {"ios": "https://dc.lft.to/lastmile_qr_scan", "android": "https://dc.lft.to/lastmile_qr_scan"}, "type": "electric_scooter", "lat": 38.931555833333334, "is_disabled": 0, "lon": -77.03612466666667, "is_reserved": 0}, {"name": "bf0a0e41e82ab6f85183a2fe8a866ffc", "fusion_lat": 0.0, "fusion_lon": 0.0, "bike_id": "bf0a0e41e82ab6f85183a2fe8a866ffc", "rental_uris": {"ios": "https://dc.lft.to/lastmile_qr_scan", "android": "https://dc.lft.to/lastmile_qr_scan"}, "type": "electric_bike", "lat": 38.841951, "is_disabled": 0, "lon": -77.07747333333333, "is_reserved": 0}, {"name": "da8abeb117c9e215459c5c82b011383d", "fusion_lat": 0.0, "fusion_lon": 0.0, "bike_id": "da8abeb117c9e215459c5c82b011383d", "rental_uris": {"ios": "https://dc.lft.to/lastmile_qr_scan", "android": "https://dc.lft.to/lastmile_qr_scan"}, "type": "electric_bike", "lat": 38.999379, "is_disabled": 0, "lon": -77.00122866666666, "is_reserved": 0}, {"name": "34b8b848354f0a81c83ca39263cf3551", "fusion_lat": 0.0, "fusion_lon": 0.0, "bike_id": "34b8b848354f0a81c83ca39263cf3551", "rental_uris": {"ios": "https://dc.lft.to/lastmile_qr_scan", "android": "https://dc.lft.to/lastmile_qr_scan"}, "type": "electric_scooter", "lat": 38.897355, "is_disabled": 0, "lon": -76.94703033333333, "is_reserved": 0}, {"name": "773c90b8bb6f1f8ea1e31a013b51b26b", "fusion_lat": 0.0, "fusion_lon": 0.0, "bike_id": "773c90b8bb6f1f8ea1e31a013b51b26b", "rental_uris": {"ios": "https://dc.lft.to/lastmile_qr_scan", "android": "https://dc.lft.to/lastmile_qr_scan"}, "type": "electric_scooter", "lat": 38.922474666666666, "is_disabled": 0, "lon": -77.03083066666666, "is_reserved": 0}, {"name": "03e5a29312a0a4ddfb4122ce2c1392bf", "fusion_lat": 0.0, "fusion_lon": 0.0, "bike_id": "03e5a29312a0a4ddfb4122ce2c1392bf", "rental_uris": {"ios": "https://dc.lft.to/lastmile_qr_scan", "android": "https://dc.lft.to/lastmile_qr_scan"}, "type": "electric_bike", "lat": 39.017282, "is_disabled": 0, "lon": -77.06372883333333, "is_reserved": 0}, {"name": "f0a23e4254f25f389e0e14756b0c2bd4", "fusion_lat": 0.0, "fusion_lon": 0.0, "bike_id": "f0a23e4254f25f389e0e14756b0c2bd4", "rental_uris": {"ios": "https://dc.lft.to/lastmile_qr_scan", "android": "https://dc.lft.to/lastmile_qr_scan"}, "type": "electric_scooter", "lat": 38.8980365, "is_disabled": 0, "lon": -77.05212916666666, "is_reserved": 0}, {"name": "dbbfcc52c2ed06e5abac077388696746", "fusion_lat": 0.0, "fusion_lon": 0.0, "bike_id": "dbbfcc52c2ed06e5abac077388696746", "rental_uris": {"ios": "https://dc.lft.to/lastmile_qr_scan", "android": "https://dc.lft.to/lastmile_qr_scan"}, "type": "electric_scooter", "lat": 38.936112333333334, "is_disabled": 0, "lon": -77.05860916666667, "is_reserved": 0}, {"name": "fe61fc82b36b095fa1fc23dc581a9726", "fusion_lat": 0.0, "fusion_lon": 0.0, "bike_id": "fe61fc82b36b095fa1fc23dc581a9726", "rental_uris": {"ios": "https://dc.lft.to/lastmile_qr_scan", "android": "https://dc.lft.to/lastmile_qr_scan"}, "type": "electric_bike", "lat": 38.95059466666667, "is_disabled": 0, "lon": -76.96735916666667, "is_reserved": 0}, {"name": "d7f3f0c1884332d6123f7a97969b54aa", "fusion_lat": 0.0, "fusion_lon": 0.0, "bike_id": "d7f3f0c1884332d6123f7a97969b54aa", "rental_uris": {"ios": "https://dc.lft.to/lastmile_qr_scan", "android": "https://dc.lft.to/lastmile_qr_scan"}, "type": "electric_scooter", "lat": 38.878426166666664, "is_disabled": 0, "lon": -77.00876866666667, "is_reserved": 0}, {"name": "7269ce9cc3d49e673585450649bedab8", "fusion_lat": 0.0, "fusion_lon": 0.0, "bike_id": "7269ce9cc3d49e673585450649bedab8", "rental_uris": {"ios": "https://dc.lft.to/lastmile_qr_scan", "android": "https://dc.lft.to/lastmile_qr_scan"}, "type": "electric_scooter", "lat": 38.928362666666665, "is_disabled": 0, "lon": -77.03280433333333, "is_reserved": 0}, {"name": "ae09667ca6938b2206a1190f94801653", "fusion_lat": 0.0, "fusion_lon": 0.0, "bike_id": "ae09667ca6938b2206a1190f94801653", "rental_uris": {"ios": "https://dc.lft.to/lastmile_qr_scan", "android": "https://dc.lft.to/lastmile_qr_scan"}, "type": "electric_scooter", "lat": 38.8667615, "is_disabled": 0, "lon": -76.98886266666666, "is_reserved": 0}, {"name": "6af467982af2145bd828d4bca26f2754", "fusion_lat": 0.0, "fusion_lon": 0.0, "bike_id": "6af467982af2145bd828d4bca26f2754", "rental_uris": {"ios": "https://dc.lft.to/lastmile_qr_scan", "android": "https://dc.lft.to/lastmile_qr_scan"}, "type": "electric_scooter", "lat": 38.90468666666666, "is_disabled": 0, "lon": -77.0294505, "is_reserved": 0}, {"name": "1b2e0cd7b73b88cf2ce812e21fbf4626", "fusion_lat": 0.0, "fusion_lon": 0.0, "bike_id": "1b2e0cd7b73b88cf2ce812e21fbf4626", "rental_uris": {"ios": "https://dc.lft.to/lastmile_qr_scan", "android": "https://dc.lft.to/lastmile_qr_scan"}, "type": "electric_scooter", "lat": 38.901328166666666, "is_disabled": 0, "lon": -77.03052366666667, "is_reserved": 0}, {"name": "38e3c97663790f772100bd88488ebe4a", "fusion_lat": 0.0, "fusion_lon": 0.0, "bike_id": "38e3c97663790f772100bd88488ebe4a", "rental_uris": {"ios": "https://dc.lft.to/lastmile_qr_scan", "android": "https://dc.lft.to/lastmile_qr_scan"}, "type": "electric_bike", "lat": 38.8194685, "is_disabled": 0, "lon": -77.002193, "is_reserved": 0}, {"name": "858c7cab3af5aa8314f2a0a9daf0541f", "fusion_lat": 0.0, "fusion_lon": 0.0, "bike_id": "858c7cab3af5aa8314f2a0a9daf0541f", "rental_uris": {"ios": "https://dc.lft.to/lastmile_qr_scan", "android": "https://dc.lft.to/lastmile_qr_scan"}, "type": "electric_scooter", "lat": 38.873425, "is_disabled": 0, "lon": -76.9678735, "is_reserved": 0}, {"name": "5d0838ab387487ae849e1212e12308fe", "fusion_lat": 0.0, "fusion_lon": 0.0, "bike_id": "5d0838ab387487ae849e1212e12308fe", "rental_uris": {"ios": "https://dc.lft.to/lastmile_qr_scan", "android": "https://dc.lft.to/lastmile_qr_scan"}, "type": "electric_bike", "lat": 38.9185335, "is_disabled": 0, "lon": -76.96089383333333, "is_reserved": 0}, {"name": "12e2b0111ee3d75f35b5479ce756bf71", "fusion_lat": 0.0, "fusion_lon": 0.0, "bike_id": "12e2b0111ee3d75f35b5479ce756bf71", "rental_uris": {"ios": "https://dc.lft.to/lastmile_qr_scan", "android": "https://dc.lft.to/lastmile_qr_scan"}, "type": "electric_bike", "lat": 38.96309083333333, "is_disabled": 0, "lon": -77.05760166666667, "is_reserved": 0}, {"name": "e1a781899202f5861ed736deb7e44237", "fusion_lat": 0.0, "fusion_lon": 0.0, "bike_id": "e1a781899202f5861ed736deb7e44237", "rental_uris": {"ios": "https://dc.lft.to/lastmile_qr_scan", "android": "https://dc.lft.to/lastmile_qr_scan"}, "type": "electric_scooter", "lat": 38.91769883333333, "is_disabled": 0, "lon": -77.0476285, "is_reserved": 0}, {"name": "2a9dbe3ddaaf0a2f0acb4c7850cd5a9a", "fusion_lat": 0.0, "fusion_lon": 0.0, "bike_id": "2a9dbe3ddaaf0a2f0acb4c7850cd5a9a", "rental_uris": {"ios": "https://dc.lft.to/lastmile_qr_scan", "android": "https://dc.lft.to/lastmile_qr_scan"}, "type": "electric_scooter", "lat": 38.9012255, "is_disabled": 0, "lon": -77.05105566666667, "is_reserved": 0}, {"name": "8c9f2dd78d0fcca3b49ceb8c4c90dd61", "fusion_lat": 0.0, "fusion_lon": 0.0, "bike_id": "8c9f2dd78d0fcca3b49ceb8c4c90dd61", "rental_uris": {"ios": "https://dc.lft.to/lastmile_qr_scan", "android": "https://dc.lft.to/lastmile_qr_scan"}, "type": "electric_scooter", "lat": 38.924451166666664, "is_disabled": 0, "lon": -77.026058, "is_reserved": 0}, {"name": "bd1e9d3fd4987db786f6e46214d6d933", "fusion_lat": 0.0, "fusion_lon": 0.0, "bike_id": "bd1e9d3fd4987db786f6e46214d6d933", "rental_uris": {"ios": "https://dc.lft.to/lastmile_qr_scan", "android": "https://dc.lft.to/lastmile_qr_scan"}, "type": "electric_scooter", "lat": 38.90709783333333, "is_disabled": 0, "lon": -77.0077665, "is_reserved": 0}, {"name": "e64c2af9cb4e8625ca9a886211a56fe5", "fusion_lat": 0.0, "fusion_lon": 0.0, "bike_id": "e64c2af9cb4e8625ca9a886211a56fe5", "rental_uris": {"ios": "https://dc.lft.to/lastmile_qr_scan", "android": "https://dc.lft.to/lastmile_qr_scan"}, "type": "electric_scooter", "lat": 38.89657483333333, "is_disabled": 0, "lon": -77.0502665, "is_reserved": 0}, {"name": "51377bde5624f648cc62432fe35bb8a7", "fusion_lat": 0.0, "fusion_lon": 0.0, "bike_id": "51377bde5624f648cc62432fe35bb8a7", "rental_uris": {"ios": "https://dc.lft.to/lastmile_qr_scan", "android": "https://dc.lft.to/lastmile_qr_scan"}, "type": "electric_scooter", "lat": 38.923231, "is_disabled": 0, "lon": -77.0461445, "is_reserved": 0}, {"name": "c1e4a6bd21ea2204e0580c1f967542a7", "fusion_lat": 0.0, "fusion_lon": 0.0, "bike_id": "c1e4a6bd21ea2204e0580c1f967542a7", "rental_uris": {"ios": "https://dc.lft.to/lastmile_qr_scan", "android": "https://dc.lft.to/lastmile_qr_scan"}, "type": "electric_scooter", "lat": 38.8782305, "is_disabled": 0, "lon": -77.01774666666667, "is_reserved": 0}, {"name": "70e8ee3d0da0611c26521246e05fea78", "fusion_lat": 0.0, "fusion_lon": 0.0, "bike_id": "70e8ee3d0da0611c26521246e05fea78", "rental_uris": {"ios": "https://dc.lft.to/lastmile_qr_scan", "android": "https://dc.lft.to/lastmile_qr_scan"}, "type": "electric_scooter", "lat": 38.901325, "is_disabled": 0, "lon": -77.03144, "is_reserved": 0}, {"name": "253aeabedb0b09ff10a0c417fe706a07", "fusion_lat": 0.0, "fusion_lon": 0.0, "bike_id": "253aeabedb0b09ff10a0c417fe706a07", "rental_uris": {"ios": "https://dc.lft.to/lastmile_qr_scan", "android": "https://dc.lft.to/lastmile_qr_scan"}, "type": "electric_scooter", "lat": 38.917067333333335, "is_disabled": 0, "lon": -77.02773316666666, "is_reserved": 0}, {"name": "ce7a11ef716c8fd7ae0e86ddb5b53ef6", "fusion_lat": 0.0, "fusion_lon": 0.0, "bike_id": "ce7a11ef716c8fd7ae0e86ddb5b53ef6", "rental_uris": {"ios": "https://dc.lft.to/lastmile_qr_scan", "android": "https://dc.lft.to/lastmile_qr_scan"}, "type": "electric_scooter", "lat": 38.96733166666667, "is_disabled": 0, "lon": -77.0276225, "is_reserved": 0}, {"name": "f86fba7cbde84de47ef16e01c39b0b6c", "fusion_lat": 0.0, "fusion_lon": 0.0, "bike_id": "f86fba7cbde84de47ef16e01c39b0b6c", "rental_uris": {"ios": "https://dc.lft.to/lastmile_qr_scan", "android": "https://dc.lft.to/lastmile_qr_scan"}, "type": "electric_bike", "lat": 38.913546, "is_disabled": 0, "lon": -77.02846116666667, "is_reserved": 0}, {"name": "d22bdedd13b56817039c5ac454c19645", "fusion_lat": 0.0, "fusion_lon": 0.0, "bike_id": "d22bdedd13b56817039c5ac454c19645", "rental_uris": {"ios": "https://dc.lft.to/lastmile_qr_scan", "android": "https://dc.lft.to/lastmile_qr_scan"}, "type": "electric_scooter", "lat": 38.89729916666667, "is_disabled": 0, "lon": -77.0469725, "is_reserved": 0}, {"name": "07946059663a6563d071ab401ab4df23", "fusion_lat": 0.0, "fusion_lon": 0.0, "bike_id": "07946059663a6563d071ab401ab4df23", "rental_uris": {"ios": "https://dc.lft.to/lastmile_qr_scan", "android": "https://dc.lft.to/lastmile_qr_scan"}, "type": "electric_scooter", "lat": 38.918420166666664, "is_disabled": 0, "lon": -76.96550116666667, "is_reserved": 0}, {"name": "39123b2f9df62a40ea23aa49135986f6", "fusion_lat": 0.0, "fusion_lon": 0.0, "bike_id": "39123b2f9df62a40ea23aa49135986f6", "rental_uris": {"ios": "https://dc.lft.to/lastmile_qr_scan", "android": "https://dc.lft.to/lastmile_qr_scan"}, "type": "electric_scooter", "lat": 38.867256166666664, "is_disabled": 0, "lon": -77.0102125, "is_reserved": 0}, {"name": "a4e4e8415f72571814464368f90972a9", "fusion_lat": 0.0, "fusion_lon": 0.0, "bike_id": "a4e4e8415f72571814464368f90972a9", "rental_uris": {"ios": "https://dc.lft.to/lastmile_qr_scan", "android": "https://dc.lft.to/lastmile_qr_scan"}, "type": "electric_scooter", "lat": 38.90124766666667, "is_disabled": 0, "lon": -77.0305765, "is_reserved": 0}, {"name": "a46f038ea4be1a5e5f44bcf296eedccf", "fusion_lat": 0.0, "fusion_lon": 0.0, "bike_id": "a46f038ea4be1a5e5f44bcf296eedccf", "rental_uris": {"ios": "https://dc.lft.to/lastmile_qr_scan", "android": "https://dc.lft.to/lastmile_qr_scan"}, "type": "electric_scooter", "lat": 38.9142015, "is_disabled": 0, "lon": -77.0222505, "is_reserved": 0}, {"name": "0fa458d43abf2e2d9b172727cfdf6a17", "fusion_lat": 0.0, "fusion_lon": 0.0, "bike_id": "0fa458d43abf2e2d9b172727cfdf6a17", "rental_uris": {"ios": "https://dc.lft.to/lastmile_qr_scan", "android": "https://dc.lft.to/lastmile_qr_scan"}, "type": "electric_scooter", "lat": 38.907149833333335, "is_disabled": 0, "lon": -77.05134483333333, "is_reserved": 0}, {"name": "fe6e442e60f5b3c6473b73c6f40d840c", "fusion_lat": 0.0, "fusion_lon": 0.0, "bike_id": "fe6e442e60f5b3c6473b73c6f40d840c", "rental_uris": {"ios": "https://dc.lft.to/lastmile_qr_scan", "android": "https://dc.lft.to/lastmile_qr_scan"}, "type": "electric_scooter", "lat": 38.8939305, "is_disabled": 0, "lon": -76.94998366666667, "is_reserved": 0}, {"name": "7c51efb992abdb09bde9a6e23af88c74", "fusion_lat": 0.0, "fusion_lon": 0.0, "bike_id": "7c51efb992abdb09bde9a6e23af88c74", "rental_uris": {"ios": "https://dc.lft.to/lastmile_qr_scan", "android": "https://dc.lft.to/lastmile_qr_scan"}, "type": "electric_scooter", "lat": 38.92664416666667, "is_disabled": 0, "lon": -77.02304266666667, "is_reserved": 0}, {"name": "e726d2d1d1e40814bffd6afcb7ac10e2", "fusion_lat": 0.0, "fusion_lon": 0.0, "bike_id": "e726d2d1d1e40814bffd6afcb7ac10e2", "rental_uris": {"ios": "https://dc.lft.to/lastmile_qr_scan", "android": "https://dc.lft.to/lastmile_qr_scan"}, "type": "electric_scooter", "lat": 38.918352, "is_disabled": 0, "lon": -77.041772, "is_reserved": 0}, {"name": "7978e0c3b2d3c230bf0646053404d758", "fusion_lat": 0.0, "fusion_lon": 0.0, "bike_id": "7978e0c3b2d3c230bf0646053404d758", "rental_uris": {"ios": "https://dc.lft.to/lastmile_qr_scan", "android": "https://dc.lft.to/lastmile_qr_scan"}, "type": "electric_scooter", "lat": 38.9284885, "is_disabled": 0, "lon": -77.0141295, "is_reserved": 0}, {"name": "94fb3aea454f1231e95f908f1a36d10d", "fusion_lat": 0.0, "fusion_lon": 0.0, "bike_id": "94fb3aea454f1231e95f908f1a36d10d", "rental_uris": {"ios": "https://dc.lft.to/lastmile_qr_scan", "android": "https://dc.lft.to/lastmile_qr_scan"}, "type": "electric_scooter", "lat": 38.90394583333333, "is_disabled": 0, "lon": -77.05331833333334, "is_reserved": 0}, {"name": "9f523fe3e330086072e36b625dea6d30", "fusion_lat": 0.0, "fusion_lon": 0.0, "bike_id": "9f523fe3e330086072e36b625dea6d30", "rental_uris": {"ios": "https://dc.lft.to/lastmile_qr_scan", "android": "https://dc.lft.to/lastmile_qr_scan"}, "type": "electric_bike", "lat": 38.85434766666667, "is_disabled": 0, "lon": -76.90957716666666, "is_reserved": 0}, {"name": "80ca3b77a62ad3a8f28e2127e6599dc2", "fusion_lat": 0.0, "fusion_lon": 0.0, "bike_id": "80ca3b77a62ad3a8f28e2127e6599dc2", "rental_uris": {"ios": "https://dc.lft.to/lastmile_qr_scan", "android": "https://dc.lft.to/lastmile_qr_scan"}, "type": "electric_scooter", "lat": 38.8901395, "is_disabled": 0, "lon": -76.9374005, "is_reserved": 0}, {"name": "09597514aaae4a7e62a5d6dcb2a2bda2", "fusion_lat": 0.0, "fusion_lon": 0.0, "bike_id": "09597514aaae4a7e62a5d6dcb2a2bda2", "rental_uris": {"ios": "https://dc.lft.to/lastmile_qr_scan", "android": "https://dc.lft.to/lastmile_qr_scan"}, "type": "electric_scooter", "lat": 38.93023633333333, "is_disabled": 0, "lon": -77.03799866666667, "is_reserved": 0}, {"name": "e622af51e8465eda7509eaebae9db7fd", "fusion_lat": 0.0, "fusion_lon": 0.0, "bike_id": "e622af51e8465eda7509eaebae9db7fd", "rental_uris": {"ios": "https://dc.lft.to/lastmile_qr_scan", "android": "https://dc.lft.to/lastmile_qr_scan"}, "type": "electric_scooter", "lat": 38.907052166666666, "is_disabled": 0, "lon": -77.0440795, "is_reserved": 0}, {"name": "194f0d25016dfccf586ea919946ac24d", "fusion_lat": 0.0, "fusion_lon": 0.0, "bike_id": "194f0d25016dfccf586ea919946ac24d", "rental_uris": {"ios": "https://dc.lft.to/lastmile_qr_scan", "android": "https://dc.lft.to/lastmile_qr_scan"}, "type": "electric_bike", "lat": 38.952322333333335, "is_disabled": 0, "lon": -77.00268716666666, "is_reserved": 0}, {"name": "47a04cbbf5dbfd89dc55b8a57d149ce8", "fusion_lat": 0.0, "fusion_lon": 0.0, "bike_id": "47a04cbbf5dbfd89dc55b8a57d149ce8", "rental_uris": {"ios": "https://dc.lft.to/lastmile_qr_scan", "android": "https://dc.lft.to/lastmile_qr_scan"}, "type": "electric_scooter", "lat": 38.883466, "is_disabled": 0, "lon": -77.031873, "is_reserved": 0}, {"name": "d2a9545f48835fbc40e213fd71387e3c", "fusion_lat": 0.0, "fusion_lon": 0.0, "bike_id": "d2a9545f48835fbc40e213fd71387e3c", "rental_uris": {"ios": "https://dc.lft.to/lastmile_qr_scan", "android": "https://dc.lft.to/lastmile_qr_scan"}, "type": "electric_scooter", "lat": 38.91117633333333, "is_disabled": 0, "lon": -77.0409085, "is_reserved": 0}, {"name": "4ecffd58ef965cfc2b4b6c3f2466c0dd", "fusion_lat": 0.0, "fusion_lon": 0.0, "bike_id": "4ecffd58ef965cfc2b4b6c3f2466c0dd", "rental_uris": {"ios": "https://dc.lft.to/lastmile_qr_scan", "android": "https://dc.lft.to/lastmile_qr_scan"}, "type": "electric_scooter", "lat": 38.942013333333335, "is_disabled": 0, "lon": -77.025936, "is_reserved": 0}, {"name": "18dac3ccfe8c75edd70e36bb0f1cb943", "fusion_lat": 0.0, "fusion_lon": 0.0, "bike_id": "18dac3ccfe8c75edd70e36bb0f1cb943", "rental_uris": {"ios": "https://dc.lft.to/lastmile_qr_scan", "android": "https://dc.lft.to/lastmile_qr_scan"}, "type": "electric_bike", "lat": 38.910105, "is_disabled": 0, "lon": -76.98418683333334, "is_reserved": 0}, {"name": "a95b39d9f7ffc89a31c2c0dd5f143149", "fusion_lat": 0.0, "fusion_lon": 0.0, "bike_id": "a95b39d9f7ffc89a31c2c0dd5f143149", "rental_uris": {"ios": "https://dc.lft.to/lastmile_qr_scan", "android": "https://dc.lft.to/lastmile_qr_scan"}, "type": "electric_scooter", "lat": 38.902774666666666, "is_disabled": 0, "lon": -77.0021055, "is_reserved": 0}, {"name": "4bad563407d6ff9c9ee82b5a28ba707a", "fusion_lat": 0.0, "fusion_lon": 0.0, "bike_id": "4bad563407d6ff9c9ee82b5a28ba707a", "rental_uris": {"ios": "https://dc.lft.to/lastmile_qr_scan", "android": "https://dc.lft.to/lastmile_qr_scan"}, "type": "electric_scooter", "lat": 38.91318183333333, "is_disabled": 0, "lon": -76.98658516666667, "is_reserved": 0}, {"name": "cb667ab2144bbc6d70ef49b6c2f9a19a", "fusion_lat": 0.0, "fusion_lon": 0.0, "bike_id": "cb667ab2144bbc6d70ef49b6c2f9a19a", "rental_uris": {"ios": "https://dc.lft.to/lastmile_qr_scan", "android": "https://dc.lft.to/lastmile_qr_scan"}, "type": "electric_scooter", "lat": 38.89899616666667, "is_disabled": 0, "lon": -76.99345016666666, "is_reserved": 0}, {"name": "4e9f6a096e7925de98294a6ecd1467e8", "fusion_lat": 0.0, "fusion_lon": 0.0, "bike_id": "4e9f6a096e7925de98294a6ecd1467e8", "rental_uris": {"ios": "https://dc.lft.to/lastmile_qr_scan", "android": "https://dc.lft.to/lastmile_qr_scan"}, "type": "electric_scooter", "lat": 38.90460266666667, "is_disabled": 0, "lon": -77.02818966666666, "is_reserved": 0}, {"name": "2d65d86023cd99cece6d3b553fe9832d", "fusion_lat": 0.0, "fusion_lon": 0.0, "bike_id": "2d65d86023cd99cece6d3b553fe9832d", "rental_uris": {"ios": "https://dc.lft.to/lastmile_qr_scan", "android": "https://dc.lft.to/lastmile_qr_scan"}, "type": "electric_scooter", "lat": 38.91033266666667, "is_disabled": 0, "lon": -77.03205433333333, "is_reserved": 0}, {"name": "ff8f0f55e96971b20a50b931d236992d", "fusion_lat": 0.0, "fusion_lon": 0.0, "bike_id": "ff8f0f55e96971b20a50b931d236992d", "rental_uris": {"ios": "https://dc.lft.to/lastmile_qr_scan", "android": "https://dc.lft.to/lastmile_qr_scan"}, "type": "electric_scooter", "lat": 38.918404833333334, "is_disabled": 0, "lon": -77.03532583333333, "is_reserved": 0}, {"name": "84367af1726743255d2d4ffb70da9b41", "fusion_lat": 0.0, "fusion_lon": 0.0, "bike_id": "84367af1726743255d2d4ffb70da9b41", "rental_uris": {"ios": "https://dc.lft.to/lastmile_qr_scan", "android": "https://dc.lft.to/lastmile_qr_scan"}, "type": "electric_scooter", "lat": 38.9175775, "is_disabled": 0, "lon": -77.03420416666667, "is_reserved": 0}, {"name": "8d29c750e1e6e36c8bf12b5161ef4b92", "fusion_lat": 0.0, "fusion_lon": 0.0, "bike_id": "8d29c750e1e6e36c8bf12b5161ef4b92", "rental_uris": {"ios": "https://dc.lft.to/lastmile_qr_scan", "android": "https://dc.lft.to/lastmile_qr_scan"}, "type": "electric_scooter", "lat": 38.90963816666667, "is_disabled": 0, "lon": -77.03091816666667, "is_reserved": 0}, {"name": "28b8ed9e7d7f1aa67dda869493d554e4", "fusion_lat": 0.0, "fusion_lon": 0.0, "bike_id": "28b8ed9e7d7f1aa67dda869493d554e4", "rental_uris": {"ios": "https://dc.lft.to/lastmile_qr_scan", "android": "https://dc.lft.to/lastmile_qr_scan"}, "type": "electric_scooter", "lat": 38.910375333333334, "is_disabled": 0, "lon": -77.04010866666667, "is_reserved": 0}, {"name": "6fae469e629cf62d377d664e40c701ac", "fusion_lat": 0.0, "fusion_lon": 0.0, "bike_id": "6fae469e629cf62d377d664e40c701ac", "rental_uris": {"ios": "https://dc.lft.to/lastmile_qr_scan", "android": "https://dc.lft.to/lastmile_qr_scan"}, "type": "electric_scooter", "lat": 38.858066, "is_disabled": 0, "lon": -76.9865545, "is_reserved": 0}, {"name": "35f5bb5fccc5ac9c683d1cd74819430c", "fusion_lat": 0.0, "fusion_lon": 0.0, "bike_id": "35f5bb5fccc5ac9c683d1cd74819430c", "rental_uris": {"ios": "https://dc.lft.to/lastmile_qr_scan", "android": "https://dc.lft.to/lastmile_qr_scan"}, "type": "electric_scooter", "lat": 38.92857716666666, "is_disabled": 0, "lon": -77.036095, "is_reserved": 0}, {"name": "288a77e75d8e0d7ba4ec75e3bcc3ee87", "fusion_lat": 0.0, "fusion_lon": 0.0, "bike_id": "288a77e75d8e0d7ba4ec75e3bcc3ee87", "rental_uris": {"ios": "https://dc.lft.to/lastmile_qr_scan", "android": "https://dc.lft.to/lastmile_qr_scan"}, "type": "electric_scooter", "lat": 38.91404266666667, "is_disabled": 0, "lon": -77.01410316666667, "is_reserved": 0}, {"name": "08db9d5efb91ac30fa39ef170c2cbb46", "fusion_lat": 0.0, "fusion_lon": 0.0, "bike_id": "08db9d5efb91ac30fa39ef170c2cbb46", "rental_uris": {"ios": "https://dc.lft.to/lastmile_qr_scan", "android": "https://dc.lft.to/lastmile_qr_scan"}, "type": "electric_scooter", "lat": 38.88392866666667, "is_disabled": 0, "lon": -77.01974033333333, "is_reserved": 0}, {"name": "a3f82b068376401a913be8d319e809ca", "fusion_lat": 0.0, "fusion_lon": 0.0, "bike_id": "a3f82b068376401a913be8d319e809ca", "rental_uris": {"ios": "https://dc.lft.to/lastmile_qr_scan", "android": "https://dc.lft.to/lastmile_qr_scan"}, "type": "electric_scooter", "lat": 38.904872833333336, "is_disabled": 0, "lon": -77.05808983333333, "is_reserved": 0}, {"name": "10801588d243cbafd96d78d95b021610", "fusion_lat": 0.0, "fusion_lon": 0.0, "bike_id": "10801588d243cbafd96d78d95b021610", "rental_uris": {"ios": "https://dc.lft.to/lastmile_qr_scan", "android": "https://dc.lft.to/lastmile_qr_scan"}, "type": "electric_scooter", "lat": 38.9191645, "is_disabled": 0, "lon": -77.04185, "is_reserved": 0}, {"name": "110f974852e2e7afe74f95e1160f9649", "fusion_lat": 0.0, "fusion_lon": 0.0, "bike_id": "110f974852e2e7afe74f95e1160f9649", "rental_uris": {"ios": "https://dc.lft.to/lastmile_qr_scan", "android": "https://dc.lft.to/lastmile_qr_scan"}, "type": "electric_scooter", "lat": 38.92879633333333, "is_disabled": 0, "lon": -77.013678, "is_reserved": 0}, {"name": "f7c2df3191c220851e010ca2b3e7aff2", "fusion_lat": 0.0, "fusion_lon": 0.0, "bike_id": "f7c2df3191c220851e010ca2b3e7aff2", "rental_uris": {"ios": "https://dc.lft.to/lastmile_qr_scan", "android": "https://dc.lft.to/lastmile_qr_scan"}, "type": "electric_scooter", "lat": 38.8874335, "is_disabled": 0, "lon": -77.01537083333334, "is_reserved": 0}, {"name": "303b08eba57622cc3ba496ca6ba98dc4", "fusion_lat": 0.0, "fusion_lon": 0.0, "bike_id": "303b08eba57622cc3ba496ca6ba98dc4", "rental_uris": {"ios": "https://dc.lft.to/lastmile_qr_scan", "android": "https://dc.lft.to/lastmile_qr_scan"}, "type": "electric_scooter", "lat": 38.8868415, "is_disabled": 0, "lon": -77.00357433333333, "is_reserved": 0}, {"name": "7566ce65618d1fab115d565daf1579aa", "fusion_lat": 0.0, "fusion_lon": 0.0, "bike_id": "7566ce65618d1fab115d565daf1579aa", "rental_uris": {"ios": "https://dc.lft.to/lastmile_qr_scan", "android": "https://dc.lft.to/lastmile_qr_scan"}, "type": "electric_scooter", "lat": 38.88642333333333, "is_disabled": 0, "lon": -77.01380683333333, "is_reserved": 0}, {"name": "a72e50c494cb020b10effec1662df08b", "fusion_lat": 0.0, "fusion_lon": 0.0, "bike_id": "a72e50c494cb020b10effec1662df08b", "rental_uris": {"ios": "https://dc.lft.to/lastmile_qr_scan", "android": "https://dc.lft.to/lastmile_qr_scan"}, "type": "electric_scooter", "lat": 38.90523016666667, "is_disabled": 0, "lon": -77.04995733333334, "is_reserved": 0}, {"name": "5a787095bf5a0a1a9813d1416c095bac", "fusion_lat": 0.0, "fusion_lon": 0.0, "bike_id": "5a787095bf5a0a1a9813d1416c095bac", "rental_uris": {"ios": "https://dc.lft.to/lastmile_qr_scan", "android": "https://dc.lft.to/lastmile_qr_scan"}, "type": "electric_bike", "lat": 39.05204966666667, "is_disabled": 0, "lon": -77.044065, "is_reserved": 0}, {"name": "d03c2c73efb68c560632ecce4f4f8f1b", "fusion_lat": 0.0, "fusion_lon": 0.0, "bike_id": "d03c2c73efb68c560632ecce4f4f8f1b", "rental_uris": {"ios": "https://dc.lft.to/lastmile_qr_scan", "android": "https://dc.lft.to/lastmile_qr_scan"}, "type": "electric_scooter", "lat": 38.9124905, "is_disabled": 0, "lon": -77.044308, "is_reserved": 0}, {"name": "f963931a980f04edf8da02e3adabb853", "fusion_lat": 0.0, "fusion_lon": 0.0, "bike_id": "f963931a980f04edf8da02e3adabb853", "rental_uris": {"ios": "https://dc.lft.to/lastmile_qr_scan", "android": "https://dc.lft.to/lastmile_qr_scan"}, "type": "electric_scooter", "lat": 38.909823333333335, "is_disabled": 0, "lon": -77.0091985, "is_reserved": 0}, {"name": "82264bf61827e8ba340a196152d82f5f", "fusion_lat": 0.0, "fusion_lon": 0.0, "bike_id": "82264bf61827e8ba340a196152d82f5f", "rental_uris": {"ios": "https://dc.lft.to/lastmile_qr_scan", "android": "https://dc.lft.to/lastmile_qr_scan"}, "type": "electric_scooter", "lat": 38.916600833333334, "is_disabled": 0, "lon": -77.04654733333334, "is_reserved": 0}, {"name": "7dfff808d0464cdf088e646eabb3d489", "fusion_lat": 0.0, "fusion_lon": 0.0, "bike_id": "7dfff808d0464cdf088e646eabb3d489", "rental_uris": {"ios": "https://dc.lft.to/lastmile_qr_scan", "android": "https://dc.lft.to/lastmile_qr_scan"}, "type": "electric_scooter", "lat": 38.916565, "is_disabled": 0, "lon": -77.02968416666667, "is_reserved": 0}, {"name": "056cdab8766e06ab297d7950e8a1e0a8", "fusion_lat": 0.0, "fusion_lon": 0.0, "bike_id": "056cdab8766e06ab297d7950e8a1e0a8", "rental_uris": {"ios": "https://dc.lft.to/lastmile_qr_scan", "android": "https://dc.lft.to/lastmile_qr_scan"}, "type": "electric_bike", "lat": 38.897345333333334, "is_disabled": 0, "lon": -76.90542416666666, "is_reserved": 0}, {"name": "7623c604a0a8c5adf2830047f1ac9c1d", "fusion_lat": 0.0, "fusion_lon": 0.0, "bike_id": "7623c604a0a8c5adf2830047f1ac9c1d", "rental_uris": {"ios": "https://dc.lft.to/lastmile_qr_scan", "android": "https://dc.lft.to/lastmile_qr_scan"}, "type": "electric_scooter", "lat": 38.93964416666667, "is_disabled": 0, "lon": -77.02770966666667, "is_reserved": 0}, {"name": "f7b7b008f297ab6173548129a58fbbee", "fusion_lat": 0.0, "fusion_lon": 0.0, "bike_id": "f7b7b008f297ab6173548129a58fbbee", "rental_uris": {"ios": "https://dc.lft.to/lastmile_qr_scan", "android": "https://dc.lft.to/lastmile_qr_scan"}, "type": "electric_scooter", "lat": 38.90844216666667, "is_disabled": 0, "lon": -77.012477, "is_reserved": 0}, {"name": "f2207367d6dc877034fbd01fb2b6d7b9", "fusion_lat": 0.0, "fusion_lon": 0.0, "bike_id": "f2207367d6dc877034fbd01fb2b6d7b9", "rental_uris": {"ios": "https://dc.lft.to/lastmile_qr_scan", "android": "https://dc.lft.to/lastmile_qr_scan"}, "type": "electric_scooter", "lat": 38.86506333333333, "is_disabled": 0, "lon": -76.99003883333333, "is_reserved": 0}, {"name": "0649e2650c1c0f3a8da97b438c21c395", "fusion_lat": 0.0, "fusion_lon": 0.0, "bike_id": "0649e2650c1c0f3a8da97b438c21c395", "rental_uris": {"ios": "https://dc.lft.to/lastmile_qr_scan", "android": "https://dc.lft.to/lastmile_qr_scan"}, "type": "electric_scooter", "lat": 38.89557116666667, "is_disabled": 0, "lon": -77.00915783333333, "is_reserved": 0}, {"name": "9f8e2e8822d7b0f8f3a5b656778d8977", "fusion_lat": 0.0, "fusion_lon": 0.0, "bike_id": "9f8e2e8822d7b0f8f3a5b656778d8977", "rental_uris": {"ios": "https://dc.lft.to/lastmile_qr_scan", "android": "https://dc.lft.to/lastmile_qr_scan"}, "type": "electric_scooter", "lat": 38.876305, "is_disabled": 0, "lon": -76.9652595, "is_reserved": 0}, {"name": "dc0f29ee4fe01901c951c87a0865d47b", "fusion_lat": 0.0, "fusion_lon": 0.0, "bike_id": "dc0f29ee4fe01901c951c87a0865d47b", "rental_uris": {"ios": "https://dc.lft.to/lastmile_qr_scan", "android": "https://dc.lft.to/lastmile_qr_scan"}, "type": "electric_scooter", "lat": 38.88644466666667, "is_disabled": 0, "lon": -77.02255433333333, "is_reserved": 0}, {"name": "6fe8a51cb1461dc102f7568bf872c79b", "fusion_lat": 0.0, "fusion_lon": 0.0, "bike_id": "6fe8a51cb1461dc102f7568bf872c79b", "rental_uris": {"ios": "https://dc.lft.to/lastmile_qr_scan", "android": "https://dc.lft.to/lastmile_qr_scan"}, "type": "electric_scooter", "lat": 38.922668333333334, "is_disabled": 0, "lon": -77.02852933333334, "is_reserved": 0}, {"name": "0929263e1852a5e9296a7d5e2631548c", "fusion_lat": 0.0, "fusion_lon": 0.0, "bike_id": "0929263e1852a5e9296a7d5e2631548c", "rental_uris": {"ios": "https://dc.lft.to/lastmile_qr_scan", "android": "https://dc.lft.to/lastmile_qr_scan"}, "type": "electric_scooter", "lat": 38.9103625, "is_disabled": 0, "lon": -77.03835283333333, "is_reserved": 0}, {"name": "12e15d4d41bb057308580421392c8cfb", "fusion_lat": 0.0, "fusion_lon": 0.0, "bike_id": "12e15d4d41bb057308580421392c8cfb", "rental_uris": {"ios": "https://dc.lft.to/lastmile_qr_scan", "android": "https://dc.lft.to/lastmile_qr_scan"}, "type": "electric_scooter", "lat": 38.899123333333335, "is_disabled": 0, "lon": -76.93371966666666, "is_reserved": 0}, {"name": "1b3a945951e0bc524325b8a8c16ccc92", "fusion_lat": 0.0, "fusion_lon": 0.0, "bike_id": "1b3a945951e0bc524325b8a8c16ccc92", "rental_uris": {"ios": "https://dc.lft.to/lastmile_qr_scan", "android": "https://dc.lft.to/lastmile_qr_scan"}, "type": "electric_scooter", "lat": 38.87171883333333, "is_disabled": 0, "lon": -77.00625266666667, "is_reserved": 0}, {"name": "1c73a2947f7b33d97d9048e47801e734", "fusion_lat": 0.0, "fusion_lon": 0.0, "bike_id": "1c73a2947f7b33d97d9048e47801e734", "rental_uris": {"ios": "https://dc.lft.to/lastmile_qr_scan", "android": "https://dc.lft.to/lastmile_qr_scan"}, "type": "electric_scooter", "lat": 38.91671766666666, "is_disabled": 0, "lon": -77.02957083333334, "is_reserved": 0}, {"name": "ac099cc890a0aceb7f8e184df7fbd101", "fusion_lat": 0.0, "fusion_lon": 0.0, "bike_id": "ac099cc890a0aceb7f8e184df7fbd101", "rental_uris": {"ios": "https://dc.lft.to/lastmile_qr_scan", "android": "https://dc.lft.to/lastmile_qr_scan"}, "type": "electric_scooter", "lat": 38.86697783333334, "is_disabled": 0, "lon": -76.98714183333334, "is_reserved": 0}, {"name": "d55306ef29b3ca352e1d0c7087b089cc", "fusion_lat": 0.0, "fusion_lon": 0.0, "bike_id": "d55306ef29b3ca352e1d0c7087b089cc", "rental_uris": {"ios": "https://dc.lft.to/lastmile_qr_scan", "android": "https://dc.lft.to/lastmile_qr_scan"}, "type": "electric_scooter", "lat": 38.893208333333334, "is_disabled": 0, "lon": -77.05034, "is_reserved": 0}, {"name": "9ee344f88e6b5ad04fb8f07dbfae31d6", "fusion_lat": 0.0, "fusion_lon": 0.0, "bike_id": "9ee344f88e6b5ad04fb8f07dbfae31d6", "rental_uris": {"ios": "https://dc.lft.to/lastmile_qr_scan", "android": "https://dc.lft.to/lastmile_qr_scan"}, "type": "electric_scooter", "lat": 38.919925666666664, "is_disabled": 0, "lon": -77.03311466666666, "is_reserved": 0}, {"name": "104cc335baa86079ffa6169cc7d276bf", "fusion_lat": 0.0, "fusion_lon": 0.0, "bike_id": "104cc335baa86079ffa6169cc7d276bf", "rental_uris": {"ios": "https://dc.lft.to/lastmile_qr_scan", "android": "https://dc.lft.to/lastmile_qr_scan"}, "type": "electric_scooter", "lat": 38.949568166666666, "is_disabled": 0, "lon": -77.06668133333334, "is_reserved": 0}, {"name": "dd08cd796387edde2fe14b11c53411bd", "fusion_lat": 0.0, "fusion_lon": 0.0, "bike_id": "dd08cd796387edde2fe14b11c53411bd", "rental_uris": {"ios": "https://dc.lft.to/lastmile_qr_scan", "android": "https://dc.lft.to/lastmile_qr_scan"}, "type": "electric_bike", "lat": 38.88472133333333, "is_disabled": 0, "lon": -77.096879, "is_reserved": 0}, {"name": "a6dd078d26280a9c54d2b2f0323fdd77", "fusion_lat": 0.0, "fusion_lon": 0.0, "bike_id": "a6dd078d26280a9c54d2b2f0323fdd77", "rental_uris": {"ios": "https://dc.lft.to/lastmile_qr_scan", "android": "https://dc.lft.to/lastmile_qr_scan"}, "type": "electric_scooter", "lat": 38.904121833333335, "is_disabled": 0, "lon": -77.02997566666667, "is_reserved": 0}, {"name": "406678751351005c75bd7d6b0cf1d9ea", "fusion_lat": 0.0, "fusion_lon": 0.0, "bike_id": "406678751351005c75bd7d6b0cf1d9ea", "rental_uris": {"ios": "https://dc.lft.to/lastmile_qr_scan", "android": "https://dc.lft.to/lastmile_qr_scan"}, "type": "electric_scooter", "lat": 38.88739783333333, "is_disabled": 0, "lon": -77.02211383333334, "is_reserved": 0}, {"name": "11f58e2467fdeee521a1576193ef941d", "fusion_lat": 0.0, "fusion_lon": 0.0, "bike_id": "11f58e2467fdeee521a1576193ef941d", "rental_uris": {"ios": "https://dc.lft.to/lastmile_qr_scan", "android": "https://dc.lft.to/lastmile_qr_scan"}, "type": "electric_scooter", "lat": 38.898445333333335, "is_disabled": 0, "lon": -76.93150283333334, "is_reserved": 0}, {"name": "81277aba0e59017c6a4369609af6890c", "fusion_lat": 0.0, "fusion_lon": 0.0, "bike_id": "81277aba0e59017c6a4369609af6890c", "rental_uris": {"ios": "https://dc.lft.to/lastmile_qr_scan", "android": "https://dc.lft.to/lastmile_qr_scan"}, "type": "electric_scooter", "lat": 38.89816033333334, "is_disabled": 0, "lon": -77.0293705, "is_reserved": 0}, {"name": "bbab9b4926eef31dfbc59bb7385847c4", "fusion_lat": 0.0, "fusion_lon": 0.0, "bike_id": "bbab9b4926eef31dfbc59bb7385847c4", "rental_uris": {"ios": "https://dc.lft.to/lastmile_qr_scan", "android": "https://dc.lft.to/lastmile_qr_scan"}, "type": "electric_scooter", "lat": 38.86713566666667, "is_disabled": 0, "lon": -76.98731916666667, "is_reserved": 0}, {"name": "75946fcd0a4595e0c3faac6a743328f2", "fusion_lat": 0.0, "fusion_lon": 0.0, "bike_id": "75946fcd0a4595e0c3faac6a743328f2", "rental_uris": {"ios": "https://dc.lft.to/lastmile_qr_scan", "android": "https://dc.lft.to/lastmile_qr_scan"}, "type": "electric_scooter", "lat": 38.922668333333334, "is_disabled": 0, "lon": -77.0411745, "is_reserved": 0}, {"name": "848e20a88d5a9658dd2db61aa2167368", "fusion_lat": 0.0, "fusion_lon": 0.0, "bike_id": "848e20a88d5a9658dd2db61aa2167368", "rental_uris": {"ios": "https://dc.lft.to/lastmile_qr_scan", "android": "https://dc.lft.to/lastmile_qr_scan"}, "type": "electric_scooter", "lat": 38.93875766666667, "is_disabled": 0, "lon": -77.02508316666666, "is_reserved": 0}, {"name": "12a612c5f3218b95bf92a8d16544e6b2", "fusion_lat": 0.0, "fusion_lon": 0.0, "bike_id": "12a612c5f3218b95bf92a8d16544e6b2", "rental_uris": {"ios": "https://dc.lft.to/lastmile_qr_scan", "android": "https://dc.lft.to/lastmile_qr_scan"}, "type": "electric_scooter", "lat": 38.91637466666667, "is_disabled": 0, "lon": -77.02238516666667, "is_reserved": 0}, {"name": "db2e464cef52c202ed63015f8e445a7a", "fusion_lat": 0.0, "fusion_lon": 0.0, "bike_id": "db2e464cef52c202ed63015f8e445a7a", "rental_uris": {"ios": "https://dc.lft.to/lastmile_qr_scan", "android": "https://dc.lft.to/lastmile_qr_scan"}, "type": "electric_scooter", "lat": 38.876372, "is_disabled": 0, "lon": -77.01643566666667, "is_reserved": 0}, {"name": "e7f76433a787dff58d810edcee825a2b", "fusion_lat": 0.0, "fusion_lon": 0.0, "bike_id": "e7f76433a787dff58d810edcee825a2b", "rental_uris": {"ios": "https://dc.lft.to/lastmile_qr_scan", "android": "https://dc.lft.to/lastmile_qr_scan"}, "type": "electric_scooter", "lat": 38.923889, "is_disabled": 0, "lon": -77.04075333333333, "is_reserved": 0}, {"name": "646595ee27034e2c02103423dd7d0426", "fusion_lat": 0.0, "fusion_lon": 0.0, "bike_id": "646595ee27034e2c02103423dd7d0426", "rental_uris": {"ios": "https://dc.lft.to/lastmile_qr_scan", "android": "https://dc.lft.to/lastmile_qr_scan"}, "type": "electric_scooter", "lat": 38.88507633333333, "is_disabled": 0, "lon": -77.0056675, "is_reserved": 0}, {"name": "12853724454c88eb8cd808248e5dd583", "fusion_lat": 0.0, "fusion_lon": 0.0, "bike_id": "12853724454c88eb8cd808248e5dd583", "rental_uris": {"ios": "https://dc.lft.to/lastmile_qr_scan", "android": "https://dc.lft.to/lastmile_qr_scan"}, "type": "electric_scooter", "lat": 38.9191465, "is_disabled": 0, "lon": -77.03391483333333, "is_reserved": 0}, {"name": "ea004a48d054d67cb87e7d8a88d1cd27", "fusion_lat": 0.0, "fusion_lon": 0.0, "bike_id": "ea004a48d054d67cb87e7d8a88d1cd27", "rental_uris": {"ios": "https://dc.lft.to/lastmile_qr_scan", "android": "https://dc.lft.to/lastmile_qr_scan"}, "type": "electric_scooter", "lat": 38.92845483333333, "is_disabled": 0, "lon": -77.032682, "is_reserved": 0}, {"name": "abc9722101d08e2bd35a846f5feaa25c", "fusion_lat": 0.0, "fusion_lon": 0.0, "bike_id": "abc9722101d08e2bd35a846f5feaa25c", "rental_uris": {"ios": "https://dc.lft.to/lastmile_qr_scan", "android": "https://dc.lft.to/lastmile_qr_scan"}, "type": "electric_scooter", "lat": 38.90533516666667, "is_disabled": 0, "lon": -77.06008383333334, "is_reserved": 0}, {"name": "53481c0e6f0f4e2c012c7b8e335331fa", "fusion_lat": 0.0, "fusion_lon": 0.0, "bike_id": "53481c0e6f0f4e2c012c7b8e335331fa", "rental_uris": {"ios": "https://dc.lft.to/lastmile_qr_scan", "android": "https://dc.lft.to/lastmile_qr_scan"}, "type": "electric_scooter", "lat": 38.92158966666667, "is_disabled": 0, "lon": -77.03459033333333, "is_reserved": 0}, {"name": "20da8eef51164712371738c637958f9f", "fusion_lat": 0.0, "fusion_lon": 0.0, "bike_id": "20da8eef51164712371738c637958f9f", "rental_uris": {"ios": "https://dc.lft.to/lastmile_qr_scan", "android": "https://dc.lft.to/lastmile_qr_scan"}, "type": "electric_scooter", "lat": 38.885661, "is_disabled": 0, "lon": -76.99807583333333, "is_reserved": 0}, {"name": "b042fb4934cc7119f0236250c27871a0", "fusion_lat": 0.0, "fusion_lon": 0.0, "bike_id": "b042fb4934cc7119f0236250c27871a0", "rental_uris": {"ios": "https://dc.lft.to/lastmile_qr_scan", "android": "https://dc.lft.to/lastmile_qr_scan"}, "type": "electric_scooter", "lat": 38.8956095, "is_disabled": 0, "lon": -77.02294433333333, "is_reserved": 0}, {"name": "ca60405193cd8cb994a28074942e26eb", "fusion_lat": 0.0, "fusion_lon": 0.0, "bike_id": "ca60405193cd8cb994a28074942e26eb", "rental_uris": {"ios": "https://dc.lft.to/lastmile_qr_scan", "android": "https://dc.lft.to/lastmile_qr_scan"}, "type": "electric_scooter", "lat": 38.956329833333335, "is_disabled": 0, "lon": -77.03629433333333, "is_reserved": 0}, {"name": "6a408b240f5ce2af6c9443966f5134ae", "fusion_lat": 0.0, "fusion_lon": 0.0, "bike_id": "6a408b240f5ce2af6c9443966f5134ae", "rental_uris": {"ios": "https://dc.lft.to/lastmile_qr_scan", "android": "https://dc.lft.to/lastmile_qr_scan"}, "type": "electric_scooter", "lat": 38.9041855, "is_disabled": 0, "lon": -77.02936833333334, "is_reserved": 0}, {"name": "1d87c31c7fefb28f39f67500f396284c", "fusion_lat": 0.0, "fusion_lon": 0.0, "bike_id": "1d87c31c7fefb28f39f67500f396284c", "rental_uris": {"ios": "https://dc.lft.to/lastmile_qr_scan", "android": "https://dc.lft.to/lastmile_qr_scan"}, "type": "electric_scooter", "lat": 38.89709633333333, "is_disabled": 0, "lon": -76.94711283333334, "is_reserved": 0}, {"name": "6d762db56bf34b908cdad9c4b0d9ce91", "fusion_lat": 0.0, "fusion_lon": 0.0, "bike_id": "6d762db56bf34b908cdad9c4b0d9ce91", "rental_uris": {"ios": "https://dc.lft.to/lastmile_qr_scan", "android": "https://dc.lft.to/lastmile_qr_scan"}, "type": "electric_scooter", "lat": 38.906972, "is_disabled": 0, "lon": -77.03541116666666, "is_reserved": 0}, {"name": "96f82acc969fa9237abacaace31a4f58", "fusion_lat": 0.0, "fusion_lon": 0.0, "bike_id": "96f82acc969fa9237abacaace31a4f58", "rental_uris": {"ios": "https://dc.lft.to/lastmile_qr_scan", "android": "https://dc.lft.to/lastmile_qr_scan"}, "type": "electric_scooter", "lat": 38.88980933333333, "is_disabled": 0, "lon": -76.9920715, "is_reserved": 0}, {"name": "fff4bfd9d99d5a4b1874fb2c75d646c4", "fusion_lat": 0.0, "fusion_lon": 0.0, "bike_id": "fff4bfd9d99d5a4b1874fb2c75d646c4", "rental_uris": {"ios": "https://dc.lft.to/lastmile_qr_scan", "android": "https://dc.lft.to/lastmile_qr_scan"}, "type": "electric_scooter", "lat": 38.879611833333335, "is_disabled": 0, "lon": -76.987425, "is_reserved": 0}, {"name": "da06877c8be255c7892dee6328610769", "fusion_lat": 0.0, "fusion_lon": 0.0, "bike_id": "da06877c8be255c7892dee6328610769", "rental_uris": {"ios": "https://dc.lft.to/lastmile_qr_scan", "android": "https://dc.lft.to/lastmile_qr_scan"}, "type": "electric_scooter", "lat": 38.92109816666667, "is_disabled": 0, "lon": -77.04223066666667, "is_reserved": 0}, {"name": "fba472fb3f743d650adfae635c9b537d", "fusion_lat": 0.0, "fusion_lon": 0.0, "bike_id": "fba472fb3f743d650adfae635c9b537d", "rental_uris": {"ios": "https://dc.lft.to/lastmile_qr_scan", "android": "https://dc.lft.to/lastmile_qr_scan"}, "type": "electric_scooter", "lat": 38.881439666666665, "is_disabled": 0, "lon": -76.9916035, "is_reserved": 0}, {"name": "7b6bdf8528e88053858b7d755a71e1d3", "fusion_lat": 0.0, "fusion_lon": 0.0, "bike_id": "7b6bdf8528e88053858b7d755a71e1d3", "rental_uris": {"ios": "https://dc.lft.to/lastmile_qr_scan", "android": "https://dc.lft.to/lastmile_qr_scan"}, "type": "electric_scooter", "lat": 38.900970666666666, "is_disabled": 0, "lon": -77.0315915, "is_reserved": 0}, {"name": "3d1880d06e3acf6db9ecf6c0890ce9e7", "fusion_lat": 0.0, "fusion_lon": 0.0, "bike_id": "3d1880d06e3acf6db9ecf6c0890ce9e7", "rental_uris": {"ios": "https://dc.lft.to/lastmile_qr_scan", "android": "https://dc.lft.to/lastmile_qr_scan"}, "type": "electric_scooter", "lat": 38.88769966666667, "is_disabled": 0, "lon": -77.0154285, "is_reserved": 0},