{"data": {"bikes": [{"is_reserved": 0, "fusion_lon": 0.0, "fusion_lat": 0.0, "name": "4987f96182e653c01b880da25776d379", "type": "electric_scooter", "is_disabled": 0, "lat": 38.922005166666665, "rental_uris": {"android": "https://dc.lft.to/lastmile_qr_scan", "ios": "https://dc.lft.to/lastmile_qr_scan"}, "bike_id": "4987f96182e653c01b880da25776d379", "lon": -77.04136316666667}, {"is_reserved": 0, "fusion_lon": 0.0, "fusion_lat": 0.0, "name": "bec3afcb023f58c59f3d60b86f59b837", "type": "electric_scooter", "is_disabled": 0, "lat": 38.936666, "rental_uris": {"android": "https://dc.lft.to/lastmile_qr_scan", "ios": "https://dc.lft.to/lastmile_qr_scan"}, "bike_id": "bec3afcb023f58c59f3d60b86f59b837", "lon": -77.03421316666666}, {"is_reserved": 0, "fusion_lon": 0.0, "fusion_lat": 0.0, "name": "641a7b59a58d1446849999559e0f0ce1", "type": "electric_scooter", "is_disabled": 0, "lat": 38.94221683333333, "rental_uris": {"android": "https://dc.lft.to/lastmile_qr_scan", "ios": "https://dc.lft.to/lastmile_qr_scan"}, "bike_id": "641a7b59a58d1446849999559e0f0ce1", "lon": -77.025007}, {"is_reserved": 0, "fusion_lon": 0.0, "fusion_lat": 0.0, "name": "ee91ead245b75e37cc016eebb8b9e09f", "type": "electric_scooter", "is_disabled": 0, "lat": 38.9110135, "rental_uris": {"android": "https://dc.lft.to/lastmile_qr_scan", "ios": "https://dc.lft.to/lastmile_qr_scan"}, "bike_id": "ee91ead245b75e37cc016eebb8b9e09f", "lon": -77.019816}, {"is_reserved": 0, "fusion_lon": 0.0, "fusion_lat": 0.0, "name": "36e924bb3e863ea9e63ead0eaae7e29d", "type": "electric_bike", "is_disabled": 0, "lat": 38.9118405, "rental_uris": {"android": "https://dc.lft.to/lastmile_qr_scan", "ios": "https://dc.lft.to/lastmile_qr_scan"}, "bike_id": "36e924bb3e863ea9e63ead0eaae7e29d", "lon": -77.22294933333333}, {"is_reserved": 0, "fusion_lon": 0.0, "fusion_lat": 0.0, "name": "b25d4f320348676a9849e32c2f420257", "type": "electric_scooter", "is_disabled": 0, "lat": 38.914188833333334, "rental_uris": {"android": "https://dc.lft.to/lastmile_qr_scan", "ios": "https://dc.lft.to/lastmile_qr_scan"}, "bike_id": "b25d4f320348676a9849e32c2f420257", "lon": -77.02959133333333}, {"is_reserved": 0, "fusion_lon": 0.0, "fusion_lat": 0.0, "name": "c1dbf944bb7768d39e99ea3caa7d4c1e", "type": "electric_scooter", "is_disabled": 0, "lat": 38.90672933333333, "rental_uris": {"android": "https://dc.lft.to/lastmile_qr_scan", "ios": "https://dc.lft.to/lastmile_qr_scan"}, "bike_id": "c1dbf944bb7768d39e99ea3caa7d4c1e", "lon": -77.03844}, {"is_reserved": 0, "fusion_lon": 0.0, "fusion_lat": 0.0, "name": "c611eca0bd4a9ccfad3fe144d7403872", "type": "electric_scooter", "is_disabled": 0, "lat": 38.91341933333333, "rental_uris": {"android": "https://dc.lft.to/lastmile_qr_scan", "ios": "https://dc.lft.to/lastmile_qr_scan"}, "bike_id": "c611eca0bd4a9ccfad3fe144d7403872", "lon": -77.02757783333334}, {"is_reserved": 0, "fusion_lon": 0.0, "fusion_lat": 0.0, "name": "44a03aa663386d0e20bd91ae7be5f16e", "type": "electric_scooter", "is_disabled": 0, "lat": 38.8716575, "rental_uris": {"android": "https://dc.lft.to/lastmile_qr_scan", "ios": "https://dc.lft.to/lastmile_qr_scan"}, "bike_id": "44a03aa663386d0e20bd91ae7be5f16e", "lon": -76.9774945}, {"is_reserved": 0, "fusion_lon": 0.0, "fusion_lat": 0.0, "name": "1149b8a6a98c10b20e3c85ba49ea77ac", "type": "electric_scooter", "is_disabled": 0, "lat": 38.92169716666667, "rental_uris": {"android": "https://dc.lft.to/lastmile_qr_scan", "ios": "https://dc.lft.to/lastmile_qr_scan"}, "bike_id": "1149b8a6a98c10b20e3c85ba49ea77ac", "lon": -77.03209483333333}, {"is_reserved": 0, "fusion_lon": 0.0, "fusion_lat": 0.0, "name": "d546c7bd5eeefb38699ee3046ece1505", "type": "electric_scooter", "is_disabled": 0, "lat": 38.9089705, "rental_uris": {"android": "https://dc.lft.to/lastmile_qr_scan", "ios": "https://dc.lft.to/lastmile_qr_scan"}, "bike_id": "d546c7bd5eeefb38699ee3046ece1505", "lon": -76.99859383333333}, {"is_reserved": 0, "fusion_lon": 0.0, "fusion_lat": 0.0, "name": "1126630f290f951fa4e3eb0cd1a1b591", "type": "electric_scooter", "is_disabled": 0, "lat": 38.92329933333333, "rental_uris": {"android": "https://dc.lft.to/lastmile_qr_scan", "ios": "https://dc.lft.to/lastmile_qr_scan"}, "bike_id": "1126630f290f951fa4e3eb0cd1a1b591", "lon": -77.0354485}, {"is_reserved": 0, "fusion_lon": 0.0, "fusion_lat": 0.0, "name": "73903ab7f271a8412a5d837ea998b221", "type": "electric_scooter", "is_disabled": 0, "lat": 38.99610033333333, "rental_uris": {"android": "https://dc.lft.to/lastmile_qr_scan", "ios": "https://dc.lft.to/lastmile_qr_scan"}, "bike_id": "73903ab7f271a8412a5d837ea998b221", "lon": -77.03221883333333}, {"is_reserved": 0, "fusion_lon": 0.0, "fusion_lat": 0.0, "name": "fee7b92d7077e5358454a3d4217d315f", "type": "electric_scooter", "is_disabled": 0, "lat": 38.903835, "rental_uris": {"android": "https://dc.lft.to/lastmile_qr_scan", "ios": "https://dc.lft.to/lastmile_qr_scan"}, "bike_id": "fee7b92d7077e5358454a3d4217d315f", "lon": -77.05399433333334}, {"is_reserved": 0, "fusion_lon": 0.0, "fusion_lat": 0.0, "name": "04512599cda36e3d914f3d8122e7efbd", "type": "electric_scooter", "is_disabled": 0, "lat": 38.906035833333334, "rental_uris": {"android": "https://dc.lft.to/lastmile_qr_scan", "ios": "https://dc.lft.to/lastmile_qr_scan"}, "bike_id": "04512599cda36e3d914f3d8122e7efbd", "lon": -77.003723}, {"is_reserved": 0, "fusion_lon": 0.0, "fusion_lat": 0.0, "name": "30c88b12f1fc4993bd8b82dde003b732", "type": "electric_scooter", "is_disabled": 0, "lat": 38.8647585, "rental_uris": {"android": "https://dc.lft.to/lastmile_qr_scan", "ios": "https://dc.lft.to/lastmile_qr_scan"}, "bike_id": "30c88b12f1fc4993bd8b82dde003b732", "lon": -76.982294}, {"is_reserved": 0, "fusion_lon": 0.0, "fusion_lat": 0.0, "name": "bb7de891f0d80fd38e2921e9439671f5", "type": "electric_scooter", "is_disabled": 0, "lat": 38.915054833333336, "rental_uris": {"android": "https://dc.lft.to/lastmile_qr_scan", "ios": "https://dc.lft.to/lastmile_qr_scan"}, "bike_id": "bb7de891f0d80fd38e2921e9439671f5", "lon": -77.0200315}, {"is_reserved": 0, "fusion_lon": 0.0, "fusion_lat": 0.0, "name": "30cb9217effe14992cce99c32bf0c866", "type": "electric_scooter", "is_disabled": 0, "lat": 38.93962783333333, "rental_uris": {"android": "https://dc.lft.to/lastmile_qr_scan", "ios": "https://dc.lft.to/lastmile_qr_scan"}, "bike_id": "30cb9217effe14992cce99c32bf0c866", "lon": -77.02496166666667}, {"is_reserved": 0, "fusion_lon": 0.0, "fusion_lat": 0.0, "name": "b95bff7acef588970aa8292e2879459b", "type": "electric_scooter", "is_disabled": 0, "lat": 38.931243333333335, "rental_uris": {"android": "https://dc.lft.to/lastmile_qr_scan", "ios": "https://dc.lft.to/lastmile_qr_scan"}, "bike_id": "b95bff7acef588970aa8292e2879459b", "lon": -77.03036783333333}, {"is_reserved": 0, "fusion_lon": 0.0, "fusion_lat": 0.0, "name": "2f2d4c699a8df6d5dd1284d41a93f5ab", "type": "electric_scooter", "is_disabled": 0, "lat": 38.915581333333336, "rental_uris": {"android": "https://dc.lft.to/lastmile_qr_scan", "ios": "https://dc.lft.to/lastmile_qr_scan"}, "bike_id": "2f2d4c699a8df6d5dd1284d41a93f5ab", "lon": -77.02427966666667}, {"is_reserved": 0, "fusion_lon": 0.0, "fusion_lat": 0.0, "name": "52d98b7f853dcfcc2ed08fdb19b54598", "type": "electric_scooter", "is_disabled": 0, "lat": 38.95735533333333, "rental_uris": {"android": "https://dc.lft.to/lastmile_qr_scan", "ios": "https://dc.lft.to/lastmile_qr_scan"}, "bike_id": "52d98b7f853dcfcc2ed08fdb19b54598", "lon": -77.0240555}, {"is_reserved": 0, "fusion_lon": 0.0, "fusion_lat": 0.0, "name": "32bfd889042fee0dc8cd00a3220b32cc", "type": "electric_scooter", "is_disabled": 0, "lat": 38.9034635, "rental_uris": {"android": "https://dc.lft.to/lastmile_qr_scan", "ios": "https://dc.lft.to/lastmile_qr_scan"}, "bike_id": "32bfd889042fee0dc8cd00a3220b32cc", "lon": -76.98280483333333}, {"is_reserved": 0, "fusion_lon": 0.0, "fusion_lat": 0.0, "name": "876e228cc299238176e2c0c89e7e4b4d", "type": "electric_scooter", "is_disabled": 0, "lat": 38.91494466666666, "rental_uris": {"android": "https://dc.lft.to/lastmile_qr_scan", "ios": "https://dc.lft.to/lastmile_qr_scan"}, "bike_id": "876e228cc299238176e2c0c89e7e4b4d", "lon": -77.0199815}, {"is_reserved": 0, "fusion_lon": 0.0, "fusion_lat": 0.0, "name": "5c6eb3daf87c4379d7d452fae33ab4bb", "type": "electric_scooter", "is_disabled": 0, "lat": 38.905568, "rental_uris": {"android": "https://dc.lft.to/lastmile_qr_scan", "ios": "https://dc.lft.to/lastmile_qr_scan"}, "bike_id": "5c6eb3daf87c4379d7d452fae33ab4bb", "lon": -77.00494616666667}, {"is_reserved": 0, "fusion_lon": 0.0, "fusion_lat": 0.0, "name": "de7828526c320531f57261813233e613", "type": "electric_scooter", "is_disabled": 0, "lat": 38.907359666666665, "rental_uris": {"android": "https://dc.lft.to/lastmile_qr_scan", "ios": "https://dc.lft.to/lastmile_qr_scan"}, "bike_id": "de7828526c320531f57261813233e613", "lon": -76.98630683333333}, {"is_reserved": 0, "fusion_lon": 0.0, "fusion_lat": 0.0, "name": "2bcda4ca550f082c82735b0c73cd5271", "type": "electric_scooter", "is_disabled": 0, "lat": 38.877098, "rental_uris": {"android": "https://dc.lft.to/lastmile_qr_scan", "ios": "https://dc.lft.to/lastmile_qr_scan"}, "bike_id": "2bcda4ca550f082c82735b0c73cd5271", "lon": -77.017318}, {"is_reserved": 0, "fusion_lon": 0.0, "fusion_lat": 0.0, "name": "0be9cb3870ef77bb69acbea96d011ccd", "type": "electric_scooter", "is_disabled": 0, "lat": 38.893623, "rental_uris": {"android": "https://dc.lft.to/lastmile_qr_scan", "ios": "https://dc.lft.to/lastmile_qr_scan"}, "bike_id": "0be9cb3870ef77bb69acbea96d011ccd", "lon": -76.98644983333334}, {"is_reserved": 0, "fusion_lon": 0.0, "fusion_lat": 0.0, "name": "786abf1e9049932ffdc64bc342c2e41c", "type": "electric_scooter", "is_disabled": 0, "lat": 38.919198, "rental_uris": {"android": "https://dc.lft.to/lastmile_qr_scan", "ios": "https://dc.lft.to/lastmile_qr_scan"}, "bike_id": "786abf1e9049932ffdc64bc342c2e41c", "lon": -77.03185866666666}, {"is_reserved": 0, "fusion_lon": 0.0, "fusion_lat": 0.0, "name": "2d969fe429e9c85b974ffd299b661a01", "type": "electric_scooter", "is_disabled": 0, "lat": 38.90527483333334, "rental_uris": {"android": "https://dc.lft.to/lastmile_qr_scan", "ios": "https://dc.lft.to/lastmile_qr_scan"}, "bike_id": "2d969fe429e9c85b974ffd299b661a01", "lon": -77.04778916666666}, {"is_reserved": 0, "fusion_lon": 0.0, "fusion_lat": 0.0, "name": "0dda777a4e8ea59258c7861fc05792ad", "type": "electric_scooter", "is_disabled": 0, "lat": 38.90381383333333, "rental_uris": {"android": "https://dc.lft.to/lastmile_qr_scan", "ios": "https://dc.lft.to/lastmile_qr_scan"}, "bike_id": "0dda777a4e8ea59258c7861fc05792ad", "lon": -77.0425635}, {"is_reserved": 0, "fusion_lon": 0.0, "fusion_lat": 0.0, "name": "f6e768cc0645b9427415a8b9fe285d63", "type": "electric_bike", "is_disabled": 0, "lat": 38.80753683333333, "rental_uris": {"android": "https://dc.lft.to/lastmile_qr_scan", "ios": "https://dc.lft.to/lastmile_qr_scan"}, "bike_id": "f6e768cc0645b9427415a8b9fe285d63", "lon": -77.0945725}, {"is_reserved": 0, "fusion_lon": 0.0, "fusion_lat": 0.0, "name": "aad97a8b920d6b85e40a589d1b52851f", "type": "electric_bike", "is_disabled": 0, "lat": 38.80759183333333, "rental_uris": {"android": "https://dc.lft.to/lastmile_qr_scan", "ios": "https://dc.lft.to/lastmile_qr_scan"}, "bike_id": "aad97a8b920d6b85e40a589d1b52851f", "lon": -77.09473066666666}, {"is_reserved": 0, "fusion_lon": 0.0, "fusion_lat": 0.0, "name": "3fe68f442e89d73ad00985c29b1fe139", "type": "electric_scooter", "is_disabled": 0, "lat": 38.9014095, "rental_uris": {"android": "https://dc.lft.to/lastmile_qr_scan", "ios": "https://dc.lft.to/lastmile_qr_scan"}, "bike_id": "3fe68f442e89d73ad00985c29b1fe139", "lon": -76.99098183333334}, {"is_reserved": 0, "fusion_lon": 0.0, "fusion_lat": 0.0, "name": "308a518b2136d6d38ffa285c1b71ea40", "type": "electric_scooter", "is_disabled": 0, "lat": 38.910823666666666, "rental_uris": {"android": "https://dc.lft.to/lastmile_qr_scan", "ios": "https://dc.lft.to/lastmile_qr_scan"}, "bike_id": "308a518b2136d6d38ffa285c1b71ea40", "lon": -77.0654885}, {"is_reserved": 0, "fusion_lon": 0.0, "fusion_lat": 0.0, "name": "f7f705cfcaacb464738e57adb2739dba", "type": "electric_scooter", "is_disabled": 0, "lat": 38.883337, "rental_uris": {"android": "https://dc.lft.to/lastmile_qr_scan", "ios": "https://dc.lft.to/lastmile_qr_scan"}, "bike_id": "f7f705cfcaacb464738e57adb2739dba", "lon": -77.01671333333333}, {"is_reserved": 0, "fusion_lon": 0.0, "fusion_lat": 0.0, "name": "9310778038955fe2dbccee03f77a8b86", "type": "electric_scooter", "is_disabled": 0, "lat": 38.900396666666666, "rental_uris": {"android": "https://dc.lft.to/lastmile_qr_scan", "ios": "https://dc.lft.to/lastmile_qr_scan"}, "bike_id": "9310778038955fe2dbccee03f77a8b86", "lon": -77.03342266666667}, {"is_reserved": 0, "fusion_lon": 0.0, "fusion_lat": 0.0, "name": "36a2984d16d4d99151086cf35fa0d8df", "type": "electric_scooter", "is_disabled": 0, "lat": 38.900125, "rental_uris": {"android": "https://dc.lft.to/lastmile_qr_scan", "ios": "https://dc.lft.to/lastmile_qr_scan"}, "bike_id": "36a2984d16d4d99151086cf35fa0d8df", "lon": -77.04413466666666}, {"is_reserved": 0, "fusion_lon": 0.0, "fusion_lat": 0.0, "name": "edb8da26cd1bc77480ab8d8f6814d990", "type": "electric_scooter", "is_disabled": 0, "lat": 38.902138, "rental_uris": {"android": "https://dc.lft.to/lastmile_qr_scan", "ios": "https://dc.lft.to/lastmile_qr_scan"}, "bike_id": "edb8da26cd1bc77480ab8d8f6814d990", "lon": -76.976026}, {"is_reserved": 0, "fusion_lon": 0.0, "fusion_lat": 0.0, "name": "60696eaa20eec594921137447fc44492", "type": "electric_scooter", "is_disabled": 0, "lat": 38.897671, "rental_uris": {"android": "https://dc.lft.to/lastmile_qr_scan", "ios": "https://dc.lft.to/lastmile_qr_scan"}, "bike_id": "60696eaa20eec594921137447fc44492", "lon": -77.0466105}, {"is_reserved": 0, "fusion_lon": 0.0, "fusion_lat": 0.0, "name": "46d35603b6d73535b5e1fac985d4d71d", "type": "electric_scooter", "is_disabled": 0, "lat": 38.90069283333333, "rental_uris": {"android": "https://dc.lft.to/lastmile_qr_scan", "ios": "https://dc.lft.to/lastmile_qr_scan"}, "bike_id": "46d35603b6d73535b5e1fac985d4d71d", "lon": -77.01292416666666}, {"is_reserved": 0, "fusion_lon": 0.0, "fusion_lat": 0.0, "name": "1582bb59ca7458d7901173ae5a5e7b95", "type": "electric_scooter", "is_disabled": 0, "lat": 38.898581, "rental_uris": {"android": "https://dc.lft.to/lastmile_qr_scan", "ios": "https://dc.lft.to/lastmile_qr_scan"}, "bike_id": "1582bb59ca7458d7901173ae5a5e7b95", "lon": -76.98184483333333}, {"is_reserved": 0, "fusion_lon": 0.0, "fusion_lat": 0.0, "name": "7439feb549b1e902c09537434e327ecb", "type": "electric_scooter", "is_disabled": 0, "lat": 38.86699683333333, "rental_uris": {"android": "https://dc.lft.to/lastmile_qr_scan", "ios": "https://dc.lft.to/lastmile_qr_scan"}, "bike_id": "7439feb549b1e902c09537434e327ecb", "lon": -76.985924}, {"is_reserved": 0, "fusion_lon": 0.0, "fusion_lat": 0.0, "name": "7ab3e7696d3384164dbbe7fc3262fb22", "type": "electric_bike", "is_disabled": 0, "lat": 38.94173583333333, "rental_uris": {"android": "https://dc.lft.to/lastmile_qr_scan", "ios": "https://dc.lft.to/lastmile_qr_scan"}, "bike_id": "7ab3e7696d3384164dbbe7fc3262fb22", "lon": -76.99256483333333}, {"is_reserved": 0, "fusion_lon": 0.0, "fusion_lat": 0.0, "name": "311dd4f3e087b4995b9007994aae3cc1", "type": "electric_scooter", "is_disabled": 0, "lat": 38.928205, "rental_uris": {"android": "https://dc.lft.to/lastmile_qr_scan", "ios": "https://dc.lft.to/lastmile_qr_scan"}, "bike_id": "311dd4f3e087b4995b9007994aae3cc1", "lon": -77.01423683333333}, {"is_reserved": 0, "fusion_lon": 0.0, "fusion_lat": 0.0, "name": "1db8aed545149c476f378871977e0059", "type": "electric_scooter", "is_disabled": 0, "lat": 38.886115833333335, "rental_uris": {"android": "https://dc.lft.to/lastmile_qr_scan", "ios": "https://dc.lft.to/lastmile_qr_scan"}, "bike_id": "1db8aed545149c476f378871977e0059", "lon": -76.9557845}, {"is_reserved": 0, "fusion_lon": 0.0, "fusion_lat": 0.0, "name": "6927ff406208986ccb15d577e0aba9fe", "type": "electric_scooter", "is_disabled": 0, "lat": 38.9059135, "rental_uris": {"android": "https://dc.lft.to/lastmile_qr_scan", "ios": "https://dc.lft.to/lastmile_qr_scan"}, "bike_id": "6927ff406208986ccb15d577e0aba9fe", "lon": -77.04182666666667}, {"is_reserved": 0, "fusion_lon": 0.0, "fusion_lat": 0.0, "name": "a13d75e760e6dc6647789481f90df75d", "type": "electric_scooter", "is_disabled": 0, "lat": 38.870851, "rental_uris": {"android": "https://dc.lft.to/lastmile_qr_scan", "ios": "https://dc.lft.to/lastmile_qr_scan"}, "bike_id": "a13d75e760e6dc6647789481f90df75d", "lon": -76.9678595}, {"is_reserved": 0, "fusion_lon": 0.0, "fusion_lat": 0.0, "name": "7f0730580766e59ecfabe45343e116dc", "type": "electric_scooter", "is_disabled": 0, "lat": 38.8830395, "rental_uris": {"android": "https://dc.lft.to/lastmile_qr_scan", "ios": "https://dc.lft.to/lastmile_qr_scan"}, "bike_id": "7f0730580766e59ecfabe45343e116dc", "lon": -77.0314145}, {"is_reserved": 0, "fusion_lon": 0.0, "fusion_lat": 0.0, "name": "ae80a2e6f4ed11ef8a4a459fd040c3f3", "type": "electric_scooter", "is_disabled": 0, "lat": 38.8953635, "rental_uris": {"android": "https://dc.lft.to/lastmile_qr_scan", "ios": "https://dc.lft.to/lastmile_qr_scan"}, "bike_id": "ae80a2e6f4ed11ef8a4a459fd040c3f3", "lon": -77.03263783333334}, {"is_reserved": 0, "fusion_lon": 0.0, "fusion_lat": 0.0, "name": "ff655815a437d1039ba495fb95444f7c", "type": "electric_scooter", "is_disabled": 0, "lat": 38.8873095, "rental_uris": {"android": "https://dc.lft.to/lastmile_qr_scan", "ios": "https://dc.lft.to/lastmile_qr_scan"}, "bike_id": "ff655815a437d1039ba495fb95444f7c", "lon": -77.0283335}, {"is_reserved": 0, "fusion_lon": 0.0, "fusion_lat": 0.0, "name": "40c96ff6c4edfc2dfb471480c7a9b9d0", "type": "electric_bike", "is_disabled": 0, "lat": 38.85324216666667, "rental_uris": {"android": "https://dc.lft.to/lastmile_qr_scan", "ios": "https://dc.lft.to/lastmile_qr_scan"}, "bike_id": "40c96ff6c4edfc2dfb471480c7a9b9d0", "lon": -76.980158}, {"is_reserved": 0, "fusion_lon": 0.0, "fusion_lat": 0.0, "name": "97a29ac30add521b2ee882fe5b28590b", "type": "electric_scooter", "is_disabled": 0, "lat": 38.92172816666667, "rental_uris": {"android": "https://dc.lft.to/lastmile_qr_scan", "ios": "https://dc.lft.to/lastmile_qr_scan"}, "bike_id": "97a29ac30add521b2ee882fe5b28590b", "lon": -77.04022133333333}, {"is_reserved": 0, "fusion_lon": 0.0, "fusion_lat": 0.0, "name": "03adc099fed9ad1a4ae48734dcb75bb5", "type": "electric_scooter", "is_disabled": 0, "lat": 38.900673, "rental_uris": {"android": "https://dc.lft.to/lastmile_qr_scan", "ios": "https://dc.lft.to/lastmile_qr_scan"}, "bike_id": "03adc099fed9ad1a4ae48734dcb75bb5", "lon": -76.94694233333334}, {"is_reserved": 0, "fusion_lon": 0.0, "fusion_lat": 0.0, "name": "e905be42887ccd2e6d074b0bc37bc344", "type": "electric_scooter", "is_disabled": 0, "lat": 38.95086766666667, "rental_uris": {"android": "https://dc.lft.to/lastmile_qr_scan", "ios": "https://dc.lft.to/lastmile_qr_scan"}, "bike_id": "e905be42887ccd2e6d074b0bc37bc344", "lon": -77.02321633333334}, {"is_reserved": 0, "fusion_lon": 0.0, "fusion_lat": 0.0, "name": "f9e802cf70e5ecf95f537e3adf8a7dd7", "type": "electric_scooter", "is_disabled": 0, "lat": 38.89213683333333, "rental_uris": {"android": "https://dc.lft.to/lastmile_qr_scan", "ios": "https://dc.lft.to/lastmile_qr_scan"}, "bike_id": "f9e802cf70e5ecf95f537e3adf8a7dd7", "lon": -77.02627883333334}, {"is_reserved": 0, "fusion_lon": 0.0, "fusion_lat": 0.0, "name": "891189f779b3daefe6b42a3b546b8ed1", "type": "electric_bike", "is_disabled": 0, "lat": 38.962776833333336, "rental_uris": {"android": "https://dc.lft.to/lastmile_qr_scan", "ios": "https://dc.lft.to/lastmile_qr_scan"}, "bike_id": "891189f779b3daefe6b42a3b546b8ed1", "lon": -77.01457283333333}, {"is_reserved": 0, "fusion_lon": 0.0, "fusion_lat": 0.0, "name": "c5969d9826942a3baa47a7187d4ff7f1", "type": "electric_bike", "is_disabled": 0, "lat": 38.9309575, "rental_uris": {"android": "https://dc.lft.to/lastmile_qr_scan", "ios": "https://dc.lft.to/lastmile_qr_scan"}, "bike_id": "c5969d9826942a3baa47a7187d4ff7f1", "lon": -77.02601333333334}, {"is_reserved": 0, "fusion_lon": 0.0, "fusion_lat": 0.0, "name": "a886914cdaa9a6c123498c3285a07795", "type": "electric_scooter", "is_disabled": 0, "lat": 38.9344445, "rental_uris": {"android": "https://dc.lft.to/lastmile_qr_scan", "ios": "https://dc.lft.to/lastmile_qr_scan"}, "bike_id": "a886914cdaa9a6c123498c3285a07795", "lon": -76.99881983333333}, {"is_reserved": 0, "fusion_lon": 0.0, "fusion_lat": 0.0, "name": "a2512a9db2f2540b029915f7345c14cb", "type": "electric_scooter", "is_disabled": 0, "lat": 38.9268335, "rental_uris": {"android": "https://dc.lft.to/lastmile_qr_scan", "ios": "https://dc.lft.to/lastmile_qr_scan"}, "bike_id": "a2512a9db2f2540b029915f7345c14cb", "lon": -77.0278315}, {"is_reserved": 0, "fusion_lon": 0.0, "fusion_lat": 0.0, "name": "a3c3e9eaadbc875c0d78c3e4b3cb16f3", "type": "electric_scooter", "is_disabled": 0, "lat": 38.91818416666667, "rental_uris": {"android": "https://dc.lft.to/lastmile_qr_scan", "ios": "https://dc.lft.to/lastmile_qr_scan"}, "bike_id": "a3c3e9eaadbc875c0d78c3e4b3cb16f3", "lon": -77.02979883333333}, {"is_reserved": 0, "fusion_lon": 0.0, "fusion_lat": 0.0, "name": "8bfdd9107318acaf2faf3950efcd0f5e", "type": "electric_scooter", "is_disabled": 0, "lat": 38.9096785, "rental_uris": {"android": "https://dc.lft.to/lastmile_qr_scan", "ios": "https://dc.lft.to/lastmile_qr_scan"}, "bike_id": "8bfdd9107318acaf2faf3950efcd0f5e", "lon": -77.0386185}, {"is_reserved": 0, "fusion_lon": 0.0, "fusion_lat": 0.0, "name": "63a8ef2c2b6004650685c776db08a5a8", "type": "electric_scooter", "is_disabled": 0, "lat": 38.90831433333334, "rental_uris": {"android": "https://dc.lft.to/lastmile_qr_scan", "ios": "https://dc.lft.to/lastmile_qr_scan"}, "bike_id": "63a8ef2c2b6004650685c776db08a5a8", "lon": -77.03313333333334}, {"is_reserved": 0, "fusion_lon": 0.0, "fusion_lat": 0.0, "name": "7063a638a53f1c1483ce94ecbc3dea96", "type": "electric_scooter", "is_disabled": 0, "lat": 38.920798833333336, "rental_uris": {"android": "https://dc.lft.to/lastmile_qr_scan", "ios": "https://dc.lft.to/lastmile_qr_scan"}, "bike_id": "7063a638a53f1c1483ce94ecbc3dea96", "lon": -77.02357116666667}, {"is_reserved": 0, "fusion_lon": 0.0, "fusion_lat": 0.0, "name": "2646a8a9514be57b630523a7482aa1e3", "type": "electric_scooter", "is_disabled": 0, "lat": 38.92657083333334, "rental_uris": {"android": "https://dc.lft.to/lastmile_qr_scan", "ios": "https://dc.lft.to/lastmile_qr_scan"}, "bike_id": "2646a8a9514be57b630523a7482aa1e3", "lon": -77.04134533333334}, {"is_reserved": 0, "fusion_lon": 0.0, "fusion_lat": 0.0, "name": "e715e1663fad9095a25bc8cbf74dcf2e", "type": "electric_scooter", "is_disabled": 0, "lat": 38.880835, "rental_uris": {"android": "https://dc.lft.to/lastmile_qr_scan", "ios": "https://dc.lft.to/lastmile_qr_scan"}, "bike_id": "e715e1663fad9095a25bc8cbf74dcf2e", "lon": -76.98505366666667}, {"is_reserved": 0, "fusion_lon": 0.0, "fusion_lat": 0.0, "name": "b69bc024176df04c372e0f1149723220", "type": "electric_scooter", "is_disabled": 0, "lat": 38.932983166666666, "rental_uris": {"android": "https://dc.lft.to/lastmile_qr_scan", "ios": "https://dc.lft.to/lastmile_qr_scan"}, "bike_id": "b69bc024176df04c372e0f1149723220", "lon": -77.02189866666667}, {"is_reserved": 0, "fusion_lon": 0.0, "fusion_lat": 0.0, "name": "b99af7ad903155d235db303df1ca23e3", "type": "electric_scooter", "is_disabled": 0, "lat": 38.886102, "rental_uris": {"android": "https://dc.lft.to/lastmile_qr_scan", "ios": "https://dc.lft.to/lastmile_qr_scan"}, "bike_id": "b99af7ad903155d235db303df1ca23e3", "lon": -76.99509633333334}, {"is_reserved": 0, "fusion_lon": 0.0, "fusion_lat": 0.0, "name": "6d57c2443a22d8b1aa7fd1412039656d", "type": "electric_bike", "is_disabled": 0, "lat": 38.896526333333334, "rental_uris": {"android": "https://dc.lft.to/lastmile_qr_scan", "ios": "https://dc.lft.to/lastmile_qr_scan"}, "bike_id": "6d57c2443a22d8b1aa7fd1412039656d", "lon": -76.9300415}, {"is_reserved": 0, "fusion_lon": 0.0, "fusion_lat": 0.0, "name": "d7e60cf33219c0abdb75734cb16945ca", "type": "electric_bike", "is_disabled": 0, "lat": 38.96744316666667, "rental_uris": {"android": "https://dc.lft.to/lastmile_qr_scan", "ios": "https://dc.lft.to/lastmile_qr_scan"}, "bike_id": "d7e60cf33219c0abdb75734cb16945ca", "lon": -76.96057383333333}, {"is_reserved": 0, "fusion_lon": 0.0, "fusion_lat": 0.0, "name": "dc4050b8ac403a198455a1db80499de6", "type": "electric_bike", "is_disabled": 0, "lat": 38.903365, "rental_uris": {"android": "https://dc.lft.to/lastmile_qr_scan", "ios": "https://dc.lft.to/lastmile_qr_scan"}, "bike_id": "dc4050b8ac403a198455a1db80499de6", "lon": -76.97536983333333}, {"is_reserved": 0, "fusion_lon": 0.0, "fusion_lat": 0.0, "name": "d9edb06b9d68a45ccfb6fa8ba27e8730", "type": "electric_scooter", "is_disabled": 0, "lat": 38.926772, "rental_uris": {"android": "https://dc.lft.to/lastmile_qr_scan", "ios": "https://dc.lft.to/lastmile_qr_scan"}, "bike_id": "d9edb06b9d68a45ccfb6fa8ba27e8730", "lon": -77.04358683333334}, {"is_reserved": 0, "fusion_lon": 0.0, "fusion_lat": 0.0, "name": "1ac7aef1a8fdbd3ee0f03f8955215971", "type": "electric_scooter", "is_disabled": 0, "lat": 38.91768366666667, "rental_uris": {"android": "https://dc.lft.to/lastmile_qr_scan", "ios": "https://dc.lft.to/lastmile_qr_scan"}, "bike_id": "1ac7aef1a8fdbd3ee0f03f8955215971", "lon": -77.03632833333333}, {"is_reserved": 0, "fusion_lon": 0.0, "fusion_lat": 0.0, "name": "215ec2cd4174ff82547c8d764ecdf9f1", "type": "electric_scooter", "is_disabled": 0, "lat": 38.89741216666667, "rental_uris": {"android": "https://dc.lft.to/lastmile_qr_scan", "ios": "https://dc.lft.to/lastmile_qr_scan"}, "bike_id": "215ec2cd4174ff82547c8d764ecdf9f1", "lon": -77.05528366666667}, {"is_reserved": 0, "fusion_lon": 0.0, "fusion_lat": 0.0, "name": "e85b2ab2abb3ccfa808e2f2310e82e23", "type": "electric_scooter", "is_disabled": 0, "lat": 38.92240416666667, "rental_uris": {"android": "https://dc.lft.to/lastmile_qr_scan", "ios": "https://dc.lft.to/lastmile_qr_scan"}, "bike_id": "e85b2ab2abb3ccfa808e2f2310e82e23", "lon": -77.01830516666666}, {"is_reserved": 0, "fusion_lon": 0.0, "fusion_lat": 0.0, "name": "ec22a5ef587dad125b3c99ee6a2bf2a9", "type": "electric_scooter", "is_disabled": 0, "lat": 38.92013883333333, "rental_uris": {"android": "https://dc.lft.to/lastmile_qr_scan", "ios": "https://dc.lft.to/lastmile_qr_scan"}, "bike_id": "ec22a5ef587dad125b3c99ee6a2bf2a9", "lon": -77.04173683333333}, {"is_reserved": 0, "fusion_lon": 0.0, "fusion_lat": 0.0, "name": "7f34072fdbc7e6eb67ddf146cb45665b", "type": "electric_scooter", "is_disabled": 0, "lat": 38.9165705, "rental_uris": {"android": "https://dc.lft.to/lastmile_qr_scan", "ios": "https://dc.lft.to/lastmile_qr_scan"}, "bike_id": "7f34072fdbc7e6eb67ddf146cb45665b", "lon": -77.04796033333334}, {"is_reserved": 0, "fusion_lon": 0.0, "fusion_lat": 0.0, "name": "d37e140252c93130b2fc4b3d11c8f86e", "type": "electric_bike", "is_disabled": 0, "lat": 38.95331916666667, "rental_uris": {"android": "https://dc.lft.to/lastmile_qr_scan", "ios": "https://dc.lft.to/lastmile_qr_scan"}, "bike_id": "d37e140252c93130b2fc4b3d11c8f86e", "lon": -76.95431616666667}, {"is_reserved": 0, "fusion_lon": 0.0, "fusion_lat": 0.0, "name": "7257222676d957fa69271d358127bd26", "type": "electric_scooter", "is_disabled": 0, "lat": 38.926200333333334, "rental_uris": {"android": "https://dc.lft.to/lastmile_qr_scan", "ios": "https://dc.lft.to/lastmile_qr_scan"}, "bike_id": "7257222676d957fa69271d358127bd26", "lon": -77.043303}, {"is_reserved": 0, "fusion_lon": 0.0, "fusion_lat": 0.0, "name": "db3ca275e8b5b2f823bbf733a16d99d3", "type": "electric_scooter", "is_disabled": 0, "lat": 38.91252683333333, "rental_uris": {"android": "https://dc.lft.to/lastmile_qr_scan", "ios": "https://dc.lft.to/lastmile_qr_scan"}, "bike_id": "db3ca275e8b5b2f823bbf733a16d99d3", "lon": -77.07318433333333}, {"is_reserved": 0, "fusion_lon": 0.0, "fusion_lat": 0.0, "name": "7c24512aec5fc9f2f99a1b3e5f301fd7", "type": "electric_scooter", "is_disabled": 0, "lat": 38.951879, "rental_uris": {"android": "https://dc.lft.to/lastmile_qr_scan", "ios": "https://dc.lft.to/lastmile_qr_scan"}, "bike_id": "7c24512aec5fc9f2f99a1b3e5f301fd7", "lon": -77.02619616666667}, {"is_reserved": 0, "fusion_lon": 0.0, "fusion_lat": 0.0, "name": "35b40a8c56b69e73d36e7b0eb18097d0", "type": "electric_scooter", "is_disabled": 0, "lat": 38.912660833333334, "rental_uris": {"android": "https://dc.lft.to/lastmile_qr_scan", "ios": "https://dc.lft.to/lastmile_qr_scan"}, "bike_id": "35b40a8c56b69e73d36e7b0eb18097d0", "lon": -77.04107816666667}, {"is_reserved": 0, "fusion_lon": 0.0, "fusion_lat": 0.0, "name": "f7774a78927e97868c8b38b661785990", "type": "electric_scooter", "is_disabled": 0, "lat": 38.9006715, "rental_uris": {"android": "https://dc.lft.to/lastmile_qr_scan", "ios": "https://dc.lft.to/lastmile_qr_scan"}, "bike_id": "f7774a78927e97868c8b38b661785990", "lon": -77.00205666666666}, {"is_reserved": 0, "fusion_lon": 0.0, "fusion_lat": 0.0, "name": "d22385ff69978b05699dc027054044a5", "type": "electric_scooter", "is_disabled": 0, "lat": 38.92163716666666, "rental_uris": {"android": "https://dc.lft.to/lastmile_qr_scan", "ios": "https://dc.lft.to/lastmile_qr_scan"}, "bike_id": "d22385ff69978b05699dc027054044a5", "lon": -77.03380466666667}, {"is_reserved": 0, "fusion_lon": 0.0, "fusion_lat": 0.0, "name": "5ca2ee4e0682b3cf2b1c2208ed04cff9", "type": "electric_scooter", "is_disabled": 0, "lat": 38.89424966666667, "rental_uris": {"android": "https://dc.lft.to/lastmile_qr_scan", "ios": "https://dc.lft.to/lastmile_qr_scan"}, "bike_id": "5ca2ee4e0682b3cf2b1c2208ed04cff9", "lon": -77.04007016666667}, {"is_reserved": 0, "fusion_lon": 0.0, "fusion_lat": 0.0, "name": "f2d711469e66e1140c71624083a0be80", "type": "electric_scooter", "is_disabled": 0, "lat": 38.904969666666666, "rental_uris": {"android": "https://dc.lft.to/lastmile_qr_scan", "ios": "https://dc.lft.to/lastmile_qr_scan"}, "bike_id": "f2d711469e66e1140c71624083a0be80", "lon": -76.987122}, {"is_reserved": 0, "fusion_lon": 0.0, "fusion_lat": 0.0, "name": "278655b38f996e94e355cfcee602db93", "type": "electric_bike", "is_disabled": 0, "lat": 38.924282166666664, "rental_uris": {"android": "https://dc.lft.to/lastmile_qr_scan", "ios": "https://dc.lft.to/lastmile_qr_scan"}, "bike_id": "278655b38f996e94e355cfcee602db93", "lon": -76.99656166666666}, {"is_reserved": 0, "fusion_lon": 0.0, "fusion_lat": 0.0, "name": "a72e0f476a08c9fb20c85f89744db5fb", "type": "electric_scooter", "is_disabled": 0, "lat": 38.91119166666667, "rental_uris": {"android": "https://dc.lft.to/lastmile_qr_scan", "ios": "https://dc.lft.to/lastmile_qr_scan"}, "bike_id": "a72e0f476a08c9fb20c85f89744db5fb", "lon": -77.0325425}, {"is_reserved": 0, "fusion_lon": 0.0, "fusion_lat": 0.0, "name": "bd7472c0ebe86bc206fe11469df42554", "type": "electric_bike", "is_disabled": 0, "lat": 38.932272833333336, "rental_uris": {"android": "https://dc.lft.to/lastmile_qr_scan", "ios": "https://dc.lft.to/lastmile_qr_scan"}, "bike_id": "bd7472c0ebe86bc206fe11469df42554", "lon": -77.1812585}, {"is_reserved": 0, "fusion_lon": 0.0, "fusion_lat": 0.0, "name": "b189b1efde2beb85f2e52f80e5aeeb73", "type": "electric_scooter", "is_disabled": 0, "lat": 38.9085345, "rental_uris": {"android": "https://dc.lft.to/lastmile_qr_scan", "ios": "https://dc.lft.to/lastmile_qr_scan"}, "bike_id": "b189b1efde2beb85f2e52f80e5aeeb73", "lon": -77.0449045}, {"is_reserved": 0, "fusion_lon": 0.0, "fusion_lat": 0.0, "name": "dc9398bf0be031441a5cc3f9bea551a3", "type": "electric_scooter", "is_disabled": 0, "lat": 38.916966333333335, "rental_uris": {"android": "https://dc.lft.to/lastmile_qr_scan", "ios": "https://dc.lft.to/lastmile_qr_scan"}, "bike_id": "dc9398bf0be031441a5cc3f9bea551a3", "lon": -77.03211083333333}, {"is_reserved": 0, "fusion_lon": 0.0, "fusion_lat": 0.0, "name": "90eb5f0cc94ea0fb924bdb6bb1008a3a", "type": "electric_scooter", "is_disabled": 0, "lat": 38.915571666666665, "rental_uris": {"android": "https://dc.lft.to/lastmile_qr_scan", "ios": "https://dc.lft.to/lastmile_qr_scan"}, "bike_id": "90eb5f0cc94ea0fb924bdb6bb1008a3a", "lon": -77.03168166666667}, {"is_reserved": 0, "fusion_lon": 0.0, "fusion_lat": 0.0, "name": "63aecf20b33208591785f29e18a9c3e7", "type": "electric_scooter", "is_disabled": 0, "lat": 38.935387666666664, "rental_uris": {"android": "https://dc.lft.to/lastmile_qr_scan", "ios": "https://dc.lft.to/lastmile_qr_scan"}, "bike_id": "63aecf20b33208591785f29e18a9c3e7", "lon": -77.02349783333334}, {"is_reserved": 0, "fusion_lon": 0.0, "fusion_lat": 0.0, "name": "62b150b3421921c3547f631c8bb9a642", "type": "electric_scooter", "is_disabled": 0, "lat": 38.88747383333333, "rental_uris": {"android": "https://dc.lft.to/lastmile_qr_scan", "ios": "https://dc.lft.to/lastmile_qr_scan"}, "bike_id": "62b150b3421921c3547f631c8bb9a642", "lon": -77.027328}, {"is_reserved": 0, "fusion_lon": 0.0, "fusion_lat": 0.0, "name": "d2c173a52cfdf70a73a31a67d9c5b78b", "type": "electric_bike", "is_disabled": 0, "lat": 38.865838333333336, "rental_uris": {"android": "https://dc.lft.to/lastmile_qr_scan", "ios": "https://dc.lft.to/lastmile_qr_scan"}, "bike_id": "d2c173a52cfdf70a73a31a67d9c5b78b", "lon": -77.04760533333334}, {"is_reserved": 0, "fusion_lon": 0.0, "fusion_lat": 0.0, "name": "1b3f966b13e6e797c981ba53577ae221", "type": "electric_scooter", "is_disabled": 0, "lat": 38.94199966666667, "rental_uris": {"android": "https://dc.lft.to/lastmile_qr_scan", "ios": "https://dc.lft.to/lastmile_qr_scan"}, "bike_id": "1b3f966b13e6e797c981ba53577ae221", "lon": -77.02505116666667}, {"is_reserved": 0, "fusion_lon": 0.0, "fusion_lat": 0.0, "name": "b6fe2eeb8bb20eaf81538c6c39798d9a", "type": "electric_scooter", "is_disabled": 0, "lat": 38.92665233333334, "rental_uris": {"android": "https://dc.lft.to/lastmile_qr_scan", "ios": "https://dc.lft.to/lastmile_qr_scan"}, "bike_id": "b6fe2eeb8bb20eaf81538c6c39798d9a", "lon": -76.995387}, {"is_reserved": 0, "fusion_lon": 0.0, "fusion_lat": 0.0, "name": "ac05cfae1c5c875910c7bd66a623e67b", "type": "electric_scooter", "is_disabled": 0, "lat": 38.909680333333334, "rental_uris": {"android": "https://dc.lft.to/lastmile_qr_scan", "ios": "https://dc.lft.to/lastmile_qr_scan"}, "bike_id": "ac05cfae1c5c875910c7bd66a623e67b", "lon": -77.04006816666667}, {"is_reserved": 0, "fusion_lon": 0.0, "fusion_lat": 0.0, "name": "dfb97645474d37b1c6c88d46a57c18bf", "type": "electric_scooter", "is_disabled": 0, "lat": 38.9002545, "rental_uris": {"android": "https://dc.lft.to/lastmile_qr_scan", "ios": "https://dc.lft.to/lastmile_qr_scan"}, "bike_id": "dfb97645474d37b1c6c88d46a57c18bf", "lon": -77.0117575}, {"is_reserved": 0, "fusion_lon": 0.0, "fusion_lat": 0.0, "name": "8f46c1469db1c72086bc8824ee5117cf", "type": "electric_scooter", "is_disabled": 0, "lat": 38.917658833333334, "rental_uris": {"android": "https://dc.lft.to/lastmile_qr_scan", "ios": "https://dc.lft.to/lastmile_qr_scan"}, "bike_id": "8f46c1469db1c72086bc8824ee5117cf", "lon": -77.04777766666666}, {"is_reserved": 0, "fusion_lon": 0.0, "fusion_lat": 0.0, "name": "b37e96f293cf340ca735899fc7524cf9", "type": "electric_scooter", "is_disabled": 0, "lat": 38.912721833333336, "rental_uris": {"android": "https://dc.lft.to/lastmile_qr_scan", "ios": "https://dc.lft.to/lastmile_qr_scan"}, "bike_id": "b37e96f293cf340ca735899fc7524cf9", "lon": -77.03131466666666}, {"is_reserved": 0, "fusion_lon": 0.0, "fusion_lat": 0.0, "name": "811ecf64b28a5717d9e092a671ea9392", "type": "electric_scooter", "is_disabled": 0, "lat": 38.91695966666666, "rental_uris": {"android": "https://dc.lft.to/lastmile_qr_scan", "ios": "https://dc.lft.to/lastmile_qr_scan"}, "bike_id": "811ecf64b28a5717d9e092a671ea9392", "lon": -77.031257}, {"is_reserved": 0, "fusion_lon": 0.0, "fusion_lat": 0.0, "name": "fdb43f1c30f3e4e3c52baf9a04dfb1d9", "type": "electric_scooter", "is_disabled": 0, "lat": 38.939517, "rental_uris": {"android": "https://dc.lft.to/lastmile_qr_scan", "ios": "https://dc.lft.to/lastmile_qr_scan"}, "bike_id": "fdb43f1c30f3e4e3c52baf9a04dfb1d9", "lon": -77.07251483333333}, {"is_reserved": 0, "fusion_lon": 0.0, "fusion_lat": 0.0, "name": "4327fb7977efaaa8fb2749c3fa177cef", "type": "electric_bike", "is_disabled": 0, "lat": 38.8652555, "rental_uris": {"android": "https://dc.lft.to/lastmile_qr_scan", "ios": "https://dc.lft.to/lastmile_qr_scan"}, "bike_id": "4327fb7977efaaa8fb2749c3fa177cef", "lon": -76.97335233333334}, {"is_reserved": 0, "fusion_lon": 0.0, "fusion_lat": 0.0, "name": "0e6309b15974321c589c75baf716391c", "type": "electric_scooter", "is_disabled": 0, "lat": 38.900451, "rental_uris": {"android": "https://dc.lft.to/lastmile_qr_scan", "ios": "https://dc.lft.to/lastmile_qr_scan"}, "bike_id": "0e6309b15974321c589c75baf716391c", "lon": -77.0176505}, {"is_reserved": 0, "fusion_lon": 0.0, "fusion_lat": 0.0, "name": "1530bbfe4e4855bcf36a334589ed59de", "type": "electric_scooter", "is_disabled": 0, "lat": 38.91118983333333, "rental_uris": {"android": "https://dc.lft.to/lastmile_qr_scan", "ios": "https://dc.lft.to/lastmile_qr_scan"}, "bike_id": "1530bbfe4e4855bcf36a334589ed59de", "lon": -77.023854}, {"is_reserved": 0, "fusion_lon": 0.0, "fusion_lat": 0.0, "name": "aa000b2c7ff5514b003fe8b178ea5f90", "type": "electric_scooter", "is_disabled": 0, "lat": 38.863915666666664, "rental_uris": {"android": "https://dc.lft.to/lastmile_qr_scan", "ios": "https://dc.lft.to/lastmile_qr_scan"}, "bike_id": "aa000b2c7ff5514b003fe8b178ea5f90", "lon": -76.989015}, {"is_reserved": 0, "fusion_lon": 0.0, "fusion_lat": 0.0, "name": "5344958937cdd813683f796dcb6c4d9e", "type": "electric_scooter", "is_disabled": 0, "lat": 38.938655833333335, "rental_uris": {"android": "https://dc.lft.to/lastmile_qr_scan", "ios": "https://dc.lft.to/lastmile_qr_scan"}, "bike_id": "5344958937cdd813683f796dcb6c4d9e", "lon": -77.02654233333334}, {"is_reserved": 0, "fusion_lon": 0.0, "fusion_lat": 0.0, "name": "9324438fa14bf8403b0944713b3df971", "type": "electric_scooter", "is_disabled": 0, "lat": 38.9098155, "rental_uris": {"android": "https://dc.lft.to/lastmile_qr_scan", "ios": "https://dc.lft.to/lastmile_qr_scan"}, "bike_id": "9324438fa14bf8403b0944713b3df971", "lon": -77.04262966666667}, {"is_reserved": 0, "fusion_lon": 0.0, "fusion_lat": 0.0, "name": "48d30a042ca653714524f7ad03ebc01a", "type": "electric_scooter", "is_disabled": 0, "lat": 38.956269166666665, "rental_uris": {"android": "https://dc.lft.to/lastmile_qr_scan", "ios": "https://dc.lft.to/lastmile_qr_scan"}, "bike_id": "48d30a042ca653714524f7ad03ebc01a", "lon": -77.02460083333334}, {"is_reserved": 0, "fusion_lon": 0.0, "fusion_lat": 0.0, "name": "8aa5a41aaac38e437d4175413f241bb2", "type": "electric_bike", "is_disabled": 0, "lat": 38.94606, "rental_uris": {"android": "https://dc.lft.to/lastmile_qr_scan", "ios": "https://dc.lft.to/lastmile_qr_scan"}, "bike_id": "8aa5a41aaac38e437d4175413f241bb2", "lon": -77.01740666666667}, {"is_reserved": 0, "fusion_lon": 0.0, "fusion_lat": 0.0, "name": "d581dff4f1d6c9e17eb00ca9c02083ff", "type": "electric_scooter", "is_disabled": 0, "lat": 38.917126, "rental_uris": {"android": "https://dc.lft.to/lastmile_qr_scan", "ios": "https://dc.lft.to/lastmile_qr_scan"}, "bike_id": "d581dff4f1d6c9e17eb00ca9c02083ff", "lon": -77.03859133333333}, {"is_reserved": 0, "fusion_lon": 0.0, "fusion_lat": 0.0, "name": "2a0252cb2a0017c882dc166731a9f3e8", "type": "electric_scooter", "is_disabled": 0, "lat": 38.935704666666666, "rental_uris": {"android": "https://dc.lft.to/lastmile_qr_scan", "ios": "https://dc.lft.to/lastmile_qr_scan"}, "bike_id": "2a0252cb2a0017c882dc166731a9f3e8", "lon": -77.0212755}, {"is_reserved": 0, "fusion_lon": 0.0, "fusion_lat": 0.0, "name": "3fc9aafa086e0b8a7d8ce52b08de828c", "type": "electric_scooter", "is_disabled": 0, "lat": 38.93249633333333, "rental_uris": {"android": "https://dc.lft.to/lastmile_qr_scan", "ios": "https://dc.lft.to/lastmile_qr_scan"}, "bike_id": "3fc9aafa086e0b8a7d8ce52b08de828c", "lon": -77.03418083333334}, {"is_reserved": 0, "fusion_lon": 0.0, "fusion_lat": 0.0, "name": "c5ac3b85fdf14423a4410f26e888088e", "type": "electric_scooter", "is_disabled": 0, "lat": 38.887197, "rental_uris": {"android": "https://dc.lft.to/lastmile_qr_scan", "ios": "https://dc.lft.to/lastmile_qr_scan"}, "bike_id": "c5ac3b85fdf14423a4410f26e888088e", "lon": -77.02202416666667}, {"is_reserved": 0, "fusion_lon": 0.0, "fusion_lat": 0.0, "name": "3fe334c44e5d42b1e41a242c3f541958", "type": "electric_scooter", "is_disabled": 0, "lat": 38.929153666666664, "rental_uris": {"android": "https://dc.lft.to/lastmile_qr_scan", "ios": "https://dc.lft.to/lastmile_qr_scan"}, "bike_id": "3fe334c44e5d42b1e41a242c3f541958", "lon": -77.03231216666667}, {"is_reserved": 0, "fusion_lon": 0.0, "fusion_lat": 0.0, "name": "0566fcabcf07eaec1997dedbbf290699", "type": "electric_bike", "is_disabled": 0, "lat": 38.852130333333335, "rental_uris": {"android": "https://dc.lft.to/lastmile_qr_scan", "ios": "https://dc.lft.to/lastmile_qr_scan"}, "bike_id": "0566fcabcf07eaec1997dedbbf290699", "lon": -77.1012975}, {"is_reserved": 0, "fusion_lon": 0.0, "fusion_lat": 0.0, "name": "c7b90ef21dc61b632b28178853e328aa", "type": "electric_scooter", "is_disabled": 0, "lat": 38.91842966666667, "rental_uris": {"android": "https://dc.lft.to/lastmile_qr_scan", "ios": "https://dc.lft.to/lastmile_qr_scan"}, "bike_id": "c7b90ef21dc61b632b28178853e328aa", "lon": -77.01643316666667}, {"is_reserved": 0, "fusion_lon": 0.0, "fusion_lat": 0.0, "name": "19a8b01b74cf6807973dbeee257a5eb3", "type": "electric_bike", "is_disabled": 0, "lat": 38.946723166666665, "rental_uris": {"android": "https://dc.lft.to/lastmile_qr_scan", "ios": "https://dc.lft.to/lastmile_qr_scan"}, "bike_id": "19a8b01b74cf6807973dbeee257a5eb3", "lon": -76.98305116666667}, {"is_reserved": 0, "fusion_lon": 0.0, "fusion_lat": 0.0, "name": "3a7b34a08246f6079e6cde2242b16646", "type": "electric_scooter", "is_disabled": 0, "lat": 38.90255416666667, "rental_uris": {"android": "https://dc.lft.to/lastmile_qr_scan", "ios": "https://dc.lft.to/lastmile_qr_scan"}, "bike_id": "3a7b34a08246f6079e6cde2242b16646", "lon": -77.01766833333333}, {"is_reserved": 0, "fusion_lon": 0.0, "fusion_lat": 0.0, "name": "e691366c87590e1d7fef26ca627ef821", "type": "electric_scooter", "is_disabled": 0, "lat": 38.8979285, "rental_uris": {"android": "https://dc.lft.to/lastmile_qr_scan", "ios": "https://dc.lft.to/lastmile_qr_scan"}, "bike_id": "e691366c87590e1d7fef26ca627ef821", "lon": -77.04486566666667}, {"is_reserved": 0, "fusion_lon": 0.0, "fusion_lat": 0.0, "name": "0ee1c565cee651018f0fc46a00757403", "type": "electric_scooter", "is_disabled": 0, "lat": 38.917824333333336, "rental_uris": {"android": "https://dc.lft.to/lastmile_qr_scan", "ios": "https://dc.lft.to/lastmile_qr_scan"}, "bike_id": "0ee1c565cee651018f0fc46a00757403", "lon": -77.04275983333333}, {"is_reserved": 0, "fusion_lon": 0.0, "fusion_lat": 0.0, "name": "83f3ad2c22806737938814005141d726", "type": "electric_scooter", "is_disabled": 0, "lat": 38.9213435, "rental_uris": {"android": "https://dc.lft.to/lastmile_qr_scan", "ios": "https://dc.lft.to/lastmile_qr_scan"}, "bike_id": "83f3ad2c22806737938814005141d726", "lon": -77.00404633333333}, {"is_reserved": 0, "fusion_lon": 0.0, "fusion_lat": 0.0, "name": "baa3467ea0938448ef36d3c434f296f1", "type": "electric_scooter", "is_disabled": 0, "lat": 38.909612, "rental_uris": {"android": "https://dc.lft.to/lastmile_qr_scan", "ios": "https://dc.lft.to/lastmile_qr_scan"}, "bike_id": "baa3467ea0938448ef36d3c434f296f1", "lon": -77.03866783333334}, {"is_reserved": 0, "fusion_lon": 0.0, "fusion_lat": 0.0, "name": "668c977aaa714bb3c64a8e73e12b09e9", "type": "electric_scooter", "is_disabled": 0, "lat": 38.892340833333336, "rental_uris": {"android": "https://dc.lft.to/lastmile_qr_scan", "ios": "https://dc.lft.to/lastmile_qr_scan"}, "bike_id": "668c977aaa714bb3c64a8e73e12b09e9", "lon": -77.032089}, {"is_reserved": 0, "fusion_lon": 0.0, "fusion_lat": 0.0, "name": "ac975469c9c7a894b9d64072ec500dff", "type": "electric_scooter", "is_disabled": 0, "lat": 38.9175355, "rental_uris": {"android": "https://dc.lft.to/lastmile_qr_scan", "ios": "https://dc.lft.to/lastmile_qr_scan"}, "bike_id": "ac975469c9c7a894b9d64072ec500dff", "lon": -77.02303483333333}, {"is_reserved": 0, "fusion_lon": 0.0, "fusion_lat": 0.0, "name": "0369e8a4b6c0597480c775f52e8e715c", "type": "electric_scooter", "is_disabled": 0, "lat": 38.914178, "rental_uris": {"android": "https://dc.lft.to/lastmile_qr_scan", "ios": "https://dc.lft.to/lastmile_qr_scan"}, "bike_id": "0369e8a4b6c0597480c775f52e8e715c", "lon": -77.0314795}, {"is_reserved": 0, "fusion_lon": 0.0, "fusion_lat": 0.0, "name": "f2f016bb920b5010f28b36091fde3cab", "type": "electric_scooter", "is_disabled": 0, "lat": 38.98462266666667, "rental_uris": {"android": "https://dc.lft.to/lastmile_qr_scan", "ios": "https://dc.lft.to/lastmile_qr_scan"}, "bike_id": "f2f016bb920b5010f28b36091fde3cab", "lon": -77.02686816666667}, {"is_reserved": 0, "fusion_lon": 0.0, "fusion_lat": 0.0, "name": "1e5c8b7beacdea12134ba8cc6cf2474f", "type": "electric_scooter", "is_disabled": 0, "lat": 38.87009116666667, "rental_uris": {"android": "https://dc.lft.to/lastmile_qr_scan", "ios": "https://dc.lft.to/lastmile_qr_scan"}, "bike_id": "1e5c8b7beacdea12134ba8cc6cf2474f", "lon": -76.98083266666667}, {"is_reserved": 0, "fusion_lon": 0.0, "fusion_lat": 0.0, "name": "9ee8b7e3e0b31caf80df1de915f5c9ff", "type": "electric_scooter", "is_disabled": 0, "lat": 38.877227500000004, "rental_uris": {"android": "https://dc.lft.to/lastmile_qr_scan", "ios": "https://dc.lft.to/lastmile_qr_scan"}, "bike_id": "9ee8b7e3e0b31caf80df1de915f5c9ff", "lon": -77.00595383333334}, {"is_reserved": 0, "fusion_lon": 0.0, "fusion_lat": 0.0, "name": "48cf9c1539fa76922f091f5940807a04", "type": "electric_bike", "is_disabled": 0, "lat": 38.81909316666667, "rental_uris": {"android": "https://dc.lft.to/lastmile_qr_scan", "ios": "https://dc.lft.to/lastmile_qr_scan"}, "bike_id": "48cf9c1539fa76922f091f5940807a04", "lon": -76.99915116666666}, {"is_reserved": 0, "fusion_lon": 0.0, "fusion_lat": 0.0, "name": "630103c001bbb8eedfb8ed8189dee78f", "type": "electric_scooter", "is_disabled": 0, "lat": 38.9329255, "rental_uris": {"android": "https://dc.lft.to/lastmile_qr_scan", "ios": "https://dc.lft.to/lastmile_qr_scan"}, "bike_id": "630103c001bbb8eedfb8ed8189dee78f", "lon": -77.021282}, {"is_reserved": 0, "fusion_lon": 0.0, "fusion_lat": 0.0, "name": "0b8403e51340a0681864a7a4be026ffc", "type": "electric_scooter", "is_disabled": 0, "lat": 38.9177915, "rental_uris": {"android": "https://dc.lft.to/lastmile_qr_scan", "ios": "https://dc.lft.to/lastmile_qr_scan"}, "bike_id": "0b8403e51340a0681864a7a4be026ffc", "lon": -77.04559416666666}, {"is_reserved": 0, "fusion_lon": 0.0, "fusion_lat": 0.0, "name": "762e705d1c793a209ee6a57818938937", "type": "electric_scooter", "is_disabled": 0, "lat": 38.909633666666664, "rental_uris": {"android": "https://dc.lft.to/lastmile_qr_scan", "ios": "https://dc.lft.to/lastmile_qr_scan"}, "bike_id": "762e705d1c793a209ee6a57818938937", "lon": -77.0386665}, {"is_reserved": 0, "fusion_lon": 0.0, "fusion_lat": 0.0, "name": "17f8dfe0d9fb3b87a3343be55bde08d9", "type": "electric_scooter", "is_disabled": 0, "lat": 38.907540833333336, "rental_uris": {"android": "https://dc.lft.to/lastmile_qr_scan", "ios": "https://dc.lft.to/lastmile_qr_scan"}, "bike_id": "17f8dfe0d9fb3b87a3343be55bde08d9", "lon": -77.00098566666666}, {"is_reserved": 0, "fusion_lon": 0.0, "fusion_lat": 0.0, "name": "b81e9c5f124b2ec2d22c8b65471ad549", "type": "electric_scooter", "is_disabled": 0, "lat": 38.915496166666664, "rental_uris": {"android": "https://dc.lft.to/lastmile_qr_scan", "ios": "https://dc.lft.to/lastmile_qr_scan"}, "bike_id": "b81e9c5f124b2ec2d22c8b65471ad549", "lon": -77.03857}, {"is_reserved": 0, "fusion_lon": 0.0, "fusion_lat": 0.0, "name": "291b76f18f269472139a241f223e4c25", "type": "electric_scooter", "is_disabled": 0, "lat": 38.88815833333334, "rental_uris": {"android": "https://dc.lft.to/lastmile_qr_scan", "ios": "https://dc.lft.to/lastmile_qr_scan"}, "bike_id": "291b76f18f269472139a241f223e4c25", "lon": -76.93344133333333}, {"is_reserved": 0, "fusion_lon": 0.0, "fusion_lat": 0.0, "name": "288f7069d47beda40ffb26dbc0d1b1f4", "type": "electric_scooter", "is_disabled": 0, "lat": 38.9209585, "rental_uris": {"android": "https://dc.lft.to/lastmile_qr_scan", "ios": "https://dc.lft.to/lastmile_qr_scan"}, "bike_id": "288f7069d47beda40ffb26dbc0d1b1f4", "lon": -77.00429983333333}, {"is_reserved": 0, "fusion_lon": 0.0, "fusion_lat": 0.0, "name": "fd595d63d4a49a609271303bf7d326c3", "type": "electric_scooter", "is_disabled": 0, "lat": 38.911865166666665, "rental_uris": {"android": "https://dc.lft.to/lastmile_qr_scan", "ios": "https://dc.lft.to/lastmile_qr_scan"}, "bike_id": "fd595d63d4a49a609271303bf7d326c3", "lon": -77.0096605}, {"is_reserved": 0, "fusion_lon": 0.0, "fusion_lat": 0.0, "name": "73a2889e1ae867197833c2cde42906f6", "type": "electric_scooter", "is_disabled": 0, "lat": 38.88730233333333, "rental_uris": {"android": "https://dc.lft.to/lastmile_qr_scan", "ios": "https://dc.lft.to/lastmile_qr_scan"}, "bike_id": "73a2889e1ae867197833c2cde42906f6", "lon": -77.02823916666667}, {"is_reserved": 0, "fusion_lon": 0.0, "fusion_lat": 0.0, "name": "4316172c74217a9bc2f6d004ef632c9f", "type": "electric_scooter", "is_disabled": 0, "lat": 38.92093216666667, "rental_uris": {"android": "https://dc.lft.to/lastmile_qr_scan", "ios": "https://dc.lft.to/lastmile_qr_scan"}, "bike_id": "4316172c74217a9bc2f6d004ef632c9f", "lon": -77.0234115}, {"is_reserved": 0, "fusion_lon": 0.0, "fusion_lat": 0.0, "name": "e76e9c91a952b08db1884b048052d28c", "type": "electric_scooter", "is_disabled": 0, "lat": 38.893153, "rental_uris": {"android": "https://dc.lft.to/lastmile_qr_scan", "ios": "https://dc.lft.to/lastmile_qr_scan"}, "bike_id": "e76e9c91a952b08db1884b048052d28c", "lon": -77.05000716666666}, {"is_reserved": 0, "fusion_lon": 0.0, "fusion_lat": 0.0, "name": "34dcd5b978719c996a050e72ae5e8068", "type": "electric_scooter", "is_disabled": 0, "lat": 38.9055755, "rental_uris": {"android": "https://dc.lft.to/lastmile_qr_scan", "ios": "https://dc.lft.to/lastmile_qr_scan"}, "bike_id": "34dcd5b978719c996a050e72ae5e8068", "lon": -77.00591}, {"is_reserved": 0, "fusion_lon": 0.0, "fusion_lat": 0.0, "name": "1bf8af352e26da59f8d83481d1113660", "type": "electric_scooter", "is_disabled": 0, "lat": 38.8719865, "rental_uris": {"android": "https://dc.lft.to/lastmile_qr_scan", "ios": "https://dc.lft.to/lastmile_qr_scan"}, "bike_id": "1bf8af352e26da59f8d83481d1113660", "lon": -77.00574916666666}, {"is_reserved": 0, "fusion_lon": 0.0, "fusion_lat": 0.0, "name": "aa2e3e21e819001f6b4177e9a241a16d", "type": "electric_scooter", "is_disabled": 0, "lat": 38.91709866666667, "rental_uris": {"android": "https://dc.lft.to/lastmile_qr_scan", "ios": "https://dc.lft.to/lastmile_qr_scan"}, "bike_id": "aa2e3e21e819001f6b4177e9a241a16d", "lon": -77.0346665}, {"is_reserved": 0, "fusion_lon": 0.0, "fusion_lat": 0.0, "name": "41a9171804335187037d583a642258cf", "type": "electric_scooter", "is_disabled": 0, "lat": 38.892869833333336, "rental_uris": {"android": "https://dc.lft.to/lastmile_qr_scan", "ios": "https://dc.lft.to/lastmile_qr_scan"}, "bike_id": "41a9171804335187037d583a642258cf", "lon": -77.03211266666666}, {"is_reserved": 0, "fusion_lon": 0.0, "fusion_lat": 0.0, "name": "6aadc0f41b910487243143bb389e08d5", "type": "electric_scooter", "is_disabled": 0, "lat": 38.892286166666665, "rental_uris": {"android": "https://dc.lft.to/lastmile_qr_scan", "ios": "https://dc.lft.to/lastmile_qr_scan"}, "bike_id": "6aadc0f41b910487243143bb389e08d5", "lon": -77.02346583333333}, {"is_reserved": 0, "fusion_lon": 0.0, "fusion_lat": 0.0, "name": "a588e86fa4571caaa2c0e2531f7cfbb9", "type": "electric_scooter", "is_disabled": 0, "lat": 38.9418505, "rental_uris": {"android": "https://dc.lft.to/lastmile_qr_scan", "ios": "https://dc.lft.to/lastmile_qr_scan"}, "bike_id": "a588e86fa4571caaa2c0e2531f7cfbb9", "lon": -77.0296565}, {"is_reserved": 0, "fusion_lon": 0.0, "fusion_lat": 0.0, "name": "57e8471137fa2357d6a51b6fa1c77a96", "type": "electric_scooter", "is_disabled": 0, "lat": 38.89017916666667, "rental_uris": {"android": "https://dc.lft.to/lastmile_qr_scan", "ios": "https://dc.lft.to/lastmile_qr_scan"}, "bike_id": "57e8471137fa2357d6a51b6fa1c77a96", "lon": -76.937047}, {"is_reserved": 0, "fusion_lon": 0.0, "fusion_lat": 0.0, "name": "25efeeacab6c8c68984804d41eeb4956", "type": "electric_scooter", "is_disabled": 0, "lat": 38.907912333333336, "rental_uris": {"android": "https://dc.lft.to/lastmile_qr_scan", "ios": "https://dc.lft.to/lastmile_qr_scan"}, "bike_id": "25efeeacab6c8c68984804d41eeb4956", "lon": -77.00967216666666}, {"is_reserved": 0, "fusion_lon": 0.0, "fusion_lat": 0.0, "name": "fa6fe18a8a6de38cf65e1855f00215b8", "type": "electric_scooter", "is_disabled": 0, "lat": 38.918567333333336, "rental_uris": {"android": "https://dc.lft.to/lastmile_qr_scan", "ios": "https://dc.lft.to/lastmile_qr_scan"}, "bike_id": "fa6fe18a8a6de38cf65e1855f00215b8", "lon": -77.01352166666666}, {"is_reserved": 0, "fusion_lon": 0.0, "fusion_lat": 0.0, "name": "03c695dde305bad854d838580db93bd0", "type": "electric_scooter", "is_disabled": 0, "lat": 38.920920333333335, "rental_uris": {"android": "https://dc.lft.to/lastmile_qr_scan", "ios": "https://dc.lft.to/lastmile_qr_scan"}, "bike_id": "03c695dde305bad854d838580db93bd0", "lon": -77.02351616666667}, {"is_reserved": 0, "fusion_lon": 0.0, "fusion_lat": 0.0, "name": "21186b7fec83e7c7431cb55a9fb060a6", "type": "electric_bike", "is_disabled": 0, "lat": 38.93971966666667, "rental_uris": {"android": "https://dc.lft.to/lastmile_qr_scan", "ios": "https://dc.lft.to/lastmile_qr_scan"}, "bike_id": "21186b7fec83e7c7431cb55a9fb060a6", "lon": -76.9861635}, {"is_reserved": 0, "fusion_lon": 0.0, "fusion_lat": 0.0, "name": "6c97fa9599e752ecfdf4a7752bdbde1d", "type": "electric_scooter", "is_disabled": 0, "lat": 38.925842833333334, "rental_uris": {"android": "https://dc.lft.to/lastmile_qr_scan", "ios": "https://dc.lft.to/lastmile_qr_scan"}, "bike_id": "6c97fa9599e752ecfdf4a7752bdbde1d", "lon": -77.02610583333333}, {"is_reserved": 0, "fusion_lon": 0.0, "fusion_lat": 0.0, "name": "425ce4eca5b3caf83aac8c716e54d636", "type": "electric_scooter", "is_disabled": 0, "lat": 38.901548, "rental_uris": {"android": "https://dc.lft.to/lastmile_qr_scan", "ios": "https://dc.lft.to/lastmile_qr_scan"}, "bike_id": "425ce4eca5b3caf83aac8c716e54d636", "lon": -76.99028666666666}, {"is_reserved": 0, "fusion_lon": 0.0, "fusion_lat": 0.0, "name": "853963266cf79ad2b2d8fa0feee84667", "type": "electric_scooter", "is_disabled": 0, "lat": 38.90723216666667, "rental_uris": {"android": "https://dc.lft.to/lastmile_qr_scan", "ios": "https://dc.lft.to/lastmile_qr_scan"}, "bike_id": "853963266cf79ad2b2d8fa0feee84667", "lon": -77.01641066666667}, {"is_reserved": 0, "fusion_lon": 0.0, "fusion_lat": 0.0, "name": "8690be4e5a11fefdfedb948314c270da", "type": "electric_bike", "is_disabled": 0, "lat": 38.884072, "rental_uris": {"android": "https://dc.lft.to/lastmile_qr_scan", "ios": "https://dc.lft.to/lastmile_qr_scan"}, "bike_id": "8690be4e5a11fefdfedb948314c270da", "lon": -76.96058683333334}, {"is_reserved": 0, "fusion_lon": 0.0, "fusion_lat": 0.0, "name": "fec8a911f48ecf80d0075c28961fce56", "type": "electric_scooter", "is_disabled": 0, "lat": 38.9162015, "rental_uris": {"android": "https://dc.lft.to/lastmile_qr_scan", "ios": "https://dc.lft.to/lastmile_qr_scan"}, "bike_id": "fec8a911f48ecf80d0075c28961fce56", "lon": -77.01089433333334}, {"is_reserved": 0, "fusion_lon": 0.0, "fusion_lat": 0.0, "name": "bfbe207737fefe64d54659bff3bb7434", "type": "electric_scooter", "is_disabled": 0, "lat": 38.91527633333333, "rental_uris": {"android": "https://dc.lft.to/lastmile_qr_scan", "ios": "https://dc.lft.to/lastmile_qr_scan"}, "bike_id": "bfbe207737fefe64d54659bff3bb7434", "lon": -77.0741895}, {"is_reserved": 0, "fusion_lon": 0.0, "fusion_lat": 0.0, "name": "95d4b406521713dd5042b0d5f4c961fc", "type": "electric_bike", "is_disabled": 0, "lat": 38.869399333333334, "rental_uris": {"android": "https://dc.lft.to/lastmile_qr_scan", "ios": "https://dc.lft.to/lastmile_qr_scan"}, "bike_id": "95d4b406521713dd5042b0d5f4c961fc", "lon": -77.09471866666667}, {"is_reserved": 0, "fusion_lon": 0.0, "fusion_lat": 0.0, "name": "2d4abcc40d2c8e65ebb2e1bb97f6bbe6", "type": "electric_scooter", "is_disabled": 0, "lat": 38.87722516666667, "rental_uris": {"android": "https://dc.lft.to/lastmile_qr_scan", "ios": "https://dc.lft.to/lastmile_qr_scan"}, "bike_id": "2d4abcc40d2c8e65ebb2e1bb97f6bbe6", "lon": -77.017423}, {"is_reserved": 0, "fusion_lon": 0.0, "fusion_lat": 0.0, "name": "26e7e9c5294d64cc5457b486aa9669cc", "type": "electric_scooter", "is_disabled": 0, "lat": 38.8876535, "rental_uris": {"android": "https://dc.lft.to/lastmile_qr_scan", "ios": "https://dc.lft.to/lastmile_qr_scan"}, "bike_id": "26e7e9c5294d64cc5457b486aa9669cc", "lon": -76.98682083333334}, {"is_reserved": 0, "fusion_lon": 0.0, "fusion_lat": 0.0, "name": "b5379bb0b289e0f581f8b33703495440", "type": "electric_bike", "is_disabled": 0, "lat": 39.056332833333336, "rental_uris": {"android": "https://dc.lft.to/lastmile_qr_scan", "ios": "https://dc.lft.to/lastmile_qr_scan"}, "bike_id": "b5379bb0b289e0f581f8b33703495440", "lon": -77.12527383333334}, {"is_reserved": 0, "fusion_lon": 0.0, "fusion_lat": 0.0, "name": "b3d3a546d975eb67d0c1a4f21ef6f7f9", "type": "electric_scooter", "is_disabled": 0, "lat": 38.92083983333333, "rental_uris": {"android": "https://dc.lft.to/lastmile_qr_scan", "ios": "https://dc.lft.to/lastmile_qr_scan"}, "bike_id": "b3d3a546d975eb67d0c1a4f21ef6f7f9", "lon": -77.0239075}, {"is_reserved": 0, "fusion_lon": 0.0, "fusion_lat": 0.0, "name": "d601ae536c12d1d97955e8d4893f2377", "type": "electric_scooter", "is_disabled": 0, "lat": 38.9038295, "rental_uris": {"android": "https://dc.lft.to/lastmile_qr_scan", "ios": "https://dc.lft.to/lastmile_qr_scan"}, "bike_id": "d601ae536c12d1d97955e8d4893f2377", "lon": -77.03841816666667}, {"is_reserved": 0, "fusion_lon": 0.0, "fusion_lat": 0.0, "name": "aa50ba2e2107f2d2bfee0c72ac53fae2", "type": "electric_scooter", "is_disabled": 0, "lat": 38.89744966666667, "rental_uris": {"android": "https://dc.lft.to/lastmile_qr_scan", "ios": "https://dc.lft.to/lastmile_qr_scan"}, "bike_id": "aa50ba2e2107f2d2bfee0c72ac53fae2", "lon": -77.03344983333334}, {"is_reserved": 0, "fusion_lon": 0.0, "fusion_lat": 0.0, "name": "3391250ccd6eddae06461ccf10c53f5d", "type": "electric_scooter", "is_disabled": 0, "lat": 38.94512783333333, "rental_uris": {"android": "https://dc.lft.to/lastmile_qr_scan", "ios": "https://dc.lft.to/lastmile_qr_scan"}, "bike_id": "3391250ccd6eddae06461ccf10c53f5d", "lon": -77.07454333333334}, {"is_reserved": 0, "fusion_lon": 0.0, "fusion_lat": 0.0, "name": "50de6a44ed41aa88fed37a3cdfc0b8e6", "type": "electric_scooter", "is_disabled": 0, "lat": 38.92449966666667, "rental_uris": {"android": "https://dc.lft.to/lastmile_qr_scan", "ios": "https://dc.lft.to/lastmile_qr_scan"}, "bike_id": "50de6a44ed41aa88fed37a3cdfc0b8e6", "lon": -76.97914233333333}, {"is_reserved": 0, "fusion_lon": 0.0, "fusion_lat": 0.0, "name": "062675fd333ca44307c6ef170729cc89", "type": "electric_scooter", "is_disabled": 0, "lat": 38.905016333333336, "rental_uris": {"android": "https://dc.lft.to/lastmile_qr_scan", "ios": "https://dc.lft.to/lastmile_qr_scan"}, "bike_id": "062675fd333ca44307c6ef170729cc89", "lon": -77.02950933333334}, {"is_reserved": 0, "fusion_lon": 0.0, "fusion_lat": 0.0, "name": "fdadf70a09280585d1ffb8926136493a", "type": "electric_scooter", "is_disabled": 0, "lat": 38.909916, "rental_uris": {"android": "https://dc.lft.to/lastmile_qr_scan", "ios": "https://dc.lft.to/lastmile_qr_scan"}, "bike_id": "fdadf70a09280585d1ffb8926136493a", "lon": -77.028162}, {"is_reserved": 0, "fusion_lon": 0.0, "fusion_lat": 0.0, "name": "b7efc0bf2b1aa7e1e9b5a829ac28953a", "type": "electric_scooter", "is_disabled": 0, "lat": 38.910272666666664, "rental_uris": {"android": "https://dc.lft.to/lastmile_qr_scan", "ios": "https://dc.lft.to/lastmile_qr_scan"}, "bike_id": "b7efc0bf2b1aa7e1e9b5a829ac28953a", "lon": -77.0344435}, {"is_reserved": 0, "fusion_lon": 0.0, "fusion_lat": 0.0, "name": "37be85a96001fe7797b78e44298711d0", "type": "electric_scooter", "is_disabled": 0, "lat": 38.918922, "rental_uris": {"android": "https://dc.lft.to/lastmile_qr_scan", "ios": "https://dc.lft.to/lastmile_qr_scan"}, "bike_id": "37be85a96001fe7797b78e44298711d0", "lon": -77.0298355}, {"is_reserved": 0, "fusion_lon": 0.0, "fusion_lat": 0.0, "name": "3e9ce6787413594ab806686cc2f2a2ee", "type": "electric_scooter", "is_disabled": 0, "lat": 38.92273183333333, "rental_uris": {"android": "https://dc.lft.to/lastmile_qr_scan", "ios": "https://dc.lft.to/lastmile_qr_scan"}, "bike_id": "3e9ce6787413594ab806686cc2f2a2ee", "lon": -77.042796}, {"is_reserved": 0, "fusion_lon": 0.0, "fusion_lat": 0.0, "name": "4554335a05e79b2a0a5798c385ef6b00", "type": "electric_scooter", "is_disabled": 0, "lat": 38.895042333333336, "rental_uris": {"android": "https://dc.lft.to/lastmile_qr_scan", "ios": "https://dc.lft.to/lastmile_qr_scan"}, "bike_id": "4554335a05e79b2a0a5798c385ef6b00", "lon": -76.9347705}, {"is_reserved": 0, "fusion_lon": 0.0, "fusion_lat": 0.0, "name": "3e022f29e7c0c0e2b12ef834e1d44349", "type": "electric_scooter", "is_disabled": 0, "lat": 38.92279966666667, "rental_uris": {"android": "https://dc.lft.to/lastmile_qr_scan", "ios": "https://dc.lft.to/lastmile_qr_scan"}, "bike_id": "3e022f29e7c0c0e2b12ef834e1d44349", "lon": -77.04281366666666}, {"is_reserved": 0, "fusion_lon": 0.0, "fusion_lat": 0.0, "name": "864a0167b0642a82b355324fe0fbe889", "type": "electric_scooter", "is_disabled": 0, "lat": 38.91576033333333, "rental_uris": {"android": "https://dc.lft.to/lastmile_qr_scan", "ios": "https://dc.lft.to/lastmile_qr_scan"}, "bike_id": "864a0167b0642a82b355324fe0fbe889", "lon": -77.02409066666667}, {"is_reserved": 0, "fusion_lon": 0.0, "fusion_lat": 0.0, "name": "d5495cc33c42abdbe55b034ec0ca966c", "type": "electric_scooter", "is_disabled": 0, "lat": 38.929936833333336, "rental_uris": {"android": "https://dc.lft.to/lastmile_qr_scan", "ios": "https://dc.lft.to/lastmile_qr_scan"}, "bike_id": "d5495cc33c42abdbe55b034ec0ca966c", "lon": -77.04426483333333}, {"is_reserved": 0, "fusion_lon": 0.0, "fusion_lat": 0.0, "name": "5a9d4c4439c4e2e412ec00d55cb2aa2f", "type": "electric_scooter", "is_disabled": 0, "lat": 38.88354266666666, "rental_uris": {"android": "https://dc.lft.to/lastmile_qr_scan", "ios": "https://dc.lft.to/lastmile_qr_scan"}, "bike_id": "5a9d4c4439c4e2e412ec00d55cb2aa2f", "lon": -77.02038366666666}, {"is_reserved": 0, "fusion_lon": 0.0, "fusion_lat": 0.0, "name": "94011b82897803fc1773bdc15d7700fe", "type": "electric_scooter", "is_disabled": 0, "lat": 38.905600666666665, "rental_uris": {"android": "https://dc.lft.to/lastmile_qr_scan", "ios": "https://dc.lft.to/lastmile_qr_scan"}, "bike_id": "94011b82897803fc1773bdc15d7700fe", "lon": -77.04467233333334}, {"is_reserved": 0, "fusion_lon": 0.0, "fusion_lat": 0.0, "name": "1e4970e76262947ec93340e496586fff", "type": "electric_scooter", "is_disabled": 0, "lat": 38.892278, "rental_uris": {"android": "https://dc.lft.to/lastmile_qr_scan", "ios": "https://dc.lft.to/lastmile_qr_scan"}, "bike_id": "1e4970e76262947ec93340e496586fff", "lon": -77.045042}, {"is_reserved": 0, "fusion_lon": 0.0, "fusion_lat": 0.0, "name": "6d9faeb8df1469886ab04c048fc3b9e4", "type": "electric_scooter", "is_disabled": 0, "lat": 38.9223345, "rental_uris": {"android": "https://dc.lft.to/lastmile_qr_scan", "ios": "https://dc.lft.to/lastmile_qr_scan"}, "bike_id": "6d9faeb8df1469886ab04c048fc3b9e4", "lon": -77.02336183333334}, {"is_reserved": 0, "fusion_lon": 0.0, "fusion_lat": 0.0, "name": "6ce5e80c8172b935cdb1622030e7b275", "type": "electric_scooter", "is_disabled": 0, "lat": 38.86399866666667, "rental_uris": {"android": "https://dc.lft.to/lastmile_qr_scan", "ios": "https://dc.lft.to/lastmile_qr_scan"}, "bike_id": "6ce5e80c8172b935cdb1622030e7b275", "lon": -76.974423}, {"is_reserved": 0, "fusion_lon": 0.0, "fusion_lat": 0.0, "name": "7f309516ddf8bd80e04c964c42e1ba50", "type": "electric_scooter", "is_disabled": 0, "lat": 38.8606795, "rental_uris": {"android": "https://dc.lft.to/lastmile_qr_scan", "ios": "https://dc.lft.to/lastmile_qr_scan"}, "bike_id": "7f309516ddf8bd80e04c964c42e1ba50", "lon": -76.9689205}, {"is_reserved": 0, "fusion_lon": 0.0, "fusion_lat": 0.0, "name": "de23e894cd848c69fa40c3e30b07fc06", "type": "electric_scooter", "is_disabled": 0, "lat": 38.906246, "rental_uris": {"android": "https://dc.lft.to/lastmile_qr_scan", "ios": "https://dc.lft.to/lastmile_qr_scan"}, "bike_id": "de23e894cd848c69fa40c3e30b07fc06", "lon": -77.04779233333333}, {"is_reserved": 0, "fusion_lon": 0.0, "fusion_lat": 0.0, "name": "91335f099be05e267c37b928a28ad8fc", "type": "electric_bike", "is_disabled": 0, "lat": 38.9478825, "rental_uris": {"android": "https://dc.lft.to/lastmile_qr_scan", "ios": "https://dc.lft.to/lastmile_qr_scan"}, "bike_id": "91335f099be05e267c37b928a28ad8fc", "lon": -76.972115}, {"is_reserved": 0, "fusion_lon": 0.0, "fusion_lat": 0.0, "name": "b1c2f6a227d20e3b92b6fbb33f164509", "type": "electric_scooter", "is_disabled": 0, "lat": 38.906697, "rental_uris": {"android": "https://dc.lft.to/lastmile_qr_scan", "ios": "https://dc.lft.to/lastmile_qr_scan"}, "bike_id": "b1c2f6a227d20e3b92b6fbb33f164509", "lon": -77.03841966666667}, {"is_reserved": 0, "fusion_lon": 0.0, "fusion_lat": 0.0, "name": "bde1cb212e7857230baf3b57fda27fdb", "type": "electric_scooter", "is_disabled": 0, "lat": 38.887465166666665, "rental_uris": {"android": "https://dc.lft.to/lastmile_qr_scan", "ios": "https://dc.lft.to/lastmile_qr_scan"}, "bike_id": "bde1cb212e7857230baf3b57fda27fdb", "lon": -77.01541933333333}, {"is_reserved": 0, "fusion_lon": 0.0, "fusion_lat": 0.0, "name": "ae65c7da057f12ca49294df70b5ecd4c", "type": "electric_bike", "is_disabled": 0, "lat": 39.024344666666664, "rental_uris": {"android": "https://dc.lft.to/lastmile_qr_scan", "ios": "https://dc.lft.to/lastmile_qr_scan"}, "bike_id": "ae65c7da057f12ca49294df70b5ecd4c", "lon": -77.13102983333333}, {"is_reserved": 0, "fusion_lon": 0.0, "fusion_lat": 0.0, "name": "e448c1f7610b292d501918d5b8e2ff21", "type": "electric_scooter", "is_disabled": 0, "lat": 38.89878366666667, "rental_uris": {"android": "https://dc.lft.to/lastmile_qr_scan", "ios": "https://dc.lft.to/lastmile_qr_scan"}, "bike_id": "e448c1f7610b292d501918d5b8e2ff21", "lon": -76.931868}, {"is_reserved": 0, "fusion_lon": 0.0, "fusion_lat": 0.0, "name": "e4ae642c6919c37366a7bf4796b422e5", "type": "electric_scooter", "is_disabled": 0, "lat": 38.917007166666664, "rental_uris": {"android": "https://dc.lft.to/lastmile_qr_scan", "ios": "https://dc.lft.to/lastmile_qr_scan"}, "bike_id": "e4ae642c6919c37366a7bf4796b422e5", "lon": -77.0419715}, {"is_reserved": 0, "fusion_lon": 0.0, "fusion_lat": 0.0, "name": "10d3db485768e7f0e9e9d0d2997c7852", "type": "electric_scooter", "is_disabled": 0, "lat": 38.961119, "rental_uris": {"android": "https://dc.lft.to/lastmile_qr_scan", "ios": "https://dc.lft.to/lastmile_qr_scan"}, "bike_id": "10d3db485768e7f0e9e9d0d2997c7852", "lon": -77.00951733333333}, {"is_reserved": 0, "fusion_lon": 0.0, "fusion_lat": 0.0, "name": "0be8150d50dd6834ce175709ebe5f840", "type": "electric_scooter", "is_disabled": 0, "lat": 38.936793333333334, "rental_uris": {"android": "https://dc.lft.to/lastmile_qr_scan", "ios": "https://dc.lft.to/lastmile_qr_scan"}, "bike_id": "0be8150d50dd6834ce175709ebe5f840", "lon": -77.03636633333333}, {"is_reserved": 0, "fusion_lon": 0.0, "fusion_lat": 0.0, "name": "f1fa44726e94961fe4edb7874ba1c570", "type": "electric_scooter", "is_disabled": 0, "lat": 38.9005625, "rental_uris": {"android": "https://dc.lft.to/lastmile_qr_scan", "ios": "https://dc.lft.to/lastmile_qr_scan"}, "bike_id": "f1fa44726e94961fe4edb7874ba1c570", "lon": -77.0483215}, {"is_reserved": 0, "fusion_lon": 0.0, "fusion_lat": 0.0, "name": "63af6ea5c6d769845e0bfdfac8f15e51", "type": "electric_scooter", "is_disabled": 0, "lat": 38.919185166666665, "rental_uris": {"android": "https://dc.lft.to/lastmile_qr_scan", "ios": "https://dc.lft.to/lastmile_qr_scan"}, "bike_id": "63af6ea5c6d769845e0bfdfac8f15e51", "lon": -77.048083}, {"is_reserved": 0, "fusion_lon": 0.0, "fusion_lat": 0.0, "name": "f65c0ba776af1bdd6c01a9cb6fab600d", "type": "electric_scooter", "is_disabled": 0, "lat": 38.91127566666667, "rental_uris": {"android": "https://dc.lft.to/lastmile_qr_scan", "ios": "https://dc.lft.to/lastmile_qr_scan"}, "bike_id": "f65c0ba776af1bdd6c01a9cb6fab600d", "lon": -77.03837783333333}, {"is_reserved": 0, "fusion_lon": 0.0, "fusion_lat": 0.0, "name": "12d02257cc805fb36b98e4549f2231c2", "type": "electric_scooter", "is_disabled": 0, "lat": 38.90411116666667, "rental_uris": {"android": "https://dc.lft.to/lastmile_qr_scan", "ios": "https://dc.lft.to/lastmile_qr_scan"}, "bike_id": "12d02257cc805fb36b98e4549f2231c2", "lon": -77.02939016666667}, {"is_reserved": 0, "fusion_lon": 0.0, "fusion_lat": 0.0, "name": "9c03f657012e73b661ba49a6d2b5d36e", "type": "electric_scooter", "is_disabled": 0, "lat": 38.91711183333334, "rental_uris": {"android": "https://dc.lft.to/lastmile_qr_scan", "ios": "https://dc.lft.to/lastmile_qr_scan"}, "bike_id": "9c03f657012e73b661ba49a6d2b5d36e", "lon": -77.03474433333334}, {"is_reserved": 0, "fusion_lon": 0.0, "fusion_lat": 0.0, "name": "8f08fc8c4b9ff550e2a7c986ad34027c", "type": "electric_scooter", "is_disabled": 0, "lat": 38.883423666666665, "rental_uris": {"android": "https://dc.lft.to/lastmile_qr_scan", "ios": "https://dc.lft.to/lastmile_qr_scan"}, "bike_id": "8f08fc8c4b9ff550e2a7c986ad34027c", "lon": -77.017374}, {"is_reserved": 0, "fusion_lon": 0.0, "fusion_lat": 0.0, "name": "4cf83feef3513e37b47286f15099ca30", "type": "electric_scooter", "is_disabled": 0, "lat": 38.905798, "rental_uris": {"android": "https://dc.lft.to/lastmile_qr_scan", "ios": "https://dc.lft.to/lastmile_qr_scan"}, "bike_id": "4cf83feef3513e37b47286f15099ca30", "lon": -77.00886116666666}, {"is_reserved": 0, "fusion_lon": 0.0, "fusion_lat": 0.0, "name": "3c8e9443a25ef7491c564beaa9fd8752", "type": "electric_scooter", "is_disabled": 0, "lat": 38.92332833333333, "rental_uris": {"android": "https://dc.lft.to/lastmile_qr_scan", "ios": "https://dc.lft.to/lastmile_qr_scan"}, "bike_id": "3c8e9443a25ef7491c564beaa9fd8752", "lon": -76.99893633333333}, {"is_reserved": 0, "fusion_lon": 0.0, "fusion_lat": 0.0, "name": "1020cd16a32d932d39376fd6dc1c97e4", "type": "electric_scooter", "is_disabled": 0, "lat": 38.88026333333333, "rental_uris": {"android": "https://dc.lft.to/lastmile_qr_scan", "ios": "https://dc.lft.to/lastmile_qr_scan"}, "bike_id": "1020cd16a32d932d39376fd6dc1c97e4", "lon": -76.984808}, {"is_reserved": 0, "fusion_lon": 0.0, "fusion_lat": 0.0, "name": "226775cd987985bff6c1620f24f6e512", "type": "electric_scooter", "is_disabled": 0, "lat": 38.91887533333333, "rental_uris": {"android": "https://dc.lft.to/lastmile_qr_scan", "ios": "https://dc.lft.to/lastmile_qr_scan"}, "bike_id": "226775cd987985bff6c1620f24f6e512", "lon": -77.03487616666666}, {"is_reserved": 0, "fusion_lon": 0.0, "fusion_lat": 0.0, "name": "bbe238faacb75c8e7b33dfb7374e5afa", "type": "electric_scooter", "is_disabled": 0, "lat": 38.909786, "rental_uris": {"android": "https://dc.lft.to/lastmile_qr_scan", "ios": "https://dc.lft.to/lastmile_qr_scan"}, "bike_id": "bbe238faacb75c8e7b33dfb7374e5afa", "lon": -77.03182066666666}, {"is_reserved": 0, "fusion_lon": 0.0, "fusion_lat": 0.0, "name": "3f6e7d67c6138cd1fde3e6dd41908700", "type": "electric_scooter", "is_disabled": 0, "lat": 38.906558, "rental_uris": {"android": "https://dc.lft.to/lastmile_qr_scan", "ios": "https://dc.lft.to/lastmile_qr_scan"}, "bike_id": "3f6e7d67c6138cd1fde3e6dd41908700", "lon": -77.04865116666667}, {"is_reserved": 0, "fusion_lon": 0.0, "fusion_lat": 0.0, "name": "32d14053e8dcf56b36e141e891362593", "type": "electric_scooter", "is_disabled": 0, "lat": 38.9143185, "rental_uris": {"android": "https://dc.lft.to/lastmile_qr_scan", "ios": "https://dc.lft.to/lastmile_qr_scan"}, "bike_id": "32d14053e8dcf56b36e141e891362593", "lon": -77.02582916666667}, {"is_reserved": 0, "fusion_lon": 0.0, "fusion_lat": 0.0, "name": "4a9d524217288673fd6bbf5d02526752", "type": "electric_scooter", "is_disabled": 0, "lat": 38.903932833333336, "rental_uris": {"android": "https://dc.lft.to/lastmile_qr_scan", "ios": "https://dc.lft.to/lastmile_qr_scan"}, "bike_id": "4a9d524217288673fd6bbf5d02526752", "lon": -77.04183116666667}, {"is_reserved": 0, "fusion_lon": 0.0, "fusion_lat": 0.0, "name": "f538edfd13db6b47c47702b1e0b5df93", "type": "electric_scooter", "is_disabled": 0, "lat": 38.902712333333334, "rental_uris": {"android": "https://dc.lft.to/lastmile_qr_scan", "ios": "https://dc.lft.to/lastmile_qr_scan"}, "bike_id": "f538edfd13db6b47c47702b1e0b5df93", "lon": -77.03430483333334}, {"is_reserved": 0, "fusion_lon": 0.0, "fusion_lat": 0.0, "name": "03d873f4a9095d012b3667ec43e4ff0f", "type": "electric_scooter", "is_disabled": 0, "lat": 38.909778333333335, "rental_uris": {"android": "https://dc.lft.to/lastmile_qr_scan", "ios": "https://dc.lft.to/lastmile_qr_scan"}, "bike_id": "03d873f4a9095d012b3667ec43e4ff0f", "lon": -77.03182683333333}, {"is_reserved": 0, "fusion_lon": 0.0, "fusion_lat": 0.0, "name": "8955888e4c941825c67b2d32b663e2d4", "type": "electric_scooter", "is_disabled": 0, "lat": 38.928558333333335, "rental_uris": {"android": "https://dc.lft.to/lastmile_qr_scan", "ios": "https://dc.lft.to/lastmile_qr_scan"}, "bike_id": "8955888e4c941825c67b2d32b663e2d4", "lon": -77.03730566666667}, {"is_reserved": 0, "fusion_lon": 0.0, "fusion_lat": 0.0, "name": "7dc236a94fb2364b842b3c9fbfe48c49", "type": "electric_scooter", "is_disabled": 0, "lat": 38.9081695, "rental_uris": {"android": "https://dc.lft.to/lastmile_qr_scan", "ios": "https://dc.lft.to/lastmile_qr_scan"}, "bike_id": "7dc236a94fb2364b842b3c9fbfe48c49", "lon": -77.04339716666667}, {"is_reserved": 0, "fusion_lon": 0.0, "fusion_lat": 0.0, "name": "61d0c62638521a884dff6bf4dfd34865", "type": "electric_scooter", "is_disabled": 0, "lat": 38.90595366666667, "rental_uris": {"android": "https://dc.lft.to/lastmile_qr_scan", "ios": "https://dc.lft.to/lastmile_qr_scan"}, "bike_id": "61d0c62638521a884dff6bf4dfd34865", "lon": -77.03483833333334}, {"is_reserved": 0, "fusion_lon": 0.0, "fusion_lat": 0.0, "name": "1d30a788c1aafaf1a2284beb0f397a92", "type": "electric_scooter", "is_disabled": 0, "lat": 38.906293, "rental_uris": {"android": "https://dc.lft.to/lastmile_qr_scan", "ios": "https://dc.lft.to/lastmile_qr_scan"}, "bike_id": "1d30a788c1aafaf1a2284beb0f397a92", "lon": -77.04164983333334}, {"is_reserved": 0, "fusion_lon": 0.0, "fusion_lat": 0.0, "name": "d58d59c392a43847f74ce374f944d9f2", "type": "electric_scooter", "is_disabled": 0, "lat": 38.918275333333334, "rental_uris": {"android": "https://dc.lft.to/lastmile_qr_scan", "ios": "https://dc.lft.to/lastmile_qr_scan"}, "bike_id": "d58d59c392a43847f74ce374f944d9f2", "lon": -77.03456933333334}, {"is_reserved": 0, "fusion_lon": 0.0, "fusion_lat": 0.0, "name": "0a1178e5364890325aa337f8fd5c7a10", "type": "electric_scooter", "is_disabled": 0, "lat": 38.9001315, "rental_uris": {"android": "https://dc.lft.to/lastmile_qr_scan", "ios": "https://dc.lft.to/lastmile_qr_scan"}, "bike_id": "0a1178e5364890325aa337f8fd5c7a10", "lon": -76.93028916666667}, {"is_reserved": 0, "fusion_lon": 0.0, "fusion_lat": 0.0, "name": "1d3951980cba52c8ebc166e7768067cf", "type": "electric_scooter", "is_disabled": 0, "lat": 38.932530666666665, "rental_uris": {"android": "https://dc.lft.to/lastmile_qr_scan", "ios": "https://dc.lft.to/lastmile_qr_scan"}, "bike_id": "1d3951980cba52c8ebc166e7768067cf", "lon": -77.0327825}, {"is_reserved": 0, "fusion_lon": 0.0, "fusion_lat": 0.0, "name": "bcc1b6bbf91dd01ef07ab89e35b12796", "type": "electric_scooter", "is_disabled": 0, "lat": 38.89237266666667, "rental_uris": {"android": "https://dc.lft.to/lastmile_qr_scan", "ios": "https://dc.lft.to/lastmile_qr_scan"}, "bike_id": "bcc1b6bbf91dd01ef07ab89e35b12796", "lon": -77.02382083333333}, {"is_reserved": 0, "fusion_lon": 0.0, "fusion_lat": 0.0, "name": "b915631817daef501c23cd518b2d83a9", "type": "electric_scooter", "is_disabled": 0, "lat": 38.866982666666665, "rental_uris": {"android": "https://dc.lft.to/lastmile_qr_scan", "ios": "https://dc.lft.to/lastmile_qr_scan"}, "bike_id": "b915631817daef501c23cd518b2d83a9", "lon": -76.9859205}, {"is_reserved": 0, "fusion_lon": 0.0, "fusion_lat": 0.0, "name": "82e04403185c2a450dc370a0dd70d152", "type": "electric_scooter", "is_disabled": 0, "lat": 38.925420833333334, "rental_uris": {"android": "https://dc.lft.to/lastmile_qr_scan", "ios": "https://dc.lft.to/lastmile_qr_scan"}, "bike_id": "82e04403185c2a450dc370a0dd70d152", "lon": -76.972201}, {"is_reserved": 0, "fusion_lon": 0.0, "fusion_lat": 0.0, "name": "fb139916128df20db9a36a44ba9785b4", "type": "electric_scooter", "is_disabled": 0, "lat": 38.923525, "rental_uris": {"android": "https://dc.lft.to/lastmile_qr_scan", "ios": "https://dc.lft.to/lastmile_qr_scan"}, "bike_id": "fb139916128df20db9a36a44ba9785b4", "lon": -77.034946}, {"is_reserved": 0, "fusion_lon": 0.0, "fusion_lat": 0.0, "name": "a486d2e0867714b09867e082e3a63653", "type": "electric_scooter", "is_disabled": 0, "lat": 38.88524783333333, "rental_uris": {"android": "https://dc.lft.to/lastmile_qr_scan", "ios": "https://dc.lft.to/lastmile_qr_scan"}, "bike_id": "a486d2e0867714b09867e082e3a63653", "lon": -76.995973}, {"is_reserved": 0, "fusion_lon": 0.0, "fusion_lat": 0.0, "name": "13bcee70362949d0262bf50d25112886", "type": "electric_scooter", "is_disabled": 0, "lat": 38.911159, "rental_uris": {"android": "https://dc.lft.to/lastmile_qr_scan", "ios": "https://dc.lft.to/lastmile_qr_scan"}, "bike_id": "13bcee70362949d0262bf50d25112886", "lon": -77.04464833333333}, {"is_reserved": 0, "fusion_lon": 0.0, "fusion_lat": 0.0, "name": "78d8717c6428fcde682091cef59aeaf6", "type": "electric_bike", "is_disabled": 0, "lat": 38.96218016666667, "rental_uris": {"android": "https://dc.lft.to/lastmile_qr_scan", "ios": "https://dc.lft.to/lastmile_qr_scan"}, "bike_id": "78d8717c6428fcde682091cef59aeaf6", "lon": -77.02628516666667}, {"is_reserved": 0, "fusion_lon": 0.0, "fusion_lat": 0.0, "name": "d84e2dbdd78c6de7b8d9e586840002a6", "type": "electric_scooter", "is_disabled": 0, "lat": 38.884602, "rental_uris": {"android": "https://dc.lft.to/lastmile_qr_scan", "ios": "https://dc.lft.to/lastmile_qr_scan"}, "bike_id": "d84e2dbdd78c6de7b8d9e586840002a6", "lon": -76.92622783333333}, {"is_reserved": 0, "fusion_lon": 0.0, "fusion_lat": 0.0, "name": "2655567c6b770cdde60ce32569f4006f", "type": "electric_scooter", "is_disabled": 0, "lat": 38.930434, "rental_uris": {"android": "https://dc.lft.to/lastmile_qr_scan", "ios": "https://dc.lft.to/lastmile_qr_scan"}, "bike_id": "2655567c6b770cdde60ce32569f4006f", "lon": -77.03304583333333}, {"is_reserved": 0, "fusion_lon": 0.0, "fusion_lat": 0.0, "name": "9787143e7e06607d46b18c858f8e24c5", "type": "electric_bike", "is_disabled": 0, "lat": 38.81203033333333, "rental_uris": {"android": "https://dc.lft.to/lastmile_qr_scan", "ios": "https://dc.lft.to/lastmile_qr_scan"}, "bike_id": "9787143e7e06607d46b18c858f8e24c5", "lon": -77.10839}, {"is_reserved": 0, "fusion_lon": 0.0, "fusion_lat": 0.0, "name": "4d5d25839052b1b3212d1360b72089af", "type": "electric_scooter", "is_disabled": 0, "lat": 38.900222166666666, "rental_uris": {"android": "https://dc.lft.to/lastmile_qr_scan", "ios": "https://dc.lft.to/lastmile_qr_scan"}, "bike_id": "4d5d25839052b1b3212d1360b72089af", "lon": -76.988564}, {"is_reserved": 0, "fusion_lon": 0.0, "fusion_lat": 0.0, "name": "d7287f9ca10751f7b20f58e3560085c8", "type": "electric_scooter", "is_disabled": 0, "lat": 38.927494333333335, "rental_uris": {"android": "https://dc.lft.to/lastmile_qr_scan", "ios": "https://dc.lft.to/lastmile_qr_scan"}, "bike_id": "d7287f9ca10751f7b20f58e3560085c8", "lon": -77.02964883333334}, {"is_reserved": 0, "fusion_lon": 0.0, "fusion_lat": 0.0, "name": "fe0d643c5fe6020c737c2f1816d05a0d", "type": "electric_scooter", "is_disabled": 0, "lat": 38.9195855, "rental_uris": {"android": "https://dc.lft.to/lastmile_qr_scan", "ios": "https://dc.lft.to/lastmile_qr_scan"}, "bike_id": "fe0d643c5fe6020c737c2f1816d05a0d", "lon": -77.032191}, {"is_reserved": 0, "fusion_lon": 0.0, "fusion_lat": 0.0, "name": "9bf4a7acfb85ec6979537eef12c5301d", "type": "electric_scooter", "is_disabled": 0, "lat": 38.876585666666664, "rental_uris": {"android": "https://dc.lft.to/lastmile_qr_scan", "ios": "https://dc.lft.to/lastmile_qr_scan"}, "bike_id": "9bf4a7acfb85ec6979537eef12c5301d", "lon": -77.015757}, {"is_reserved": 0, "fusion_lon": 0.0, "fusion_lat": 0.0, "name": "b67b5e8005d8aa38a2fc216d71f1b7d6", "type": "electric_scooter", "is_disabled": 0, "lat": 38.90436566666666, "rental_uris": {"android": "https://dc.lft.to/lastmile_qr_scan", "ios": "https://dc.lft.to/lastmile_qr_scan"}, "bike_id": "b67b5e8005d8aa38a2fc216d71f1b7d6", "lon": -77.03169966666667}, {"is_reserved": 0, "fusion_lon": 0.0, "fusion_lat": 0.0, "name": "ecb0da60a2c6a7b8f8b505c982b25729", "type": "electric_scooter", "is_disabled": 0, "lat": 38.90810833333333, "rental_uris": {"android": "https://dc.lft.to/lastmile_qr_scan", "ios": "https://dc.lft.to/lastmile_qr_scan"}, "bike_id": "ecb0da60a2c6a7b8f8b505c982b25729", "lon": -77.0433595}, {"is_reserved": 0, "fusion_lon": 0.0, "fusion_lat": 0.0, "name": "349e7fa4706e7452ee84de891d836538", "type": "electric_scooter", "is_disabled": 0, "lat": 38.90024833333333, "rental_uris": {"android": "https://dc.lft.to/lastmile_qr_scan", "ios": "https://dc.lft.to/lastmile_qr_scan"}, "bike_id": "349e7fa4706e7452ee84de891d836538", "lon": -77.011916}, {"is_reserved": 0, "fusion_lon": 0.0, "fusion_lat": 0.0, "name": "dbf2fac16cb5c2650a67b7ebd9e41e53", "type": "electric_scooter", "is_disabled": 0, "lat": 38.88609683333333, "rental_uris": {"android": "https://dc.lft.to/lastmile_qr_scan", "ios": "https://dc.lft.to/lastmile_qr_scan"}, "bike_id": "dbf2fac16cb5c2650a67b7ebd9e41e53", "lon": -76.99512666666666}, {"is_reserved": 0, "fusion_lon": 0.0, "fusion_lat": 0.0, "name": "507060218b8f0ea1f11809ff40abb7ff", "type": "electric_scooter", "is_disabled": 0, "lat": 38.914630333333335, "rental_uris": {"android": "https://dc.lft.to/lastmile_qr_scan", "ios": "https://dc.lft.to/lastmile_qr_scan"}, "bike_id": "507060218b8f0ea1f11809ff40abb7ff", "lon": -77.02283983333334}, {"is_reserved": 0, "fusion_lon": 0.0, "fusion_lat": 0.0, "name": "db987769495e9c34d2880647e61f58ff", "type": "electric_scooter", "is_disabled": 0, "lat": 38.90516233333334, "rental_uris": {"android": "https://dc.lft.to/lastmile_qr_scan", "ios": "https://dc.lft.to/lastmile_qr_scan"}, "bike_id": "db987769495e9c34d2880647e61f58ff", "lon": -77.05082716666666}, {"is_reserved": 0, "fusion_lon": 0.0, "fusion_lat": 0.0, "name": "c0726868175b4568e480bedf2fb32254", "type": "electric_bike", "is_disabled": 0, "lat": 38.938693, "rental_uris": {"android": "https://dc.lft.to/lastmile_qr_scan", "ios": "https://dc.lft.to/lastmile_qr_scan"}, "bike_id": "c0726868175b4568e480bedf2fb32254", "lon": -76.942925}, {"is_reserved": 0, "fusion_lon": 0.0, "fusion_lat": 0.0, "name": "5b38b86d1f60dfb71d825b41c63f1384", "type": "electric_scooter", "is_disabled": 0, "lat": 38.909195, "rental_uris": {"android": "https://dc.lft.to/lastmile_qr_scan", "ios": "https://dc.lft.to/lastmile_qr_scan"}, "bike_id": "5b38b86d1f60dfb71d825b41c63f1384", "lon": -77.0726495}, {"is_reserved": 0, "fusion_lon": 0.0, "fusion_lat": 0.0, "name": "7f888098c32e42e609a5b3b1e99af89c", "type": "electric_bike", "is_disabled": 0, "lat": 38.90129433333333, "rental_uris": {"android": "https://dc.lft.to/lastmile_qr_scan", "ios": "https://dc.lft.to/lastmile_qr_scan"}, "bike_id": "7f888098c32e42e609a5b3b1e99af89c", "lon": -77.017536}, {"is_reserved": 0, "fusion_lon": 0.0, "fusion_lat": 0.0, "name": "9e3cbd42231fde4c3bd8a08284772535", "type": "electric_scooter", "is_disabled": 0, "lat": 38.89309033333333, "rental_uris": {"android": "https://dc.lft.to/lastmile_qr_scan", "ios": "https://dc.lft.to/lastmile_qr_scan"}, "bike_id": "9e3cbd42231fde4c3bd8a08284772535", "lon": -76.93983233333333}, {"is_reserved": 0, "fusion_lon": 0.0, "fusion_lat": 0.0, "name": "86e5cd46d47bc4aeca05da5d39d0b11d", "type": "electric_scooter", "is_disabled": 0, "lat": 38.9199385, "rental_uris": {"android": "https://dc.lft.to/lastmile_qr_scan", "ios": "https://dc.lft.to/lastmile_qr_scan"}, "bike_id": "86e5cd46d47bc4aeca05da5d39d0b11d", "lon": -77.02150516666667}, {"is_reserved": 0, "fusion_lon": 0.0, "fusion_lat": 0.0, "name": "d07bceda6e509ec99fc8d778165c5be4", "type": "electric_scooter", "is_disabled": 0, "lat": 38.904390166666666, "rental_uris": {"android": "https://dc.lft.to/lastmile_qr_scan", "ios": "https://dc.lft.to/lastmile_qr_scan"}, "bike_id": "d07bceda6e509ec99fc8d778165c5be4", "lon": -77.0513985}, {"is_reserved": 0, "fusion_lon": 0.0, "fusion_lat": 0.0, "name": "12cb75216b1403c9d622c3f56f7e47bd", "type": "electric_scooter", "is_disabled": 0, "lat": 38.90137816666667, "rental_uris": {"android": "https://dc.lft.to/lastmile_qr_scan", "ios": "https://dc.lft.to/lastmile_qr_scan"}, "bike_id": "12cb75216b1403c9d622c3f56f7e47bd", "lon": -77.01312966666667}, {"is_reserved": 0, "fusion_lon": 0.0, "fusion_lat": 0.0, "name": "25b6e0877dbf2ef352ca6b192189b4fd", "type": "electric_scooter", "is_disabled": 0, "lat": 38.92730816666667, "rental_uris": {"android": "https://dc.lft.to/lastmile_qr_scan", "ios": "https://dc.lft.to/lastmile_qr_scan"}, "bike_id": "25b6e0877dbf2ef352ca6b192189b4fd", "lon": -77.03526316666667}, {"is_reserved": 0, "fusion_lon": 0.0, "fusion_lat": 0.0, "name": "c10f3beaea109b7b1d6532889025f6b4", "type": "electric_scooter", "is_disabled": 0, "lat": 38.92154033333333, "rental_uris": {"android": "https://dc.lft.to/lastmile_qr_scan", "ios": "https://dc.lft.to/lastmile_qr_scan"}, "bike_id": "c10f3beaea109b7b1d6532889025f6b4", "lon": -77.0210385}, {"is_reserved": 0, "fusion_lon": 0.0, "fusion_lat": 0.0, "name": "805505d1fb717728150a53ac8c65c4d0", "type": "electric_scooter", "is_disabled": 0, "lat": 38.950704, "rental_uris": {"android": "https://dc.lft.to/lastmile_qr_scan", "ios": "https://dc.lft.to/lastmile_qr_scan"}, "bike_id": "805505d1fb717728150a53ac8c65c4d0", "lon": -77.06536}, {"is_reserved": 0, "fusion_lon": 0.0, "fusion_lat": 0.0, "name": "dfac2360c812d7def28172c5847d6cbb", "type": "electric_scooter", "is_disabled": 0, "lat": 38.907262333333335, "rental_uris": {"android": "https://dc.lft.to/lastmile_qr_scan", "ios": "https://dc.lft.to/lastmile_qr_scan"}, "bike_id": "dfac2360c812d7def28172c5847d6cbb", "lon": -77.02988383333333}, {"is_reserved": 0, "fusion_lon": 0.0, "fusion_lat": 0.0, "name": "1b9fc4786ec42c32bdfd14544a7f9e65", "type": "electric_scooter", "is_disabled": 0, "lat": 38.928745166666666, "rental_uris": {"android": "https://dc.lft.to/lastmile_qr_scan", "ios": "https://dc.lft.to/lastmile_qr_scan"}, "bike_id": "1b9fc4786ec42c32bdfd14544a7f9e65", "lon": -77.03321433333333}, {"is_reserved": 0, "fusion_lon": 0.0, "fusion_lat": 0.0, "name": "81f36f4dbdacd58e8d7260c13910c3a3", "type": "electric_scooter", "is_disabled": 0, "lat": 38.9024085, "rental_uris": {"android": "https://dc.lft.to/lastmile_qr_scan", "ios": "https://dc.lft.to/lastmile_qr_scan"}, "bike_id": "81f36f4dbdacd58e8d7260c13910c3a3", "lon": -77.04485233333334}, {"is_reserved": 0, "fusion_lon": 0.0, "fusion_lat": 0.0, "name": "9b826b3534136d86204840381061e32f", "type": "electric_scooter", "is_disabled": 0, "lat": 38.9220365, "rental_uris": {"android": "https://dc.lft.to/lastmile_qr_scan", "ios": "https://dc.lft.to/lastmile_qr_scan"}, "bike_id": "9b826b3534136d86204840381061e32f", "lon": -77.029607}, {"is_reserved": 0, "fusion_lon": 0.0, "fusion_lat": 0.0, "name": "d0a1f162a1d4371ac49df17b67f95cd4", "type": "electric_scooter", "is_disabled": 0, "lat": 38.9285405, "rental_uris": {"android": "https://dc.lft.to/lastmile_qr_scan", "ios": "https://dc.lft.to/lastmile_qr_scan"}, "bike_id": "d0a1f162a1d4371ac49df17b67f95cd4", "lon": -77.02735816666667}, {"is_reserved": 0, "fusion_lon": 0.0, "fusion_lat": 0.0, "name": "216f3a77eeaf24212594d5a04ea1bd15", "type": "electric_scooter", "is_disabled": 0, "lat": 38.892232166666666, "rental_uris": {"android": "https://dc.lft.to/lastmile_qr_scan", "ios": "https://dc.lft.to/lastmile_qr_scan"}, "bike_id": "216f3a77eeaf24212594d5a04ea1bd15", "lon": -77.04380433333333}, {"is_reserved": 0, "fusion_lon": 0.0, "fusion_lat": 0.0, "name": "c0937c72a07a1bd6d6fc070c57322f18", "type": "electric_scooter", "is_disabled": 0, "lat": 38.945286, "rental_uris": {"android": "https://dc.lft.to/lastmile_qr_scan", "ios": "https://dc.lft.to/lastmile_qr_scan"}, "bike_id": "c0937c72a07a1bd6d6fc070c57322f18", "lon": -77.02087816666666}, {"is_reserved": 0, "fusion_lon": 0.0, "fusion_lat": 0.0, "name": "cbb023df7cadec80bce85f1debe38ca2", "type": "electric_scooter", "is_disabled": 0, "lat": 38.90605083333333, "rental_uris": {"android": "https://dc.lft.to/lastmile_qr_scan", "ios": "https://dc.lft.to/lastmile_qr_scan"}, "bike_id": "cbb023df7cadec80bce85f1debe38ca2", "lon": -76.9851805}, {"is_reserved": 0, "fusion_lon": 0.0, "fusion_lat": 0.0, "name": "5389b66fcbb3dcd8b33885422a3ef080", "type": "electric_bike", "is_disabled": 0, "lat": 38.92219033333333, "rental_uris": {"android": "https://dc.lft.to/lastmile_qr_scan", "ios": "https://dc.lft.to/lastmile_qr_scan"}, "bike_id": "5389b66fcbb3dcd8b33885422a3ef080", "lon": -77.08196716666667}, {"is_reserved": 0, "fusion_lon": 0.0, "fusion_lat": 0.0, "name": "6c5dbc82d2289bacb35d4cb6fc51a5ae", "type": "electric_scooter", "is_disabled": 0, "lat": 38.92388, "rental_uris": {"android": "https://dc.lft.to/lastmile_qr_scan", "ios": "https://dc.lft.to/lastmile_qr_scan"}, "bike_id": "6c5dbc82d2289bacb35d4cb6fc51a5ae", "lon": -77.03548366666666}, {"is_reserved": 0, "fusion_lon": 0.0, "fusion_lat": 0.0, "name": "137347f57e5862a298e524326cec8487", "type": "electric_scooter", "is_disabled": 0, "lat": 38.93458, "rental_uris": {"android": "https://dc.lft.to/lastmile_qr_scan", "ios": "https://dc.lft.to/lastmile_qr_scan"}, "bike_id": "137347f57e5862a298e524326cec8487", "lon": -77.0305185}, {"is_reserved": 0, "fusion_lon": 0.0, "fusion_lat": 0.0, "name": "0dbea956d1616067b39585d0d72a40bd", "type": "electric_scooter", "is_disabled": 0, "lat": 38.912577, "rental_uris": {"android": "https://dc.lft.to/lastmile_qr_scan", "ios": "https://dc.lft.to/lastmile_qr_scan"}, "bike_id": "0dbea956d1616067b39585d0d72a40bd", "lon": -77.03126633333333}, {"is_reserved": 0, "fusion_lon": 0.0, "fusion_lat": 0.0, "name": "a961aacedb6f590702aadbe6ef924bff", "type": "electric_scooter", "is_disabled": 0, "lat": 38.89615333333333, "rental_uris": {"android": "https://dc.lft.to/lastmile_qr_scan", "ios": "https://dc.lft.to/lastmile_qr_scan"}, "bike_id": "a961aacedb6f590702aadbe6ef924bff", "lon": -76.993007}, {"is_reserved": 0, "fusion_lon": 0.0, "fusion_lat": 0.0, "name": "25b50bbd69d4dac57f6800c7903398ec", "type": "electric_scooter", "is_disabled": 0, "lat": 38.950579166666664, "rental_uris": {"android": "https://dc.lft.to/lastmile_qr_scan", "ios": "https://dc.lft.to/lastmile_qr_scan"}, "bike_id": "25b50bbd69d4dac57f6800c7903398ec", "lon": -77.00730283333333}, {"is_reserved": 0, "fusion_lon": 0.0, "fusion_lat": 0.0, "name": "31bc4ba442c2c2cc7224c87dd48e18f7", "type": "electric_scooter", "is_disabled": 0, "lat": 38.91824316666667, "rental_uris": {"android": "https://dc.lft.to/lastmile_qr_scan", "ios": "https://dc.lft.to/lastmile_qr_scan"}, "bike_id": "31bc4ba442c2c2cc7224c87dd48e18f7", "lon": -77.0320715}, {"is_reserved": 0, "fusion_lon": 0.0, "fusion_lat": 0.0, "name": "e5e8ed87c8b75ea45854a457f92bc284", "type": "electric_scooter", "is_disabled": 0, "lat": 38.892257, "rental_uris": {"android": "https://dc.lft.to/lastmile_qr_scan", "ios": "https://dc.lft.to/lastmile_qr_scan"}, "bike_id": "e5e8ed87c8b75ea45854a457f92bc284", "lon": -77.03159566666666}, {"is_reserved": 0, "fusion_lon": 0.0, "fusion_lat": 0.0, "name": "c89988272ae1d6bfda78473b6f606da3", "type": "electric_scooter", "is_disabled": 0, "lat": 38.9133195, "rental_uris": {"android": "https://dc.lft.to/lastmile_qr_scan", "ios": "https://dc.lft.to/lastmile_qr_scan"}, "bike_id": "c89988272ae1d6bfda78473b6f606da3", "lon": -77.04818583333333}, {"is_reserved": 0, "fusion_lon": 0.0, "fusion_lat": 0.0, "name": "f8ae17a6d0578c17c94ba50827ccabe8", "type": "electric_scooter", "is_disabled": 0, "lat": 38.922307333333336, "rental_uris": {"android": "https://dc.lft.to/lastmile_qr_scan", "ios": "https://dc.lft.to/lastmile_qr_scan"}, "bike_id": "f8ae17a6d0578c17c94ba50827ccabe8", "lon": -76.975351}, {"is_reserved": 0, "fusion_lon": 0.0, "fusion_lat": 0.0, "name": "a2f17de01cc619f94c0bd4a1536569c8", "type": "electric_scooter", "is_disabled": 0, "lat": 38.9091405, "rental_uris": {"android": "https://dc.lft.to/lastmile_qr_scan", "ios": "https://dc.lft.to/lastmile_qr_scan"}, "bike_id": "a2f17de01cc619f94c0bd4a1536569c8", "lon": -77.07297083333333}, {"is_reserved": 0, "fusion_lon": 0.0, "fusion_lat": 0.0, "name": "69e77bfd4ef7342ca11bec39d57747e7", "type": "electric_scooter", "is_disabled": 0, "lat": 38.889946333333334, "rental_uris": {"android": "https://dc.lft.to/lastmile_qr_scan", "ios": "https://dc.lft.to/lastmile_qr_scan"}, "bike_id": "69e77bfd4ef7342ca11bec39d57747e7", "lon": -76.93108216666667}, {"is_reserved": 0, "fusion_lon": 0.0, "fusion_lat": 0.0, "name": "bba166ea4adc0321d3f8babfa6de676a", "type": "electric_scooter", "is_disabled": 0, "lat": 38.911953833333335, "rental_uris": {"android": "https://dc.lft.to/lastmile_qr_scan", "ios": "https://dc.lft.to/lastmile_qr_scan"}, "bike_id": "bba166ea4adc0321d3f8babfa6de676a", "lon": -77.03837566666667}, {"is_reserved": 0, "fusion_lon": 0.0, "fusion_lat": 0.0, "name": "0af0cef25b0077b5e33cdcdbf16934b2", "type": "electric_scooter", "is_disabled": 0, "lat": 38.926556833333336, "rental_uris": {"android": "https://dc.lft.to/lastmile_qr_scan", "ios": "https://dc.lft.to/lastmile_qr_scan"}, "bike_id": "0af0cef25b0077b5e33cdcdbf16934b2", "lon": -77.04141333333334}, {"is_reserved": 0, "fusion_lon": 0.0, "fusion_lat": 0.0, "name": "ae15dc3222f594df3ee0135e87153055", "type": "electric_bike", "is_disabled": 0, "lat": 39.01481966666667, "rental_uris": {"android": "https://dc.lft.to/lastmile_qr_scan", "ios": "https://dc.lft.to/lastmile_qr_scan"}, "bike_id": "ae15dc3222f594df3ee0135e87153055", "lon": -77.05495033333334}, {"is_reserved": 0, "fusion_lon": 0.0, "fusion_lat": 0.0, "name": "2878622deca9e585790030fc34dcc844", "type": "electric_scooter", "is_disabled": 0, "lat": 38.90246283333333, "rental_uris": {"android": "https://dc.lft.to/lastmile_qr_scan", "ios": "https://dc.lft.to/lastmile_qr_scan"}, "bike_id": "2878622deca9e585790030fc34dcc844", "lon": -77.017477}, {"is_reserved": 0, "fusion_lon": 0.0, "fusion_lat": 0.0, "name": "564b81667590c2d19c476bdd96fbc441", "type": "electric_bike", "is_disabled": 0, "lat": 38.96742283333333, "rental_uris": {"android": "https://dc.lft.to/lastmile_qr_scan", "ios": "https://dc.lft.to/lastmile_qr_scan"}, "bike_id": "564b81667590c2d19c476bdd96fbc441", "lon": -76.98191683333333}, {"is_reserved": 0, "fusion_lon": 0.0, "fusion_lat": 0.0, "name": "ed03ad2ad71a9aab9fdc94e0bf401e6d", "type": "electric_scooter", "is_disabled": 0, "lat": 38.912644, "rental_uris": {"android": "https://dc.lft.to/lastmile_qr_scan", "ios": "https://dc.lft.to/lastmile_qr_scan"}, "bike_id": "ed03ad2ad71a9aab9fdc94e0bf401e6d", "lon": -77.02864766666667}, {"is_reserved": 0, "fusion_lon": 0.0, "fusion_lat": 0.0, "name": "f47504e076c89a3562ab96750b9d1af3", "type": "electric_scooter", "is_disabled": 0, "lat": 38.91571666666667, "rental_uris": {"android": "https://dc.lft.to/lastmile_qr_scan", "ios": "https://dc.lft.to/lastmile_qr_scan"}, "bike_id": "f47504e076c89a3562ab96750b9d1af3", "lon": -77.04094016666667}, {"is_reserved": 0, "fusion_lon": 0.0, "fusion_lat": 0.0, "name": "90635149f96c53ef8aa7107122c26a9a", "type": "electric_scooter", "is_disabled": 0, "lat": 38.928771166666664, "rental_uris": {"android": "https://dc.lft.to/lastmile_qr_scan", "ios": "https://dc.lft.to/lastmile_qr_scan"}, "bike_id": "90635149f96c53ef8aa7107122c26a9a", "lon": -77.03337283333333}, {"is_reserved": 0, "fusion_lon": 0.0, "fusion_lat": 0.0, "name": "e1a18aa8444299143e71cd92cfd8e4a4", "type": "electric_scooter", "is_disabled": 0, "lat": 38.9172385, "rental_uris": {"android": "https://dc.lft.to/lastmile_qr_scan", "ios": "https://dc.lft.to/lastmile_qr_scan"}, "bike_id": "e1a18aa8444299143e71cd92cfd8e4a4", "lon": -77.0331845}, {"is_reserved": 0, "fusion_lon": 0.0, "fusion_lat": 0.0, "name": "5db2a20825ee81739afc2c7634e1dd06", "type": "electric_scooter", "is_disabled": 0, "lat": 38.930971, "rental_uris": {"android": "https://dc.lft.to/lastmile_qr_scan", "ios": "https://dc.lft.to/lastmile_qr_scan"}, "bike_id": "5db2a20825ee81739afc2c7634e1dd06", "lon": -77.02791983333333}, {"is_reserved": 0, "fusion_lon": 0.0, "fusion_lat": 0.0, "name": "f73d4f32a14990b4c82d3bc18c5d64ea", "type": "electric_scooter", "is_disabled": 0, "lat": 38.906369, "rental_uris": {"android": "https://dc.lft.to/lastmile_qr_scan", "ios": "https://dc.lft.to/lastmile_qr_scan"}, "bike_id": "f73d4f32a14990b4c82d3bc18c5d64ea", "lon": -77.06916566666666}, {"is_reserved": 0, "fusion_lon": 0.0, "fusion_lat": 0.0, "name": "f46662cd68597eb6b20308df8979d8e9", "type": "electric_scooter", "is_disabled": 0, "lat": 38.904283166666666, "rental_uris": {"android": "https://dc.lft.to/lastmile_qr_scan", "ios": "https://dc.lft.to/lastmile_qr_scan"}, "bike_id": "f46662cd68597eb6b20308df8979d8e9", "lon": -77.04345333333333}, {"is_reserved": 0, "fusion_lon": 0.0, "fusion_lat": 0.0, "name": "02dbcb94e70e69a953fe2dd1de116be7", "type": "electric_scooter", "is_disabled": 0, "lat": 38.95502916666667, "rental_uris": {"android": "https://dc.lft.to/lastmile_qr_scan", "ios": "https://dc.lft.to/lastmile_qr_scan"}, "bike_id": "02dbcb94e70e69a953fe2dd1de116be7", "lon": -77.02965516666667}, {"is_reserved": 0, "fusion_lon": 0.0, "fusion_lat": 0.0, "name": "ba4af2aeedd693737f8bd0fafd97f269", "type": "electric_scooter", "is_disabled": 0, "lat": 38.917275, "rental_uris": {"android": "https://dc.lft.to/lastmile_qr_scan", "ios": "https://dc.lft.to/lastmile_qr_scan"}, "bike_id": "ba4af2aeedd693737f8bd0fafd97f269", "lon": -77.03663033333333}, {"is_reserved": 0, "fusion_lon": 0.0, "fusion_lat": 0.0, "name": "7fb16b57e298bbdbd3731c437b78e86e", "type": "electric_bike", "is_disabled": 0, "lat": 38.9245945, "rental_uris": {"android": "https://dc.lft.to/lastmile_qr_scan", "ios": "https://dc.lft.to/lastmile_qr_scan"}, "bike_id": "7fb16b57e298bbdbd3731c437b78e86e", "lon": -76.97561066666667}, {"is_reserved": 0, "fusion_lon": 0.0, "fusion_lat": 0.0, "name": "32c2526200441df6fe95814df33ebad4", "type": "electric_scooter", "is_disabled": 0, "lat": 38.9007725, "rental_uris": {"android": "https://dc.lft.to/lastmile_qr_scan", "ios": "https://dc.lft.to/lastmile_qr_scan"}, "bike_id": "32c2526200441df6fe95814df33ebad4", "lon": -77.04539083333333}, {"is_reserved": 0, "fusion_lon": 0.0, "fusion_lat": 0.0, "name": "73e15664c53088c55dff4759051f723d", "type": "electric_scooter", "is_disabled": 0, "lat": 38.9174275, "rental_uris": {"android": "https://dc.lft.to/lastmile_qr_scan", "ios": "https://dc.lft.to/lastmile_qr_scan"}, "bike_id": "73e15664c53088c55dff4759051f723d", "lon": -77.0108905}, {"is_reserved": 0, "fusion_lon": 0.0, "fusion_lat": 0.0, "name": "d4cba88de3fab9b69a44f6b35ddc34c4", "type": "electric_scooter", "is_disabled": 0, "lat": 38.90432966666667, "rental_uris": {"android": "https://dc.lft.to/lastmile_qr_scan", "ios": "https://dc.lft.to/lastmile_qr_scan"}, "bike_id": "d4cba88de3fab9b69a44f6b35ddc34c4", "lon": -77.02588966666667},