{"data": {"bikes": [{"lon": -77.0318445, "bike_id": "3b840ce293a8b5c95e2995eb96f16b42", "lat": 38.93603916666667, "fusion_lon": 0.0, "fusion_lat": 0.0, "type": "electric_scooter", "name": "3b840ce293a8b5c95e2995eb96f16b42", "is_disabled": 0, "rental_uris": {"ios": "https://dc.lft.to/lastmile_qr_scan", "android": "https://dc.lft.to/lastmile_qr_scan"}, "is_reserved": 0}, {"lon": -77.0334315, "bike_id": "b8ffe3b96ee1679befce1c1dccf6e300", "lat": 38.91906266666667, "fusion_lon": 0.0, "fusion_lat": 0.0, "type": "electric_scooter", "name": "b8ffe3b96ee1679befce1c1dccf6e300", "is_disabled": 0, "rental_uris": {"ios": "https://dc.lft.to/lastmile_qr_scan", "android": "https://dc.lft.to/lastmile_qr_scan"}, "is_reserved": 0}, {"lon": -77.04229583333333, "bike_id": "0abc2fb3cf64a53a7e57d0707d3c9a4c", "lat": 38.91637333333333, "fusion_lon": 0.0, "fusion_lat": 0.0, "type": "electric_scooter", "name": "0abc2fb3cf64a53a7e57d0707d3c9a4c", "is_disabled": 0, "rental_uris": {"ios": "https://dc.lft.to/lastmile_qr_scan", "android": "https://dc.lft.to/lastmile_qr_scan"}, "is_reserved": 0}, {"lon": -77.02998466666666, "bike_id": "a4d641fb7ee6823b1e0cf9be3da4c847", "lat": 38.9168985, "fusion_lon": 0.0, "fusion_lat": 0.0, "type": "electric_scooter", "name": "a4d641fb7ee6823b1e0cf9be3da4c847", "is_disabled": 0, "rental_uris": {"ios": "https://dc.lft.to/lastmile_qr_scan", "android": "https://dc.lft.to/lastmile_qr_scan"}, "is_reserved": 0}, {"lon": -76.9947255, "bike_id": "8feff9c528609f9130cc68c070ffcc70", "lat": 38.86217583333333, "fusion_lon": 0.0, "fusion_lat": 0.0, "type": "electric_scooter", "name": "8feff9c528609f9130cc68c070ffcc70", "is_disabled": 0, "rental_uris": {"ios": "https://dc.lft.to/lastmile_qr_scan", "android": "https://dc.lft.to/lastmile_qr_scan"}, "is_reserved": 0}, {"lon": -77.003757, "bike_id": "f48d29923f84b929a28ba05268dd7aef", "lat": 38.89526583333333, "fusion_lon": 0.0, "fusion_lat": 0.0, "type": "electric_scooter", "name": "f48d29923f84b929a28ba05268dd7aef", "is_disabled": 0, "rental_uris": {"ios": "https://dc.lft.to/lastmile_qr_scan", "android": "https://dc.lft.to/lastmile_qr_scan"}, "is_reserved": 0}, {"lon": -76.98839466666666, "bike_id": "1c28fd0f17a6a2ca4685740f60ee356d", "lat": 38.900687833333336, "fusion_lon": 0.0, "fusion_lat": 0.0, "type": "electric_scooter", "name": "1c28fd0f17a6a2ca4685740f60ee356d", "is_disabled": 0, "rental_uris": {"ios": "https://dc.lft.to/lastmile_qr_scan", "android": "https://dc.lft.to/lastmile_qr_scan"}, "is_reserved": 0}, {"lon": -77.05605233333333, "bike_id": "3ca7c1a47a9e203836c9464f54e4aceb", "lat": 38.931644166666665, "fusion_lon": 0.0, "fusion_lat": 0.0, "type": "electric_scooter", "name": "3ca7c1a47a9e203836c9464f54e4aceb", "is_disabled": 0, "rental_uris": {"ios": "https://dc.lft.to/lastmile_qr_scan", "android": "https://dc.lft.to/lastmile_qr_scan"}, "is_reserved": 0}, {"lon": -77.01445966666667, "bike_id": "d7273dc0ef97fc41c77f4bb6bf9381c3", "lat": 38.920710166666666, "fusion_lon": 0.0, "fusion_lat": 0.0, "type": "electric_scooter", "name": "d7273dc0ef97fc41c77f4bb6bf9381c3", "is_disabled": 0, "rental_uris": {"ios": "https://dc.lft.to/lastmile_qr_scan", "android": "https://dc.lft.to/lastmile_qr_scan"}, "is_reserved": 0}, {"lon": -77.02366033333334, "bike_id": "baa4a28ac9572450346bc5ed3995be51", "lat": 38.8847345, "fusion_lon": 0.0, "fusion_lat": 0.0, "type": "electric_scooter", "name": "baa4a28ac9572450346bc5ed3995be51", "is_disabled": 0, "rental_uris": {"ios": "https://dc.lft.to/lastmile_qr_scan", "android": "https://dc.lft.to/lastmile_qr_scan"}, "is_reserved": 0}, {"lon": -77.06129983333334, "bike_id": "ad3151ee292237e7d3b856e43a41a9bd", "lat": 38.94360666666667, "fusion_lon": 0.0, "fusion_lat": 0.0, "type": "electric_scooter", "name": "ad3151ee292237e7d3b856e43a41a9bd", "is_disabled": 0, "rental_uris": {"ios": "https://dc.lft.to/lastmile_qr_scan", "android": "https://dc.lft.to/lastmile_qr_scan"}, "is_reserved": 0}, {"lon": -77.02105166666666, "bike_id": "58eb9ec7ca5d5cec4082aad383a529ad", "lat": 38.922491666666666, "fusion_lon": 0.0, "fusion_lat": 0.0, "type": "electric_scooter", "name": "58eb9ec7ca5d5cec4082aad383a529ad", "is_disabled": 0, "rental_uris": {"ios": "https://dc.lft.to/lastmile_qr_scan", "android": "https://dc.lft.to/lastmile_qr_scan"}, "is_reserved": 0}, {"lon": -77.0467665, "bike_id": "0da064e7600e1718dfbb587f383acfd3", "lat": 38.897428833333336, "fusion_lon": 0.0, "fusion_lat": 0.0, "type": "electric_scooter", "name": "0da064e7600e1718dfbb587f383acfd3", "is_disabled": 0, "rental_uris": {"ios": "https://dc.lft.to/lastmile_qr_scan", "android": "https://dc.lft.to/lastmile_qr_scan"}, "is_reserved": 0}, {"lon": -76.98700766666667, "bike_id": "2f39977c313200b62ee354eb6cd95bf6", "lat": 38.9070075, "fusion_lon": 0.0, "fusion_lat": 0.0, "type": "electric_scooter", "name": "2f39977c313200b62ee354eb6cd95bf6", "is_disabled": 0, "rental_uris": {"ios": "https://dc.lft.to/lastmile_qr_scan", "android": "https://dc.lft.to/lastmile_qr_scan"}, "is_reserved": 0}, {"lon": -77.06253166666667, "bike_id": "df72806fc112e2e387b28eefd2e88345", "lat": 38.94413483333334, "fusion_lon": 0.0, "fusion_lat": 0.0, "type": "electric_scooter", "name": "df72806fc112e2e387b28eefd2e88345", "is_disabled": 0, "rental_uris": {"ios": "https://dc.lft.to/lastmile_qr_scan", "android": "https://dc.lft.to/lastmile_qr_scan"}, "is_reserved": 0}, {"lon": -77.02304283333334, "bike_id": "1d0937b08e0a6dfc89551a388cea13a1", "lat": 38.917824833333334, "fusion_lon": 0.0, "fusion_lat": 0.0, "type": "electric_scooter", "name": "1d0937b08e0a6dfc89551a388cea13a1", "is_disabled": 0, "rental_uris": {"ios": "https://dc.lft.to/lastmile_qr_scan", "android": "https://dc.lft.to/lastmile_qr_scan"}, "is_reserved": 0}, {"lon": -76.98263066666667, "bike_id": "761059f206bef44b1094fef1e2263732", "lat": 38.908527, "fusion_lon": 0.0, "fusion_lat": 0.0, "type": "electric_scooter", "name": "761059f206bef44b1094fef1e2263732", "is_disabled": 0, "rental_uris": {"ios": "https://dc.lft.to/lastmile_qr_scan", "android": "https://dc.lft.to/lastmile_qr_scan"}, "is_reserved": 0}, {"lon": -77.01169266666666, "bike_id": "5c4bdf38a586901d637884bf62504548", "lat": 38.872335, "fusion_lon": 0.0, "fusion_lat": 0.0, "type": "electric_bike", "name": "5c4bdf38a586901d637884bf62504548", "is_disabled": 0, "rental_uris": {"ios": "https://dc.lft.to/lastmile_qr_scan", "android": "https://dc.lft.to/lastmile_qr_scan"}, "is_reserved": 0}, {"lon": -76.98899083333333, "bike_id": "13649104033419957824388576a58782", "lat": 38.913436, "fusion_lon": 0.0, "fusion_lat": 0.0, "type": "electric_scooter", "name": "13649104033419957824388576a58782", "is_disabled": 0, "rental_uris": {"ios": "https://dc.lft.to/lastmile_qr_scan", "android": "https://dc.lft.to/lastmile_qr_scan"}, "is_reserved": 0}, {"lon": -77.00203366666666, "bike_id": "3f0fca39bb30b60889e676787ab9ab84", "lat": 38.900305, "fusion_lon": 0.0, "fusion_lat": 0.0, "type": "electric_scooter", "name": "3f0fca39bb30b60889e676787ab9ab84", "is_disabled": 0, "rental_uris": {"ios": "https://dc.lft.to/lastmile_qr_scan", "android": "https://dc.lft.to/lastmile_qr_scan"}, "is_reserved": 0}, {"lon": -77.03289533333333, "bike_id": "b7298cc7ee6e2c9f9f18155a4978eb97", "lat": 38.937254, "fusion_lon": 0.0, "fusion_lat": 0.0, "type": "electric_scooter", "name": "b7298cc7ee6e2c9f9f18155a4978eb97", "is_disabled": 0, "rental_uris": {"ios": "https://dc.lft.to/lastmile_qr_scan", "android": "https://dc.lft.to/lastmile_qr_scan"}, "is_reserved": 0}, {"lon": -77.04189366666667, "bike_id": "4dc6702c3edf38b8fe48a5cf83ae7dcb", "lat": 38.89979616666667, "fusion_lon": 0.0, "fusion_lat": 0.0, "type": "electric_scooter", "name": "4dc6702c3edf38b8fe48a5cf83ae7dcb", "is_disabled": 0, "rental_uris": {"ios": "https://dc.lft.to/lastmile_qr_scan", "android": "https://dc.lft.to/lastmile_qr_scan"}, "is_reserved": 0}, {"lon": -76.93371333333333, "bike_id": "68b48474da102cac0a17da8475416588", "lat": 38.899128, "fusion_lon": 0.0, "fusion_lat": 0.0, "type": "electric_scooter", "name": "68b48474da102cac0a17da8475416588", "is_disabled": 0, "rental_uris": {"ios": "https://dc.lft.to/lastmile_qr_scan", "android": "https://dc.lft.to/lastmile_qr_scan"}, "is_reserved": 0}, {"lon": -76.95477866666667, "bike_id": "f430d3b04fda9cf4174e4308601c6989", "lat": 38.884669333333335, "fusion_lon": 0.0, "fusion_lat": 0.0, "type": "electric_scooter", "name": "f430d3b04fda9cf4174e4308601c6989", "is_disabled": 0, "rental_uris": {"ios": "https://dc.lft.to/lastmile_qr_scan", "android": "https://dc.lft.to/lastmile_qr_scan"}, "is_reserved": 0}, {"lon": -77.03194533333334, "bike_id": "2f8f818797901148bfecc0fc1e3c118a", "lat": 38.918261, "fusion_lon": 0.0, "fusion_lat": 0.0, "type": "electric_scooter", "name": "2f8f818797901148bfecc0fc1e3c118a", "is_disabled": 0, "rental_uris": {"ios": "https://dc.lft.to/lastmile_qr_scan", "android": "https://dc.lft.to/lastmile_qr_scan"}, "is_reserved": 0}, {"lon": -76.99545033333334, "bike_id": "9e71052f33693e167118c632bb038efe", "lat": 38.83159966666667, "fusion_lon": 0.0, "fusion_lat": 0.0, "type": "electric_bike", "name": "9e71052f33693e167118c632bb038efe", "is_disabled": 0, "rental_uris": {"ios": "https://dc.lft.to/lastmile_qr_scan", "android": "https://dc.lft.to/lastmile_qr_scan"}, "is_reserved": 0}, {"lon": -77.03535866666667, "bike_id": "7624c5c08d8c501dc808d91874c945b4", "lat": 38.926292, "fusion_lon": 0.0, "fusion_lat": 0.0, "type": "electric_scooter", "name": "7624c5c08d8c501dc808d91874c945b4", "is_disabled": 0, "rental_uris": {"ios": "https://dc.lft.to/lastmile_qr_scan", "android": "https://dc.lft.to/lastmile_qr_scan"}, "is_reserved": 0}, {"lon": -77.10092583333333, "bike_id": "3429243402cbeba021926f329622d5ea", "lat": 38.95958066666667, "fusion_lon": 0.0, "fusion_lat": 0.0, "type": "electric_bike", "name": "3429243402cbeba021926f329622d5ea", "is_disabled": 0, "rental_uris": {"ios": "https://dc.lft.to/lastmile_qr_scan", "android": "https://dc.lft.to/lastmile_qr_scan"}, "is_reserved": 0}, {"lon": -76.942906, "bike_id": "598de43fa73d2b02f594684eaf155a98", "lat": 38.93867633333333, "fusion_lon": 0.0, "fusion_lat": 0.0, "type": "electric_bike", "name": "598de43fa73d2b02f594684eaf155a98", "is_disabled": 0, "rental_uris": {"ios": "https://dc.lft.to/lastmile_qr_scan", "android": "https://dc.lft.to/lastmile_qr_scan"}, "is_reserved": 0}, {"lon": -77.026264, "bike_id": "c51f2e53244c1aa5e6c03e899e56809e", "lat": 38.962217, "fusion_lon": 0.0, "fusion_lat": 0.0, "type": "electric_bike", "name": "c51f2e53244c1aa5e6c03e899e56809e", "is_disabled": 0, "rental_uris": {"ios": "https://dc.lft.to/lastmile_qr_scan", "android": "https://dc.lft.to/lastmile_qr_scan"}, "is_reserved": 0}, {"lon": -76.99185483333333, "bike_id": "3afbcb96019d593de176d467c7b549dc", "lat": 38.889742166666665, "fusion_lon": 0.0, "fusion_lat": 0.0, "type": "electric_scooter", "name": "3afbcb96019d593de176d467c7b549dc", "is_disabled": 0, "rental_uris": {"ios": "https://dc.lft.to/lastmile_qr_scan", "android": "https://dc.lft.to/lastmile_qr_scan"}, "is_reserved": 0}, {"lon": -77.03438866666667, "bike_id": "f4e78a835157a9e526aa4366bcf17846", "lat": 38.905799, "fusion_lon": 0.0, "fusion_lat": 0.0, "type": "electric_scooter", "name": "f4e78a835157a9e526aa4366bcf17846", "is_disabled": 0, "rental_uris": {"ios": "https://dc.lft.to/lastmile_qr_scan", "android": "https://dc.lft.to/lastmile_qr_scan"}, "is_reserved": 0}, {"lon": -76.99368316666667, "bike_id": "87fad8ac6dc443d874982fd9742bc436", "lat": 38.8797015, "fusion_lon": 0.0, "fusion_lat": 0.0, "type": "electric_scooter", "name": "87fad8ac6dc443d874982fd9742bc436", "is_disabled": 0, "rental_uris": {"ios": "https://dc.lft.to/lastmile_qr_scan", "android": "https://dc.lft.to/lastmile_qr_scan"}, "is_reserved": 0}, {"lon": -77.00922116666666, "bike_id": "58589e9e8eaf50598b3cd6b79b6e015e", "lat": 38.8960725, "fusion_lon": 0.0, "fusion_lat": 0.0, "type": "electric_scooter", "name": "58589e9e8eaf50598b3cd6b79b6e015e", "is_disabled": 0, "rental_uris": {"ios": "https://dc.lft.to/lastmile_qr_scan", "android": "https://dc.lft.to/lastmile_qr_scan"}, "is_reserved": 0}, {"lon": -77.02717616666666, "bike_id": "cfbfe86e93eada558a6a6939c98a3660", "lat": 38.89716683333333, "fusion_lon": 0.0, "fusion_lat": 0.0, "type": "electric_scooter", "name": "cfbfe86e93eada558a6a6939c98a3660", "is_disabled": 0, "rental_uris": {"ios": "https://dc.lft.to/lastmile_qr_scan", "android": "https://dc.lft.to/lastmile_qr_scan"}, "is_reserved": 0}, {"lon": -77.01909483333333, "bike_id": "4a8390e8d15e9d36a17399c7c0007b2e", "lat": 38.90321733333333, "fusion_lon": 0.0, "fusion_lat": 0.0, "type": "electric_scooter", "name": "4a8390e8d15e9d36a17399c7c0007b2e", "is_disabled": 0, "rental_uris": {"ios": "https://dc.lft.to/lastmile_qr_scan", "android": "https://dc.lft.to/lastmile_qr_scan"}, "is_reserved": 0}, {"lon": -77.037418, "bike_id": "d86802c66d79acdbd9604f554ccc953f", "lat": 38.9180565, "fusion_lon": 0.0, "fusion_lat": 0.0, "type": "electric_scooter", "name": "d86802c66d79acdbd9604f554ccc953f", "is_disabled": 0, "rental_uris": {"ios": "https://dc.lft.to/lastmile_qr_scan", "android": "https://dc.lft.to/lastmile_qr_scan"}, "is_reserved": 0}, {"lon": -77.0272075, "bike_id": "02d4a7ad3a1432ee4e4bda55a400c472", "lat": 38.913365, "fusion_lon": 0.0, "fusion_lat": 0.0, "type": "electric_scooter", "name": "02d4a7ad3a1432ee4e4bda55a400c472", "is_disabled": 0, "rental_uris": {"ios": "https://dc.lft.to/lastmile_qr_scan", "android": "https://dc.lft.to/lastmile_qr_scan"}, "is_reserved": 0}, {"lon": -77.055278, "bike_id": "98803c519cb227f692e2c13be77cb520", "lat": 38.899780166666666, "fusion_lon": 0.0, "fusion_lat": 0.0, "type": "electric_scooter", "name": "98803c519cb227f692e2c13be77cb520", "is_disabled": 0, "rental_uris": {"ios": "https://dc.lft.to/lastmile_qr_scan", "android": "https://dc.lft.to/lastmile_qr_scan"}, "is_reserved": 0}, {"lon": -76.97926016666666, "bike_id": "86ab1ff79261580a4684a8c607769fcb", "lat": 38.90502566666667, "fusion_lon": 0.0, "fusion_lat": 0.0, "type": "electric_scooter", "name": "86ab1ff79261580a4684a8c607769fcb", "is_disabled": 0, "rental_uris": {"ios": "https://dc.lft.to/lastmile_qr_scan", "android": "https://dc.lft.to/lastmile_qr_scan"}, "is_reserved": 0}, {"lon": -77.08185916666666, "bike_id": "4d8d98bf5335d3cf4366d446fbc42b1f", "lat": 38.949656833333336, "fusion_lon": 0.0, "fusion_lat": 0.0, "type": "electric_scooter", "name": "4d8d98bf5335d3cf4366d446fbc42b1f", "is_disabled": 0, "rental_uris": {"ios": "https://dc.lft.to/lastmile_qr_scan", "android": "https://dc.lft.to/lastmile_qr_scan"}, "is_reserved": 0}, {"lon": -77.02201933333333, "bike_id": "0e9d2883a50ebef9c9e0fb85fb93f778", "lat": 38.90029033333333, "fusion_lon": 0.0, "fusion_lat": 0.0, "type": "electric_scooter", "name": "0e9d2883a50ebef9c9e0fb85fb93f778", "is_disabled": 0, "rental_uris": {"ios": "https://dc.lft.to/lastmile_qr_scan", "android": "https://dc.lft.to/lastmile_qr_scan"}, "is_reserved": 0}, {"lon": -76.99029166666666, "bike_id": "6bb78d05c410b52dee1cdb3e1fbe726d", "lat": 38.8985385, "fusion_lon": 0.0, "fusion_lat": 0.0, "type": "electric_scooter", "name": "6bb78d05c410b52dee1cdb3e1fbe726d", "is_disabled": 0, "rental_uris": {"ios": "https://dc.lft.to/lastmile_qr_scan", "android": "https://dc.lft.to/lastmile_qr_scan"}, "is_reserved": 0}, {"lon": -76.99001616666666, "bike_id": "d5da37db71826c0bb989283fbe5f8e78", "lat": 38.86508716666667, "fusion_lon": 0.0, "fusion_lat": 0.0, "type": "electric_scooter", "name": "d5da37db71826c0bb989283fbe5f8e78", "is_disabled": 0, "rental_uris": {"ios": "https://dc.lft.to/lastmile_qr_scan", "android": "https://dc.lft.to/lastmile_qr_scan"}, "is_reserved": 0}, {"lon": -77.02448166666667, "bike_id": "1b6d0ff35afbe4bef0ed938998be20bb", "lat": 38.93828366666666, "fusion_lon": 0.0, "fusion_lat": 0.0, "type": "electric_scooter", "name": "1b6d0ff35afbe4bef0ed938998be20bb", "is_disabled": 0, "rental_uris": {"ios": "https://dc.lft.to/lastmile_qr_scan", "android": "https://dc.lft.to/lastmile_qr_scan"}, "is_reserved": 0}, {"lon": -77.03273616666667, "bike_id": "5f12d92ebc0d853a2a4def16e1333a0e", "lat": 38.907286166666665, "fusion_lon": 0.0, "fusion_lat": 0.0, "type": "electric_scooter", "name": "5f12d92ebc0d853a2a4def16e1333a0e", "is_disabled": 0, "rental_uris": {"ios": "https://dc.lft.to/lastmile_qr_scan", "android": "https://dc.lft.to/lastmile_qr_scan"}, "is_reserved": 0}, {"lon": -77.07750133333333, "bike_id": "e393061a793db3b8f5b80c925195339d", "lat": 38.84190916666667, "fusion_lon": 0.0, "fusion_lat": 0.0, "type": "electric_bike", "name": "e393061a793db3b8f5b80c925195339d", "is_disabled": 0, "rental_uris": {"ios": "https://dc.lft.to/lastmile_qr_scan", "android": "https://dc.lft.to/lastmile_qr_scan"}, "is_reserved": 0}, {"lon": -77.08003166666667, "bike_id": "a47ecff7764ae84c83382d772cd5d847", "lat": 38.964856, "fusion_lon": 0.0, "fusion_lat": 0.0, "type": "electric_scooter", "name": "a47ecff7764ae84c83382d772cd5d847", "is_disabled": 0, "rental_uris": {"ios": "https://dc.lft.to/lastmile_qr_scan", "android": "https://dc.lft.to/lastmile_qr_scan"}, "is_reserved": 0}, {"lon": -77.01494416666667, "bike_id": "a3daa3612ca081bcac841c8f2e80326b", "lat": 38.917566666666666, "fusion_lon": 0.0, "fusion_lat": 0.0, "type": "electric_scooter", "name": "a3daa3612ca081bcac841c8f2e80326b", "is_disabled": 0, "rental_uris": {"ios": "https://dc.lft.to/lastmile_qr_scan", "android": "https://dc.lft.to/lastmile_qr_scan"}, "is_reserved": 0}, {"lon": -76.990122, "bike_id": "49e633f6ef1499b60660ae6400284997", "lat": 38.882726166666664, "fusion_lon": 0.0, "fusion_lat": 0.0, "type": "electric_scooter", "name": "49e633f6ef1499b60660ae6400284997", "is_disabled": 0, "rental_uris": {"ios": "https://dc.lft.to/lastmile_qr_scan", "android": "https://dc.lft.to/lastmile_qr_scan"}, "is_reserved": 0}, {"lon": -77.0238625, "bike_id": "3bb80a25af8c97a71bdc4d1b2226b295", "lat": 38.914347, "fusion_lon": 0.0, "fusion_lat": 0.0, "type": "electric_scooter", "name": "3bb80a25af8c97a71bdc4d1b2226b295", "is_disabled": 0, "rental_uris": {"ios": "https://dc.lft.to/lastmile_qr_scan", "android": "https://dc.lft.to/lastmile_qr_scan"}, "is_reserved": 0}, {"lon": -76.92196233333334, "bike_id": "2132c76f33826a09352d3b9aa16f9c5e", "lat": 38.89501816666667, "fusion_lon": 0.0, "fusion_lat": 0.0, "type": "electric_bike", "name": "2132c76f33826a09352d3b9aa16f9c5e", "is_disabled": 0, "rental_uris": {"ios": "https://dc.lft.to/lastmile_qr_scan", "android": "https://dc.lft.to/lastmile_qr_scan"}, "is_reserved": 0}, {"lon": -77.00374766666667, "bike_id": "c0843d862ec1aadb77d2ec27e5135409", "lat": 38.89735816666666, "fusion_lon": 0.0, "fusion_lat": 0.0, "type": "electric_scooter", "name": "c0843d862ec1aadb77d2ec27e5135409", "is_disabled": 0, "rental_uris": {"ios": "https://dc.lft.to/lastmile_qr_scan", "android": "https://dc.lft.to/lastmile_qr_scan"}, "is_reserved": 0}, {"lon": -77.07911583333333, "bike_id": "e7c3ebd13b632a89f62018cfb9971391", "lat": 38.8393535, "fusion_lon": 0.0, "fusion_lat": 0.0, "type": "electric_bike", "name": "e7c3ebd13b632a89f62018cfb9971391", "is_disabled": 0, "rental_uris": {"ios": "https://dc.lft.to/lastmile_qr_scan", "android": "https://dc.lft.to/lastmile_qr_scan"}, "is_reserved": 0}, {"lon": -77.03238516666667, "bike_id": "69dadbf8e552f50fdb934623d07f9b84", "lat": 38.905496666666664, "fusion_lon": 0.0, "fusion_lat": 0.0, "type": "electric_scooter", "name": "69dadbf8e552f50fdb934623d07f9b84", "is_disabled": 0, "rental_uris": {"ios": "https://dc.lft.to/lastmile_qr_scan", "android": "https://dc.lft.to/lastmile_qr_scan"}, "is_reserved": 0}, {"lon": -76.980328, "bike_id": "7c387495859630a80f6582707bfb8b1b", "lat": 38.889672833333336, "fusion_lon": 0.0, "fusion_lat": 0.0, "type": "electric_scooter", "name": "7c387495859630a80f6582707bfb8b1b", "is_disabled": 0, "rental_uris": {"ios": "https://dc.lft.to/lastmile_qr_scan", "android": "https://dc.lft.to/lastmile_qr_scan"}, "is_reserved": 0}, {"lon": -76.983368, "bike_id": "8e14aa32f5cd48eb0f13d8ebebfc73c3", "lat": 38.866397666666664, "fusion_lon": 0.0, "fusion_lat": 0.0, "type": "electric_scooter", "name": "8e14aa32f5cd48eb0f13d8ebebfc73c3", "is_disabled": 0, "rental_uris": {"ios": "https://dc.lft.to/lastmile_qr_scan", "android": "https://dc.lft.to/lastmile_qr_scan"}, "is_reserved": 0}, {"lon": -76.93187016666667, "bike_id": "ec9a5e9e4ca74a13c0f188ee238ee837", "lat": 38.8987595, "fusion_lon": 0.0, "fusion_lat": 0.0, "type": "electric_scooter", "name": "ec9a5e9e4ca74a13c0f188ee238ee837", "is_disabled": 0, "rental_uris": {"ios": "https://dc.lft.to/lastmile_qr_scan", "android": "https://dc.lft.to/lastmile_qr_scan"}, "is_reserved": 0}, {"lon": -76.93180716666667, "bike_id": "8bea9eca9a241cef629b7011a7c6f053", "lat": 38.903664166666665, "fusion_lon": 0.0, "fusion_lat": 0.0, "type": "electric_scooter", "name": "8bea9eca9a241cef629b7011a7c6f053", "is_disabled": 0, "rental_uris": {"ios": "https://dc.lft.to/lastmile_qr_scan", "android": "https://dc.lft.to/lastmile_qr_scan"}, "is_reserved": 0}, {"lon": -76.9335635, "bike_id": "c08070e5e86af03f6120b9ab3d10ff8b", "lat": 38.887967, "fusion_lon": 0.0, "fusion_lat": 0.0, "type": "electric_scooter", "name": "c08070e5e86af03f6120b9ab3d10ff8b", "is_disabled": 0, "rental_uris": {"ios": "https://dc.lft.to/lastmile_qr_scan", "android": "https://dc.lft.to/lastmile_qr_scan"}, "is_reserved": 0}, {"lon": -77.01003833333333, "bike_id": "70fd5c0668a342b76e2df8af08261082", "lat": 38.919205, "fusion_lon": 0.0, "fusion_lat": 0.0, "type": "electric_scooter", "name": "70fd5c0668a342b76e2df8af08261082", "is_disabled": 0, "rental_uris": {"ios": "https://dc.lft.to/lastmile_qr_scan", "android": "https://dc.lft.to/lastmile_qr_scan"}, "is_reserved": 0}, {"lon": -77.02568383333333, "bike_id": "d054be47e9b17705b7d4584ebe80e26a", "lat": 38.88082883333333, "fusion_lon": 0.0, "fusion_lat": 0.0, "type": "electric_scooter", "name": "d054be47e9b17705b7d4584ebe80e26a", "is_disabled": 0, "rental_uris": {"ios": "https://dc.lft.to/lastmile_qr_scan", "android": "https://dc.lft.to/lastmile_qr_scan"}, "is_reserved": 0}, {"lon": -77.04797283333333, "bike_id": "e45b8a3a9ce7a82341c49731a8c8a99a", "lat": 38.90960966666667, "fusion_lon": 0.0, "fusion_lat": 0.0, "type": "electric_scooter", "name": "e45b8a3a9ce7a82341c49731a8c8a99a", "is_disabled": 0, "rental_uris": {"ios": "https://dc.lft.to/lastmile_qr_scan", "android": "https://dc.lft.to/lastmile_qr_scan"}, "is_reserved": 0}, {"lon": -77.04682883333334, "bike_id": "b9bc5fca6755e6a7accfdbed71cb8a69", "lat": 38.90539716666667, "fusion_lon": 0.0, "fusion_lat": 0.0, "type": "electric_scooter", "name": "b9bc5fca6755e6a7accfdbed71cb8a69", "is_disabled": 0, "rental_uris": {"ios": "https://dc.lft.to/lastmile_qr_scan", "android": "https://dc.lft.to/lastmile_qr_scan"}, "is_reserved": 0}, {"lon": -77.02184433333333, "bike_id": "b4bde2d186c9136671fb9591f1279aa2", "lat": 38.93303316666667, "fusion_lon": 0.0, "fusion_lat": 0.0, "type": "electric_scooter", "name": "b4bde2d186c9136671fb9591f1279aa2", "is_disabled": 0, "rental_uris": {"ios": "https://dc.lft.to/lastmile_qr_scan", "android": "https://dc.lft.to/lastmile_qr_scan"}, "is_reserved": 0}, {"lon": -77.0272235, "bike_id": "9dc5491f8bd1bbf33cf9a756efeb11b4", "lat": 38.897637333333336, "fusion_lon": 0.0, "fusion_lat": 0.0, "type": "electric_scooter", "name": "9dc5491f8bd1bbf33cf9a756efeb11b4", "is_disabled": 0, "rental_uris": {"ios": "https://dc.lft.to/lastmile_qr_scan", "android": "https://dc.lft.to/lastmile_qr_scan"}, "is_reserved": 0}, {"lon": -77.02225666666666, "bike_id": "971c2f461d8a3895d5e2d81b89494a8a", "lat": 38.90569583333333, "fusion_lon": 0.0, "fusion_lat": 0.0, "type": "electric_scooter", "name": "971c2f461d8a3895d5e2d81b89494a8a", "is_disabled": 0, "rental_uris": {"ios": "https://dc.lft.to/lastmile_qr_scan", "android": "https://dc.lft.to/lastmile_qr_scan"}, "is_reserved": 0}, {"lon": -77.02970266666667, "bike_id": "df77c68fec3bae6e07b3107cc7f027b0", "lat": 38.91673383333333, "fusion_lon": 0.0, "fusion_lat": 0.0, "type": "electric_scooter", "name": "df77c68fec3bae6e07b3107cc7f027b0", "is_disabled": 0, "rental_uris": {"ios": "https://dc.lft.to/lastmile_qr_scan", "android": "https://dc.lft.to/lastmile_qr_scan"}, "is_reserved": 0}, {"lon": -77.0232695, "bike_id": "29ad81c555e9ffa5796a5e78cfeca11f", "lat": 38.894917, "fusion_lon": 0.0, "fusion_lat": 0.0, "type": "electric_scooter", "name": "29ad81c555e9ffa5796a5e78cfeca11f", "is_disabled": 0, "rental_uris": {"ios": "https://dc.lft.to/lastmile_qr_scan", "android": "https://dc.lft.to/lastmile_qr_scan"}, "is_reserved": 0}, {"lon": -76.9980875, "bike_id": "309bcb9dd6a8a4acd2ccca8aaea8a737", "lat": 38.829134, "fusion_lon": 0.0, "fusion_lat": 0.0, "type": "electric_bike", "name": "309bcb9dd6a8a4acd2ccca8aaea8a737", "is_disabled": 0, "rental_uris": {"ios": "https://dc.lft.to/lastmile_qr_scan", "android": "https://dc.lft.to/lastmile_qr_scan"}, "is_reserved": 0}, {"lon": -77.023605, "bike_id": "7f2c73a4fc158cfbacd085dcbe69c220", "lat": 38.92223466666667, "fusion_lon": 0.0, "fusion_lat": 0.0, "type": "electric_scooter", "name": "7f2c73a4fc158cfbacd085dcbe69c220", "is_disabled": 0, "rental_uris": {"ios": "https://dc.lft.to/lastmile_qr_scan", "android": "https://dc.lft.to/lastmile_qr_scan"}, "is_reserved": 0}, {"lon": -77.016986, "bike_id": "a9095241fe942f0dcc80003cdfe41223", "lat": 38.9142235, "fusion_lon": 0.0, "fusion_lat": 0.0, "type": "electric_scooter", "name": "a9095241fe942f0dcc80003cdfe41223", "is_disabled": 0, "rental_uris": {"ios": "https://dc.lft.to/lastmile_qr_scan", "android": "https://dc.lft.to/lastmile_qr_scan"}, "is_reserved": 0}, {"lon": -77.036032, "bike_id": "2a3ad0f6284e25ae58a42d7df58c8b3d", "lat": 38.936841333333334, "fusion_lon": 0.0, "fusion_lat": 0.0, "type": "electric_scooter", "name": "2a3ad0f6284e25ae58a42d7df58c8b3d", "is_disabled": 0, "rental_uris": {"ios": "https://dc.lft.to/lastmile_qr_scan", "android": "https://dc.lft.to/lastmile_qr_scan"}, "is_reserved": 0}, {"lon": -77.01755183333333, "bike_id": "81c661bf6fd714e444807206e8256b27", "lat": 38.903858166666666, "fusion_lon": 0.0, "fusion_lat": 0.0, "type": "electric_scooter", "name": "81c661bf6fd714e444807206e8256b27", "is_disabled": 0, "rental_uris": {"ios": "https://dc.lft.to/lastmile_qr_scan", "android": "https://dc.lft.to/lastmile_qr_scan"}, "is_reserved": 0}, {"lon": -77.02709983333334, "bike_id": "21f85ad83bb775973babc41374854757", "lat": 38.92660816666667, "fusion_lon": 0.0, "fusion_lat": 0.0, "type": "electric_scooter", "name": "21f85ad83bb775973babc41374854757", "is_disabled": 0, "rental_uris": {"ios": "https://dc.lft.to/lastmile_qr_scan", "android": "https://dc.lft.to/lastmile_qr_scan"}, "is_reserved": 0}, {"lon": -76.95738583333333, "bike_id": "e8bf8115682ef24f89d38fd9e96b5c0a", "lat": 38.884306, "fusion_lon": 0.0, "fusion_lat": 0.0, "type": "electric_scooter", "name": "e8bf8115682ef24f89d38fd9e96b5c0a", "is_disabled": 0, "rental_uris": {"ios": "https://dc.lft.to/lastmile_qr_scan", "android": "https://dc.lft.to/lastmile_qr_scan"}, "is_reserved": 0}, {"lon": -77.041948, "bike_id": "48c6aa3a6b23a90f8dcafe9e36f3ab4c", "lat": 38.89976083333333, "fusion_lon": 0.0, "fusion_lat": 0.0, "type": "electric_scooter", "name": "48c6aa3a6b23a90f8dcafe9e36f3ab4c", "is_disabled": 0, "rental_uris": {"ios": "https://dc.lft.to/lastmile_qr_scan", "android": "https://dc.lft.to/lastmile_qr_scan"}, "is_reserved": 0}, {"lon": -77.022875, "bike_id": "828f1ea099398bdfea22df53812b7885", "lat": 38.909725333333334, "fusion_lon": 0.0, "fusion_lat": 0.0, "type": "electric_scooter", "name": "828f1ea099398bdfea22df53812b7885", "is_disabled": 0, "rental_uris": {"ios": "https://dc.lft.to/lastmile_qr_scan", "android": "https://dc.lft.to/lastmile_qr_scan"}, "is_reserved": 0}, {"lon": -77.11707433333333, "bike_id": "3013d606924387e44c1969ebc46e5adb", "lat": 38.867459, "fusion_lon": 0.0, "fusion_lat": 0.0, "type": "electric_bike", "name": "3013d606924387e44c1969ebc46e5adb", "is_disabled": 0, "rental_uris": {"ios": "https://dc.lft.to/lastmile_qr_scan", "android": "https://dc.lft.to/lastmile_qr_scan"}, "is_reserved": 0}, {"lon": -77.000455, "bike_id": "dfedd619c0236076ececaaf1370fa60c", "lat": 38.92399416666667, "fusion_lon": 0.0, "fusion_lat": 0.0, "type": "electric_scooter", "name": "dfedd619c0236076ececaaf1370fa60c", "is_disabled": 0, "rental_uris": {"ios": "https://dc.lft.to/lastmile_qr_scan", "android": "https://dc.lft.to/lastmile_qr_scan"}, "is_reserved": 0}, {"lon": -76.98388333333334, "bike_id": "b912cae276d69a27875a47ebfecc7d44", "lat": 38.89884216666667, "fusion_lon": 0.0, "fusion_lat": 0.0, "type": "electric_bike", "name": "b912cae276d69a27875a47ebfecc7d44", "is_disabled": 0, "rental_uris": {"ios": "https://dc.lft.to/lastmile_qr_scan", "android": "https://dc.lft.to/lastmile_qr_scan"}, "is_reserved": 0}, {"lon": -76.94068266666666, "bike_id": "acb87c7db7f2cd9d5818532f71aab504", "lat": 38.89319583333333, "fusion_lon": 0.0, "fusion_lat": 0.0, "type": "electric_scooter", "name": "acb87c7db7f2cd9d5818532f71aab504", "is_disabled": 0, "rental_uris": {"ios": "https://dc.lft.to/lastmile_qr_scan", "android": "https://dc.lft.to/lastmile_qr_scan"}, "is_reserved": 0}, {"lon": -77.03025233333334, "bike_id": "77e12f0eb36cecb0b8715de563975e56", "lat": 38.884401833333335, "fusion_lon": 0.0, "fusion_lat": 0.0, "type": "electric_scooter", "name": "77e12f0eb36cecb0b8715de563975e56", "is_disabled": 0, "rental_uris": {"ios": "https://dc.lft.to/lastmile_qr_scan", "android": "https://dc.lft.to/lastmile_qr_scan"}, "is_reserved": 0}, {"lon": -77.03210216666666, "bike_id": "3f17a6dd748a9d6c42a73de9b77693f5", "lat": 38.906898, "fusion_lon": 0.0, "fusion_lat": 0.0, "type": "electric_scooter", "name": "3f17a6dd748a9d6c42a73de9b77693f5", "is_disabled": 0, "rental_uris": {"ios": "https://dc.lft.to/lastmile_qr_scan", "android": "https://dc.lft.to/lastmile_qr_scan"}, "is_reserved": 0}, {"lon": -77.04169183333333, "bike_id": "6171049e2b6e89c0ae7602a91a70ffe2", "lat": 38.913960833333334, "fusion_lon": 0.0, "fusion_lat": 0.0, "type": "electric_scooter", "name": "6171049e2b6e89c0ae7602a91a70ffe2", "is_disabled": 0, "rental_uris": {"ios": "https://dc.lft.to/lastmile_qr_scan", "android": "https://dc.lft.to/lastmile_qr_scan"}, "is_reserved": 0}, {"lon": -77.03909483333334, "bike_id": "1c3aef4e63d77e2d9c746cc9a412a916", "lat": 38.91423733333333, "fusion_lon": 0.0, "fusion_lat": 0.0, "type": "electric_scooter", "name": "1c3aef4e63d77e2d9c746cc9a412a916", "is_disabled": 0, "rental_uris": {"ios": "https://dc.lft.to/lastmile_qr_scan", "android": "https://dc.lft.to/lastmile_qr_scan"}, "is_reserved": 0}, {"lon": -77.03194016666667, "bike_id": "6b361d6cbb9b3802ed9691e00f8abcba", "lat": 38.90954716666667, "fusion_lon": 0.0, "fusion_lat": 0.0, "type": "electric_scooter", "name": "6b361d6cbb9b3802ed9691e00f8abcba", "is_disabled": 0, "rental_uris": {"ios": "https://dc.lft.to/lastmile_qr_scan", "android": "https://dc.lft.to/lastmile_qr_scan"}, "is_reserved": 0}, {"lon": -77.083348, "bike_id": "f6440b561cf044614ee94f80b5c370ce", "lat": 38.85436333333333, "fusion_lon": 0.0, "fusion_lat": 0.0, "type": "electric_bike", "name": "f6440b561cf044614ee94f80b5c370ce", "is_disabled": 0, "rental_uris": {"ios": "https://dc.lft.to/lastmile_qr_scan", "android": "https://dc.lft.to/lastmile_qr_scan"}, "is_reserved": 0}, {"lon": -77.03222633333333, "bike_id": "8d3a8c6344a20bd981f9b575c037a130", "lat": 38.90866483333333, "fusion_lon": 0.0, "fusion_lat": 0.0, "type": "electric_scooter", "name": "8d3a8c6344a20bd981f9b575c037a130", "is_disabled": 0, "rental_uris": {"ios": "https://dc.lft.to/lastmile_qr_scan", "android": "https://dc.lft.to/lastmile_qr_scan"}, "is_reserved": 0}, {"lon": -77.035843, "bike_id": "0f21edda8ecf5082821e4cdee05b118a", "lat": 38.99226633333333, "fusion_lon": 0.0, "fusion_lat": 0.0, "type": "electric_scooter", "name": "0f21edda8ecf5082821e4cdee05b118a", "is_disabled": 0, "rental_uris": {"ios": "https://dc.lft.to/lastmile_qr_scan", "android": "https://dc.lft.to/lastmile_qr_scan"}, "is_reserved": 0}, {"lon": -77.0385765, "bike_id": "113efbb65fb6db06b0f79367163b3975", "lat": 38.904028833333335, "fusion_lon": 0.0, "fusion_lat": 0.0, "type": "electric_scooter", "name": "113efbb65fb6db06b0f79367163b3975", "is_disabled": 0, "rental_uris": {"ios": "https://dc.lft.to/lastmile_qr_scan", "android": "https://dc.lft.to/lastmile_qr_scan"}, "is_reserved": 0}, {"lon": -77.02503216666666, "bike_id": "5e83478d7bb4eaf731e46300e14f268d", "lat": 38.90432333333333, "fusion_lon": 0.0, "fusion_lat": 0.0, "type": "electric_scooter", "name": "5e83478d7bb4eaf731e46300e14f268d", "is_disabled": 0, "rental_uris": {"ios": "https://dc.lft.to/lastmile_qr_scan", "android": "https://dc.lft.to/lastmile_qr_scan"}, "is_reserved": 0}, {"lon": -76.978232, "bike_id": "1016ce850db08dc1808b1ec2f83070ee", "lat": 38.843705, "fusion_lon": 0.0, "fusion_lat": 0.0, "type": "electric_bike", "name": "1016ce850db08dc1808b1ec2f83070ee", "is_disabled": 0, "rental_uris": {"ios": "https://dc.lft.to/lastmile_qr_scan", "android": "https://dc.lft.to/lastmile_qr_scan"}, "is_reserved": 0}, {"lon": -77.00931116666666, "bike_id": "beb3b7b6b32df76d18e1e345cdd64036", "lat": 38.89983633333333, "fusion_lon": 0.0, "fusion_lat": 0.0, "type": "electric_scooter", "name": "beb3b7b6b32df76d18e1e345cdd64036", "is_disabled": 0, "rental_uris": {"ios": "https://dc.lft.to/lastmile_qr_scan", "android": "https://dc.lft.to/lastmile_qr_scan"}, "is_reserved": 0}, {"lon": -77.03324566666667, "bike_id": "599bc9f89b8405e7109c84d4ae241497", "lat": 38.92150616666667, "fusion_lon": 0.0, "fusion_lat": 0.0, "type": "electric_scooter", "name": "599bc9f89b8405e7109c84d4ae241497", "is_disabled": 0, "rental_uris": {"ios": "https://dc.lft.to/lastmile_qr_scan", "android": "https://dc.lft.to/lastmile_qr_scan"}, "is_reserved": 0}, {"lon": -77.02304066666666, "bike_id": "d52c0383657b23fde2496e4de6195580", "lat": 38.91779416666667, "fusion_lon": 0.0, "fusion_lat": 0.0, "type": "electric_scooter", "name": "d52c0383657b23fde2496e4de6195580", "is_disabled": 0, "rental_uris": {"ios": "https://dc.lft.to/lastmile_qr_scan", "android": "https://dc.lft.to/lastmile_qr_scan"}, "is_reserved": 0}, {"lon": -77.01775233333333, "bike_id": "5a829ddc771bcd484272ff9b44a1963d", "lat": 38.883885166666666, "fusion_lon": 0.0, "fusion_lat": 0.0, "type": "electric_scooter", "name": "5a829ddc771bcd484272ff9b44a1963d", "is_disabled": 0, "rental_uris": {"ios": "https://dc.lft.to/lastmile_qr_scan", "android": "https://dc.lft.to/lastmile_qr_scan"}, "is_reserved": 0}, {"lon": -77.06011883333333, "bike_id": "db60a8ef0920bcb78b4cab1751b48846", "lat": 38.90116783333333, "fusion_lon": 0.0, "fusion_lat": 0.0, "type": "electric_scooter", "name": "db60a8ef0920bcb78b4cab1751b48846", "is_disabled": 0, "rental_uris": {"ios": "https://dc.lft.to/lastmile_qr_scan", "android": "https://dc.lft.to/lastmile_qr_scan"}, "is_reserved": 0}, {"lon": -77.048738, "bike_id": "267d238be7e8778d24e0afd3dff0f535", "lat": 38.892356, "fusion_lon": 0.0, "fusion_lat": 0.0, "type": "electric_scooter", "name": "267d238be7e8778d24e0afd3dff0f535", "is_disabled": 0, "rental_uris": {"ios": "https://dc.lft.to/lastmile_qr_scan", "android": "https://dc.lft.to/lastmile_qr_scan"}, "is_reserved": 0}, {"lon": -77.02185, "bike_id": "916eabb4c9e7ff06e8a2e033e122114d", "lat": 38.9011295, "fusion_lon": 0.0, "fusion_lat": 0.0, "type": "electric_scooter", "name": "916eabb4c9e7ff06e8a2e033e122114d", "is_disabled": 0, "rental_uris": {"ios": "https://dc.lft.to/lastmile_qr_scan", "android": "https://dc.lft.to/lastmile_qr_scan"}, "is_reserved": 0}, {"lon": -77.04021083333333, "bike_id": "58b8862129456094893ce34cd143fb34", "lat": 38.9188315, "fusion_lon": 0.0, "fusion_lat": 0.0, "type": "electric_scooter", "name": "58b8862129456094893ce34cd143fb34", "is_disabled": 0, "rental_uris": {"ios": "https://dc.lft.to/lastmile_qr_scan", "android": "https://dc.lft.to/lastmile_qr_scan"}, "is_reserved": 0}, {"lon": -76.96783716666667, "bike_id": "5f084be6a02732cd77cd6c3b8a4b48b8", "lat": 38.868437666666665, "fusion_lon": 0.0, "fusion_lat": 0.0, "type": "electric_scooter", "name": "5f084be6a02732cd77cd6c3b8a4b48b8", "is_disabled": 0, "rental_uris": {"ios": "https://dc.lft.to/lastmile_qr_scan", "android": "https://dc.lft.to/lastmile_qr_scan"}, "is_reserved": 0}, {"lon": -77.03316716666667, "bike_id": "410a18ca07246faefd79dee73fa9b5dc", "lat": 38.90112583333333, "fusion_lon": 0.0, "fusion_lat": 0.0, "type": "electric_scooter", "name": "410a18ca07246faefd79dee73fa9b5dc", "is_disabled": 0, "rental_uris": {"ios": "https://dc.lft.to/lastmile_qr_scan", "android": "https://dc.lft.to/lastmile_qr_scan"}, "is_reserved": 0}, {"lon": -76.99386416666667, "bike_id": "4ebf302d04e3a0032c96c37f065c287c", "lat": 38.8834725, "fusion_lon": 0.0, "fusion_lat": 0.0, "type": "electric_scooter", "name": "4ebf302d04e3a0032c96c37f065c287c", "is_disabled": 0, "rental_uris": {"ios": "https://dc.lft.to/lastmile_qr_scan", "android": "https://dc.lft.to/lastmile_qr_scan"}, "is_reserved": 0}, {"lon": -77.045843, "bike_id": "59bc231ab162786b698821a709ac86ba", "lat": 38.916294, "fusion_lon": 0.0, "fusion_lat": 0.0, "type": "electric_scooter", "name": "59bc231ab162786b698821a709ac86ba", "is_disabled": 0, "rental_uris": {"ios": "https://dc.lft.to/lastmile_qr_scan", "android": "https://dc.lft.to/lastmile_qr_scan"}, "is_reserved": 0}, {"lon": -76.98338433333333, "bike_id": "301a0532b9cfa9890deda5da087f50cd", "lat": 38.89544266666667, "fusion_lon": 0.0, "fusion_lat": 0.0, "type": "electric_scooter", "name": "301a0532b9cfa9890deda5da087f50cd", "is_disabled": 0, "rental_uris": {"ios": "https://dc.lft.to/lastmile_qr_scan", "android": "https://dc.lft.to/lastmile_qr_scan"}, "is_reserved": 0}, {"lon": -76.96152333333333, "bike_id": "bb0c39ccb2e750c0a0d089be7f7a893f", "lat": 38.8835675, "fusion_lon": 0.0, "fusion_lat": 0.0, "type": "electric_scooter", "name": "bb0c39ccb2e750c0a0d089be7f7a893f", "is_disabled": 0, "rental_uris": {"ios": "https://dc.lft.to/lastmile_qr_scan", "android": "https://dc.lft.to/lastmile_qr_scan"}, "is_reserved": 0}, {"lon": -77.04668616666666, "bike_id": "28f3cbe73855c96eb86af213d945e0a3", "lat": 38.89664916666667, "fusion_lon": 0.0, "fusion_lat": 0.0, "type": "electric_scooter", "name": "28f3cbe73855c96eb86af213d945e0a3", "is_disabled": 0, "rental_uris": {"ios": "https://dc.lft.to/lastmile_qr_scan", "android": "https://dc.lft.to/lastmile_qr_scan"}, "is_reserved": 0}, {"lon": -77.067663, "bike_id": "02758f709becb58098cae904fd94fadf", "lat": 38.90399516666667, "fusion_lon": 0.0, "fusion_lat": 0.0, "type": "electric_scooter", "name": "02758f709becb58098cae904fd94fadf", "is_disabled": 0, "rental_uris": {"ios": "https://dc.lft.to/lastmile_qr_scan", "android": "https://dc.lft.to/lastmile_qr_scan"}, "is_reserved": 0}, {"lon": -77.02189033333333, "bike_id": "ed9690acc7befad57d17eeca7fb1253e", "lat": 38.91130316666667, "fusion_lon": 0.0, "fusion_lat": 0.0, "type": "electric_scooter", "name": "ed9690acc7befad57d17eeca7fb1253e", "is_disabled": 0, "rental_uris": {"ios": "https://dc.lft.to/lastmile_qr_scan", "android": "https://dc.lft.to/lastmile_qr_scan"}, "is_reserved": 0}, {"lon": -77.0393315, "bike_id": "8f911df288169aeb0358c81754f099dc", "lat": 38.917072833333336, "fusion_lon": 0.0, "fusion_lat": 0.0, "type": "electric_scooter", "name": "8f911df288169aeb0358c81754f099dc", "is_disabled": 0, "rental_uris": {"ios": "https://dc.lft.to/lastmile_qr_scan", "android": "https://dc.lft.to/lastmile_qr_scan"}, "is_reserved": 0}, {"lon": -77.02840683333334, "bike_id": "522db70b84182ff7ee35a2e105ae6b1a", "lat": 38.92570166666667, "fusion_lon": 0.0, "fusion_lat": 0.0, "type": "electric_scooter", "name": "522db70b84182ff7ee35a2e105ae6b1a", "is_disabled": 0, "rental_uris": {"ios": "https://dc.lft.to/lastmile_qr_scan", "android": "https://dc.lft.to/lastmile_qr_scan"}, "is_reserved": 0}, {"lon": -77.04385033333334, "bike_id": "aa64567f88c63a1928d0dc881487b5a2", "lat": 39.047147, "fusion_lon": 0.0, "fusion_lat": 0.0, "type": "electric_bike", "name": "aa64567f88c63a1928d0dc881487b5a2", "is_disabled": 0, "rental_uris": {"ios": "https://dc.lft.to/lastmile_qr_scan", "android": "https://dc.lft.to/lastmile_qr_scan"}, "is_reserved": 0}, {"lon": -77.0634485, "bike_id": "2a3864b0eced9af06d45955f73586324", "lat": 38.90596633333333, "fusion_lon": 0.0, "fusion_lat": 0.0, "type": "electric_scooter", "name": "2a3864b0eced9af06d45955f73586324", "is_disabled": 0, "rental_uris": {"ios": "https://dc.lft.to/lastmile_qr_scan", "android": "https://dc.lft.to/lastmile_qr_scan"}, "is_reserved": 0}, {"lon": -77.0274135, "bike_id": "88339c20e47b36ad526c6af0e00be0ba", "lat": 38.927704, "fusion_lon": 0.0, "fusion_lat": 0.0, "type": "electric_scooter", "name": "88339c20e47b36ad526c6af0e00be0ba", "is_disabled": 0, "rental_uris": {"ios": "https://dc.lft.to/lastmile_qr_scan", "android": "https://dc.lft.to/lastmile_qr_scan"}, "is_reserved": 0}, {"lon": -77.02236666666667, "bike_id": "f71682855f4d7578291a37c117f39093", "lat": 38.96211983333333, "fusion_lon": 0.0, "fusion_lat": 0.0, "type": "electric_bike", "name": "f71682855f4d7578291a37c117f39093", "is_disabled": 0, "rental_uris": {"ios": "https://dc.lft.to/lastmile_qr_scan", "android": "https://dc.lft.to/lastmile_qr_scan"}, "is_reserved": 0}, {"lon": -77.0466025, "bike_id": "537f00394df49b49dc1fa785a73459bc", "lat": 38.89828133333334, "fusion_lon": 0.0, "fusion_lat": 0.0, "type": "electric_scooter", "name": "537f00394df49b49dc1fa785a73459bc", "is_disabled": 0, "rental_uris": {"ios": "https://dc.lft.to/lastmile_qr_scan", "android": "https://dc.lft.to/lastmile_qr_scan"}, "is_reserved": 0}, {"lon": -77.02419316666666, "bike_id": "38160bd3c00dfe1b166048abfbbb1a2c", "lat": 38.92072683333333, "fusion_lon": 0.0, "fusion_lat": 0.0, "type": "electric_scooter", "name": "38160bd3c00dfe1b166048abfbbb1a2c", "is_disabled": 0, "rental_uris": {"ios": "https://dc.lft.to/lastmile_qr_scan", "android": "https://dc.lft.to/lastmile_qr_scan"}, "is_reserved": 0}, {"lon": -77.00117216666666, "bike_id": "971645ed21bef6448c2aac1dbf5e8ac8", "lat": 38.87487683333333, "fusion_lon": 0.0, "fusion_lat": 0.0, "type": "electric_scooter", "name": "971645ed21bef6448c2aac1dbf5e8ac8", "is_disabled": 0, "rental_uris": {"ios": "https://dc.lft.to/lastmile_qr_scan", "android": "https://dc.lft.to/lastmile_qr_scan"}, "is_reserved": 0}, {"lon": -77.0245435, "bike_id": "e4243612339f931f0535e622e11ff955", "lat": 38.938614, "fusion_lon": 0.0, "fusion_lat": 0.0, "type": "electric_scooter", "name": "e4243612339f931f0535e622e11ff955", "is_disabled": 0, "rental_uris": {"ios": "https://dc.lft.to/lastmile_qr_scan", "android": "https://dc.lft.to/lastmile_qr_scan"}, "is_reserved": 0}, {"lon": -77.02208366666666, "bike_id": "5af0bd37006013fa8a0e8877a712bbca", "lat": 38.91416366666667, "fusion_lon": 0.0, "fusion_lat": 0.0, "type": "electric_scooter", "name": "5af0bd37006013fa8a0e8877a712bbca", "is_disabled": 0, "rental_uris": {"ios": "https://dc.lft.to/lastmile_qr_scan", "android": "https://dc.lft.to/lastmile_qr_scan"}, "is_reserved": 0}, {"lon": -76.9557895, "bike_id": "8f186dbed43d34829b6783bac4563e73", "lat": 38.88764166666667, "fusion_lon": 0.0, "fusion_lat": 0.0, "type": "electric_scooter", "name": "8f186dbed43d34829b6783bac4563e73", "is_disabled": 0, "rental_uris": {"ios": "https://dc.lft.to/lastmile_qr_scan", "android": "https://dc.lft.to/lastmile_qr_scan"}, "is_reserved": 0}, {"lon": -77.02521283333333, "bike_id": "c4dabc2763ce35c9e1fb18a4bd5f7d0c", "lat": 38.92083133333333, "fusion_lon": 0.0, "fusion_lat": 0.0, "type": "electric_scooter", "name": "c4dabc2763ce35c9e1fb18a4bd5f7d0c", "is_disabled": 0, "rental_uris": {"ios": "https://dc.lft.to/lastmile_qr_scan", "android": "https://dc.lft.to/lastmile_qr_scan"}, "is_reserved": 0}, {"lon": -76.98923516666666, "bike_id": "5da9d4dff5d7692c73d45fc9117a4e46", "lat": 38.8580875, "fusion_lon": 0.0, "fusion_lat": 0.0, "type": "electric_scooter", "name": "5da9d4dff5d7692c73d45fc9117a4e46", "is_disabled": 0, "rental_uris": {"ios": "https://dc.lft.to/lastmile_qr_scan", "android": "https://dc.lft.to/lastmile_qr_scan"}, "is_reserved": 0}, {"lon": -77.02235433333334, "bike_id": "238c0bb0963dea655b0f84eac5dbac7f", "lat": 38.926086, "fusion_lon": 0.0, "fusion_lat": 0.0, "type": "electric_scooter", "name": "238c0bb0963dea655b0f84eac5dbac7f", "is_disabled": 0, "rental_uris": {"ios": "https://dc.lft.to/lastmile_qr_scan", "android": "https://dc.lft.to/lastmile_qr_scan"}, "is_reserved": 0}, {"lon": -77.00114183333334, "bike_id": "e27f581142001f832393e5d644013da1", "lat": 38.912417166666664, "fusion_lon": 0.0, "fusion_lat": 0.0, "type": "electric_scooter", "name": "e27f581142001f832393e5d644013da1", "is_disabled": 0, "rental_uris": {"ios": "https://dc.lft.to/lastmile_qr_scan", "android": "https://dc.lft.to/lastmile_qr_scan"}, "is_reserved": 0}, {"lon": -77.02792, "bike_id": "cdde7e51f91841b5b8508dbf470a5fbe", "lat": 38.95393966666666, "fusion_lon": 0.0, "fusion_lat": 0.0, "type": "electric_scooter", "name": "cdde7e51f91841b5b8508dbf470a5fbe", "is_disabled": 0, "rental_uris": {"ios": "https://dc.lft.to/lastmile_qr_scan", "android": "https://dc.lft.to/lastmile_qr_scan"}, "is_reserved": 0}, {"lon": -77.02089833333334, "bike_id": "bdc3b6411b8ae693d84800d723c33606", "lat": 38.92908833333333, "fusion_lon": 0.0, "fusion_lat": 0.0, "type": "electric_scooter", "name": "bdc3b6411b8ae693d84800d723c33606", "is_disabled": 0, "rental_uris": {"ios": "https://dc.lft.to/lastmile_qr_scan", "android": "https://dc.lft.to/lastmile_qr_scan"}, "is_reserved": 0}, {"lon": -77.04352916666667, "bike_id": "f59c8f5198783f96968c68ef04f47f4c", "lat": 38.91044766666667, "fusion_lon": 0.0, "fusion_lat": 0.0, "type": "electric_scooter", "name": "f59c8f5198783f96968c68ef04f47f4c", "is_disabled": 0, "rental_uris": {"ios": "https://dc.lft.to/lastmile_qr_scan", "android": "https://dc.lft.to/lastmile_qr_scan"}, "is_reserved": 0}, {"lon": -77.00744283333333, "bike_id": "16b73c4bf03f6377a40314e72983e2d7", "lat": 38.92530633333333, "fusion_lon": 0.0, "fusion_lat": 0.0, "type": "electric_scooter", "name": "16b73c4bf03f6377a40314e72983e2d7", "is_disabled": 0, "rental_uris": {"ios": "https://dc.lft.to/lastmile_qr_scan", "android": "https://dc.lft.to/lastmile_qr_scan"}, "is_reserved": 0}, {"lon": -77.22800783333334, "bike_id": "eb7a22ead4f26bdf6351945af807446e", "lat": 38.910132, "fusion_lon": 0.0, "fusion_lat": 0.0, "type": "electric_bike", "name": "eb7a22ead4f26bdf6351945af807446e", "is_disabled": 0, "rental_uris": {"ios": "https://dc.lft.to/lastmile_qr_scan", "android": "https://dc.lft.to/lastmile_qr_scan"}, "is_reserved": 0}, {"lon": -77.02950183333333, "bike_id": "b8407a918c98fe3d222df8c08daa627b", "lat": 38.92769166666667, "fusion_lon": 0.0, "fusion_lat": 0.0, "type": "electric_scooter", "name": "b8407a918c98fe3d222df8c08daa627b", "is_disabled": 0, "rental_uris": {"ios": "https://dc.lft.to/lastmile_qr_scan", "android": "https://dc.lft.to/lastmile_qr_scan"}, "is_reserved": 0}, {"lon": -77.058753, "bike_id": "b722a08c88857be8d6c3941722c93d70", "lat": 38.93554533333333, "fusion_lon": 0.0, "fusion_lat": 0.0, "type": "electric_scooter", "name": "b722a08c88857be8d6c3941722c93d70", "is_disabled": 0, "rental_uris": {"ios": "https://dc.lft.to/lastmile_qr_scan", "android": "https://dc.lft.to/lastmile_qr_scan"}, "is_reserved": 0}, {"lon": -76.99956483333334, "bike_id": "5d2eb2caf02e3acc3d48cc2ad5747ab7", "lat": 38.907606333333334, "fusion_lon": 0.0, "fusion_lat": 0.0, "type": "electric_scooter", "name": "5d2eb2caf02e3acc3d48cc2ad5747ab7", "is_disabled": 0, "rental_uris": {"ios": "https://dc.lft.to/lastmile_qr_scan", "android": "https://dc.lft.to/lastmile_qr_scan"}, "is_reserved": 0}, {"lon": -77.02381133333333, "bike_id": "51052db6fa117714b667ac2d0fab8dcb", "lat": 38.916191833333336, "fusion_lon": 0.0, "fusion_lat": 0.0, "type": "electric_scooter", "name": "51052db6fa117714b667ac2d0fab8dcb", "is_disabled": 0, "rental_uris": {"ios": "https://dc.lft.to/lastmile_qr_scan", "android": "https://dc.lft.to/lastmile_qr_scan"}, "is_reserved": 0}, {"lon": -77.03123933333333, "bike_id": "a15a2fdbc8fe7b5b0d20057d9fbbcd62", "lat": 38.98829933333333, "fusion_lon": 0.0, "fusion_lat": 0.0, "type": "electric_scooter", "name": "a15a2fdbc8fe7b5b0d20057d9fbbcd62", "is_disabled": 0, "rental_uris": {"ios": "https://dc.lft.to/lastmile_qr_scan", "android": "https://dc.lft.to/lastmile_qr_scan"}, "is_reserved": 0}, {"lon": -77.0531405, "bike_id": "16dd2beb43c946f40655d59eb820e6a8", "lat": 38.9410345, "fusion_lon": 0.0, "fusion_lat": 0.0, "type": "electric_bike", "name": "16dd2beb43c946f40655d59eb820e6a8", "is_disabled": 0, "rental_uris": {"ios": "https://dc.lft.to/lastmile_qr_scan", "android": "https://dc.lft.to/lastmile_qr_scan"}, "is_reserved": 0}, {"lon": -77.04166516666666, "bike_id": "a1894f753fd1a4292e40faf36e1c3aa8", "lat": 38.906675166666666, "fusion_lon": 0.0, "fusion_lat": 0.0, "type": "electric_scooter", "name": "a1894f753fd1a4292e40faf36e1c3aa8", "is_disabled": 0, "rental_uris": {"ios": "https://dc.lft.to/lastmile_qr_scan", "android": "https://dc.lft.to/lastmile_qr_scan"}, "is_reserved": 0}, {"lon": -76.96393283333333, "bike_id": "1313e4a93734d1a452890bdfa587204b", "lat": 38.9516895, "fusion_lon": 0.0, "fusion_lat": 0.0, "type": "electric_bike", "name": "1313e4a93734d1a452890bdfa587204b", "is_disabled": 0, "rental_uris": {"ios": "https://dc.lft.to/lastmile_qr_scan", "android": "https://dc.lft.to/lastmile_qr_scan"}, "is_reserved": 0}, {"lon": -77.034363, "bike_id": "d0e2949bac8f858092d62b757f137bb2", "lat": 38.90971533333333, "fusion_lon": 0.0, "fusion_lat": 0.0, "type": "electric_scooter", "name": "d0e2949bac8f858092d62b757f137bb2", "is_disabled": 0, "rental_uris": {"ios": "https://dc.lft.to/lastmile_qr_scan", "android": "https://dc.lft.to/lastmile_qr_scan"}, "is_reserved": 0}, {"lon": -77.03213333333333, "bike_id": "bb5717f137dc42c82182f5234ba2b125", "lat": 38.91926566666667, "fusion_lon": 0.0, "fusion_lat": 0.0, "type": "electric_scooter", "name": "bb5717f137dc42c82182f5234ba2b125", "is_disabled": 0, "rental_uris": {"ios": "https://dc.lft.to/lastmile_qr_scan", "android": "https://dc.lft.to/lastmile_qr_scan"}, "is_reserved": 0}, {"lon": -77.0249935, "bike_id": "393c1351dda3ba355cc16bcd78ec0cae", "lat": 38.920720833333334, "fusion_lon": 0.0, "fusion_lat": 0.0, "type": "electric_scooter", "name": "393c1351dda3ba355cc16bcd78ec0cae", "is_disabled": 0, "rental_uris": {"ios": "https://dc.lft.to/lastmile_qr_scan", "android": "https://dc.lft.to/lastmile_qr_scan"}, "is_reserved": 0}, {"lon": -76.99531283333333, "bike_id": "a7995b54a8e95bd792a877c0cdd54918", "lat": 38.8837025, "fusion_lon": 0.0, "fusion_lat": 0.0, "type": "electric_scooter", "name": "a7995b54a8e95bd792a877c0cdd54918", "is_disabled": 0, "rental_uris": {"ios": "https://dc.lft.to/lastmile_qr_scan", "android": "https://dc.lft.to/lastmile_qr_scan"}, "is_reserved": 0}, {"lon": -77.027767, "bike_id": "01dc54f0f660cb6e1954002672c4a2cb", "lat": 38.9170875, "fusion_lon": 0.0, "fusion_lat": 0.0, "type": "electric_scooter", "name": "01dc54f0f660cb6e1954002672c4a2cb", "is_disabled": 0, "rental_uris": {"ios": "https://dc.lft.to/lastmile_qr_scan", "android": "https://dc.lft.to/lastmile_qr_scan"}, "is_reserved": 0}, {"lon": -77.00200883333333, "bike_id": "cd4d644bf0e00b277e437aae39c0c0bb", "lat": 38.90028616666667, "fusion_lon": 0.0, "fusion_lat": 0.0, "type": "electric_scooter", "name": "cd4d644bf0e00b277e437aae39c0c0bb", "is_disabled": 0, "rental_uris": {"ios": "https://dc.lft.to/lastmile_qr_scan", "android": "https://dc.lft.to/lastmile_qr_scan"}, "is_reserved": 0}, {"lon": -77.00645266666666, "bike_id": "0a6e62e8399cd7dd4d83a69a35204b2c", "lat": 38.9261525, "fusion_lon": 0.0, "fusion_lat": 0.0, "type": "electric_scooter", "name": "0a6e62e8399cd7dd4d83a69a35204b2c", "is_disabled": 0, "rental_uris": {"ios": "https://dc.lft.to/lastmile_qr_scan", "android": "https://dc.lft.to/lastmile_qr_scan"}, "is_reserved": 0}, {"lon": -77.02181766666666, "bike_id": "d818ca3436cd546e5b6f03b04ea7e9a7", "lat": 38.895991, "fusion_lon": 0.0, "fusion_lat": 0.0, "type": "electric_scooter", "name": "d818ca3436cd546e5b6f03b04ea7e9a7", "is_disabled": 0, "rental_uris": {"ios": "https://dc.lft.to/lastmile_qr_scan", "android": "https://dc.lft.to/lastmile_qr_scan"}, "is_reserved": 0}, {"lon": -76.97479083333333, "bike_id": "cc11d2e55bc3780dfdd6ce51513ac2b9", "lat": 38.9035175, "fusion_lon": 0.0, "fusion_lat": 0.0, "type": "electric_scooter", "name": "cc11d2e55bc3780dfdd6ce51513ac2b9", "is_disabled": 0, "rental_uris": {"ios": "https://dc.lft.to/lastmile_qr_scan", "android": "https://dc.lft.to/lastmile_qr_scan"}, "is_reserved": 0}, {"lon": -77.08067766666667, "bike_id": "76c0bb7597880ddfbf6abcb6251b66b5", "lat": 39.052797, "fusion_lon": 0.0, "fusion_lat": 0.0, "type": "electric_bike", "name": "76c0bb7597880ddfbf6abcb6251b66b5", "is_disabled": 0, "rental_uris": {"ios": "https://dc.lft.to/lastmile_qr_scan", "android": "https://dc.lft.to/lastmile_qr_scan"}, "is_reserved": 0}, {"lon": -77.06520283333333, "bike_id": "c1c17cd35dee3ae2154253eadca1a760", "lat": 38.90405, "fusion_lon": 0.0, "fusion_lat": 0.0, "type": "electric_scooter", "name": "c1c17cd35dee3ae2154253eadca1a760", "is_disabled": 0, "rental_uris": {"ios": "https://dc.lft.to/lastmile_qr_scan", "android": "https://dc.lft.to/lastmile_qr_scan"}, "is_reserved": 0}, {"lon": -76.9908635, "bike_id": "40bbe0d81cda5b9089d24c7d5538c71e", "lat": 38.862367, "fusion_lon": 0.0, "fusion_lat": 0.0, "type": "electric_bike", "name": "40bbe0d81cda5b9089d24c7d5538c71e", "is_disabled": 0, "rental_uris": {"ios": "https://dc.lft.to/lastmile_qr_scan", "android": "https://dc.lft.to/lastmile_qr_scan"}, "is_reserved": 0}, {"lon": -77.02233266666667, "bike_id": "9e528b41518c143684291a2dc75bc152", "lat": 38.95682766666667, "fusion_lon": 0.0, "fusion_lat": 0.0, "type": "electric_bike", "name": "9e528b41518c143684291a2dc75bc152", "is_disabled": 0, "rental_uris": {"ios": "https://dc.lft.to/lastmile_qr_scan", "android": "https://dc.lft.to/lastmile_qr_scan"}, "is_reserved": 0}, {"lon": -76.9901775, "bike_id": "b912cced1eede8c0d6dfc0ea47d03d86", "lat": 38.86643, "fusion_lon": 0.0, "fusion_lat": 0.0, "type": "electric_scooter", "name": "b912cced1eede8c0d6dfc0ea47d03d86", "is_disabled": 0, "rental_uris": {"ios": "https://dc.lft.to/lastmile_qr_scan", "android": "https://dc.lft.to/lastmile_qr_scan"}, "is_reserved": 0}, {"lon": -77.05172466666667, "bike_id": "29a23c7ee347002da60dd5e058c588f0", "lat": 38.899476666666665, "fusion_lon": 0.0, "fusion_lat": 0.0, "type": "electric_scooter", "name": "29a23c7ee347002da60dd5e058c588f0", "is_disabled": 0, "rental_uris": {"ios": "https://dc.lft.to/lastmile_qr_scan", "android": "https://dc.lft.to/lastmile_qr_scan"}, "is_reserved": 0}, {"lon": -77.03178266666667, "bike_id": "95a367d059e783462c3d1b41b43e7ec9", "lat": 38.91259266666667, "fusion_lon": 0.0, "fusion_lat": 0.0, "type": "electric_scooter", "name": "95a367d059e783462c3d1b41b43e7ec9", "is_disabled": 0, "rental_uris": {"ios": "https://dc.lft.to/lastmile_qr_scan", "android": "https://dc.lft.to/lastmile_qr_scan"}, "is_reserved": 0}, {"lon": -77.01939016666667, "bike_id": "c9fbdaf8a002744cf163f35867650b3d", "lat": 38.935266166666665, "fusion_lon": 0.0, "fusion_lat": 0.0, "type": "electric_scooter", "name": "c9fbdaf8a002744cf163f35867650b3d", "is_disabled": 0, "rental_uris": {"ios": "https://dc.lft.to/lastmile_qr_scan", "android": "https://dc.lft.to/lastmile_qr_scan"}, "is_reserved": 0}, {"lon": -77.02565916666667, "bike_id": "5023b273f75de31a6662f0ed64ccaef5", "lat": 38.933493166666665, "fusion_lon": 0.0, "fusion_lat": 0.0, "type": "electric_scooter", "name": "5023b273f75de31a6662f0ed64ccaef5", "is_disabled": 0, "rental_uris": {"ios": "https://dc.lft.to/lastmile_qr_scan", "android": "https://dc.lft.to/lastmile_qr_scan"}, "is_reserved": 0}, {"lon": -77.0324455, "bike_id": "356e5295bed988a9ffb67bb60cd22cea", "lat": 38.9096775, "fusion_lon": 0.0, "fusion_lat": 0.0, "type": "electric_scooter", "name": "356e5295bed988a9ffb67bb60cd22cea", "is_disabled": 0, "rental_uris": {"ios": "https://dc.lft.to/lastmile_qr_scan", "android": "https://dc.lft.to/lastmile_qr_scan"}, "is_reserved": 0}, {"lon": -76.96529933333333, "bike_id": "0c6b356a25ad304f96dac73777351325", "lat": 38.874795666666664, "fusion_lon": 0.0, "fusion_lat": 0.0, "type": "electric_scooter", "name": "0c6b356a25ad304f96dac73777351325", "is_disabled": 0, "rental_uris": {"ios": "https://dc.lft.to/lastmile_qr_scan", "android": "https://dc.lft.to/lastmile_qr_scan"}, "is_reserved": 0}, {"lon": -77.0403035, "bike_id": "a1bf746b39b542448de781c01db83149", "lat": 38.92405266666667, "fusion_lon": 0.0, "fusion_lat": 0.0, "type": "electric_scooter", "name": "a1bf746b39b542448de781c01db83149", "is_disabled": 0, "rental_uris": {"ios": "https://dc.lft.to/lastmile_qr_scan", "android": "https://dc.lft.to/lastmile_qr_scan"}, "is_reserved": 0}, {"lon": -77.0225175, "bike_id": "5b8f704905ebc0cbe7c6a39e64b88b4a", "lat": 38.928993, "fusion_lon": 0.0, "fusion_lat": 0.0, "type": "electric_scooter", "name": "5b8f704905ebc0cbe7c6a39e64b88b4a", "is_disabled": 0, "rental_uris": {"ios": "https://dc.lft.to/lastmile_qr_scan", "android": "https://dc.lft.to/lastmile_qr_scan"}, "is_reserved": 0}, {"lon": -77.03995216666667, "bike_id": "edadd5a324f7f88e9b3735881f111017", "lat": 38.90365366666666, "fusion_lon": 0.0, "fusion_lat": 0.0, "type": "electric_scooter", "name": "edadd5a324f7f88e9b3735881f111017", "is_disabled": 0, "rental_uris": {"ios": "https://dc.lft.to/lastmile_qr_scan", "android": "https://dc.lft.to/lastmile_qr_scan"}, "is_reserved": 0}, {"lon": -77.0432585, "bike_id": "a42f956f0415cba0a66a6a80c43537fb", "lat": 38.9036145, "fusion_lon": 0.0, "fusion_lat": 0.0, "type": "electric_scooter", "name": "a42f956f0415cba0a66a6a80c43537fb", "is_disabled": 0, "rental_uris": {"ios": "https://dc.lft.to/lastmile_qr_scan", "android": "https://dc.lft.to/lastmile_qr_scan"}, "is_reserved": 0}, {"lon": -77.00759233333333, "bike_id": "292fa908c7f3a7d27eb7039d61727624", "lat": 38.870940166666664, "fusion_lon": 0.0, "fusion_lat": 0.0, "type": "electric_scooter", "name": "292fa908c7f3a7d27eb7039d61727624", "is_disabled": 0, "rental_uris": {"ios": "https://dc.lft.to/lastmile_qr_scan", "android": "https://dc.lft.to/lastmile_qr_scan"}, "is_reserved": 0}, {"lon": -77.03950433333333, "bike_id": "9006b19a73e56dbaedca98debf93d870", "lat": 38.89970433333333, "fusion_lon": 0.0, "fusion_lat": 0.0, "type": "electric_scooter", "name": "9006b19a73e56dbaedca98debf93d870", "is_disabled": 0, "rental_uris": {"ios": "https://dc.lft.to/lastmile_qr_scan", "android": "https://dc.lft.to/lastmile_qr_scan"}, "is_reserved": 0}, {"lon": -77.02147433333333, "bike_id": "7190711129b9e353eb2f5b10bbf726af", "lat": 38.8949835, "fusion_lon": 0.0, "fusion_lat": 0.0, "type": "electric_scooter", "name": "7190711129b9e353eb2f5b10bbf726af", "is_disabled": 0, "rental_uris": {"ios": "https://dc.lft.to/lastmile_qr_scan", "android": "https://dc.lft.to/lastmile_qr_scan"}, "is_reserved": 0}, {"lon": -77.05019133333333, "bike_id": "88adc548e08220582a2387cf676c561a", "lat": 38.90086466666666, "fusion_lon": 0.0, "fusion_lat": 0.0, "type": "electric_scooter", "name": "88adc548e08220582a2387cf676c561a", "is_disabled": 0, "rental_uris": {"ios": "https://dc.lft.to/lastmile_qr_scan", "android": "https://dc.lft.to/lastmile_qr_scan"}, "is_reserved": 0}, {"lon": -77.02217333333333, "bike_id": "ea79ac24c99fdc08c3afc112393fec65", "lat": 38.92105083333333, "fusion_lon": 0.0, "fusion_lat": 0.0, "type": "electric_scooter", "name": "ea79ac24c99fdc08c3afc112393fec65", "is_disabled": 0, "rental_uris": {"ios": "https://dc.lft.to/lastmile_qr_scan", "android": "https://dc.lft.to/lastmile_qr_scan"}, "is_reserved": 0}, {"lon": -76.94636, "bike_id": "f8a01a7202572538025ddeee1578d7f9", "lat": 38.898327, "fusion_lon": 0.0, "fusion_lat": 0.0, "type": "electric_scooter", "name": "f8a01a7202572538025ddeee1578d7f9", "is_disabled": 0, "rental_uris": {"ios": "https://dc.lft.to/lastmile_qr_scan", "android": "https://dc.lft.to/lastmile_qr_scan"}, "is_reserved": 0}, {"lon": -77.03241216666666, "bike_id": "da12470724c521def8a538c407662e41", "lat": 38.92745733333334, "fusion_lon": 0.0, "fusion_lat": 0.0, "type": "electric_scooter", "name": "da12470724c521def8a538c407662e41", "is_disabled": 0, "rental_uris": {"ios": "https://dc.lft.to/lastmile_qr_scan", "android": "https://dc.lft.to/lastmile_qr_scan"}, "is_reserved": 0}, {"lon": -77.0569685, "bike_id": "c23a76eb0cf5f6011f0a9bdbde49e3ed", "lat": 38.905443, "fusion_lon": 0.0, "fusion_lat": 0.0, "type": "electric_scooter", "name": "c23a76eb0cf5f6011f0a9bdbde49e3ed", "is_disabled": 0, "rental_uris": {"ios": "https://dc.lft.to/lastmile_qr_scan", "android": "https://dc.lft.to/lastmile_qr_scan"}, "is_reserved": 0}, {"lon": -77.04361483333334, "bike_id": "af1dbb9c737ef7f45a270366302540ab", "lat": 38.92147666666666, "fusion_lon": 0.0, "fusion_lat": 0.0, "type": "electric_scooter", "name": "af1dbb9c737ef7f45a270366302540ab", "is_disabled": 0, "rental_uris": {"ios": "https://dc.lft.to/lastmile_qr_scan", "android": "https://dc.lft.to/lastmile_qr_scan"}, "is_reserved": 0}, {"lon": -77.01625416666667, "bike_id": "bab85981f761dfb6e6c860944ed3834b", "lat": 38.903493, "fusion_lon": 0.0, "fusion_lat": 0.0, "type": "electric_scooter", "name": "bab85981f761dfb6e6c860944ed3834b", "is_disabled": 0, "rental_uris": {"ios": "https://dc.lft.to/lastmile_qr_scan", "android": "https://dc.lft.to/lastmile_qr_scan"}, "is_reserved": 0}, {"lon": -77.041709, "bike_id": "68a3923ab5130bf0a35201837ea9431c", "lat": 38.91797066666667, "fusion_lon": 0.0, "fusion_lat": 0.0, "type": "electric_scooter", "name": "68a3923ab5130bf0a35201837ea9431c", "is_disabled": 0, "rental_uris": {"ios": "https://dc.lft.to/lastmile_qr_scan", "android": "https://dc.lft.to/lastmile_qr_scan"}, "is_reserved": 0}, {"lon": -77.02115866666666, "bike_id": "85e61fc8f5d39034b0d2f8cd25d74038", "lat": 38.93700533333333, "fusion_lon": 0.0, "fusion_lat": 0.0, "type": "electric_scooter", "name": "85e61fc8f5d39034b0d2f8cd25d74038", "is_disabled": 0, "rental_uris": {"ios": "https://dc.lft.to/lastmile_qr_scan", "android": "https://dc.lft.to/lastmile_qr_scan"}, "is_reserved": 0}, {"lon": -77.02976716666667, "bike_id": "6e6bd5ce3a84e884ec043215b50a8499", "lat": 38.93247016666667, "fusion_lon": 0.0, "fusion_lat": 0.0, "type": "electric_scooter", "name": "6e6bd5ce3a84e884ec043215b50a8499", "is_disabled": 0, "rental_uris": {"ios": "https://dc.lft.to/lastmile_qr_scan", "android": "https://dc.lft.to/lastmile_qr_scan"}, "is_reserved": 0}, {"lon": -77.00819566666667, "bike_id": "daa918d895c59594f99eccd73b8716d2", "lat": 38.8790675, "fusion_lon": 0.0, "fusion_lat": 0.0, "type": "electric_scooter", "name": "daa918d895c59594f99eccd73b8716d2", "is_disabled": 0, "rental_uris": {"ios": "https://dc.lft.to/lastmile_qr_scan", "android": "https://dc.lft.to/lastmile_qr_scan"}, "is_reserved": 0}, {"lon": -77.041107, "bike_id": "d97b940a29ef4245529c5b8f79df5113", "lat": 38.92452016666667, "fusion_lon": 0.0, "fusion_lat": 0.0, "type": "electric_scooter", "name": "d97b940a29ef4245529c5b8f79df5113", "is_disabled": 0, "rental_uris": {"ios": "https://dc.lft.to/lastmile_qr_scan", "android": "https://dc.lft.to/lastmile_qr_scan"}, "is_reserved": 0}, {"lon": -77.0244575, "bike_id": "9ab8d2d34d937302964ded63716d2ea5", "lat": 38.91413266666667, "fusion_lon": 0.0, "fusion_lat": 0.0, "type": "electric_scooter", "name": "9ab8d2d34d937302964ded63716d2ea5", "is_disabled": 0, "rental_uris": {"ios": "https://dc.lft.to/lastmile_qr_scan", "android": "https://dc.lft.to/lastmile_qr_scan"}, "is_reserved": 0}, {"lon": -77.03378883333333, "bike_id": "0fdecd3edceb93fc630e46113aa506b6", "lat": 38.89965483333334, "fusion_lon": 0.0, "fusion_lat": 0.0, "type": "electric_scooter", "name": "0fdecd3edceb93fc630e46113aa506b6", "is_disabled": 0, "rental_uris": {"ios": "https://dc.lft.to/lastmile_qr_scan", "android": "https://dc.lft.to/lastmile_qr_scan"}, "is_reserved": 0}, {"lon": -77.03849966666667, "bike_id": "4d7de8a82bdb34d63f3cd9162ebbe474", "lat": 38.91004516666667, "fusion_lon": 0.0, "fusion_lat": 0.0, "type": "electric_scooter", "name": "4d7de8a82bdb34d63f3cd9162ebbe474", "is_disabled": 0, "rental_uris": {"ios": "https://dc.lft.to/lastmile_qr_scan", "android": "https://dc.lft.to/lastmile_qr_scan"}, "is_reserved": 0}, {"lon": -77.02648233333333, "bike_id": "663bfc5f371300d198c48df8138062ce", "lat": 38.90235366666667, "fusion_lon": 0.0, "fusion_lat": 0.0, "type": "electric_scooter", "name": "663bfc5f371300d198c48df8138062ce", "is_disabled": 0, "rental_uris": {"ios": "https://dc.lft.to/lastmile_qr_scan", "android": "https://dc.lft.to/lastmile_qr_scan"}, "is_reserved": 0}, {"lon": -77.04276, "bike_id": "543b0a5032628e881d9c4a22354b4b37", "lat": 38.9003425, "fusion_lon": 0.0, "fusion_lat": 0.0, "type": "electric_scooter", "name": "543b0a5032628e881d9c4a22354b4b37", "is_disabled": 0, "rental_uris": {"ios": "https://dc.lft.to/lastmile_qr_scan", "android": "https://dc.lft.to/lastmile_qr_scan"}, "is_reserved": 0}, {"lon": -77.03376833333333, "bike_id": "c3e23ea80844bbde47e486f7a95a50c3", "lat": 38.902673166666666, "fusion_lon": 0.0, "fusion_lat": 0.0, "type": "electric_scooter", "name": "c3e23ea80844bbde47e486f7a95a50c3", "is_disabled": 0, "rental_uris": {"ios": "https://dc.lft.to/lastmile_qr_scan", "android": "https://dc.lft.to/lastmile_qr_scan"}, "is_reserved": 0}, {"lon": -77.04473116666666, "bike_id": "17165480404a836060308e1a7d508b58", "lat": 38.924224, "fusion_lon": 0.0, "fusion_lat": 0.0, "type": "electric_scooter", "name": "17165480404a836060308e1a7d508b58", "is_disabled": 0, "rental_uris": {"ios": "https://dc.lft.to/lastmile_qr_scan", "android": "https://dc.lft.to/lastmile_qr_scan"}, "is_reserved": 0}, {"lon": -77.001995, "bike_id": "536cb32d5abedacc63f6c319b1636642", "lat": 38.9024045, "fusion_lon": 0.0, "fusion_lat": 0.0, "type": "electric_scooter", "name": "536cb32d5abedacc63f6c319b1636642", "is_disabled": 0, "rental_uris": {"ios": "https://dc.lft.to/lastmile_qr_scan", "android": "https://dc.lft.to/lastmile_qr_scan"}, "is_reserved": 0}, {"lon": -77.05208433333334, "bike_id": "14362ca9efca5be532205ef347c8b091", "lat": 38.8995265, "fusion_lon": 0.0, "fusion_lat": 0.0, "type": "electric_scooter", "name": "14362ca9efca5be532205ef347c8b091", "is_disabled": 0, "rental_uris": {"ios": "https://dc.lft.to/lastmile_qr_scan", "android": "https://dc.lft.to/lastmile_qr_scan"}, "is_reserved": 0}, {"lon": -77.00136166666667, "bike_id": "4427078d9680f4f8020d7f288bb7edf3", "lat": 38.894699333333335, "fusion_lon": 0.0, "fusion_lat": 0.0, "type": "electric_scooter", "name": "4427078d9680f4f8020d7f288bb7edf3", "is_disabled": 0, "rental_uris": {"ios": "https://dc.lft.to/lastmile_qr_scan", "android": "https://dc.lft.to/lastmile_qr_scan"}, "is_reserved": 0}, {"lon": -76.93731116666666, "bike_id": "d1becba171eb56a3143f601d851e6840", "lat": 38.890144166666666, "fusion_lon": 0.0, "fusion_lat": 0.0, "type": "electric_scooter", "name": "d1becba171eb56a3143f601d851e6840", "is_disabled": 0, "rental_uris": {"ios": "https://dc.lft.to/lastmile_qr_scan", "android": "https://dc.lft.to/lastmile_qr_scan"}, "is_reserved": 0}, {"lon": -77.034631, "bike_id": "f1e466280f82a2106292da1f2cbe8ae4", "lat": 38.9206605, "fusion_lon": 0.0, "fusion_lat": 0.0, "type": "electric_scooter", "name": "f1e466280f82a2106292da1f2cbe8ae4", "is_disabled": 0, "rental_uris": {"ios": "https://dc.lft.to/lastmile_qr_scan", "android": "https://dc.lft.to/lastmile_qr_scan"}, "is_reserved": 0}, {"lon": -76.93754733333333, "bike_id": "33d3fee0b272e17558761b4b0893d137", "lat": 38.8904395, "fusion_lon": 0.0, "fusion_lat": 0.0, "type": "electric_scooter", "name": "33d3fee0b272e17558761b4b0893d137", "is_disabled": 0, "rental_uris": {"ios": "https://dc.lft.to/lastmile_qr_scan", "android": "https://dc.lft.to/lastmile_qr_scan"}, "is_reserved": 0}, {"lon": -77.03471283333333, "bike_id": "e0555f7fc266fe5c6bf0f7bf2f104ed8", "lat": 38.91704216666667, "fusion_lon": 0.0, "fusion_lat": 0.0, "type": "electric_scooter", "name": "e0555f7fc266fe5c6bf0f7bf2f104ed8", "is_disabled": 0, "rental_uris": {"ios": "https://dc.lft.to/lastmile_qr_scan", "android": "https://dc.lft.to/lastmile_qr_scan"}, "is_reserved": 0}, {"lon": -77.04484733333334, "bike_id": "2bfc13399580d824d5332788c364b56c", "lat": 38.903780833333336, "fusion_lon": 0.0, "fusion_lat": 0.0, "type": "electric_scooter", "name": "2bfc13399580d824d5332788c364b56c", "is_disabled": 0, "rental_uris": {"ios": "https://dc.lft.to/lastmile_qr_scan", "android": "https://dc.lft.to/lastmile_qr_scan"}, "is_reserved": 0}, {"lon": -76.992693, "bike_id": "2aa141dc3d73022f1bf8f6751537dc55", "lat": 38.89765383333334, "fusion_lon": 0.0, "fusion_lat": 0.0, "type": "electric_scooter", "name": "2aa141dc3d73022f1bf8f6751537dc55", "is_disabled": 0, "rental_uris": {"ios": "https://dc.lft.to/lastmile_qr_scan", "android": "https://dc.lft.to/lastmile_qr_scan"}, "is_reserved": 0}, {"lon": -77.01717883333333, "bike_id": "998005058c2eb76934d79deff0b3dc4c", "lat": 38.909668333333336, "fusion_lon": 0.0, "fusion_lat": 0.0, "type": "electric_scooter", "name": "998005058c2eb76934d79deff0b3dc4c", "is_disabled": 0, "rental_uris": {"ios": "https://dc.lft.to/lastmile_qr_scan", "android": "https://dc.lft.to/lastmile_qr_scan"}, "is_reserved": 0}, {"lon": -77.03448883333333, "bike_id": "6ebe2dc0726b7b285fa467faee862a1f", "lat": 38.908097, "fusion_lon": 0.0, "fusion_lat": 0.0, "type": "electric_scooter", "name": "6ebe2dc0726b7b285fa467faee862a1f", "is_disabled": 0, "rental_uris": {"ios": "https://dc.lft.to/lastmile_qr_scan", "android": "https://dc.lft.to/lastmile_qr_scan"}, "is_reserved": 0}, {"lon": -77.043508, "bike_id": "7681b4e74249f9b48837de6517ae97e7", "lat": 38.9024725, "fusion_lon": 0.0, "fusion_lat": 0.0, "type": "electric_scooter", "name": "7681b4e74249f9b48837de6517ae97e7", "is_disabled": 0, "rental_uris": {"ios": "https://dc.lft.to/lastmile_qr_scan", "android": "https://dc.lft.to/lastmile_qr_scan"}, "is_reserved": 0}, {"lon": -77.0020305, "bike_id": "bfc8cae00b93c619856466e0456253d3", "lat": 38.9004075, "fusion_lon": 0.0, "fusion_lat": 0.0, "type": "electric_scooter", "name": "bfc8cae00b93c619856466e0456253d3", "is_disabled": 0, "rental_uris": {"ios": "https://dc.lft.to/lastmile_qr_scan", "android": "https://dc.lft.to/lastmile_qr_scan"}, "is_reserved": 0}, {"lon": -76.97338783333333, "bike_id": "cb7e91e7395a41e4abc41060f4e33fd3", "lat": 38.86521283333333, "fusion_lon": 0.0, "fusion_lat": 0.0, "type": "electric_bike", "name": "cb7e91e7395a41e4abc41060f4e33fd3", "is_disabled": 0, "rental_uris": {"ios": "https://dc.lft.to/lastmile_qr_scan", "android": "https://dc.lft.to/lastmile_qr_scan"}, "is_reserved": 0}, {"lon": -77.03177916666667, "bike_id": "7a8d146aeea96532f7530a695f0b387d", "lat": 38.88877, "fusion_lon": 0.0, "fusion_lat": 0.0, "type": "electric_scooter", "name": "7a8d146aeea96532f7530a695f0b387d", "is_disabled": 0, "rental_uris": {"ios": "https://dc.lft.to/lastmile_qr_scan", "android": "https://dc.lft.to/lastmile_qr_scan"}, "is_reserved": 0}, {"lon": -77.0169755, "bike_id": "13808dc7f191b336099d8a2fe898e02c", "lat": 38.8791985, "fusion_lon": 0.0, "fusion_lat": 0.0, "type": "electric_scooter", "name": "13808dc7f191b336099d8a2fe898e02c", "is_disabled": 0, "rental_uris": {"ios": "https://dc.lft.to/lastmile_qr_scan", "android": "https://dc.lft.to/lastmile_qr_scan"}, "is_reserved": 0}, {"lon": -77.03837716666666, "bike_id": "3e89d30db390b46f7ee12b48eecbc956", "lat": 38.917169, "fusion_lon": 0.0, "fusion_lat": 0.0, "type": "electric_scooter", "name": "3e89d30db390b46f7ee12b48eecbc956", "is_disabled": 0, "rental_uris": {"ios": "https://dc.lft.to/lastmile_qr_scan", "android": "https://dc.lft.to/lastmile_qr_scan"}, "is_reserved": 0}, {"lon": -76.9855945, "bike_id": "bca26d4c81d2d961873b6874b3b675bc", "lat": 38.909132166666666, "fusion_lon": 0.0, "fusion_lat": 0.0, "type": "electric_scooter", "name": "bca26d4c81d2d961873b6874b3b675bc", "is_disabled": 0, "rental_uris": {"ios": "https://dc.lft.to/lastmile_qr_scan", "android": "https://dc.lft.to/lastmile_qr_scan"}, "is_reserved": 0}, {"lon": -77.070728, "bike_id": "d953e8311fabf5e301d8fb9488416eb6", "lat": 38.932607833333336, "fusion_lon": 0.0, "fusion_lat": 0.0, "type": "electric_scooter", "name": "d953e8311fabf5e301d8fb9488416eb6", "is_disabled": 0, "rental_uris": {"ios": "https://dc.lft.to/lastmile_qr_scan", "android": "https://dc.lft.to/lastmile_qr_scan"}, "is_reserved": 0}, {"lon": -77.03907983333333, "bike_id": "913e45382f017d2b27ff46ec29c5d514", "lat": 38.918432833333334, "fusion_lon": 0.0, "fusion_lat": 0.0, "type": "electric_scooter", "name": "913e45382f017d2b27ff46ec29c5d514", "is_disabled": 0, "rental_uris": {"ios": "https://dc.lft.to/lastmile_qr_scan", "android": "https://dc.lft.to/lastmile_qr_scan"}, "is_reserved": 0}, {"lon": -76.98081166666667, "bike_id": "25a39cbc417cd24e6b4e2ed71ea22620", "lat": 38.88422283333333, "fusion_lon": 0.0, "fusion_lat": 0.0, "type": "electric_scooter", "name": "25a39cbc417cd24e6b4e2ed71ea22620", "is_disabled": 0, "rental_uris": {"ios": "https://dc.lft.to/lastmile_qr_scan", "android": "https://dc.lft.to/lastmile_qr_scan"}, "is_reserved": 0}, {"lon": -77.03642933333333, "bike_id": "0e2b0cf44e061f0adb15ba3805892032", "lat": 38.912277833333334, "fusion_lon": 0.0, "fusion_lat": 0.0, "type": "electric_scooter", "name": "0e2b0cf44e061f0adb15ba3805892032", "is_disabled": 0, "rental_uris": {"ios": "https://dc.lft.to/lastmile_qr_scan", "android": "https://dc.lft.to/lastmile_qr_scan"}, "is_reserved": 0}, {"lon": -77.03194083333334, "bike_id": "8f762adefd4e080d033d62117e160c7d", "lat": 38.928690833333334, "fusion_lon": 0.0, "fusion_lat": 0.0, "type": "electric_scooter", "name": "8f762adefd4e080d033d62117e160c7d", "is_disabled": 0, "rental_uris": {"ios": "https://dc.lft.to/lastmile_qr_scan", "android": "https://dc.lft.to/lastmile_qr_scan"}, "is_reserved": 0}, {"lon": -77.037762, "bike_id": "f600d516299f01efcd274fe398262cbb", "lat": 38.92970416666667, "fusion_lon": 0.0, "fusion_lat": 0.0, "type": "electric_scooter", "name": "f600d516299f01efcd274fe398262cbb", "is_disabled": 0, "rental_uris": {"ios": "https://dc.lft.to/lastmile_qr_scan", "android": "https://dc.lft.to/lastmile_qr_scan"}, "is_reserved": 0}, {"lon": -77.0396365, "bike_id": "583278602b0e48acefcac51b2b380955", "lat": 38.916270833333336, "fusion_lon": 0.0, "fusion_lat": 0.0, "type": "electric_scooter", "name": "583278602b0e48acefcac51b2b380955", "is_disabled": 0, "rental_uris": {"ios": "https://dc.lft.to/lastmile_qr_scan", "android": "https://dc.lft.to/lastmile_qr_scan"}, "is_reserved": 0}, {"lon": -76.9840535, "bike_id": "dd1dcc91abc984cda652df4709536703", "lat": 38.906264, "fusion_lon": 0.0, "fusion_lat": 0.0, "type": "electric_scooter", "name": "dd1dcc91abc984cda652df4709536703", "is_disabled": 0, "rental_uris": {"ios": "https://dc.lft.to/lastmile_qr_scan", "android": "https://dc.lft.to/lastmile_qr_scan"}, "is_reserved": 0}, {"lon": -76.98935816666666, "bike_id": "3fdc1260101cf6546d1c43a203a580a1", "lat": 38.91836883333333, "fusion_lon": 0.0, "fusion_lat": 0.0, "type": "electric_scooter", "name": "3fdc1260101cf6546d1c43a203a580a1", "is_disabled": 0, "rental_uris": {"ios": "https://dc.lft.to/lastmile_qr_scan", "android": "https://dc.lft.to/lastmile_qr_scan"}, "is_reserved": 0}, {"lon": -76.99626933333333, "bike_id": "e94793f46c1d965696dd6a16dd5a6a23", "lat": 38.90108083333333, "fusion_lon": 0.0, "fusion_lat": 0.0, "type": "electric_scooter", "name": "e94793f46c1d965696dd6a16dd5a6a23", "is_disabled": 0, "rental_uris": {"ios": "https://dc.lft.to/lastmile_qr_scan", "android": "https://dc.lft.to/lastmile_qr_scan"}, "is_reserved": 0}, {"lon": -76.98773066666666, "bike_id": "30f890c30d7a21d5ec9729b06392c613", "lat": 38.86610966666667, "fusion_lon": 0.0, "fusion_lat": 0.0, "type": "electric_bike", "name": "30f890c30d7a21d5ec9729b06392c613", "is_disabled": 0, "rental_uris": {"ios": "https://dc.lft.to/lastmile_qr_scan", "android": "https://dc.lft.to/lastmile_qr_scan"}, "is_reserved": 0}, {"lon": -77.02569366666667, "bike_id": "2bdf73ea422450a4b08fde3b09de08e4", "lat": 38.9133945, "fusion_lon": 0.0, "fusion_lat": 0.0, "type": "electric_scooter", "name": "2bdf73ea422450a4b08fde3b09de08e4", "is_disabled": 0, "rental_uris": {"ios": "https://dc.lft.to/lastmile_qr_scan", "android": "https://dc.lft.to/lastmile_qr_scan"}, "is_reserved": 0}, {"lon": -77.04324666666666, "bike_id": "fe80f94f10c9bcfa368d24f8b40560fc", "lat": 38.92255683333333, "fusion_lon": 0.0, "fusion_lat": 0.0, "type": "electric_scooter", "name": "fe80f94f10c9bcfa368d24f8b40560fc", "is_disabled": 0, "rental_uris": {"ios": "https://dc.lft.to/lastmile_qr_scan", "android": "https://dc.lft.to/lastmile_qr_scan"}, "is_reserved": 0}, {"lon": -77.026228, "bike_id": "9e4b115e351525450939bc6a5174ab7c", "lat": 38.933506333333334, "fusion_lon": 0.0, "fusion_lat": 0.0, "type": "electric_scooter", "name": "9e4b115e351525450939bc6a5174ab7c", "is_disabled": 0, "rental_uris": {"ios": "https://dc.lft.to/lastmile_qr_scan", "android": "https://dc.lft.to/lastmile_qr_scan"}, "is_reserved": 0}, {"lon": -77.04167433333333, "bike_id": "bbc404b1ade190bd8a7c66836d053f84", "lat": 38.919888, "fusion_lon": 0.0, "fusion_lat": 0.0, "type": "electric_scooter", "name": "bbc404b1ade190bd8a7c66836d053f84", "is_disabled": 0, "rental_uris": {"ios": "https://dc.lft.to/lastmile_qr_scan", "android": "https://dc.lft.to/lastmile_qr_scan"}, "is_reserved": 0}, {"lon": -77.025345, "bike_id": "bc345f4624b67f0d258a1e48758f33bb", "lat": 38.94099833333333, "fusion_lon": 0.0, "fusion_lat": 0.0, "type": "electric_scooter", "name": "bc345f4624b67f0d258a1e48758f33bb", "is_disabled": 0, "rental_uris": {"ios": "https://dc.lft.to/lastmile_qr_scan", "android": "https://dc.lft.to/lastmile_qr_scan"}, "is_reserved": 0}, {"lon": -77.02067216666667, "bike_id": "354023da9ec555efef9628f5496091f3", "lat": 38.926973, "fusion_lon": 0.0, "fusion_lat": 0.0, "type": "electric_scooter", "name": "354023da9ec555efef9628f5496091f3", "is_disabled": 0, "rental_uris": {"ios": "https://dc.lft.to/lastmile_qr_scan", "android": "https://dc.lft.to/lastmile_qr_scan"}, "is_reserved": 0}, {"lon": -77.03663633333333, "bike_id": "c4992bed28e8cbe29f2550996e991aaf", "lat": 38.9078855, "fusion_lon": 0.0, "fusion_lat": 0.0, "type": "electric_scooter", "name": "c4992bed28e8cbe29f2550996e991aaf", "is_disabled": 0, "rental_uris": {"ios": "https://dc.lft.to/lastmile_qr_scan", "android": "https://dc.lft.to/lastmile_qr_scan"}, "is_reserved": 0}, {"lon": -77.04155016666667, "bike_id": "cde615ebe337471de16227a836cfd85d", "lat": 38.91804416666667, "fusion_lon": 0.0, "fusion_lat": 0.0, "type": "electric_scooter", "name": "cde615ebe337471de16227a836cfd85d", "is_disabled": 0, "rental_uris": {"ios": "https://dc.lft.to/lastmile_qr_scan", "android": "https://dc.lft.to/lastmile_qr_scan"}, "is_reserved": 0}, {"lon": -76.98833083333334, "bike_id": "26494cdf96257e059a132120fdc7ab46", "lat": 38.90125916666667, "fusion_lon": 0.0, "fusion_lat": 0.0, "type": "electric_scooter", "name": "26494cdf96257e059a132120fdc7ab46", "is_disabled": 0, "rental_uris": {"ios": "https://dc.lft.to/lastmile_qr_scan", "android": "https://dc.lft.to/lastmile_qr_scan"}, "is_reserved": 0}, {"lon": -77.0949565, "bike_id": "ee05b202fcae2c8894936fbb2c6e2a63", "lat": 38.80763266666666, "fusion_lon": 0.0, "fusion_lat": 0.0, "type": "electric_bike", "name": "ee05b202fcae2c8894936fbb2c6e2a63", "is_disabled": 0, "rental_uris": {"ios": "https://dc.lft.to/lastmile_qr_scan", "android": "https://dc.lft.to/lastmile_qr_scan"}, "is_reserved": 0}, {"lon": -77.01751333333333, "bike_id": "d2ac5aac171e178f5ac37ee145f09ffb", "lat": 38.902566666666665, "fusion_lon": 0.0, "fusion_lat": 0.0, "type": "electric_scooter", "name": "d2ac5aac171e178f5ac37ee145f09ffb", "is_disabled": 0, "rental_uris": {"ios": "https://dc.lft.to/lastmile_qr_scan", "android": "https://dc.lft.to/lastmile_qr_scan"}, "is_reserved": 0}, {"lon": -77.04497316666667, "bike_id": "ed3189f60916764e4a1c2d1345852701", "lat": 38.90368333333333, "fusion_lon": 0.0, "fusion_lat": 0.0, "type": "electric_scooter", "name": "ed3189f60916764e4a1c2d1345852701", "is_disabled": 0, "rental_uris": {"ios": "https://dc.lft.to/lastmile_qr_scan", "android": "https://dc.lft.to/lastmile_qr_scan"}, "is_reserved": 0}, {"lon": -77.03659433333333, "bike_id": "1eba153c04041d9bbc3e4a3916ad4df3", "lat": 38.91713283333333, "fusion_lon": 0.0, "fusion_lat": 0.0, "type": "electric_scooter", "name": "1eba153c04041d9bbc3e4a3916ad4df3", "is_disabled": 0, "rental_uris": {"ios": "https://dc.lft.to/lastmile_qr_scan", "android": "https://dc.lft.to/lastmile_qr_scan"}, "is_reserved": 0}, {"lon": -77.00603, "bike_id": "5760766bf1bfb3db6a001b96f8b97c4a", "lat": 38.87297133333333, "fusion_lon": 0.0, "fusion_lat": 0.0, "type": "electric_scooter", "name": "5760766bf1bfb3db6a001b96f8b97c4a", "is_disabled": 0, "rental_uris": {"ios": "https://dc.lft.to/lastmile_qr_scan", "android": "https://dc.lft.to/lastmile_qr_scan"}, "is_reserved": 0}, {"lon": -77.0385975, "bike_id": "7c48833b17b8707e3f5b49f7e649ec0e", "lat": 38.917172666666666, "fusion_lon": 0.0, "fusion_lat": 0.0, "type": "electric_scooter", "name": "7c48833b17b8707e3f5b49f7e649ec0e", "is_disabled": 0, "rental_uris": {"ios": "https://dc.lft.to/lastmile_qr_scan", "android": "https://dc.lft.to/lastmile_qr_scan"}, "is_reserved": 0}, {"lon": -77.0362515, "bike_id": "2e4e5078f6b35294feab3b1825a3b548", "lat": 38.92464916666667, "fusion_lon": 0.0, "fusion_lat": 0.0, "type": "electric_scooter", "name": "2e4e5078f6b35294feab3b1825a3b548", "is_disabled": 0, "rental_uris": {"ios": "https://dc.lft.to/lastmile_qr_scan", "android": "https://dc.lft.to/lastmile_qr_scan"}, "is_reserved": 0}, {"lon": -77.02449066666667, "bike_id": "1aab7940ef05c880ff309cb2a886e985", "lat": 38.938291, "fusion_lon": 0.0, "fusion_lat": 0.0, "type": "electric_scooter", "name": "1aab7940ef05c880ff309cb2a886e985", "is_disabled": 0, "rental_uris": {"ios": "https://dc.lft.to/lastmile_qr_scan", "android": "https://dc.lft.to/lastmile_qr_scan"}, "is_reserved": 0}, {"lon": -77.04874866666667, "bike_id": "342050f1af755788cc909a4e686770c0", "lat": 38.892334, "fusion_lon": 0.0, "fusion_lat": 0.0, "type": "electric_scooter", "name": "342050f1af755788cc909a4e686770c0", "is_disabled": 0, "rental_uris": {"ios": "https://dc.lft.to/lastmile_qr_scan", "android": "https://dc.lft.to/lastmile_qr_scan"}, "is_reserved": 0}, {"lon": -77.003441, "bike_id": "6907eddc3f7aac66e308708ef516515d", "lat": 38.9162515, "fusion_lon": 0.0, "fusion_lat": 0.0, "type": "electric_scooter", "name": "6907eddc3f7aac66e308708ef516515d", "is_disabled": 0, "rental_uris": {"ios": "https://dc.lft.to/lastmile_qr_scan", "android": "https://dc.lft.to/lastmile_qr_scan"}, "is_reserved": 0}, {"lon": -77.02432233333333, "bike_id": "2163766c50b26fdd6bd8417b115147e8", "lat": 38.923536166666665, "fusion_lon": 0.0, "fusion_lat": 0.0, "type": "electric_scooter", "name": "2163766c50b26fdd6bd8417b115147e8", "is_disabled": 0, "rental_uris": {"ios": "https://dc.lft.to/lastmile_qr_scan", "android": "https://dc.lft.to/lastmile_qr_scan"}, "is_reserved": 0}, {"lon": -77.05062766666667, "bike_id": "ada97619e0c04055101c3e745d78c5a4", "lat": 38.92585066666667, "fusion_lon": 0.0, "fusion_lat": 0.0, "type": "electric_scooter", "name": "ada97619e0c04055101c3e745d78c5a4", "is_disabled": 0, "rental_uris": {"ios": "https://dc.lft.to/lastmile_qr_scan", "android": "https://dc.lft.to/lastmile_qr_scan"}, "is_reserved": 0}, {"lon": -76.99173383333333, "bike_id": "80f8ed8e710210777bdf5687cc24099a", "lat": 38.889867, "fusion_lon": 0.0, "fusion_lat": 0.0, "type": "electric_scooter", "name": "80f8ed8e710210777bdf5687cc24099a", "is_disabled": 0, "rental_uris": {"ios": "https://dc.lft.to/lastmile_qr_scan", "android": "https://dc.lft.to/lastmile_qr_scan"}, "is_reserved": 0}, {"lon": -77.03202316666666, "bike_id": "a50ae33aea6a2e028eed22a122f20d09", "lat": 38.9196835, "fusion_lon": 0.0, "fusion_lat": 0.0, "type": "electric_scooter", "name": "a50ae33aea6a2e028eed22a122f20d09", "is_disabled": 0, "rental_uris": {"ios": "https://dc.lft.to/lastmile_qr_scan", "android": "https://dc.lft.to/lastmile_qr_scan"}, "is_reserved": 0}, {"lon": -76.98456933333334, "bike_id": "511e1a9813934152488dbe27753e53f3", "lat": 38.9055425, "fusion_lon": 0.0, "fusion_lat": 0.0, "type": "electric_scooter", "name": "511e1a9813934152488dbe27753e53f3", "is_disabled": 0, "rental_uris": {"ios": "https://dc.lft.to/lastmile_qr_scan", "android": "https://dc.lft.to/lastmile_qr_scan"}, "is_reserved": 0}, {"lon": -77.0363825, "bike_id": "b7b7ddd870dade4f25c6f92ff4691e25", "lat": 38.91763383333333, "fusion_lon": 0.0, "fusion_lat": 0.0, "type": "electric_scooter", "name": "b7b7ddd870dade4f25c6f92ff4691e25", "is_disabled": 0, "rental_uris": {"ios": "https://dc.lft.to/lastmile_qr_scan", "android": "https://dc.lft.to/lastmile_qr_scan"}, "is_reserved": 0}, {"lon": -77.03255683333333, "bike_id": "e2cf1f1870346c6d4fc838583cc025e9", "lat": 38.9286915, "fusion_lon": 0.0, "fusion_lat": 0.0, "type": "electric_scooter", "name": "e2cf1f1870346c6d4fc838583cc025e9", "is_disabled": 0, "rental_uris": {"ios": "https://dc.lft.to/lastmile_qr_scan", "android": "https://dc.lft.to/lastmile_qr_scan"}, "is_reserved": 0}, {"lon": -77.0155045, "bike_id": "398bb44b534624f470b168d648aa35c6", "lat": 38.89173666666667, "fusion_lon": 0.0, "fusion_lat": 0.0, "type": "electric_scooter", "name": "398bb44b534624f470b168d648aa35c6", "is_disabled": 0, "rental_uris": {"ios": "https://dc.lft.to/lastmile_qr_scan", "android": "https://dc.lft.to/lastmile_qr_scan"}, "is_reserved": 0}, {"lon": -77.04581966666667, "bike_id": "325e147fcc526bc7fc01a4dcf2dcc906", "lat": 38.91335933333333, "fusion_lon": 0.0, "fusion_lat": 0.0, "type": "electric_scooter", "name": "325e147fcc526bc7fc01a4dcf2dcc906", "is_disabled": 0, "rental_uris": {"ios": "https://dc.lft.to/lastmile_qr_scan", "android": "https://dc.lft.to/lastmile_qr_scan"}, "is_reserved": 0}, {"lon": -76.994855, "bike_id": "4900d7b8b7332d4d2b8ceb347ef6dcb1", "lat": 38.89739616666667, "fusion_lon": 0.0, "fusion_lat": 0.0, "type": "electric_scooter", "name": "4900d7b8b7332d4d2b8ceb347ef6dcb1", "is_disabled": 0, "rental_uris": {"ios": "https://dc.lft.to/lastmile_qr_scan", "android": "https://dc.lft.to/lastmile_qr_scan"}, "is_reserved": 0}, {"lon": -77.029175, "bike_id": "6cab48af8bcfa03b99332407f2525b39", "lat": 38.940347833333334, "fusion_lon": 0.0, "fusion_lat": 0.0, "type": "electric_scooter", "name": "6cab48af8bcfa03b99332407f2525b39", "is_disabled": 0, "rental_uris": {"ios": "https://dc.lft.to/lastmile_qr_scan", "android": "https://dc.lft.to/lastmile_qr_scan"}, "is_reserved": 0}, {"lon": -77.00202883333333, "bike_id": "97fc11e56dce5fc8cac943a27d07a073", "lat": 38.8954645, "fusion_lon": 0.0, "fusion_lat": 0.0, "type": "electric_scooter", "name": "97fc11e56dce5fc8cac943a27d07a073", "is_disabled": 0, "rental_uris": {"ios": "https://dc.lft.to/lastmile_qr_scan", "android": "https://dc.lft.to/lastmile_qr_scan"}, "is_reserved": 0}, {"lon": -77.02045033333333, "bike_id": "70ac49fe54153d1a618685c43ffcea87", "lat": 38.9155495, "fusion_lon": 0.0, "fusion_lat": 0.0, "type": "electric_scooter", "name": "70ac49fe54153d1a618685c43ffcea87", "is_disabled": 0, "rental_uris": {"ios": "https://dc.lft.to/lastmile_qr_scan", "android": "https://dc.lft.to/lastmile_qr_scan"}, "is_reserved": 0}, {"lon": -77.02040916666667, "bike_id": "ab6018d23125669dabb9cda7007f0ae6", "lat": 38.90865816666667, "fusion_lon": 0.0, "fusion_lat": 0.0, "type": "electric_scooter", "name": "ab6018d23125669dabb9cda7007f0ae6", "is_disabled": 0, "rental_uris": {"ios": "https://dc.lft.to/lastmile_qr_scan", "android": "https://dc.lft.to/lastmile_qr_scan"}, "is_reserved": 0}, {"lon": -77.00536683333333, "bike_id": "6b35a48cbace914919667b4b1cbda0ef", "lat": 38.929741166666666, "fusion_lon": 0.0, "fusion_lat": 0.0, "type": "electric_scooter", "name": "6b35a48cbace914919667b4b1cbda0ef", "is_disabled": 0, "rental_uris": {"ios": "https://dc.lft.to/lastmile_qr_scan", "android": "https://dc.lft.to/lastmile_qr_scan"}, "is_reserved": 0}, {"lon": -77.01480116666667, "bike_id": "faf2616828967c725d76268013decdf2", "lat": 38.94067583333333, "fusion_lon": 0.0, "fusion_lat": 0.0, "type": "electric_bike", "name": "faf2616828967c725d76268013decdf2", "is_disabled": 0, "rental_uris": {"ios": "https://dc.lft.to/lastmile_qr_scan", "android": "https://dc.lft.to/lastmile_qr_scan"}, "is_reserved": 0}, {"lon": -77.0541355, "bike_id": "bd8be40dee5eb8b83c74bd04c6875442", "lat": 38.9504165, "fusion_lon": 0.0, "fusion_lat": 0.0, "type": "electric_scooter", "name": "bd8be40dee5eb8b83c74bd04c6875442", "is_disabled": 0, "rental_uris": {"ios": "https://dc.lft.to/lastmile_qr_scan", "android": "https://dc.lft.to/lastmile_qr_scan"}, "is_reserved": 0}, {"lon": -77.022644, "bike_id": "735dfdce1f159fa56595aa3b622260dd", "lat": 38.93755783333334, "fusion_lon": 0.0, "fusion_lat": 0.0, "type": "electric_scooter", "name": "735dfdce1f159fa56595aa3b622260dd", "is_disabled": 0, "rental_uris": {"ios": "https://dc.lft.to/lastmile_qr_scan", "android": "https://dc.lft.to/lastmile_qr_scan"}, "is_reserved": 0}, {"lon": -77.03274716666667, "bike_id": "a49da321409782ef6f6ca92996122b96", "lat": 38.91565416666667, "fusion_lon": 0.0, "fusion_lat": 0.0, "type": "electric_scooter", "name": "a49da321409782ef6f6ca92996122b96", "is_disabled": 0, "rental_uris": {"ios": "https://dc.lft.to/lastmile_qr_scan", "android": "https://dc.lft.to/lastmile_qr_scan"}, "is_reserved": 0}, {"lon": -77.0266445, "bike_id": "7b3a67944de6a162cedf0c412380e52b", "lat": 38.921793666666666, "fusion_lon": 0.0, "fusion_lat": 0.0, "type": "electric_scooter", "name": "7b3a67944de6a162cedf0c412380e52b", "is_disabled": 0, "rental_uris": {"ios": "https://dc.lft.to/lastmile_qr_scan", "android": "https://dc.lft.to/lastmile_qr_scan"}, "is_reserved": 0}, {"lon": -77.0034425, "bike_id": "bb7024d03a2763aaa6ea87a5bcdfadbd", "lat": 38.89925516666667, "fusion_lon": 0.0, "fusion_lat": 0.0, "type": "electric_scooter", "name": "bb7024d03a2763aaa6ea87a5bcdfadbd", "is_disabled": 0, "rental_uris": {"ios": "https://dc.lft.to/lastmile_qr_scan", "android": "https://dc.lft.to/lastmile_qr_scan"}, "is_reserved": 0}, {"lon": -77.04349583333334, "bike_id": "2a97915107023d9ce0f7e626223584ed", "lat": 38.921681666666665, "fusion_lon": 0.0, "fusion_lat": 0.0, "type": "electric_scooter", "name": "2a97915107023d9ce0f7e626223584ed", "is_disabled": 0, "rental_uris": {"ios": "https://dc.lft.to/lastmile_qr_scan", "android": "https://dc.lft.to/lastmile_qr_scan"}, "is_reserved": 0}, {"lon": -77.02709333333334, "bike_id": "c5f7b03826fd0db78431943f994697c6", "lat": 38.909527833333335, "fusion_lon": 0.0, "fusion_lat": 0.0, "type": "electric_scooter", "name": "c5f7b03826fd0db78431943f994697c6", "is_disabled": 0, "rental_uris": {"ios": "https://dc.lft.to/lastmile_qr_scan", "android": "https://dc.lft.to/lastmile_qr_scan"}, "is_reserved": 0}, {"lon": -77.05319483333334, "bike_id": "49aa580a3f608c7391183f2d6e5b5339", "lat": 38.92635, "fusion_lon": 0.0, "fusion_lat": 0.0, "type": "electric_scooter", "name": "49aa580a3f608c7391183f2d6e5b5339", "is_disabled": 0, "rental_uris": {"ios": "https://dc.lft.to/lastmile_qr_scan", "android": "https://dc.lft.to/lastmile_qr_scan"}, "is_reserved": 0}, {"lon": -76.9870275, "bike_id": "0e144ff02b4214bff1e83a14d46b94ff", "lat": 38.86536233333333, "fusion_lon": 0.0, "fusion_lat": 0.0, "type": "electric_scooter", "name": "0e144ff02b4214bff1e83a14d46b94ff", "is_disabled": 0, "rental_uris": {"ios": "https://dc.lft.to/lastmile_qr_scan", "android": "https://dc.lft.to/lastmile_qr_scan"}, "is_reserved": 0}, {"lon": -76.9872105, "bike_id": "a11dcc9e061990516d0a4f6e7437a852", "lat": 38.86708316666667, "fusion_lon": 0.0, "fusion_lat": 0.0, "type": "electric_scooter", "name": "a11dcc9e061990516d0a4f6e7437a852", "is_disabled": 0, "rental_uris": {"ios": "https://dc.lft.to/lastmile_qr_scan", "android": "https://dc.lft.to/lastmile_qr_scan"}, "is_reserved": 0}, {"lon": -77.02087233333333, "bike_id": "968fbce482ac200d91da17db6e573d80", "lat": 38.957455833333334, "fusion_lon": 0.0, "fusion_lat": 0.0, "type": "electric_scooter", "name": "968fbce482ac200d91da17db6e573d80", "is_disabled": 0, "rental_uris": {"ios": "https://dc.lft.to/lastmile_qr_scan", "android": "https://dc.lft.to/lastmile_qr_scan"}, "is_reserved": 0}, {"lon": -77.03932033333334, "bike_id": "af545d45c7e326da9b01431ab4894825", "lat": 38.926143, "fusion_lon": 0.0, "fusion_lat": 0.0, "type": "electric_scooter", "name": "af545d45c7e326da9b01431ab4894825", "is_disabled": 0, "rental_uris": {"ios": "https://dc.lft.to/lastmile_qr_scan", "android": "https://dc.lft.to/lastmile_qr_scan"}, "is_reserved": 0}, {"lon": -77.023234, "bike_id": "09c11706850930275ea1ef0beda18e56", "lat": 38.92226266666667, "fusion_lon": 0.0, "fusion_lat": 0.0, "type": "electric_scooter", "name": "09c11706850930275ea1ef0beda18e56", "is_disabled": 0, "rental_uris": {"ios": "https://dc.lft.to/lastmile_qr_scan", "android": "https://dc.lft.to/lastmile_qr_scan"}, "is_reserved": 0}, {"lon": -77.033164, "bike_id": "ecf7c3e76ed041c89e1575f2f750abbb", "lat": 38.903802, "fusion_lon": 0.0, "fusion_lat": 0.0, "type": "electric_scooter", "name": "ecf7c3e76ed041c89e1575f2f750abbb", "is_disabled": 0, "rental_uris": {"ios": "https://dc.lft.to/lastmile_qr_scan", "android": "https://dc.lft.to/lastmile_qr_scan"}, "is_reserved": 0}, {"lon": -77.02483433333333, "bike_id": "a36c08a0044a4340aaefb61a426173df", "lat": 38.88010166666667, "fusion_lon": 0.0, "fusion_lat": 0.0, "type": "electric_scooter", "name": "a36c08a0044a4340aaefb61a426173df", "is_disabled": 0, "rental_uris": {"ios": "https://dc.lft.to/lastmile_qr_scan", "android": "https://dc.lft.to/lastmile_qr_scan"}, "is_reserved": 0}, {"lon": -77.0312385, "bike_id": "ea4cdcbae398cf6189f11bbf168961ff", "lat": 38.917082, "fusion_lon": 0.0, "fusion_lat": 0.0, "type": "electric_scooter", "name": "ea4cdcbae398cf6189f11bbf168961ff", "is_disabled": 0, "rental_uris": {"ios": "https://dc.lft.to/lastmile_qr_scan", "android": "https://dc.lft.to/lastmile_qr_scan"}, "is_reserved": 0}, {"lon": -77.02569183333334, "bike_id": "94bbe61d6764140dfa90d891cbe8a0e7", "lat": 38.89742433333333, "fusion_lon": 0.0, "fusion_lat": 0.0, "type": "electric_scooter", "name": "94bbe61d6764140dfa90d891cbe8a0e7", "is_disabled": 0, "rental_uris": {"ios": "https://dc.lft.to/lastmile_qr_scan", "android": "https://dc.lft.to/lastmile_qr_scan"}, "is_reserved": 0}, {"lon": -77.055749, "bike_id": "ce0a45101622bf47d73a529b3b3c3676", "lat": 38.915978, "fusion_lon": 0.0, "fusion_lat": 0.0, "type": "electric_scooter", "name": "ce0a45101622bf47d73a529b3b3c3676", "is_disabled": 0, "rental_uris": {"ios": "https://dc.lft.to/lastmile_qr_scan", "android": "https://dc.lft.to/lastmile_qr_scan"}, "is_reserved": 0}, {"lon": -76.990031, "bike_id": "b36ebba2c530a893b5df8cdf48777043", "lat": 38.8650325, "fusion_lon": 0.0, "fusion_lat": 0.0, "type": "electric_scooter", "name": "b36ebba2c530a893b5df8cdf48777043", "is_disabled": 0, "rental_uris": {"ios": "https://dc.lft.to/lastmile_qr_scan", "android": "https://dc.lft.to/lastmile_qr_scan"}, "is_reserved": 0}, {"lon": -77.03339966666667, "bike_id": "176389ae6e5e6e22acc982e74e8d483b", "lat": 38.93633583333333, "fusion_lon": 0.0, "fusion_lat": 0.0, "type": "electric_scooter", "name": "176389ae6e5e6e22acc982e74e8d483b", "is_disabled": 0, "rental_uris": {"ios": "https://dc.lft.to/lastmile_qr_scan", "android": "https://dc.lft.to/lastmile_qr_scan"}, "is_reserved": 0}, {"lon": -77.04418433333333, "bike_id": "078730dccc8a84899835cadfe881176c", "lat": 38.911297833333336, "fusion_lon": 0.0, "fusion_lat": 0.0, "type": "electric_scooter", "name": "078730dccc8a84899835cadfe881176c", "is_disabled": 0, "rental_uris": {"ios": "https://dc.lft.to/lastmile_qr_scan", "android": "https://dc.lft.to/lastmile_qr_scan"}, "is_reserved": 0}, {"lon": -77.03410583333333, "bike_id": "edd22fd92539beb28c6278e3e2e9fd7f", "lat": 38.92319033333333, "fusion_lon": 0.0, "fusion_lat": 0.0, "type": "electric_scooter", "name": "edd22fd92539beb28c6278e3e2e9fd7f", "is_disabled": 0, "rental_uris": {"ios": "https://dc.lft.to/lastmile_qr_scan", "android": "https://dc.lft.to/lastmile_qr_scan"}, "is_reserved": 0}, {"lon": -77.02082933333334, "bike_id": "b9c96db842a3fe8aebe8aeed8568e9b8", "lat": 38.90401766666667, "fusion_lon": 0.0, "fusion_lat": 0.0, "type": "electric_scooter", "name": "b9c96db842a3fe8aebe8aeed8568e9b8", "is_disabled": 0, "rental_uris": {"ios": "https://dc.lft.to/lastmile_qr_scan", "android": "https://dc.lft.to/lastmile_qr_scan"}, "is_reserved": 0}, {"lon": -77.0211595, "bike_id": "d1893efc046285505dbf66eb82d93a0e", "lat": 38.909709666666664, "fusion_lon": 0.0, "fusion_lat": 0.0, "type": "electric_scooter", "name": "d1893efc046285505dbf66eb82d93a0e", "is_disabled": 0, "rental_uris": {"ios": "https://dc.lft.to/lastmile_qr_scan", "android": "https://dc.lft.to/lastmile_qr_scan"}, "is_reserved": 0}, {"lon": -77.05856466666667, "bike_id": "711b2a8407d8293aa6307d63d1581d80", "lat": 38.93608183333333, "fusion_lon": 0.0, "fusion_lat": 0.0, "type": "electric_scooter", "name": "711b2a8407d8293aa6307d63d1581d80", "is_disabled": 0, "rental_uris": {"ios": "https://dc.lft.to/lastmile_qr_scan", "android": "https://dc.lft.to/lastmile_qr_scan"}, "is_reserved": 0}, {"lon": -77.02468033333334, "bike_id": "2f0eac91367fe2d7aca33eff0e44b8ac", "lat": 38.90101133333334, "fusion_lon": 0.0, "fusion_lat": 0.0, "type": "electric_scooter", "name": "2f0eac91367fe2d7aca33eff0e44b8ac", "is_disabled": 0, "rental_uris": {"ios": "https://dc.lft.to/lastmile_qr_scan", "android": "https://dc.lft.to/lastmile_qr_scan"}, "is_reserved": 0}, {"lon": -77.0525975, "bike_id": "db224f9d270d35f8977ec7b5cbf2101e", "lat": 38.92780716666667, "fusion_lon": 0.0, "fusion_lat": 0.0, "type": "electric_scooter", "name": "db224f9d270d35f8977ec7b5cbf2101e", "is_disabled": 0, "rental_uris": {"ios": "https://dc.lft.to/lastmile_qr_scan", "android": "https://dc.lft.to/lastmile_qr_scan"}, "is_reserved": 0}, {"lon": -77.0434815, "bike_id": "1ccfe380dcc8976f816b9f6bfbd1d853", "lat": 38.902587833333335, "fusion_lon": 0.0, "fusion_lat": 0.0, "type": "electric_scooter", "name": "1ccfe380dcc8976f816b9f6bfbd1d853", "is_disabled": 0, "rental_uris": {"ios": "https://dc.lft.to/lastmile_qr_scan", "android": "https://dc.lft.to/lastmile_qr_scan"}, "is_reserved": 0}, {"lon": -77.03837183333333, "bike_id": "7419f5ad53a9b058501ae333d016ec90", "lat": 38.9066885, "fusion_lon": 0.0, "fusion_lat": 0.0, "type": "electric_scooter", "name": "7419f5ad53a9b058501ae333d016ec90", "is_disabled": 0, "rental_uris": {"ios": "https://dc.lft.to/lastmile_qr_scan", "android": "https://dc.lft.to/lastmile_qr_scan"}, "is_reserved": 0}, {"lon": -77.0275785, "bike_id": "4552b2717b956320d1f0e2064a3ad047", "lat": 38.944062833333334, "fusion_lon": 0.0, "fusion_lat": 0.0, "type": "electric_scooter", "name": "4552b2717b956320d1f0e2064a3ad047", "is_disabled": 0, "rental_uris": {"ios": "https://dc.lft.to/lastmile_qr_scan", "android": "https://dc.lft.to/lastmile_qr_scan"}, "is_reserved": 0}, {"lon": -77.0307405, "bike_id": "c816cea9f92ce6ae1e0cdb6e0ca48281", "lat": 38.902697, "fusion_lon": 0.0, "fusion_lat": 0.0, "type": "electric_scooter", "name": "c816cea9f92ce6ae1e0cdb6e0ca48281", "is_disabled": 0, "rental_uris": {"ios": "https://dc.lft.to/lastmile_qr_scan", "android": "https://dc.lft.to/lastmile_qr_scan"}, "is_reserved": 0}, {"lon": -77.04539583333333, "bike_id": "84f00efda4492ef0b3c5138a52c30a87", "lat": 38.915968166666666, "fusion_lon": 0.0, "fusion_lat": 0.0, "type": "electric_scooter", "name": "84f00efda4492ef0b3c5138a52c30a87", "is_disabled": 0, "rental_uris": {"ios": "https://dc.lft.to/lastmile_qr_scan", "android": "https://dc.lft.to/lastmile_qr_scan"}, "is_reserved": 0}, {"lon": -76.98835233333334, "bike_id": "9549f4ce9d28eac22532e452c9b9d1cd", "lat": 38.9009705, "fusion_lon": 0.0, "fusion_lat": 0.0, "type": "electric_scooter", "name": "9549f4ce9d28eac22532e452c9b9d1cd", "is_disabled": 0, "rental_uris": {"ios": "https://dc.lft.to/lastmile_qr_scan", "android": "https://dc.lft.to/lastmile_qr_scan"}, "is_reserved": 0},