{"data": {"bikes": [{"lat": 38.948921666666664, "is_disabled": 0, "type": "electric_scooter", "lon": -77.03048133333333, "bike_id": "5009cc629677fcff43ca13cab15dcd4d", "fusion_lat": 0.0, "name": "5009cc629677fcff43ca13cab15dcd4d", "is_reserved": 0, "rental_uris": {"android": "https://dc.lft.to/lastmile_qr_scan", "ios": "https://dc.lft.to/lastmile_qr_scan"}, "fusion_lon": 0.0}, {"lat": 38.933195833333336, "is_disabled": 0, "type": "electric_scooter", "lon": -77.04527333333333, "bike_id": "7f5399b724e0d7ea57a3aa6772771cbb", "fusion_lat": 0.0, "name": "7f5399b724e0d7ea57a3aa6772771cbb", "is_reserved": 0, "rental_uris": {"android": "https://dc.lft.to/lastmile_qr_scan", "ios": "https://dc.lft.to/lastmile_qr_scan"}, "fusion_lon": 0.0}, {"lat": 38.892249166666666, "is_disabled": 0, "type": "electric_scooter", "lon": -77.02099616666666, "bike_id": "77416f9adef87999c42b8479d3f23fd5", "fusion_lat": 0.0, "name": "77416f9adef87999c42b8479d3f23fd5", "is_reserved": 0, "rental_uris": {"android": "https://dc.lft.to/lastmile_qr_scan", "ios": "https://dc.lft.to/lastmile_qr_scan"}, "fusion_lon": 0.0}, {"lat": 38.922450833333336, "is_disabled": 0, "type": "electric_scooter", "lon": -77.04578933333333, "bike_id": "fe9b312ea8b9866f0d899476897eff2f", "fusion_lat": 0.0, "name": "fe9b312ea8b9866f0d899476897eff2f", "is_reserved": 0, "rental_uris": {"android": "https://dc.lft.to/lastmile_qr_scan", "ios": "https://dc.lft.to/lastmile_qr_scan"}, "fusion_lon": 0.0}, {"lat": 38.90334716666667, "is_disabled": 0, "type": "electric_scooter", "lon": -77.0375465, "bike_id": "e5811ee98344b83fba4bdec9747b4242", "fusion_lat": 0.0, "name": "e5811ee98344b83fba4bdec9747b4242", "is_reserved": 0, "rental_uris": {"android": "https://dc.lft.to/lastmile_qr_scan", "ios": "https://dc.lft.to/lastmile_qr_scan"}, "fusion_lon": 0.0}, {"lat": 38.972300833333335, "is_disabled": 0, "type": "electric_bike", "lon": -76.993448, "bike_id": "67d8e7aee19baba6c3bcce7480313016", "fusion_lat": 0.0, "name": "67d8e7aee19baba6c3bcce7480313016", "is_reserved": 0, "rental_uris": {"android": "https://dc.lft.to/lastmile_qr_scan", "ios": "https://dc.lft.to/lastmile_qr_scan"}, "fusion_lon": 0.0}, {"lat": 38.9036945, "is_disabled": 0, "type": "electric_scooter", "lon": -77.01652416666667, "bike_id": "86730f3c589ad53c21c1c3d4af409168", "fusion_lat": 0.0, "name": "86730f3c589ad53c21c1c3d4af409168", "is_reserved": 0, "rental_uris": {"android": "https://dc.lft.to/lastmile_qr_scan", "ios": "https://dc.lft.to/lastmile_qr_scan"}, "fusion_lon": 0.0}, {"lat": 38.91052166666667, "is_disabled": 0, "type": "electric_scooter", "lon": -77.015266, "bike_id": "440ad2f896f22284a413c257d623a9a6", "fusion_lat": 0.0, "name": "440ad2f896f22284a413c257d623a9a6", "is_reserved": 0, "rental_uris": {"android": "https://dc.lft.to/lastmile_qr_scan", "ios": "https://dc.lft.to/lastmile_qr_scan"}, "fusion_lon": 0.0}, {"lat": 38.86749533333333, "is_disabled": 0, "type": "electric_scooter", "lon": -76.9766195, "bike_id": "34ceba9d05fbd65e2d6c246929b7a395", "fusion_lat": 0.0, "name": "34ceba9d05fbd65e2d6c246929b7a395", "is_reserved": 0, "rental_uris": {"android": "https://dc.lft.to/lastmile_qr_scan", "ios": "https://dc.lft.to/lastmile_qr_scan"}, "fusion_lon": 0.0}, {"lat": 38.9390695, "is_disabled": 0, "type": "electric_scooter", "lon": -77.02488833333334, "bike_id": "ba15ab821f7f4275e8a62da962218253", "fusion_lat": 0.0, "name": "ba15ab821f7f4275e8a62da962218253", "is_reserved": 0, "rental_uris": {"android": "https://dc.lft.to/lastmile_qr_scan", "ios": "https://dc.lft.to/lastmile_qr_scan"}, "fusion_lon": 0.0}, {"lat": 38.86253933333333, "is_disabled": 0, "type": "electric_scooter", "lon": -76.98701183333333, "bike_id": "c859ce3a2211ef9a627a510bbe2f56be", "fusion_lat": 0.0, "name": "c859ce3a2211ef9a627a510bbe2f56be", "is_reserved": 0, "rental_uris": {"android": "https://dc.lft.to/lastmile_qr_scan", "ios": "https://dc.lft.to/lastmile_qr_scan"}, "fusion_lon": 0.0}, {"lat": 38.877331, "is_disabled": 0, "type": "electric_bike", "lon": -77.11853883333333, "bike_id": "37b5b13e2f1805f3cd93e6718a666542", "fusion_lat": 0.0, "name": "37b5b13e2f1805f3cd93e6718a666542", "is_reserved": 0, "rental_uris": {"android": "https://dc.lft.to/lastmile_qr_scan", "ios": "https://dc.lft.to/lastmile_qr_scan"}, "fusion_lon": 0.0}, {"lat": 38.90743833333333, "is_disabled": 0, "type": "electric_scooter", "lon": -77.041996, "bike_id": "d943f961aff9315c48fb45325778783e", "fusion_lat": 0.0, "name": "d943f961aff9315c48fb45325778783e", "is_reserved": 0, "rental_uris": {"android": "https://dc.lft.to/lastmile_qr_scan", "ios": "https://dc.lft.to/lastmile_qr_scan"}, "fusion_lon": 0.0}, {"lat": 38.9518625, "is_disabled": 0, "type": "electric_bike", "lon": -76.93548266666667, "bike_id": "4f7e2804ac43ef1ac77a8c041ea42260", "fusion_lat": 0.0, "name": "4f7e2804ac43ef1ac77a8c041ea42260", "is_reserved": 0, "rental_uris": {"android": "https://dc.lft.to/lastmile_qr_scan", "ios": "https://dc.lft.to/lastmile_qr_scan"}, "fusion_lon": 0.0}, {"lat": 38.912163666666665, "is_disabled": 0, "type": "electric_scooter", "lon": -77.07594583333334, "bike_id": "68017864fc816261a02a7f8a1bb3fcdb", "fusion_lat": 0.0, "name": "68017864fc816261a02a7f8a1bb3fcdb", "is_reserved": 0, "rental_uris": {"android": "https://dc.lft.to/lastmile_qr_scan", "ios": "https://dc.lft.to/lastmile_qr_scan"}, "fusion_lon": 0.0}, {"lat": 38.906630166666666, "is_disabled": 0, "type": "electric_scooter", "lon": -77.0153545, "bike_id": "83d619800916a5ead86ca0ff2cc6abac", "fusion_lat": 0.0, "name": "83d619800916a5ead86ca0ff2cc6abac", "is_reserved": 0, "rental_uris": {"android": "https://dc.lft.to/lastmile_qr_scan", "ios": "https://dc.lft.to/lastmile_qr_scan"}, "fusion_lon": 0.0}, {"lat": 38.931198, "is_disabled": 0, "type": "electric_scooter", "lon": -77.03403116666667, "bike_id": "6ec7f2da0aac21d642f6ae0de1d3ae7a", "fusion_lat": 0.0, "name": "6ec7f2da0aac21d642f6ae0de1d3ae7a", "is_reserved": 0, "rental_uris": {"android": "https://dc.lft.to/lastmile_qr_scan", "ios": "https://dc.lft.to/lastmile_qr_scan"}, "fusion_lon": 0.0}, {"lat": 38.9074795, "is_disabled": 0, "type": "electric_scooter", "lon": -77.0419115, "bike_id": "fb882bbe2d0990427f471b99bfb20885", "fusion_lat": 0.0, "name": "fb882bbe2d0990427f471b99bfb20885", "is_reserved": 0, "rental_uris": {"android": "https://dc.lft.to/lastmile_qr_scan", "ios": "https://dc.lft.to/lastmile_qr_scan"}, "fusion_lon": 0.0}, {"lat": 38.9225125, "is_disabled": 0, "type": "electric_scooter", "lon": -77.03106283333334, "bike_id": "938234fe391025a7bc0b261d0d88fbac", "fusion_lat": 0.0, "name": "938234fe391025a7bc0b261d0d88fbac", "is_reserved": 0, "rental_uris": {"android": "https://dc.lft.to/lastmile_qr_scan", "ios": "https://dc.lft.to/lastmile_qr_scan"}, "fusion_lon": 0.0}, {"lat": 38.920769666666665, "is_disabled": 0, "type": "electric_scooter", "lon": -77.01426733333334, "bike_id": "2a4eba6283e17dcc71c397f05b6e0144", "fusion_lat": 0.0, "name": "2a4eba6283e17dcc71c397f05b6e0144", "is_reserved": 0, "rental_uris": {"android": "https://dc.lft.to/lastmile_qr_scan", "ios": "https://dc.lft.to/lastmile_qr_scan"}, "fusion_lon": 0.0}, {"lat": 38.91384816666667, "is_disabled": 0, "type": "electric_scooter", "lon": -77.01897433333333, "bike_id": "feb083eeba01accb7e9601959f587818", "fusion_lat": 0.0, "name": "feb083eeba01accb7e9601959f587818", "is_reserved": 0, "rental_uris": {"android": "https://dc.lft.to/lastmile_qr_scan", "ios": "https://dc.lft.to/lastmile_qr_scan"}, "fusion_lon": 0.0}, {"lat": 38.94042966666667, "is_disabled": 0, "type": "electric_bike", "lon": -77.05160016666666, "bike_id": "cdbea187291305d6b2b09b2ecffc3741", "fusion_lat": 0.0, "name": "cdbea187291305d6b2b09b2ecffc3741", "is_reserved": 0, "rental_uris": {"android": "https://dc.lft.to/lastmile_qr_scan", "ios": "https://dc.lft.to/lastmile_qr_scan"}, "fusion_lon": 0.0}, {"lat": 38.902907, "is_disabled": 0, "type": "electric_scooter", "lon": -77.0634235, "bike_id": "cee2e1fcc962e1736c4278183df77a6d", "fusion_lat": 0.0, "name": "cee2e1fcc962e1736c4278183df77a6d", "is_reserved": 0, "rental_uris": {"android": "https://dc.lft.to/lastmile_qr_scan", "ios": "https://dc.lft.to/lastmile_qr_scan"}, "fusion_lon": 0.0}, {"lat": 38.929628, "is_disabled": 0, "type": "electric_scooter", "lon": -77.03074233333334, "bike_id": "e19732ae281b498ede1e1b23116f8e14", "fusion_lat": 0.0, "name": "e19732ae281b498ede1e1b23116f8e14", "is_reserved": 0, "rental_uris": {"android": "https://dc.lft.to/lastmile_qr_scan", "ios": "https://dc.lft.to/lastmile_qr_scan"}, "fusion_lon": 0.0}, {"lat": 38.90569716666667, "is_disabled": 0, "type": "electric_scooter", "lon": -77.02223166666667, "bike_id": "18feee4431e9cc7c9d1efc17abcec74e", "fusion_lat": 0.0, "name": "18feee4431e9cc7c9d1efc17abcec74e", "is_reserved": 0, "rental_uris": {"android": "https://dc.lft.to/lastmile_qr_scan", "ios": "https://dc.lft.to/lastmile_qr_scan"}, "fusion_lon": 0.0}, {"lat": 38.90258133333333, "is_disabled": 0, "type": "electric_scooter", "lon": -77.032072, "bike_id": "54bd145358e6ffe9d6f149449e84eabf", "fusion_lat": 0.0, "name": "54bd145358e6ffe9d6f149449e84eabf", "is_reserved": 0, "rental_uris": {"android": "https://dc.lft.to/lastmile_qr_scan", "ios": "https://dc.lft.to/lastmile_qr_scan"}, "fusion_lon": 0.0}, {"lat": 38.8904705, "is_disabled": 0, "type": "electric_scooter", "lon": -76.94077066666667, "bike_id": "05054353966635f0fd10a1a6dbe9580b", "fusion_lat": 0.0, "name": "05054353966635f0fd10a1a6dbe9580b", "is_reserved": 0, "rental_uris": {"android": "https://dc.lft.to/lastmile_qr_scan", "ios": "https://dc.lft.to/lastmile_qr_scan"}, "fusion_lon": 0.0}, {"lat": 38.911751333333335, "is_disabled": 0, "type": "electric_scooter", "lon": -77.03856216666667, "bike_id": "29e846c94ae0cd256c2202e771d899ec", "fusion_lat": 0.0, "name": "29e846c94ae0cd256c2202e771d899ec", "is_reserved": 0, "rental_uris": {"android": "https://dc.lft.to/lastmile_qr_scan", "ios": "https://dc.lft.to/lastmile_qr_scan"}, "fusion_lon": 0.0}, {"lat": 38.95894466666667, "is_disabled": 0, "type": "electric_bike", "lon": -76.92491533333333, "bike_id": "52a5573568980eb9300c2d4342ac14cc", "fusion_lat": 0.0, "name": "52a5573568980eb9300c2d4342ac14cc", "is_reserved": 0, "rental_uris": {"android": "https://dc.lft.to/lastmile_qr_scan", "ios": "https://dc.lft.to/lastmile_qr_scan"}, "fusion_lon": 0.0}, {"lat": 38.858498166666664, "is_disabled": 0, "type": "electric_bike", "lon": -77.09757416666666, "bike_id": "d3ff0c3f1dd568e372fedb3c83a4f8b0", "fusion_lat": 0.0, "name": "d3ff0c3f1dd568e372fedb3c83a4f8b0", "is_reserved": 0, "rental_uris": {"android": "https://dc.lft.to/lastmile_qr_scan", "ios": "https://dc.lft.to/lastmile_qr_scan"}, "fusion_lon": 0.0}, {"lat": 38.917958166666665, "is_disabled": 0, "type": "electric_scooter", "lon": -77.044324, "bike_id": "13ddbcf752f07c8da1bc6ba7328252b8", "fusion_lat": 0.0, "name": "13ddbcf752f07c8da1bc6ba7328252b8", "is_reserved": 0, "rental_uris": {"android": "https://dc.lft.to/lastmile_qr_scan", "ios": "https://dc.lft.to/lastmile_qr_scan"}, "fusion_lon": 0.0}, {"lat": 38.921132166666666, "is_disabled": 0, "type": "electric_bike", "lon": -76.98573566666667, "bike_id": "e1042660f64a357350ea5993b48262de", "fusion_lat": 0.0, "name": "e1042660f64a357350ea5993b48262de", "is_reserved": 0, "rental_uris": {"android": "https://dc.lft.to/lastmile_qr_scan", "ios": "https://dc.lft.to/lastmile_qr_scan"}, "fusion_lon": 0.0}, {"lat": 38.930986833333336, "is_disabled": 0, "type": "electric_scooter", "lon": -77.02499516666667, "bike_id": "e61ea0db728a9d6c41523ff1d5505e3a", "fusion_lat": 0.0, "name": "e61ea0db728a9d6c41523ff1d5505e3a", "is_reserved": 0, "rental_uris": {"android": "https://dc.lft.to/lastmile_qr_scan", "ios": "https://dc.lft.to/lastmile_qr_scan"}, "fusion_lon": 0.0}, {"lat": 38.898430833333336, "is_disabled": 0, "type": "electric_scooter", "lon": -76.981809, "bike_id": "2983a712f36770a03cc03203bba8b846", "fusion_lat": 0.0, "name": "2983a712f36770a03cc03203bba8b846", "is_reserved": 0, "rental_uris": {"android": "https://dc.lft.to/lastmile_qr_scan", "ios": "https://dc.lft.to/lastmile_qr_scan"}, "fusion_lon": 0.0}, {"lat": 38.92604983333333, "is_disabled": 0, "type": "electric_scooter", "lon": -77.05692, "bike_id": "62383ead367506e5e0d2978931ccb67b", "fusion_lat": 0.0, "name": "62383ead367506e5e0d2978931ccb67b", "is_reserved": 0, "rental_uris": {"android": "https://dc.lft.to/lastmile_qr_scan", "ios": "https://dc.lft.to/lastmile_qr_scan"}, "fusion_lon": 0.0}, {"lat": 38.954046166666664, "is_disabled": 0, "type": "electric_scooter", "lon": -77.02747266666667, "bike_id": "384595c81ab4f49d822493dacb21bc36", "fusion_lat": 0.0, "name": "384595c81ab4f49d822493dacb21bc36", "is_reserved": 0, "rental_uris": {"android": "https://dc.lft.to/lastmile_qr_scan", "ios": "https://dc.lft.to/lastmile_qr_scan"}, "fusion_lon": 0.0}, {"lat": 38.937464166666665, "is_disabled": 0, "type": "electric_scooter", "lon": -77.034668, "bike_id": "2761dc2b3ada3eacd6b984468995f66f", "fusion_lat": 0.0, "name": "2761dc2b3ada3eacd6b984468995f66f", "is_reserved": 0, "rental_uris": {"android": "https://dc.lft.to/lastmile_qr_scan", "ios": "https://dc.lft.to/lastmile_qr_scan"}, "fusion_lon": 0.0}, {"lat": 38.921835, "is_disabled": 0, "type": "electric_scooter", "lon": -77.04709266666667, "bike_id": "506075928b801d1207e67c72b5f53fdd", "fusion_lat": 0.0, "name": "506075928b801d1207e67c72b5f53fdd", "is_reserved": 0, "rental_uris": {"android": "https://dc.lft.to/lastmile_qr_scan", "ios": "https://dc.lft.to/lastmile_qr_scan"}, "fusion_lon": 0.0}, {"lat": 38.88577733333333, "is_disabled": 0, "type": "electric_scooter", "lon": -76.919112, "bike_id": "0ae6b4ff7189a6e3ef299294d10884a5", "fusion_lat": 0.0, "name": "0ae6b4ff7189a6e3ef299294d10884a5", "is_reserved": 0, "rental_uris": {"android": "https://dc.lft.to/lastmile_qr_scan", "ios": "https://dc.lft.to/lastmile_qr_scan"}, "fusion_lon": 0.0}, {"lat": 38.922456, "is_disabled": 0, "type": "electric_scooter", "lon": -77.03089333333334, "bike_id": "ffe873c5a05ad41936778c106348a09f", "fusion_lat": 0.0, "name": "ffe873c5a05ad41936778c106348a09f", "is_reserved": 0, "rental_uris": {"android": "https://dc.lft.to/lastmile_qr_scan", "ios": "https://dc.lft.to/lastmile_qr_scan"}, "fusion_lon": 0.0}, {"lat": 38.9273935, "is_disabled": 0, "type": "electric_scooter", "lon": -77.02589, "bike_id": "b383ed32732f6528d6526008bfaccd2f", "fusion_lat": 0.0, "name": "b383ed32732f6528d6526008bfaccd2f", "is_reserved": 0, "rental_uris": {"android": "https://dc.lft.to/lastmile_qr_scan", "ios": "https://dc.lft.to/lastmile_qr_scan"}, "fusion_lon": 0.0}, {"lat": 38.920846, "is_disabled": 0, "type": "electric_scooter", "lon": -77.04192, "bike_id": "cfc47ff89b4349fb0b78052ac2834c54", "fusion_lat": 0.0, "name": "cfc47ff89b4349fb0b78052ac2834c54", "is_reserved": 0, "rental_uris": {"android": "https://dc.lft.to/lastmile_qr_scan", "ios": "https://dc.lft.to/lastmile_qr_scan"}, "fusion_lon": 0.0}, {"lat": 38.914015166666665, "is_disabled": 0, "type": "electric_scooter", "lon": -77.026051, "bike_id": "6b43f0a55b948ffe5fcf27b89dfc7018", "fusion_lat": 0.0, "name": "6b43f0a55b948ffe5fcf27b89dfc7018", "is_reserved": 0, "rental_uris": {"android": "https://dc.lft.to/lastmile_qr_scan", "ios": "https://dc.lft.to/lastmile_qr_scan"}, "fusion_lon": 0.0}, {"lat": 38.93215633333333, "is_disabled": 0, "type": "electric_scooter", "lon": -77.02247483333333, "bike_id": "3f30b7c5169fb5cd3caad6bf308a9176", "fusion_lat": 0.0, "name": "3f30b7c5169fb5cd3caad6bf308a9176", "is_reserved": 0, "rental_uris": {"android": "https://dc.lft.to/lastmile_qr_scan", "ios": "https://dc.lft.to/lastmile_qr_scan"}, "fusion_lon": 0.0}, {"lat": 39.056353666666666, "is_disabled": 0, "type": "electric_bike", "lon": -77.12527, "bike_id": "8eb43e60e1d7b9dea212f12c0942de3e", "fusion_lat": 0.0, "name": "8eb43e60e1d7b9dea212f12c0942de3e", "is_reserved": 0, "rental_uris": {"android": "https://dc.lft.to/lastmile_qr_scan", "ios": "https://dc.lft.to/lastmile_qr_scan"}, "fusion_lon": 0.0}, {"lat": 38.925461, "is_disabled": 0, "type": "electric_scooter", "lon": -77.0334595, "bike_id": "145ca65071779698da563d89f2616e48", "fusion_lat": 0.0, "name": "145ca65071779698da563d89f2616e48", "is_reserved": 0, "rental_uris": {"android": "https://dc.lft.to/lastmile_qr_scan", "ios": "https://dc.lft.to/lastmile_qr_scan"}, "fusion_lon": 0.0}, {"lat": 38.91964866666667, "is_disabled": 0, "type": "electric_scooter", "lon": -77.01213083333333, "bike_id": "9c062ebabdadc3ccdaf5f57314101ccd", "fusion_lat": 0.0, "name": "9c062ebabdadc3ccdaf5f57314101ccd", "is_reserved": 0, "rental_uris": {"android": "https://dc.lft.to/lastmile_qr_scan", "ios": "https://dc.lft.to/lastmile_qr_scan"}, "fusion_lon": 0.0}, {"lat": 38.89817733333334, "is_disabled": 0, "type": "electric_scooter", "lon": -76.99694466666666, "bike_id": "e3d1e38177f214fab5c8901187fa8136", "fusion_lat": 0.0, "name": "e3d1e38177f214fab5c8901187fa8136", "is_reserved": 0, "rental_uris": {"android": "https://dc.lft.to/lastmile_qr_scan", "ios": "https://dc.lft.to/lastmile_qr_scan"}, "fusion_lon": 0.0}, {"lat": 38.92497016666667, "is_disabled": 0, "type": "electric_scooter", "lon": -77.0284105, "bike_id": "6fdc1f0e9a541a1c00003fa30a3860ac", "fusion_lat": 0.0, "name": "6fdc1f0e9a541a1c00003fa30a3860ac", "is_reserved": 0, "rental_uris": {"android": "https://dc.lft.to/lastmile_qr_scan", "ios": "https://dc.lft.to/lastmile_qr_scan"}, "fusion_lon": 0.0}, {"lat": 38.90839416666667, "is_disabled": 0, "type": "electric_scooter", "lon": -77.00229066666667, "bike_id": "57e7a49a0f28a74c84e2089c2c43e11e", "fusion_lat": 0.0, "name": "57e7a49a0f28a74c84e2089c2c43e11e", "is_reserved": 0, "rental_uris": {"android": "https://dc.lft.to/lastmile_qr_scan", "ios": "https://dc.lft.to/lastmile_qr_scan"}, "fusion_lon": 0.0}, {"lat": 38.88414366666667, "is_disabled": 0, "type": "electric_bike", "lon": -76.95415016666666, "bike_id": "2c347c9126ea2cacd48657f5029add3c", "fusion_lat": 0.0, "name": "2c347c9126ea2cacd48657f5029add3c", "is_reserved": 0, "rental_uris": {"android": "https://dc.lft.to/lastmile_qr_scan", "ios": "https://dc.lft.to/lastmile_qr_scan"}, "fusion_lon": 0.0}, {"lat": 38.887390833333335, "is_disabled": 0, "type": "electric_scooter", "lon": -77.01536433333334, "bike_id": "f693ca1d11e88f7d3aa9c164a89666a2", "fusion_lat": 0.0, "name": "f693ca1d11e88f7d3aa9c164a89666a2", "is_reserved": 0, "rental_uris": {"android": "https://dc.lft.to/lastmile_qr_scan", "ios": "https://dc.lft.to/lastmile_qr_scan"}, "fusion_lon": 0.0}, {"lat": 38.9318005, "is_disabled": 0, "type": "electric_scooter", "lon": -77.02807716666666, "bike_id": "4f86822c50be1e71f844d97f204fc583", "fusion_lat": 0.0, "name": "4f86822c50be1e71f844d97f204fc583", "is_reserved": 0, "rental_uris": {"android": "https://dc.lft.to/lastmile_qr_scan", "ios": "https://dc.lft.to/lastmile_qr_scan"}, "fusion_lon": 0.0}, {"lat": 38.88885366666667, "is_disabled": 0, "type": "electric_scooter", "lon": -76.931552, "bike_id": "3196bed95eff5737fde7304d37f92bd8", "fusion_lat": 0.0, "name": "3196bed95eff5737fde7304d37f92bd8", "is_reserved": 0, "rental_uris": {"android": "https://dc.lft.to/lastmile_qr_scan", "ios": "https://dc.lft.to/lastmile_qr_scan"}, "fusion_lon": 0.0}, {"lat": 38.961342, "is_disabled": 0, "type": "electric_scooter", "lon": -77.02800883333333, "bike_id": "c4deb549f04423ff4039c75d2a9f35f7", "fusion_lat": 0.0, "name": "c4deb549f04423ff4039c75d2a9f35f7", "is_reserved": 0, "rental_uris": {"android": "https://dc.lft.to/lastmile_qr_scan", "ios": "https://dc.lft.to/lastmile_qr_scan"}, "fusion_lon": 0.0}, {"lat": 38.90723916666666, "is_disabled": 0, "type": "electric_scooter", "lon": -77.04646683333333, "bike_id": "0f1e814abbe57a5ef8048b6d8286c3db", "fusion_lat": 0.0, "name": "0f1e814abbe57a5ef8048b6d8286c3db", "is_reserved": 0, "rental_uris": {"android": "https://dc.lft.to/lastmile_qr_scan", "ios": "https://dc.lft.to/lastmile_qr_scan"}, "fusion_lon": 0.0}, {"lat": 38.911931, "is_disabled": 0, "type": "electric_scooter", "lon": -77.04303633333333, "bike_id": "920786c9bf9bebf1f1f1a3c0191f7ad8", "fusion_lat": 0.0, "name": "920786c9bf9bebf1f1f1a3c0191f7ad8", "is_reserved": 0, "rental_uris": {"android": "https://dc.lft.to/lastmile_qr_scan", "ios": "https://dc.lft.to/lastmile_qr_scan"}, "fusion_lon": 0.0}, {"lat": 38.8904335, "is_disabled": 0, "type": "electric_scooter", "lon": -76.952493, "bike_id": "a0957bef660f31133af5d567eaf77815", "fusion_lat": 0.0, "name": "a0957bef660f31133af5d567eaf77815", "is_reserved": 0, "rental_uris": {"android": "https://dc.lft.to/lastmile_qr_scan", "ios": "https://dc.lft.to/lastmile_qr_scan"}, "fusion_lon": 0.0}, {"lat": 38.87678416666667, "is_disabled": 0, "type": "electric_scooter", "lon": -77.00425833333334, "bike_id": "f18a2c5578052c60eb1fb5437fcd54eb", "fusion_lat": 0.0, "name": "f18a2c5578052c60eb1fb5437fcd54eb", "is_reserved": 0, "rental_uris": {"android": "https://dc.lft.to/lastmile_qr_scan", "ios": "https://dc.lft.to/lastmile_qr_scan"}, "fusion_lon": 0.0}, {"lat": 38.907862, "is_disabled": 0, "type": "electric_scooter", "lon": -77.0021595, "bike_id": "7f62d650521f6301b5d9a886ac4f9e0e", "fusion_lat": 0.0, "name": "7f62d650521f6301b5d9a886ac4f9e0e", "is_reserved": 0, "rental_uris": {"android": "https://dc.lft.to/lastmile_qr_scan", "ios": "https://dc.lft.to/lastmile_qr_scan"}, "fusion_lon": 0.0}, {"lat": 38.852121333333336, "is_disabled": 0, "type": "electric_bike", "lon": -76.995868, "bike_id": "a46d20c8a600956e57d41c164f630d9d", "fusion_lat": 0.0, "name": "a46d20c8a600956e57d41c164f630d9d", "is_reserved": 0, "rental_uris": {"android": "https://dc.lft.to/lastmile_qr_scan", "ios": "https://dc.lft.to/lastmile_qr_scan"}, "fusion_lon": 0.0}, {"lat": 38.921211166666666, "is_disabled": 0, "type": "electric_scooter", "lon": -77.0411575, "bike_id": "8228530333ac552effb1c3b4b6c06b83", "fusion_lat": 0.0, "name": "8228530333ac552effb1c3b4b6c06b83", "is_reserved": 0, "rental_uris": {"android": "https://dc.lft.to/lastmile_qr_scan", "ios": "https://dc.lft.to/lastmile_qr_scan"}, "fusion_lon": 0.0}, {"lat": 38.90979, "is_disabled": 0, "type": "electric_scooter", "lon": -77.0321405, "bike_id": "9b286bb95671e417dfa02500eb076c8f", "fusion_lat": 0.0, "name": "9b286bb95671e417dfa02500eb076c8f", "is_reserved": 0, "rental_uris": {"android": "https://dc.lft.to/lastmile_qr_scan", "ios": "https://dc.lft.to/lastmile_qr_scan"}, "fusion_lon": 0.0}, {"lat": 38.805024, "is_disabled": 0, "type": "electric_bike", "lon": -77.0413385, "bike_id": "64de657c74387c48efcc82ce21269473", "fusion_lat": 0.0, "name": "64de657c74387c48efcc82ce21269473", "is_reserved": 0, "rental_uris": {"android": "https://dc.lft.to/lastmile_qr_scan", "ios": "https://dc.lft.to/lastmile_qr_scan"}, "fusion_lon": 0.0}, {"lat": 38.933429833333335, "is_disabled": 0, "type": "electric_scooter", "lon": -76.993117, "bike_id": "b6d33f1164c46a907fbcc0f840c77ec6", "fusion_lat": 0.0, "name": "b6d33f1164c46a907fbcc0f840c77ec6", "is_reserved": 0, "rental_uris": {"android": "https://dc.lft.to/lastmile_qr_scan", "ios": "https://dc.lft.to/lastmile_qr_scan"}, "fusion_lon": 0.0}, {"lat": 38.86621916666667, "is_disabled": 0, "type": "electric_scooter", "lon": -76.98641866666667, "bike_id": "7b464ffe17316962f53e05be52c7ff7f", "fusion_lat": 0.0, "name": "7b464ffe17316962f53e05be52c7ff7f", "is_reserved": 0, "rental_uris": {"android": "https://dc.lft.to/lastmile_qr_scan", "ios": "https://dc.lft.to/lastmile_qr_scan"}, "fusion_lon": 0.0}, {"lat": 38.937473833333335, "is_disabled": 0, "type": "electric_scooter", "lon": -77.0345575, "bike_id": "8e60f1c6f10979f2ff0f112185e49aca", "fusion_lat": 0.0, "name": "8e60f1c6f10979f2ff0f112185e49aca", "is_reserved": 0, "rental_uris": {"android": "https://dc.lft.to/lastmile_qr_scan", "ios": "https://dc.lft.to/lastmile_qr_scan"}, "fusion_lon": 0.0}, {"lat": 38.906440333333336, "is_disabled": 0, "type": "electric_scooter", "lon": -76.99025383333333, "bike_id": "f1bc2b0170dcf94fd3dcdb630af91086", "fusion_lat": 0.0, "name": "f1bc2b0170dcf94fd3dcdb630af91086", "is_reserved": 0, "rental_uris": {"android": "https://dc.lft.to/lastmile_qr_scan", "ios": "https://dc.lft.to/lastmile_qr_scan"}, "fusion_lon": 0.0}, {"lat": 38.95608, "is_disabled": 0, "type": "electric_scooter", "lon": -77.01021716666666, "bike_id": "638d697a143ebda6c75bc2948696ceb4", "fusion_lat": 0.0, "name": "638d697a143ebda6c75bc2948696ceb4", "is_reserved": 0, "rental_uris": {"android": "https://dc.lft.to/lastmile_qr_scan", "ios": "https://dc.lft.to/lastmile_qr_scan"}, "fusion_lon": 0.0}, {"lat": 38.844291, "is_disabled": 0, "type": "electric_scooter", "lon": -76.99781433333334, "bike_id": "64547326aa1128a03c6ac84df23bcdd4", "fusion_lat": 0.0, "name": "64547326aa1128a03c6ac84df23bcdd4", "is_reserved": 0, "rental_uris": {"android": "https://dc.lft.to/lastmile_qr_scan", "ios": "https://dc.lft.to/lastmile_qr_scan"}, "fusion_lon": 0.0}, {"lat": 38.918398, "is_disabled": 0, "type": "electric_scooter", "lon": -77.02305833333334, "bike_id": "efb62a07ce7121cf7f92181082a78779", "fusion_lat": 0.0, "name": "efb62a07ce7121cf7f92181082a78779", "is_reserved": 0, "rental_uris": {"android": "https://dc.lft.to/lastmile_qr_scan", "ios": "https://dc.lft.to/lastmile_qr_scan"}, "fusion_lon": 0.0}, {"lat": 38.95296166666667, "is_disabled": 0, "type": "electric_bike", "lon": -76.98208666666666, "bike_id": "315b0b44ad48fa7754a492bd939251d6", "fusion_lat": 0.0, "name": "315b0b44ad48fa7754a492bd939251d6", "is_reserved": 0, "rental_uris": {"android": "https://dc.lft.to/lastmile_qr_scan", "ios": "https://dc.lft.to/lastmile_qr_scan"}, "fusion_lon": 0.0}, {"lat": 38.921005666666666, "is_disabled": 0, "type": "electric_scooter", "lon": -77.03925933333333, "bike_id": "8b7e084a105ebc889030d10a833ffd16", "fusion_lat": 0.0, "name": "8b7e084a105ebc889030d10a833ffd16", "is_reserved": 0, "rental_uris": {"android": "https://dc.lft.to/lastmile_qr_scan", "ios": "https://dc.lft.to/lastmile_qr_scan"}, "fusion_lon": 0.0}, {"lat": 38.92775816666666, "is_disabled": 0, "type": "electric_scooter", "lon": -77.0278525, "bike_id": "f8e1ed547037ee81d88687d3730e79fb", "fusion_lat": 0.0, "name": "f8e1ed547037ee81d88687d3730e79fb", "is_reserved": 0, "rental_uris": {"android": "https://dc.lft.to/lastmile_qr_scan", "ios": "https://dc.lft.to/lastmile_qr_scan"}, "fusion_lon": 0.0}, {"lat": 38.914104, "is_disabled": 0, "type": "electric_scooter", "lon": -77.03815883333333, "bike_id": "eee4f525de7401c5de15bebef4185489", "fusion_lat": 0.0, "name": "eee4f525de7401c5de15bebef4185489", "is_reserved": 0, "rental_uris": {"android": "https://dc.lft.to/lastmile_qr_scan", "ios": "https://dc.lft.to/lastmile_qr_scan"}, "fusion_lon": 0.0}, {"lat": 38.91020133333333, "is_disabled": 0, "type": "electric_scooter", "lon": -77.04444666666667, "bike_id": "1697265e652d34d61416e9f65de11d3f", "fusion_lat": 0.0, "name": "1697265e652d34d61416e9f65de11d3f", "is_reserved": 0, "rental_uris": {"android": "https://dc.lft.to/lastmile_qr_scan", "ios": "https://dc.lft.to/lastmile_qr_scan"}, "fusion_lon": 0.0}, {"lat": 38.93359933333333, "is_disabled": 0, "type": "electric_bike", "lon": -77.0995935, "bike_id": "5cd4ac8750d37f40d69bdbafb369db93", "fusion_lat": 0.0, "name": "5cd4ac8750d37f40d69bdbafb369db93", "is_reserved": 0, "rental_uris": {"android": "https://dc.lft.to/lastmile_qr_scan", "ios": "https://dc.lft.to/lastmile_qr_scan"}, "fusion_lon": 0.0}, {"lat": 38.907739666666664, "is_disabled": 0, "type": "electric_scooter", "lon": -77.060687, "bike_id": "dab011ba8595f85fb40d2deb3f7fc43e", "fusion_lat": 0.0, "name": "dab011ba8595f85fb40d2deb3f7fc43e", "is_reserved": 0, "rental_uris": {"android": "https://dc.lft.to/lastmile_qr_scan", "ios": "https://dc.lft.to/lastmile_qr_scan"}, "fusion_lon": 0.0}, {"lat": 38.91363466666667, "is_disabled": 0, "type": "electric_scooter", "lon": -77.068421, "bike_id": "26944b6b174791be8a368eae5d143c5e", "fusion_lat": 0.0, "name": "26944b6b174791be8a368eae5d143c5e", "is_reserved": 0, "rental_uris": {"android": "https://dc.lft.to/lastmile_qr_scan", "ios": "https://dc.lft.to/lastmile_qr_scan"}, "fusion_lon": 0.0}, {"lat": 38.9002395, "is_disabled": 0, "type": "electric_scooter", "lon": -77.03158416666666, "bike_id": "b461bed5844114047e77305c3331c482", "fusion_lat": 0.0, "name": "b461bed5844114047e77305c3331c482", "is_reserved": 0, "rental_uris": {"android": "https://dc.lft.to/lastmile_qr_scan", "ios": "https://dc.lft.to/lastmile_qr_scan"}, "fusion_lon": 0.0}, {"lat": 38.906627666666665, "is_disabled": 0, "type": "electric_scooter", "lon": -77.03861116666667, "bike_id": "f6ba0bf04b86010307fcdb584f184d4b", "fusion_lat": 0.0, "name": "f6ba0bf04b86010307fcdb584f184d4b", "is_reserved": 0, "rental_uris": {"android": "https://dc.lft.to/lastmile_qr_scan", "ios": "https://dc.lft.to/lastmile_qr_scan"}, "fusion_lon": 0.0}, {"lat": 38.8958035, "is_disabled": 0, "type": "electric_bike", "lon": -77.12687083333333, "bike_id": "b60b596db4c501394936ff20c9f8a6f6", "fusion_lat": 0.0, "name": "b60b596db4c501394936ff20c9f8a6f6", "is_reserved": 0, "rental_uris": {"android": "https://dc.lft.to/lastmile_qr_scan", "ios": "https://dc.lft.to/lastmile_qr_scan"}, "fusion_lon": 0.0}, {"lat": 38.932142666666664, "is_disabled": 0, "type": "electric_scooter", "lon": -76.9777205, "bike_id": "6f167b3499e6b9b46512f4e9b8cef083", "fusion_lat": 0.0, "name": "6f167b3499e6b9b46512f4e9b8cef083", "is_reserved": 0, "rental_uris": {"android": "https://dc.lft.to/lastmile_qr_scan", "ios": "https://dc.lft.to/lastmile_qr_scan"}, "fusion_lon": 0.0}, {"lat": 38.865066, "is_disabled": 0, "type": "electric_scooter", "lon": -76.99045716666667, "bike_id": "33f1ca581e74b345917d5ea13eeb748b", "fusion_lat": 0.0, "name": "33f1ca581e74b345917d5ea13eeb748b", "is_reserved": 0, "rental_uris": {"android": "https://dc.lft.to/lastmile_qr_scan", "ios": "https://dc.lft.to/lastmile_qr_scan"}, "fusion_lon": 0.0}, {"lat": 38.9155645, "is_disabled": 0, "type": "electric_scooter", "lon": -77.0104945, "bike_id": "7aaa8efac6f70c1a5b633d1472de5387", "fusion_lat": 0.0, "name": "7aaa8efac6f70c1a5b633d1472de5387", "is_reserved": 0, "rental_uris": {"android": "https://dc.lft.to/lastmile_qr_scan", "ios": "https://dc.lft.to/lastmile_qr_scan"}, "fusion_lon": 0.0}, {"lat": 38.82785333333333, "is_disabled": 0, "type": "electric_bike", "lon": -77.009201, "bike_id": "7eb136e511f26813bbec1e6266c2b0ed", "fusion_lat": 0.0, "name": "7eb136e511f26813bbec1e6266c2b0ed", "is_reserved": 0, "rental_uris": {"android": "https://dc.lft.to/lastmile_qr_scan", "ios": "https://dc.lft.to/lastmile_qr_scan"}, "fusion_lon": 0.0}, {"lat": 38.932979333333336, "is_disabled": 0, "type": "electric_scooter", "lon": -77.04535033333333, "bike_id": "80cdbf2cec171804a20743f7f197c725", "fusion_lat": 0.0, "name": "80cdbf2cec171804a20743f7f197c725", "is_reserved": 0, "rental_uris": {"android": "https://dc.lft.to/lastmile_qr_scan", "ios": "https://dc.lft.to/lastmile_qr_scan"}, "fusion_lon": 0.0}, {"lat": 38.90974633333333, "is_disabled": 0, "type": "electric_bike", "lon": -77.08826216666667, "bike_id": "73b7ad33cbb85f3bb2a486de672f0387", "fusion_lat": 0.0, "name": "73b7ad33cbb85f3bb2a486de672f0387", "is_reserved": 0, "rental_uris": {"android": "https://dc.lft.to/lastmile_qr_scan", "ios": "https://dc.lft.to/lastmile_qr_scan"}, "fusion_lon": 0.0}, {"lat": 38.91465566666667, "is_disabled": 0, "type": "electric_scooter", "lon": -77.014366, "bike_id": "a9dec706b5a3578374f77d63bdaf4031", "fusion_lat": 0.0, "name": "a9dec706b5a3578374f77d63bdaf4031", "is_reserved": 0, "rental_uris": {"android": "https://dc.lft.to/lastmile_qr_scan", "ios": "https://dc.lft.to/lastmile_qr_scan"}, "fusion_lon": 0.0}, {"lat": 38.98432866666667, "is_disabled": 0, "type": "electric_scooter", "lon": -77.026741, "bike_id": "9f64cd456a208c66b2628ca071b0b26d", "fusion_lat": 0.0, "name": "9f64cd456a208c66b2628ca071b0b26d", "is_reserved": 0, "rental_uris": {"android": "https://dc.lft.to/lastmile_qr_scan", "ios": "https://dc.lft.to/lastmile_qr_scan"}, "fusion_lon": 0.0}, {"lat": 38.877302, "is_disabled": 0, "type": "electric_scooter", "lon": -77.00299383333333, "bike_id": "a58c49f95af9ce9372167fb9081ef6c5", "fusion_lat": 0.0, "name": "a58c49f95af9ce9372167fb9081ef6c5", "is_reserved": 0, "rental_uris": {"android": "https://dc.lft.to/lastmile_qr_scan", "ios": "https://dc.lft.to/lastmile_qr_scan"}, "fusion_lon": 0.0}, {"lat": 38.88799683333333, "is_disabled": 0, "type": "electric_scooter", "lon": -76.93361833333333, "bike_id": "4f0fb177d44c8c785e43787b2f143ef3", "fusion_lat": 0.0, "name": "4f0fb177d44c8c785e43787b2f143ef3", "is_reserved": 0, "rental_uris": {"android": "https://dc.lft.to/lastmile_qr_scan", "ios": "https://dc.lft.to/lastmile_qr_scan"}, "fusion_lon": 0.0}, {"lat": 38.8707335, "is_disabled": 0, "type": "electric_bike", "lon": -76.97845583333333, "bike_id": "c11856479567f538bbabc0ebc185c86f", "fusion_lat": 0.0, "name": "c11856479567f538bbabc0ebc185c86f", "is_reserved": 0, "rental_uris": {"android": "https://dc.lft.to/lastmile_qr_scan", "ios": "https://dc.lft.to/lastmile_qr_scan"}, "fusion_lon": 0.0}, {"lat": 38.9235235, "is_disabled": 0, "type": "electric_scooter", "lon": -77.05428383333333, "bike_id": "f2f72fffff1d68542f06305286a4c4f0", "fusion_lat": 0.0, "name": "f2f72fffff1d68542f06305286a4c4f0", "is_reserved": 0, "rental_uris": {"android": "https://dc.lft.to/lastmile_qr_scan", "ios": "https://dc.lft.to/lastmile_qr_scan"}, "fusion_lon": 0.0}, {"lat": 38.96561166666667, "is_disabled": 0, "type": "electric_scooter", "lon": -77.016284, "bike_id": "0c00c55d158b78ead4c51c99950fc5a5", "fusion_lat": 0.0, "name": "0c00c55d158b78ead4c51c99950fc5a5", "is_reserved": 0, "rental_uris": {"android": "https://dc.lft.to/lastmile_qr_scan", "ios": "https://dc.lft.to/lastmile_qr_scan"}, "fusion_lon": 0.0}, {"lat": 38.90266966666667, "is_disabled": 0, "type": "electric_scooter", "lon": -77.02013783333334, "bike_id": "7d8ce8554fdeb39e77b0411a36ec23e2", "fusion_lat": 0.0, "name": "7d8ce8554fdeb39e77b0411a36ec23e2", "is_reserved": 0, "rental_uris": {"android": "https://dc.lft.to/lastmile_qr_scan", "ios": "https://dc.lft.to/lastmile_qr_scan"}, "fusion_lon": 0.0}, {"lat": 38.88635983333333, "is_disabled": 0, "type": "electric_scooter", "lon": -76.95490883333333, "bike_id": "80eaefc097dfd82e41224b6769020d02", "fusion_lat": 0.0, "name": "80eaefc097dfd82e41224b6769020d02", "is_reserved": 0, "rental_uris": {"android": "https://dc.lft.to/lastmile_qr_scan", "ios": "https://dc.lft.to/lastmile_qr_scan"}, "fusion_lon": 0.0}, {"lat": 38.902738666666664, "is_disabled": 0, "type": "electric_scooter", "lon": -77.033727, "bike_id": "3efae32080aebe42b5dd07ee64d137fd", "fusion_lat": 0.0, "name": "3efae32080aebe42b5dd07ee64d137fd", "is_reserved": 0, "rental_uris": {"android": "https://dc.lft.to/lastmile_qr_scan", "ios": "https://dc.lft.to/lastmile_qr_scan"}, "fusion_lon": 0.0}, {"lat": 38.94305283333333, "is_disabled": 0, "type": "electric_scooter", "lon": -77.0613655, "bike_id": "ca7cfa9e21bdda8be634dbac9d6735d4", "fusion_lat": 0.0, "name": "ca7cfa9e21bdda8be634dbac9d6735d4", "is_reserved": 0, "rental_uris": {"android": "https://dc.lft.to/lastmile_qr_scan", "ios": "https://dc.lft.to/lastmile_qr_scan"}, "fusion_lon": 0.0}, {"lat": 38.9048395, "is_disabled": 0, "type": "electric_scooter", "lon": -76.973279, "bike_id": "a59941d3b2c1cf74ed9f927e834b7dda", "fusion_lat": 0.0, "name": "a59941d3b2c1cf74ed9f927e834b7dda", "is_reserved": 0, "rental_uris": {"android": "https://dc.lft.to/lastmile_qr_scan", "ios": "https://dc.lft.to/lastmile_qr_scan"}, "fusion_lon": 0.0}, {"lat": 38.894932833333336, "is_disabled": 0, "type": "electric_scooter", "lon": -77.00254033333333, "bike_id": "cc580abe7d9b0ec306766be0310be5ba", "fusion_lat": 0.0, "name": "cc580abe7d9b0ec306766be0310be5ba", "is_reserved": 0, "rental_uris": {"android": "https://dc.lft.to/lastmile_qr_scan", "ios": "https://dc.lft.to/lastmile_qr_scan"}, "fusion_lon": 0.0}, {"lat": 38.896599333333334, "is_disabled": 0, "type": "electric_scooter", "lon": -77.04667616666667, "bike_id": "1800e69a6515a5eae1fdfe1b2f4c5092", "fusion_lat": 0.0, "name": "1800e69a6515a5eae1fdfe1b2f4c5092", "is_reserved": 0, "rental_uris": {"android": "https://dc.lft.to/lastmile_qr_scan", "ios": "https://dc.lft.to/lastmile_qr_scan"}, "fusion_lon": 0.0}, {"lat": 38.9157205, "is_disabled": 0, "type": "electric_scooter", "lon": -77.05025516666667, "bike_id": "a15ce4329fe6a035ccddf0034587951a", "fusion_lat": 0.0, "name": "a15ce4329fe6a035ccddf0034587951a", "is_reserved": 0, "rental_uris": {"android": "https://dc.lft.to/lastmile_qr_scan", "ios": "https://dc.lft.to/lastmile_qr_scan"}, "fusion_lon": 0.0}, {"lat": 38.926757333333335, "is_disabled": 0, "type": "electric_scooter", "lon": -77.01526566666666, "bike_id": "7be485d3b6d80d8608af6dec2d1b39a7", "fusion_lat": 0.0, "name": "7be485d3b6d80d8608af6dec2d1b39a7", "is_reserved": 0, "rental_uris": {"android": "https://dc.lft.to/lastmile_qr_scan", "ios": "https://dc.lft.to/lastmile_qr_scan"}, "fusion_lon": 0.0}, {"lat": 38.89354933333333, "is_disabled": 0, "type": "electric_scooter", "lon": -76.98475183333333, "bike_id": "3e428beab6389afcbf5e613ab8a70e3f", "fusion_lat": 0.0, "name": "3e428beab6389afcbf5e613ab8a70e3f", "is_reserved": 0, "rental_uris": {"android": "https://dc.lft.to/lastmile_qr_scan", "ios": "https://dc.lft.to/lastmile_qr_scan"}, "fusion_lon": 0.0}, {"lat": 38.90667666666667, "is_disabled": 0, "type": "electric_scooter", "lon": -77.03865416666666, "bike_id": "da27660341ef70b9a24ed4fe4ef34fc9", "fusion_lat": 0.0, "name": "da27660341ef70b9a24ed4fe4ef34fc9", "is_reserved": 0, "rental_uris": {"android": "https://dc.lft.to/lastmile_qr_scan", "ios": "https://dc.lft.to/lastmile_qr_scan"}, "fusion_lon": 0.0}, {"lat": 38.9104985, "is_disabled": 0, "type": "electric_scooter", "lon": -77.04568983333333, "bike_id": "70816b771d3f940f03767d1d2966c52e", "fusion_lat": 0.0, "name": "70816b771d3f940f03767d1d2966c52e", "is_reserved": 0, "rental_uris": {"android": "https://dc.lft.to/lastmile_qr_scan", "ios": "https://dc.lft.to/lastmile_qr_scan"}, "fusion_lon": 0.0}, {"lat": 38.89515983333333, "is_disabled": 0, "type": "electric_scooter", "lon": -77.016017, "bike_id": "0f2436d1d15ade362e2210e0bcf07514", "fusion_lat": 0.0, "name": "0f2436d1d15ade362e2210e0bcf07514", "is_reserved": 0, "rental_uris": {"android": "https://dc.lft.to/lastmile_qr_scan", "ios": "https://dc.lft.to/lastmile_qr_scan"}, "fusion_lon": 0.0}, {"lat": 38.921115666666665, "is_disabled": 0, "type": "electric_scooter", "lon": -77.04184616666667, "bike_id": "0fde407d517584465bbe3916de064f74", "fusion_lat": 0.0, "name": "0fde407d517584465bbe3916de064f74", "is_reserved": 0, "rental_uris": {"android": "https://dc.lft.to/lastmile_qr_scan", "ios": "https://dc.lft.to/lastmile_qr_scan"}, "fusion_lon": 0.0}, {"lat": 38.921729666666664, "is_disabled": 0, "type": "electric_scooter", "lon": -77.04006, "bike_id": "f974ed702283d3ef2abd03165e8575f0", "fusion_lat": 0.0, "name": "f974ed702283d3ef2abd03165e8575f0", "is_reserved": 0, "rental_uris": {"android": "https://dc.lft.to/lastmile_qr_scan", "ios": "https://dc.lft.to/lastmile_qr_scan"}, "fusion_lon": 0.0}, {"lat": 38.924816166666666, "is_disabled": 0, "type": "electric_scooter", "lon": -77.03486, "bike_id": "fef1b1c27efbd4f5624fe1a60aec5a2a", "fusion_lat": 0.0, "name": "fef1b1c27efbd4f5624fe1a60aec5a2a", "is_reserved": 0, "rental_uris": {"android": "https://dc.lft.to/lastmile_qr_scan", "ios": "https://dc.lft.to/lastmile_qr_scan"}, "fusion_lon": 0.0}, {"lat": 38.906118, "is_disabled": 0, "type": "electric_scooter", "lon": -77.01532183333333, "bike_id": "485dadda90d281692e9f2fb1a1011e49", "fusion_lat": 0.0, "name": "485dadda90d281692e9f2fb1a1011e49", "is_reserved": 0, "rental_uris": {"android": "https://dc.lft.to/lastmile_qr_scan", "ios": "https://dc.lft.to/lastmile_qr_scan"}, "fusion_lon": 0.0}, {"lat": 38.90381766666667, "is_disabled": 0, "type": "electric_scooter", "lon": -77.03110566666666, "bike_id": "1d203571d9e66e7048dabde5d12ee0ca", "fusion_lat": 0.0, "name": "1d203571d9e66e7048dabde5d12ee0ca", "is_reserved": 0, "rental_uris": {"android": "https://dc.lft.to/lastmile_qr_scan", "ios": "https://dc.lft.to/lastmile_qr_scan"}, "fusion_lon": 0.0}, {"lat": 38.919692, "is_disabled": 0, "type": "electric_scooter", "lon": -77.012144, "bike_id": "4446e9688fed213422b378a53d56d037", "fusion_lat": 0.0, "name": "4446e9688fed213422b378a53d56d037", "is_reserved": 0, "rental_uris": {"android": "https://dc.lft.to/lastmile_qr_scan", "ios": "https://dc.lft.to/lastmile_qr_scan"}, "fusion_lon": 0.0}, {"lat": 38.92750066666667, "is_disabled": 0, "type": "electric_scooter", "lon": -76.9971555, "bike_id": "a9cca2ad75a0bc6ad2598a8f4e4503dc", "fusion_lat": 0.0, "name": "a9cca2ad75a0bc6ad2598a8f4e4503dc", "is_reserved": 0, "rental_uris": {"android": "https://dc.lft.to/lastmile_qr_scan", "ios": "https://dc.lft.to/lastmile_qr_scan"}, "fusion_lon": 0.0}, {"lat": 38.90158983333333, "is_disabled": 0, "type": "electric_scooter", "lon": -76.98631666666667, "bike_id": "8d790493e22e5d36f4fa37b522fafee6", "fusion_lat": 0.0, "name": "8d790493e22e5d36f4fa37b522fafee6", "is_reserved": 0, "rental_uris": {"android": "https://dc.lft.to/lastmile_qr_scan", "ios": "https://dc.lft.to/lastmile_qr_scan"}, "fusion_lon": 0.0}, {"lat": 38.903667666666664, "is_disabled": 0, "type": "electric_scooter", "lon": -77.003502, "bike_id": "bcf53b785ea2acfdfe129d5b38c43712", "fusion_lat": 0.0, "name": "bcf53b785ea2acfdfe129d5b38c43712", "is_reserved": 0, "rental_uris": {"android": "https://dc.lft.to/lastmile_qr_scan", "ios": "https://dc.lft.to/lastmile_qr_scan"}, "fusion_lon": 0.0}, {"lat": 38.9257415, "is_disabled": 0, "type": "electric_scooter", "lon": -77.057569, "bike_id": "0fbc2952f0a0280eb302135dfdc30232", "fusion_lat": 0.0, "name": "0fbc2952f0a0280eb302135dfdc30232", "is_reserved": 0, "rental_uris": {"android": "https://dc.lft.to/lastmile_qr_scan", "ios": "https://dc.lft.to/lastmile_qr_scan"}, "fusion_lon": 0.0}, {"lat": 38.897726166666665, "is_disabled": 0, "type": "electric_bike", "lon": -76.90437566666667, "bike_id": "3476b58a04264ef8dea29c429565d67a", "fusion_lat": 0.0, "name": "3476b58a04264ef8dea29c429565d67a", "is_reserved": 0, "rental_uris": {"android": "https://dc.lft.to/lastmile_qr_scan", "ios": "https://dc.lft.to/lastmile_qr_scan"}, "fusion_lon": 0.0}, {"lat": 38.8980655, "is_disabled": 0, "type": "electric_scooter", "lon": -77.00058733333333, "bike_id": "e73cedf9caf61176733a7303100d6af6", "fusion_lat": 0.0, "name": "e73cedf9caf61176733a7303100d6af6", "is_reserved": 0, "rental_uris": {"android": "https://dc.lft.to/lastmile_qr_scan", "ios": "https://dc.lft.to/lastmile_qr_scan"}, "fusion_lon": 0.0}, {"lat": 38.880952, "is_disabled": 0, "type": "electric_scooter", "lon": -76.99856783333334, "bike_id": "4739263b49dbf5757066a8d221bac7bc", "fusion_lat": 0.0, "name": "4739263b49dbf5757066a8d221bac7bc", "is_reserved": 0, "rental_uris": {"android": "https://dc.lft.to/lastmile_qr_scan", "ios": "https://dc.lft.to/lastmile_qr_scan"}, "fusion_lon": 0.0}, {"lat": 38.95634833333333, "is_disabled": 0, "type": "electric_bike", "lon": -76.93878733333334, "bike_id": "31e82499df49a183f3447220abfdb627", "fusion_lat": 0.0, "name": "31e82499df49a183f3447220abfdb627", "is_reserved": 0, "rental_uris": {"android": "https://dc.lft.to/lastmile_qr_scan", "ios": "https://dc.lft.to/lastmile_qr_scan"}, "fusion_lon": 0.0}, {"lat": 38.84274166666667, "is_disabled": 0, "type": "electric_bike", "lon": -76.98842633333334, "bike_id": "8aea800efaab368b1a6531881c3ab7a1", "fusion_lat": 0.0, "name": "8aea800efaab368b1a6531881c3ab7a1", "is_reserved": 0, "rental_uris": {"android": "https://dc.lft.to/lastmile_qr_scan", "ios": "https://dc.lft.to/lastmile_qr_scan"}, "fusion_lon": 0.0}, {"lat": 38.900681666666664, "is_disabled": 0, "type": "electric_scooter", "lon": -77.04975116666667, "bike_id": "436a13e3ac8ff7cc193a49432d45c935", "fusion_lat": 0.0, "name": "436a13e3ac8ff7cc193a49432d45c935", "is_reserved": 0, "rental_uris": {"android": "https://dc.lft.to/lastmile_qr_scan", "ios": "https://dc.lft.to/lastmile_qr_scan"}, "fusion_lon": 0.0}, {"lat": 38.90530566666666, "is_disabled": 0, "type": "electric_scooter", "lon": -77.04890816666666, "bike_id": "b2ec1d504547e7bc4fb43f1cc37d4e46", "fusion_lat": 0.0, "name": "b2ec1d504547e7bc4fb43f1cc37d4e46", "is_reserved": 0, "rental_uris": {"android": "https://dc.lft.to/lastmile_qr_scan", "ios": "https://dc.lft.to/lastmile_qr_scan"}, "fusion_lon": 0.0}, {"lat": 38.900154, "is_disabled": 0, "type": "electric_scooter", "lon": -77.01200866666667, "bike_id": "77154af9672cca0af696dcb34269abf2", "fusion_lat": 0.0, "name": "77154af9672cca0af696dcb34269abf2", "is_reserved": 0, "rental_uris": {"android": "https://dc.lft.to/lastmile_qr_scan", "ios": "https://dc.lft.to/lastmile_qr_scan"}, "fusion_lon": 0.0}, {"lat": 38.90055, "is_disabled": 0, "type": "electric_scooter", "lon": -77.05083733333333, "bike_id": "e6013e9ea28e75c5ad8f9cece967e2a2", "fusion_lat": 0.0, "name": "e6013e9ea28e75c5ad8f9cece967e2a2", "is_reserved": 0, "rental_uris": {"android": "https://dc.lft.to/lastmile_qr_scan", "ios": "https://dc.lft.to/lastmile_qr_scan"}, "fusion_lon": 0.0}, {"lat": 38.884765333333334, "is_disabled": 0, "type": "electric_scooter", "lon": -77.02408716666666, "bike_id": "5474ed2c700cf137c1dda95369535878", "fusion_lat": 0.0, "name": "5474ed2c700cf137c1dda95369535878", "is_reserved": 0, "rental_uris": {"android": "https://dc.lft.to/lastmile_qr_scan", "ios": "https://dc.lft.to/lastmile_qr_scan"}, "fusion_lon": 0.0}, {"lat": 38.94923216666667, "is_disabled": 0, "type": "electric_bike", "lon": -77.00799933333333, "bike_id": "11cb75c84767af41403e0b4ed288e31e", "fusion_lat": 0.0, "name": "11cb75c84767af41403e0b4ed288e31e", "is_reserved": 0, "rental_uris": {"android": "https://dc.lft.to/lastmile_qr_scan", "ios": "https://dc.lft.to/lastmile_qr_scan"}, "fusion_lon": 0.0}, {"lat": 38.865070833333334, "is_disabled": 0, "type": "electric_scooter", "lon": -76.9900835, "bike_id": "a33abc4cddba3b00bfe138a5bc0585d5", "fusion_lat": 0.0, "name": "a33abc4cddba3b00bfe138a5bc0585d5", "is_reserved": 0, "rental_uris": {"android": "https://dc.lft.to/lastmile_qr_scan", "ios": "https://dc.lft.to/lastmile_qr_scan"}, "fusion_lon": 0.0}, {"lat": 38.881274, "is_disabled": 0, "type": "electric_scooter", "lon": -77.01648816666666, "bike_id": "a9e6538a9ce9cc99a7ccade6bf23429e", "fusion_lat": 0.0, "name": "a9e6538a9ce9cc99a7ccade6bf23429e", "is_reserved": 0, "rental_uris": {"android": "https://dc.lft.to/lastmile_qr_scan", "ios": "https://dc.lft.to/lastmile_qr_scan"}, "fusion_lon": 0.0}, {"lat": 38.867137166666666, "is_disabled": 0, "type": "electric_scooter", "lon": -76.98725216666666, "bike_id": "9dcb32551846123681a307e89309a3fe", "fusion_lat": 0.0, "name": "9dcb32551846123681a307e89309a3fe", "is_reserved": 0, "rental_uris": {"android": "https://dc.lft.to/lastmile_qr_scan", "ios": "https://dc.lft.to/lastmile_qr_scan"}, "fusion_lon": 0.0}, {"lat": 38.92512416666667, "is_disabled": 0, "type": "electric_scooter", "lon": -76.98225266666667, "bike_id": "6b07a78c64e984531c06112f6ae8aa78", "fusion_lat": 0.0, "name": "6b07a78c64e984531c06112f6ae8aa78", "is_reserved": 0, "rental_uris": {"android": "https://dc.lft.to/lastmile_qr_scan", "ios": "https://dc.lft.to/lastmile_qr_scan"}, "fusion_lon": 0.0}, {"lat": 38.86255766666667, "is_disabled": 0, "type": "electric_scooter", "lon": -76.99511633333333, "bike_id": "4e760842bed2426d110bf2891011b06a", "fusion_lat": 0.0, "name": "4e760842bed2426d110bf2891011b06a", "is_reserved": 0, "rental_uris": {"android": "https://dc.lft.to/lastmile_qr_scan", "ios": "https://dc.lft.to/lastmile_qr_scan"}, "fusion_lon": 0.0}, {"lat": 38.9086035, "is_disabled": 0, "type": "electric_scooter", "lon": -77.047714, "bike_id": "cf82897637543d77ede601524f54c7aa", "fusion_lat": 0.0, "name": "cf82897637543d77ede601524f54c7aa", "is_reserved": 0, "rental_uris": {"android": "https://dc.lft.to/lastmile_qr_scan", "ios": "https://dc.lft.to/lastmile_qr_scan"}, "fusion_lon": 0.0}, {"lat": 38.8616005, "is_disabled": 0, "type": "electric_bike", "lon": -77.13091966666667, "bike_id": "93c7cdd77355f0dfcc7cc1a330386d91", "fusion_lat": 0.0, "name": "93c7cdd77355f0dfcc7cc1a330386d91", "is_reserved": 0, "rental_uris": {"android": "https://dc.lft.to/lastmile_qr_scan", "ios": "https://dc.lft.to/lastmile_qr_scan"}, "fusion_lon": 0.0}, {"lat": 38.9409085, "is_disabled": 0, "type": "electric_scooter", "lon": -77.02301816666666, "bike_id": "bf9c263ea6ff9cdcdc726260bab1c9c7", "fusion_lat": 0.0, "name": "bf9c263ea6ff9cdcdc726260bab1c9c7", "is_reserved": 0, "rental_uris": {"android": "https://dc.lft.to/lastmile_qr_scan", "ios": "https://dc.lft.to/lastmile_qr_scan"}, "fusion_lon": 0.0}, {"lat": 38.902121, "is_disabled": 0, "type": "electric_scooter", "lon": -77.04594, "bike_id": "27d170f0ae3d310a9fd84c322ae6f2a0", "fusion_lat": 0.0, "name": "27d170f0ae3d310a9fd84c322ae6f2a0", "is_reserved": 0, "rental_uris": {"android": "https://dc.lft.to/lastmile_qr_scan", "ios": "https://dc.lft.to/lastmile_qr_scan"}, "fusion_lon": 0.0}, {"lat": 38.92496366666666, "is_disabled": 0, "type": "electric_scooter", "lon": -77.0215225, "bike_id": "3fc95f59342aad0d2088a1a5546656d3", "fusion_lat": 0.0, "name": "3fc95f59342aad0d2088a1a5546656d3", "is_reserved": 0, "rental_uris": {"android": "https://dc.lft.to/lastmile_qr_scan", "ios": "https://dc.lft.to/lastmile_qr_scan"}, "fusion_lon": 0.0}, {"lat": 38.889276, "is_disabled": 0, "type": "electric_scooter", "lon": -76.9737615, "bike_id": "b335ce0c2abda800b061c874fdf49873", "fusion_lat": 0.0, "name": "b335ce0c2abda800b061c874fdf49873", "is_reserved": 0, "rental_uris": {"android": "https://dc.lft.to/lastmile_qr_scan", "ios": "https://dc.lft.to/lastmile_qr_scan"}, "fusion_lon": 0.0}, {"lat": 38.879814833333334, "is_disabled": 0, "type": "electric_bike", "lon": -76.91599983333333, "bike_id": "fb5ad2d09dc0df4b31abfcb6d224be72", "fusion_lat": 0.0, "name": "fb5ad2d09dc0df4b31abfcb6d224be72", "is_reserved": 0, "rental_uris": {"android": "https://dc.lft.to/lastmile_qr_scan", "ios": "https://dc.lft.to/lastmile_qr_scan"}, "fusion_lon": 0.0}, {"lat": 38.909425166666665, "is_disabled": 0, "type": "electric_scooter", "lon": -77.03854366666667, "bike_id": "39c3c16cab413e2de3b7c6fce5f0dd5a", "fusion_lat": 0.0, "name": "39c3c16cab413e2de3b7c6fce5f0dd5a", "is_reserved": 0, "rental_uris": {"android": "https://dc.lft.to/lastmile_qr_scan", "ios": "https://dc.lft.to/lastmile_qr_scan"}, "fusion_lon": 0.0}, {"lat": 38.91619983333333, "is_disabled": 0, "type": "electric_scooter", "lon": -77.03273833333333, "bike_id": "68b9f1946bcc293c635ba8e0ac7fddfb", "fusion_lat": 0.0, "name": "68b9f1946bcc293c635ba8e0ac7fddfb", "is_reserved": 0, "rental_uris": {"android": "https://dc.lft.to/lastmile_qr_scan", "ios": "https://dc.lft.to/lastmile_qr_scan"}, "fusion_lon": 0.0}, {"lat": 38.83693066666667, "is_disabled": 0, "type": "electric_scooter", "lon": -77.1030575, "bike_id": "fcc24c04d1718266bbae82895558291b", "fusion_lat": 0.0, "name": "fcc24c04d1718266bbae82895558291b", "is_reserved": 0, "rental_uris": {"android": "https://dc.lft.to/lastmile_qr_scan", "ios": "https://dc.lft.to/lastmile_qr_scan"}, "fusion_lon": 0.0}, {"lat": 38.881120833333334, "is_disabled": 0, "type": "electric_scooter", "lon": -76.98337933333333, "bike_id": "5cc561dc66df82445bb6e2ac40ef5998", "fusion_lat": 0.0, "name": "5cc561dc66df82445bb6e2ac40ef5998", "is_reserved": 0, "rental_uris": {"android": "https://dc.lft.to/lastmile_qr_scan", "ios": "https://dc.lft.to/lastmile_qr_scan"}, "fusion_lon": 0.0}, {"lat": 38.93667683333334, "is_disabled": 0, "type": "electric_scooter", "lon": -77.05932333333334, "bike_id": "906295fce7adb7d2bfb126ae1b7c3d8b", "fusion_lat": 0.0, "name": "906295fce7adb7d2bfb126ae1b7c3d8b", "is_reserved": 0, "rental_uris": {"android": "https://dc.lft.to/lastmile_qr_scan", "ios": "https://dc.lft.to/lastmile_qr_scan"}, "fusion_lon": 0.0}, {"lat": 38.867153333333334, "is_disabled": 0, "type": "electric_scooter", "lon": -76.98730216666667, "bike_id": "f413865fbfe5c7f704436cec02ff4649", "fusion_lat": 0.0, "name": "f413865fbfe5c7f704436cec02ff4649", "is_reserved": 0, "rental_uris": {"android": "https://dc.lft.to/lastmile_qr_scan", "ios": "https://dc.lft.to/lastmile_qr_scan"}, "fusion_lon": 0.0}, {"lat": 38.871437, "is_disabled": 0, "type": "electric_bike", "lon": -76.93706666666667, "bike_id": "ba50973fa89587020888bc19ca341323", "fusion_lat": 0.0, "name": "ba50973fa89587020888bc19ca341323", "is_reserved": 0, "rental_uris": {"android": "https://dc.lft.to/lastmile_qr_scan", "ios": "https://dc.lft.to/lastmile_qr_scan"}, "fusion_lon": 0.0}, {"lat": 38.92693366666666, "is_disabled": 0, "type": "electric_scooter", "lon": -77.02091783333333, "bike_id": "0b13bddcdcb349c9b56e187185bccd4b", "fusion_lat": 0.0, "name": "0b13bddcdcb349c9b56e187185bccd4b", "is_reserved": 0, "rental_uris": {"android": "https://dc.lft.to/lastmile_qr_scan", "ios": "https://dc.lft.to/lastmile_qr_scan"}, "fusion_lon": 0.0}, {"lat": 38.845678166666666, "is_disabled": 0, "type": "electric_bike", "lon": -77.09625166666666, "bike_id": "576a2d2c59b5f4a129755b847bc01577", "fusion_lat": 0.0, "name": "576a2d2c59b5f4a129755b847bc01577", "is_reserved": 0, "rental_uris": {"android": "https://dc.lft.to/lastmile_qr_scan", "ios": "https://dc.lft.to/lastmile_qr_scan"}, "fusion_lon": 0.0}, {"lat": 38.900728666666666, "is_disabled": 0, "type": "electric_scooter", "lon": -77.0506565, "bike_id": "cc35ed146a21b3f8cdee2037d15b8a34", "fusion_lat": 0.0, "name": "cc35ed146a21b3f8cdee2037d15b8a34", "is_reserved": 0, "rental_uris": {"android": "https://dc.lft.to/lastmile_qr_scan", "ios": "https://dc.lft.to/lastmile_qr_scan"}, "fusion_lon": 0.0}, {"lat": 38.900734166666666, "is_disabled": 0, "type": "electric_scooter", "lon": -77.04386266666667, "bike_id": "38c0b27afbe33e10e28dcdbca6e9c2f6", "fusion_lat": 0.0, "name": "38c0b27afbe33e10e28dcdbca6e9c2f6", "is_reserved": 0, "rental_uris": {"android": "https://dc.lft.to/lastmile_qr_scan", "ios": "https://dc.lft.to/lastmile_qr_scan"}, "fusion_lon": 0.0}, {"lat": 38.876272666666665, "is_disabled": 0, "type": "electric_scooter", "lon": -76.96525733333333, "bike_id": "352699b8cff5b47e0264da1f6db3a0be", "fusion_lat": 0.0, "name": "352699b8cff5b47e0264da1f6db3a0be", "is_reserved": 0, "rental_uris": {"android": "https://dc.lft.to/lastmile_qr_scan", "ios": "https://dc.lft.to/lastmile_qr_scan"}, "fusion_lon": 0.0}, {"lat": 38.90733316666667, "is_disabled": 0, "type": "electric_scooter", "lon": -77.0478615, "bike_id": "86678541f698fff58302c2fe120a30b8", "fusion_lat": 0.0, "name": "86678541f698fff58302c2fe120a30b8", "is_reserved": 0, "rental_uris": {"android": "https://dc.lft.to/lastmile_qr_scan", "ios": "https://dc.lft.to/lastmile_qr_scan"}, "fusion_lon": 0.0}, {"lat": 38.91119366666667, "is_disabled": 0, "type": "electric_scooter", "lon": -77.04219683333334, "bike_id": "bcb5eaf09f80e97b4f8893082fa2e54b", "fusion_lat": 0.0, "name": "bcb5eaf09f80e97b4f8893082fa2e54b", "is_reserved": 0, "rental_uris": {"android": "https://dc.lft.to/lastmile_qr_scan", "ios": "https://dc.lft.to/lastmile_qr_scan"}, "fusion_lon": 0.0}, {"lat": 38.92247716666667, "is_disabled": 0, "type": "electric_scooter", "lon": -77.03085283333333, "bike_id": "2686d55e2230f7f352885396e559f033", "fusion_lat": 0.0, "name": "2686d55e2230f7f352885396e559f033", "is_reserved": 0, "rental_uris": {"android": "https://dc.lft.to/lastmile_qr_scan", "ios": "https://dc.lft.to/lastmile_qr_scan"}, "fusion_lon": 0.0}, {"lat": 38.9417385, "is_disabled": 0, "type": "electric_scooter", "lon": -77.03282916666667, "bike_id": "d0e0de0ae4a0d09f9761ba52e6f3cce7", "fusion_lat": 0.0, "name": "d0e0de0ae4a0d09f9761ba52e6f3cce7", "is_reserved": 0, "rental_uris": {"android": "https://dc.lft.to/lastmile_qr_scan", "ios": "https://dc.lft.to/lastmile_qr_scan"}, "fusion_lon": 0.0}, {"lat": 38.91954916666667, "is_disabled": 0, "type": "electric_scooter", "lon": -77.04882266666667, "bike_id": "feeb3e8f3d954e2d7db64d5cdf4183fe", "fusion_lat": 0.0, "name": "feeb3e8f3d954e2d7db64d5cdf4183fe", "is_reserved": 0, "rental_uris": {"android": "https://dc.lft.to/lastmile_qr_scan", "ios": "https://dc.lft.to/lastmile_qr_scan"}, "fusion_lon": 0.0}, {"lat": 38.94155533333333, "is_disabled": 0, "type": "electric_scooter", "lon": -77.03281983333333, "bike_id": "f6e293f6405b2c5c8b723fdbb5b5cd7a", "fusion_lat": 0.0, "name": "f6e293f6405b2c5c8b723fdbb5b5cd7a", "is_reserved": 0, "rental_uris": {"android": "https://dc.lft.to/lastmile_qr_scan", "ios": "https://dc.lft.to/lastmile_qr_scan"}, "fusion_lon": 0.0}, {"lat": 38.873424166666666, "is_disabled": 0, "type": "electric_scooter", "lon": -76.9916795, "bike_id": "84e04c0ffc5c5110e26255c6f36c16bc", "fusion_lat": 0.0, "name": "84e04c0ffc5c5110e26255c6f36c16bc", "is_reserved": 0, "rental_uris": {"android": "https://dc.lft.to/lastmile_qr_scan", "ios": "https://dc.lft.to/lastmile_qr_scan"}, "fusion_lon": 0.0}, {"lat": 38.901183, "is_disabled": 0, "type": "electric_scooter", "lon": -77.033088, "bike_id": "7a5dd4365a7ffc8c5a135c1c6a7c2be6", "fusion_lat": 0.0, "name": "7a5dd4365a7ffc8c5a135c1c6a7c2be6", "is_reserved": 0, "rental_uris": {"android": "https://dc.lft.to/lastmile_qr_scan", "ios": "https://dc.lft.to/lastmile_qr_scan"}, "fusion_lon": 0.0}, {"lat": 38.902243, "is_disabled": 0, "type": "electric_scooter", "lon": -77.02594516666667, "bike_id": "565cd0bcfcc1ef8f125b1b4b5ba33b31", "fusion_lat": 0.0, "name": "565cd0bcfcc1ef8f125b1b4b5ba33b31", "is_reserved": 0, "rental_uris": {"android": "https://dc.lft.to/lastmile_qr_scan", "ios": "https://dc.lft.to/lastmile_qr_scan"}, "fusion_lon": 0.0}, {"lat": 38.863488333333336, "is_disabled": 0, "type": "electric_scooter", "lon": -76.99, "bike_id": "7f80dcec5463a029c6d0e4ec0e39d3f9", "fusion_lat": 0.0, "name": "7f80dcec5463a029c6d0e4ec0e39d3f9", "is_reserved": 0, "rental_uris": {"android": "https://dc.lft.to/lastmile_qr_scan", "ios": "https://dc.lft.to/lastmile_qr_scan"}, "fusion_lon": 0.0}, {"lat": 38.955602999999996, "is_disabled": 0, "type": "electric_bike", "lon": -76.93540683333333, "bike_id": "59b51e5b9743d23ed8ff5a1d8ff59b55", "fusion_lat": 0.0, "name": "59b51e5b9743d23ed8ff5a1d8ff59b55", "is_reserved": 0, "rental_uris": {"android": "https://dc.lft.to/lastmile_qr_scan", "ios": "https://dc.lft.to/lastmile_qr_scan"}, "fusion_lon": 0.0}, {"lat": 38.848696833333335, "is_disabled": 0, "type": "electric_scooter", "lon": -76.97693266666667, "bike_id": "db38a569cda7889d0ce6091aa31eaea5", "fusion_lat": 0.0, "name": "db38a569cda7889d0ce6091aa31eaea5", "is_reserved": 0, "rental_uris": {"android": "https://dc.lft.to/lastmile_qr_scan", "ios": "https://dc.lft.to/lastmile_qr_scan"}, "fusion_lon": 0.0}, {"lat": 38.912478, "is_disabled": 0, "type": "electric_scooter", "lon": -77.04761483333333, "bike_id": "0e51dfe3a4c7536c414d943cdcdf9080", "fusion_lat": 0.0, "name": "0e51dfe3a4c7536c414d943cdcdf9080", "is_reserved": 0, "rental_uris": {"android": "https://dc.lft.to/lastmile_qr_scan", "ios": "https://dc.lft.to/lastmile_qr_scan"}, "fusion_lon": 0.0}, {"lat": 38.91555266666667, "is_disabled": 0, "type": "electric_scooter", "lon": -77.02428383333333, "bike_id": "4ededca73a25c081b2386fcec504ae37", "fusion_lat": 0.0, "name": "4ededca73a25c081b2386fcec504ae37", "is_reserved": 0, "rental_uris": {"android": "https://dc.lft.to/lastmile_qr_scan", "ios": "https://dc.lft.to/lastmile_qr_scan"}, "fusion_lon": 0.0}, {"lat": 38.898808333333335, "is_disabled": 0, "type": "electric_scooter", "lon": -77.05338133333333, "bike_id": "ecd7ea3ff92da5b305f77dc3491ff576", "fusion_lat": 0.0, "name": "ecd7ea3ff92da5b305f77dc3491ff576", "is_reserved": 0, "rental_uris": {"android": "https://dc.lft.to/lastmile_qr_scan", "ios": "https://dc.lft.to/lastmile_qr_scan"}, "fusion_lon": 0.0}, {"lat": 38.882780333333336, "is_disabled": 0, "type": "electric_bike", "lon": -76.98778833333333, "bike_id": "5035cd9cf9acb45a3933d6aaa6f7041b", "fusion_lat": 0.0, "name": "5035cd9cf9acb45a3933d6aaa6f7041b", "is_reserved": 0, "rental_uris": {"android": "https://dc.lft.to/lastmile_qr_scan", "ios": "https://dc.lft.to/lastmile_qr_scan"}, "fusion_lon": 0.0}, {"lat": 38.89919033333334, "is_disabled": 0, "type": "electric_scooter", "lon": -76.93381666666667, "bike_id": "c63d9c7c268227e7e0c2902855e294e3", "fusion_lat": 0.0, "name": "c63d9c7c268227e7e0c2902855e294e3", "is_reserved": 0, "rental_uris": {"android": "https://dc.lft.to/lastmile_qr_scan", "ios": "https://dc.lft.to/lastmile_qr_scan"}, "fusion_lon": 0.0}, {"lat": 38.92588966666667, "is_disabled": 0, "type": "electric_scooter", "lon": -77.02835833333333, "bike_id": "e374d2dbf7e6067d13e6036d157a6f3c", "fusion_lat": 0.0, "name": "e374d2dbf7e6067d13e6036d157a6f3c", "is_reserved": 0, "rental_uris": {"android": "https://dc.lft.to/lastmile_qr_scan", "ios": "https://dc.lft.to/lastmile_qr_scan"}, "fusion_lon": 0.0}, {"lat": 39.000123, "is_disabled": 0, "type": "electric_bike", "lon": -76.91081833333334, "bike_id": "02493229e15dbfad4ee1bff8bc7b42c6", "fusion_lat": 0.0, "name": "02493229e15dbfad4ee1bff8bc7b42c6", "is_reserved": 0, "rental_uris": {"android": "https://dc.lft.to/lastmile_qr_scan", "ios": "https://dc.lft.to/lastmile_qr_scan"}, "fusion_lon": 0.0}, {"lat": 38.86558633333333, "is_disabled": 0, "type": "electric_scooter", "lon": -76.9742225, "bike_id": "8e79a3b6528f44330adc6e8e6b81c0ee", "fusion_lat": 0.0, "name": "8e79a3b6528f44330adc6e8e6b81c0ee", "is_reserved": 0, "rental_uris": {"android": "https://dc.lft.to/lastmile_qr_scan", "ios": "https://dc.lft.to/lastmile_qr_scan"}, "fusion_lon": 0.0}, {"lat": 38.900855, "is_disabled": 0, "type": "electric_scooter", "lon": -77.049192, "bike_id": "39ca8b788877e34d0260ab9858fd5bde", "fusion_lat": 0.0, "name": "39ca8b788877e34d0260ab9858fd5bde", "is_reserved": 0, "rental_uris": {"android": "https://dc.lft.to/lastmile_qr_scan", "ios": "https://dc.lft.to/lastmile_qr_scan"}, "fusion_lon": 0.0}, {"lat": 38.85325116666667, "is_disabled": 0, "type": "electric_bike", "lon": -76.9800745, "bike_id": "2ad5400e0ace4f2cce324e0c0d886002", "fusion_lat": 0.0, "name": "2ad5400e0ace4f2cce324e0c0d886002", "is_reserved": 0, "rental_uris": {"android": "https://dc.lft.to/lastmile_qr_scan", "ios": "https://dc.lft.to/lastmile_qr_scan"}, "fusion_lon": 0.0}, {"lat": 38.863904, "is_disabled": 0, "type": "electric_bike", "lon": -76.98989466666667, "bike_id": "69332a56b3166cb581262eb73b1bd127", "fusion_lat": 0.0, "name": "69332a56b3166cb581262eb73b1bd127", "is_reserved": 0, "rental_uris": {"android": "https://dc.lft.to/lastmile_qr_scan", "ios": "https://dc.lft.to/lastmile_qr_scan"}, "fusion_lon": 0.0}, {"lat": 38.93302383333334, "is_disabled": 0, "type": "electric_scooter", "lon": -77.028515, "bike_id": "ae73f898b22a2c09fb78907b7c64849e", "fusion_lat": 0.0, "name": "ae73f898b22a2c09fb78907b7c64849e", "is_reserved": 0, "rental_uris": {"android": "https://dc.lft.to/lastmile_qr_scan", "ios": "https://dc.lft.to/lastmile_qr_scan"}, "fusion_lon": 0.0}, {"lat": 38.9279585, "is_disabled": 0, "type": "electric_scooter", "lon": -77.055299, "bike_id": "05a7d3f2f3871d487b7523314c80a876", "fusion_lat": 0.0, "name": "05a7d3f2f3871d487b7523314c80a876", "is_reserved": 0, "rental_uris": {"android": "https://dc.lft.to/lastmile_qr_scan", "ios": "https://dc.lft.to/lastmile_qr_scan"}, "fusion_lon": 0.0}, {"lat": 38.95337583333333, "is_disabled": 0, "type": "electric_bike", "lon": -76.97364183333333, "bike_id": "063bd8f22256108083eacebacdfc2796", "fusion_lat": 0.0, "name": "063bd8f22256108083eacebacdfc2796", "is_reserved": 0, "rental_uris": {"android": "https://dc.lft.to/lastmile_qr_scan", "ios": "https://dc.lft.to/lastmile_qr_scan"}, "fusion_lon": 0.0}, {"lat": 38.938777, "is_disabled": 0, "type": "electric_scooter", "lon": -77.020086, "bike_id": "8cfe57f115a2544869d325edba161c25", "fusion_lat": 0.0, "name": "8cfe57f115a2544869d325edba161c25", "is_reserved": 0, "rental_uris": {"android": "https://dc.lft.to/lastmile_qr_scan", "ios": "https://dc.lft.to/lastmile_qr_scan"}, "fusion_lon": 0.0}, {"lat": 38.902961833333336, "is_disabled": 0, "type": "electric_scooter", "lon": -77.03359516666667, "bike_id": "bcf752c173484fc34154e957a443b9b3", "fusion_lat": 0.0, "name": "bcf752c173484fc34154e957a443b9b3", "is_reserved": 0, "rental_uris": {"android": "https://dc.lft.to/lastmile_qr_scan", "ios": "https://dc.lft.to/lastmile_qr_scan"}, "fusion_lon": 0.0}, {"lat": 38.933684666666664, "is_disabled": 0, "type": "electric_scooter", "lon": -77.02379133333334, "bike_id": "c00f225241bf91713ae4cecefa46053f", "fusion_lat": 0.0, "name": "c00f225241bf91713ae4cecefa46053f", "is_reserved": 0, "rental_uris": {"android": "https://dc.lft.to/lastmile_qr_scan", "ios": "https://dc.lft.to/lastmile_qr_scan"}, "fusion_lon": 0.0}, {"lat": 38.8665505, "is_disabled": 0, "type": "electric_scooter", "lon": -76.98886816666666, "bike_id": "06c17ee9c82408b4a4049d1617c8b073", "fusion_lat": 0.0, "name": "06c17ee9c82408b4a4049d1617c8b073", "is_reserved": 0, "rental_uris": {"android": "https://dc.lft.to/lastmile_qr_scan", "ios": "https://dc.lft.to/lastmile_qr_scan"}, "fusion_lon": 0.0}, {"lat": 38.921625166666665, "is_disabled": 0, "type": "electric_scooter", "lon": -77.03349766666666, "bike_id": "fab26ab29b5cade2da0259ce5c21aa9d", "fusion_lat": 0.0, "name": "fab26ab29b5cade2da0259ce5c21aa9d", "is_reserved": 0, "rental_uris": {"android": "https://dc.lft.to/lastmile_qr_scan", "ios": "https://dc.lft.to/lastmile_qr_scan"}, "fusion_lon": 0.0}, {"lat": 38.923089, "is_disabled": 0, "type": "electric_scooter", "lon": -77.03961516666666, "bike_id": "e47d0b103959e9f583521e2e81cd82c2", "fusion_lat": 0.0, "name": "e47d0b103959e9f583521e2e81cd82c2", "is_reserved": 0, "rental_uris": {"android": "https://dc.lft.to/lastmile_qr_scan", "ios": "https://dc.lft.to/lastmile_qr_scan"}, "fusion_lon": 0.0}, {"lat": 38.905745333333336, "is_disabled": 0, "type": "electric_scooter", "lon": -77.0295675, "bike_id": "ec3e5059a517a9c9758ea430cd3484fe", "fusion_lat": 0.0, "name": "ec3e5059a517a9c9758ea430cd3484fe", "is_reserved": 0, "rental_uris": {"android": "https://dc.lft.to/lastmile_qr_scan", "ios": "https://dc.lft.to/lastmile_qr_scan"}, "fusion_lon": 0.0}, {"lat": 38.913600833333334, "is_disabled": 0, "type": "electric_scooter", "lon": -77.06924566666666, "bike_id": "14bcdacfae2d02c07a01313447e0ad08", "fusion_lat": 0.0, "name": "14bcdacfae2d02c07a01313447e0ad08", "is_reserved": 0, "rental_uris": {"android": "https://dc.lft.to/lastmile_qr_scan", "ios": "https://dc.lft.to/lastmile_qr_scan"}, "fusion_lon": 0.0}, {"lat": 38.9314145, "is_disabled": 0, "type": "electric_scooter", "lon": -77.04143766666667, "bike_id": "9217e312329c1d73f16816a025ba8a05", "fusion_lat": 0.0, "name": "9217e312329c1d73f16816a025ba8a05", "is_reserved": 0, "rental_uris": {"android": "https://dc.lft.to/lastmile_qr_scan", "ios": "https://dc.lft.to/lastmile_qr_scan"}, "fusion_lon": 0.0}, {"lat": 38.852069666666665, "is_disabled": 0, "type": "electric_bike", "lon": -77.101336, "bike_id": "28f874d67d00dd14798f54e06468dbe5", "fusion_lat": 0.0, "name": "28f874d67d00dd14798f54e06468dbe5", "is_reserved": 0, "rental_uris": {"android": "https://dc.lft.to/lastmile_qr_scan", "ios": "https://dc.lft.to/lastmile_qr_scan"}, "fusion_lon": 0.0}, {"lat": 38.92014783333333, "is_disabled": 0, "type": "electric_scooter", "lon": -77.02384916666666, "bike_id": "d56ebdf82d930af83165f5c56d80f8f4", "fusion_lat": 0.0, "name": "d56ebdf82d930af83165f5c56d80f8f4", "is_reserved": 0, "rental_uris": {"android": "https://dc.lft.to/lastmile_qr_scan", "ios": "https://dc.lft.to/lastmile_qr_scan"}, "fusion_lon": 0.0}, {"lat": 38.923288, "is_disabled": 0, "type": "electric_scooter", "lon": -77.0358345, "bike_id": "de03d220109f8234848bad14cf2df09d", "fusion_lat": 0.0, "name": "de03d220109f8234848bad14cf2df09d", "is_reserved": 0, "rental_uris": {"android": "https://dc.lft.to/lastmile_qr_scan", "ios": "https://dc.lft.to/lastmile_qr_scan"}, "fusion_lon": 0.0}, {"lat": 38.91012383333333, "is_disabled": 0, "type": "electric_scooter", "lon": -77.02688966666666, "bike_id": "a2e2ebd014d83a6cd1c601dc0cef7b27", "fusion_lat": 0.0, "name": "a2e2ebd014d83a6cd1c601dc0cef7b27", "is_reserved": 0, "rental_uris": {"android": "https://dc.lft.to/lastmile_qr_scan", "ios": "https://dc.lft.to/lastmile_qr_scan"}, "fusion_lon": 0.0}, {"lat": 38.912924333333336, "is_disabled": 0, "type": "electric_scooter", "lon": -77.04017016666667, "bike_id": "4a3c66bb941fb600c16d70fed7f7a55a", "fusion_lat": 0.0, "name": "4a3c66bb941fb600c16d70fed7f7a55a", "is_reserved": 0, "rental_uris": {"android": "https://dc.lft.to/lastmile_qr_scan", "ios": "https://dc.lft.to/lastmile_qr_scan"}, "fusion_lon": 0.0}, {"lat": 38.917116, "is_disabled": 0, "type": "electric_scooter", "lon": -77.0347595, "bike_id": "a27e140ad6e8b7606816fdb395f1970e", "fusion_lat": 0.0, "name": "a27e140ad6e8b7606816fdb395f1970e", "is_reserved": 0, "rental_uris": {"android": "https://dc.lft.to/lastmile_qr_scan", "ios": "https://dc.lft.to/lastmile_qr_scan"}, "fusion_lon": 0.0}, {"lat": 38.926799, "is_disabled": 0, "type": "electric_scooter", "lon": -77.02859466666666, "bike_id": "fa873cdb21d6a436397fb8693cc0fff6", "fusion_lat": 0.0, "name": "fa873cdb21d6a436397fb8693cc0fff6", "is_reserved": 0, "rental_uris": {"android": "https://dc.lft.to/lastmile_qr_scan", "ios": "https://dc.lft.to/lastmile_qr_scan"}, "fusion_lon": 0.0}, {"lat": 38.97087616666666, "is_disabled": 0, "type": "electric_bike", "lon": -77.0696875, "bike_id": "8a771c0de70ba7cfe5f3367a4993c0bb", "fusion_lat": 0.0, "name": "8a771c0de70ba7cfe5f3367a4993c0bb", "is_reserved": 0, "rental_uris": {"android": "https://dc.lft.to/lastmile_qr_scan", "ios": "https://dc.lft.to/lastmile_qr_scan"}, "fusion_lon": 0.0}, {"lat": 38.90352383333333, "is_disabled": 0, "type": "electric_scooter", "lon": -77.042597, "bike_id": "8d8809f672d4f04c58a1c946e3edad2b", "fusion_lat": 0.0, "name": "8d8809f672d4f04c58a1c946e3edad2b", "is_reserved": 0, "rental_uris": {"android": "https://dc.lft.to/lastmile_qr_scan", "ios": "https://dc.lft.to/lastmile_qr_scan"}, "fusion_lon": 0.0}, {"lat": 38.9256645, "is_disabled": 0, "type": "electric_scooter", "lon": -77.03538466666667, "bike_id": "86bcf87ec39ffb8cc3e18516a5cdbe4b", "fusion_lat": 0.0, "name": "86bcf87ec39ffb8cc3e18516a5cdbe4b", "is_reserved": 0, "rental_uris": {"android": "https://dc.lft.to/lastmile_qr_scan", "ios": "https://dc.lft.to/lastmile_qr_scan"}, "fusion_lon": 0.0}, {"lat": 38.90805266666667, "is_disabled": 0, "type": "electric_scooter", "lon": -76.98278533333334, "bike_id": "b2552a703c8d26d08e7d0d139f659d1b", "fusion_lat": 0.0, "name": "b2552a703c8d26d08e7d0d139f659d1b", "is_reserved": 0, "rental_uris": {"android": "https://dc.lft.to/lastmile_qr_scan", "ios": "https://dc.lft.to/lastmile_qr_scan"}, "fusion_lon": 0.0}, {"lat": 38.90274466666666, "is_disabled": 0, "type": "electric_scooter", "lon": -77.033806, "bike_id": "34f49529d663f9368285232dd4d01fa6", "fusion_lat": 0.0, "name": "34f49529d663f9368285232dd4d01fa6", "is_reserved": 0, "rental_uris": {"android": "https://dc.lft.to/lastmile_qr_scan", "ios": "https://dc.lft.to/lastmile_qr_scan"}, "fusion_lon": 0.0}, {"lat": 38.905545000000004, "is_disabled": 0, "type": "electric_scooter", "lon": -77.03412116666667, "bike_id": "9d6a3df03762bcdfdade45aa4a23b277", "fusion_lat": 0.0, "name": "9d6a3df03762bcdfdade45aa4a23b277", "is_reserved": 0, "rental_uris": {"android": "https://dc.lft.to/lastmile_qr_scan", "ios": "https://dc.lft.to/lastmile_qr_scan"}, "fusion_lon": 0.0}, {"lat": 38.91423533333333, "is_disabled": 0, "type": "electric_scooter", "lon": -77.02203616666667, "bike_id": "3895193e94d4b67abbed8deb5866e911", "fusion_lat": 0.0, "name": "3895193e94d4b67abbed8deb5866e911", "is_reserved": 0, "rental_uris": {"android": "https://dc.lft.to/lastmile_qr_scan", "ios": "https://dc.lft.to/lastmile_qr_scan"}, "fusion_lon": 0.0}, {"lat": 38.972790833333335, "is_disabled": 0, "type": "electric_bike", "lon": -77.03626916666667, "bike_id": "ecb5a7a63157d2d3f587e28470405f46", "fusion_lat": 0.0, "name": "ecb5a7a63157d2d3f587e28470405f46", "is_reserved": 0, "rental_uris": {"android": "https://dc.lft.to/lastmile_qr_scan", "ios": "https://dc.lft.to/lastmile_qr_scan"}, "fusion_lon": 0.0}, {"lat": 38.893504166666666, "is_disabled": 0, "type": "electric_scooter", "lon": -76.949315, "bike_id": "fd7c5399cbf0fd4a02410c7cf39ce047", "fusion_lat": 0.0, "name": "fd7c5399cbf0fd4a02410c7cf39ce047", "is_reserved": 0, "rental_uris": {"android": "https://dc.lft.to/lastmile_qr_scan", "ios": "https://dc.lft.to/lastmile_qr_scan"}, "fusion_lon": 0.0}, {"lat": 38.89481716666667, "is_disabled": 0, "type": "electric_scooter", "lon": -77.02118016666667, "bike_id": "8b7369ce49e20c8e506896b3e4e85416", "fusion_lat": 0.0, "name": "8b7369ce49e20c8e506896b3e4e85416", "is_reserved": 0, "rental_uris": {"android": "https://dc.lft.to/lastmile_qr_scan", "ios": "https://dc.lft.to/lastmile_qr_scan"}, "fusion_lon": 0.0}, {"lat": 38.918171, "is_disabled": 0, "type": "electric_scooter", "lon": -77.039152, "bike_id": "fd4e9a42609b54b1543a9d7b145144f3", "fusion_lat": 0.0, "name": "fd4e9a42609b54b1543a9d7b145144f3", "is_reserved": 0, "rental_uris": {"android": "https://dc.lft.to/lastmile_qr_scan", "ios": "https://dc.lft.to/lastmile_qr_scan"}, "fusion_lon": 0.0}, {"lat": 38.880776166666664, "is_disabled": 0, "type": "electric_bike", "lon": -77.10927316666667, "bike_id": "ba7b25d9e8acb003c315f1a77acfc332", "fusion_lat": 0.0, "name": "ba7b25d9e8acb003c315f1a77acfc332", "is_reserved": 0, "rental_uris": {"android": "https://dc.lft.to/lastmile_qr_scan", "ios": "https://dc.lft.to/lastmile_qr_scan"}, "fusion_lon": 0.0}, {"lat": 38.90979683333333, "is_disabled": 0, "type": "electric_bike", "lon": -76.98516583333333, "bike_id": "26e5b02adadf957424888ec27fd87c11", "fusion_lat": 0.0, "name": "26e5b02adadf957424888ec27fd87c11", "is_reserved": 0, "rental_uris": {"android": "https://dc.lft.to/lastmile_qr_scan", "ios": "https://dc.lft.to/lastmile_qr_scan"}, "fusion_lon": 0.0}, {"lat": 38.907985833333335, "is_disabled": 0, "type": "electric_scooter", "lon": -77.04330833333333, "bike_id": "4382546fb95040dd5eb76df9c3bbce31", "fusion_lat": 0.0, "name": "4382546fb95040dd5eb76df9c3bbce31", "is_reserved": 0, "rental_uris": {"android": "https://dc.lft.to/lastmile_qr_scan", "ios": "https://dc.lft.to/lastmile_qr_scan"}, "fusion_lon": 0.0}, {"lat": 38.903571166666666, "is_disabled": 0, "type": "electric_scooter", "lon": -77.05341733333333, "bike_id": "0c0157bd8a6bd36eed9e4fd4216b814b", "fusion_lat": 0.0, "name": "0c0157bd8a6bd36eed9e4fd4216b814b", "is_reserved": 0, "rental_uris": {"android": "https://dc.lft.to/lastmile_qr_scan", "ios": "https://dc.lft.to/lastmile_qr_scan"}, "fusion_lon": 0.0}, {"lat": 38.9337655, "is_disabled": 0, "type": "electric_scooter", "lon": -77.0379415, "bike_id": "d3411c46fef19653e4fb51e378a9b196", "fusion_lat": 0.0, "name": "d3411c46fef19653e4fb51e378a9b196", "is_reserved": 0, "rental_uris": {"android": "https://dc.lft.to/lastmile_qr_scan", "ios": "https://dc.lft.to/lastmile_qr_scan"}, "fusion_lon": 0.0}, {"lat": 38.919639, "is_disabled": 0, "type": "electric_bike", "lon": -76.9726655, "bike_id": "685cda30f71ae23e50722edbb1c4570a", "fusion_lat": 0.0, "name": "685cda30f71ae23e50722edbb1c4570a", "is_reserved": 0, "rental_uris": {"android": "https://dc.lft.to/lastmile_qr_scan", "ios": "https://dc.lft.to/lastmile_qr_scan"}, "fusion_lon": 0.0}, {"lat": 38.919509166666664, "is_disabled": 0, "type": "electric_scooter", "lon": -77.0488535, "bike_id": "e51e13fd30ea039a3081f46a1a100c41", "fusion_lat": 0.0, "name": "e51e13fd30ea039a3081f46a1a100c41", "is_reserved": 0, "rental_uris": {"android": "https://dc.lft.to/lastmile_qr_scan", "ios": "https://dc.lft.to/lastmile_qr_scan"}, "fusion_lon": 0.0}, {"lat": 38.962704, "is_disabled": 0, "type": "electric_bike", "lon": -77.03255466666667, "bike_id": "cc9f56fb0fd696a2ed03ef01e1a45153", "fusion_lat": 0.0, "name": "cc9f56fb0fd696a2ed03ef01e1a45153", "is_reserved": 0, "rental_uris": {"android": "https://dc.lft.to/lastmile_qr_scan", "ios": "https://dc.lft.to/lastmile_qr_scan"}, "fusion_lon": 0.0}, {"lat": 38.902138666666666, "is_disabled": 0, "type": "electric_scooter", "lon": -76.9459005, "bike_id": "ff92339b0deac58fd17b5a5a664ea6d2", "fusion_lat": 0.0, "name": "ff92339b0deac58fd17b5a5a664ea6d2", "is_reserved": 0, "rental_uris": {"android": "https://dc.lft.to/lastmile_qr_scan", "ios": "https://dc.lft.to/lastmile_qr_scan"}, "fusion_lon": 0.0}, {"lat": 38.92256833333333, "is_disabled": 0, "type": "electric_scooter", "lon": -77.030691, "bike_id": "cf47e497e66f82f5dfbe4914d495d15d", "fusion_lat": 0.0, "name": "cf47e497e66f82f5dfbe4914d495d15d", "is_reserved": 0, "rental_uris": {"android": "https://dc.lft.to/lastmile_qr_scan", "ios": "https://dc.lft.to/lastmile_qr_scan"}, "fusion_lon": 0.0}, {"lat": 38.897771666666664, "is_disabled": 0, "type": "electric_scooter", "lon": -77.043809, "bike_id": "1ac102b0a02e6e5b51503ada1bf06c68", "fusion_lat": 0.0, "name": "1ac102b0a02e6e5b51503ada1bf06c68", "is_reserved": 0, "rental_uris": {"android": "https://dc.lft.to/lastmile_qr_scan", "ios": "https://dc.lft.to/lastmile_qr_scan"}, "fusion_lon": 0.0}, {"lat": 38.930138666666664, "is_disabled": 0, "type": "electric_bike", "lon": -77.21650466666667, "bike_id": "0e7016671c86a0b618590c29936b0fba", "fusion_lat": 0.0, "name": "0e7016671c86a0b618590c29936b0fba", "is_reserved": 0, "rental_uris": {"android": "https://dc.lft.to/lastmile_qr_scan", "ios": "https://dc.lft.to/lastmile_qr_scan"}, "fusion_lon": 0.0}, {"lat": 38.901465, "is_disabled": 0, "type": "electric_bike", "lon": -76.9865335, "bike_id": "cb905abe9e5db2d5088577adea4b34e2", "fusion_lat": 0.0, "name": "cb905abe9e5db2d5088577adea4b34e2", "is_reserved": 0, "rental_uris": {"android": "https://dc.lft.to/lastmile_qr_scan", "ios": "https://dc.lft.to/lastmile_qr_scan"}, "fusion_lon": 0.0}, {"lat": 38.90728983333333, "is_disabled": 0, "type": "electric_scooter", "lon": -77.04829433333333, "bike_id": "296a3459fffbc39c871fa226e26992e1", "fusion_lat": 0.0, "name": "296a3459fffbc39c871fa226e26992e1", "is_reserved": 0, "rental_uris": {"android": "https://dc.lft.to/lastmile_qr_scan", "ios": "https://dc.lft.to/lastmile_qr_scan"}, "fusion_lon": 0.0}, {"lat": 38.914229, "is_disabled": 0, "type": "electric_scooter", "lon": -77.022011, "bike_id": "8ff6bae99163042e61e55d6b157b507a", "fusion_lat": 0.0, "name": "8ff6bae99163042e61e55d6b157b507a", "is_reserved": 0, "rental_uris": {"android": "https://dc.lft.to/lastmile_qr_scan", "ios": "https://dc.lft.to/lastmile_qr_scan"}, "fusion_lon": 0.0}, {"lat": 38.938407, "is_disabled": 0, "type": "electric_bike", "lon": -76.98861333333333, "bike_id": "281d56f408032b8d4726db7c806e5fa6", "fusion_lat": 0.0, "name": "281d56f408032b8d4726db7c806e5fa6", "is_reserved": 0, "rental_uris": {"android": "https://dc.lft.to/lastmile_qr_scan", "ios": "https://dc.lft.to/lastmile_qr_scan"}, "fusion_lon": 0.0}, {"lat": 38.90378333333334, "is_disabled": 0, "type": "electric_scooter", "lon": -77.03844633333334, "bike_id": "facfe05852a9048ae83d60701e739a2e", "fusion_lat": 0.0, "name": "facfe05852a9048ae83d60701e739a2e", "is_reserved": 0, "rental_uris": {"android": "https://dc.lft.to/lastmile_qr_scan", "ios": "https://dc.lft.to/lastmile_qr_scan"}, "fusion_lon": 0.0}, {"lat": 38.87572316666667, "is_disabled": 0, "type": "electric_scooter", "lon": -77.02075483333333, "bike_id": "9f60053b83f601a632f297198ab88329", "fusion_lat": 0.0, "name": "9f60053b83f601a632f297198ab88329", "is_reserved": 0, "rental_uris": {"android": "https://dc.lft.to/lastmile_qr_scan", "ios": "https://dc.lft.to/lastmile_qr_scan"}, "fusion_lon": 0.0}, {"lat": 38.911231, "is_disabled": 0, "type": "electric_scooter", "lon": -77.02778633333334, "bike_id": "120507aac8683cf80546c3d1b63b277f", "fusion_lat": 0.0, "name": "120507aac8683cf80546c3d1b63b277f", "is_reserved": 0, "rental_uris": {"android": "https://dc.lft.to/lastmile_qr_scan", "ios": "https://dc.lft.to/lastmile_qr_scan"}, "fusion_lon": 0.0}, {"lat": 38.91709816666667, "is_disabled": 0, "type": "electric_scooter", "lon": -77.03865283333333, "bike_id": "eec5f83fa1ef73551f3c7225eb7daa57", "fusion_lat": 0.0, "name": "eec5f83fa1ef73551f3c7225eb7daa57", "is_reserved": 0, "rental_uris": {"android": "https://dc.lft.to/lastmile_qr_scan", "ios": "https://dc.lft.to/lastmile_qr_scan"}, "fusion_lon": 0.0}, {"lat": 38.909738833333336, "is_disabled": 0, "type": "electric_scooter", "lon": -77.03870266666667, "bike_id": "942f25eeadc863e530cfee0e8d9ffac0", "fusion_lat": 0.0, "name": "942f25eeadc863e530cfee0e8d9ffac0", "is_reserved": 0, "rental_uris": {"android": "https://dc.lft.to/lastmile_qr_scan", "ios": "https://dc.lft.to/lastmile_qr_scan"}, "fusion_lon": 0.0}, {"lat": 38.91710283333333, "is_disabled": 0, "type": "electric_scooter", "lon": -77.037307, "bike_id": "9a2a5a464bc4760fadd3ca1b7efb0f00", "fusion_lat": 0.0, "name": "9a2a5a464bc4760fadd3ca1b7efb0f00", "is_reserved": 0, "rental_uris": {"android": "https://dc.lft.to/lastmile_qr_scan", "ios": "https://dc.lft.to/lastmile_qr_scan"}, "fusion_lon": 0.0}, {"lat": 38.885127833333335, "is_disabled": 0, "type": "electric_scooter", "lon": -77.00683316666667, "bike_id": "d5bb56a1238cfadb94375869a7766c4b", "fusion_lat": 0.0, "name": "d5bb56a1238cfadb94375869a7766c4b", "is_reserved": 0, "rental_uris": {"android": "https://dc.lft.to/lastmile_qr_scan", "ios": "https://dc.lft.to/lastmile_qr_scan"}, "fusion_lon": 0.0}, {"lat": 38.86373366666667, "is_disabled": 0, "type": "electric_scooter", "lon": -76.9903195, "bike_id": "a17d6e039afe17bdbaae87aa10d82ebd", "fusion_lat": 0.0, "name": "a17d6e039afe17bdbaae87aa10d82ebd", "is_reserved": 0, "rental_uris": {"android": "https://dc.lft.to/lastmile_qr_scan", "ios": "https://dc.lft.to/lastmile_qr_scan"}, "fusion_lon": 0.0}, {"lat": 38.92745333333333, "is_disabled": 0, "type": "electric_scooter", "lon": -76.99726566666666, "bike_id": "bace015cbeae5245edfe5408bb53fc92", "fusion_lat": 0.0, "name": "bace015cbeae5245edfe5408bb53fc92", "is_reserved": 0, "rental_uris": {"android": "https://dc.lft.to/lastmile_qr_scan", "ios": "https://dc.lft.to/lastmile_qr_scan"}, "fusion_lon": 0.0}, {"lat": 38.91530816666667, "is_disabled": 0, "type": "electric_scooter", "lon": -76.98213466666667, "bike_id": "ddf9c06dee8954039efeada09e8250b3", "fusion_lat": 0.0, "name": "ddf9c06dee8954039efeada09e8250b3", "is_reserved": 0, "rental_uris": {"android": "https://dc.lft.to/lastmile_qr_scan", "ios": "https://dc.lft.to/lastmile_qr_scan"}, "fusion_lon": 0.0}, {"lat": 39.03046716666667, "is_disabled": 0, "type": "electric_bike", "lon": -77.09484666666667, "bike_id": "2545ef12e880b2d5a482f2c3d2e44272", "fusion_lat": 0.0, "name": "2545ef12e880b2d5a482f2c3d2e44272", "is_reserved": 0, "rental_uris": {"android": "https://dc.lft.to/lastmile_qr_scan", "ios": "https://dc.lft.to/lastmile_qr_scan"}, "fusion_lon": 0.0}, {"lat": 38.930071833333336, "is_disabled": 0, "type": "electric_scooter", "lon": -77.02114216666666, "bike_id": "99cf233245d3554630dda94f81410c59", "fusion_lat": 0.0, "name": "99cf233245d3554630dda94f81410c59", "is_reserved": 0, "rental_uris": {"android": "https://dc.lft.to/lastmile_qr_scan", "ios": "https://dc.lft.to/lastmile_qr_scan"}, "fusion_lon": 0.0}, {"lat": 38.896566666666665, "is_disabled": 0, "type": "electric_scooter", "lon": -77.039738, "bike_id": "d2cc1edf62aea2b755c3209d0d027a66", "fusion_lat": 0.0, "name": "d2cc1edf62aea2b755c3209d0d027a66", "is_reserved": 0, "rental_uris": {"android": "https://dc.lft.to/lastmile_qr_scan", "ios": "https://dc.lft.to/lastmile_qr_scan"}, "fusion_lon": 0.0}, {"lat": 38.905787833333335, "is_disabled": 0, "type": "electric_scooter", "lon": -77.00884966666666, "bike_id": "2264ed69a66759aa3c8e3146350c3f39", "fusion_lat": 0.0, "name": "2264ed69a66759aa3c8e3146350c3f39", "is_reserved": 0, "rental_uris": {"android": "https://dc.lft.to/lastmile_qr_scan", "ios": "https://dc.lft.to/lastmile_qr_scan"}, "fusion_lon": 0.0}, {"lat": 38.90814816666666, "is_disabled": 0, "type": "electric_scooter", "lon": -77.04341283333333, "bike_id": "6b4aa8b693dc4d8335d7e2f9b3eccb52", "fusion_lat": 0.0, "name": "6b4aa8b693dc4d8335d7e2f9b3eccb52", "is_reserved": 0, "rental_uris": {"android": "https://dc.lft.to/lastmile_qr_scan", "ios": "https://dc.lft.to/lastmile_qr_scan"}, "fusion_lon": 0.0}, {"lat": 38.90063883333333, "is_disabled": 0, "type": "electric_scooter", "lon": -77.0020085, "bike_id": "490a9b0d826eeeffd67f0aab94a746b3", "fusion_lat": 0.0, "name": "490a9b0d826eeeffd67f0aab94a746b3", "is_reserved": 0, "rental_uris": {"android": "https://dc.lft.to/lastmile_qr_scan", "ios": "https://dc.lft.to/lastmile_qr_scan"}, "fusion_lon": 0.0}, {"lat": 38.89560783333334, "is_disabled": 0, "type": "electric_bike", "lon": -77.12734616666667, "bike_id": "d1a5dd18ab1ceefeafe5c45ded78b70d", "fusion_lat": 0.0, "name": "d1a5dd18ab1ceefeafe5c45ded78b70d", "is_reserved": 0, "rental_uris": {"android": "https://dc.lft.to/lastmile_qr_scan", "ios": "https://dc.lft.to/lastmile_qr_scan"}, "fusion_lon": 0.0}, {"lat": 38.92048166666667, "is_disabled": 0, "type": "electric_scooter", "lon": -77.03472533333333, "bike_id": "56b7f60e9524d38c1c3007c1c6eb725a", "fusion_lat": 0.0, "name": "56b7f60e9524d38c1c3007c1c6eb725a", "is_reserved": 0, "rental_uris": {"android": "https://dc.lft.to/lastmile_qr_scan", "ios": "https://dc.lft.to/lastmile_qr_scan"}, "fusion_lon": 0.0}, {"lat": 38.90379333333333, "is_disabled": 0, "type": "electric_scooter", "lon": -77.03847333333333, "bike_id": "c873a3d0b31f906153fa8ee0cd782cd0", "fusion_lat": 0.0, "name": "c873a3d0b31f906153fa8ee0cd782cd0", "is_reserved": 0, "rental_uris": {"android": "https://dc.lft.to/lastmile_qr_scan", "ios": "https://dc.lft.to/lastmile_qr_scan"}, "fusion_lon": 0.0}, {"lat": 38.924011666666665, "is_disabled": 0, "type": "electric_scooter", "lon": -77.07329483333334, "bike_id": "7dceda3fa0983d64d664bf58111925ab", "fusion_lat": 0.0, "name": "7dceda3fa0983d64d664bf58111925ab", "is_reserved": 0, "rental_uris": {"android": "https://dc.lft.to/lastmile_qr_scan", "ios": "https://dc.lft.to/lastmile_qr_scan"}, "fusion_lon": 0.0}, {"lat": 38.90454416666667, "is_disabled": 0, "type": "electric_scooter", "lon": -76.99456216666667, "bike_id": "7c20630d46f364b2b499441d33598119", "fusion_lat": 0.0, "name": "7c20630d46f364b2b499441d33598119", "is_reserved": 0, "rental_uris": {"android": "https://dc.lft.to/lastmile_qr_scan", "ios": "https://dc.lft.to/lastmile_qr_scan"}, "fusion_lon": 0.0}, {"lat": 38.9190155, "is_disabled": 0, "type": "electric_scooter", "lon": -77.03907883333333, "bike_id": "b3abb23782bf0d6aaf6a8135ea60dfcf", "fusion_lat": 0.0, "name": "b3abb23782bf0d6aaf6a8135ea60dfcf", "is_reserved": 0, "rental_uris": {"android": "https://dc.lft.to/lastmile_qr_scan", "ios": "https://dc.lft.to/lastmile_qr_scan"}, "fusion_lon": 0.0}, {"lat": 38.91291416666667, "is_disabled": 0, "type": "electric_scooter", "lon": -77.0238775, "bike_id": "dd9251a8c63c91c306455c62339801a5", "fusion_lat": 0.0, "name": "dd9251a8c63c91c306455c62339801a5", "is_reserved": 0, "rental_uris": {"android": "https://dc.lft.to/lastmile_qr_scan", "ios": "https://dc.lft.to/lastmile_qr_scan"}, "fusion_lon": 0.0}, {"lat": 38.90419416666667, "is_disabled": 0, "type": "electric_scooter", "lon": -77.06890916666667, "bike_id": "b1482466861762cfd3cd27f8dc5c49da", "fusion_lat": 0.0, "name": "b1482466861762cfd3cd27f8dc5c49da", "is_reserved": 0, "rental_uris": {"android": "https://dc.lft.to/lastmile_qr_scan", "ios": "https://dc.lft.to/lastmile_qr_scan"}, "fusion_lon": 0.0}, {"lat": 38.80099283333333, "is_disabled": 0, "type": "electric_bike", "lon": -77.0711045, "bike_id": "7981145c6b743e7964ad0f296a851caa", "fusion_lat": 0.0, "name": "7981145c6b743e7964ad0f296a851caa", "is_reserved": 0, "rental_uris": {"android": "https://dc.lft.to/lastmile_qr_scan", "ios": "https://dc.lft.to/lastmile_qr_scan"}, "fusion_lon": 0.0}, {"lat": 38.9217045, "is_disabled": 0, "type": "electric_scooter", "lon": -77.05136083333333, "bike_id": "2d07ec065983968f2574c4b8bcaf4888", "fusion_lat": 0.0, "name": "2d07ec065983968f2574c4b8bcaf4888", "is_reserved": 0, "rental_uris": {"android": "https://dc.lft.to/lastmile_qr_scan", "ios": "https://dc.lft.to/lastmile_qr_scan"}, "fusion_lon": 0.0}, {"lat": 38.8659595, "is_disabled": 0, "type": "electric_bike", "lon": -76.93230916666667, "bike_id": "17afdd4828b684bcfb5f2e55217fb54a", "fusion_lat": 0.0, "name": "17afdd4828b684bcfb5f2e55217fb54a", "is_reserved": 0, "rental_uris": {"android": "https://dc.lft.to/lastmile_qr_scan", "ios": "https://dc.lft.to/lastmile_qr_scan"}, "fusion_lon": 0.0}, {"lat": 38.918163, "is_disabled": 0, "type": "electric_scooter", "lon": -76.99968966666667, "bike_id": "6fc16ce95551e0bbfb95ecc09ed00d63", "fusion_lat": 0.0, "name": "6fc16ce95551e0bbfb95ecc09ed00d63", "is_reserved": 0, "rental_uris": {"android": "https://dc.lft.to/lastmile_qr_scan", "ios": "https://dc.lft.to/lastmile_qr_scan"}, "fusion_lon": 0.0}, {"lat": 38.911163, "is_disabled": 0, "type": "electric_scooter", "lon": -77.037332, "bike_id": "24e81d3e7466911ca343b29f5ddfbcbb", "fusion_lat": 0.0, "name": "24e81d3e7466911ca343b29f5ddfbcbb", "is_reserved": 0, "rental_uris": {"android": "https://dc.lft.to/lastmile_qr_scan", "ios": "https://dc.lft.to/lastmile_qr_scan"}, "fusion_lon": 0.0}, {"lat": 38.91005233333333, "is_disabled": 0, "type": "electric_scooter", "lon": -77.04007366666667, "bike_id": "58513e2e0818a12319a8aa790b5de036", "fusion_lat": 0.0, "name": "58513e2e0818a12319a8aa790b5de036", "is_reserved": 0, "rental_uris": {"android": "https://dc.lft.to/lastmile_qr_scan", "ios": "https://dc.lft.to/lastmile_qr_scan"}, "fusion_lon": 0.0}, {"lat": 38.9345245, "is_disabled": 0, "type": "electric_scooter", "lon": -77.03240083333333, "bike_id": "5cd0001f54360cf4b0b85797f4f18bfe", "fusion_lat": 0.0, "name": "5cd0001f54360cf4b0b85797f4f18bfe", "is_reserved": 0, "rental_uris": {"android": "https://dc.lft.to/lastmile_qr_scan", "ios": "https://dc.lft.to/lastmile_qr_scan"}, "fusion_lon": 0.0}, {"lat": 38.916854666666666, "is_disabled": 0, "type": "electric_scooter", "lon": -77.02948133333334, "bike_id": "4c401bb73d2c1b1f59a68540925778dd", "fusion_lat": 0.0, "name": "4c401bb73d2c1b1f59a68540925778dd", "is_reserved": 0, "rental_uris": {"android": "https://dc.lft.to/lastmile_qr_scan", "ios": "https://dc.lft.to/lastmile_qr_scan"}, "fusion_lon": 0.0}, {"lat": 38.932317, "is_disabled": 0, "type": "electric_scooter", "lon": -77.04411283333333, "bike_id": "07c009520f3f31e32ad50725c1955529", "fusion_lat": 0.0, "name": "07c009520f3f31e32ad50725c1955529", "is_reserved": 0, "rental_uris": {"android": "https://dc.lft.to/lastmile_qr_scan", "ios": "https://dc.lft.to/lastmile_qr_scan"}, "fusion_lon": 0.0}, {"lat": 38.88550816666667, "is_disabled": 0, "type": "electric_scooter", "lon": -77.01521116666666, "bike_id": "344eb3c43ff0dc4ed1877bf4acd605b8", "fusion_lat": 0.0, "name": "344eb3c43ff0dc4ed1877bf4acd605b8", "is_reserved": 0, "rental_uris": {"android": "https://dc.lft.to/lastmile_qr_scan", "ios": "https://dc.lft.to/lastmile_qr_scan"}, "fusion_lon": 0.0}, {"lat": 38.865168833333335, "is_disabled": 0, "type": "electric_scooter", "lon": -76.9903925, "bike_id": "b45c4468a38d2548e8faeb82393c8c6a", "fusion_lat": 0.0, "name": "b45c4468a38d2548e8faeb82393c8c6a", "is_reserved": 0, "rental_uris": {"android": "https://dc.lft.to/lastmile_qr_scan", "ios": "https://dc.lft.to/lastmile_qr_scan"}, "fusion_lon": 0.0}, {"lat": 38.96218833333333, "is_disabled": 0, "type": "electric_bike", "lon": -77.027742, "bike_id": "9e82db16941c3228b5870261fcde0197", "fusion_lat": 0.0, "name": "9e82db16941c3228b5870261fcde0197", "is_reserved": 0, "rental_uris": {"android": "https://dc.lft.to/lastmile_qr_scan", "ios": "https://dc.lft.to/lastmile_qr_scan"}, "fusion_lon": 0.0}, {"lat": 38.9201855, "is_disabled": 0, "type": "electric_scooter", "lon": -77.04182683333333, "bike_id": "41fc5919b563f3631d97777ef1717336", "fusion_lat": 0.0, "name": "41fc5919b563f3631d97777ef1717336", "is_reserved": 0, "rental_uris": {"android": "https://dc.lft.to/lastmile_qr_scan", "ios": "https://dc.lft.to/lastmile_qr_scan"}, "fusion_lon": 0.0}, {"lat": 38.917621833333335, "is_disabled": 0, "type": "electric_scooter", "lon": -77.0045165, "bike_id": "e5d74f2af675289a630204d303965536", "fusion_lat": 0.0, "name": "e5d74f2af675289a630204d303965536", "is_reserved": 0, "rental_uris": {"android": "https://dc.lft.to/lastmile_qr_scan", "ios": "https://dc.lft.to/lastmile_qr_scan"}, "fusion_lon": 0.0}, {"lat": 38.900433666666665, "is_disabled": 0, "type": "electric_scooter", "lon": -77.00740866666666, "bike_id": "4c8e9c82f7f1601391ad48f2d3cfb7f4", "fusion_lat": 0.0, "name": "4c8e9c82f7f1601391ad48f2d3cfb7f4", "is_reserved": 0, "rental_uris": {"android": "https://dc.lft.to/lastmile_qr_scan", "ios": "https://dc.lft.to/lastmile_qr_scan"}, "fusion_lon": 0.0}, {"lat": 38.852240333333334, "is_disabled": 0, "type": "electric_bike", "lon": -77.12957716666666, "bike_id": "e42a56dcb6e9106e427a339428ee1c35", "fusion_lat": 0.0, "name": "e42a56dcb6e9106e427a339428ee1c35", "is_reserved": 0, "rental_uris": {"android": "https://dc.lft.to/lastmile_qr_scan", "ios": "https://dc.lft.to/lastmile_qr_scan"}, "fusion_lon": 0.0}, {"lat": 38.896066, "is_disabled": 0, "type": "electric_scooter", "lon": -77.04410116666666, "bike_id": "ed2a0530a2dee7e5503f5de260b598df", "fusion_lat": 0.0, "name": "ed2a0530a2dee7e5503f5de260b598df", "is_reserved": 0, "rental_uris": {"android": "https://dc.lft.to/lastmile_qr_scan", "ios": "https://dc.lft.to/lastmile_qr_scan"}, "fusion_lon": 0.0}, {"lat": 38.90738016666667, "is_disabled": 0, "type": "electric_scooter", "lon": -77.02949833333334, "bike_id": "a81d8094a1046f87865ab13f8e2272cc", "fusion_lat": 0.0, "name": "a81d8094a1046f87865ab13f8e2272cc", "is_reserved": 0, "rental_uris": {"android": "https://dc.lft.to/lastmile_qr_scan", "ios": "https://dc.lft.to/lastmile_qr_scan"}, "fusion_lon": 0.0}, {"lat": 38.8990585, "is_disabled": 0, "type": "electric_scooter", "lon": -77.07241566666667, "bike_id": "b7177004e974c2955cf8b452320baf41", "fusion_lat": 0.0, "name": "b7177004e974c2955cf8b452320baf41", "is_reserved": 0, "rental_uris": {"android": "https://dc.lft.to/lastmile_qr_scan", "ios": "https://dc.lft.to/lastmile_qr_scan"}, "fusion_lon": 0.0}, {"lat": 38.93295666666667, "is_disabled": 0, "type": "electric_scooter", "lon": -77.02196616666667, "bike_id": "1d3841f2745f2246dae15fc078bc33a3", "fusion_lat": 0.0, "name": "1d3841f2745f2246dae15fc078bc33a3", "is_reserved": 0, "rental_uris": {"android": "https://dc.lft.to/lastmile_qr_scan", "ios": "https://dc.lft.to/lastmile_qr_scan"}, "fusion_lon": 0.0}, {"lat": 38.872947, "is_disabled": 0, "type": "electric_scooter", "lon": -77.0092355, "bike_id": "d080a85b43b3d4b8e2982b9ea17cd038", "fusion_lat": 0.0, "name": "d080a85b43b3d4b8e2982b9ea17cd038", "is_reserved": 0, "rental_uris": {"android": "https://dc.lft.to/lastmile_qr_scan", "ios": "https://dc.lft.to/lastmile_qr_scan"}, "fusion_lon": 0.0}, {"lat": 38.91255066666667, "is_disabled": 0, "type": "electric_scooter", "lon": -77.04666983333334, "bike_id": "ea9f4d3cf902d2a84c72cbe001d17dec", "fusion_lat": 0.0, "name": "ea9f4d3cf902d2a84c72cbe001d17dec", "is_reserved": 0, "rental_uris": {"android": "https://dc.lft.to/lastmile_qr_scan", "ios": "https://dc.lft.to/lastmile_qr_scan"}, "fusion_lon": 0.0}, {"lat": 38.903341833333336, "is_disabled": 0, "type": "electric_scooter", "lon": -77.0447165, "bike_id": "aafa10d8b9e63a4ed5be88cc574a29df", "fusion_lat": 0.0, "name": "aafa10d8b9e63a4ed5be88cc574a29df", "is_reserved": 0, "rental_uris": {"android": "https://dc.lft.to/lastmile_qr_scan", "ios": "https://dc.lft.to/lastmile_qr_scan"}, "fusion_lon": 0.0}, {"lat": 38.90133133333333, "is_disabled": 0, "type": "electric_scooter", "lon": -77.03332833333333, "bike_id": "a43033bbd5210a13443d221f79953f1d", "fusion_lat": 0.0, "name": "a43033bbd5210a13443d221f79953f1d", "is_reserved": 0, "rental_uris": {"android": "https://dc.lft.to/lastmile_qr_scan", "ios": "https://dc.lft.to/lastmile_qr_scan"}, "fusion_lon": 0.0}, {"lat": 38.9169285, "is_disabled": 0, "type": "electric_scooter", "lon": -77.04606533333333, "bike_id": "296a9df32f6c9bacf6b7c97b45b7f208", "fusion_lat": 0.0, "name": "296a9df32f6c9bacf6b7c97b45b7f208", "is_reserved": 0, "rental_uris": {"android": "https://dc.lft.to/lastmile_qr_scan", "ios": "https://dc.lft.to/lastmile_qr_scan"}, "fusion_lon": 0.0}, {"lat": 38.92300266666667, "is_disabled": 0, "type": "electric_scooter", "lon": -77.02332833333334, "bike_id": "96b3d8286801b1ddc009409d9c4a0d7f", "fusion_lat": 0.0, "name": "96b3d8286801b1ddc009409d9c4a0d7f", "is_reserved": 0, "rental_uris": {"android": "https://dc.lft.to/lastmile_qr_scan", "ios": "https://dc.lft.to/lastmile_qr_scan"}, "fusion_lon": 0.0}, {"lat": 38.901086166666666, "is_disabled": 0, "type": "electric_scooter", "lon": -77.0589925, "bike_id": "28f60e2fe8458b828f1a1d0d4b55a0a1", "fusion_lat": 0.0, "name": "28f60e2fe8458b828f1a1d0d4b55a0a1", "is_reserved": 0, "rental_uris": {"android": "https://dc.lft.to/lastmile_qr_scan", "ios": "https://dc.lft.to/lastmile_qr_scan"}, "fusion_lon": 0.0}, {"lat": 38.939809333333336, "is_disabled": 0, "type": "electric_scooter", "lon": -77.02630233333333, "bike_id": "0aa2905b6af55dd3af04f47ab235c7d1", "fusion_lat": 0.0, "name": "0aa2905b6af55dd3af04f47ab235c7d1", "is_reserved": 0, "rental_uris": {"android": "https://dc.lft.to/lastmile_qr_scan", "ios": "https://dc.lft.to/lastmile_qr_scan"}, "fusion_lon": 0.0}, {"lat": 38.939845166666665, "is_disabled": 0, "type": "electric_scooter", "lon": -77.02883916666667, "bike_id": "08ed56d4a245aff630c281aebd743e68", "fusion_lat": 0.0, "name": "08ed56d4a245aff630c281aebd743e68", "is_reserved": 0, "rental_uris": {"android": "https://dc.lft.to/lastmile_qr_scan", "ios": "https://dc.lft.to/lastmile_qr_scan"}, "fusion_lon": 0.0}, {"lat": 38.908652833333335, "is_disabled": 0, "type": "electric_scooter", "lon": -77.00372266666666, "bike_id": "7c785033fea00bfb65d603fd27192ad7", "fusion_lat": 0.0, "name": "7c785033fea00bfb65d603fd27192ad7", "is_reserved": 0, "rental_uris": {"android": "https://dc.lft.to/lastmile_qr_scan", "ios": "https://dc.lft.to/lastmile_qr_scan"}, "fusion_lon": 0.0}, {"lat": 38.906279833333336, "is_disabled": 0, "type": "electric_scooter", "lon": -77.03409016666667, "bike_id": "8c2b31248622cb5d91f0df9d830345f4", "fusion_lat": 0.0, "name": "8c2b31248622cb5d91f0df9d830345f4", "is_reserved": 0, "rental_uris": {"android": "https://dc.lft.to/lastmile_qr_scan", "ios": "https://dc.lft.to/lastmile_qr_scan"}, "fusion_lon": 0.0}, {"lat": 38.914166, "is_disabled": 0, "type": "electric_scooter", "lon": -77.02023216666667, "bike_id": "a4a2d5335de0cdfc7c0e24248416bc25", "fusion_lat": 0.0, "name": "a4a2d5335de0cdfc7c0e24248416bc25", "is_reserved": 0, "rental_uris": {"android": "https://dc.lft.to/lastmile_qr_scan", "ios": "https://dc.lft.to/lastmile_qr_scan"}, "fusion_lon": 0.0}, {"lat": 38.94907533333333, "is_disabled": 0, "type": "electric_bike", "lon": -76.972369, "bike_id": "257a94c437911c049962b1af5436b86f", "fusion_lat": 0.0, "name": "257a94c437911c049962b1af5436b86f", "is_reserved": 0, "rental_uris": {"android": "https://dc.lft.to/lastmile_qr_scan", "ios": "https://dc.lft.to/lastmile_qr_scan"}, "fusion_lon": 0.0}, {"lat": 38.9071, "is_disabled": 0, "type": "electric_scooter", "lon": -77.00135283333333, "bike_id": "fe3c53a767454b52c2a3ad90d738f34a", "fusion_lat": 0.0, "name": "fe3c53a767454b52c2a3ad90d738f34a", "is_reserved": 0, "rental_uris": {"android": "https://dc.lft.to/lastmile_qr_scan", "ios": "https://dc.lft.to/lastmile_qr_scan"}, "fusion_lon": 0.0}, {"lat": 38.8833935, "is_disabled": 0, "type": "electric_scooter", "lon": -77.00934116666667, "bike_id": "fc3efa18c671a8b03da7ee7383ca22ea", "fusion_lat": 0.0, "name": "fc3efa18c671a8b03da7ee7383ca22ea", "is_reserved": 0, "rental_uris": {"android": "https://dc.lft.to/lastmile_qr_scan", "ios": "https://dc.lft.to/lastmile_qr_scan"}, "fusion_lon": 0.0}, {"lat": 38.898010666666664, "is_disabled": 0, "type": "electric_scooter", "lon": -77.05038483333334, "bike_id": "8e8a46732d3c39b7915b4e174722f8ea", "fusion_lat": 0.0, "name": "8e8a46732d3c39b7915b4e174722f8ea", "is_reserved": 0, "rental_uris": {"android": "https://dc.lft.to/lastmile_qr_scan", "ios": "https://dc.lft.to/lastmile_qr_scan"}, "fusion_lon": 0.0},