{"data": {"bikes": [{"rental_uris": {"ios": "https://dc.lft.to/lastmile_qr_scan", "android": "https://dc.lft.to/lastmile_qr_scan"}, "is_reserved": 0, "fusion_lat": 0.0, "type": "electric_scooter", "bike_id": "a8d47b1659adf7f430ca60ad75c14162", "is_disabled": 0, "lon": -77.02142566666667, "fusion_lon": 0.0, "name": "a8d47b1659adf7f430ca60ad75c14162", "lat": 38.924871833333334}, {"rental_uris": {"ios": "https://dc.lft.to/lastmile_qr_scan", "android": "https://dc.lft.to/lastmile_qr_scan"}, "is_reserved": 0, "fusion_lat": 0.0, "type": "electric_scooter", "bike_id": "7a43e8e44de39e076a3f9844d5f6cc88", "is_disabled": 0, "lon": -77.04673, "fusion_lon": 0.0, "name": "7a43e8e44de39e076a3f9844d5f6cc88", "lat": 38.90070083333333}, {"rental_uris": {"ios": "https://dc.lft.to/lastmile_qr_scan", "android": "https://dc.lft.to/lastmile_qr_scan"}, "is_reserved": 0, "fusion_lat": 0.0, "type": "electric_scooter", "bike_id": "e2f0ef14d460afee2daf1cfb81d55d72", "is_disabled": 0, "lon": -77.0172735, "fusion_lon": 0.0, "name": "e2f0ef14d460afee2daf1cfb81d55d72", "lat": 38.8874755}, {"rental_uris": {"ios": "https://dc.lft.to/lastmile_qr_scan", "android": "https://dc.lft.to/lastmile_qr_scan"}, "is_reserved": 0, "fusion_lat": 0.0, "type": "electric_scooter", "bike_id": "8be85b6af966e8a47c4c1c2134a8f81e", "is_disabled": 0, "lon": -77.022985, "fusion_lon": 0.0, "name": "8be85b6af966e8a47c4c1c2134a8f81e", "lat": 38.926789166666666}, {"rental_uris": {"ios": "https://dc.lft.to/lastmile_qr_scan", "android": "https://dc.lft.to/lastmile_qr_scan"}, "is_reserved": 0, "fusion_lat": 0.0, "type": "electric_scooter", "bike_id": "045a5e55dc1a8dcc68d1ab785ad9a859", "is_disabled": 0, "lon": -77.0167805, "fusion_lon": 0.0, "name": "045a5e55dc1a8dcc68d1ab785ad9a859", "lat": 38.920408}, {"rental_uris": {"ios": "https://dc.lft.to/lastmile_qr_scan", "android": "https://dc.lft.to/lastmile_qr_scan"}, "is_reserved": 0, "fusion_lat": 0.0, "type": "electric_scooter", "bike_id": "9594a6df476681088bb8d17a5c53670d", "is_disabled": 0, "lon": -77.0364835, "fusion_lon": 0.0, "name": "9594a6df476681088bb8d17a5c53670d", "lat": 38.91009016666667}, {"rental_uris": {"ios": "https://dc.lft.to/lastmile_qr_scan", "android": "https://dc.lft.to/lastmile_qr_scan"}, "is_reserved": 0, "fusion_lat": 0.0, "type": "electric_scooter", "bike_id": "c56f228b260d6f1e59164957cefd189e", "is_disabled": 0, "lon": -77.04939716666667, "fusion_lon": 0.0, "name": "c56f228b260d6f1e59164957cefd189e", "lat": 38.9094795}, {"rental_uris": {"ios": "https://dc.lft.to/lastmile_qr_scan", "android": "https://dc.lft.to/lastmile_qr_scan"}, "is_reserved": 0, "fusion_lat": 0.0, "type": "electric_scooter", "bike_id": "9fe91e14d4db9cd801f577735b03a16d", "is_disabled": 0, "lon": -77.041591, "fusion_lon": 0.0, "name": "9fe91e14d4db9cd801f577735b03a16d", "lat": 38.91618183333333}, {"rental_uris": {"ios": "https://dc.lft.to/lastmile_qr_scan", "android": "https://dc.lft.to/lastmile_qr_scan"}, "is_reserved": 0, "fusion_lat": 0.0, "type": "electric_scooter", "bike_id": "ba90736d57717f2f81c4ce720ab117f7", "is_disabled": 0, "lon": -77.0281045, "fusion_lon": 0.0, "name": "ba90736d57717f2f81c4ce720ab117f7", "lat": 38.89932133333333}, {"rental_uris": {"ios": "https://dc.lft.to/lastmile_qr_scan", "android": "https://dc.lft.to/lastmile_qr_scan"}, "is_reserved": 0, "fusion_lat": 0.0, "type": "electric_scooter", "bike_id": "98febdaa21c14119e754e265b2db8dc4", "is_disabled": 0, "lon": -76.94981, "fusion_lon": 0.0, "name": "98febdaa21c14119e754e265b2db8dc4", "lat": 38.88468866666667}, {"rental_uris": {"ios": "https://dc.lft.to/lastmile_qr_scan", "android": "https://dc.lft.to/lastmile_qr_scan"}, "is_reserved": 0, "fusion_lat": 0.0, "type": "electric_scooter", "bike_id": "1ba2788f4a2eeba61113561535142ee2", "is_disabled": 0, "lon": -76.9981025, "fusion_lon": 0.0, "name": "1ba2788f4a2eeba61113561535142ee2", "lat": 38.932302666666665}, {"rental_uris": {"ios": "https://dc.lft.to/lastmile_qr_scan", "android": "https://dc.lft.to/lastmile_qr_scan"}, "is_reserved": 0, "fusion_lat": 0.0, "type": "electric_scooter", "bike_id": "ca65377bc15a469293a496e2a3410fec", "is_disabled": 0, "lon": -77.03591966666667, "fusion_lon": 0.0, "name": "ca65377bc15a469293a496e2a3410fec", "lat": 38.9367555}, {"rental_uris": {"ios": "https://dc.lft.to/lastmile_qr_scan", "android": "https://dc.lft.to/lastmile_qr_scan"}, "is_reserved": 0, "fusion_lat": 0.0, "type": "electric_scooter", "bike_id": "fc6d2f8604cdf85a196666e0d1b6d474", "is_disabled": 0, "lon": -77.03868, "fusion_lon": 0.0, "name": "fc6d2f8604cdf85a196666e0d1b6d474", "lat": 38.91710833333333}, {"rental_uris": {"ios": "https://dc.lft.to/lastmile_qr_scan", "android": "https://dc.lft.to/lastmile_qr_scan"}, "is_reserved": 0, "fusion_lat": 0.0, "type": "electric_scooter", "bike_id": "bd2638d00a02f2a3f8002b4cace4d97b", "is_disabled": 0, "lon": -77.025606, "fusion_lon": 0.0, "name": "bd2638d00a02f2a3f8002b4cace4d97b", "lat": 38.921007333333336}, {"rental_uris": {"ios": "https://dc.lft.to/lastmile_qr_scan", "android": "https://dc.lft.to/lastmile_qr_scan"}, "is_reserved": 0, "fusion_lat": 0.0, "type": "electric_scooter", "bike_id": "8e705930fbd21cc094d8831562e87c96", "is_disabled": 0, "lon": -77.04546116666667, "fusion_lon": 0.0, "name": "8e705930fbd21cc094d8831562e87c96", "lat": 38.909676833333336}, {"rental_uris": {"ios": "https://dc.lft.to/lastmile_qr_scan", "android": "https://dc.lft.to/lastmile_qr_scan"}, "is_reserved": 0, "fusion_lat": 0.0, "type": "electric_scooter", "bike_id": "15f93fc01b4a9eda1a81a3d9dd6cdd27", "is_disabled": 0, "lon": -76.99012033333334, "fusion_lon": 0.0, "name": "15f93fc01b4a9eda1a81a3d9dd6cdd27", "lat": 38.886047166666664}, {"rental_uris": {"ios": "https://dc.lft.to/lastmile_qr_scan", "android": "https://dc.lft.to/lastmile_qr_scan"}, "is_reserved": 0, "fusion_lat": 0.0, "type": "electric_scooter", "bike_id": "6de13a1a05a7e77523e23c1e15fdc6e1", "is_disabled": 0, "lon": -77.02392233333333, "fusion_lon": 0.0, "name": "6de13a1a05a7e77523e23c1e15fdc6e1", "lat": 38.919419833333336}, {"rental_uris": {"ios": "https://dc.lft.to/lastmile_qr_scan", "android": "https://dc.lft.to/lastmile_qr_scan"}, "is_reserved": 0, "fusion_lat": 0.0, "type": "electric_scooter", "bike_id": "bc0a1c3778085cf2ef7f66ad6b99a15b", "is_disabled": 0, "lon": -77.03118966666666, "fusion_lon": 0.0, "name": "bc0a1c3778085cf2ef7f66ad6b99a15b", "lat": 38.9593535}, {"rental_uris": {"ios": "https://dc.lft.to/lastmile_qr_scan", "android": "https://dc.lft.to/lastmile_qr_scan"}, "is_reserved": 0, "fusion_lat": 0.0, "type": "electric_scooter", "bike_id": "ae23f44c7d17c0a00f0db8f9b3959597", "is_disabled": 0, "lon": -77.04672616666667, "fusion_lon": 0.0, "name": "ae23f44c7d17c0a00f0db8f9b3959597", "lat": 38.91009533333333}, {"rental_uris": {"ios": "https://dc.lft.to/lastmile_qr_scan", "android": "https://dc.lft.to/lastmile_qr_scan"}, "is_reserved": 0, "fusion_lat": 0.0, "type": "electric_scooter", "bike_id": "c717c75f7ab799b8a321e1b46a137a16", "is_disabled": 0, "lon": -77.032664, "fusion_lon": 0.0, "name": "c717c75f7ab799b8a321e1b46a137a16", "lat": 38.9048465}, {"rental_uris": {"ios": "https://dc.lft.to/lastmile_qr_scan", "android": "https://dc.lft.to/lastmile_qr_scan"}, "is_reserved": 0, "fusion_lat": 0.0, "type": "electric_scooter", "bike_id": "0f3cca83702809e347bbf2df92c9fc42", "is_disabled": 0, "lon": -77.0187865, "fusion_lon": 0.0, "name": "0f3cca83702809e347bbf2df92c9fc42", "lat": 38.9056105}, {"rental_uris": {"ios": "https://dc.lft.to/lastmile_qr_scan", "android": "https://dc.lft.to/lastmile_qr_scan"}, "is_reserved": 0, "fusion_lat": 0.0, "type": "electric_scooter", "bike_id": "a0b20611c8e005c636be2fb707637ed3", "is_disabled": 0, "lon": -77.03193933333333, "fusion_lon": 0.0, "name": "a0b20611c8e005c636be2fb707637ed3", "lat": 38.91746916666666}, {"rental_uris": {"ios": "https://dc.lft.to/lastmile_qr_scan", "android": "https://dc.lft.to/lastmile_qr_scan"}, "is_reserved": 0, "fusion_lat": 0.0, "type": "electric_scooter", "bike_id": "7abfc32962b8d1608857ea6ea41d72ee", "is_disabled": 0, "lon": -77.075276, "fusion_lon": 0.0, "name": "7abfc32962b8d1608857ea6ea41d72ee", "lat": 38.939629333333336}, {"rental_uris": {"ios": "https://dc.lft.to/lastmile_qr_scan", "android": "https://dc.lft.to/lastmile_qr_scan"}, "is_reserved": 0, "fusion_lat": 0.0, "type": "electric_scooter", "bike_id": "b9e57ebce67c69060c6c6864c430fa16", "is_disabled": 0, "lon": -77.00915916666666, "fusion_lon": 0.0, "name": "b9e57ebce67c69060c6c6864c430fa16", "lat": 38.9673025}, {"rental_uris": {"ios": "https://dc.lft.to/lastmile_qr_scan", "android": "https://dc.lft.to/lastmile_qr_scan"}, "is_reserved": 0, "fusion_lat": 0.0, "type": "electric_scooter", "bike_id": "704951e618605728846959d0c54c6890", "is_disabled": 0, "lon": -77.005295, "fusion_lon": 0.0, "name": "704951e618605728846959d0c54c6890", "lat": 38.896065666666665}, {"rental_uris": {"ios": "https://dc.lft.to/lastmile_qr_scan", "android": "https://dc.lft.to/lastmile_qr_scan"}, "is_reserved": 0, "fusion_lat": 0.0, "type": "electric_scooter", "bike_id": "6e936176dccec147291b3faf6d092a35", "is_disabled": 0, "lon": -76.982284, "fusion_lon": 0.0, "name": "6e936176dccec147291b3faf6d092a35", "lat": 38.878781000000004}, {"rental_uris": {"ios": "https://dc.lft.to/lastmile_qr_scan", "android": "https://dc.lft.to/lastmile_qr_scan"}, "is_reserved": 0, "fusion_lat": 0.0, "type": "electric_scooter", "bike_id": "df2f8c2ae8f3168b6ccacbaff9497653", "is_disabled": 0, "lon": -77.01722666666667, "fusion_lon": 0.0, "name": "df2f8c2ae8f3168b6ccacbaff9497653", "lat": 38.883203}, {"rental_uris": {"ios": "https://dc.lft.to/lastmile_qr_scan", "android": "https://dc.lft.to/lastmile_qr_scan"}, "is_reserved": 0, "fusion_lat": 0.0, "type": "electric_scooter", "bike_id": "859cf5ebd4498a38fc740a91b46b9b5c", "is_disabled": 0, "lon": -77.101626, "fusion_lon": 0.0, "name": "859cf5ebd4498a38fc740a91b46b9b5c", "lat": 38.92488066666667}, {"rental_uris": {"ios": "https://dc.lft.to/lastmile_qr_scan", "android": "https://dc.lft.to/lastmile_qr_scan"}, "is_reserved": 0, "fusion_lat": 0.0, "type": "electric_scooter", "bike_id": "6344f7d393b7845fcdabc2e25555c0dc", "is_disabled": 0, "lon": -77.023759, "fusion_lon": 0.0, "name": "6344f7d393b7845fcdabc2e25555c0dc", "lat": 38.952472666666665}, {"rental_uris": {"ios": "https://dc.lft.to/lastmile_qr_scan", "android": "https://dc.lft.to/lastmile_qr_scan"}, "is_reserved": 0, "fusion_lat": 0.0, "type": "electric_scooter", "bike_id": "a05e662d312699a4454454509a884abd", "is_disabled": 0, "lon": -77.05131816666666, "fusion_lon": 0.0, "name": "a05e662d312699a4454454509a884abd", "lat": 38.9059545}, {"rental_uris": {"ios": "https://dc.lft.to/lastmile_qr_scan", "android": "https://dc.lft.to/lastmile_qr_scan"}, "is_reserved": 0, "fusion_lat": 0.0, "type": "electric_scooter", "bike_id": "cb6c44f5b490956863373f1ef47124e0", "is_disabled": 0, "lon": -77.02840016666667, "fusion_lon": 0.0, "name": "cb6c44f5b490956863373f1ef47124e0", "lat": 38.896266}, {"rental_uris": {"ios": "https://dc.lft.to/lastmile_qr_scan", "android": "https://dc.lft.to/lastmile_qr_scan"}, "is_reserved": 0, "fusion_lat": 0.0, "type": "electric_scooter", "bike_id": "9562078c7faf39924c5d606ed4ba3d1f", "is_disabled": 0, "lon": -76.99707233333334, "fusion_lon": 0.0, "name": "9562078c7faf39924c5d606ed4ba3d1f", "lat": 38.90824333333333}, {"rental_uris": {"ios": "https://dc.lft.to/lastmile_qr_scan", "android": "https://dc.lft.to/lastmile_qr_scan"}, "is_reserved": 0, "fusion_lat": 0.0, "type": "electric_scooter", "bike_id": "f30a12bd5eeb20cd1651c1b7918e5882", "is_disabled": 0, "lon": -77.03321566666666, "fusion_lon": 0.0, "name": "f30a12bd5eeb20cd1651c1b7918e5882", "lat": 38.92157433333333}, {"rental_uris": {"ios": "https://dc.lft.to/lastmile_qr_scan", "android": "https://dc.lft.to/lastmile_qr_scan"}, "is_reserved": 0, "fusion_lat": 0.0, "type": "electric_scooter", "bike_id": "69664c175bae01d7494dff364f8579c5", "is_disabled": 0, "lon": -77.02671566666666, "fusion_lon": 0.0, "name": "69664c175bae01d7494dff364f8579c5", "lat": 38.895387}, {"rental_uris": {"ios": "https://dc.lft.to/lastmile_qr_scan", "android": "https://dc.lft.to/lastmile_qr_scan"}, "is_reserved": 0, "fusion_lat": 0.0, "type": "electric_scooter", "bike_id": "446cb2444eebd7d7d7937f22bf8a65e0", "is_disabled": 0, "lon": -76.97725283333334, "fusion_lon": 0.0, "name": "446cb2444eebd7d7d7937f22bf8a65e0", "lat": 38.87247683333333}, {"rental_uris": {"ios": "https://dc.lft.to/lastmile_qr_scan", "android": "https://dc.lft.to/lastmile_qr_scan"}, "is_reserved": 0, "fusion_lat": 0.0, "type": "electric_scooter", "bike_id": "dc57611ee4ea2c1638d5f2a0e0386b12", "is_disabled": 0, "lon": -77.03796933333334, "fusion_lon": 0.0, "name": "dc57611ee4ea2c1638d5f2a0e0386b12", "lat": 38.920686}, {"rental_uris": {"ios": "https://dc.lft.to/lastmile_qr_scan", "android": "https://dc.lft.to/lastmile_qr_scan"}, "is_reserved": 0, "fusion_lat": 0.0, "type": "electric_scooter", "bike_id": "0fec1ab8111c7367b839dc4c74086af5", "is_disabled": 0, "lon": -77.00307133333334, "fusion_lon": 0.0, "name": "0fec1ab8111c7367b839dc4c74086af5", "lat": 38.92033283333333}, {"rental_uris": {"ios": "https://dc.lft.to/lastmile_qr_scan", "android": "https://dc.lft.to/lastmile_qr_scan"}, "is_reserved": 0, "fusion_lat": 0.0, "type": "electric_scooter", "bike_id": "f0f8b0ad3fadec42e19b0436f4b8e46b", "is_disabled": 0, "lon": -77.042889, "fusion_lon": 0.0, "name": "f0f8b0ad3fadec42e19b0436f4b8e46b", "lat": 38.89736383333333}, {"rental_uris": {"ios": "https://dc.lft.to/lastmile_qr_scan", "android": "https://dc.lft.to/lastmile_qr_scan"}, "is_reserved": 0, "fusion_lat": 0.0, "type": "electric_scooter", "bike_id": "2ee2e0fb1d1ca226bbc1e556e05f79f2", "is_disabled": 0, "lon": -77.00714, "fusion_lon": 0.0, "name": "2ee2e0fb1d1ca226bbc1e556e05f79f2", "lat": 38.884877833333334}, {"rental_uris": {"ios": "https://dc.lft.to/lastmile_qr_scan", "android": "https://dc.lft.to/lastmile_qr_scan"}, "is_reserved": 0, "fusion_lat": 0.0, "type": "electric_bike", "bike_id": "ac0eab347866c3f5d435e5d3e4cda845", "is_disabled": 0, "lon": -77.14057966666667, "fusion_lon": 0.0, "name": "ac0eab347866c3f5d435e5d3e4cda845", "lat": 38.98771416666666}, {"rental_uris": {"ios": "https://dc.lft.to/lastmile_qr_scan", "android": "https://dc.lft.to/lastmile_qr_scan"}, "is_reserved": 0, "fusion_lat": 0.0, "type": "electric_scooter", "bike_id": "d1f3a804a20751c2d42f46a02ce0f3c8", "is_disabled": 0, "lon": -76.98564016666667, "fusion_lon": 0.0, "name": "d1f3a804a20751c2d42f46a02ce0f3c8", "lat": 38.866829333333335}, {"rental_uris": {"ios": "https://dc.lft.to/lastmile_qr_scan", "android": "https://dc.lft.to/lastmile_qr_scan"}, "is_reserved": 0, "fusion_lat": 0.0, "type": "electric_scooter", "bike_id": "33867c0cf8118fdf65359ebe71c41aea", "is_disabled": 0, "lon": -77.02548416666667, "fusion_lon": 0.0, "name": "33867c0cf8118fdf65359ebe71c41aea", "lat": 38.92085133333333}, {"rental_uris": {"ios": "https://dc.lft.to/lastmile_qr_scan", "android": "https://dc.lft.to/lastmile_qr_scan"}, "is_reserved": 0, "fusion_lat": 0.0, "type": "electric_scooter", "bike_id": "272ee31aec6efcea8568bf36ccfbf804", "is_disabled": 0, "lon": -76.94641233333333, "fusion_lon": 0.0, "name": "272ee31aec6efcea8568bf36ccfbf804", "lat": 38.89862816666667}, {"rental_uris": {"ios": "https://dc.lft.to/lastmile_qr_scan", "android": "https://dc.lft.to/lastmile_qr_scan"}, "is_reserved": 0, "fusion_lat": 0.0, "type": "electric_scooter", "bike_id": "87304f60e31e4daa4a6457d570d84e77", "is_disabled": 0, "lon": -77.019938, "fusion_lon": 0.0, "name": "87304f60e31e4daa4a6457d570d84e77", "lat": 38.939954166666666}, {"rental_uris": {"ios": "https://dc.lft.to/lastmile_qr_scan", "android": "https://dc.lft.to/lastmile_qr_scan"}, "is_reserved": 0, "fusion_lat": 0.0, "type": "electric_bike", "bike_id": "e35366671154f4917cc38b26326b6395", "is_disabled": 0, "lon": -77.041731, "fusion_lon": 0.0, "name": "e35366671154f4917cc38b26326b6395", "lat": 38.91706666666666}, {"rental_uris": {"ios": "https://dc.lft.to/lastmile_qr_scan", "android": "https://dc.lft.to/lastmile_qr_scan"}, "is_reserved": 0, "fusion_lat": 0.0, "type": "electric_scooter", "bike_id": "1a471e91a39bfe7862e79ae511f3f5f2", "is_disabled": 0, "lon": -77.00714883333333, "fusion_lon": 0.0, "name": "1a471e91a39bfe7862e79ae511f3f5f2", "lat": 38.884837166666664}, {"rental_uris": {"ios": "https://dc.lft.to/lastmile_qr_scan", "android": "https://dc.lft.to/lastmile_qr_scan"}, "is_reserved": 0, "fusion_lat": 0.0, "type": "electric_scooter", "bike_id": "913bc6c0b3fc6af3f9b5da248d264ca3", "is_disabled": 0, "lon": -77.03518716666666, "fusion_lon": 0.0, "name": "913bc6c0b3fc6af3f9b5da248d264ca3", "lat": 38.9225495}, {"rental_uris": {"ios": "https://dc.lft.to/lastmile_qr_scan", "android": "https://dc.lft.to/lastmile_qr_scan"}, "is_reserved": 0, "fusion_lat": 0.0, "type": "electric_scooter", "bike_id": "79244ef6a07ece8bcb3f3204db7ebf61", "is_disabled": 0, "lon": -77.04394083333334, "fusion_lon": 0.0, "name": "79244ef6a07ece8bcb3f3204db7ebf61", "lat": 38.923496166666666}, {"rental_uris": {"ios": "https://dc.lft.to/lastmile_qr_scan", "android": "https://dc.lft.to/lastmile_qr_scan"}, "is_reserved": 0, "fusion_lat": 0.0, "type": "electric_scooter", "bike_id": "cdfe600da644c90f8a0b94a1c52e09a0", "is_disabled": 0, "lon": -77.030903, "fusion_lon": 0.0, "name": "cdfe600da644c90f8a0b94a1c52e09a0", "lat": 38.899884}, {"rental_uris": {"ios": "https://dc.lft.to/lastmile_qr_scan", "android": "https://dc.lft.to/lastmile_qr_scan"}, "is_reserved": 0, "fusion_lat": 0.0, "type": "electric_scooter", "bike_id": "e1ea3cb6117b095b2afa40dcb93d7801", "is_disabled": 0, "lon": -76.97547483333334, "fusion_lon": 0.0, "name": "e1ea3cb6117b095b2afa40dcb93d7801", "lat": 38.903219166666666}, {"rental_uris": {"ios": "https://dc.lft.to/lastmile_qr_scan", "android": "https://dc.lft.to/lastmile_qr_scan"}, "is_reserved": 0, "fusion_lat": 0.0, "type": "electric_scooter", "bike_id": "d0e553c3a39b23bbedfbf7286cb0fb61", "is_disabled": 0, "lon": -77.022982, "fusion_lon": 0.0, "name": "d0e553c3a39b23bbedfbf7286cb0fb61", "lat": 38.917262666666666}, {"rental_uris": {"ios": "https://dc.lft.to/lastmile_qr_scan", "android": "https://dc.lft.to/lastmile_qr_scan"}, "is_reserved": 0, "fusion_lat": 0.0, "type": "electric_scooter", "bike_id": "422c98d3061f6e4f7ffed3f4f54fa873", "is_disabled": 0, "lon": -77.04158583333333, "fusion_lon": 0.0, "name": "422c98d3061f6e4f7ffed3f4f54fa873", "lat": 38.915525833333334}, {"rental_uris": {"ios": "https://dc.lft.to/lastmile_qr_scan", "android": "https://dc.lft.to/lastmile_qr_scan"}, "is_reserved": 0, "fusion_lat": 0.0, "type": "electric_scooter", "bike_id": "ce6f29447df61b509ebb9e5cc051bf72", "is_disabled": 0, "lon": -77.00710866666667, "fusion_lon": 0.0, "name": "ce6f29447df61b509ebb9e5cc051bf72", "lat": 38.88491166666667}, {"rental_uris": {"ios": "https://dc.lft.to/lastmile_qr_scan", "android": "https://dc.lft.to/lastmile_qr_scan"}, "is_reserved": 0, "fusion_lat": 0.0, "type": "electric_scooter", "bike_id": "f14c3e989b7ccb05efb83b7093adaaf3", "is_disabled": 0, "lon": -77.02221333333334, "fusion_lon": 0.0, "name": "f14c3e989b7ccb05efb83b7093adaaf3", "lat": 38.92610716666667}, {"rental_uris": {"ios": "https://dc.lft.to/lastmile_qr_scan", "android": "https://dc.lft.to/lastmile_qr_scan"}, "is_reserved": 0, "fusion_lat": 0.0, "type": "electric_scooter", "bike_id": "b24099c45e4b044de3743e09601d3f0c", "is_disabled": 0, "lon": -77.0379755, "fusion_lon": 0.0, "name": "b24099c45e4b044de3743e09601d3f0c", "lat": 38.918119}, {"rental_uris": {"ios": "https://dc.lft.to/lastmile_qr_scan", "android": "https://dc.lft.to/lastmile_qr_scan"}, "is_reserved": 0, "fusion_lat": 0.0, "type": "electric_scooter", "bike_id": "016d08cd5aa1ef6b2e765531b7fb7e99", "is_disabled": 0, "lon": -77.033464, "fusion_lon": 0.0, "name": "016d08cd5aa1ef6b2e765531b7fb7e99", "lat": 38.91696566666667}, {"rental_uris": {"ios": "https://dc.lft.to/lastmile_qr_scan", "android": "https://dc.lft.to/lastmile_qr_scan"}, "is_reserved": 0, "fusion_lat": 0.0, "type": "electric_scooter", "bike_id": "f67fa895f925d9aee2b1825d99dbc3b8", "is_disabled": 0, "lon": -77.0121085, "fusion_lon": 0.0, "name": "f67fa895f925d9aee2b1825d99dbc3b8", "lat": 38.89887133333333}, {"rental_uris": {"ios": "https://dc.lft.to/lastmile_qr_scan", "android": "https://dc.lft.to/lastmile_qr_scan"}, "is_reserved": 0, "fusion_lat": 0.0, "type": "electric_scooter", "bike_id": "2be1d097caaae78685f3e9e71a23446e", "is_disabled": 0, "lon": -77.0318, "fusion_lon": 0.0, "name": "2be1d097caaae78685f3e9e71a23446e", "lat": 38.91099716666667}, {"rental_uris": {"ios": "https://dc.lft.to/lastmile_qr_scan", "android": "https://dc.lft.to/lastmile_qr_scan"}, "is_reserved": 0, "fusion_lat": 0.0, "type": "electric_scooter", "bike_id": "611b25d39ba902a3c1662b5ba94e2492", "is_disabled": 0, "lon": -76.987007, "fusion_lon": 0.0, "name": "611b25d39ba902a3c1662b5ba94e2492", "lat": 38.86722833333334}, {"rental_uris": {"ios": "https://dc.lft.to/lastmile_qr_scan", "android": "https://dc.lft.to/lastmile_qr_scan"}, "is_reserved": 0, "fusion_lat": 0.0, "type": "electric_bike", "bike_id": "7321d26ece448a8f1e2a77b276d60e51", "is_disabled": 0, "lon": -77.04496466666667, "fusion_lon": 0.0, "name": "7321d26ece448a8f1e2a77b276d60e51", "lat": 39.014177833333335}, {"rental_uris": {"ios": "https://dc.lft.to/lastmile_qr_scan", "android": "https://dc.lft.to/lastmile_qr_scan"}, "is_reserved": 0, "fusion_lat": 0.0, "type": "electric_bike", "bike_id": "c33f81ba03317439e015e1bb820a9997", "is_disabled": 0, "lon": -76.95836333333334, "fusion_lon": 0.0, "name": "c33f81ba03317439e015e1bb820a9997", "lat": 38.930489666666666}, {"rental_uris": {"ios": "https://dc.lft.to/lastmile_qr_scan", "android": "https://dc.lft.to/lastmile_qr_scan"}, "is_reserved": 0, "fusion_lat": 0.0, "type": "electric_bike", "bike_id": "2dadf263ebbbd70cf167424dd7d9e841", "is_disabled": 0, "lon": -76.99067216666667, "fusion_lon": 0.0, "name": "2dadf263ebbbd70cf167424dd7d9e841", "lat": 38.898149333333336}, {"rental_uris": {"ios": "https://dc.lft.to/lastmile_qr_scan", "android": "https://dc.lft.to/lastmile_qr_scan"}, "is_reserved": 0, "fusion_lat": 0.0, "type": "electric_bike", "bike_id": "82d3ad5976bc54e6011499d0617edd22", "is_disabled": 0, "lon": -77.021286, "fusion_lon": 0.0, "name": "82d3ad5976bc54e6011499d0617edd22", "lat": 38.899772666666664}, {"rental_uris": {"ios": "https://dc.lft.to/lastmile_qr_scan", "android": "https://dc.lft.to/lastmile_qr_scan"}, "is_reserved": 0, "fusion_lat": 0.0, "type": "electric_scooter", "bike_id": "9defb46b13f0da32216f982fbe877b42", "is_disabled": 0, "lon": -76.99757233333334, "fusion_lon": 0.0, "name": "9defb46b13f0da32216f982fbe877b42", "lat": 38.88506316666667}, {"rental_uris": {"ios": "https://dc.lft.to/lastmile_qr_scan", "android": "https://dc.lft.to/lastmile_qr_scan"}, "is_reserved": 0, "fusion_lat": 0.0, "type": "electric_scooter", "bike_id": "e4fb77a31a732d4796c999898e28dc8c", "is_disabled": 0, "lon": -77.00209833333334, "fusion_lon": 0.0, "name": "e4fb77a31a732d4796c999898e28dc8c", "lat": 38.895283666666664}, {"rental_uris": {"ios": "https://dc.lft.to/lastmile_qr_scan", "android": "https://dc.lft.to/lastmile_qr_scan"}, "is_reserved": 0, "fusion_lat": 0.0, "type": "electric_scooter", "bike_id": "e5f6c06a84819be5f62c11575c5c8f3e", "is_disabled": 0, "lon": -77.01920416666667, "fusion_lon": 0.0, "name": "e5f6c06a84819be5f62c11575c5c8f3e", "lat": 38.91774133333333}, {"rental_uris": {"ios": "https://dc.lft.to/lastmile_qr_scan", "android": "https://dc.lft.to/lastmile_qr_scan"}, "is_reserved": 0, "fusion_lat": 0.0, "type": "electric_scooter", "bike_id": "e9fd13df312019e14b7f07a1f4d263e0", "is_disabled": 0, "lon": -76.986348, "fusion_lon": 0.0, "name": "e9fd13df312019e14b7f07a1f4d263e0", "lat": 38.90914633333333}, {"rental_uris": {"ios": "https://dc.lft.to/lastmile_qr_scan", "android": "https://dc.lft.to/lastmile_qr_scan"}, "is_reserved": 0, "fusion_lat": 0.0, "type": "electric_bike", "bike_id": "5164c7b93560ab8f8f3b572e812ce1d0", "is_disabled": 0, "lon": -76.99652266666666, "fusion_lon": 0.0, "name": "5164c7b93560ab8f8f3b572e812ce1d0", "lat": 38.816156166666666}, {"rental_uris": {"ios": "https://dc.lft.to/lastmile_qr_scan", "android": "https://dc.lft.to/lastmile_qr_scan"}, "is_reserved": 0, "fusion_lat": 0.0, "type": "electric_scooter", "bike_id": "811f7a7c7a7032bd37642a3b8b47f094", "is_disabled": 0, "lon": -77.0094785, "fusion_lon": 0.0, "name": "811f7a7c7a7032bd37642a3b8b47f094", "lat": 38.96111483333333}, {"rental_uris": {"ios": "https://dc.lft.to/lastmile_qr_scan", "android": "https://dc.lft.to/lastmile_qr_scan"}, "is_reserved": 0, "fusion_lat": 0.0, "type": "electric_bike", "bike_id": "80456a1cd9f96430f9804862585e161c", "is_disabled": 0, "lon": -77.09959916666666, "fusion_lon": 0.0, "name": "80456a1cd9f96430f9804862585e161c", "lat": 38.85794283333333}, {"rental_uris": {"ios": "https://dc.lft.to/lastmile_qr_scan", "android": "https://dc.lft.to/lastmile_qr_scan"}, "is_reserved": 0, "fusion_lat": 0.0, "type": "electric_scooter", "bike_id": "6456cc2327a518d9afff0cd5547dd4ff", "is_disabled": 0, "lon": -77.0270675, "fusion_lon": 0.0, "name": "6456cc2327a518d9afff0cd5547dd4ff", "lat": 38.90790466666667}, {"rental_uris": {"ios": "https://dc.lft.to/lastmile_qr_scan", "android": "https://dc.lft.to/lastmile_qr_scan"}, "is_reserved": 0, "fusion_lat": 0.0, "type": "electric_scooter", "bike_id": "bfefe7d19a5752dd40f48f05884666b0", "is_disabled": 0, "lon": -76.9968535, "fusion_lon": 0.0, "name": "bfefe7d19a5752dd40f48f05884666b0", "lat": 38.887206666666664}, {"rental_uris": {"ios": "https://dc.lft.to/lastmile_qr_scan", "android": "https://dc.lft.to/lastmile_qr_scan"}, "is_reserved": 0, "fusion_lat": 0.0, "type": "electric_bike", "bike_id": "2c597d53a18f3cd2797da66308b9a586", "is_disabled": 0, "lon": -77.00370633333333, "fusion_lon": 0.0, "name": "2c597d53a18f3cd2797da66308b9a586", "lat": 38.7970045}, {"rental_uris": {"ios": "https://dc.lft.to/lastmile_qr_scan", "android": "https://dc.lft.to/lastmile_qr_scan"}, "is_reserved": 0, "fusion_lat": 0.0, "type": "electric_scooter", "bike_id": "8829c9e2bbe6a7c4bb8593461406e281", "is_disabled": 0, "lon": -77.02394933333333, "fusion_lon": 0.0, "name": "8829c9e2bbe6a7c4bb8593461406e281", "lat": 38.92083016666667}, {"rental_uris": {"ios": "https://dc.lft.to/lastmile_qr_scan", "android": "https://dc.lft.to/lastmile_qr_scan"}, "is_reserved": 0, "fusion_lat": 0.0, "type": "electric_scooter", "bike_id": "33ed3a3318be205fee58c2fba94960c6", "is_disabled": 0, "lon": -77.03404633333334, "fusion_lon": 0.0, "name": "33ed3a3318be205fee58c2fba94960c6", "lat": 38.92439316666667}, {"rental_uris": {"ios": "https://dc.lft.to/lastmile_qr_scan", "android": "https://dc.lft.to/lastmile_qr_scan"}, "is_reserved": 0, "fusion_lat": 0.0, "type": "electric_scooter", "bike_id": "183fb188ba95e90b1709af5a18c8b3e8", "is_disabled": 0, "lon": -77.02150583333334, "fusion_lon": 0.0, "name": "183fb188ba95e90b1709af5a18c8b3e8", "lat": 38.924490666666664}, {"rental_uris": {"ios": "https://dc.lft.to/lastmile_qr_scan", "android": "https://dc.lft.to/lastmile_qr_scan"}, "is_reserved": 0, "fusion_lat": 0.0, "type": "electric_scooter", "bike_id": "ff94d5bcc0b02f5e4e396ee0ddfa2775", "is_disabled": 0, "lon": -77.0448285, "fusion_lon": 0.0, "name": "ff94d5bcc0b02f5e4e396ee0ddfa2775", "lat": 38.900134}, {"rental_uris": {"ios": "https://dc.lft.to/lastmile_qr_scan", "android": "https://dc.lft.to/lastmile_qr_scan"}, "is_reserved": 0, "fusion_lat": 0.0, "type": "electric_scooter", "bike_id": "825eafc60378cd789ef8f54b2cd2f988", "is_disabled": 0, "lon": -77.01868683333333, "fusion_lon": 0.0, "name": "825eafc60378cd789ef8f54b2cd2f988", "lat": 38.93055583333334}, {"rental_uris": {"ios": "https://dc.lft.to/lastmile_qr_scan", "android": "https://dc.lft.to/lastmile_qr_scan"}, "is_reserved": 0, "fusion_lat": 0.0, "type": "electric_scooter", "bike_id": "b64607a08314e8d17c582bcce6e3cda5", "is_disabled": 0, "lon": -77.0209975, "fusion_lon": 0.0, "name": "b64607a08314e8d17c582bcce6e3cda5", "lat": 38.927853166666665}, {"rental_uris": {"ios": "https://dc.lft.to/lastmile_qr_scan", "android": "https://dc.lft.to/lastmile_qr_scan"}, "is_reserved": 0, "fusion_lat": 0.0, "type": "electric_scooter", "bike_id": "0c5faa6aca2c1f1f7bc397d5a47762d9", "is_disabled": 0, "lon": -76.9785655, "fusion_lon": 0.0, "name": "0c5faa6aca2c1f1f7bc397d5a47762d9", "lat": 38.8655305}, {"rental_uris": {"ios": "https://dc.lft.to/lastmile_qr_scan", "android": "https://dc.lft.to/lastmile_qr_scan"}, "is_reserved": 0, "fusion_lat": 0.0, "type": "electric_scooter", "bike_id": "650f5e4ab80e41236211a1f8bd894e65", "is_disabled": 0, "lon": -76.952445, "fusion_lon": 0.0, "name": "650f5e4ab80e41236211a1f8bd894e65", "lat": 38.890451166666665}, {"rental_uris": {"ios": "https://dc.lft.to/lastmile_qr_scan", "android": "https://dc.lft.to/lastmile_qr_scan"}, "is_reserved": 0, "fusion_lat": 0.0, "type": "electric_scooter", "bike_id": "b49c1faf0496798afa34e8ffe298ec12", "is_disabled": 0, "lon": -77.0451815, "fusion_lon": 0.0, "name": "b49c1faf0496798afa34e8ffe298ec12", "lat": 38.90974083333333}, {"rental_uris": {"ios": "https://dc.lft.to/lastmile_qr_scan", "android": "https://dc.lft.to/lastmile_qr_scan"}, "is_reserved": 0, "fusion_lat": 0.0, "type": "electric_scooter", "bike_id": "97c4c8fd270e4de73a0c50da0bb74011", "is_disabled": 0, "lon": -76.98152216666666, "fusion_lon": 0.0, "name": "97c4c8fd270e4de73a0c50da0bb74011", "lat": 38.89952316666667}, {"rental_uris": {"ios": "https://dc.lft.to/lastmile_qr_scan", "android": "https://dc.lft.to/lastmile_qr_scan"}, "is_reserved": 0, "fusion_lat": 0.0, "type": "electric_scooter", "bike_id": "913aa7d8aec4cc321a1b5fb2f3cb3354", "is_disabled": 0, "lon": -77.02721716666667, "fusion_lon": 0.0, "name": "913aa7d8aec4cc321a1b5fb2f3cb3354", "lat": 38.928678166666664}, {"rental_uris": {"ios": "https://dc.lft.to/lastmile_qr_scan", "android": "https://dc.lft.to/lastmile_qr_scan"}, "is_reserved": 0, "fusion_lat": 0.0, "type": "electric_scooter", "bike_id": "89dfdbd897368ce1684676183b8d3e62", "is_disabled": 0, "lon": -77.0384075, "fusion_lon": 0.0, "name": "89dfdbd897368ce1684676183b8d3e62", "lat": 38.941911833333336}, {"rental_uris": {"ios": "https://dc.lft.to/lastmile_qr_scan", "android": "https://dc.lft.to/lastmile_qr_scan"}, "is_reserved": 0, "fusion_lat": 0.0, "type": "electric_scooter", "bike_id": "01aabda00b24afc582a6df14cc7ac933", "is_disabled": 0, "lon": -77.04060316666667, "fusion_lon": 0.0, "name": "01aabda00b24afc582a6df14cc7ac933", "lat": 38.9050775}, {"rental_uris": {"ios": "https://dc.lft.to/lastmile_qr_scan", "android": "https://dc.lft.to/lastmile_qr_scan"}, "is_reserved": 0, "fusion_lat": 0.0, "type": "electric_scooter", "bike_id": "d92dd46943f13ef78b281156c4ad90d6", "is_disabled": 0, "lon": -77.01002216666667, "fusion_lon": 0.0, "name": "d92dd46943f13ef78b281156c4ad90d6", "lat": 38.90260933333333}, {"rental_uris": {"ios": "https://dc.lft.to/lastmile_qr_scan", "android": "https://dc.lft.to/lastmile_qr_scan"}, "is_reserved": 0, "fusion_lat": 0.0, "type": "electric_scooter", "bike_id": "eed8f04c7b682f04ec3be01636f37830", "is_disabled": 0, "lon": -77.02379916666666, "fusion_lon": 0.0, "name": "eed8f04c7b682f04ec3be01636f37830", "lat": 38.911522}, {"rental_uris": {"ios": "https://dc.lft.to/lastmile_qr_scan", "android": "https://dc.lft.to/lastmile_qr_scan"}, "is_reserved": 0, "fusion_lat": 0.0, "type": "electric_scooter", "bike_id": "b476c2efdbd47e0ca11c2fd651c93606", "is_disabled": 0, "lon": -76.99949083333334, "fusion_lon": 0.0, "name": "b476c2efdbd47e0ca11c2fd651c93606", "lat": 38.90042183333333}, {"rental_uris": {"ios": "https://dc.lft.to/lastmile_qr_scan", "android": "https://dc.lft.to/lastmile_qr_scan"}, "is_reserved": 0, "fusion_lat": 0.0, "type": "electric_scooter", "bike_id": "d3af7ef615b594129124cec569d24fe7", "is_disabled": 0, "lon": -77.01793016666667, "fusion_lon": 0.0, "name": "d3af7ef615b594129124cec569d24fe7", "lat": 38.90119766666667}, {"rental_uris": {"ios": "https://dc.lft.to/lastmile_qr_scan", "android": "https://dc.lft.to/lastmile_qr_scan"}, "is_reserved": 0, "fusion_lat": 0.0, "type": "electric_scooter", "bike_id": "1873db378177a6050829150cf52bc16e", "is_disabled": 0, "lon": -77.046407, "fusion_lon": 0.0, "name": "1873db378177a6050829150cf52bc16e", "lat": 38.922414333333336}, {"rental_uris": {"ios": "https://dc.lft.to/lastmile_qr_scan", "android": "https://dc.lft.to/lastmile_qr_scan"}, "is_reserved": 0, "fusion_lat": 0.0, "type": "electric_scooter", "bike_id": "f2f6204d2441e0e1ba5f58b47d03b4d2", "is_disabled": 0, "lon": -77.032099, "fusion_lon": 0.0, "name": "f2f6204d2441e0e1ba5f58b47d03b4d2", "lat": 38.907862}, {"rental_uris": {"ios": "https://dc.lft.to/lastmile_qr_scan", "android": "https://dc.lft.to/lastmile_qr_scan"}, "is_reserved": 0, "fusion_lat": 0.0, "type": "electric_scooter", "bike_id": "9e6c9daece518277357ede4c5dcf9fbd", "is_disabled": 0, "lon": -77.00841783333334, "fusion_lon": 0.0, "name": "9e6c9daece518277357ede4c5dcf9fbd", "lat": 38.89713483333333}, {"rental_uris": {"ios": "https://dc.lft.to/lastmile_qr_scan", "android": "https://dc.lft.to/lastmile_qr_scan"}, "is_reserved": 0, "fusion_lat": 0.0, "type": "electric_scooter", "bike_id": "03c70c66b837360054449b1068a8d3a8", "is_disabled": 0, "lon": -77.03465966666667, "fusion_lon": 0.0, "name": "03c70c66b837360054449b1068a8d3a8", "lat": 38.90579066666667}, {"rental_uris": {"ios": "https://dc.lft.to/lastmile_qr_scan", "android": "https://dc.lft.to/lastmile_qr_scan"}, "is_reserved": 0, "fusion_lat": 0.0, "type": "electric_scooter", "bike_id": "53d5bea40b4023102373a8a65e2c5afc", "is_disabled": 0, "lon": -77.0345215, "fusion_lon": 0.0, "name": "53d5bea40b4023102373a8a65e2c5afc", "lat": 38.904792666666665}, {"rental_uris": {"ios": "https://dc.lft.to/lastmile_qr_scan", "android": "https://dc.lft.to/lastmile_qr_scan"}, "is_reserved": 0, "fusion_lat": 0.0, "type": "electric_scooter", "bike_id": "fdeb8d75133dc5c08e2d4176a72847ad", "is_disabled": 0, "lon": -77.042646, "fusion_lon": 0.0, "name": "fdeb8d75133dc5c08e2d4176a72847ad", "lat": 38.89535633333333}, {"rental_uris": {"ios": "https://dc.lft.to/lastmile_qr_scan", "android": "https://dc.lft.to/lastmile_qr_scan"}, "is_reserved": 0, "fusion_lat": 0.0, "type": "electric_scooter", "bike_id": "4fcc93ba5d69a7aa22851e902cc70b5d", "is_disabled": 0, "lon": -77.005773, "fusion_lon": 0.0, "name": "4fcc93ba5d69a7aa22851e902cc70b5d", "lat": 38.88519}, {"rental_uris": {"ios": "https://dc.lft.to/lastmile_qr_scan", "android": "https://dc.lft.to/lastmile_qr_scan"}, "is_reserved": 0, "fusion_lat": 0.0, "type": "electric_scooter", "bike_id": "3bf18a1b0733ab4566304f67b42913b0", "is_disabled": 0, "lon": -76.9869945, "fusion_lon": 0.0, "name": "3bf18a1b0733ab4566304f67b42913b0", "lat": 38.900547}, {"rental_uris": {"ios": "https://dc.lft.to/lastmile_qr_scan", "android": "https://dc.lft.to/lastmile_qr_scan"}, "is_reserved": 0, "fusion_lat": 0.0, "type": "electric_scooter", "bike_id": "5b76c9ec927b447f42a7d3b0bee84d9a", "is_disabled": 0, "lon": -77.00210883333334, "fusion_lon": 0.0, "name": "5b76c9ec927b447f42a7d3b0bee84d9a", "lat": 38.90023216666667}, {"rental_uris": {"ios": "https://dc.lft.to/lastmile_qr_scan", "android": "https://dc.lft.to/lastmile_qr_scan"}, "is_reserved": 0, "fusion_lat": 0.0, "type": "electric_scooter", "bike_id": "5a9c96823a39c3225ab6cd08f46bed5b", "is_disabled": 0, "lon": -77.00067416666667, "fusion_lon": 0.0, "name": "5a9c96823a39c3225ab6cd08f46bed5b", "lat": 38.925558}, {"rental_uris": {"ios": "https://dc.lft.to/lastmile_qr_scan", "android": "https://dc.lft.to/lastmile_qr_scan"}, "is_reserved": 0, "fusion_lat": 0.0, "type": "electric_scooter", "bike_id": "9f12e7398326cf9b3d6562a653118e95", "is_disabled": 0, "lon": -77.04258166666666, "fusion_lon": 0.0, "name": "9f12e7398326cf9b3d6562a653118e95", "lat": 38.908742}, {"rental_uris": {"ios": "https://dc.lft.to/lastmile_qr_scan", "android": "https://dc.lft.to/lastmile_qr_scan"}, "is_reserved": 0, "fusion_lat": 0.0, "type": "electric_scooter", "bike_id": "b89b026d4eb035872bbac3c4bf3aad17", "is_disabled": 0, "lon": -77.0412615, "fusion_lon": 0.0, "name": "b89b026d4eb035872bbac3c4bf3aad17", "lat": 38.9170725}, {"rental_uris": {"ios": "https://dc.lft.to/lastmile_qr_scan", "android": "https://dc.lft.to/lastmile_qr_scan"}, "is_reserved": 0, "fusion_lat": 0.0, "type": "electric_scooter", "bike_id": "54ebaaa993c93ce1a310e0e00c66e47c", "is_disabled": 0, "lon": -77.02127016666667, "fusion_lon": 0.0, "name": "54ebaaa993c93ce1a310e0e00c66e47c", "lat": 38.901966333333334}, {"rental_uris": {"ios": "https://dc.lft.to/lastmile_qr_scan", "android": "https://dc.lft.to/lastmile_qr_scan"}, "is_reserved": 0, "fusion_lat": 0.0, "type": "electric_scooter", "bike_id": "63dcc676e3c6fded80af662a9f82c33c", "is_disabled": 0, "lon": -76.98550066666667, "fusion_lon": 0.0, "name": "63dcc676e3c6fded80af662a9f82c33c", "lat": 38.90040783333333}, {"rental_uris": {"ios": "https://dc.lft.to/lastmile_qr_scan", "android": "https://dc.lft.to/lastmile_qr_scan"}, "is_reserved": 0, "fusion_lat": 0.0, "type": "electric_scooter", "bike_id": "ab567cf37e612be96d9608542d0a0e4f", "is_disabled": 0, "lon": -77.04900333333333, "fusion_lon": 0.0, "name": "ab567cf37e612be96d9608542d0a0e4f", "lat": 38.8969195}, {"rental_uris": {"ios": "https://dc.lft.to/lastmile_qr_scan", "android": "https://dc.lft.to/lastmile_qr_scan"}, "is_reserved": 0, "fusion_lat": 0.0, "type": "electric_scooter", "bike_id": "05caa6e6f494918eb4e895ae1f90d3c0", "is_disabled": 0, "lon": -77.02847316666667, "fusion_lon": 0.0, "name": "05caa6e6f494918eb4e895ae1f90d3c0", "lat": 38.88747033333333}, {"rental_uris": {"ios": "https://dc.lft.to/lastmile_qr_scan", "android": "https://dc.lft.to/lastmile_qr_scan"}, "is_reserved": 0, "fusion_lat": 0.0, "type": "electric_scooter", "bike_id": "a0166513efb634266f32fd764da6d556", "is_disabled": 0, "lon": -77.01675166666666, "fusion_lon": 0.0, "name": "a0166513efb634266f32fd764da6d556", "lat": 38.92046933333334}, {"rental_uris": {"ios": "https://dc.lft.to/lastmile_qr_scan", "android": "https://dc.lft.to/lastmile_qr_scan"}, "is_reserved": 0, "fusion_lat": 0.0, "type": "electric_scooter", "bike_id": "108861e03bd8b2845cf7ec962744ad72", "is_disabled": 0, "lon": -77.02185416666667, "fusion_lon": 0.0, "name": "108861e03bd8b2845cf7ec962744ad72", "lat": 38.892352}, {"rental_uris": {"ios": "https://dc.lft.to/lastmile_qr_scan", "android": "https://dc.lft.to/lastmile_qr_scan"}, "is_reserved": 0, "fusion_lat": 0.0, "type": "electric_scooter", "bike_id": "1b4645ddd62283752e10589fdc7f0837", "is_disabled": 0, "lon": -77.02350483333333, "fusion_lon": 0.0, "name": "1b4645ddd62283752e10589fdc7f0837", "lat": 38.935404166666665}, {"rental_uris": {"ios": "https://dc.lft.to/lastmile_qr_scan", "android": "https://dc.lft.to/lastmile_qr_scan"}, "is_reserved": 0, "fusion_lat": 0.0, "type": "electric_scooter", "bike_id": "7e47568d002f4e5c6dc748dc62474ae1", "is_disabled": 0, "lon": -77.04235933333334, "fusion_lon": 0.0, "name": "7e47568d002f4e5c6dc748dc62474ae1", "lat": 38.921537666666666}, {"rental_uris": {"ios": "https://dc.lft.to/lastmile_qr_scan", "android": "https://dc.lft.to/lastmile_qr_scan"}, "is_reserved": 0, "fusion_lat": 0.0, "type": "electric_scooter", "bike_id": "9a7bee8820afec116398849eb18f208e", "is_disabled": 0, "lon": -76.985392, "fusion_lon": 0.0, "name": "9a7bee8820afec116398849eb18f208e", "lat": 38.90948566666667}, {"rental_uris": {"ios": "https://dc.lft.to/lastmile_qr_scan", "android": "https://dc.lft.to/lastmile_qr_scan"}, "is_reserved": 0, "fusion_lat": 0.0, "type": "electric_scooter", "bike_id": "8b377de30e967e064710de7999f775e8", "is_disabled": 0, "lon": -77.06663483333334, "fusion_lon": 0.0, "name": "8b377de30e967e064710de7999f775e8", "lat": 38.95210333333333}, {"rental_uris": {"ios": "https://dc.lft.to/lastmile_qr_scan", "android": "https://dc.lft.to/lastmile_qr_scan"}, "is_reserved": 0, "fusion_lat": 0.0, "type": "electric_scooter", "bike_id": "13ae6d74ff45171e80eb17e1a45a2962", "is_disabled": 0, "lon": -77.04333333333334, "fusion_lon": 0.0, "name": "13ae6d74ff45171e80eb17e1a45a2962", "lat": 38.92222133333333}, {"rental_uris": {"ios": "https://dc.lft.to/lastmile_qr_scan", "android": "https://dc.lft.to/lastmile_qr_scan"}, "is_reserved": 0, "fusion_lat": 0.0, "type": "electric_scooter", "bike_id": "332b9dd867c8048ab0e878195b4705fb", "is_disabled": 0, "lon": -77.0268595, "fusion_lon": 0.0, "name": "332b9dd867c8048ab0e878195b4705fb", "lat": 38.90255766666667}, {"rental_uris": {"ios": "https://dc.lft.to/lastmile_qr_scan", "android": "https://dc.lft.to/lastmile_qr_scan"}, "is_reserved": 0, "fusion_lat": 0.0, "type": "electric_scooter", "bike_id": "bbfe62c6fd30577f30c96117ee11308f", "is_disabled": 0, "lon": -77.00798133333333, "fusion_lon": 0.0, "name": "bbfe62c6fd30577f30c96117ee11308f", "lat": 38.91268183333333}, {"rental_uris": {"ios": "https://dc.lft.to/lastmile_qr_scan", "android": "https://dc.lft.to/lastmile_qr_scan"}, "is_reserved": 0, "fusion_lat": 0.0, "type": "electric_scooter", "bike_id": "1dc4cc42e48617f528ae126ee447f55e", "is_disabled": 0, "lon": -77.05054316666667, "fusion_lon": 0.0, "name": "1dc4cc42e48617f528ae126ee447f55e", "lat": 38.92362283333333}, {"rental_uris": {"ios": "https://dc.lft.to/lastmile_qr_scan", "android": "https://dc.lft.to/lastmile_qr_scan"}, "is_reserved": 0, "fusion_lat": 0.0, "type": "electric_scooter", "bike_id": "d7abab218220e408ef5064ccab045471", "is_disabled": 0, "lon": -77.0402995, "fusion_lon": 0.0, "name": "d7abab218220e408ef5064ccab045471", "lat": 38.903613}, {"rental_uris": {"ios": "https://dc.lft.to/lastmile_qr_scan", "android": "https://dc.lft.to/lastmile_qr_scan"}, "is_reserved": 0, "fusion_lat": 0.0, "type": "electric_scooter", "bike_id": "535fc9321ba43b154b95b50e907073d3", "is_disabled": 0, "lon": -77.0175935, "fusion_lon": 0.0, "name": "535fc9321ba43b154b95b50e907073d3", "lat": 38.876764333333334}, {"rental_uris": {"ios": "https://dc.lft.to/lastmile_qr_scan", "android": "https://dc.lft.to/lastmile_qr_scan"}, "is_reserved": 0, "fusion_lat": 0.0, "type": "electric_scooter", "bike_id": "6c6d5bba3c188ef491025a0a6f7d471a", "is_disabled": 0, "lon": -77.04839233333334, "fusion_lon": 0.0, "name": "6c6d5bba3c188ef491025a0a6f7d471a", "lat": 38.912717}, {"rental_uris": {"ios": "https://dc.lft.to/lastmile_qr_scan", "android": "https://dc.lft.to/lastmile_qr_scan"}, "is_reserved": 0, "fusion_lat": 0.0, "type": "electric_bike", "bike_id": "f5c06c45d0786bcd84540ef3069d6513", "is_disabled": 0, "lon": -77.1293645, "fusion_lon": 0.0, "name": "f5c06c45d0786bcd84540ef3069d6513", "lat": 38.8651955}, {"rental_uris": {"ios": "https://dc.lft.to/lastmile_qr_scan", "android": "https://dc.lft.to/lastmile_qr_scan"}, "is_reserved": 0, "fusion_lat": 0.0, "type": "electric_scooter", "bike_id": "4e522d4df8bcd8bbb43f700dcc906dd3", "is_disabled": 0, "lon": -76.92595433333334, "fusion_lon": 0.0, "name": "4e522d4df8bcd8bbb43f700dcc906dd3", "lat": 38.893633333333334}, {"rental_uris": {"ios": "https://dc.lft.to/lastmile_qr_scan", "android": "https://dc.lft.to/lastmile_qr_scan"}, "is_reserved": 0, "fusion_lat": 0.0, "type": "electric_scooter", "bike_id": "484d846f5f804e791532a21498a1c186", "is_disabled": 0, "lon": -77.02582516666666, "fusion_lon": 0.0, "name": "484d846f5f804e791532a21498a1c186", "lat": 38.896052166666664}, {"rental_uris": {"ios": "https://dc.lft.to/lastmile_qr_scan", "android": "https://dc.lft.to/lastmile_qr_scan"}, "is_reserved": 0, "fusion_lat": 0.0, "type": "electric_scooter", "bike_id": "3926d1a1b5e0e315f026aac86186c9fc", "is_disabled": 0, "lon": -77.00795883333333, "fusion_lon": 0.0, "name": "3926d1a1b5e0e315f026aac86186c9fc", "lat": 38.89720716666667}, {"rental_uris": {"ios": "https://dc.lft.to/lastmile_qr_scan", "android": "https://dc.lft.to/lastmile_qr_scan"}, "is_reserved": 0, "fusion_lat": 0.0, "type": "electric_scooter", "bike_id": "473ea8da1a7e88666c1255f2380bdc5b", "is_disabled": 0, "lon": -77.04835266666667, "fusion_lon": 0.0, "name": "473ea8da1a7e88666c1255f2380bdc5b", "lat": 38.91488316666667}, {"rental_uris": {"ios": "https://dc.lft.to/lastmile_qr_scan", "android": "https://dc.lft.to/lastmile_qr_scan"}, "is_reserved": 0, "fusion_lat": 0.0, "type": "electric_scooter", "bike_id": "009f6a53ad0ef2bb31fc88d6d6702a17", "is_disabled": 0, "lon": -77.028403, "fusion_lon": 0.0, "name": "009f6a53ad0ef2bb31fc88d6d6702a17", "lat": 38.91703066666667}, {"rental_uris": {"ios": "https://dc.lft.to/lastmile_qr_scan", "android": "https://dc.lft.to/lastmile_qr_scan"}, "is_reserved": 0, "fusion_lat": 0.0, "type": "electric_scooter", "bike_id": "46a340634db9bc2aece5163efe40b369", "is_disabled": 0, "lon": -77.03279433333333, "fusion_lon": 0.0, "name": "46a340634db9bc2aece5163efe40b369", "lat": 38.9370485}, {"rental_uris": {"ios": "https://dc.lft.to/lastmile_qr_scan", "android": "https://dc.lft.to/lastmile_qr_scan"}, "is_reserved": 0, "fusion_lat": 0.0, "type": "electric_scooter", "bike_id": "7b7b4dd541725fcbe5ad442a212c5baf", "is_disabled": 0, "lon": -77.043362, "fusion_lon": 0.0, "name": "7b7b4dd541725fcbe5ad442a212c5baf", "lat": 38.90548233333333}, {"rental_uris": {"ios": "https://dc.lft.to/lastmile_qr_scan", "android": "https://dc.lft.to/lastmile_qr_scan"}, "is_reserved": 0, "fusion_lat": 0.0, "type": "electric_scooter", "bike_id": "f2e8593d29b291cf37857883e49d911c", "is_disabled": 0, "lon": -77.04136983333333, "fusion_lon": 0.0, "name": "f2e8593d29b291cf37857883e49d911c", "lat": 38.90022483333333}, {"rental_uris": {"ios": "https://dc.lft.to/lastmile_qr_scan", "android": "https://dc.lft.to/lastmile_qr_scan"}, "is_reserved": 0, "fusion_lat": 0.0, "type": "electric_scooter", "bike_id": "e7fe58140a91e29e572ba8b6a324054f", "is_disabled": 0, "lon": -77.02827366666666, "fusion_lon": 0.0, "name": "e7fe58140a91e29e572ba8b6a324054f", "lat": 38.883373666666664}, {"rental_uris": {"ios": "https://dc.lft.to/lastmile_qr_scan", "android": "https://dc.lft.to/lastmile_qr_scan"}, "is_reserved": 0, "fusion_lat": 0.0, "type": "electric_scooter", "bike_id": "db9b7c81dc26c411d41d8f71a7216ed6", "is_disabled": 0, "lon": -77.03615716666667, "fusion_lon": 0.0, "name": "db9b7c81dc26c411d41d8f71a7216ed6", "lat": 38.928612}, {"rental_uris": {"ios": "https://dc.lft.to/lastmile_qr_scan", "android": "https://dc.lft.to/lastmile_qr_scan"}, "is_reserved": 0, "fusion_lat": 0.0, "type": "electric_scooter", "bike_id": "a4195e158942cd14aadfbff5bb431593", "is_disabled": 0, "lon": -77.03962966666667, "fusion_lon": 0.0, "name": "a4195e158942cd14aadfbff5bb431593", "lat": 38.898899666666665}, {"rental_uris": {"ios": "https://dc.lft.to/lastmile_qr_scan", "android": "https://dc.lft.to/lastmile_qr_scan"}, "is_reserved": 0, "fusion_lat": 0.0, "type": "electric_scooter", "bike_id": "b14d61e00cd44536b94fd8e605521b79", "is_disabled": 0, "lon": -77.0359345, "fusion_lon": 0.0, "name": "b14d61e00cd44536b94fd8e605521b79", "lat": 38.936774166666666}, {"rental_uris": {"ios": "https://dc.lft.to/lastmile_qr_scan", "android": "https://dc.lft.to/lastmile_qr_scan"}, "is_reserved": 0, "fusion_lat": 0.0, "type": "electric_scooter", "bike_id": "984f7a9bb7a57682e0d12713f36baeb3", "is_disabled": 0, "lon": -77.00740933333333, "fusion_lon": 0.0, "name": "984f7a9bb7a57682e0d12713f36baeb3", "lat": 38.8970855}, {"rental_uris": {"ios": "https://dc.lft.to/lastmile_qr_scan", "android": "https://dc.lft.to/lastmile_qr_scan"}, "is_reserved": 0, "fusion_lat": 0.0, "type": "electric_scooter", "bike_id": "4af70594163a8f70ff3155f7c5e99732", "is_disabled": 0, "lon": -77.04330916666666, "fusion_lon": 0.0, "name": "4af70594163a8f70ff3155f7c5e99732", "lat": 38.892269166666665}, {"rental_uris": {"ios": "https://dc.lft.to/lastmile_qr_scan", "android": "https://dc.lft.to/lastmile_qr_scan"}, "is_reserved": 0, "fusion_lat": 0.0, "type": "electric_scooter", "bike_id": "bbd63bf39ac198a8fc8091e118ffeed1", "is_disabled": 0, "lon": -76.93072716666667, "fusion_lon": 0.0, "name": "bbd63bf39ac198a8fc8091e118ffeed1", "lat": 38.90165566666667}, {"rental_uris": {"ios": "https://dc.lft.to/lastmile_qr_scan", "android": "https://dc.lft.to/lastmile_qr_scan"}, "is_reserved": 0, "fusion_lat": 0.0, "type": "electric_scooter", "bike_id": "02a5a89fd169661bb38f3c1490e99b0d", "is_disabled": 0, "lon": -77.02518783333333, "fusion_lon": 0.0, "name": "02a5a89fd169661bb38f3c1490e99b0d", "lat": 38.884356833333335}, {"rental_uris": {"ios": "https://dc.lft.to/lastmile_qr_scan", "android": "https://dc.lft.to/lastmile_qr_scan"}, "is_reserved": 0, "fusion_lat": 0.0, "type": "electric_scooter", "bike_id": "b5e003f19a4920de2170883eb3399711", "is_disabled": 0, "lon": -76.99926966666666, "fusion_lon": 0.0, "name": "b5e003f19a4920de2170883eb3399711", "lat": 38.9090745}, {"rental_uris": {"ios": "https://dc.lft.to/lastmile_qr_scan", "android": "https://dc.lft.to/lastmile_qr_scan"}, "is_reserved": 0, "fusion_lat": 0.0, "type": "electric_scooter", "bike_id": "b98f61bcf8578cedb4cc3b932f04d75a", "is_disabled": 0, "lon": -77.0787365, "fusion_lon": 0.0, "name": "b98f61bcf8578cedb4cc3b932f04d75a", "lat": 38.94869716666667}, {"rental_uris": {"ios": "https://dc.lft.to/lastmile_qr_scan", "android": "https://dc.lft.to/lastmile_qr_scan"}, "is_reserved": 0, "fusion_lat": 0.0, "type": "electric_scooter", "bike_id": "f97a6f1598c75e7250a361d335819ec0", "is_disabled": 0, "lon": -76.98707466666667, "fusion_lon": 0.0, "name": "f97a6f1598c75e7250a361d335819ec0", "lat": 38.900263}, {"rental_uris": {"ios": "https://dc.lft.to/lastmile_qr_scan", "android": "https://dc.lft.to/lastmile_qr_scan"}, "is_reserved": 0, "fusion_lat": 0.0, "type": "electric_bike", "bike_id": "14f45b8d82142766dd8746fdfbe6318e", "is_disabled": 0, "lon": -77.0342735, "fusion_lon": 0.0, "name": "14f45b8d82142766dd8746fdfbe6318e", "lat": 38.9366205}, {"rental_uris": {"ios": "https://dc.lft.to/lastmile_qr_scan", "android": "https://dc.lft.to/lastmile_qr_scan"}, "is_reserved": 0, "fusion_lat": 0.0, "type": "electric_scooter", "bike_id": "16ec3c8fd433681a258ff660172980c0", "is_disabled": 0, "lon": -77.02854266666667, "fusion_lon": 0.0, "name": "16ec3c8fd433681a258ff660172980c0", "lat": 38.933465166666664}, {"rental_uris": {"ios": "https://dc.lft.to/lastmile_qr_scan", "android": "https://dc.lft.to/lastmile_qr_scan"}, "is_reserved": 0, "fusion_lat": 0.0, "type": "electric_scooter", "bike_id": "20da1b7e8fe64dde2ec17f608ba8e504", "is_disabled": 0, "lon": -76.93128683333333, "fusion_lon": 0.0, "name": "20da1b7e8fe64dde2ec17f608ba8e504", "lat": 38.898255166666665}, {"rental_uris": {"ios": "https://dc.lft.to/lastmile_qr_scan", "android": "https://dc.lft.to/lastmile_qr_scan"}, "is_reserved": 0, "fusion_lat": 0.0, "type": "electric_scooter", "bike_id": "7250512534348c55e57c4c9451563b88", "is_disabled": 0, "lon": -77.02687933333333, "fusion_lon": 0.0, "name": "7250512534348c55e57c4c9451563b88", "lat": 38.90666616666667}, {"rental_uris": {"ios": "https://dc.lft.to/lastmile_qr_scan", "android": "https://dc.lft.to/lastmile_qr_scan"}, "is_reserved": 0, "fusion_lat": 0.0, "type": "electric_scooter", "bike_id": "11d92cbe10b25074db59aff8d5ff26a4", "is_disabled": 0, "lon": -77.0140755, "fusion_lon": 0.0, "name": "11d92cbe10b25074db59aff8d5ff26a4", "lat": 38.928227666666665}, {"rental_uris": {"ios": "https://dc.lft.to/lastmile_qr_scan", "android": "https://dc.lft.to/lastmile_qr_scan"}, "is_reserved": 0, "fusion_lat": 0.0, "type": "electric_bike", "bike_id": "7eff30e0b0cde7c13e65f107afa3dfaa", "is_disabled": 0, "lon": -77.20140866666667, "fusion_lon": 0.0, "name": "7eff30e0b0cde7c13e65f107afa3dfaa", "lat": 38.92216116666667}, {"rental_uris": {"ios": "https://dc.lft.to/lastmile_qr_scan", "android": "https://dc.lft.to/lastmile_qr_scan"}, "is_reserved": 0, "fusion_lat": 0.0, "type": "electric_scooter", "bike_id": "73cc8c6d73a663ae8a2ee73263f4cca4", "is_disabled": 0, "lon": -77.076549, "fusion_lon": 0.0, "name": "73cc8c6d73a663ae8a2ee73263f4cca4", "lat": 38.9352635}, {"rental_uris": {"ios": "https://dc.lft.to/lastmile_qr_scan", "android": "https://dc.lft.to/lastmile_qr_scan"}, "is_reserved": 0, "fusion_lat": 0.0, "type": "electric_scooter", "bike_id": "fe95c3884ea1b3a06e480224ac75f24c", "is_disabled": 0, "lon": -77.03326233333334, "fusion_lon": 0.0, "name": "fe95c3884ea1b3a06e480224ac75f24c", "lat": 38.913989}, {"rental_uris": {"ios": "https://dc.lft.to/lastmile_qr_scan", "android": "https://dc.lft.to/lastmile_qr_scan"}, "is_reserved": 0, "fusion_lat": 0.0, "type": "electric_scooter", "bike_id": "af6152d018a0df4a28bf1188932bd65d", "is_disabled": 0, "lon": -77.03260733333333, "fusion_lon": 0.0, "name": "af6152d018a0df4a28bf1188932bd65d", "lat": 38.929023666666666}, {"rental_uris": {"ios": "https://dc.lft.to/lastmile_qr_scan", "android": "https://dc.lft.to/lastmile_qr_scan"}, "is_reserved": 0, "fusion_lat": 0.0, "type": "electric_scooter", "bike_id": "397ce846f427c330d1ce97f4a9db6fd7", "is_disabled": 0, "lon": -76.94646466666667, "fusion_lon": 0.0, "name": "397ce846f427c330d1ce97f4a9db6fd7", "lat": 38.89865133333333}, {"rental_uris": {"ios": "https://dc.lft.to/lastmile_qr_scan", "android": "https://dc.lft.to/lastmile_qr_scan"}, "is_reserved": 0, "fusion_lat": 0.0, "type": "electric_scooter", "bike_id": "36e2615d1cc7d848a09727c41be2a3fa", "is_disabled": 0, "lon": -76.9347545, "fusion_lon": 0.0, "name": "36e2615d1cc7d848a09727c41be2a3fa", "lat": 38.89509066666667}, {"rental_uris": {"ios": "https://dc.lft.to/lastmile_qr_scan", "android": "https://dc.lft.to/lastmile_qr_scan"}, "is_reserved": 0, "fusion_lat": 0.0, "type": "electric_scooter", "bike_id": "62e75f5c03f45ad8a6f886371ae7ec4e", "is_disabled": 0, "lon": -77.0429755, "fusion_lon": 0.0, "name": "62e75f5c03f45ad8a6f886371ae7ec4e", "lat": 38.92261166666667}, {"rental_uris": {"ios": "https://dc.lft.to/lastmile_qr_scan", "android": "https://dc.lft.to/lastmile_qr_scan"}, "is_reserved": 0, "fusion_lat": 0.0, "type": "electric_scooter", "bike_id": "f13c719a53ef48c217813cb34c0d1396", "is_disabled": 0, "lon": -77.022168, "fusion_lon": 0.0, "name": "f13c719a53ef48c217813cb34c0d1396", "lat": 38.92477783333333}, {"rental_uris": {"ios": "https://dc.lft.to/lastmile_qr_scan", "android": "https://dc.lft.to/lastmile_qr_scan"}, "is_reserved": 0, "fusion_lat": 0.0, "type": "electric_scooter", "bike_id": "4388c9a759c32ec69e188cad846e6b8b", "is_disabled": 0, "lon": -77.03837483333334, "fusion_lon": 0.0, "name": "4388c9a759c32ec69e188cad846e6b8b", "lat": 38.911274666666664}, {"rental_uris": {"ios": "https://dc.lft.to/lastmile_qr_scan", "android": "https://dc.lft.to/lastmile_qr_scan"}, "is_reserved": 0, "fusion_lat": 0.0, "type": "electric_scooter", "bike_id": "8ba95d5d11a23f35e58b9390527ff127", "is_disabled": 0, "lon": -77.041368, "fusion_lon": 0.0, "name": "8ba95d5d11a23f35e58b9390527ff127", "lat": 38.903768166666666}, {"rental_uris": {"ios": "https://dc.lft.to/lastmile_qr_scan", "android": "https://dc.lft.to/lastmile_qr_scan"}, "is_reserved": 0, "fusion_lat": 0.0, "type": "electric_scooter", "bike_id": "3898a97fb3ed9b31630178d6a7a74b00", "is_disabled": 0, "lon": -77.02581283333333, "fusion_lon": 0.0, "name": "3898a97fb3ed9b31630178d6a7a74b00", "lat": 38.88737166666667}, {"rental_uris": {"ios": "https://dc.lft.to/lastmile_qr_scan", "android": "https://dc.lft.to/lastmile_qr_scan"}, "is_reserved": 0, "fusion_lat": 0.0, "type": "electric_scooter", "bike_id": "5c705d0383f576431222e1d8218b04d6", "is_disabled": 0, "lon": -77.05029766666667, "fusion_lon": 0.0, "name": "5c705d0383f576431222e1d8218b04d6", "lat": 38.92363183333333}, {"rental_uris": {"ios": "https://dc.lft.to/lastmile_qr_scan", "android": "https://dc.lft.to/lastmile_qr_scan"}, "is_reserved": 0, "fusion_lat": 0.0, "type": "electric_scooter", "bike_id": "4b1137179214787caba9799f51098e38", "is_disabled": 0, "lon": -76.99039133333333, "fusion_lon": 0.0, "name": "4b1137179214787caba9799f51098e38", "lat": 38.924885833333335}, {"rental_uris": {"ios": "https://dc.lft.to/lastmile_qr_scan", "android": "https://dc.lft.to/lastmile_qr_scan"}, "is_reserved": 0, "fusion_lat": 0.0, "type": "electric_scooter", "bike_id": "02fef7620cdf696a43c41196b4639eda", "is_disabled": 0, "lon": -76.98191966666667, "fusion_lon": 0.0, "name": "02fef7620cdf696a43c41196b4639eda", "lat": 38.92061783333333}, {"rental_uris": {"ios": "https://dc.lft.to/lastmile_qr_scan", "android": "https://dc.lft.to/lastmile_qr_scan"}, "is_reserved": 0, "fusion_lat": 0.0, "type": "electric_bike", "bike_id": "e59292fcc3f62d923a1023437c1c89ed", "is_disabled": 0, "lon": -76.99368866666667, "fusion_lon": 0.0, "name": "e59292fcc3f62d923a1023437c1c89ed", "lat": 38.991026}, {"rental_uris": {"ios": "https://dc.lft.to/lastmile_qr_scan", "android": "https://dc.lft.to/lastmile_qr_scan"}, "is_reserved": 0, "fusion_lat": 0.0, "type": "electric_scooter", "bike_id": "6cddb78ff8cceb8124c7b5a80fe8aff3", "is_disabled": 0, "lon": -76.99485983333334, "fusion_lon": 0.0, "name": "6cddb78ff8cceb8124c7b5a80fe8aff3", "lat": 38.89976083333333}, {"rental_uris": {"ios": "https://dc.lft.to/lastmile_qr_scan", "android": "https://dc.lft.to/lastmile_qr_scan"}, "is_reserved": 0, "fusion_lat": 0.0, "type": "electric_scooter", "bike_id": "b4e6465b02ca3b19ba0c38882264a6bf", "is_disabled": 0, "lon": -77.02206483333333, "fusion_lon": 0.0, "name": "b4e6465b02ca3b19ba0c38882264a6bf", "lat": 38.89229233333333}, {"rental_uris": {"ios": "https://dc.lft.to/lastmile_qr_scan", "android": "https://dc.lft.to/lastmile_qr_scan"}, "is_reserved": 0, "fusion_lat": 0.0, "type": "electric_scooter", "bike_id": "e7dd3c482c0efd9c18f7d4f1f893ff09", "is_disabled": 0, "lon": -77.02443983333333, "fusion_lon": 0.0, "name": "e7dd3c482c0efd9c18f7d4f1f893ff09", "lat": 38.92304433333334}, {"rental_uris": {"ios": "https://dc.lft.to/lastmile_qr_scan", "android": "https://dc.lft.to/lastmile_qr_scan"}, "is_reserved": 0, "fusion_lat": 0.0, "type": "electric_scooter", "bike_id": "7907f9a571ad5b370ce0c1afbdfca5bc", "is_disabled": 0, "lon": -77.02412066666666, "fusion_lon": 0.0, "name": "7907f9a571ad5b370ce0c1afbdfca5bc", "lat": 38.94403716666667}, {"rental_uris": {"ios": "https://dc.lft.to/lastmile_qr_scan", "android": "https://dc.lft.to/lastmile_qr_scan"}, "is_reserved": 0, "fusion_lat": 0.0, "type": "electric_bike", "bike_id": "77314eb5bfcfbaffb52b817e5af2bd1c", "is_disabled": 0, "lon": -77.01685166666667, "fusion_lon": 0.0, "name": "77314eb5bfcfbaffb52b817e5af2bd1c", "lat": 38.975377}, {"rental_uris": {"ios": "https://dc.lft.to/lastmile_qr_scan", "android": "https://dc.lft.to/lastmile_qr_scan"}, "is_reserved": 0, "fusion_lat": 0.0, "type": "electric_scooter", "bike_id": "42ec83bb1c80eb7d6f8ee173fdeeb239", "is_disabled": 0, "lon": -76.9856205, "fusion_lon": 0.0, "name": "42ec83bb1c80eb7d6f8ee173fdeeb239", "lat": 38.866843333333335}, {"rental_uris": {"ios": "https://dc.lft.to/lastmile_qr_scan", "android": "https://dc.lft.to/lastmile_qr_scan"}, "is_reserved": 0, "fusion_lat": 0.0, "type": "electric_scooter", "bike_id": "e89372f2d89a32b10eb833a704ee2725", "is_disabled": 0, "lon": -77.04182266666666, "fusion_lon": 0.0, "name": "e89372f2d89a32b10eb833a704ee2725", "lat": 38.91983916666667}, {"rental_uris": {"ios": "https://dc.lft.to/lastmile_qr_scan", "android": "https://dc.lft.to/lastmile_qr_scan"}, "is_reserved": 0, "fusion_lat": 0.0, "type": "electric_scooter", "bike_id": "c464e10cc6118ca9a6b60f4059799c23", "is_disabled": 0, "lon": -77.0041095, "fusion_lon": 0.0, "name": "c464e10cc6118ca9a6b60f4059799c23", "lat": 38.877152833333334}, {"rental_uris": {"ios": "https://dc.lft.to/lastmile_qr_scan", "android": "https://dc.lft.to/lastmile_qr_scan"}, "is_reserved": 0, "fusion_lat": 0.0, "type": "electric_bike", "bike_id": "46d96bd655e2b342e4fad7a537dbf6ad", "is_disabled": 0, "lon": -77.0205655, "fusion_lon": 0.0, "name": "46d96bd655e2b342e4fad7a537dbf6ad", "lat": 38.946821666666665}, {"rental_uris": {"ios": "https://dc.lft.to/lastmile_qr_scan", "android": "https://dc.lft.to/lastmile_qr_scan"}, "is_reserved": 0, "fusion_lat": 0.0, "type": "electric_scooter", "bike_id": "6bdae7cedee528a4babdc36342566607", "is_disabled": 0, "lon": -77.05029, "fusion_lon": 0.0, "name": "6bdae7cedee528a4babdc36342566607", "lat": 38.923675833333334}, {"rental_uris": {"ios": "https://dc.lft.to/lastmile_qr_scan", "android": "https://dc.lft.to/lastmile_qr_scan"}, "is_reserved": 0, "fusion_lat": 0.0, "type": "electric_scooter", "bike_id": "487003bc9442f3edffd5f13dd96ac0eb", "is_disabled": 0, "lon": -77.05999016666667, "fusion_lon": 0.0, "name": "487003bc9442f3edffd5f13dd96ac0eb", "lat": 38.93646183333333}, {"rental_uris": {"ios": "https://dc.lft.to/lastmile_qr_scan", "android": "https://dc.lft.to/lastmile_qr_scan"}, "is_reserved": 0, "fusion_lat": 0.0, "type": "electric_scooter", "bike_id": "dc84c3aa30f090cacd0a31b466e3f724", "is_disabled": 0, "lon": -77.06401466666667, "fusion_lon": 0.0, "name": "dc84c3aa30f090cacd0a31b466e3f724", "lat": 38.94495333333333}, {"rental_uris": {"ios": "https://dc.lft.to/lastmile_qr_scan", "android": "https://dc.lft.to/lastmile_qr_scan"}, "is_reserved": 0, "fusion_lat": 0.0, "type": "electric_scooter", "bike_id": "26cbdf43e44452bafe57a7074fb3758b", "is_disabled": 0, "lon": -77.036572, "fusion_lon": 0.0, "name": "26cbdf43e44452bafe57a7074fb3758b", "lat": 38.92216033333333}, {"rental_uris": {"ios": "https://dc.lft.to/lastmile_qr_scan", "android": "https://dc.lft.to/lastmile_qr_scan"}, "is_reserved": 0, "fusion_lat": 0.0, "type": "electric_scooter", "bike_id": "5629b9f96e1b6da6b73cc846c25035dc", "is_disabled": 0, "lon": -77.01475966666666, "fusion_lon": 0.0, "name": "5629b9f96e1b6da6b73cc846c25035dc", "lat": 38.89615533333333}, {"rental_uris": {"ios": "https://dc.lft.to/lastmile_qr_scan", "android": "https://dc.lft.to/lastmile_qr_scan"}, "is_reserved": 0, "fusion_lat": 0.0, "type": "electric_scooter", "bike_id": "700c651e1e6c44e6600ff983a895720a", "is_disabled": 0, "lon": -76.98473716666666, "fusion_lon": 0.0, "name": "700c651e1e6c44e6600ff983a895720a", "lat": 38.91284266666667}, {"rental_uris": {"ios": "https://dc.lft.to/lastmile_qr_scan", "android": "https://dc.lft.to/lastmile_qr_scan"}, "is_reserved": 0, "fusion_lat": 0.0, "type": "electric_scooter", "bike_id": "41657d8367fedf92d0a49118ca98c4d2", "is_disabled": 0, "lon": -77.02570266666666, "fusion_lon": 0.0, "name": "41657d8367fedf92d0a49118ca98c4d2", "lat": 38.89045483333334}, {"rental_uris": {"ios": "https://dc.lft.to/lastmile_qr_scan", "android": "https://dc.lft.to/lastmile_qr_scan"}, "is_reserved": 0, "fusion_lat": 0.0, "type": "electric_scooter", "bike_id": "5d6326c0b407a704cba600813251a56d", "is_disabled": 0, "lon": -77.01903883333334, "fusion_lon": 0.0, "name": "5d6326c0b407a704cba600813251a56d", "lat": 38.9237835}, {"rental_uris": {"ios": "https://dc.lft.to/lastmile_qr_scan", "android": "https://dc.lft.to/lastmile_qr_scan"}, "is_reserved": 0, "fusion_lat": 0.0, "type": "electric_bike", "bike_id": "56557ab805745620ea7884c6da5fb9d7", "is_disabled": 0, "lon": -77.11083383333333, "fusion_lon": 0.0, "name": "56557ab805745620ea7884c6da5fb9d7", "lat": 39.0122375}, {"rental_uris": {"ios": "https://dc.lft.to/lastmile_qr_scan", "android": "https://dc.lft.to/lastmile_qr_scan"}, "is_reserved": 0, "fusion_lat": 0.0, "type": "electric_bike", "bike_id": "45664ee6b027f39096d961c6624b55a4", "is_disabled": 0, "lon": -77.0130025, "fusion_lon": 0.0, "name": "45664ee6b027f39096d961c6624b55a4", "lat": 39.003712166666666}, {"rental_uris": {"ios": "https://dc.lft.to/lastmile_qr_scan", "android": "https://dc.lft.to/lastmile_qr_scan"}, "is_reserved": 0, "fusion_lat": 0.0, "type": "electric_scooter", "bike_id": "fc1c90c0daf3693ef4c225588d4fc32a", "is_disabled": 0, "lon": -77.02870816666666, "fusion_lon": 0.0, "name": "fc1c90c0daf3693ef4c225588d4fc32a", "lat": 38.89852583333333}, {"rental_uris": {"ios": "https://dc.lft.to/lastmile_qr_scan", "android": "https://dc.lft.to/lastmile_qr_scan"}, "is_reserved": 0, "fusion_lat": 0.0, "type": "electric_scooter", "bike_id": "1284fb33bf5f64d329e072d81a0f81de", "is_disabled": 0, "lon": -77.0158825, "fusion_lon": 0.0, "name": "1284fb33bf5f64d329e072d81a0f81de", "lat": 38.915553}, {"rental_uris": {"ios": "https://dc.lft.to/lastmile_qr_scan", "android": "https://dc.lft.to/lastmile_qr_scan"}, "is_reserved": 0, "fusion_lat": 0.0, "type": "electric_scooter", "bike_id": "8b84f06b727ac7af0dcb001ee32f80ba", "is_disabled": 0, "lon": -77.0151865, "fusion_lon": 0.0, "name": "8b84f06b727ac7af0dcb001ee32f80ba", "lat": 38.88476583333333}, {"rental_uris": {"ios": "https://dc.lft.to/lastmile_qr_scan", "android": "https://dc.lft.to/lastmile_qr_scan"}, "is_reserved": 0, "fusion_lat": 0.0, "type": "electric_scooter", "bike_id": "4f0474636636fc66b538d62145e09865", "is_disabled": 0, "lon": -77.0653515, "fusion_lon": 0.0, "name": "4f0474636636fc66b538d62145e09865", "lat": 38.904741333333334}, {"rental_uris": {"ios": "https://dc.lft.to/lastmile_qr_scan", "android": "https://dc.lft.to/lastmile_qr_scan"}, "is_reserved": 0, "fusion_lat": 0.0, "type": "electric_scooter", "bike_id": "581569e5f47b7e888dedb3143bca035d", "is_disabled": 0, "lon": -77.02546183333334, "fusion_lon": 0.0, "name": "581569e5f47b7e888dedb3143bca035d", "lat": 38.9210465}, {"rental_uris": {"ios": "https://dc.lft.to/lastmile_qr_scan", "android": "https://dc.lft.to/lastmile_qr_scan"}, "is_reserved": 0, "fusion_lat": 0.0, "type": "electric_scooter", "bike_id": "4b7838cb392becf653b92fdc2ebd8e24", "is_disabled": 0, "lon": -77.05742866666667, "fusion_lon": 0.0, "name": "4b7838cb392becf653b92fdc2ebd8e24", "lat": 38.93398766666667}, {"rental_uris": {"ios": "https://dc.lft.to/lastmile_qr_scan", "android": "https://dc.lft.to/lastmile_qr_scan"}, "is_reserved": 0, "fusion_lat": 0.0, "type": "electric_scooter", "bike_id": "e51ced7149beb7e2fbed40523bf94154", "is_disabled": 0, "lon": -77.0237985, "fusion_lon": 0.0, "name": "e51ced7149beb7e2fbed40523bf94154", "lat": 38.911554333333335}, {"rental_uris": {"ios": "https://dc.lft.to/lastmile_qr_scan", "android": "https://dc.lft.to/lastmile_qr_scan"}, "is_reserved": 0, "fusion_lat": 0.0, "type": "electric_scooter", "bike_id": "f6e0394fd854058f4b98cbc16f0b8463", "is_disabled": 0, "lon": -77.04189383333333, "fusion_lon": 0.0, "name": "f6e0394fd854058f4b98cbc16f0b8463", "lat": 38.9012205}, {"rental_uris": {"ios": "https://dc.lft.to/lastmile_qr_scan", "android": "https://dc.lft.to/lastmile_qr_scan"}, "is_reserved": 0, "fusion_lat": 0.0, "type": "electric_scooter", "bike_id": "4db920cc7ad398d9adf8e0f8bd74641f", "is_disabled": 0, "lon": -77.05521883333333, "fusion_lon": 0.0, "name": "4db920cc7ad398d9adf8e0f8bd74641f", "lat": 38.897343}, {"rental_uris": {"ios": "https://dc.lft.to/lastmile_qr_scan", "android": "https://dc.lft.to/lastmile_qr_scan"}, "is_reserved": 0, "fusion_lat": 0.0, "type": "electric_scooter", "bike_id": "ee0d5565c0ba4c57640d2d70140fa523", "is_disabled": 0, "lon": -77.04860483333333, "fusion_lon": 0.0, "name": "ee0d5565c0ba4c57640d2d70140fa523", "lat": 38.9162175}, {"rental_uris": {"ios": "https://dc.lft.to/lastmile_qr_scan", "android": "https://dc.lft.to/lastmile_qr_scan"}, "is_reserved": 0, "fusion_lat": 0.0, "type": "electric_scooter", "bike_id": "afe1c3c6178e08d4de2ae9965e92bdb0", "is_disabled": 0, "lon": -77.02464083333334, "fusion_lon": 0.0, "name": "afe1c3c6178e08d4de2ae9965e92bdb0", "lat": 38.938846}, {"rental_uris": {"ios": "https://dc.lft.to/lastmile_qr_scan", "android": "https://dc.lft.to/lastmile_qr_scan"}, "is_reserved": 0, "fusion_lat": 0.0, "type": "electric_scooter", "bike_id": "8c934165f9c020a5469c9e07ddfeddc9", "is_disabled": 0, "lon": -76.94632016666667, "fusion_lon": 0.0, "name": "8c934165f9c020a5469c9e07ddfeddc9", "lat": 38.89868083333333}, {"rental_uris": {"ios": "https://dc.lft.to/lastmile_qr_scan", "android": "https://dc.lft.to/lastmile_qr_scan"}, "is_reserved": 0, "fusion_lat": 0.0, "type": "electric_scooter", "bike_id": "79a68ecd2d0ef38f865686ad0462bb1e", "is_disabled": 0, "lon": -77.04565716666667, "fusion_lon": 0.0, "name": "79a68ecd2d0ef38f865686ad0462bb1e", "lat": 38.9136505}, {"rental_uris": {"ios": "https://dc.lft.to/lastmile_qr_scan", "android": "https://dc.lft.to/lastmile_qr_scan"}, "is_reserved": 0, "fusion_lat": 0.0, "type": "electric_scooter", "bike_id": "4b9f568daa69cf2758fb02fb708f5907", "is_disabled": 0, "lon": -77.02009333333334, "fusion_lon": 0.0, "name": "4b9f568daa69cf2758fb02fb708f5907", "lat": 38.924158166666665}, {"rental_uris": {"ios": "https://dc.lft.to/lastmile_qr_scan", "android": "https://dc.lft.to/lastmile_qr_scan"}, "is_reserved": 0, "fusion_lat": 0.0, "type": "electric_scooter", "bike_id": "4b4bf4f76cd10f393e89350764c9996c", "is_disabled": 0, "lon": -77.03656516666666, "fusion_lon": 0.0, "name": "4b4bf4f76cd10f393e89350764c9996c", "lat": 38.91179916666667}, {"rental_uris": {"ios": "https://dc.lft.to/lastmile_qr_scan", "android": "https://dc.lft.to/lastmile_qr_scan"}, "is_reserved": 0, "fusion_lat": 0.0, "type": "electric_bike", "bike_id": "29265a4b44ff39743bcd94acb69f458b", "is_disabled": 0, "lon": -77.0647515, "fusion_lon": 0.0, "name": "29265a4b44ff39743bcd94acb69f458b", "lat": 38.973805}, {"rental_uris": {"ios": "https://dc.lft.to/lastmile_qr_scan", "android": "https://dc.lft.to/lastmile_qr_scan"}, "is_reserved": 0, "fusion_lat": 0.0, "type": "electric_scooter", "bike_id": "3f6ac0aee11f33d45c4c6ae812e2c4b4", "is_disabled": 0, "lon": -77.05703283333334, "fusion_lon": 0.0, "name": "3f6ac0aee11f33d45c4c6ae812e2c4b4", "lat": 38.90549816666667}, {"rental_uris": {"ios": "https://dc.lft.to/lastmile_qr_scan", "android": "https://dc.lft.to/lastmile_qr_scan"}, "is_reserved": 0, "fusion_lat": 0.0, "type": "electric_scooter", "bike_id": "aeb2992f23e3e749ced2ebb84ba42743", "is_disabled": 0, "lon": -77.04373983333333, "fusion_lon": 0.0, "name": "aeb2992f23e3e749ced2ebb84ba42743", "lat": 38.892222}, {"rental_uris": {"ios": "https://dc.lft.to/lastmile_qr_scan", "android": "https://dc.lft.to/lastmile_qr_scan"}, "is_reserved": 0, "fusion_lat": 0.0, "type": "electric_scooter", "bike_id": "61935fff66020f2f8323ed369bd26c78", "is_disabled": 0, "lon": -77.01336766666667, "fusion_lon": 0.0, "name": "61935fff66020f2f8323ed369bd26c78", "lat": 38.901528}, {"rental_uris": {"ios": "https://dc.lft.to/lastmile_qr_scan", "android": "https://dc.lft.to/lastmile_qr_scan"}, "is_reserved": 0, "fusion_lat": 0.0, "type": "electric_scooter", "bike_id": "832229d38f8b61eb07fe0a632ef80c1f", "is_disabled": 0, "lon": -77.01811816666667, "fusion_lon": 0.0, "name": "832229d38f8b61eb07fe0a632ef80c1f", "lat": 38.973822}, {"rental_uris": {"ios": "https://dc.lft.to/lastmile_qr_scan", "android": "https://dc.lft.to/lastmile_qr_scan"}, "is_reserved": 0, "fusion_lat": 0.0, "type": "electric_scooter", "bike_id": "c382adc070ab5fd9ee2065794e634748", "is_disabled": 0, "lon": -77.04645966666666, "fusion_lon": 0.0, "name": "c382adc070ab5fd9ee2065794e634748", "lat": 38.90023033333333}, {"rental_uris": {"ios": "https://dc.lft.to/lastmile_qr_scan", "android": "https://dc.lft.to/lastmile_qr_scan"}, "is_reserved": 0, "fusion_lat": 0.0, "type": "electric_scooter", "bike_id": "a290dc086a9bf02f2454e2719be2c2ba", "is_disabled": 0, "lon": -76.93125533333334, "fusion_lon": 0.0, "name": "a290dc086a9bf02f2454e2719be2c2ba", "lat": 38.89791016666667}, {"rental_uris": {"ios": "https://dc.lft.to/lastmile_qr_scan", "android": "https://dc.lft.to/lastmile_qr_scan"}, "is_reserved": 0, "fusion_lat": 0.0, "type": "electric_scooter", "bike_id": "4c5ca689bcfaacf004390174e55f4fa0", "is_disabled": 0, "lon": -76.9878985, "fusion_lon": 0.0, "name": "4c5ca689bcfaacf004390174e55f4fa0", "lat": 38.912388666666665}, {"rental_uris": {"ios": "https://dc.lft.to/lastmile_qr_scan", "android": "https://dc.lft.to/lastmile_qr_scan"}, "is_reserved": 0, "fusion_lat": 0.0, "type": "electric_scooter", "bike_id": "699bdbcc60d4bcd8ff18eb44768c755b", "is_disabled": 0, "lon": -77.0216805, "fusion_lon": 0.0, "name": "699bdbcc60d4bcd8ff18eb44768c755b", "lat": 38.915608166666665}, {"rental_uris": {"ios": "https://dc.lft.to/lastmile_qr_scan", "android": "https://dc.lft.to/lastmile_qr_scan"}, "is_reserved": 0, "fusion_lat": 0.0, "type": "electric_scooter", "bike_id": "77653963a18e91296b8a5858f3cfc319", "is_disabled": 0, "lon": -77.05502883333334, "fusion_lon": 0.0, "name": "77653963a18e91296b8a5858f3cfc319", "lat": 38.929791333333334}, {"rental_uris": {"ios": "https://dc.lft.to/lastmile_qr_scan", "android": "https://dc.lft.to/lastmile_qr_scan"}, "is_reserved": 0, "fusion_lat": 0.0, "type": "electric_scooter", "bike_id": "cf2d35f37081375bddc9c61471758a94", "is_disabled": 0, "lon": -77.01583366666667, "fusion_lon": 0.0, "name": "cf2d35f37081375bddc9c61471758a94", "lat": 38.90121166666667}, {"rental_uris": {"ios": "https://dc.lft.to/lastmile_qr_scan", "android": "https://dc.lft.to/lastmile_qr_scan"}, "is_reserved": 0, "fusion_lat": 0.0, "type": "electric_scooter", "bike_id": "da413d652ffa4021d9a34646c4c9db67", "is_disabled": 0, "lon": -76.990005, "fusion_lon": 0.0, "name": "da413d652ffa4021d9a34646c4c9db67", "lat": 38.8650465}, {"rental_uris": {"ios": "https://dc.lft.to/lastmile_qr_scan", "android": "https://dc.lft.to/lastmile_qr_scan"}, "is_reserved": 0, "fusion_lat": 0.0, "type": "electric_scooter", "bike_id": "40ca8c4978fa4182ad792cde67fb026e", "is_disabled": 0, "lon": -77.0021275, "fusion_lon": 0.0, "name": "40ca8c4978fa4182ad792cde67fb026e", "lat": 38.90055066666667}, {"rental_uris": {"ios": "https://dc.lft.to/lastmile_qr_scan", "android": "https://dc.lft.to/lastmile_qr_scan"}, "is_reserved": 0, "fusion_lat": 0.0, "type": "electric_scooter", "bike_id": "8a006e7d0fc0ef9e80f3f6eaad32fc71", "is_disabled": 0, "lon": -77.0110625, "fusion_lon": 0.0, "name": "8a006e7d0fc0ef9e80f3f6eaad32fc71", "lat": 38.909723166666666}, {"rental_uris": {"ios": "https://dc.lft.to/lastmile_qr_scan", "android": "https://dc.lft.to/lastmile_qr_scan"}, "is_reserved": 0, "fusion_lat": 0.0, "type": "electric_scooter", "bike_id": "e6f423a6d5b80265815ee436fb773cd4", "is_disabled": 0, "lon": -77.02667983333333, "fusion_lon": 0.0, "name": "e6f423a6d5b80265815ee436fb773cd4", "lat": 38.895447833333336}, {"rental_uris": {"ios": "https://dc.lft.to/lastmile_qr_scan", "android": "https://dc.lft.to/lastmile_qr_scan"}, "is_reserved": 0, "fusion_lat": 0.0, "type": "electric_scooter", "bike_id": "971509e9ccd19b6a191dcd88e8ad6bde", "is_disabled": 0, "lon": -77.05594116666667, "fusion_lon": 0.0, "name": "971509e9ccd19b6a191dcd88e8ad6bde", "lat": 38.9053795}, {"rental_uris": {"ios": "https://dc.lft.to/lastmile_qr_scan", "android": "https://dc.lft.to/lastmile_qr_scan"}, "is_reserved": 0, "fusion_lat": 0.0, "type": "electric_scooter", "bike_id": "0b7f9322650f0f471e0250639832ff87", "is_disabled": 0, "lon": -77.0578475, "fusion_lon": 0.0, "name": "0b7f9322650f0f471e0250639832ff87", "lat": 38.905151000000004}, {"rental_uris": {"ios": "https://dc.lft.to/lastmile_qr_scan", "android": "https://dc.lft.to/lastmile_qr_scan"}, "is_reserved": 0, "fusion_lat": 0.0, "type": "electric_scooter", "bike_id": "4917ab0bf26a736dea7c8c1ae56ae8bf", "is_disabled": 0, "lon": -77.06326466666667, "fusion_lon": 0.0, "name": "4917ab0bf26a736dea7c8c1ae56ae8bf", "lat": 38.9040115}, {"rental_uris": {"ios": "https://dc.lft.to/lastmile_qr_scan", "android": "https://dc.lft.to/lastmile_qr_scan"}, "is_reserved": 0, "fusion_lat": 0.0, "type": "electric_scooter", "bike_id": "be3a3a8c3e6937c7ef69379fb1fd3c15", "is_disabled": 0, "lon": -77.02132166666667, "fusion_lon": 0.0, "name": "be3a3a8c3e6937c7ef69379fb1fd3c15", "lat": 38.9275585}, {"rental_uris": {"ios": "https://dc.lft.to/lastmile_qr_scan", "android": "https://dc.lft.to/lastmile_qr_scan"}, "is_reserved": 0, "fusion_lat": 0.0, "type": "electric_scooter", "bike_id": "6eb24e35508afbe14522c17e9c6e906d", "is_disabled": 0, "lon": -76.99521266666666, "fusion_lon": 0.0, "name": "6eb24e35508afbe14522c17e9c6e906d", "lat": 38.886073833333334}, {"rental_uris": {"ios": "https://dc.lft.to/lastmile_qr_scan", "android": "https://dc.lft.to/lastmile_qr_scan"}, "is_reserved": 0, "fusion_lat": 0.0, "type": "electric_scooter", "bike_id": "be0dd77b006c2272b243cdf8976d94d4", "is_disabled": 0, "lon": -77.0469605, "fusion_lon": 0.0, "name": "be0dd77b006c2272b243cdf8976d94d4", "lat": 38.921721166666664}, {"rental_uris": {"ios": "https://dc.lft.to/lastmile_qr_scan", "android": "https://dc.lft.to/lastmile_qr_scan"}, "is_reserved": 0, "fusion_lat": 0.0, "type": "electric_scooter", "bike_id": "fb8cbae7c8d1224df17b78d3f71c8177", "is_disabled": 0, "lon": -77.03525466666666, "fusion_lon": 0.0, "name": "fb8cbae7c8d1224df17b78d3f71c8177", "lat": 38.925299833333334}, {"rental_uris": {"ios": "https://dc.lft.to/lastmile_qr_scan", "android": "https://dc.lft.to/lastmile_qr_scan"}, "is_reserved": 0, "fusion_lat": 0.0, "type": "electric_scooter", "bike_id": "716743afa373ba869ecd5e5aa425471b", "is_disabled": 0, "lon": -77.0604195, "fusion_lon": 0.0, "name": "716743afa373ba869ecd5e5aa425471b", "lat": 38.905294}, {"rental_uris": {"ios": "https://dc.lft.to/lastmile_qr_scan", "android": "https://dc.lft.to/lastmile_qr_scan"}, "is_reserved": 0, "fusion_lat": 0.0, "type": "electric_bike", "bike_id": "7ccca3cc75fccb51acbfbee4b213c692", "is_disabled": 0, "lon": -77.00307566666666, "fusion_lon": 0.0, "name": "7ccca3cc75fccb51acbfbee4b213c692", "lat": 38.833678166666665}, {"rental_uris": {"ios": "https://dc.lft.to/lastmile_qr_scan", "android": "https://dc.lft.to/lastmile_qr_scan"}, "is_reserved": 0, "fusion_lat": 0.0, "type": "electric_scooter", "bike_id": "769ff665e26e11b933e40ec5a52fad06", "is_disabled": 0, "lon": -76.99863816666667, "fusion_lon": 0.0, "name": "769ff665e26e11b933e40ec5a52fad06", "lat": 38.90961183333334}, {"rental_uris": {"ios": "https://dc.lft.to/lastmile_qr_scan", "android": "https://dc.lft.to/lastmile_qr_scan"}, "is_reserved": 0, "fusion_lat": 0.0, "type": "electric_scooter", "bike_id": "f1e7ebb4ca713d3ebb218c0d215755f6", "is_disabled": 0, "lon": -77.02985, "fusion_lon": 0.0, "name": "f1e7ebb4ca713d3ebb218c0d215755f6", "lat": 38.9085735}, {"rental_uris": {"ios": "https://dc.lft.to/lastmile_qr_scan", "android": "https://dc.lft.to/lastmile_qr_scan"}, "is_reserved": 0, "fusion_lat": 0.0, "type": "electric_scooter", "bike_id": "b6abb08b0dcb877ae9a1e350cb8b1528", "is_disabled": 0, "lon": -77.03508183333334, "fusion_lon": 0.0, "name": "b6abb08b0dcb877ae9a1e350cb8b1528", "lat": 38.9215065}, {"rental_uris": {"ios": "https://dc.lft.to/lastmile_qr_scan", "android": "https://dc.lft.to/lastmile_qr_scan"}, "is_reserved": 0, "fusion_lat": 0.0, "type": "electric_scooter", "bike_id": "433a5f9b156c31192163202a4c3837c6", "is_disabled": 0, "lon": -77.04434583333334, "fusion_lon": 0.0, "name": "433a5f9b156c31192163202a4c3837c6", "lat": 38.921173333333336}, {"rental_uris": {"ios": "https://dc.lft.to/lastmile_qr_scan", "android": "https://dc.lft.to/lastmile_qr_scan"}, "is_reserved": 0, "fusion_lat": 0.0, "type": "electric_scooter", "bike_id": "44f0701d39049b213012413881db9e8f", "is_disabled": 0, "lon": -77.01906466666667, "fusion_lon": 0.0, "name": "44f0701d39049b213012413881db9e8f", "lat": 38.90254816666667}, {"rental_uris": {"ios": "https://dc.lft.to/lastmile_qr_scan", "android": "https://dc.lft.to/lastmile_qr_scan"}, "is_reserved": 0, "fusion_lat": 0.0, "type": "electric_scooter", "bike_id": "65f25fb4307539059c0dfd22e2309771", "is_disabled": 0, "lon": -77.03962566666667, "fusion_lon": 0.0, "name": "65f25fb4307539059c0dfd22e2309771", "lat": 38.895598166666666}, {"rental_uris": {"ios": "https://dc.lft.to/lastmile_qr_scan", "android": "https://dc.lft.to/lastmile_qr_scan"}, "is_reserved": 0, "fusion_lat": 0.0, "type": "electric_scooter", "bike_id": "eea0e7708cd96eb1f004cf6b2d44b98b", "is_disabled": 0, "lon": -76.94962966666667, "fusion_lon": 0.0, "name": "eea0e7708cd96eb1f004cf6b2d44b98b", "lat": 38.89466066666667}, {"rental_uris": {"ios": "https://dc.lft.to/lastmile_qr_scan", "android": "https://dc.lft.to/lastmile_qr_scan"}, "is_reserved": 0, "fusion_lat": 0.0, "type": "electric_scooter", "bike_id": "663831d641b7c952ccf5ba02b596583c", "is_disabled": 0, "lon": -77.072748, "fusion_lon": 0.0, "name": "663831d641b7c952ccf5ba02b596583c", "lat": 38.90921516666667}, {"rental_uris": {"ios": "https://dc.lft.to/lastmile_qr_scan", "android": "https://dc.lft.to/lastmile_qr_scan"}, "is_reserved": 0, "fusion_lat": 0.0, "type": "electric_scooter", "bike_id": "db67bea4eb16c9de030cd6e8c54e2086", "is_disabled": 0, "lon": -77.03495516666666, "fusion_lon": 0.0, "name": "db67bea4eb16c9de030cd6e8c54e2086", "lat": 38.93065716666667}, {"rental_uris": {"ios": "https://dc.lft.to/lastmile_qr_scan", "android": "https://dc.lft.to/lastmile_qr_scan"}, "is_reserved": 0, "fusion_lat": 0.0, "type": "electric_scooter", "bike_id": "2e00f6bf23d1017662ca783b3a4a93be", "is_disabled": 0, "lon": -76.99834933333334, "fusion_lon": 0.0, "name": "2e00f6bf23d1017662ca783b3a4a93be", "lat": 38.897516}, {"rental_uris": {"ios": "https://dc.lft.to/lastmile_qr_scan", "android": "https://dc.lft.to/lastmile_qr_scan"}, "is_reserved": 0, "fusion_lat": 0.0, "type": "electric_scooter", "bike_id": "bc0b5879b497d1964226b341a7c16c26", "is_disabled": 0, "lon": -76.9871385, "fusion_lon": 0.0, "name": "bc0b5879b497d1964226b341a7c16c26", "lat": 38.86631233333333}, {"rental_uris": {"ios": "https://dc.lft.to/lastmile_qr_scan", "android": "https://dc.lft.to/lastmile_qr_scan"}, "is_reserved": 0, "fusion_lat": 0.0, "type": "electric_scooter", "bike_id": "f15a19b46574bd280e92de7e4eedecc8", "is_disabled": 0, "lon": -77.0216375, "fusion_lon": 0.0, "name": "f15a19b46574bd280e92de7e4eedecc8", "lat": 38.885086666666666}, {"rental_uris": {"ios": "https://dc.lft.to/lastmile_qr_scan", "android": "https://dc.lft.to/lastmile_qr_scan"}, "is_reserved": 0, "fusion_lat": 0.0, "type": "electric_bike", "bike_id": "c93cdf1940d0554fc22c837483ea559c", "is_disabled": 0, "lon": -76.9981485, "fusion_lon": 0.0, "name": "c93cdf1940d0554fc22c837483ea559c", "lat": 38.81995516666667}, {"rental_uris": {"ios": "https://dc.lft.to/lastmile_qr_scan", "android": "https://dc.lft.to/lastmile_qr_scan"}, "is_reserved": 0, "fusion_lat": 0.0, "type": "electric_scooter", "bike_id": "ba8b35faa9747307433eb167b264296a", "is_disabled": 0, "lon": -77.02150916666666, "fusion_lon": 0.0, "name": "ba8b35faa9747307433eb167b264296a", "lat": 38.92466533333333}, {"rental_uris": {"ios": "https://dc.lft.to/lastmile_qr_scan", "android": "https://dc.lft.to/lastmile_qr_scan"}, "is_reserved": 0, "fusion_lat": 0.0, "type": "electric_scooter", "bike_id": "9e016576a2010f6776b9e133147cbec8", "is_disabled": 0, "lon": -77.040177, "fusion_lon": 0.0, "name": "9e016576a2010f6776b9e133147cbec8", "lat": 38.91328083333333}, {"rental_uris": {"ios": "https://dc.lft.to/lastmile_qr_scan", "android": "https://dc.lft.to/lastmile_qr_scan"}, "is_reserved": 0, "fusion_lat": 0.0, "type": "electric_scooter", "bike_id": "4e18ae457e14685a2479e4105d91904c", "is_disabled": 0, "lon": -77.06014666666667, "fusion_lon": 0.0, "name": "4e18ae457e14685a2479e4105d91904c", "lat": 38.903178}, {"rental_uris": {"ios": "https://dc.lft.to/lastmile_qr_scan", "android": "https://dc.lft.to/lastmile_qr_scan"}, "is_reserved": 0, "fusion_lat": 0.0, "type": "electric_bike", "bike_id": "a65ffb30c9eebc78f473102b70111591", "is_disabled": 0, "lon": -77.18432166666666, "fusion_lon": 0.0, "name": "a65ffb30c9eebc78f473102b70111591", "lat": 38.890711333333336}, {"rental_uris": {"ios": "https://dc.lft.to/lastmile_qr_scan", "android": "https://dc.lft.to/lastmile_qr_scan"}, "is_reserved": 0, "fusion_lat": 0.0, "type": "electric_scooter", "bike_id": "f2728958b60f6d3b9194ad3074545d87", "is_disabled": 0, "lon": -77.027919, "fusion_lon": 0.0, "name": "f2728958b60f6d3b9194ad3074545d87", "lat": 38.91697466666667}, {"rental_uris": {"ios": "https://dc.lft.to/lastmile_qr_scan", "android": "https://dc.lft.to/lastmile_qr_scan"}, "is_reserved": 0, "fusion_lat": 0.0, "type": "electric_scooter", "bike_id": "7c409e24e7a35115e7a58336fd3869a6", "is_disabled": 0, "lon": -77.07143066666667, "fusion_lon": 0.0, "name": "7c409e24e7a35115e7a58336fd3869a6", "lat": 38.90773733333333}, {"rental_uris": {"ios": "https://dc.lft.to/lastmile_qr_scan", "android": "https://dc.lft.to/lastmile_qr_scan"}, "is_reserved": 0, "fusion_lat": 0.0, "type": "electric_scooter", "bike_id": "d8aecddf7e5c6683e1e72062a7e84c79", "is_disabled": 0, "lon": -77.05924583333334, "fusion_lon": 0.0, "name": "d8aecddf7e5c6683e1e72062a7e84c79", "lat": 38.90152466666667}, {"rental_uris": {"ios": "https://dc.lft.to/lastmile_qr_scan", "android": "https://dc.lft.to/lastmile_qr_scan"}, "is_reserved": 0, "fusion_lat": 0.0, "type": "electric_scooter", "bike_id": "e1a58e349013dc83ce44f266c5361566", "is_disabled": 0, "lon": -77.04877566666667, "fusion_lon": 0.0, "name": "e1a58e349013dc83ce44f266c5361566", "lat": 38.892408833333334}, {"rental_uris": {"ios": "https://dc.lft.to/lastmile_qr_scan", "android": "https://dc.lft.to/lastmile_qr_scan"}, "is_reserved": 0, "fusion_lat": 0.0, "type": "electric_scooter", "bike_id": "d2c82e8ac77932ea419747926b1463db", "is_disabled": 0, "lon": -77.0045615, "fusion_lon": 0.0, "name": "d2c82e8ac77932ea419747926b1463db", "lat": 38.910708166666666}, {"rental_uris": {"ios": "https://dc.lft.to/lastmile_qr_scan", "android": "https://dc.lft.to/lastmile_qr_scan"}, "is_reserved": 0, "fusion_lat": 0.0, "type": "electric_scooter", "bike_id": "b97b6e47609e8be51b037764d94ed1ec", "is_disabled": 0, "lon": -77.03313416666667, "fusion_lon": 0.0, "name": "b97b6e47609e8be51b037764d94ed1ec", "lat": 38.928778666666666}, {"rental_uris": {"ios": "https://dc.lft.to/lastmile_qr_scan", "android": "https://dc.lft.to/lastmile_qr_scan"}, "is_reserved": 0, "fusion_lat": 0.0, "type": "electric_scooter", "bike_id": "21095d4ff6f05a6b38ea07505649bb09", "is_disabled": 0, "lon": -76.99412383333333, "fusion_lon": 0.0, "name": "21095d4ff6f05a6b38ea07505649bb09", "lat": 38.877830333333335}, {"rental_uris": {"ios": "https://dc.lft.to/lastmile_qr_scan", "android": "https://dc.lft.to/lastmile_qr_scan"}, "is_reserved": 0, "fusion_lat": 0.0, "type": "electric_scooter", "bike_id": "54880a41fe9b28bd9f1d422f35becbec", "is_disabled": 0, "lon": -77.01971933333333, "fusion_lon": 0.0, "name": "54880a41fe9b28bd9f1d422f35becbec", "lat": 38.908545333333336}, {"rental_uris": {"ios": "https://dc.lft.to/lastmile_qr_scan", "android": "https://dc.lft.to/lastmile_qr_scan"}, "is_reserved": 0, "fusion_lat": 0.0, "type": "electric_scooter", "bike_id": "34e10ca332122f9b8ae946d4b9ccde15", "is_disabled": 0, "lon": -77.04158066666666, "fusion_lon": 0.0, "name": "34e10ca332122f9b8ae946d4b9ccde15", "lat": 38.8994475}, {"rental_uris": {"ios": "https://dc.lft.to/lastmile_qr_scan", "android": "https://dc.lft.to/lastmile_qr_scan"}, "is_reserved": 0, "fusion_lat": 0.0, "type": "electric_scooter", "bike_id": "b7f2519dc3d10bc58f787b7b8dd97686", "is_disabled": 0, "lon": -77.034455, "fusion_lon": 0.0, "name": "b7f2519dc3d10bc58f787b7b8dd97686", "lat": 38.920457166666665}, {"rental_uris": {"ios": "https://dc.lft.to/lastmile_qr_scan", "android": "https://dc.lft.to/lastmile_qr_scan"}, "is_reserved": 0, "fusion_lat": 0.0, "type": "electric_scooter", "bike_id": "8e36e599726ccfe45b20547daf0aab42", "is_disabled": 0, "lon": -77.02797866666667, "fusion_lon": 0.0, "name": "8e36e599726ccfe45b20547daf0aab42", "lat": 38.89919366666667}, {"rental_uris": {"ios": "https://dc.lft.to/lastmile_qr_scan", "android": "https://dc.lft.to/lastmile_qr_scan"}, "is_reserved": 0, "fusion_lat": 0.0, "type": "electric_scooter", "bike_id": "dd207033f37ab415cd67e05850987de9", "is_disabled": 0, "lon": -76.97330366666667, "fusion_lon": 0.0, "name": "dd207033f37ab415cd67e05850987de9", "lat": 38.904118833333335}, {"rental_uris": {"ios": "https://dc.lft.to/lastmile_qr_scan", "android": "https://dc.lft.to/lastmile_qr_scan"}, "is_reserved": 0, "fusion_lat": 0.0, "type": "electric_scooter", "bike_id": "24ca128fef94d6207f391da1592f4031", "is_disabled": 0, "lon": -77.03838616666667, "fusion_lon": 0.0, "name": "24ca128fef94d6207f391da1592f4031", "lat": 38.9077125}, {"rental_uris": {"ios": "https://dc.lft.to/lastmile_qr_scan", "android": "https://dc.lft.to/lastmile_qr_scan"}, "is_reserved": 0, "fusion_lat": 0.0, "type": "electric_scooter", "bike_id": "2816b4741b0074bcb2ed12fba62d02c2", "is_disabled": 0, "lon": -77.00162466666667, "fusion_lon": 0.0, "name": "2816b4741b0074bcb2ed12fba62d02c2", "lat": 38.90742183333333}, {"rental_uris": {"ios": "https://dc.lft.to/lastmile_qr_scan", "android": "https://dc.lft.to/lastmile_qr_scan"}, "is_reserved": 0, "fusion_lat": 0.0, "type": "electric_scooter", "bike_id": "fbddfed06f8c2a868bb5eff9b012169a", "is_disabled": 0, "lon": -77.0363185, "fusion_lon": 0.0, "name": "fbddfed06f8c2a868bb5eff9b012169a", "lat": 38.903688}, {"rental_uris": {"ios": "https://dc.lft.to/lastmile_qr_scan", "android": "https://dc.lft.to/lastmile_qr_scan"}, "is_reserved": 0, "fusion_lat": 0.0, "type": "electric_scooter", "bike_id": "baa0a0569aa512174b50e0bda1de6f75", "is_disabled": 0, "lon": -77.02218933333333, "fusion_lon": 0.0, "name": "baa0a0569aa512174b50e0bda1de6f75", "lat": 38.954537}, {"rental_uris": {"ios": "https://dc.lft.to/lastmile_qr_scan", "android": "https://dc.lft.to/lastmile_qr_scan"}, "is_reserved": 0, "fusion_lat": 0.0, "type": "electric_scooter", "bike_id": "ab2c301735c6f53c1276d8c1e7d4f043", "is_disabled": 0, "lon": -76.97333966666666, "fusion_lon": 0.0, "name": "ab2c301735c6f53c1276d8c1e7d4f043", "lat": 38.904078}, {"rental_uris": {"ios": "https://dc.lft.to/lastmile_qr_scan", "android": "https://dc.lft.to/lastmile_qr_scan"}, "is_reserved": 0, "fusion_lat": 0.0, "type": "electric_scooter", "bike_id": "5dab2497d6a500b2fc528c0e5c3648b2", "is_disabled": 0, "lon": -77.0258545, "fusion_lon": 0.0, "name": "5dab2497d6a500b2fc528c0e5c3648b2", "lat": 38.88733666666667}, {"rental_uris": {"ios": "https://dc.lft.to/lastmile_qr_scan", "android": "https://dc.lft.to/lastmile_qr_scan"}, "is_reserved": 0, "fusion_lat": 0.0, "type": "electric_scooter", "bike_id": "716637f2c8f32b0d6771dfee37ca4b23", "is_disabled": 0, "lon": -77.03193833333333, "fusion_lon": 0.0, "name": "716637f2c8f32b0d6771dfee37ca4b23", "lat": 38.89967933333333}, {"rental_uris": {"ios": "https://dc.lft.to/lastmile_qr_scan", "android": "https://dc.lft.to/lastmile_qr_scan"}, "is_reserved": 0, "fusion_lat": 0.0, "type": "electric_scooter", "bike_id": "f03527d2546a8455eec34db2fe8bbd25", "is_disabled": 0, "lon": -77.02177366666666, "fusion_lon": 0.0, "name": "f03527d2546a8455eec34db2fe8bbd25", "lat": 38.89238666666667}, {"rental_uris": {"ios": "https://dc.lft.to/lastmile_qr_scan", "android": "https://dc.lft.to/lastmile_qr_scan"}, "is_reserved": 0, "fusion_lat": 0.0, "type": "electric_scooter", "bike_id": "e7d5ce7da7d3db82dce1929b98170d27", "is_disabled": 0, "lon": -77.035569, "fusion_lon": 0.0, "name": "e7d5ce7da7d3db82dce1929b98170d27", "lat": 38.901439}, {"rental_uris": {"ios": "https://dc.lft.to/lastmile_qr_scan", "android": "https://dc.lft.to/lastmile_qr_scan"}, "is_reserved": 0, "fusion_lat": 0.0, "type": "electric_scooter", "bike_id": "a8ea88441d33a3fb292df90b296c85b2", "is_disabled": 0, "lon": -76.98569466666666, "fusion_lon": 0.0, "name": "a8ea88441d33a3fb292df90b296c85b2", "lat": 38.86685533333333}, {"rental_uris": {"ios": "https://dc.lft.to/lastmile_qr_scan", "android": "https://dc.lft.to/lastmile_qr_scan"}, "is_reserved": 0, "fusion_lat": 0.0, "type": "electric_scooter", "bike_id": "6c822a00ba8bb678dcf879a9aaa95d24", "is_disabled": 0, "lon": -76.9797465, "fusion_lon": 0.0, "name": "6c822a00ba8bb678dcf879a9aaa95d24", "lat": 38.897444166666666}, {"rental_uris": {"ios": "https://dc.lft.to/lastmile_qr_scan", "android": "https://dc.lft.to/lastmile_qr_scan"}, "is_reserved": 0, "fusion_lat": 0.0, "type": "electric_scooter", "bike_id": "11efbe76761b35285583c713f08cd0e6", "is_disabled": 0, "lon": -77.03282183333333, "fusion_lon": 0.0, "name": "11efbe76761b35285583c713f08cd0e6", "lat": 38.937038666666666}, {"rental_uris": {"ios": "https://dc.lft.to/lastmile_qr_scan", "android": "https://dc.lft.to/lastmile_qr_scan"}, "is_reserved": 0, "fusion_lat": 0.0, "type": "electric_scooter", "bike_id": "2ae704ec432cd0bd2326f85a6f458783", "is_disabled": 0, "lon": -77.00121733333333, "fusion_lon": 0.0, "name": "2ae704ec432cd0bd2326f85a6f458783", "lat": 38.88769}, {"rental_uris": {"ios": "https://dc.lft.to/lastmile_qr_scan", "android": "https://dc.lft.to/lastmile_qr_scan"}, "is_reserved": 0, "fusion_lat": 0.0, "type": "electric_scooter", "bike_id": "5009409b499b1386053174b4310656cb", "is_disabled": 0, "lon": -77.051496, "fusion_lon": 0.0, "name": "5009409b499b1386053174b4310656cb", "lat": 38.897628833333336}, {"rental_uris": {"ios": "https://dc.lft.to/lastmile_qr_scan", "android": "https://dc.lft.to/lastmile_qr_scan"}, "is_reserved": 0, "fusion_lat": 0.0, "type": "electric_scooter", "bike_id": "ecbe1ff0ff2e5c69d11f5f8f842fbf34", "is_disabled": 0, "lon": -77.0640385, "fusion_lon": 0.0, "name": "ecbe1ff0ff2e5c69d11f5f8f842fbf34", "lat": 38.94530133333333}, {"rental_uris": {"ios": "https://dc.lft.to/lastmile_qr_scan", "android": "https://dc.lft.to/lastmile_qr_scan"}, "is_reserved": 0, "fusion_lat": 0.0, "type": "electric_scooter", "bike_id": "058d2b3096abd3f1f7678a6dc2b74bd4", "is_disabled": 0, "lon": -77.04689016666667, "fusion_lon": 0.0, "name": "058d2b3096abd3f1f7678a6dc2b74bd4", "lat": 38.921648833333336}, {"rental_uris": {"ios": "https://dc.lft.to/lastmile_qr_scan", "android": "https://dc.lft.to/lastmile_qr_scan"}, "is_reserved": 0, "fusion_lat": 0.0, "type": "electric_scooter", "bike_id": "03477f13d38de1fa5468f2d3fc3195c1", "is_disabled": 0, "lon": -77.02485433333334, "fusion_lon": 0.0, "name": "03477f13d38de1fa5468f2d3fc3195c1", "lat": 38.919796}, {"rental_uris": {"ios": "https://dc.lft.to/lastmile_qr_scan", "android": "https://dc.lft.to/lastmile_qr_scan"}, "is_reserved": 0, "fusion_lat": 0.0, "type": "electric_scooter", "bike_id": "06673d76e64c1cb19189d08fad297a4d", "is_disabled": 0, "lon": -77.0091565, "fusion_lon": 0.0, "name": "06673d76e64c1cb19189d08fad297a4d", "lat": 38.896493666666665}, {"rental_uris": {"ios": "https://dc.lft.to/lastmile_qr_scan", "android": "https://dc.lft.to/lastmile_qr_scan"}, "is_reserved": 0, "fusion_lat": 0.0, "type": "electric_scooter", "bike_id": "8abec8ab388c553b5dbcd49828c548f2", "is_disabled": 0, "lon": -77.02404933333334, "fusion_lon": 0.0, "name": "8abec8ab388c553b5dbcd49828c548f2", "lat": 38.8981095}, {"rental_uris": {"ios": "https://dc.lft.to/lastmile_qr_scan", "android": "https://dc.lft.to/lastmile_qr_scan"}, "is_reserved": 0, "fusion_lat": 0.0, "type": "electric_scooter", "bike_id": "38c4982aff822be0dcdf94efb1f75919", "is_disabled": 0, "lon": -77.0320045, "fusion_lon": 0.0, "name": "38c4982aff822be0dcdf94efb1f75919", "lat": 38.916502666666666}, {"rental_uris": {"ios": "https://dc.lft.to/lastmile_qr_scan", "android": "https://dc.lft.to/lastmile_qr_scan"}, "is_reserved": 0, "fusion_lat": 0.0, "type": "electric_scooter", "bike_id": "97eabc7da4f7f8055266ddf03e421d15", "is_disabled": 0, "lon": -77.04515383333333, "fusion_lon": 0.0, "name": "97eabc7da4f7f8055266ddf03e421d15", "lat": 38.892228833333334}, {"rental_uris": {"ios": "https://dc.lft.to/lastmile_qr_scan", "android": "https://dc.lft.to/lastmile_qr_scan"}, "is_reserved": 0, "fusion_lat": 0.0, "type": "electric_scooter", "bike_id": "2811898c2b73549f40aba523ec0954b4", "is_disabled": 0, "lon": -77.03664816666667, "fusion_lon": 0.0, "name": "2811898c2b73549f40aba523ec0954b4", "lat": 38.913957833333335}, {"rental_uris": {"ios": "https://dc.lft.to/lastmile_qr_scan", "android": "https://dc.lft.to/lastmile_qr_scan"}, "is_reserved": 0, "fusion_lat": 0.0, "type": "electric_scooter", "bike_id": "4d284c4cea74dc3e067098fc2686ec35", "is_disabled": 0, "lon": -77.029787, "fusion_lon": 0.0, "name": "4d284c4cea74dc3e067098fc2686ec35", "lat": 38.900450166666666}, {"rental_uris": {"ios": "https://dc.lft.to/lastmile_qr_scan", "android": "https://dc.lft.to/lastmile_qr_scan"}, "is_reserved": 0, "fusion_lat": 0.0, "type": "electric_scooter", "bike_id": "0fefb6e595f02e4a8f5e2ab687edf13c", "is_disabled": 0, "lon": -77.04378016666666, "fusion_lon": 0.0, "name": "0fefb6e595f02e4a8f5e2ab687edf13c", "lat": 38.892226666666666}, {"rental_uris": {"ios": "https://dc.lft.to/lastmile_qr_scan", "android": "https://dc.lft.to/lastmile_qr_scan"}, "is_reserved": 0, "fusion_lat": 0.0, "type": "electric_scooter", "bike_id": "e282c5b217f9f8cec893bea51c88d627", "is_disabled": 0, "lon": -77.05126083333333, "fusion_lon": 0.0, "name": "e282c5b217f9f8cec893bea51c88d627", "lat": 38.925273}, {"rental_uris": {"ios": "https://dc.lft.to/lastmile_qr_scan", "android": "https://dc.lft.to/lastmile_qr_scan"}, "is_reserved": 0, "fusion_lat": 0.0, "type": "electric_scooter", "bike_id": "eaef08bd5d784083b7d5405429995ac8", "is_disabled": 0, "lon": -77.03842883333333, "fusion_lon": 0.0, "name": "eaef08bd5d784083b7d5405429995ac8", "lat": 38.902738166666666}, {"rental_uris": {"ios": "https://dc.lft.to/lastmile_qr_scan", "android": "https://dc.lft.to/lastmile_qr_scan"}, "is_reserved": 0, "fusion_lat": 0.0, "type": "electric_scooter", "bike_id": "7278f866a741627b0d1d66632e3f9bc9", "is_disabled": 0, "lon": -76.94638616666667, "fusion_lon": 0.0, "name": "7278f866a741627b0d1d66632e3f9bc9", "lat": 38.8986845}, {"rental_uris": {"ios": "https://dc.lft.to/lastmile_qr_scan", "android": "https://dc.lft.to/lastmile_qr_scan"}, "is_reserved": 0, "fusion_lat": 0.0, "type": "electric_scooter", "bike_id": "705c9aa6c760779be6a0e7af381bc15b", "is_disabled": 0, "lon": -77.06442533333333, "fusion_lon": 0.0, "name": "705c9aa6c760779be6a0e7af381bc15b", "lat": 38.907933}, {"rental_uris": {"ios": "https://dc.lft.to/lastmile_qr_scan", "android": "https://dc.lft.to/lastmile_qr_scan"}, "is_reserved": 0, "fusion_lat": 0.0, "type": "electric_scooter", "bike_id": "d30665994f92a0860c957f29f4b67494", "is_disabled": 0, "lon": -77.026026, "fusion_lon": 0.0, "name": "d30665994f92a0860c957f29f4b67494", "lat": 38.927958833333335}, {"rental_uris": {"ios": "https://dc.lft.to/lastmile_qr_scan", "android": "https://dc.lft.to/lastmile_qr_scan"}, "is_reserved": 0, "fusion_lat": 0.0, "type": "electric_scooter", "bike_id": "30f82f0e99dbd5481aa567965a90a8b2", "is_disabled": 0, "lon": -77.04074433333334, "fusion_lon": 0.0, "name": "30f82f0e99dbd5481aa567965a90a8b2", "lat": 38.89912916666667}, {"rental_uris": {"ios": "https://dc.lft.to/lastmile_qr_scan", "android": "https://dc.lft.to/lastmile_qr_scan"}, "is_reserved": 0, "fusion_lat": 0.0, "type": "electric_scooter", "bike_id": "7ba851bceecd3502b2cd45a9c5a118b6", "is_disabled": 0, "lon": -77.0099755, "fusion_lon": 0.0, "name": "7ba851bceecd3502b2cd45a9c5a118b6", "lat": 38.9062915}, {"rental_uris": {"ios": "https://dc.lft.to/lastmile_qr_scan", "android": "https://dc.lft.to/lastmile_qr_scan"}, "is_reserved": 0, "fusion_lat": 0.0, "type": "electric_scooter", "bike_id": "8eeb8759fb38bb81c25cd04210a8a7af", "is_disabled": 0, "lon": -77.05587933333334, "fusion_lon": 0.0, "name": "8eeb8759fb38bb81c25cd04210a8a7af", "lat": 38.934316}, {"rental_uris": {"ios": "https://dc.lft.to/lastmile_qr_scan", "android": "https://dc.lft.to/lastmile_qr_scan"}, "is_reserved": 0, "fusion_lat": 0.0, "type": "electric_scooter", "bike_id": "37dcafecf2bebdb090f07873fa20b63c", "is_disabled": 0, "lon": -77.02999283333334, "fusion_lon": 0.0, "name": "37dcafecf2bebdb090f07873fa20b63c", "lat": 38.902610833333334}, {"rental_uris": {"ios": "https://dc.lft.to/lastmile_qr_scan", "android": "https://dc.lft.to/lastmile_qr_scan"}, "is_reserved": 0, "fusion_lat": 0.0, "type": "electric_scooter", "bike_id": "fe727e655842877d4238659f76eb08bc", "is_disabled": 0, "lon": -77.04846266666667, "fusion_lon": 0.0, "name": "fe727e655842877d4238659f76eb08bc", "lat": 38.895354166666664}, {"rental_uris": {"ios": "https://dc.lft.to/lastmile_qr_scan", "android": "https://dc.lft.to/lastmile_qr_scan"}, "is_reserved": 0, "fusion_lat": 0.0, "type": "electric_scooter", "bike_id": "73b009dae9bc097295e7621200918160", "is_disabled": 0, "lon": -77.02292883333334, "fusion_lon": 0.0, "name": "73b009dae9bc097295e7621200918160", "lat": 38.917215166666665}, {"rental_uris": {"ios": "https://dc.lft.to/lastmile_qr_scan", "android": "https://dc.lft.to/lastmile_qr_scan"}, "is_reserved": 0, "fusion_lat": 0.0, "type": "electric_bike", "bike_id": "b135e283dc513bdf3bed27d126b5383c", "is_disabled": 0, "lon": -77.1068375, "fusion_lon": 0.0, "name": "b135e283dc513bdf3bed27d126b5383c", "lat": 38.86451433333333},