{"data": {"bikes": [{"fusion_lat": 0.0, "name": "289b671603bd4c85aaecc2534e80132c", "is_disabled": 0, "rental_uris": {"android": "https://dc.lft.to/lastmile_qr_scan", "ios": "https://dc.lft.to/lastmile_qr_scan"}, "fusion_lon": 0.0, "lat": 38.89234483333333, "bike_id": "289b671603bd4c85aaecc2534e80132c", "type": "electric_scooter", "is_reserved": 0, "lon": -77.03170833333333}, {"fusion_lat": 0.0, "name": "2597bb5008ba4dd08067697127ebaf33", "is_disabled": 0, "rental_uris": {"android": "https://dc.lft.to/lastmile_qr_scan", "ios": "https://dc.lft.to/lastmile_qr_scan"}, "fusion_lon": 0.0, "lat": 38.90243433333333, "bike_id": "2597bb5008ba4dd08067697127ebaf33", "type": "electric_scooter", "is_reserved": 0, "lon": -77.0633005}, {"fusion_lat": 0.0, "name": "502d2ea685cd3a5359993c843f9e0bbd", "is_disabled": 0, "rental_uris": {"android": "https://dc.lft.to/lastmile_qr_scan", "ios": "https://dc.lft.to/lastmile_qr_scan"}, "fusion_lon": 0.0, "lat": 38.906848, "bike_id": "502d2ea685cd3a5359993c843f9e0bbd", "type": "electric_bike", "is_reserved": 0, "lon": -77.0364235}, {"fusion_lat": 0.0, "name": "675507b4d00368ecefbbf09bcd9779a3", "is_disabled": 0, "rental_uris": {"android": "https://dc.lft.to/lastmile_qr_scan", "ios": "https://dc.lft.to/lastmile_qr_scan"}, "fusion_lon": 0.0, "lat": 38.966713166666665, "bike_id": "675507b4d00368ecefbbf09bcd9779a3", "type": "electric_scooter", "is_reserved": 0, "lon": -77.02552266666666}, {"fusion_lat": 0.0, "name": "ad410bc3f4da7a8b27c28c12200a576b", "is_disabled": 0, "rental_uris": {"android": "https://dc.lft.to/lastmile_qr_scan", "ios": "https://dc.lft.to/lastmile_qr_scan"}, "fusion_lon": 0.0, "lat": 38.89980216666667, "bike_id": "ad410bc3f4da7a8b27c28c12200a576b", "type": "electric_scooter", "is_reserved": 0, "lon": -76.99276383333333}, {"fusion_lat": 0.0, "name": "fac13a04f15f6bf4225a3a94b4dd888a", "is_disabled": 0, "rental_uris": {"android": "https://dc.lft.to/lastmile_qr_scan", "ios": "https://dc.lft.to/lastmile_qr_scan"}, "fusion_lon": 0.0, "lat": 38.90569933333333, "bike_id": "fac13a04f15f6bf4225a3a94b4dd888a", "type": "electric_scooter", "is_reserved": 0, "lon": -77.0465895}, {"fusion_lat": 0.0, "name": "4b2b6f24b85efd2ab5bb85e9b275a6bf", "is_disabled": 0, "rental_uris": {"android": "https://dc.lft.to/lastmile_qr_scan", "ios": "https://dc.lft.to/lastmile_qr_scan"}, "fusion_lon": 0.0, "lat": 38.892007666666665, "bike_id": "4b2b6f24b85efd2ab5bb85e9b275a6bf", "type": "electric_scooter", "is_reserved": 0, "lon": -77.02258}, {"fusion_lat": 0.0, "name": "a1361b1bec23374c4a9173e68e4918cd", "is_disabled": 0, "rental_uris": {"android": "https://dc.lft.to/lastmile_qr_scan", "ios": "https://dc.lft.to/lastmile_qr_scan"}, "fusion_lon": 0.0, "lat": 38.9156545, "bike_id": "a1361b1bec23374c4a9173e68e4918cd", "type": "electric_scooter", "is_reserved": 0, "lon": -77.0310965}, {"fusion_lat": 0.0, "name": "2cd9fc10a5fec7af9ebe955cc3feb739", "is_disabled": 0, "rental_uris": {"android": "https://dc.lft.to/lastmile_qr_scan", "ios": "https://dc.lft.to/lastmile_qr_scan"}, "fusion_lon": 0.0, "lat": 38.8797025, "bike_id": "2cd9fc10a5fec7af9ebe955cc3feb739", "type": "electric_bike", "is_reserved": 0, "lon": -76.916142}, {"fusion_lat": 0.0, "name": "c666a06f917cfffc0cde17407b9b355d", "is_disabled": 0, "rental_uris": {"android": "https://dc.lft.to/lastmile_qr_scan", "ios": "https://dc.lft.to/lastmile_qr_scan"}, "fusion_lon": 0.0, "lat": 38.9289545, "bike_id": "c666a06f917cfffc0cde17407b9b355d", "type": "electric_scooter", "is_reserved": 0, "lon": -77.0321475}, {"fusion_lat": 0.0, "name": "54bb3a73c759beeb8574000a1b6e1333", "is_disabled": 0, "rental_uris": {"android": "https://dc.lft.to/lastmile_qr_scan", "ios": "https://dc.lft.to/lastmile_qr_scan"}, "fusion_lon": 0.0, "lat": 38.900892666666664, "bike_id": "54bb3a73c759beeb8574000a1b6e1333", "type": "electric_scooter", "is_reserved": 0, "lon": -76.983292}, {"fusion_lat": 0.0, "name": "8782a1652851d23537f4ba544bc7b893", "is_disabled": 0, "rental_uris": {"android": "https://dc.lft.to/lastmile_qr_scan", "ios": "https://dc.lft.to/lastmile_qr_scan"}, "fusion_lon": 0.0, "lat": 38.94086866666667, "bike_id": "8782a1652851d23537f4ba544bc7b893", "type": "electric_scooter", "is_reserved": 0, "lon": -77.02996833333333}, {"fusion_lat": 0.0, "name": "a7fd89e90359bead16eb331d3ea1d9a1", "is_disabled": 0, "rental_uris": {"android": "https://dc.lft.to/lastmile_qr_scan", "ios": "https://dc.lft.to/lastmile_qr_scan"}, "fusion_lon": 0.0, "lat": 38.90582, "bike_id": "a7fd89e90359bead16eb331d3ea1d9a1", "type": "electric_scooter", "is_reserved": 0, "lon": -77.02985666666666}, {"fusion_lat": 0.0, "name": "e0dc1bb4b27e7a6682eca376eaeb9e12", "is_disabled": 0, "rental_uris": {"android": "https://dc.lft.to/lastmile_qr_scan", "ios": "https://dc.lft.to/lastmile_qr_scan"}, "fusion_lon": 0.0, "lat": 38.91565416666667, "bike_id": "e0dc1bb4b27e7a6682eca376eaeb9e12", "type": "electric_scooter", "is_reserved": 0, "lon": -77.03142416666667}, {"fusion_lat": 0.0, "name": "d2bb16329c4a84c3a801e5f0764dea8f", "is_disabled": 0, "rental_uris": {"android": "https://dc.lft.to/lastmile_qr_scan", "ios": "https://dc.lft.to/lastmile_qr_scan"}, "fusion_lon": 0.0, "lat": 38.9171145, "bike_id": "d2bb16329c4a84c3a801e5f0764dea8f", "type": "electric_scooter", "is_reserved": 0, "lon": -76.97664416666667}, {"fusion_lat": 0.0, "name": "3d9daf86e62675871df236ca16b94dba", "is_disabled": 0, "rental_uris": {"android": "https://dc.lft.to/lastmile_qr_scan", "ios": "https://dc.lft.to/lastmile_qr_scan"}, "fusion_lon": 0.0, "lat": 38.90013866666666, "bike_id": "3d9daf86e62675871df236ca16b94dba", "type": "electric_scooter", "is_reserved": 0, "lon": -77.01036033333334}, {"fusion_lat": 0.0, "name": "5d15fe67c52668e40a8d341b6daa03c6", "is_disabled": 0, "rental_uris": {"android": "https://dc.lft.to/lastmile_qr_scan", "ios": "https://dc.lft.to/lastmile_qr_scan"}, "fusion_lon": 0.0, "lat": 38.9058365, "bike_id": "5d15fe67c52668e40a8d341b6daa03c6", "type": "electric_scooter", "is_reserved": 0, "lon": -77.0064285}, {"fusion_lat": 0.0, "name": "4756320fbbf64c9c3bc48cc930fde137", "is_disabled": 0, "rental_uris": {"android": "https://dc.lft.to/lastmile_qr_scan", "ios": "https://dc.lft.to/lastmile_qr_scan"}, "fusion_lon": 0.0, "lat": 38.9039205, "bike_id": "4756320fbbf64c9c3bc48cc930fde137", "type": "electric_scooter", "is_reserved": 0, "lon": -77.048287}, {"fusion_lat": 0.0, "name": "3ec041bc2ac49e7463563336663c4104", "is_disabled": 0, "rental_uris": {"android": "https://dc.lft.to/lastmile_qr_scan", "ios": "https://dc.lft.to/lastmile_qr_scan"}, "fusion_lon": 0.0, "lat": 38.9057525, "bike_id": "3ec041bc2ac49e7463563336663c4104", "type": "electric_scooter", "is_reserved": 0, "lon": -77.04559233333333}, {"fusion_lat": 0.0, "name": "1652fac591ddbc4523ebb212655556a7", "is_disabled": 0, "rental_uris": {"android": "https://dc.lft.to/lastmile_qr_scan", "ios": "https://dc.lft.to/lastmile_qr_scan"}, "fusion_lon": 0.0, "lat": 38.91707866666667, "bike_id": "1652fac591ddbc4523ebb212655556a7", "type": "electric_scooter", "is_reserved": 0, "lon": -77.04126016666666}, {"fusion_lat": 0.0, "name": "f4213b45f77c13edc655d4a851d15173", "is_disabled": 0, "rental_uris": {"android": "https://dc.lft.to/lastmile_qr_scan", "ios": "https://dc.lft.to/lastmile_qr_scan"}, "fusion_lon": 0.0, "lat": 38.905316666666664, "bike_id": "f4213b45f77c13edc655d4a851d15173", "type": "electric_scooter", "is_reserved": 0, "lon": -77.061383}, {"fusion_lat": 0.0, "name": "ddde84af033eb082f47a10eb6a59bb7d", "is_disabled": 0, "rental_uris": {"android": "https://dc.lft.to/lastmile_qr_scan", "ios": "https://dc.lft.to/lastmile_qr_scan"}, "fusion_lon": 0.0, "lat": 38.9288615, "bike_id": "ddde84af033eb082f47a10eb6a59bb7d", "type": "electric_scooter", "is_reserved": 0, "lon": -77.032288}, {"fusion_lat": 0.0, "name": "e2866566b4aea778611af54e8719e424", "is_disabled": 0, "rental_uris": {"android": "https://dc.lft.to/lastmile_qr_scan", "ios": "https://dc.lft.to/lastmile_qr_scan"}, "fusion_lon": 0.0, "lat": 38.99780883333333, "bike_id": "e2866566b4aea778611af54e8719e424", "type": "electric_bike", "is_reserved": 0, "lon": -77.04710983333334}, {"fusion_lat": 0.0, "name": "56938f7708062df2b42b4a16b02c2d7f", "is_disabled": 0, "rental_uris": {"android": "https://dc.lft.to/lastmile_qr_scan", "ios": "https://dc.lft.to/lastmile_qr_scan"}, "fusion_lon": 0.0, "lat": 38.900189833333336, "bike_id": "56938f7708062df2b42b4a16b02c2d7f", "type": "electric_scooter", "is_reserved": 0, "lon": -77.0221215}, {"fusion_lat": 0.0, "name": "d245aa32580d069641b3ab80f47443ca", "is_disabled": 0, "rental_uris": {"android": "https://dc.lft.to/lastmile_qr_scan", "ios": "https://dc.lft.to/lastmile_qr_scan"}, "fusion_lon": 0.0, "lat": 38.923584166666664, "bike_id": "d245aa32580d069641b3ab80f47443ca", "type": "electric_scooter", "is_reserved": 0, "lon": -77.03368916666666}, {"fusion_lat": 0.0, "name": "b1cb15b474880f1899becb559ad4ae60", "is_disabled": 0, "rental_uris": {"android": "https://dc.lft.to/lastmile_qr_scan", "ios": "https://dc.lft.to/lastmile_qr_scan"}, "fusion_lon": 0.0, "lat": 38.9060155, "bike_id": "b1cb15b474880f1899becb559ad4ae60", "type": "electric_scooter", "is_reserved": 0, "lon": -77.025995}, {"fusion_lat": 0.0, "name": "8ec06ce21b2b4c33a424dc3f8f4a1d63", "is_disabled": 0, "rental_uris": {"android": "https://dc.lft.to/lastmile_qr_scan", "ios": "https://dc.lft.to/lastmile_qr_scan"}, "fusion_lon": 0.0, "lat": 38.87486416666667, "bike_id": "8ec06ce21b2b4c33a424dc3f8f4a1d63", "type": "electric_scooter", "is_reserved": 0, "lon": -77.003288}, {"fusion_lat": 0.0, "name": "907ea1b7d06e42da36da1e4e0ba3908d", "is_disabled": 0, "rental_uris": {"android": "https://dc.lft.to/lastmile_qr_scan", "ios": "https://dc.lft.to/lastmile_qr_scan"}, "fusion_lon": 0.0, "lat": 38.928167, "bike_id": "907ea1b7d06e42da36da1e4e0ba3908d", "type": "electric_scooter", "is_reserved": 0, "lon": -77.04327933333333}, {"fusion_lat": 0.0, "name": "3be6b60f9780a510497cee08379dcd10", "is_disabled": 0, "rental_uris": {"android": "https://dc.lft.to/lastmile_qr_scan", "ios": "https://dc.lft.to/lastmile_qr_scan"}, "fusion_lon": 0.0, "lat": 38.93267216666667, "bike_id": "3be6b60f9780a510497cee08379dcd10", "type": "electric_scooter", "is_reserved": 0, "lon": -77.019155}, {"fusion_lat": 0.0, "name": "80f7c985555ac78614664b70a63962fc", "is_disabled": 0, "rental_uris": {"android": "https://dc.lft.to/lastmile_qr_scan", "ios": "https://dc.lft.to/lastmile_qr_scan"}, "fusion_lon": 0.0, "lat": 38.917268166666666, "bike_id": "80f7c985555ac78614664b70a63962fc", "type": "electric_scooter", "is_reserved": 0, "lon": -77.01918416666666}, {"fusion_lat": 0.0, "name": "1cd0a1b3e129c1ff520da912f2ba92a2", "is_disabled": 0, "rental_uris": {"android": "https://dc.lft.to/lastmile_qr_scan", "ios": "https://dc.lft.to/lastmile_qr_scan"}, "fusion_lon": 0.0, "lat": 38.920753166666664, "bike_id": "1cd0a1b3e129c1ff520da912f2ba92a2", "type": "electric_scooter", "is_reserved": 0, "lon": -77.03805416666667}, {"fusion_lat": 0.0, "name": "f9c8b0f9dda6efd9c8fc441e59174a54", "is_disabled": 0, "rental_uris": {"android": "https://dc.lft.to/lastmile_qr_scan", "ios": "https://dc.lft.to/lastmile_qr_scan"}, "fusion_lon": 0.0, "lat": 38.93175433333333, "bike_id": "f9c8b0f9dda6efd9c8fc441e59174a54", "type": "electric_scooter", "is_reserved": 0, "lon": -77.02815183333334}, {"fusion_lat": 0.0, "name": "5999bd9f789ef05c2629e25af2dd29a5", "is_disabled": 0, "rental_uris": {"android": "https://dc.lft.to/lastmile_qr_scan", "ios": "https://dc.lft.to/lastmile_qr_scan"}, "fusion_lon": 0.0, "lat": 38.94097983333333, "bike_id": "5999bd9f789ef05c2629e25af2dd29a5", "type": "electric_scooter", "is_reserved": 0, "lon": -77.03273916666667}, {"fusion_lat": 0.0, "name": "5016e2571074484760d42ef64608efbf", "is_disabled": 0, "rental_uris": {"android": "https://dc.lft.to/lastmile_qr_scan", "ios": "https://dc.lft.to/lastmile_qr_scan"}, "fusion_lon": 0.0, "lat": 38.928668, "bike_id": "5016e2571074484760d42ef64608efbf", "type": "electric_scooter", "is_reserved": 0, "lon": -77.01413016666666}, {"fusion_lat": 0.0, "name": "a5bcf0f403e810558cc50d742632ec19", "is_disabled": 0, "rental_uris": {"android": "https://dc.lft.to/lastmile_qr_scan", "ios": "https://dc.lft.to/lastmile_qr_scan"}, "fusion_lon": 0.0, "lat": 38.86030433333333, "bike_id": "a5bcf0f403e810558cc50d742632ec19", "type": "electric_bike", "is_reserved": 0, "lon": -77.12811316666667}, {"fusion_lat": 0.0, "name": "e89bd98a417bd3c22ad77dfde54f8174", "is_disabled": 0, "rental_uris": {"android": "https://dc.lft.to/lastmile_qr_scan", "ios": "https://dc.lft.to/lastmile_qr_scan"}, "fusion_lon": 0.0, "lat": 38.9308605, "bike_id": "e89bd98a417bd3c22ad77dfde54f8174", "type": "electric_scooter", "is_reserved": 0, "lon": -77.0200495}, {"fusion_lat": 0.0, "name": "ce2044ad3ee1a038b013571991976cc3", "is_disabled": 0, "rental_uris": {"android": "https://dc.lft.to/lastmile_qr_scan", "ios": "https://dc.lft.to/lastmile_qr_scan"}, "fusion_lon": 0.0, "lat": 38.93082, "bike_id": "ce2044ad3ee1a038b013571991976cc3", "type": "electric_scooter", "is_reserved": 0, "lon": -77.07759083333333}, {"fusion_lat": 0.0, "name": "d5c02d79e0d3af16d474718ea57400c9", "is_disabled": 0, "rental_uris": {"android": "https://dc.lft.to/lastmile_qr_scan", "ios": "https://dc.lft.to/lastmile_qr_scan"}, "fusion_lon": 0.0, "lat": 38.931116833333334, "bike_id": "d5c02d79e0d3af16d474718ea57400c9", "type": "electric_scooter", "is_reserved": 0, "lon": -77.02381416666667}, {"fusion_lat": 0.0, "name": "c77264bcb2b5be00e9dc1d9261e1cb94", "is_disabled": 0, "rental_uris": {"android": "https://dc.lft.to/lastmile_qr_scan", "ios": "https://dc.lft.to/lastmile_qr_scan"}, "fusion_lon": 0.0, "lat": 38.9168, "bike_id": "c77264bcb2b5be00e9dc1d9261e1cb94", "type": "electric_scooter", "is_reserved": 0, "lon": -77.02711883333333}, {"fusion_lat": 0.0, "name": "6170d7754dd043c85faf48578454c782", "is_disabled": 0, "rental_uris": {"android": "https://dc.lft.to/lastmile_qr_scan", "ios": "https://dc.lft.to/lastmile_qr_scan"}, "fusion_lon": 0.0, "lat": 38.89219883333333, "bike_id": "6170d7754dd043c85faf48578454c782", "type": "electric_scooter", "is_reserved": 0, "lon": -77.022181}, {"fusion_lat": 0.0, "name": "7e14693a671cef264832ad3808d0b42e", "is_disabled": 0, "rental_uris": {"android": "https://dc.lft.to/lastmile_qr_scan", "ios": "https://dc.lft.to/lastmile_qr_scan"}, "fusion_lon": 0.0, "lat": 38.915182333333334, "bike_id": "7e14693a671cef264832ad3808d0b42e", "type": "electric_scooter", "is_reserved": 0, "lon": -77.01984633333333}, {"fusion_lat": 0.0, "name": "5e49fecaf7cef45a5537876fece51d20", "is_disabled": 0, "rental_uris": {"android": "https://dc.lft.to/lastmile_qr_scan", "ios": "https://dc.lft.to/lastmile_qr_scan"}, "fusion_lon": 0.0, "lat": 38.8865385, "bike_id": "5e49fecaf7cef45a5537876fece51d20", "type": "electric_scooter", "is_reserved": 0, "lon": -77.001988}, {"fusion_lat": 0.0, "name": "9285617e270b63357a3a27f6b84f176f", "is_disabled": 0, "rental_uris": {"android": "https://dc.lft.to/lastmile_qr_scan", "ios": "https://dc.lft.to/lastmile_qr_scan"}, "fusion_lon": 0.0, "lat": 38.901439333333336, "bike_id": "9285617e270b63357a3a27f6b84f176f", "type": "electric_scooter", "is_reserved": 0, "lon": -76.991192}, {"fusion_lat": 0.0, "name": "a7803043811a13ab569dd2d69baf65ad", "is_disabled": 0, "rental_uris": {"android": "https://dc.lft.to/lastmile_qr_scan", "ios": "https://dc.lft.to/lastmile_qr_scan"}, "fusion_lon": 0.0, "lat": 38.873719, "bike_id": "a7803043811a13ab569dd2d69baf65ad", "type": "electric_scooter", "is_reserved": 0, "lon": -77.00058866666667}, {"fusion_lat": 0.0, "name": "8a6ed6fd359ec98859d3de4169a09125", "is_disabled": 0, "rental_uris": {"android": "https://dc.lft.to/lastmile_qr_scan", "ios": "https://dc.lft.to/lastmile_qr_scan"}, "fusion_lon": 0.0, "lat": 38.921901, "bike_id": "8a6ed6fd359ec98859d3de4169a09125", "type": "electric_scooter", "is_reserved": 0, "lon": -77.03204133333334}, {"fusion_lat": 0.0, "name": "0fb092e97ce92ef75a9538cfaac853b7", "is_disabled": 0, "rental_uris": {"android": "https://dc.lft.to/lastmile_qr_scan", "ios": "https://dc.lft.to/lastmile_qr_scan"}, "fusion_lon": 0.0, "lat": 38.91344683333333, "bike_id": "0fb092e97ce92ef75a9538cfaac853b7", "type": "electric_bike", "is_reserved": 0, "lon": -76.98898816666667}, {"fusion_lat": 0.0, "name": "5123f87d2ce46afa43d4248d637dbabc", "is_disabled": 0, "rental_uris": {"android": "https://dc.lft.to/lastmile_qr_scan", "ios": "https://dc.lft.to/lastmile_qr_scan"}, "fusion_lon": 0.0, "lat": 38.92074266666667, "bike_id": "5123f87d2ce46afa43d4248d637dbabc", "type": "electric_scooter", "is_reserved": 0, "lon": -77.02319683333333}, {"fusion_lat": 0.0, "name": "738e18d03a62c0fafa1ab1b3af71177c", "is_disabled": 0, "rental_uris": {"android": "https://dc.lft.to/lastmile_qr_scan", "ios": "https://dc.lft.to/lastmile_qr_scan"}, "fusion_lon": 0.0, "lat": 38.91990833333333, "bike_id": "738e18d03a62c0fafa1ab1b3af71177c", "type": "electric_scooter", "is_reserved": 0, "lon": -77.040908}, {"fusion_lat": 0.0, "name": "cba0402cef399c688a89e50db3571888", "is_disabled": 0, "rental_uris": {"android": "https://dc.lft.to/lastmile_qr_scan", "ios": "https://dc.lft.to/lastmile_qr_scan"}, "fusion_lon": 0.0, "lat": 38.9105685, "bike_id": "cba0402cef399c688a89e50db3571888", "type": "electric_scooter", "is_reserved": 0, "lon": -77.0383555}, {"fusion_lat": 0.0, "name": "e342e23bd91089e4cfad1960aa863329", "is_disabled": 0, "rental_uris": {"android": "https://dc.lft.to/lastmile_qr_scan", "ios": "https://dc.lft.to/lastmile_qr_scan"}, "fusion_lon": 0.0, "lat": 38.920799333333335, "bike_id": "e342e23bd91089e4cfad1960aa863329", "type": "electric_scooter", "is_reserved": 0, "lon": -77.023739}, {"fusion_lat": 0.0, "name": "c41488f9891971bb5b34e08d628a562a", "is_disabled": 0, "rental_uris": {"android": "https://dc.lft.to/lastmile_qr_scan", "ios": "https://dc.lft.to/lastmile_qr_scan"}, "fusion_lon": 0.0, "lat": 38.91199966666667, "bike_id": "c41488f9891971bb5b34e08d628a562a", "type": "electric_scooter", "is_reserved": 0, "lon": -77.0433805}, {"fusion_lat": 0.0, "name": "32cd22dd3420941f6a879ff5d52e50f9", "is_disabled": 0, "rental_uris": {"android": "https://dc.lft.to/lastmile_qr_scan", "ios": "https://dc.lft.to/lastmile_qr_scan"}, "fusion_lon": 0.0, "lat": 38.9056285, "bike_id": "32cd22dd3420941f6a879ff5d52e50f9", "type": "electric_scooter", "is_reserved": 0, "lon": -77.046642}, {"fusion_lat": 0.0, "name": "7b74013a1391f44785a28cb89794850f", "is_disabled": 0, "rental_uris": {"android": "https://dc.lft.to/lastmile_qr_scan", "ios": "https://dc.lft.to/lastmile_qr_scan"}, "fusion_lon": 0.0, "lat": 38.923214333333334, "bike_id": "7b74013a1391f44785a28cb89794850f", "type": "electric_scooter", "is_reserved": 0, "lon": -77.03974416666667}, {"fusion_lat": 0.0, "name": "1a023336c2b4f66a683cde801f84dc96", "is_disabled": 0, "rental_uris": {"android": "https://dc.lft.to/lastmile_qr_scan", "ios": "https://dc.lft.to/lastmile_qr_scan"}, "fusion_lon": 0.0, "lat": 38.88345316666667, "bike_id": "1a023336c2b4f66a683cde801f84dc96", "type": "electric_scooter", "is_reserved": 0, "lon": -77.03165383333334}, {"fusion_lat": 0.0, "name": "ed972d1863241ae14115025c205c7e40", "is_disabled": 0, "rental_uris": {"android": "https://dc.lft.to/lastmile_qr_scan", "ios": "https://dc.lft.to/lastmile_qr_scan"}, "fusion_lon": 0.0, "lat": 38.847584, "bike_id": "ed972d1863241ae14115025c205c7e40", "type": "electric_scooter", "is_reserved": 0, "lon": -76.994994}, {"fusion_lat": 0.0, "name": "68e912d10481a22a81c59ccc392ecfac", "is_disabled": 0, "rental_uris": {"android": "https://dc.lft.to/lastmile_qr_scan", "ios": "https://dc.lft.to/lastmile_qr_scan"}, "fusion_lon": 0.0, "lat": 38.9017875, "bike_id": "68e912d10481a22a81c59ccc392ecfac", "type": "electric_scooter", "is_reserved": 0, "lon": -76.992524}, {"fusion_lat": 0.0, "name": "702c45d2ba66327cf05f2c4c9826ca84", "is_disabled": 0, "rental_uris": {"android": "https://dc.lft.to/lastmile_qr_scan", "ios": "https://dc.lft.to/lastmile_qr_scan"}, "fusion_lon": 0.0, "lat": 38.93049833333333, "bike_id": "702c45d2ba66327cf05f2c4c9826ca84", "type": "electric_scooter", "is_reserved": 0, "lon": -77.03188866666666}, {"fusion_lat": 0.0, "name": "e4725d0b2121da1c98644342bd52d205", "is_disabled": 0, "rental_uris": {"android": "https://dc.lft.to/lastmile_qr_scan", "ios": "https://dc.lft.to/lastmile_qr_scan"}, "fusion_lon": 0.0, "lat": 38.90685116666667, "bike_id": "e4725d0b2121da1c98644342bd52d205", "type": "electric_scooter", "is_reserved": 0, "lon": -77.0269575}, {"fusion_lat": 0.0, "name": "0ee8e6e66eeffd5c3c82c5ca189194df", "is_disabled": 0, "rental_uris": {"android": "https://dc.lft.to/lastmile_qr_scan", "ios": "https://dc.lft.to/lastmile_qr_scan"}, "fusion_lon": 0.0, "lat": 38.905851166666665, "bike_id": "0ee8e6e66eeffd5c3c82c5ca189194df", "type": "electric_scooter", "is_reserved": 0, "lon": -77.00712516666667}, {"fusion_lat": 0.0, "name": "cf7d3dffbb7a7e6bd584e8f78afaf1f5", "is_disabled": 0, "rental_uris": {"android": "https://dc.lft.to/lastmile_qr_scan", "ios": "https://dc.lft.to/lastmile_qr_scan"}, "fusion_lon": 0.0, "lat": 38.900661166666666, "bike_id": "cf7d3dffbb7a7e6bd584e8f78afaf1f5", "type": "electric_scooter", "is_reserved": 0, "lon": -77.05665766666667}, {"fusion_lat": 0.0, "name": "af414610ce2984129265524647b2ac71", "is_disabled": 0, "rental_uris": {"android": "https://dc.lft.to/lastmile_qr_scan", "ios": "https://dc.lft.to/lastmile_qr_scan"}, "fusion_lon": 0.0, "lat": 38.917987833333335, "bike_id": "af414610ce2984129265524647b2ac71", "type": "electric_scooter", "is_reserved": 0, "lon": -77.03185316666666}, {"fusion_lat": 0.0, "name": "df1fc9f82f5011bfc62f60b0a461e2b1", "is_disabled": 0, "rental_uris": {"android": "https://dc.lft.to/lastmile_qr_scan", "ios": "https://dc.lft.to/lastmile_qr_scan"}, "fusion_lon": 0.0, "lat": 38.91263716666667, "bike_id": "df1fc9f82f5011bfc62f60b0a461e2b1", "type": "electric_scooter", "is_reserved": 0, "lon": -77.03623566666667}, {"fusion_lat": 0.0, "name": "3dc1c73e7862cd35b05ba202cc134693", "is_disabled": 0, "rental_uris": {"android": "https://dc.lft.to/lastmile_qr_scan", "ios": "https://dc.lft.to/lastmile_qr_scan"}, "fusion_lon": 0.0, "lat": 38.929698, "bike_id": "3dc1c73e7862cd35b05ba202cc134693", "type": "electric_scooter", "is_reserved": 0, "lon": -77.0309785}, {"fusion_lat": 0.0, "name": "3fa45f798492d8e48918ad8263a43130", "is_disabled": 0, "rental_uris": {"android": "https://dc.lft.to/lastmile_qr_scan", "ios": "https://dc.lft.to/lastmile_qr_scan"}, "fusion_lon": 0.0, "lat": 38.88765866666667, "bike_id": "3fa45f798492d8e48918ad8263a43130", "type": "electric_scooter", "is_reserved": 0, "lon": -77.02865666666666}, {"fusion_lat": 0.0, "name": "3bcfa427a150a3e9abda5a06307966c1", "is_disabled": 0, "rental_uris": {"android": "https://dc.lft.to/lastmile_qr_scan", "ios": "https://dc.lft.to/lastmile_qr_scan"}, "fusion_lon": 0.0, "lat": 38.901729833333334, "bike_id": "3bcfa427a150a3e9abda5a06307966c1", "type": "electric_scooter", "is_reserved": 0, "lon": -77.024762}, {"fusion_lat": 0.0, "name": "60a0c17d0ac221079cef04ecdba299f4", "is_disabled": 0, "rental_uris": {"android": "https://dc.lft.to/lastmile_qr_scan", "ios": "https://dc.lft.to/lastmile_qr_scan"}, "fusion_lon": 0.0, "lat": 38.916828833333334, "bike_id": "60a0c17d0ac221079cef04ecdba299f4", "type": "electric_scooter", "is_reserved": 0, "lon": -77.03690083333333}, {"fusion_lat": 0.0, "name": "7243d9df25040cf7108a0e8d9af2a21e", "is_disabled": 0, "rental_uris": {"android": "https://dc.lft.to/lastmile_qr_scan", "ios": "https://dc.lft.to/lastmile_qr_scan"}, "fusion_lon": 0.0, "lat": 38.96410016666667, "bike_id": "7243d9df25040cf7108a0e8d9af2a21e", "type": "electric_scooter", "is_reserved": 0, "lon": -77.027677}, {"fusion_lat": 0.0, "name": "9bfb433b77425671e2afa6f8eefafe9e", "is_disabled": 0, "rental_uris": {"android": "https://dc.lft.to/lastmile_qr_scan", "ios": "https://dc.lft.to/lastmile_qr_scan"}, "fusion_lon": 0.0, "lat": 38.91659833333333, "bike_id": "9bfb433b77425671e2afa6f8eefafe9e", "type": "electric_scooter", "is_reserved": 0, "lon": -77.00957416666667}, {"fusion_lat": 0.0, "name": "2c3f0c2c2460f4f5877a39cfa71c29fa", "is_disabled": 0, "rental_uris": {"android": "https://dc.lft.to/lastmile_qr_scan", "ios": "https://dc.lft.to/lastmile_qr_scan"}, "fusion_lon": 0.0, "lat": 38.90541183333333, "bike_id": "2c3f0c2c2460f4f5877a39cfa71c29fa", "type": "electric_scooter", "is_reserved": 0, "lon": -76.98193833333333}, {"fusion_lat": 0.0, "name": "ae33b2e50e63dcafaac07fd1c352d2fc", "is_disabled": 0, "rental_uris": {"android": "https://dc.lft.to/lastmile_qr_scan", "ios": "https://dc.lft.to/lastmile_qr_scan"}, "fusion_lon": 0.0, "lat": 38.903898833333336, "bike_id": "ae33b2e50e63dcafaac07fd1c352d2fc", "type": "electric_scooter", "is_reserved": 0, "lon": -77.01766683333334}, {"fusion_lat": 0.0, "name": "6deb9c7c99ecd759300c8df7c5a5ae8c", "is_disabled": 0, "rental_uris": {"android": "https://dc.lft.to/lastmile_qr_scan", "ios": "https://dc.lft.to/lastmile_qr_scan"}, "fusion_lon": 0.0, "lat": 38.922451833333334, "bike_id": "6deb9c7c99ecd759300c8df7c5a5ae8c", "type": "electric_scooter", "is_reserved": 0, "lon": -77.02236566666667}, {"fusion_lat": 0.0, "name": "ae9a215766ce417c43362eeaf6e1d4c8", "is_disabled": 0, "rental_uris": {"android": "https://dc.lft.to/lastmile_qr_scan", "ios": "https://dc.lft.to/lastmile_qr_scan"}, "fusion_lon": 0.0, "lat": 38.90110716666667, "bike_id": "ae9a215766ce417c43362eeaf6e1d4c8", "type": "electric_scooter", "is_reserved": 0, "lon": -77.022641}, {"fusion_lat": 0.0, "name": "9ad5db3ad75649e5ba2fe3afb11137d5", "is_disabled": 0, "rental_uris": {"android": "https://dc.lft.to/lastmile_qr_scan", "ios": "https://dc.lft.to/lastmile_qr_scan"}, "fusion_lon": 0.0, "lat": 38.865247833333335, "bike_id": "9ad5db3ad75649e5ba2fe3afb11137d5", "type": "electric_bike", "is_reserved": 0, "lon": -77.12927716666667}, {"fusion_lat": 0.0, "name": "7ccacea8eb986b32cca4eb51aa21e9f4", "is_disabled": 0, "rental_uris": {"android": "https://dc.lft.to/lastmile_qr_scan", "ios": "https://dc.lft.to/lastmile_qr_scan"}, "fusion_lon": 0.0, "lat": 38.9141285, "bike_id": "7ccacea8eb986b32cca4eb51aa21e9f4", "type": "electric_scooter", "is_reserved": 0, "lon": -77.04247866666667}, {"fusion_lat": 0.0, "name": "f5a3586085f195f44fa633e815d50af2", "is_disabled": 0, "rental_uris": {"android": "https://dc.lft.to/lastmile_qr_scan", "ios": "https://dc.lft.to/lastmile_qr_scan"}, "fusion_lon": 0.0, "lat": 38.887425, "bike_id": "f5a3586085f195f44fa633e815d50af2", "type": "electric_scooter", "is_reserved": 0, "lon": -77.01510883333333}, {"fusion_lat": 0.0, "name": "a2b63a049351ea12e2f0ab011c99ce98", "is_disabled": 0, "rental_uris": {"android": "https://dc.lft.to/lastmile_qr_scan", "ios": "https://dc.lft.to/lastmile_qr_scan"}, "fusion_lon": 0.0, "lat": 38.90667533333333, "bike_id": "a2b63a049351ea12e2f0ab011c99ce98", "type": "electric_scooter", "is_reserved": 0, "lon": -76.99969233333333}, {"fusion_lat": 0.0, "name": "bc2630718f75516466d80268282ed331", "is_disabled": 0, "rental_uris": {"android": "https://dc.lft.to/lastmile_qr_scan", "ios": "https://dc.lft.to/lastmile_qr_scan"}, "fusion_lon": 0.0, "lat": 38.91354533333333, "bike_id": "bc2630718f75516466d80268282ed331", "type": "electric_scooter", "is_reserved": 0, "lon": -77.02050783333334}, {"fusion_lat": 0.0, "name": "d213491c32a60a78d759a973fa947852", "is_disabled": 0, "rental_uris": {"android": "https://dc.lft.to/lastmile_qr_scan", "ios": "https://dc.lft.to/lastmile_qr_scan"}, "fusion_lon": 0.0, "lat": 38.9055105, "bike_id": "d213491c32a60a78d759a973fa947852", "type": "electric_scooter", "is_reserved": 0, "lon": -77.002291}, {"fusion_lat": 0.0, "name": "025e28e56efe340e801d9e8b86505464", "is_disabled": 0, "rental_uris": {"android": "https://dc.lft.to/lastmile_qr_scan", "ios": "https://dc.lft.to/lastmile_qr_scan"}, "fusion_lon": 0.0, "lat": 38.88765716666666, "bike_id": "025e28e56efe340e801d9e8b86505464", "type": "electric_scooter", "is_reserved": 0, "lon": -77.0333825}, {"fusion_lat": 0.0, "name": "09efef93feb2db830ea9eecd5eea0814", "is_disabled": 0, "rental_uris": {"android": "https://dc.lft.to/lastmile_qr_scan", "ios": "https://dc.lft.to/lastmile_qr_scan"}, "fusion_lon": 0.0, "lat": 38.90026733333333, "bike_id": "09efef93feb2db830ea9eecd5eea0814", "type": "electric_scooter", "is_reserved": 0, "lon": -76.973991}, {"fusion_lat": 0.0, "name": "a352a70dc67b06a270357581d664f970", "is_disabled": 0, "rental_uris": {"android": "https://dc.lft.to/lastmile_qr_scan", "ios": "https://dc.lft.to/lastmile_qr_scan"}, "fusion_lon": 0.0, "lat": 38.9153565, "bike_id": "a352a70dc67b06a270357581d664f970", "type": "electric_scooter", "is_reserved": 0, "lon": -77.0122135}, {"fusion_lat": 0.0, "name": "2d9960e95774a635689e5ed116e59526", "is_disabled": 0, "rental_uris": {"android": "https://dc.lft.to/lastmile_qr_scan", "ios": "https://dc.lft.to/lastmile_qr_scan"}, "fusion_lon": 0.0, "lat": 38.9199445, "bike_id": "2d9960e95774a635689e5ed116e59526", "type": "electric_scooter", "is_reserved": 0, "lon": -77.02174083333334}, {"fusion_lat": 0.0, "name": "cc5205f88ab53c78ba08d0cbe0d43b7e", "is_disabled": 0, "rental_uris": {"android": "https://dc.lft.to/lastmile_qr_scan", "ios": "https://dc.lft.to/lastmile_qr_scan"}, "fusion_lon": 0.0, "lat": 38.922336333333334, "bike_id": "cc5205f88ab53c78ba08d0cbe0d43b7e", "type": "electric_bike", "is_reserved": 0, "lon": -77.023357}, {"fusion_lat": 0.0, "name": "bb16016ef3940636ebff9727e247c472", "is_disabled": 0, "rental_uris": {"android": "https://dc.lft.to/lastmile_qr_scan", "ios": "https://dc.lft.to/lastmile_qr_scan"}, "fusion_lon": 0.0, "lat": 38.898452, "bike_id": "bb16016ef3940636ebff9727e247c472", "type": "electric_scooter", "is_reserved": 0, "lon": -77.02484783333334}, {"fusion_lat": 0.0, "name": "165ce5c5b5d8be79dfdefd6619c18bd4", "is_disabled": 0, "rental_uris": {"android": "https://dc.lft.to/lastmile_qr_scan", "ios": "https://dc.lft.to/lastmile_qr_scan"}, "fusion_lon": 0.0, "lat": 38.89223066666667, "bike_id": "165ce5c5b5d8be79dfdefd6619c18bd4", "type": "electric_scooter", "is_reserved": 0, "lon": -77.032112}, {"fusion_lat": 0.0, "name": "085de96daa5ff8c5d670d3ba380f3824", "is_disabled": 0, "rental_uris": {"android": "https://dc.lft.to/lastmile_qr_scan", "ios": "https://dc.lft.to/lastmile_qr_scan"}, "fusion_lon": 0.0, "lat": 38.923340333333336, "bike_id": "085de96daa5ff8c5d670d3ba380f3824", "type": "electric_scooter", "is_reserved": 0, "lon": -77.05681066666666}, {"fusion_lat": 0.0, "name": "d4e18212888be8e614c1d85904a8e248", "is_disabled": 0, "rental_uris": {"android": "https://dc.lft.to/lastmile_qr_scan", "ios": "https://dc.lft.to/lastmile_qr_scan"}, "fusion_lon": 0.0, "lat": 38.909508333333335, "bike_id": "d4e18212888be8e614c1d85904a8e248", "type": "electric_scooter", "is_reserved": 0, "lon": -76.98766883333333}, {"fusion_lat": 0.0, "name": "f969917d542fb436d679139ed47ec6c9", "is_disabled": 0, "rental_uris": {"android": "https://dc.lft.to/lastmile_qr_scan", "ios": "https://dc.lft.to/lastmile_qr_scan"}, "fusion_lon": 0.0, "lat": 38.916834, "bike_id": "f969917d542fb436d679139ed47ec6c9", "type": "electric_scooter", "is_reserved": 0, "lon": -77.022891}, {"fusion_lat": 0.0, "name": "bc2ccb7338e9fd4348d3c65d6a72c4a5", "is_disabled": 0, "rental_uris": {"android": "https://dc.lft.to/lastmile_qr_scan", "ios": "https://dc.lft.to/lastmile_qr_scan"}, "fusion_lon": 0.0, "lat": 38.92389933333333, "bike_id": "bc2ccb7338e9fd4348d3c65d6a72c4a5", "type": "electric_scooter", "is_reserved": 0, "lon": -77.03138616666666}, {"fusion_lat": 0.0, "name": "891eea0f94610f253dc08599d4b3d604", "is_disabled": 0, "rental_uris": {"android": "https://dc.lft.to/lastmile_qr_scan", "ios": "https://dc.lft.to/lastmile_qr_scan"}, "fusion_lon": 0.0, "lat": 38.90867466666667, "bike_id": "891eea0f94610f253dc08599d4b3d604", "type": "electric_scooter", "is_reserved": 0, "lon": -77.032268}, {"fusion_lat": 0.0, "name": "767381b3422d6393a9e79f7c3b0dd03c", "is_disabled": 0, "rental_uris": {"android": "https://dc.lft.to/lastmile_qr_scan", "ios": "https://dc.lft.to/lastmile_qr_scan"}, "fusion_lon": 0.0, "lat": 38.903110166666664, "bike_id": "767381b3422d6393a9e79f7c3b0dd03c", "type": "electric_scooter", "is_reserved": 0, "lon": -76.9765415}, {"fusion_lat": 0.0, "name": "ec89e13d3828d8e5a47d4dbfd9399009", "is_disabled": 0, "rental_uris": {"android": "https://dc.lft.to/lastmile_qr_scan", "ios": "https://dc.lft.to/lastmile_qr_scan"}, "fusion_lon": 0.0, "lat": 38.99448266666667, "bike_id": "ec89e13d3828d8e5a47d4dbfd9399009", "type": "electric_bike", "is_reserved": 0, "lon": -76.99589466666667}, {"fusion_lat": 0.0, "name": "601293bc7f8e6094f5aa7e239a698d37", "is_disabled": 0, "rental_uris": {"android": "https://dc.lft.to/lastmile_qr_scan", "ios": "https://dc.lft.to/lastmile_qr_scan"}, "fusion_lon": 0.0, "lat": 38.92670916666667, "bike_id": "601293bc7f8e6094f5aa7e239a698d37", "type": "electric_scooter", "is_reserved": 0, "lon": -77.014961}, {"fusion_lat": 0.0, "name": "523fe0c81dec529db87d7161d5aa1627", "is_disabled": 0, "rental_uris": {"android": "https://dc.lft.to/lastmile_qr_scan", "ios": "https://dc.lft.to/lastmile_qr_scan"}, "fusion_lon": 0.0, "lat": 38.9057675, "bike_id": "523fe0c81dec529db87d7161d5aa1627", "type": "electric_scooter", "is_reserved": 0, "lon": -77.02202}, {"fusion_lat": 0.0, "name": "fd5d4dffc35d1c7092a9ea0027b9e92b", "is_disabled": 0, "rental_uris": {"android": "https://dc.lft.to/lastmile_qr_scan", "ios": "https://dc.lft.to/lastmile_qr_scan"}, "fusion_lon": 0.0, "lat": 38.89218416666667, "bike_id": "fd5d4dffc35d1c7092a9ea0027b9e92b", "type": "electric_scooter", "is_reserved": 0, "lon": -77.02629383333333}, {"fusion_lat": 0.0, "name": "e6b177e48def3dc7f70d6270fad173c2", "is_disabled": 0, "rental_uris": {"android": "https://dc.lft.to/lastmile_qr_scan", "ios": "https://dc.lft.to/lastmile_qr_scan"}, "fusion_lon": 0.0, "lat": 38.8933405, "bike_id": "e6b177e48def3dc7f70d6270fad173c2", "type": "electric_scooter", "is_reserved": 0, "lon": -76.943786}, {"fusion_lat": 0.0, "name": "cf5187ca8fa9f219f2d8eb3983c7335a", "is_disabled": 0, "rental_uris": {"android": "https://dc.lft.to/lastmile_qr_scan", "ios": "https://dc.lft.to/lastmile_qr_scan"}, "fusion_lon": 0.0, "lat": 38.917472, "bike_id": "cf5187ca8fa9f219f2d8eb3983c7335a", "type": "electric_scooter", "is_reserved": 0, "lon": -77.03187983333333}, {"fusion_lat": 0.0, "name": "3a4c2bd240a4adca95fd5490354dfa2c", "is_disabled": 0, "rental_uris": {"android": "https://dc.lft.to/lastmile_qr_scan", "ios": "https://dc.lft.to/lastmile_qr_scan"}, "fusion_lon": 0.0, "lat": 38.90259983333333, "bike_id": "3a4c2bd240a4adca95fd5490354dfa2c", "type": "electric_scooter", "is_reserved": 0, "lon": -77.0532605}, {"fusion_lat": 0.0, "name": "4f64ee19078dc4d651166561ff7e0461", "is_disabled": 0, "rental_uris": {"android": "https://dc.lft.to/lastmile_qr_scan", "ios": "https://dc.lft.to/lastmile_qr_scan"}, "fusion_lon": 0.0, "lat": 38.915773333333334, "bike_id": "4f64ee19078dc4d651166561ff7e0461", "type": "electric_scooter", "is_reserved": 0, "lon": -77.02714633333333}, {"fusion_lat": 0.0, "name": "9abe289f4e710da0ef81210e90adaa84", "is_disabled": 0, "rental_uris": {"android": "https://dc.lft.to/lastmile_qr_scan", "ios": "https://dc.lft.to/lastmile_qr_scan"}, "fusion_lon": 0.0, "lat": 38.933719333333336, "bike_id": "9abe289f4e710da0ef81210e90adaa84", "type": "electric_scooter", "is_reserved": 0, "lon": -77.057251}, {"fusion_lat": 0.0, "name": "cdcf1bc97bd14ee9f9e88aaf41ca1266", "is_disabled": 0, "rental_uris": {"android": "https://dc.lft.to/lastmile_qr_scan", "ios": "https://dc.lft.to/lastmile_qr_scan"}, "fusion_lon": 0.0, "lat": 38.92457566666667, "bike_id": "cdcf1bc97bd14ee9f9e88aaf41ca1266", "type": "electric_scooter", "is_reserved": 0, "lon": -77.03967383333334}, {"fusion_lat": 0.0, "name": "f76bd8e3e05ff9906ad0e68c88df5917", "is_disabled": 0, "rental_uris": {"android": "https://dc.lft.to/lastmile_qr_scan", "ios": "https://dc.lft.to/lastmile_qr_scan"}, "fusion_lon": 0.0, "lat": 38.906706166666666, "bike_id": "f76bd8e3e05ff9906ad0e68c88df5917", "type": "electric_scooter", "is_reserved": 0, "lon": -77.0271055}, {"fusion_lat": 0.0, "name": "3da0bdbd5a711d8506f30b540c465356", "is_disabled": 0, "rental_uris": {"android": "https://dc.lft.to/lastmile_qr_scan", "ios": "https://dc.lft.to/lastmile_qr_scan"}, "fusion_lon": 0.0, "lat": 38.900780166666664, "bike_id": "3da0bdbd5a711d8506f30b540c465356", "type": "electric_bike", "is_reserved": 0, "lon": -77.039202}, {"fusion_lat": 0.0, "name": "1153ddf7a341907f55f6bff57500e3c8", "is_disabled": 0, "rental_uris": {"android": "https://dc.lft.to/lastmile_qr_scan", "ios": "https://dc.lft.to/lastmile_qr_scan"}, "fusion_lon": 0.0, "lat": 38.921374, "bike_id": "1153ddf7a341907f55f6bff57500e3c8", "type": "electric_scooter", "is_reserved": 0, "lon": -77.044216}, {"fusion_lat": 0.0, "name": "4ab9a0273e1601fe21ee91da59c3f53a", "is_disabled": 0, "rental_uris": {"android": "https://dc.lft.to/lastmile_qr_scan", "ios": "https://dc.lft.to/lastmile_qr_scan"}, "fusion_lon": 0.0, "lat": 38.9002555, "bike_id": "4ab9a0273e1601fe21ee91da59c3f53a", "type": "electric_scooter", "is_reserved": 0, "lon": -77.016153}, {"fusion_lat": 0.0, "name": "aa0560acc9a9813cabbaf0df5c253753", "is_disabled": 0, "rental_uris": {"android": "https://dc.lft.to/lastmile_qr_scan", "ios": "https://dc.lft.to/lastmile_qr_scan"}, "fusion_lon": 0.0, "lat": 38.9112545, "bike_id": "aa0560acc9a9813cabbaf0df5c253753", "type": "electric_scooter", "is_reserved": 0, "lon": -77.03282533333334}, {"fusion_lat": 0.0, "name": "54b686b91f5b8ef7a42388ae0334b325", "is_disabled": 0, "rental_uris": {"android": "https://dc.lft.to/lastmile_qr_scan", "ios": "https://dc.lft.to/lastmile_qr_scan"}, "fusion_lon": 0.0, "lat": 38.95892883333333, "bike_id": "54b686b91f5b8ef7a42388ae0334b325", "type": "electric_scooter", "is_reserved": 0, "lon": -77.00285783333334}, {"fusion_lat": 0.0, "name": "ff592ee39c67af251c457733cd77f225", "is_disabled": 0, "rental_uris": {"android": "https://dc.lft.to/lastmile_qr_scan", "ios": "https://dc.lft.to/lastmile_qr_scan"}, "fusion_lon": 0.0, "lat": 38.88750866666667, "bike_id": "ff592ee39c67af251c457733cd77f225", "type": "electric_scooter", "is_reserved": 0, "lon": -77.0213305}, {"fusion_lat": 0.0, "name": "d21c8c95897e4120d168b15227b8f687", "is_disabled": 0, "rental_uris": {"android": "https://dc.lft.to/lastmile_qr_scan", "ios": "https://dc.lft.to/lastmile_qr_scan"}, "fusion_lon": 0.0, "lat": 38.899434666666664, "bike_id": "d21c8c95897e4120d168b15227b8f687", "type": "electric_scooter", "is_reserved": 0, "lon": -77.02200133333334}, {"fusion_lat": 0.0, "name": "55f60e88e247755df55dde402d9b3fbe", "is_disabled": 0, "rental_uris": {"android": "https://dc.lft.to/lastmile_qr_scan", "ios": "https://dc.lft.to/lastmile_qr_scan"}, "fusion_lon": 0.0, "lat": 38.8362645, "bike_id": "55f60e88e247755df55dde402d9b3fbe", "type": "electric_bike", "is_reserved": 0, "lon": -77.0695285}, {"fusion_lat": 0.0, "name": "64caedbf60757369ad027e8527ff2dfe", "is_disabled": 0, "rental_uris": {"android": "https://dc.lft.to/lastmile_qr_scan", "ios": "https://dc.lft.to/lastmile_qr_scan"}, "fusion_lon": 0.0, "lat": 38.906637833333335, "bike_id": "64caedbf60757369ad027e8527ff2dfe", "type": "electric_scooter", "is_reserved": 0, "lon": -77.00966166666667}, {"fusion_lat": 0.0, "name": "aee28f05d0404b3987f7c76cf2a80ad6", "is_disabled": 0, "rental_uris": {"android": "https://dc.lft.to/lastmile_qr_scan", "ios": "https://dc.lft.to/lastmile_qr_scan"}, "fusion_lon": 0.0, "lat": 38.934897166666666, "bike_id": "aee28f05d0404b3987f7c76cf2a80ad6", "type": "electric_scooter", "is_reserved": 0, "lon": -77.07278983333333}, {"fusion_lat": 0.0, "name": "92e6cd49dd7a5c335811becd635541d4", "is_disabled": 0, "rental_uris": {"android": "https://dc.lft.to/lastmile_qr_scan", "ios": "https://dc.lft.to/lastmile_qr_scan"}, "fusion_lon": 0.0, "lat": 38.881387333333336, "bike_id": "92e6cd49dd7a5c335811becd635541d4", "type": "electric_bike", "is_reserved": 0, "lon": -76.9812195}, {"fusion_lat": 0.0, "name": "1ea22b6e6ccbdf5161ec393912f1bc32", "is_disabled": 0, "rental_uris": {"android": "https://dc.lft.to/lastmile_qr_scan", "ios": "https://dc.lft.to/lastmile_qr_scan"}, "fusion_lon": 0.0, "lat": 38.91120766666667, "bike_id": "1ea22b6e6ccbdf5161ec393912f1bc32", "type": "electric_scooter", "is_reserved": 0, "lon": -77.02161266666667}, {"fusion_lat": 0.0, "name": "522c102492522474be3db6f86cbe93e7", "is_disabled": 0, "rental_uris": {"android": "https://dc.lft.to/lastmile_qr_scan", "ios": "https://dc.lft.to/lastmile_qr_scan"}, "fusion_lon": 0.0, "lat": 38.9240485, "bike_id": "522c102492522474be3db6f86cbe93e7", "type": "electric_scooter", "is_reserved": 0, "lon": -77.02542233333334}, {"fusion_lat": 0.0, "name": "e1180af8c627c4381ef40595c357fb99", "is_disabled": 0, "rental_uris": {"android": "https://dc.lft.to/lastmile_qr_scan", "ios": "https://dc.lft.to/lastmile_qr_scan"}, "fusion_lon": 0.0, "lat": 38.905698, "bike_id": "e1180af8c627c4381ef40595c357fb99", "type": "electric_scooter", "is_reserved": 0, "lon": -77.0209605}, {"fusion_lat": 0.0, "name": "f6b5ec6c38f0e3629adce2e39278673c", "is_disabled": 0, "rental_uris": {"android": "https://dc.lft.to/lastmile_qr_scan", "ios": "https://dc.lft.to/lastmile_qr_scan"}, "fusion_lon": 0.0, "lat": 38.91668033333333, "bike_id": "f6b5ec6c38f0e3629adce2e39278673c", "type": "electric_scooter", "is_reserved": 0, "lon": -77.0385045}, {"fusion_lat": 0.0, "name": "c5ea98f63412647c174651e42eee4590", "is_disabled": 0, "rental_uris": {"android": "https://dc.lft.to/lastmile_qr_scan", "ios": "https://dc.lft.to/lastmile_qr_scan"}, "fusion_lon": 0.0, "lat": 38.906977, "bike_id": "c5ea98f63412647c174651e42eee4590", "type": "electric_scooter", "is_reserved": 0, "lon": -76.95196233333333}, {"fusion_lat": 0.0, "name": "dcb4fc1a658dd1f21371b1a46883159a", "is_disabled": 0, "rental_uris": {"android": "https://dc.lft.to/lastmile_qr_scan", "ios": "https://dc.lft.to/lastmile_qr_scan"}, "fusion_lon": 0.0, "lat": 38.914144666666665, "bike_id": "dcb4fc1a658dd1f21371b1a46883159a", "type": "electric_scooter", "is_reserved": 0, "lon": -77.04571066666666}, {"fusion_lat": 0.0, "name": "3cdfb083868116abaa9c73d143c93d4d", "is_disabled": 0, "rental_uris": {"android": "https://dc.lft.to/lastmile_qr_scan", "ios": "https://dc.lft.to/lastmile_qr_scan"}, "fusion_lon": 0.0, "lat": 38.9024435, "bike_id": "3cdfb083868116abaa9c73d143c93d4d", "type": "electric_scooter", "is_reserved": 0, "lon": -77.04617016666667}, {"fusion_lat": 0.0, "name": "6e6c71c9fb0ee6053f6ba086c5d1d224", "is_disabled": 0, "rental_uris": {"android": "https://dc.lft.to/lastmile_qr_scan", "ios": "https://dc.lft.to/lastmile_qr_scan"}, "fusion_lon": 0.0, "lat": 38.91552216666667, "bike_id": "6e6c71c9fb0ee6053f6ba086c5d1d224", "type": "electric_scooter", "is_reserved": 0, "lon": -77.03853966666667}, {"fusion_lat": 0.0, "name": "28da7dd1a33b033d179d9e5e77053c57", "is_disabled": 0, "rental_uris": {"android": "https://dc.lft.to/lastmile_qr_scan", "ios": "https://dc.lft.to/lastmile_qr_scan"}, "fusion_lon": 0.0, "lat": 38.9472425, "bike_id": "28da7dd1a33b033d179d9e5e77053c57", "type": "electric_scooter", "is_reserved": 0, "lon": -77.0653455}, {"fusion_lat": 0.0, "name": "af448e50dcb585224c50530f5795e772", "is_disabled": 0, "rental_uris": {"android": "https://dc.lft.to/lastmile_qr_scan", "ios": "https://dc.lft.to/lastmile_qr_scan"}, "fusion_lon": 0.0, "lat": 38.94391483333333, "bike_id": "af448e50dcb585224c50530f5795e772", "type": "electric_scooter", "is_reserved": 0, "lon": -77.0950345}, {"fusion_lat": 0.0, "name": "bf35e8dc61ebe1b8c90313e39f1c9312", "is_disabled": 0, "rental_uris": {"android": "https://dc.lft.to/lastmile_qr_scan", "ios": "https://dc.lft.to/lastmile_qr_scan"}, "fusion_lon": 0.0, "lat": 38.931476833333335, "bike_id": "bf35e8dc61ebe1b8c90313e39f1c9312", "type": "electric_bike", "is_reserved": 0, "lon": -77.00069733333333}, {"fusion_lat": 0.0, "name": "78b4fb0ad9be7c7520168570f718afda", "is_disabled": 0, "rental_uris": {"android": "https://dc.lft.to/lastmile_qr_scan", "ios": "https://dc.lft.to/lastmile_qr_scan"}, "fusion_lon": 0.0, "lat": 38.90129683333333, "bike_id": "78b4fb0ad9be7c7520168570f718afda", "type": "electric_scooter", "is_reserved": 0, "lon": -77.04458133333333}, {"fusion_lat": 0.0, "name": "d84f11b5d8c1ed0563e8302941195948", "is_disabled": 0, "rental_uris": {"android": "https://dc.lft.to/lastmile_qr_scan", "ios": "https://dc.lft.to/lastmile_qr_scan"}, "fusion_lon": 0.0, "lat": 38.921112666666666, "bike_id": "d84f11b5d8c1ed0563e8302941195948", "type": "electric_scooter", "is_reserved": 0, "lon": -77.02503183333333}, {"fusion_lat": 0.0, "name": "024535fd814adffb01752a3dff9d29bf", "is_disabled": 0, "rental_uris": {"android": "https://dc.lft.to/lastmile_qr_scan", "ios": "https://dc.lft.to/lastmile_qr_scan"}, "fusion_lon": 0.0, "lat": 38.8903015, "bike_id": "024535fd814adffb01752a3dff9d29bf", "type": "electric_scooter", "is_reserved": 0, "lon": -77.03178183333333}, {"fusion_lat": 0.0, "name": "fde32af302179a75f3fde35d3a461698", "is_disabled": 0, "rental_uris": {"android": "https://dc.lft.to/lastmile_qr_scan", "ios": "https://dc.lft.to/lastmile_qr_scan"}, "fusion_lon": 0.0, "lat": 38.88339216666667, "bike_id": "fde32af302179a75f3fde35d3a461698", "type": "electric_scooter", "is_reserved": 0, "lon": -76.93494916666667}, {"fusion_lat": 0.0, "name": "97a54edc296c5108e5cb10ec05112d16", "is_disabled": 0, "rental_uris": {"android": "https://dc.lft.to/lastmile_qr_scan", "ios": "https://dc.lft.to/lastmile_qr_scan"}, "fusion_lon": 0.0, "lat": 38.915648833333336, "bike_id": "97a54edc296c5108e5cb10ec05112d16", "type": "electric_scooter", "is_reserved": 0, "lon": -77.01038833333334}, {"fusion_lat": 0.0, "name": "ee78735787d7267f65c9daddd83167b3", "is_disabled": 0, "rental_uris": {"android": "https://dc.lft.to/lastmile_qr_scan", "ios": "https://dc.lft.to/lastmile_qr_scan"}, "fusion_lon": 0.0, "lat": 38.920883, "bike_id": "ee78735787d7267f65c9daddd83167b3", "type": "electric_scooter", "is_reserved": 0, "lon": -77.01394866666666}, {"fusion_lat": 0.0, "name": "c1d57f8553b001772057a257120db149", "is_disabled": 0, "rental_uris": {"android": "https://dc.lft.to/lastmile_qr_scan", "ios": "https://dc.lft.to/lastmile_qr_scan"}, "fusion_lon": 0.0, "lat": 38.892307, "bike_id": "c1d57f8553b001772057a257120db149", "type": "electric_scooter", "is_reserved": 0, "lon": -77.025071}, {"fusion_lat": 0.0, "name": "c36fc722de18eafceb940a00541259c2", "is_disabled": 0, "rental_uris": {"android": "https://dc.lft.to/lastmile_qr_scan", "ios": "https://dc.lft.to/lastmile_qr_scan"}, "fusion_lon": 0.0, "lat": 38.85336366666667, "bike_id": "c36fc722de18eafceb940a00541259c2", "type": "electric_scooter", "is_reserved": 0, "lon": -76.98023066666667}, {"fusion_lat": 0.0, "name": "f7306058d647d8cc8cf94a70e882b05b", "is_disabled": 0, "rental_uris": {"android": "https://dc.lft.to/lastmile_qr_scan", "ios": "https://dc.lft.to/lastmile_qr_scan"}, "fusion_lon": 0.0, "lat": 38.895043, "bike_id": "f7306058d647d8cc8cf94a70e882b05b", "type": "electric_scooter", "is_reserved": 0, "lon": -77.0032755}, {"fusion_lat": 0.0, "name": "a0f43179f3735ed743de16e86893a938", "is_disabled": 0, "rental_uris": {"android": "https://dc.lft.to/lastmile_qr_scan", "ios": "https://dc.lft.to/lastmile_qr_scan"}, "fusion_lon": 0.0, "lat": 38.90128983333334, "bike_id": "a0f43179f3735ed743de16e86893a938", "type": "electric_scooter", "is_reserved": 0, "lon": -77.0415965}, {"fusion_lat": 0.0, "name": "2a2bac98a1e3c29023938648a7d7ddc8", "is_disabled": 0, "rental_uris": {"android": "https://dc.lft.to/lastmile_qr_scan", "ios": "https://dc.lft.to/lastmile_qr_scan"}, "fusion_lon": 0.0, "lat": 38.934718, "bike_id": "2a2bac98a1e3c29023938648a7d7ddc8", "type": "electric_scooter", "is_reserved": 0, "lon": -77.07207066666666}, {"fusion_lat": 0.0, "name": "54b624e1054e770caa3e4b53f004f5ab", "is_disabled": 0, "rental_uris": {"android": "https://dc.lft.to/lastmile_qr_scan", "ios": "https://dc.lft.to/lastmile_qr_scan"}, "fusion_lon": 0.0, "lat": 38.902324166666666, "bike_id": "54b624e1054e770caa3e4b53f004f5ab", "type": "electric_scooter", "is_reserved": 0, "lon": -77.04567533333334}, {"fusion_lat": 0.0, "name": "c35bb1f02250f7411dddec94161088e3", "is_disabled": 0, "rental_uris": {"android": "https://dc.lft.to/lastmile_qr_scan", "ios": "https://dc.lft.to/lastmile_qr_scan"}, "fusion_lon": 0.0, "lat": 38.90094233333333, "bike_id": "c35bb1f02250f7411dddec94161088e3", "type": "electric_scooter", "is_reserved": 0, "lon": -76.9833195}, {"fusion_lat": 0.0, "name": "f735205614ad018c720eb3f66c318394", "is_disabled": 0, "rental_uris": {"android": "https://dc.lft.to/lastmile_qr_scan", "ios": "https://dc.lft.to/lastmile_qr_scan"}, "fusion_lon": 0.0, "lat": 38.898816333333336, "bike_id": "f735205614ad018c720eb3f66c318394", "type": "electric_scooter", "is_reserved": 0, "lon": -77.009158}, {"fusion_lat": 0.0, "name": "c59280c57e8c010b96995ae83d315142", "is_disabled": 0, "rental_uris": {"android": "https://dc.lft.to/lastmile_qr_scan", "ios": "https://dc.lft.to/lastmile_qr_scan"}, "fusion_lon": 0.0, "lat": 38.90447283333334, "bike_id": "c59280c57e8c010b96995ae83d315142", "type": "electric_scooter", "is_reserved": 0, "lon": -77.04858116666666}, {"fusion_lat": 0.0, "name": "b9fd782cf057489326823300ac345606", "is_disabled": 0, "rental_uris": {"android": "https://dc.lft.to/lastmile_qr_scan", "ios": "https://dc.lft.to/lastmile_qr_scan"}, "fusion_lon": 0.0, "lat": 38.8716055, "bike_id": "b9fd782cf057489326823300ac345606", "type": "electric_bike", "is_reserved": 0, "lon": -77.1314535}, {"fusion_lat": 0.0, "name": "694dbada1eabf0128d7316399ab0dc69", "is_disabled": 0, "rental_uris": {"android": "https://dc.lft.to/lastmile_qr_scan", "ios": "https://dc.lft.to/lastmile_qr_scan"}, "fusion_lon": 0.0, "lat": 38.89731833333333, "bike_id": "694dbada1eabf0128d7316399ab0dc69", "type": "electric_scooter", "is_reserved": 0, "lon": -76.9470115}, {"fusion_lat": 0.0, "name": "3a3a05e0424202b9bdbbbdb0bc53a195", "is_disabled": 0, "rental_uris": {"android": "https://dc.lft.to/lastmile_qr_scan", "ios": "https://dc.lft.to/lastmile_qr_scan"}, "fusion_lon": 0.0, "lat": 38.922998666666665, "bike_id": "3a3a05e0424202b9bdbbbdb0bc53a195", "type": "electric_scooter", "is_reserved": 0, "lon": -77.04142316666666}, {"fusion_lat": 0.0, "name": "11e511f89cb675b6fba6c7c51eecfc93", "is_disabled": 0, "rental_uris": {"android": "https://dc.lft.to/lastmile_qr_scan", "ios": "https://dc.lft.to/lastmile_qr_scan"}, "fusion_lon": 0.0, "lat": 38.9324355, "bike_id": "11e511f89cb675b6fba6c7c51eecfc93", "type": "electric_scooter", "is_reserved": 0, "lon": -77.0341265}, {"fusion_lat": 0.0, "name": "0e68426f8f2ec914564937f3100db0e2", "is_disabled": 0, "rental_uris": {"android": "https://dc.lft.to/lastmile_qr_scan", "ios": "https://dc.lft.to/lastmile_qr_scan"}, "fusion_lon": 0.0, "lat": 38.9022025, "bike_id": "0e68426f8f2ec914564937f3100db0e2", "type": "electric_scooter", "is_reserved": 0, "lon": -77.02382433333334}, {"fusion_lat": 0.0, "name": "ba93f90e72b1e12e376538bb0067336a", "is_disabled": 0, "rental_uris": {"android": "https://dc.lft.to/lastmile_qr_scan", "ios": "https://dc.lft.to/lastmile_qr_scan"}, "fusion_lon": 0.0, "lat": 38.90588833333333, "bike_id": "ba93f90e72b1e12e376538bb0067336a", "type": "electric_scooter", "is_reserved": 0, "lon": -77.04199083333333}, {"fusion_lat": 0.0, "name": "f397f1b37defce7a5a8d9f106213df8c", "is_disabled": 0, "rental_uris": {"android": "https://dc.lft.to/lastmile_qr_scan", "ios": "https://dc.lft.to/lastmile_qr_scan"}, "fusion_lon": 0.0, "lat": 38.9607555, "bike_id": "f397f1b37defce7a5a8d9f106213df8c", "type": "electric_scooter", "is_reserved": 0, "lon": -77.00097133333334}, {"fusion_lat": 0.0, "name": "6937b27d0daae43bf34bf96d25033131", "is_disabled": 0, "rental_uris": {"android": "https://dc.lft.to/lastmile_qr_scan", "ios": "https://dc.lft.to/lastmile_qr_scan"}, "fusion_lon": 0.0, "lat": 38.896521166666666, "bike_id": "6937b27d0daae43bf34bf96d25033131", "type": "electric_scooter", "is_reserved": 0, "lon": -77.01195883333334}, {"fusion_lat": 0.0, "name": "4ad6912b90318ef6330bc2511c1cdf28", "is_disabled": 0, "rental_uris": {"android": "https://dc.lft.to/lastmile_qr_scan", "ios": "https://dc.lft.to/lastmile_qr_scan"}, "fusion_lon": 0.0, "lat": 38.900414833333336, "bike_id": "4ad6912b90318ef6330bc2511c1cdf28", "type": "electric_scooter", "is_reserved": 0, "lon": -77.02972216666667}, {"fusion_lat": 0.0, "name": "da6ea2d9608180133fc785646f9e0136", "is_disabled": 0, "rental_uris": {"android": "https://dc.lft.to/lastmile_qr_scan", "ios": "https://dc.lft.to/lastmile_qr_scan"}, "fusion_lon": 0.0, "lat": 38.898159, "bike_id": "da6ea2d9608180133fc785646f9e0136", "type": "electric_scooter", "is_reserved": 0, "lon": -77.05007866666666}, {"fusion_lat": 0.0, "name": "b40287cfd48ff8fe7ff6e99ac47d56a8", "is_disabled": 0, "rental_uris": {"android": "https://dc.lft.to/lastmile_qr_scan", "ios": "https://dc.lft.to/lastmile_qr_scan"}, "fusion_lon": 0.0, "lat": 38.928149166666664, "bike_id": "b40287cfd48ff8fe7ff6e99ac47d56a8", "type": "electric_scooter", "is_reserved": 0, "lon": -77.04356333333334}, {"fusion_lat": 0.0, "name": "423ea016342f490707a9d3ab5d6be656", "is_disabled": 0, "rental_uris": {"android": "https://dc.lft.to/lastmile_qr_scan", "ios": "https://dc.lft.to/lastmile_qr_scan"}, "fusion_lon": 0.0, "lat": 38.8713065, "bike_id": "423ea016342f490707a9d3ab5d6be656", "type": "electric_scooter", "is_reserved": 0, "lon": -77.01226783333334}, {"fusion_lat": 0.0, "name": "7f1d2e7735f1980e050531022b3c3ab0", "is_disabled": 0, "rental_uris": {"android": "https://dc.lft.to/lastmile_qr_scan", "ios": "https://dc.lft.to/lastmile_qr_scan"}, "fusion_lon": 0.0, "lat": 38.916001, "bike_id": "7f1d2e7735f1980e050531022b3c3ab0", "type": "electric_scooter", "is_reserved": 0, "lon": -77.04566616666666}, {"fusion_lat": 0.0, "name": "06532195e173dae18e29a8d518399ad2", "is_disabled": 0, "rental_uris": {"android": "https://dc.lft.to/lastmile_qr_scan", "ios": "https://dc.lft.to/lastmile_qr_scan"}, "fusion_lon": 0.0, "lat": 38.926165, "bike_id": "06532195e173dae18e29a8d518399ad2", "type": "electric_scooter", "is_reserved": 0, "lon": -77.07569266666667}, {"fusion_lat": 0.0, "name": "4b1f3ab60f678136cf0cc22414ef0c4f", "is_disabled": 0, "rental_uris": {"android": "https://dc.lft.to/lastmile_qr_scan", "ios": "https://dc.lft.to/lastmile_qr_scan"}, "fusion_lon": 0.0, "lat": 38.91049533333333, "bike_id": "4b1f3ab60f678136cf0cc22414ef0c4f", "type": "electric_scooter", "is_reserved": 0, "lon": -77.04106183333333}, {"fusion_lat": 0.0, "name": "1b1ad8a29b914c62c560dd3a9ae9b16e", "is_disabled": 0, "rental_uris": {"android": "https://dc.lft.to/lastmile_qr_scan", "ios": "https://dc.lft.to/lastmile_qr_scan"}, "fusion_lon": 0.0, "lat": 38.90529033333333, "bike_id": "1b1ad8a29b914c62c560dd3a9ae9b16e", "type": "electric_scooter", "is_reserved": 0, "lon": -77.06131816666667}, {"fusion_lat": 0.0, "name": "492e78ca3f7c034cdb9a26392e044bc2", "is_disabled": 0, "rental_uris": {"android": "https://dc.lft.to/lastmile_qr_scan", "ios": "https://dc.lft.to/lastmile_qr_scan"}, "fusion_lon": 0.0, "lat": 38.9052435, "bike_id": "492e78ca3f7c034cdb9a26392e044bc2", "type": "electric_scooter", "is_reserved": 0, "lon": -77.05968666666666}, {"fusion_lat": 0.0, "name": "0ef15e6c22aedd4e77c79a236e525c0e", "is_disabled": 0, "rental_uris": {"android": "https://dc.lft.to/lastmile_qr_scan", "ios": "https://dc.lft.to/lastmile_qr_scan"}, "fusion_lon": 0.0, "lat": 38.90111, "bike_id": "0ef15e6c22aedd4e77c79a236e525c0e", "type": "electric_scooter", "is_reserved": 0, "lon": -76.97425283333334}, {"fusion_lat": 0.0, "name": "7b13f7282e8f6cb89d7c19433d2499d0", "is_disabled": 0, "rental_uris": {"android": "https://dc.lft.to/lastmile_qr_scan", "ios": "https://dc.lft.to/lastmile_qr_scan"}, "fusion_lon": 0.0, "lat": 38.92153916666667, "bike_id": "7b13f7282e8f6cb89d7c19433d2499d0", "type": "electric_scooter", "is_reserved": 0, "lon": -77.03668883333333}, {"fusion_lat": 0.0, "name": "ad7e6232bb4794a054e8b375ce7f5e24", "is_disabled": 0, "rental_uris": {"android": "https://dc.lft.to/lastmile_qr_scan", "ios": "https://dc.lft.to/lastmile_qr_scan"}, "fusion_lon": 0.0, "lat": 38.90080233333333, "bike_id": "ad7e6232bb4794a054e8b375ce7f5e24", "type": "electric_scooter", "is_reserved": 0, "lon": -77.05030066666667}, {"fusion_lat": 0.0, "name": "4f648c485a064cf33bf1da20beeba092", "is_disabled": 0, "rental_uris": {"android": "https://dc.lft.to/lastmile_qr_scan", "ios": "https://dc.lft.to/lastmile_qr_scan"}, "fusion_lon": 0.0, "lat": 38.900327833333336, "bike_id": "4f648c485a064cf33bf1da20beeba092", "type": "electric_scooter", "is_reserved": 0, "lon": -77.00336116666666}, {"fusion_lat": 0.0, "name": "0dac1958fa9bde1ff5949eba80933b8d", "is_disabled": 0, "rental_uris": {"android": "https://dc.lft.to/lastmile_qr_scan", "ios": "https://dc.lft.to/lastmile_qr_scan"}, "fusion_lon": 0.0, "lat": 38.89854183333333, "bike_id": "0dac1958fa9bde1ff5949eba80933b8d", "type": "electric_bike", "is_reserved": 0, "lon": -76.93189666666666}, {"fusion_lat": 0.0, "name": "3390e9b045e900e763beb732119451c7", "is_disabled": 0, "rental_uris": {"android": "https://dc.lft.to/lastmile_qr_scan", "ios": "https://dc.lft.to/lastmile_qr_scan"}, "fusion_lon": 0.0, "lat": 38.883997, "bike_id": "3390e9b045e900e763beb732119451c7", "type": "electric_scooter", "is_reserved": 0, "lon": -76.9303715}, {"fusion_lat": 0.0, "name": "74fb87e9d7d1981208391249241795c7", "is_disabled": 0, "rental_uris": {"android": "https://dc.lft.to/lastmile_qr_scan", "ios": "https://dc.lft.to/lastmile_qr_scan"}, "fusion_lon": 0.0, "lat": 38.88491283333333, "bike_id": "74fb87e9d7d1981208391249241795c7", "type": "electric_scooter", "is_reserved": 0, "lon": -76.995859}, {"fusion_lat": 0.0, "name": "b537f37989f1d1b81b323b71bd1121ad", "is_disabled": 0, "rental_uris": {"android": "https://dc.lft.to/lastmile_qr_scan", "ios": "https://dc.lft.to/lastmile_qr_scan"}, "fusion_lon": 0.0, "lat": 38.89737566666667, "bike_id": "b537f37989f1d1b81b323b71bd1121ad", "type": "electric_scooter", "is_reserved": 0, "lon": -77.05524733333333}, {"fusion_lat": 0.0, "name": "ad3b4c6b91d446549efc0131a88d7d6d", "is_disabled": 0, "rental_uris": {"android": "https://dc.lft.to/lastmile_qr_scan", "ios": "https://dc.lft.to/lastmile_qr_scan"}, "fusion_lon": 0.0, "lat": 38.89798716666667, "bike_id": "ad3b4c6b91d446549efc0131a88d7d6d", "type": "electric_scooter", "is_reserved": 0, "lon": -77.02176083333333}, {"fusion_lat": 0.0, "name": "993a7320ff69ee8c069afead7f2367d8", "is_disabled": 0, "rental_uris": {"android": "https://dc.lft.to/lastmile_qr_scan", "ios": "https://dc.lft.to/lastmile_qr_scan"}, "fusion_lon": 0.0, "lat": 38.91684516666667, "bike_id": "993a7320ff69ee8c069afead7f2367d8", "type": "electric_scooter", "is_reserved": 0, "lon": -77.02289033333334}, {"fusion_lat": 0.0, "name": "a46cfc6473d1e4dbb9f3d9a6a7673cf4", "is_disabled": 0, "rental_uris": {"android": "https://dc.lft.to/lastmile_qr_scan", "ios": "https://dc.lft.to/lastmile_qr_scan"}, "fusion_lon": 0.0, "lat": 38.91728783333333, "bike_id": "a46cfc6473d1e4dbb9f3d9a6a7673cf4", "type": "electric_scooter", "is_reserved": 0, "lon": -77.0269355}, {"fusion_lat": 0.0, "name": "8ed69b79231a15d5d3f5d7395e55fc74", "is_disabled": 0, "rental_uris": {"android": "https://dc.lft.to/lastmile_qr_scan", "ios": "https://dc.lft.to/lastmile_qr_scan"}, "fusion_lon": 0.0, "lat": 38.9020705, "bike_id": "8ed69b79231a15d5d3f5d7395e55fc74", "type": "electric_scooter", "is_reserved": 0, "lon": -77.02373433333334}, {"fusion_lat": 0.0, "name": "46304d4f6a9ee1c5f16910d7fafc1e3f", "is_disabled": 0, "rental_uris": {"android": "https://dc.lft.to/lastmile_qr_scan", "ios": "https://dc.lft.to/lastmile_qr_scan"}, "fusion_lon": 0.0, "lat": 38.909716833333334, "bike_id": "46304d4f6a9ee1c5f16910d7fafc1e3f", "type": "electric_scooter", "is_reserved": 0, "lon": -77.02074866666666}, {"fusion_lat": 0.0, "name": "4e5bbbcbd36bb582dbd3cfb1529c6a8a", "is_disabled": 0, "rental_uris": {"android": "https://dc.lft.to/lastmile_qr_scan", "ios": "https://dc.lft.to/lastmile_qr_scan"}, "fusion_lon": 0.0, "lat": 38.909107666666664, "bike_id": "4e5bbbcbd36bb582dbd3cfb1529c6a8a", "type": "electric_scooter", "is_reserved": 0, "lon": -77.02713733333333}, {"fusion_lat": 0.0, "name": "29893f798af12b30e157ba8de1fe8d5c", "is_disabled": 0, "rental_uris": {"android": "https://dc.lft.to/lastmile_qr_scan", "ios": "https://dc.lft.to/lastmile_qr_scan"}, "fusion_lon": 0.0, "lat": 38.94099216666667, "bike_id": "29893f798af12b30e157ba8de1fe8d5c", "type": "electric_scooter", "is_reserved": 0, "lon": -77.0618465}, {"fusion_lat": 0.0, "name": "690fd0be8506c60315a2b81892b46a61", "is_disabled": 0, "rental_uris": {"android": "https://dc.lft.to/lastmile_qr_scan", "ios": "https://dc.lft.to/lastmile_qr_scan"}, "fusion_lon": 0.0, "lat": 38.857693, "bike_id": "690fd0be8506c60315a2b81892b46a61", "type": "electric_bike", "is_reserved": 0, "lon": -76.9875845}, {"fusion_lat": 0.0, "name": "1378026740d76527c82e1c2ffd49e5af", "is_disabled": 0, "rental_uris": {"android": "https://dc.lft.to/lastmile_qr_scan", "ios": "https://dc.lft.to/lastmile_qr_scan"}, "fusion_lon": 0.0, "lat": 38.919281166666664, "bike_id": "1378026740d76527c82e1c2ffd49e5af", "type": "electric_scooter", "is_reserved": 0, "lon": -77.0318095}, {"fusion_lat": 0.0, "name": "4f2b847f5baa182d68cba394ee56ad84", "is_disabled": 0, "rental_uris": {"android": "https://dc.lft.to/lastmile_qr_scan", "ios": "https://dc.lft.to/lastmile_qr_scan"}, "fusion_lon": 0.0, "lat": 38.897602666666664, "bike_id": "4f2b847f5baa182d68cba394ee56ad84", "type": "electric_scooter", "is_reserved": 0, "lon": -77.02570333333334}, {"fusion_lat": 0.0, "name": "6c31f750fc0c857a2689d2455ad7ce75", "is_disabled": 0, "rental_uris": {"android": "https://dc.lft.to/lastmile_qr_scan", "ios": "https://dc.lft.to/lastmile_qr_scan"}, "fusion_lon": 0.0, "lat": 38.8587525, "bike_id": "6c31f750fc0c857a2689d2455ad7ce75", "type": "electric_bike", "is_reserved": 0, "lon": -77.0955425}, {"fusion_lat": 0.0, "name": "0624d9ab65e1801579e0e815ee604f64", "is_disabled": 0, "rental_uris": {"android": "https://dc.lft.to/lastmile_qr_scan", "ios": "https://dc.lft.to/lastmile_qr_scan"}, "fusion_lon": 0.0, "lat": 38.928118166666664, "bike_id": "0624d9ab65e1801579e0e815ee604f64", "type": "electric_scooter", "is_reserved": 0, "lon": -77.04335516666667}, {"fusion_lat": 0.0, "name": "1abf65c3b0dabb7f21b2b44ed0bf9634", "is_disabled": 0, "rental_uris": {"android": "https://dc.lft.to/lastmile_qr_scan", "ios": "https://dc.lft.to/lastmile_qr_scan"}, "fusion_lon": 0.0, "lat": 38.87163483333333, "bike_id": "1abf65c3b0dabb7f21b2b44ed0bf9634", "type": "electric_scooter", "is_reserved": 0, "lon": -77.0057565}, {"fusion_lat": 0.0, "name": "806adf419086fbcd8f5c0a5a41146204", "is_disabled": 0, "rental_uris": {"android": "https://dc.lft.to/lastmile_qr_scan", "ios": "https://dc.lft.to/lastmile_qr_scan"}, "fusion_lon": 0.0, "lat": 38.90300933333333, "bike_id": "806adf419086fbcd8f5c0a5a41146204", "type": "electric_scooter", "is_reserved": 0, "lon": -77.04954733333334}, {"fusion_lat": 0.0, "name": "b730da100e017102f88e832f234c1383", "is_disabled": 0, "rental_uris": {"android": "https://dc.lft.to/lastmile_qr_scan", "ios": "https://dc.lft.to/lastmile_qr_scan"}, "fusion_lon": 0.0, "lat": 38.929213, "bike_id": "b730da100e017102f88e832f234c1383", "type": "electric_scooter", "is_reserved": 0, "lon": -77.032625}, {"fusion_lat": 0.0, "name": "109c343926d8f24299eafee29a9b510c", "is_disabled": 0, "rental_uris": {"android": "https://dc.lft.to/lastmile_qr_scan", "ios": "https://dc.lft.to/lastmile_qr_scan"}, "fusion_lon": 0.0, "lat": 38.89237416666667, "bike_id": "109c343926d8f24299eafee29a9b510c", "type": "electric_scooter", "is_reserved": 0, "lon": -77.02380183333334}, {"fusion_lat": 0.0, "name": "cf98c675bfddbf142ff7f271b2e5aefe", "is_disabled": 0, "rental_uris": {"android": "https://dc.lft.to/lastmile_qr_scan", "ios": "https://dc.lft.to/lastmile_qr_scan"}, "fusion_lon": 0.0, "lat": 38.905796, "bike_id": "cf98c675bfddbf142ff7f271b2e5aefe", "type": "electric_scooter", "is_reserved": 0, "lon": -77.04074033333333}, {"fusion_lat": 0.0, "name": "16d0ec1adfec4bcb0fb47f91954394da", "is_disabled": 0, "rental_uris": {"android": "https://dc.lft.to/lastmile_qr_scan", "ios": "https://dc.lft.to/lastmile_qr_scan"}, "fusion_lon": 0.0, "lat": 38.87814616666667, "bike_id": "16d0ec1adfec4bcb0fb47f91954394da", "type": "electric_scooter", "is_reserved": 0, "lon": -77.01528366666666}, {"fusion_lat": 0.0, "name": "c7ba01cc3051a0cbf95325834cc9a96f", "is_disabled": 0, "rental_uris": {"android": "https://dc.lft.to/lastmile_qr_scan", "ios": "https://dc.lft.to/lastmile_qr_scan"}, "fusion_lon": 0.0, "lat": 38.897989833333334, "bike_id": "c7ba01cc3051a0cbf95325834cc9a96f", "type": "electric_scooter", "is_reserved": 0, "lon": -76.98457133333334}, {"fusion_lat": 0.0, "name": "9759adadc9fd50681859c62b69815a9e", "is_disabled": 0, "rental_uris": {"android": "https://dc.lft.to/lastmile_qr_scan", "ios": "https://dc.lft.to/lastmile_qr_scan"}, "fusion_lon": 0.0, "lat": 38.93453933333333, "bike_id": "9759adadc9fd50681859c62b69815a9e", "type": "electric_scooter", "is_reserved": 0, "lon": -77.038639}, {"fusion_lat": 0.0, "name": "8f16fde9f3327e464404f6b7c5d01251", "is_disabled": 0, "rental_uris": {"android": "https://dc.lft.to/lastmile_qr_scan", "ios": "https://dc.lft.to/lastmile_qr_scan"}, "fusion_lon": 0.0, "lat": 38.928164333333335, "bike_id": "8f16fde9f3327e464404f6b7c5d01251", "type": "electric_scooter", "is_reserved": 0, "lon": -77.02331183333334}, {"fusion_lat": 0.0, "name": "1357e22dbdc182a5a503ead3aefe173e", "is_disabled": 0, "rental_uris": {"android": "https://dc.lft.to/lastmile_qr_scan", "ios": "https://dc.lft.to/lastmile_qr_scan"}, "fusion_lon": 0.0, "lat": 38.892883166666664, "bike_id": "1357e22dbdc182a5a503ead3aefe173e", "type": "electric_scooter", "is_reserved": 0, "lon": -77.03209416666667}, {"fusion_lat": 0.0, "name": "ab82843ec3105eb3e3900ba8a10c3211", "is_disabled": 0, "rental_uris": {"android": "https://dc.lft.to/lastmile_qr_scan", "ios": "https://dc.lft.to/lastmile_qr_scan"}, "fusion_lon": 0.0, "lat": 38.89540133333333, "bike_id": "ab82843ec3105eb3e3900ba8a10c3211", "type": "electric_scooter", "is_reserved": 0, "lon": -77.02664683333333}, {"fusion_lat": 0.0, "name": "5e03127bc83c99ccbae6d6a2d3df43c4", "is_disabled": 0, "rental_uris": {"android": "https://dc.lft.to/lastmile_qr_scan", "ios": "https://dc.lft.to/lastmile_qr_scan"}, "fusion_lon": 0.0, "lat": 38.91663883333333, "bike_id": "5e03127bc83c99ccbae6d6a2d3df43c4", "type": "electric_scooter", "is_reserved": 0, "lon": -77.03854533333333}, {"fusion_lat": 0.0, "name": "ceda22792915ad90a05cfa4a3ad9bcb4", "is_disabled": 0, "rental_uris": {"android": "https://dc.lft.to/lastmile_qr_scan", "ios": "https://dc.lft.to/lastmile_qr_scan"}, "fusion_lon": 0.0, "lat": 38.907280166666666, "bike_id": "ceda22792915ad90a05cfa4a3ad9bcb4", "type": "electric_scooter", "is_reserved": 0, "lon": -77.00057466666667}, {"fusion_lat": 0.0, "name": "88065a0e909012b5e0e86c8e5621d271", "is_disabled": 0, "rental_uris": {"android": "https://dc.lft.to/lastmile_qr_scan", "ios": "https://dc.lft.to/lastmile_qr_scan"}, "fusion_lon": 0.0, "lat": 38.8920085, "bike_id": "88065a0e909012b5e0e86c8e5621d271", "type": "electric_scooter", "is_reserved": 0, "lon": -77.04335233333333}, {"fusion_lat": 0.0, "name": "aeb21c5f633b80a5c775fda3b6b81c52", "is_disabled": 0, "rental_uris": {"android": "https://dc.lft.to/lastmile_qr_scan", "ios": "https://dc.lft.to/lastmile_qr_scan"}, "fusion_lon": 0.0, "lat": 38.90569433333334, "bike_id": "aeb21c5f633b80a5c775fda3b6b81c52", "type": "electric_scooter", "is_reserved": 0, "lon": -77.032728}, {"fusion_lat": 0.0, "name": "c638f27a6e9d7783fcf6b5592e58f08b", "is_disabled": 0, "rental_uris": {"android": "https://dc.lft.to/lastmile_qr_scan", "ios": "https://dc.lft.to/lastmile_qr_scan"}, "fusion_lon": 0.0, "lat": 38.90589083333333, "bike_id": "c638f27a6e9d7783fcf6b5592e58f08b", "type": "electric_scooter", "is_reserved": 0, "lon": -77.00714983333333}, {"fusion_lat": 0.0, "name": "75be649317f7136f92bd20c337ca9b92", "is_disabled": 0, "rental_uris": {"android": "https://dc.lft.to/lastmile_qr_scan", "ios": "https://dc.lft.to/lastmile_qr_scan"}, "fusion_lon": 0.0, "lat": 38.925446666666666, "bike_id": "75be649317f7136f92bd20c337ca9b92", "type": "electric_scooter", "is_reserved": 0, "lon": -77.03486083333334}, {"fusion_lat": 0.0, "name": "a456e45c0fbe1dcb35b493eb1be6837f", "is_disabled": 0, "rental_uris": {"android": "https://dc.lft.to/lastmile_qr_scan", "ios": "https://dc.lft.to/lastmile_qr_scan"}, "fusion_lon": 0.0, "lat": 38.91205266666667, "bike_id": "a456e45c0fbe1dcb35b493eb1be6837f", "type": "electric_scooter", "is_reserved": 0, "lon": -77.0319985}, {"fusion_lat": 0.0, "name": "646819318316060354725455f607da90", "is_disabled": 0, "rental_uris": {"android": "https://dc.lft.to/lastmile_qr_scan", "ios": "https://dc.lft.to/lastmile_qr_scan"}, "fusion_lon": 0.0, "lat": 38.9320465, "bike_id": "646819318316060354725455f607da90", "type": "electric_scooter", "is_reserved": 0, "lon": -77.03666933333334}, {"fusion_lat": 0.0, "name": "356a131b20737a4d2a3c1ff3b91d0ec0", "is_disabled": 0, "rental_uris": {"android": "https://dc.lft.to/lastmile_qr_scan", "ios": "https://dc.lft.to/lastmile_qr_scan"}, "fusion_lon": 0.0, "lat": 38.9133495, "bike_id": "356a131b20737a4d2a3c1ff3b91d0ec0", "type": "electric_scooter", "is_reserved": 0, "lon": -77.0197865}, {"fusion_lat": 0.0, "name": "75a96b376ed489fafe3d5f3840607a5b", "is_disabled": 0, "rental_uris": {"android": "https://dc.lft.to/lastmile_qr_scan", "ios": "https://dc.lft.to/lastmile_qr_scan"}, "fusion_lon": 0.0, "lat": 38.9171325, "bike_id": "75a96b376ed489fafe3d5f3840607a5b", "type": "electric_scooter", "is_reserved": 0, "lon": -77.04205733333333}, {"fusion_lat": 0.0, "name": "e9c3313be342498e30dacae8de64414b", "is_disabled": 0, "rental_uris": {"android": "https://dc.lft.to/lastmile_qr_scan", "ios": "https://dc.lft.to/lastmile_qr_scan"}, "fusion_lon": 0.0, "lat": 38.8931565, "bike_id": "e9c3313be342498e30dacae8de64414b", "type": "electric_scooter", "is_reserved": 0, "lon": -77.048765}, {"fusion_lat": 0.0, "name": "ec0977302cf7e092dc6f97fe378511d8", "is_disabled": 0, "rental_uris": {"android": "https://dc.lft.to/lastmile_qr_scan", "ios": "https://dc.lft.to/lastmile_qr_scan"}, "fusion_lon": 0.0, "lat": 38.88709083333333, "bike_id": "ec0977302cf7e092dc6f97fe378511d8", "type": "electric_scooter", "is_reserved": 0, "lon": -76.99674083333333}, {"fusion_lat": 0.0, "name": "3d3b5cf8a11441e04f44916776ebcc9f", "is_disabled": 0, "rental_uris": {"android": "https://dc.lft.to/lastmile_qr_scan", "ios": "https://dc.lft.to/lastmile_qr_scan"}, "fusion_lon": 0.0, "lat": 38.89548933333333, "bike_id": "3d3b5cf8a11441e04f44916776ebcc9f", "type": "electric_scooter", "is_reserved": 0, "lon": -76.98337283333333}, {"fusion_lat": 0.0, "name": "0f93da74d32a913152659057c4521f06", "is_disabled": 0, "rental_uris": {"android": "https://dc.lft.to/lastmile_qr_scan", "ios": "https://dc.lft.to/lastmile_qr_scan"}, "fusion_lon": 0.0, "lat": 38.9344815, "bike_id": "0f93da74d32a913152659057c4521f06", "type": "electric_scooter", "is_reserved": 0, "lon": -77.03870766666667}, {"fusion_lat": 0.0, "name": "a2144594e2b5574b7528632c2d294931", "is_disabled": 0, "rental_uris": {"android": "https://dc.lft.to/lastmile_qr_scan", "ios": "https://dc.lft.to/lastmile_qr_scan"}, "fusion_lon": 0.0, "lat": 38.94276983333334, "bike_id": "a2144594e2b5574b7528632c2d294931", "type": "electric_scooter", "is_reserved": 0, "lon": -77.03248383333333}, {"fusion_lat": 0.0, "name": "3220653d66fe0585ca629e96d80a0bfc", "is_disabled": 0, "rental_uris": {"android": "https://dc.lft.to/lastmile_qr_scan", "ios": "https://dc.lft.to/lastmile_qr_scan"}, "fusion_lon": 0.0, "lat": 38.90479766666667, "bike_id": "3220653d66fe0585ca629e96d80a0bfc", "type": "electric_scooter", "is_reserved": 0, "lon": -76.95198116666667}, {"fusion_lat": 0.0, "name": "db57462601d3cb1eb06c4a417992383a", "is_disabled": 0, "rental_uris": {"android": "https://dc.lft.to/lastmile_qr_scan", "ios": "https://dc.lft.to/lastmile_qr_scan"}, "fusion_lon": 0.0, "lat": 38.90271333333333, "bike_id": "db57462601d3cb1eb06c4a417992383a", "type": "electric_scooter", "is_reserved": 0, "lon": -77.0362835}, {"fusion_lat": 0.0, "name": "901bc80a44615d9bb9c980efce5e4d5c", "is_disabled": 0, "rental_uris": {"android": "https://dc.lft.to/lastmile_qr_scan", "ios": "https://dc.lft.to/lastmile_qr_scan"}, "fusion_lon": 0.0, "lat": 38.934925666666665, "bike_id": "901bc80a44615d9bb9c980efce5e4d5c", "type": "electric_scooter", "is_reserved": 0, "lon": -77.07278183333334}, {"fusion_lat": 0.0, "name": "f5882fcebfdd1aff73c8ffa5949b3dd8", "is_disabled": 0, "rental_uris": {"android": "https://dc.lft.to/lastmile_qr_scan", "ios": "https://dc.lft.to/lastmile_qr_scan"}, "fusion_lon": 0.0, "lat": 38.905964166666664, "bike_id": "f5882fcebfdd1aff73c8ffa5949b3dd8", "type": "electric_scooter", "is_reserved": 0, "lon": -77.0161025}, {"fusion_lat": 0.0, "name": "d9f6fcf6a115493a00c0e8fc1b4ef48a", "is_disabled": 0, "rental_uris": {"android": "https://dc.lft.to/lastmile_qr_scan", "ios": "https://dc.lft.to/lastmile_qr_scan"}, "fusion_lon": 0.0, "lat": 38.92353466666667, "bike_id": "d9f6fcf6a115493a00c0e8fc1b4ef48a", "type": "electric_scooter", "is_reserved": 0, "lon": -77.039084}, {"fusion_lat": 0.0, "name": "d0f31e484fbcfab6d98e22967f31aac3", "is_disabled": 0, "rental_uris": {"android": "https://dc.lft.to/lastmile_qr_scan", "ios": "https://dc.lft.to/lastmile_qr_scan"}, "fusion_lon": 0.0, "lat": 38.90511466666667, "bike_id": "d0f31e484fbcfab6d98e22967f31aac3", "type": "electric_scooter", "is_reserved": 0, "lon": -77.0633825}, {"fusion_lat": 0.0, "name": "00a2dbee6d58f4d6962ffd9d4ece1c17", "is_disabled": 0, "rental_uris": {"android": "https://dc.lft.to/lastmile_qr_scan", "ios": "https://dc.lft.to/lastmile_qr_scan"}, "fusion_lon": 0.0, "lat": 38.902318666666666, "bike_id": "00a2dbee6d58f4d6962ffd9d4ece1c17", "type": "electric_scooter", "is_reserved": 0, "lon": -77.054674}, {"fusion_lat": 0.0, "name": "d2af2b7e401cc5b0f064ac1de8c33668", "is_disabled": 0, "rental_uris": {"android": "https://dc.lft.to/lastmile_qr_scan", "ios": "https://dc.lft.to/lastmile_qr_scan"}, "fusion_lon": 0.0, "lat": 38.897385, "bike_id": "d2af2b7e401cc5b0f064ac1de8c33668", "type": "electric_scooter", "is_reserved": 0, "lon": -77.00360266666667}, {"fusion_lat": 0.0, "name": "cccaa4d96e5ec47a56f3d0b91a964377", "is_disabled": 0, "rental_uris": {"android": "https://dc.lft.to/lastmile_qr_scan", "ios": "https://dc.lft.to/lastmile_qr_scan"}, "fusion_lon": 0.0, "lat": 38.905215166666665, "bike_id": "cccaa4d96e5ec47a56f3d0b91a964377", "type": "electric_scooter", "is_reserved": 0, "lon": -77.061539}, {"fusion_lat": 0.0, "name": "74ee8463345ef122aef3c2e1dd8c0494", "is_disabled": 0, "rental_uris": {"android": "https://dc.lft.to/lastmile_qr_scan", "ios": "https://dc.lft.to/lastmile_qr_scan"}, "fusion_lon": 0.0, "lat": 38.90367216666667, "bike_id": "74ee8463345ef122aef3c2e1dd8c0494", "type": "electric_scooter", "is_reserved": 0, "lon": -77.0173815}, {"fusion_lat": 0.0, "name": "7582a07f61e82938335d2de492700517", "is_disabled": 0, "rental_uris": {"android": "https://dc.lft.to/lastmile_qr_scan", "ios": "https://dc.lft.to/lastmile_qr_scan"}, "fusion_lon": 0.0, "lat": 38.898318, "bike_id": "7582a07f61e82938335d2de492700517", "type": "electric_scooter", "is_reserved": 0, "lon": -77.02708783333334}, {"fusion_lat": 0.0, "name": "f7deec2fe6568039df1dd084e52745eb", "is_disabled": 0, "rental_uris": {"android": "https://dc.lft.to/lastmile_qr_scan", "ios": "https://dc.lft.to/lastmile_qr_scan"}, "fusion_lon": 0.0, "lat": 38.905788, "bike_id": "f7deec2fe6568039df1dd084e52745eb", "type": "electric_scooter", "is_reserved": 0, "lon": -77.0081275}, {"fusion_lat": 0.0, "name": "3978257c853e8d48f1e76695376c2eef", "is_disabled": 0, "rental_uris": {"android": "https://dc.lft.to/lastmile_qr_scan", "ios": "https://dc.lft.to/lastmile_qr_scan"}, "fusion_lon": 0.0, "lat": 38.92853783333333, "bike_id": "3978257c853e8d48f1e76695376c2eef", "type": "electric_scooter", "is_reserved": 0, "lon": -77.0543195}, {"fusion_lat": 0.0, "name": "35447876e5c26620bbfa773a7604734e", "is_disabled": 0, "rental_uris": {"android": "https://dc.lft.to/lastmile_qr_scan", "ios": "https://dc.lft.to/lastmile_qr_scan"}, "fusion_lon": 0.0, "lat": 38.927492, "bike_id": "35447876e5c26620bbfa773a7604734e", "type": "electric_scooter", "is_reserved": 0, "lon": -77.03237816666666}, {"fusion_lat": 0.0, "name": "61449aca8e28946573e2184634ef878c", "is_disabled": 0, "rental_uris": {"android": "https://dc.lft.to/lastmile_qr_scan", "ios": "https://dc.lft.to/lastmile_qr_scan"}, "fusion_lon": 0.0, "lat": 38.923672833333335, "bike_id": "61449aca8e28946573e2184634ef878c", "type": "electric_scooter", "is_reserved": 0, "lon": -77.05025583333334}, {"fusion_lat": 0.0, "name": "6f43f2792f6efb8eb5290a03aa594b01", "is_disabled": 0, "rental_uris": {"android": "https://dc.lft.to/lastmile_qr_scan", "ios": "https://dc.lft.to/lastmile_qr_scan"}, "fusion_lon": 0.0, "lat": 38.9168035, "bike_id": "6f43f2792f6efb8eb5290a03aa594b01", "type": "electric_scooter", "is_reserved": 0, "lon": -77.03206233333333}, {"fusion_lat": 0.0, "name": "c7a3d8add91ae3e06178fa44f302d85a", "is_disabled": 0, "rental_uris": {"android": "https://dc.lft.to/lastmile_qr_scan", "ios": "https://dc.lft.to/lastmile_qr_scan"}, "fusion_lon": 0.0, "lat": 38.9076545, "bike_id": "c7a3d8add91ae3e06178fa44f302d85a", "type": "electric_scooter", "is_reserved": 0, "lon": -77.03565433333333}, {"fusion_lat": 0.0, "name": "2d85303d4ffa572f044e2178d8022b6a", "is_disabled": 0, "rental_uris": {"android": "https://dc.lft.to/lastmile_qr_scan", "ios": "https://dc.lft.to/lastmile_qr_scan"}, "fusion_lon": 0.0, "lat": 38.89227983333333, "bike_id": "2d85303d4ffa572f044e2178d8022b6a", "type": "electric_scooter", "is_reserved": 0, "lon": -77.04320166666666}, {"fusion_lat": 0.0, "name": "c70d9ddb76c10ee1bb7b841ad761cb65", "is_disabled": 0, "rental_uris": {"android": "https://dc.lft.to/lastmile_qr_scan", "ios": "https://dc.lft.to/lastmile_qr_scan"}, "fusion_lon": 0.0, "lat": 38.892255166666665, "bike_id": "c70d9ddb76c10ee1bb7b841ad761cb65", "type": "electric_scooter", "is_reserved": 0, "lon": -77.04862866666667}, {"fusion_lat": 0.0, "name": "51b4201aaef68f03714460acce5ff368", "is_disabled": 0, "rental_uris": {"android": "https://dc.lft.to/lastmile_qr_scan", "ios": "https://dc.lft.to/lastmile_qr_scan"}, "fusion_lon": 0.0, "lat": 38.99502733333333, "bike_id": "51b4201aaef68f03714460acce5ff368", "type": "electric_bike", "is_reserved": 0, "lon": -77.02908183333334}, {"fusion_lat": 0.0, "name": "a835cfca4ffac82aa06d34719207048d", "is_disabled": 0, "rental_uris": {"android": "https://dc.lft.to/lastmile_qr_scan", "ios": "https://dc.lft.to/lastmile_qr_scan"}, "fusion_lon": 0.0, "lat": 38.906616, "bike_id": "a835cfca4ffac82aa06d34719207048d", "type": "electric_scooter", "is_reserved": 0, "lon": -77.04320466666667}, {"fusion_lat": 0.0, "name": "fabd611569d1a08b3732413b54b6b446", "is_disabled": 0, "rental_uris": {"android": "https://dc.lft.to/lastmile_qr_scan", "ios": "https://dc.lft.to/lastmile_qr_scan"}, "fusion_lon": 0.0, "lat": 38.9142275, "bike_id": "fabd611569d1a08b3732413b54b6b446", "type": "electric_scooter", "is_reserved": 0, "lon": -77.04024083333333}, {"fusion_lat": 0.0, "name": "78be30e5eb4a5089ff3a1510162a242d", "is_disabled": 0, "rental_uris": {"android": "https://dc.lft.to/lastmile_qr_scan", "ios": "https://dc.lft.to/lastmile_qr_scan"}, "fusion_lon": 0.0, "lat": 38.89223633333334, "bike_id": "78be30e5eb4a5089ff3a1510162a242d", "type": "electric_scooter", "is_reserved": 0, "lon": -77.02506333333334}, {"fusion_lat": 0.0, "name": "f679d37e89483e42badb24ae40e0fb8d", "is_disabled": 0, "rental_uris": {"android": "https://dc.lft.to/lastmile_qr_scan", "ios": "https://dc.lft.to/lastmile_qr_scan"}, "fusion_lon": 0.0, "lat": 38.915530333333336, "bike_id": "f679d37e89483e42badb24ae40e0fb8d", "type": "electric_scooter", "is_reserved": 0, "lon": -77.01995133333334}, {"fusion_lat": 0.0, "name": "492380e28afc408b53ecfac653501484", "is_disabled": 0, "rental_uris": {"android": "https://dc.lft.to/lastmile_qr_scan", "ios": "https://dc.lft.to/lastmile_qr_scan"}, "fusion_lon": 0.0, "lat": 38.930188333333334, "bike_id": "492380e28afc408b53ecfac653501484", "type": "electric_scooter", "is_reserved": 0, "lon": -77.03249516666666}, {"fusion_lat": 0.0, "name": "da3c4a4e5f1f643b3f970261c555ebd9", "is_disabled": 0, "rental_uris": {"android": "https://dc.lft.to/lastmile_qr_scan", "ios": "https://dc.lft.to/lastmile_qr_scan"}, "fusion_lon": 0.0, "lat": 38.90564666666667, "bike_id": "da3c4a4e5f1f643b3f970261c555ebd9", "type": "electric_scooter", "is_reserved": 0, "lon": -77.04657883333333}, {"fusion_lat": 0.0, "name": "c18c249fe92cc77041439792b92a728e", "is_disabled": 0, "rental_uris": {"android": "https://dc.lft.to/lastmile_qr_scan", "ios": "https://dc.lft.to/lastmile_qr_scan"}, "fusion_lon": 0.0, "lat": 38.92020766666667, "bike_id": "c18c249fe92cc77041439792b92a728e", "type": "electric_scooter", "is_reserved": 0, "lon": -77.0271215}, {"fusion_lat": 0.0, "name": "768530215245511b5dc50d1ab9c5ec70", "is_disabled": 0, "rental_uris": {"android": "https://dc.lft.to/lastmile_qr_scan", "ios": "https://dc.lft.to/lastmile_qr_scan"}, "fusion_lon": 0.0, "lat": 38.90141466666667, "bike_id": "768530215245511b5dc50d1ab9c5ec70", "type": "electric_scooter", "is_reserved": 0, "lon": -77.0258205}, {"fusion_lat": 0.0, "name": "6ab3b195b2a35302c1985c00beeef82e", "is_disabled": 0, "rental_uris": {"android": "https://dc.lft.to/lastmile_qr_scan", "ios": "https://dc.lft.to/lastmile_qr_scan"}, "fusion_lon": 0.0, "lat": 38.911646166666664, "bike_id": "6ab3b195b2a35302c1985c00beeef82e", "type": "electric_scooter", "is_reserved": 0, "lon": -77.04350233333334}, {"fusion_lat": 0.0, "name": "6818cce55a503efeeb15bfdd3ba4c641", "is_disabled": 0, "rental_uris": {"android": "https://dc.lft.to/lastmile_qr_scan", "ios": "https://dc.lft.to/lastmile_qr_scan"}, "fusion_lon": 0.0, "lat": 38.93406733333333, "bike_id": "6818cce55a503efeeb15bfdd3ba4c641", "type": "electric_scooter", "is_reserved": 0, "lon": -77.0220235}, {"fusion_lat": 0.0, "name": "9c580fa93e840b1ec35058f86b08155f", "is_disabled": 0, "rental_uris": {"android": "https://dc.lft.to/lastmile_qr_scan", "ios": "https://dc.lft.to/lastmile_qr_scan"}, "fusion_lon": 0.0, "lat": 38.931882, "bike_id": "9c580fa93e840b1ec35058f86b08155f", "type": "electric_scooter", "is_reserved": 0, "lon": -77.03305466666667}, {"fusion_lat": 0.0, "name": "32102505e0b3ec106f6e9bd9118efe69", "is_disabled": 0, "rental_uris": {"android": "https://dc.lft.to/lastmile_qr_scan", "ios": "https://dc.lft.to/lastmile_qr_scan"}, "fusion_lon": 0.0, "lat": 38.930634833333336, "bike_id": "32102505e0b3ec106f6e9bd9118efe69", "type": "electric_scooter", "is_reserved": 0, "lon": -77.03940033333333}, {"fusion_lat": 0.0, "name": "fd9cd02155308588f86cd76bf7e48157", "is_disabled": 0, "rental_uris": {"android": "https://dc.lft.to/lastmile_qr_scan", "ios": "https://dc.lft.to/lastmile_qr_scan"}, "fusion_lon": 0.0, "lat": 38.893607, "bike_id": "fd9cd02155308588f86cd76bf7e48157", "type": "electric_scooter", "is_reserved": 0, "lon": -76.98656783333334}, {"fusion_lat": 0.0, "name": "7e2496896ce28d006b4946ccf4d0d47d", "is_disabled": 0, "rental_uris": {"android": "https://dc.lft.to/lastmile_qr_scan", "ios": "https://dc.lft.to/lastmile_qr_scan"}, "fusion_lon": 0.0, "lat": 38.908977666666665, "bike_id": "7e2496896ce28d006b4946ccf4d0d47d", "type": "electric_scooter", "is_reserved": 0, "lon": -77.04386583333333}, {"fusion_lat": 0.0, "name": "c4b5d21c93fc40465d1158976665cadd", "is_disabled": 0, "rental_uris": {"android": "https://dc.lft.to/lastmile_qr_scan", "ios": "https://dc.lft.to/lastmile_qr_scan"}, "fusion_lon": 0.0, "lat": 38.900353833333334, "bike_id": "c4b5d21c93fc40465d1158976665cadd", "type": "electric_scooter", "is_reserved": 0, "lon": -76.996032}, {"fusion_lat": 0.0, "name": "d7b2249404af6313c0043bd5f64bf067", "is_disabled": 0, "rental_uris": {"android": "https://dc.lft.to/lastmile_qr_scan", "ios": "https://dc.lft.to/lastmile_qr_scan"}, "fusion_lon": 0.0, "lat": 38.90489433333333, "bike_id": "d7b2249404af6313c0043bd5f64bf067", "type": "electric_scooter", "is_reserved": 0, "lon": -76.94947883333333}, {"fusion_lat": 0.0, "name": "392f4c25f2bd69f8b5f4093422a0072b", "is_disabled": 0, "rental_uris": {"android": "https://dc.lft.to/lastmile_qr_scan", "ios": "https://dc.lft.to/lastmile_qr_scan"}, "fusion_lon": 0.0, "lat": 38.89899283333333, "bike_id": "392f4c25f2bd69f8b5f4093422a0072b", "type": "electric_scooter", "is_reserved": 0, "lon": -77.00146366666667}, {"fusion_lat": 0.0, "name": "6890bc8503712776a9fbc7c3cc5d01c5", "is_disabled": 0, "rental_uris": {"android": "https://dc.lft.to/lastmile_qr_scan", "ios": "https://dc.lft.to/lastmile_qr_scan"}, "fusion_lon": 0.0, "lat": 38.92842316666667, "bike_id": "6890bc8503712776a9fbc7c3cc5d01c5", "type": "electric_scooter", "is_reserved": 0, "lon": -77.01585316666667}, {"fusion_lat": 0.0, "name": "171c4688ab1b412e7930c529750a20a8", "is_disabled": 0, "rental_uris": {"android": "https://dc.lft.to/lastmile_qr_scan", "ios": "https://dc.lft.to/lastmile_qr_scan"}, "fusion_lon": 0.0, "lat": 38.899120333333336, "bike_id": "171c4688ab1b412e7930c529750a20a8", "type": "electric_scooter", "is_reserved": 0, "lon": -76.9458765}, {"fusion_lat": 0.0, "name": "e2968bc658971062478cc65933934017", "is_disabled": 0, "rental_uris": {"android": "https://dc.lft.to/lastmile_qr_scan", "ios": "https://dc.lft.to/lastmile_qr_scan"}, "fusion_lon": 0.0, "lat": 38.917140333333336, "bike_id": "e2968bc658971062478cc65933934017", "type": "electric_scooter", "is_reserved": 0, "lon": -77.03230333333333}, {"fusion_lat": 0.0, "name": "7049c94c79f4ace01edfc0db5e17b7a8", "is_disabled": 0, "rental_uris": {"android": "https://dc.lft.to/lastmile_qr_scan", "ios": "https://dc.lft.to/lastmile_qr_scan"}, "fusion_lon": 0.0, "lat": 38.908675333333335, "bike_id": "7049c94c79f4ace01edfc0db5e17b7a8", "type": "electric_scooter", "is_reserved": 0, "lon": -77.03309416666667}, {"fusion_lat": 0.0, "name": "1d0f4178c6d028e9b690b1da242a0fbe", "is_disabled": 0, "rental_uris": {"android": "https://dc.lft.to/lastmile_qr_scan", "ios": "https://dc.lft.to/lastmile_qr_scan"}, "fusion_lon": 0.0, "lat": 38.907967, "bike_id": "1d0f4178c6d028e9b690b1da242a0fbe", "type": "electric_scooter", "is_reserved": 0, "lon": -77.04232283333333}, {"fusion_lat": 0.0, "name": "2b58e3b59dcc789fb4eb2e8b958665a2", "is_disabled": 0, "rental_uris": {"android": "https://dc.lft.to/lastmile_qr_scan", "ios": "https://dc.lft.to/lastmile_qr_scan"}, "fusion_lon": 0.0, "lat": 38.9055135, "bike_id": "2b58e3b59dcc789fb4eb2e8b958665a2", "type": "electric_scooter", "is_reserved": 0, "lon": -77.00558433333333}, {"fusion_lat": 0.0, "name": "33aef860c6af319391dcef3ca640df26", "is_disabled": 0, "rental_uris": {"android": "https://dc.lft.to/lastmile_qr_scan", "ios": "https://dc.lft.to/lastmile_qr_scan"}, "fusion_lon": 0.0, "lat": 38.8758175, "bike_id": "33aef860c6af319391dcef3ca640df26", "type": "electric_bike", "is_reserved": 0, "lon": -77.23409933333333}, {"fusion_lat": 0.0, "name": "42f8f117ca24f1ae56e622e5fb51b73e", "is_disabled": 0, "rental_uris": {"android": "https://dc.lft.to/lastmile_qr_scan", "ios": "https://dc.lft.to/lastmile_qr_scan"}, "fusion_lon": 0.0, "lat": 38.89506766666667, "bike_id": "42f8f117ca24f1ae56e622e5fb51b73e", "type": "electric_scooter", "is_reserved": 0, "lon": -77.003322}, {"fusion_lat": 0.0, "name": "c0ddf60c6d88088290c113d88f3acb2b", "is_disabled": 0, "rental_uris": {"android": "https://dc.lft.to/lastmile_qr_scan", "ios": "https://dc.lft.to/lastmile_qr_scan"}, "fusion_lon": 0.0, "lat": 38.92110616666667, "bike_id": "c0ddf60c6d88088290c113d88f3acb2b", "type": "electric_scooter", "is_reserved": 0, "lon": -77.02501816666667}, {"fusion_lat": 0.0, "name": "d9bb001fb96926d0fdac35cbe5efd4d4", "is_disabled": 0, "rental_uris": {"android": "https://dc.lft.to/lastmile_qr_scan", "ios": "https://dc.lft.to/lastmile_qr_scan"}, "fusion_lon": 0.0, "lat": 38.914979333333335, "bike_id": "d9bb001fb96926d0fdac35cbe5efd4d4", "type": "electric_scooter", "is_reserved": 0, "lon": -77.02003766666667}, {"fusion_lat": 0.0, "name": "7ea773c5e748561f9c1335ebdafabd21", "is_disabled": 0, "rental_uris": {"android": "https://dc.lft.to/lastmile_qr_scan", "ios": "https://dc.lft.to/lastmile_qr_scan"}, "fusion_lon": 0.0, "lat": 38.88532383333333, "bike_id": "7ea773c5e748561f9c1335ebdafabd21", "type": "electric_scooter", "is_reserved": 0, "lon": -76.9290255}, {"fusion_lat": 0.0, "name": "6351666202406ee859c27bf510993a0f", "is_disabled": 0, "rental_uris": {"android": "https://dc.lft.to/lastmile_qr_scan", "ios": "https://dc.lft.to/lastmile_qr_scan"}, "fusion_lon": 0.0, "lat": 38.907970166666665, "bike_id": "6351666202406ee859c27bf510993a0f", "type": "electric_scooter", "is_reserved": 0, "lon": -77.002026}, {"fusion_lat": 0.0, "name": "afc502f56a41222e1f8001ee256427bc", "is_disabled": 0, "rental_uris": {"android": "https://dc.lft.to/lastmile_qr_scan", "ios": "https://dc.lft.to/lastmile_qr_scan"}, "fusion_lon": 0.0, "lat": 38.899005833333334, "bike_id": "afc502f56a41222e1f8001ee256427bc", "type": "electric_scooter", "is_reserved": 0, "lon": -76.93353283333333}, {"fusion_lat": 0.0, "name": "9bdd04843408cf869a066adfb9c06093", "is_disabled": 0, "rental_uris": {"android": "https://dc.lft.to/lastmile_qr_scan", "ios": "https://dc.lft.to/lastmile_qr_scan"}, "fusion_lon": 0.0, "lat": 38.93544116666666, "bike_id": "9bdd04843408cf869a066adfb9c06093", "type": "electric_scooter", "is_reserved": 0, "lon": -77.05749566666667}, {"fusion_lat": 0.0, "name": "c204a38af6cec742f7901fe0d22d35b3", "is_disabled": 0, "rental_uris": {"android": "https://dc.lft.to/lastmile_qr_scan", "ios": "https://dc.lft.to/lastmile_qr_scan"}, "fusion_lon": 0.0, "lat": 38.904812166666666, "bike_id": "c204a38af6cec742f7901fe0d22d35b3", "type": "electric_scooter", "is_reserved": 0, "lon": -77.02800216666667}, {"fusion_lat": 0.0, "name": "1b9c1ab53866b5e498120b5a5302e67c", "is_disabled": 0, "rental_uris": {"android": "https://dc.lft.to/lastmile_qr_scan", "ios": "https://dc.lft.to/lastmile_qr_scan"}, "fusion_lon": 0.0, "lat": 38.819177833333335, "bike_id": "1b9c1ab53866b5e498120b5a5302e67c", "type": "electric_bike", "is_reserved": 0, "lon": -77.04798883333333}, {"fusion_lat": 0.0, "name": "7746739c68409cf428279d6c41757aff", "is_disabled": 0, "rental_uris": {"android": "https://dc.lft.to/lastmile_qr_scan", "ios": "https://dc.lft.to/lastmile_qr_scan"}, "fusion_lon": 0.0, "lat": 38.9056955, "bike_id": "7746739c68409cf428279d6c41757aff", "type": "electric_scooter", "is_reserved": 0, "lon": -77.02096616666667}, {"fusion_lat": 0.0, "name": "7015a521957a27363b7fb3f8ef761962", "is_disabled": 0, "rental_uris": {"android": "https://dc.lft.to/lastmile_qr_scan", "ios": "https://dc.lft.to/lastmile_qr_scan"}, "fusion_lon": 0.0, "lat": 38.81263366666667, "bike_id": "7015a521957a27363b7fb3f8ef761962", "type": "electric_bike", "is_reserved": 0, "lon": -77.1176725}, {"fusion_lat": 0.0, "name": "1a42abd0d40ae62d9b772a41f0fd2657", "is_disabled": 0, "rental_uris": {"android": "https://dc.lft.to/lastmile_qr_scan", "ios": "https://dc.lft.to/lastmile_qr_scan"}, "fusion_lon": 0.0, "lat": 38.88308983333334, "bike_id": "1a42abd0d40ae62d9b772a41f0fd2657", "type": "electric_scooter", "is_reserved": 0, "lon": -76.948566}, {"fusion_lat": 0.0, "name": "174f35c990704bc7cbdaa2bd65b5e541", "is_disabled": 0, "rental_uris": {"android": "https://dc.lft.to/lastmile_qr_scan", "ios": "https://dc.lft.to/lastmile_qr_scan"}, "fusion_lon": 0.0, "lat": 38.92716016666667, "bike_id": "174f35c990704bc7cbdaa2bd65b5e541", "type": "electric_scooter", "is_reserved": 0, "lon": -77.030639}, {"fusion_lat": 0.0, "name": "1fdc6bfee2a8336545302a50653255d1", "is_disabled": 0, "rental_uris": {"android": "https://dc.lft.to/lastmile_qr_scan", "ios": "https://dc.lft.to/lastmile_qr_scan"}, "fusion_lon": 0.0, "lat": 38.8071615, "bike_id": "1fdc6bfee2a8336545302a50653255d1", "type": "electric_bike", "is_reserved": 0, "lon": -77.06168083333333}, {"fusion_lat": 0.0, "name": "6dc0bb83a156735ae884aa60d808df17", "is_disabled": 0, "rental_uris": {"android": "https://dc.lft.to/lastmile_qr_scan", "ios": "https://dc.lft.to/lastmile_qr_scan"}, "fusion_lon": 0.0, "lat": 38.89105416666666, "bike_id": "6dc0bb83a156735ae884aa60d808df17", "type": "electric_scooter", "is_reserved": 0, "lon": -76.996248}, {"fusion_lat": 0.0, "name": "7378abc6e4c2c15b670f17f0bb83dba9", "is_disabled": 0, "rental_uris": {"android": "https://dc.lft.to/lastmile_qr_scan", "ios": "https://dc.lft.to/lastmile_qr_scan"}, "fusion_lon": 0.0, "lat": 38.917099, "bike_id": "7378abc6e4c2c15b670f17f0bb83dba9", "type": "electric_scooter", "is_reserved": 0, "lon": -77.038676}, {"fusion_lat": 0.0, "name": "1058c0a36e37358c71ebb6466aac7be4", "is_disabled": 0, "rental_uris": {"android": "https://dc.lft.to/lastmile_qr_scan", "ios": "https://dc.lft.to/lastmile_qr_scan"}, "fusion_lon": 0.0, "lat": 38.90737466666667, "bike_id": "1058c0a36e37358c71ebb6466aac7be4", "type": "electric_scooter", "is_reserved": 0, "lon": -76.9354625}, {"fusion_lat": 0.0, "name": "c998081e829955a4182aa0158d26e25c", "is_disabled": 0, "rental_uris": {"android": "https://dc.lft.to/lastmile_qr_scan", "ios": "https://dc.lft.to/lastmile_qr_scan"}, "fusion_lon": 0.0, "lat": 38.8923245, "bike_id": "c998081e829955a4182aa0158d26e25c", "type": "electric_scooter", "is_reserved": 0, "lon": -77.05000766666667}, {"fusion_lat": 0.0, "name": "671e830a76471e1a50f60c3b31341283", "is_disabled": 0, "rental_uris": {"android": "https://dc.lft.to/lastmile_qr_scan", "ios": "https://dc.lft.to/lastmile_qr_scan"}, "fusion_lon": 0.0, "lat": 38.90406133333333, "bike_id": "671e830a76471e1a50f60c3b31341283", "type": "electric_scooter", "is_reserved": 0, "lon": -77.06809633333333}, {"fusion_lat": 0.0, "name": "efefcd79e53df655db805021a924522e", "is_disabled": 0, "rental_uris": {"android": "https://dc.lft.to/lastmile_qr_scan", "ios": "https://dc.lft.to/lastmile_qr_scan"}, "fusion_lon": 0.0, "lat": 38.92235, "bike_id": "efefcd79e53df655db805021a924522e", "type": "electric_scooter", "is_reserved": 0, "lon": -77.04244516666667}, {"fusion_lat": 0.0, "name": "f8104571c647820a4fde6c80ae0c9962", "is_disabled": 0, "rental_uris": {"android": "https://dc.lft.to/lastmile_qr_scan", "ios": "https://dc.lft.to/lastmile_qr_scan"}, "fusion_lon": 0.0, "lat": 38.92537266666667, "bike_id": "f8104571c647820a4fde6c80ae0c9962", "type": "electric_scooter", "is_reserved": 0, "lon": -77.00758533333334}, {"fusion_lat": 0.0, "name": "95b6c2e754c203b126f08ce18220960c", "is_disabled": 0, "rental_uris": {"android": "https://dc.lft.to/lastmile_qr_scan", "ios": "https://dc.lft.to/lastmile_qr_scan"}, "fusion_lon": 0.0, "lat": 38.9004695, "bike_id": "95b6c2e754c203b126f08ce18220960c", "type": "electric_scooter", "is_reserved": 0, "lon": -77.029852}, {"fusion_lat": 0.0, "name": "9b7850a393aa8879248b4762591c2d09", "is_disabled": 0, "rental_uris": {"android": "https://dc.lft.to/lastmile_qr_scan", "ios": "https://dc.lft.to/lastmile_qr_scan"}, "fusion_lon": 0.0, "lat": 38.912138666666664, "bike_id": "9b7850a393aa8879248b4762591c2d09", "type": "electric_scooter", "is_reserved": 0, "lon": -77.01979033333333}, {"fusion_lat": 0.0, "name": "3b8df561210f7f4788445b91844e722b", "is_disabled": 0, "rental_uris": {"android": "https://dc.lft.to/lastmile_qr_scan", "ios": "https://dc.lft.to/lastmile_qr_scan"}, "fusion_lon": 0.0, "lat": 38.959675833333336, "bike_id": "3b8df561210f7f4788445b91844e722b", "type": "electric_bike", "is_reserved": 0, "lon": -76.98159833333334}, {"fusion_lat": 0.0, "name": "f7c51ec454e782cbc49bda8154bb27f1", "is_disabled": 0, "rental_uris": {"android": "https://dc.lft.to/lastmile_qr_scan", "ios": "https://dc.lft.to/lastmile_qr_scan"}, "fusion_lon": 0.0, "lat": 38.90950683333333, "bike_id": "f7c51ec454e782cbc49bda8154bb27f1", "type": "electric_scooter", "is_reserved": 0, "lon": -77.0394165}, {"fusion_lat": 0.0, "name": "a1262eb99dec4493241c0fee3e41d4f7", "is_disabled": 0, "rental_uris": {"android": "https://dc.lft.to/lastmile_qr_scan", "ios": "https://dc.lft.to/lastmile_qr_scan"}, "fusion_lon": 0.0, "lat": 38.89618433333333, "bike_id": "a1262eb99dec4493241c0fee3e41d4f7", "type": "electric_scooter", "is_reserved": 0, "lon": -76.98567916666667}, {"fusion_lat": 0.0, "name": "71f2678a89a8c0e9da31b01bb8ebcd49", "is_disabled": 0, "rental_uris": {"android": "https://dc.lft.to/lastmile_qr_scan", "ios": "https://dc.lft.to/lastmile_qr_scan"}, "fusion_lon": 0.0, "lat": 38.91229166666667, "bike_id": "71f2678a89a8c0e9da31b01bb8ebcd49", "type": "electric_scooter", "is_reserved": 0, "lon": -77.047793}, {"fusion_lat": 0.0, "name": "66cee72c6b6e3fe0313695f4b53e98a9", "is_disabled": 0, "rental_uris": {"android": "https://dc.lft.to/lastmile_qr_scan", "ios": "https://dc.lft.to/lastmile_qr_scan"}, "fusion_lon": 0.0, "lat": 38.914739, "bike_id": "66cee72c6b6e3fe0313695f4b53e98a9", "type": "electric_scooter", "is_reserved": 0, "lon": -77.01553233333334}, {"fusion_lat": 0.0, "name": "8224fec989f18ac41641a1704c70d526", "is_disabled": 0, "rental_uris": {"android": "https://dc.lft.to/lastmile_qr_scan", "ios": "https://dc.lft.to/lastmile_qr_scan"}, "fusion_lon": 0.0, "lat": 38.90524716666667, "bike_id": "8224fec989f18ac41641a1704c70d526", "type": "electric_scooter", "is_reserved": 0, "lon": -77.01711616666667}, {"fusion_lat": 0.0, "name": "0ded7172bb5351a852266b5553317171", "is_disabled": 0, "rental_uris": {"android": "https://dc.lft.to/lastmile_qr_scan", "ios": "https://dc.lft.to/lastmile_qr_scan"}, "fusion_lon": 0.0, "lat": 38.909502333333336, "bike_id": "0ded7172bb5351a852266b5553317171", "type": "electric_scooter", "is_reserved": 0, "lon": -77.03279733333333}, {"fusion_lat": 0.0, "name": "822734a454dd7bff9d2e17ecf4c4bb42", "is_disabled": 0, "rental_uris": {"android": "https://dc.lft.to/lastmile_qr_scan", "ios": "https://dc.lft.to/lastmile_qr_scan"}, "fusion_lon": 0.0, "lat": 38.899153166666665, "bike_id": "822734a454dd7bff9d2e17ecf4c4bb42", "type": "electric_scooter", "is_reserved": 0, "lon": -77.0513565}, {"fusion_lat": 0.0, "name": "ea4dc6fbdb8867b062e26a3c5ae1bd95", "is_disabled": 0, "rental_uris": {"android": "https://dc.lft.to/lastmile_qr_scan", "ios": "https://dc.lft.to/lastmile_qr_scan"}, "fusion_lon": 0.0, "lat": 38.85613466666667, "bike_id": "ea4dc6fbdb8867b062e26a3c5ae1bd95", "type": "electric_bike", "is_reserved": 0, "lon": -77.10803}, {"fusion_lat": 0.0, "name": "81497de9dddebfb99c3086bbf0e5ec66", "is_disabled": 0, "rental_uris": {"android": "https://dc.lft.to/lastmile_qr_scan", "ios": "https://dc.lft.to/lastmile_qr_scan"}, "fusion_lon": 0.0, "lat": 38.92755583333334, "bike_id": "81497de9dddebfb99c3086bbf0e5ec66", "type": "electric_scooter", "is_reserved": 0, "lon": -77.024251}, {"fusion_lat": 0.0, "name": "b3b76c9c593ff761b5c26f11f267acac", "is_disabled": 0, "rental_uris": {"android": "https://dc.lft.to/lastmile_qr_scan", "ios": "https://dc.lft.to/lastmile_qr_scan"}, "fusion_lon": 0.0, "lat": 38.89844633333333, "bike_id": "b3b76c9c593ff761b5c26f11f267acac", "type": "electric_scooter", "is_reserved": 0, "lon": -77.03328883333333}, {"fusion_lat": 0.0, "name": "d9a5846fa8396780abdc15fa867d0b90", "is_disabled": 0, "rental_uris": {"android": "https://dc.lft.to/lastmile_qr_scan", "ios": "https://dc.lft.to/lastmile_qr_scan"}, "fusion_lon": 0.0, "lat": 38.906118, "bike_id": "d9a5846fa8396780abdc15fa867d0b90", "type": "electric_scooter", "is_reserved": 0, "lon": -77.06301266666667}, {"fusion_lat": 0.0, "name": "3279c42420c023884425200ea8c9dc6a", "is_disabled": 0, "rental_uris": {"android": "https://dc.lft.to/lastmile_qr_scan", "ios": "https://dc.lft.to/lastmile_qr_scan"}, "fusion_lon": 0.0, "lat": 38.88503216666667, "bike_id": "3279c42420c023884425200ea8c9dc6a", "type": "electric_scooter", "is_reserved": 0, "lon": -76.98060233333334}, {"fusion_lat": 0.0, "name": "91a342eb40d991cbb27390f9f4d9d4e4", "is_disabled": 0, "rental_uris": {"android": "https://dc.lft.to/lastmile_qr_scan", "ios": "https://dc.lft.to/lastmile_qr_scan"},