{"data": {"bikes": [{"rental_uris": {"android": "https://dc.lft.to/lastmile_qr_scan", "ios": "https://dc.lft.to/lastmile_qr_scan"}, "lon": -77.01212316666667, "name": "c3c5624dc2abc1fa0075e37e6c95e44a", "lat": 38.921228166666666, "is_reserved": 0, "fusion_lat": 0.0, "bike_id": "c3c5624dc2abc1fa0075e37e6c95e44a", "type": "electric_scooter", "is_disabled": 0, "fusion_lon": 0.0}, {"rental_uris": {"android": "https://dc.lft.to/lastmile_qr_scan", "ios": "https://dc.lft.to/lastmile_qr_scan"}, "lon": -76.98879366666667, "name": "edd00f84efec33d85a628a6c12a614dc", "lat": 38.86658366666666, "is_reserved": 0, "fusion_lat": 0.0, "bike_id": "edd00f84efec33d85a628a6c12a614dc", "type": "electric_scooter", "is_disabled": 0, "fusion_lon": 0.0}, {"rental_uris": {"android": "https://dc.lft.to/lastmile_qr_scan", "ios": "https://dc.lft.to/lastmile_qr_scan"}, "lon": -77.04406583333333, "name": "f2b78288e06dae263729adcdcc3eee2c", "lat": 38.934215, "is_reserved": 0, "fusion_lat": 0.0, "bike_id": "f2b78288e06dae263729adcdcc3eee2c", "type": "electric_scooter", "is_disabled": 0, "fusion_lon": 0.0}, {"rental_uris": {"android": "https://dc.lft.to/lastmile_qr_scan", "ios": "https://dc.lft.to/lastmile_qr_scan"}, "lon": -77.031006, "name": "cfbba56e692c03e9e6e374a85549fab8", "lat": 38.923835833333335, "is_reserved": 0, "fusion_lat": 0.0, "bike_id": "cfbba56e692c03e9e6e374a85549fab8", "type": "electric_scooter", "is_disabled": 0, "fusion_lon": 0.0}, {"rental_uris": {"android": "https://dc.lft.to/lastmile_qr_scan", "ios": "https://dc.lft.to/lastmile_qr_scan"}, "lon": -77.0334845, "name": "e7e06796f4a630ed7daf08528352c980", "lat": 38.89832283333333, "is_reserved": 0, "fusion_lat": 0.0, "bike_id": "e7e06796f4a630ed7daf08528352c980", "type": "electric_scooter", "is_disabled": 0, "fusion_lon": 0.0}, {"rental_uris": {"android": "https://dc.lft.to/lastmile_qr_scan", "ios": "https://dc.lft.to/lastmile_qr_scan"}, "lon": -77.02966416666666, "name": "28cdcbe55507958c58e1259895039540", "lat": 38.90621483333334, "is_reserved": 0, "fusion_lat": 0.0, "bike_id": "28cdcbe55507958c58e1259895039540", "type": "electric_scooter", "is_disabled": 0, "fusion_lon": 0.0}, {"rental_uris": {"android": "https://dc.lft.to/lastmile_qr_scan", "ios": "https://dc.lft.to/lastmile_qr_scan"}, "lon": -77.03813733333334, "name": "dcae4d2226083acbe579f049cc1d9d6b", "lat": 38.93115316666667, "is_reserved": 0, "fusion_lat": 0.0, "bike_id": "dcae4d2226083acbe579f049cc1d9d6b", "type": "electric_scooter", "is_disabled": 0, "fusion_lon": 0.0}, {"rental_uris": {"android": "https://dc.lft.to/lastmile_qr_scan", "ios": "https://dc.lft.to/lastmile_qr_scan"}, "lon": -77.0516025, "name": "d274c3d9b697ba78b4f712bd283cb6d1", "lat": 38.905141666666665, "is_reserved": 0, "fusion_lat": 0.0, "bike_id": "d274c3d9b697ba78b4f712bd283cb6d1", "type": "electric_scooter", "is_disabled": 0, "fusion_lon": 0.0}, {"rental_uris": {"android": "https://dc.lft.to/lastmile_qr_scan", "ios": "https://dc.lft.to/lastmile_qr_scan"}, "lon": -77.02535183333333, "name": "e7ae61b03ed2bd0a1695f19b4919768a", "lat": 38.930995833333334, "is_reserved": 0, "fusion_lat": 0.0, "bike_id": "e7ae61b03ed2bd0a1695f19b4919768a", "type": "electric_scooter", "is_disabled": 0, "fusion_lon": 0.0}, {"rental_uris": {"android": "https://dc.lft.to/lastmile_qr_scan", "ios": "https://dc.lft.to/lastmile_qr_scan"}, "lon": -77.02147733333334, "name": "cdfc6f600523d2ceae58e959ae43537f", "lat": 38.9197935, "is_reserved": 0, "fusion_lat": 0.0, "bike_id": "cdfc6f600523d2ceae58e959ae43537f", "type": "electric_scooter", "is_disabled": 0, "fusion_lon": 0.0}, {"rental_uris": {"android": "https://dc.lft.to/lastmile_qr_scan", "ios": "https://dc.lft.to/lastmile_qr_scan"}, "lon": -76.99035733333334, "name": "8f314a970cdad6f0e1e6ff366e261fa8", "lat": 38.901502666666666, "is_reserved": 0, "fusion_lat": 0.0, "bike_id": "8f314a970cdad6f0e1e6ff366e261fa8", "type": "electric_scooter", "is_disabled": 0, "fusion_lon": 0.0}, {"rental_uris": {"android": "https://dc.lft.to/lastmile_qr_scan", "ios": "https://dc.lft.to/lastmile_qr_scan"}, "lon": -77.2288925, "name": "6a6c350e6f78d0194b11da672d35f025", "lat": 38.90960166666667, "is_reserved": 0, "fusion_lat": 0.0, "bike_id": "6a6c350e6f78d0194b11da672d35f025", "type": "electric_bike", "is_disabled": 0, "fusion_lon": 0.0}, {"rental_uris": {"android": "https://dc.lft.to/lastmile_qr_scan", "ios": "https://dc.lft.to/lastmile_qr_scan"}, "lon": -77.01505183333333, "name": "bcc3a80e9f2322b95c300bfd09af4556", "lat": 38.890151833333334, "is_reserved": 0, "fusion_lat": 0.0, "bike_id": "bcc3a80e9f2322b95c300bfd09af4556", "type": "electric_scooter", "is_disabled": 0, "fusion_lon": 0.0}, {"rental_uris": {"android": "https://dc.lft.to/lastmile_qr_scan", "ios": "https://dc.lft.to/lastmile_qr_scan"}, "lon": -76.98967433333334, "name": "b5beab20e21e0e18d11086cf046f55be", "lat": 38.90137033333333, "is_reserved": 0, "fusion_lat": 0.0, "bike_id": "b5beab20e21e0e18d11086cf046f55be", "type": "electric_scooter", "is_disabled": 0, "fusion_lon": 0.0}, {"rental_uris": {"android": "https://dc.lft.to/lastmile_qr_scan", "ios": "https://dc.lft.to/lastmile_qr_scan"}, "lon": -77.01776366666667, "name": "2e63211f99c5aadccca7b1152d6088e2", "lat": 38.9441625, "is_reserved": 0, "fusion_lat": 0.0, "bike_id": "2e63211f99c5aadccca7b1152d6088e2", "type": "electric_scooter", "is_disabled": 0, "fusion_lon": 0.0}, {"rental_uris": {"android": "https://dc.lft.to/lastmile_qr_scan", "ios": "https://dc.lft.to/lastmile_qr_scan"}, "lon": -77.060137, "name": "e4345e5f0ea5ef9429a03a0e132764ab", "lat": 38.9364, "is_reserved": 0, "fusion_lat": 0.0, "bike_id": "e4345e5f0ea5ef9429a03a0e132764ab", "type": "electric_scooter", "is_disabled": 0, "fusion_lon": 0.0}, {"rental_uris": {"android": "https://dc.lft.to/lastmile_qr_scan", "ios": "https://dc.lft.to/lastmile_qr_scan"}, "lon": -76.98357983333334, "name": "36e0d6bb7fd82eb9a437d8aa34e4ae3f", "lat": 38.88290533333333, "is_reserved": 0, "fusion_lat": 0.0, "bike_id": "36e0d6bb7fd82eb9a437d8aa34e4ae3f", "type": "electric_scooter", "is_disabled": 0, "fusion_lon": 0.0}, {"rental_uris": {"android": "https://dc.lft.to/lastmile_qr_scan", "ios": "https://dc.lft.to/lastmile_qr_scan"}, "lon": -77.01292016666666, "name": "ae61ef42e195ca786e41dacb6d7f8709", "lat": 39.003805666666665, "is_reserved": 0, "fusion_lat": 0.0, "bike_id": "ae61ef42e195ca786e41dacb6d7f8709", "type": "electric_bike", "is_disabled": 0, "fusion_lon": 0.0}, {"rental_uris": {"android": "https://dc.lft.to/lastmile_qr_scan", "ios": "https://dc.lft.to/lastmile_qr_scan"}, "lon": -77.0140995, "name": "ab003f81dcc4ac67fe22b62fe5d251f7", "lat": 38.89604416666667, "is_reserved": 0, "fusion_lat": 0.0, "bike_id": "ab003f81dcc4ac67fe22b62fe5d251f7", "type": "electric_scooter", "is_disabled": 0, "fusion_lon": 0.0}, {"rental_uris": {"android": "https://dc.lft.to/lastmile_qr_scan", "ios": "https://dc.lft.to/lastmile_qr_scan"}, "lon": -77.01352433333334, "name": "4fc1aff61375fbf0477e07b6f293e07e", "lat": 38.9185075, "is_reserved": 0, "fusion_lat": 0.0, "bike_id": "4fc1aff61375fbf0477e07b6f293e07e", "type": "electric_scooter", "is_disabled": 0, "fusion_lon": 0.0}, {"rental_uris": {"android": "https://dc.lft.to/lastmile_qr_scan", "ios": "https://dc.lft.to/lastmile_qr_scan"}, "lon": -77.01559566666667, "name": "127bada0d08ad59aadbdeb46cab5a9cb", "lat": 38.9267685, "is_reserved": 0, "fusion_lat": 0.0, "bike_id": "127bada0d08ad59aadbdeb46cab5a9cb", "type": "electric_scooter", "is_disabled": 0, "fusion_lon": 0.0}, {"rental_uris": {"android": "https://dc.lft.to/lastmile_qr_scan", "ios": "https://dc.lft.to/lastmile_qr_scan"}, "lon": -77.027014, "name": "9fc062dd0e53ea1d626fd0ddb0ddcaa2", "lat": 38.9263555, "is_reserved": 0, "fusion_lat": 0.0, "bike_id": "9fc062dd0e53ea1d626fd0ddb0ddcaa2", "type": "electric_scooter", "is_disabled": 0, "fusion_lon": 0.0}, {"rental_uris": {"android": "https://dc.lft.to/lastmile_qr_scan", "ios": "https://dc.lft.to/lastmile_qr_scan"}, "lon": -77.00036966666667, "name": "f630bbf6b02d983a42199a998c97fb65", "lat": 38.8742825, "is_reserved": 0, "fusion_lat": 0.0, "bike_id": "f630bbf6b02d983a42199a998c97fb65", "type": "electric_scooter", "is_disabled": 0, "fusion_lon": 0.0}, {"rental_uris": {"android": "https://dc.lft.to/lastmile_qr_scan", "ios": "https://dc.lft.to/lastmile_qr_scan"}, "lon": -77.032648, "name": "73d80c86fa9955b6cc26552fbe4dc880", "lat": 38.91112283333333, "is_reserved": 0, "fusion_lat": 0.0, "bike_id": "73d80c86fa9955b6cc26552fbe4dc880", "type": "electric_scooter", "is_disabled": 0, "fusion_lon": 0.0}, {"rental_uris": {"android": "https://dc.lft.to/lastmile_qr_scan", "ios": "https://dc.lft.to/lastmile_qr_scan"}, "lon": -76.96562116666666, "name": "ff93a89d6fcbf4071ae63542b0b06e91", "lat": 38.9184585, "is_reserved": 0, "fusion_lat": 0.0, "bike_id": "ff93a89d6fcbf4071ae63542b0b06e91", "type": "electric_scooter", "is_disabled": 0, "fusion_lon": 0.0}, {"rental_uris": {"android": "https://dc.lft.to/lastmile_qr_scan", "ios": "https://dc.lft.to/lastmile_qr_scan"}, "lon": -77.021494, "name": "d5ea27994351d75b1e41750f90014224", "lat": 38.914635, "is_reserved": 0, "fusion_lat": 0.0, "bike_id": "d5ea27994351d75b1e41750f90014224", "type": "electric_scooter", "is_disabled": 0, "fusion_lon": 0.0}, {"rental_uris": {"android": "https://dc.lft.to/lastmile_qr_scan", "ios": "https://dc.lft.to/lastmile_qr_scan"}, "lon": -77.04303166666666, "name": "9936a65bff69df398f0fe7d3b514a3d5", "lat": 38.931858166666665, "is_reserved": 0, "fusion_lat": 0.0, "bike_id": "9936a65bff69df398f0fe7d3b514a3d5", "type": "electric_scooter", "is_disabled": 0, "fusion_lon": 0.0}, {"rental_uris": {"android": "https://dc.lft.to/lastmile_qr_scan", "ios": "https://dc.lft.to/lastmile_qr_scan"}, "lon": -77.03800233333334, "name": "bda58dad2856adc9ff2ebcd99f1a4200", "lat": 38.936027833333334, "is_reserved": 0, "fusion_lat": 0.0, "bike_id": "bda58dad2856adc9ff2ebcd99f1a4200", "type": "electric_scooter", "is_disabled": 0, "fusion_lon": 0.0}, {"rental_uris": {"android": "https://dc.lft.to/lastmile_qr_scan", "ios": "https://dc.lft.to/lastmile_qr_scan"}, "lon": -77.01826683333333, "name": "77cab63e25d3cb7c46b8a75dad0841d5", "lat": 38.922711166666666, "is_reserved": 0, "fusion_lat": 0.0, "bike_id": "77cab63e25d3cb7c46b8a75dad0841d5", "type": "electric_scooter", "is_disabled": 0, "fusion_lon": 0.0}, {"rental_uris": {"android": "https://dc.lft.to/lastmile_qr_scan", "ios": "https://dc.lft.to/lastmile_qr_scan"}, "lon": -76.98867933333334, "name": "954d1122e5d474e6b897268e3b62f06c", "lat": 38.85770483333334, "is_reserved": 0, "fusion_lat": 0.0, "bike_id": "954d1122e5d474e6b897268e3b62f06c", "type": "electric_scooter", "is_disabled": 0, "fusion_lon": 0.0}, {"rental_uris": {"android": "https://dc.lft.to/lastmile_qr_scan", "ios": "https://dc.lft.to/lastmile_qr_scan"}, "lon": -77.03645433333334, "name": "f47e1e6e10f2091a5b3649bdce30187b", "lat": 38.917374333333335, "is_reserved": 0, "fusion_lat": 0.0, "bike_id": "f47e1e6e10f2091a5b3649bdce30187b", "type": "electric_scooter", "is_disabled": 0, "fusion_lon": 0.0}, {"rental_uris": {"android": "https://dc.lft.to/lastmile_qr_scan", "ios": "https://dc.lft.to/lastmile_qr_scan"}, "lon": -77.023689, "name": "3b0bf1c5e80acefa64086de6859eab37", "lat": 38.920589666666665, "is_reserved": 0, "fusion_lat": 0.0, "bike_id": "3b0bf1c5e80acefa64086de6859eab37", "type": "electric_scooter", "is_disabled": 0, "fusion_lon": 0.0}, {"rental_uris": {"android": "https://dc.lft.to/lastmile_qr_scan", "ios": "https://dc.lft.to/lastmile_qr_scan"}, "lon": -77.032832, "name": "5a780063f3ae703f9d965791186307d3", "lat": 38.94815833333333, "is_reserved": 0, "fusion_lat": 0.0, "bike_id": "5a780063f3ae703f9d965791186307d3", "type": "electric_scooter", "is_disabled": 0, "fusion_lon": 0.0}, {"rental_uris": {"android": "https://dc.lft.to/lastmile_qr_scan", "ios": "https://dc.lft.to/lastmile_qr_scan"}, "lon": -76.998048, "name": "dd623bebff369e6530591817bc4d465d", "lat": 38.901401166666666, "is_reserved": 0, "fusion_lat": 0.0, "bike_id": "dd623bebff369e6530591817bc4d465d", "type": "electric_scooter", "is_disabled": 0, "fusion_lon": 0.0}, {"rental_uris": {"android": "https://dc.lft.to/lastmile_qr_scan", "ios": "https://dc.lft.to/lastmile_qr_scan"}, "lon": -76.9559665, "name": "0bb9ac18c52a5e26b87eb8fa61be9af5", "lat": 38.88607616666667, "is_reserved": 0, "fusion_lat": 0.0, "bike_id": "0bb9ac18c52a5e26b87eb8fa61be9af5", "type": "electric_scooter", "is_disabled": 0, "fusion_lon": 0.0}, {"rental_uris": {"android": "https://dc.lft.to/lastmile_qr_scan", "ios": "https://dc.lft.to/lastmile_qr_scan"}, "lon": -77.0012415, "name": "3834086f64f2276758a4f0e73f511cb0", "lat": 38.905617666666664, "is_reserved": 0, "fusion_lat": 0.0, "bike_id": "3834086f64f2276758a4f0e73f511cb0", "type": "electric_scooter", "is_disabled": 0, "fusion_lon": 0.0}, {"rental_uris": {"android": "https://dc.lft.to/lastmile_qr_scan", "ios": "https://dc.lft.to/lastmile_qr_scan"}, "lon": -76.958945, "name": "6165e2742086fb7bf947c75e7095f4f7", "lat": 38.881927166666664, "is_reserved": 0, "fusion_lat": 0.0, "bike_id": "6165e2742086fb7bf947c75e7095f4f7", "type": "electric_scooter", "is_disabled": 0, "fusion_lon": 0.0}, {"rental_uris": {"android": "https://dc.lft.to/lastmile_qr_scan", "ios": "https://dc.lft.to/lastmile_qr_scan"}, "lon": -77.02401133333333, "name": "8797f37bfd9795ab8a9cf7dcfffe49d3", "lat": 38.920899, "is_reserved": 0, "fusion_lat": 0.0, "bike_id": "8797f37bfd9795ab8a9cf7dcfffe49d3", "type": "electric_scooter", "is_disabled": 0, "fusion_lon": 0.0}, {"rental_uris": {"android": "https://dc.lft.to/lastmile_qr_scan", "ios": "https://dc.lft.to/lastmile_qr_scan"}, "lon": -77.0499945, "name": "ba95aa97eb439008b0b7a8230a89726a", "lat": 38.8922995, "is_reserved": 0, "fusion_lat": 0.0, "bike_id": "ba95aa97eb439008b0b7a8230a89726a", "type": "electric_scooter", "is_disabled": 0, "fusion_lon": 0.0}, {"rental_uris": {"android": "https://dc.lft.to/lastmile_qr_scan", "ios": "https://dc.lft.to/lastmile_qr_scan"}, "lon": -77.04359666666667, "name": "d9ed681a10c44e52c56aac7236568911", "lat": 38.90406266666667, "is_reserved": 0, "fusion_lat": 0.0, "bike_id": "d9ed681a10c44e52c56aac7236568911", "type": "electric_scooter", "is_disabled": 0, "fusion_lon": 0.0}, {"rental_uris": {"android": "https://dc.lft.to/lastmile_qr_scan", "ios": "https://dc.lft.to/lastmile_qr_scan"}, "lon": -77.0007115, "name": "7331024c981ee997e50a67c624e599b1", "lat": 38.901371, "is_reserved": 0, "fusion_lat": 0.0, "bike_id": "7331024c981ee997e50a67c624e599b1", "type": "electric_scooter", "is_disabled": 0, "fusion_lon": 0.0}, {"rental_uris": {"android": "https://dc.lft.to/lastmile_qr_scan", "ios": "https://dc.lft.to/lastmile_qr_scan"}, "lon": -77.0269995, "name": "67c15e62efc5eb2d62bd95d1d07a3596", "lat": 38.897350833333334, "is_reserved": 0, "fusion_lat": 0.0, "bike_id": "67c15e62efc5eb2d62bd95d1d07a3596", "type": "electric_scooter", "is_disabled": 0, "fusion_lon": 0.0}, {"rental_uris": {"android": "https://dc.lft.to/lastmile_qr_scan", "ios": "https://dc.lft.to/lastmile_qr_scan"}, "lon": -77.04479616666667, "name": "aaea4ffe651b20091d74bfa9fac68b70", "lat": 38.895221166666666, "is_reserved": 0, "fusion_lat": 0.0, "bike_id": "aaea4ffe651b20091d74bfa9fac68b70", "type": "electric_scooter", "is_disabled": 0, "fusion_lon": 0.0}, {"rental_uris": {"android": "https://dc.lft.to/lastmile_qr_scan", "ios": "https://dc.lft.to/lastmile_qr_scan"}, "lon": -77.04695533333333, "name": "55953851e665bc22698803c80ede8f05", "lat": 38.892224166666665, "is_reserved": 0, "fusion_lat": 0.0, "bike_id": "55953851e665bc22698803c80ede8f05", "type": "electric_scooter", "is_disabled": 0, "fusion_lon": 0.0}, {"rental_uris": {"android": "https://dc.lft.to/lastmile_qr_scan", "ios": "https://dc.lft.to/lastmile_qr_scan"}, "lon": -77.01926716666667, "name": "f0bad326e47a5d377eb4630f383b813c", "lat": 38.921472666666666, "is_reserved": 0, "fusion_lat": 0.0, "bike_id": "f0bad326e47a5d377eb4630f383b813c", "type": "electric_scooter", "is_disabled": 0, "fusion_lon": 0.0}, {"rental_uris": {"android": "https://dc.lft.to/lastmile_qr_scan", "ios": "https://dc.lft.to/lastmile_qr_scan"}, "lon": -77.07037116666666, "name": "85705bfe0dec07f435ddaf6d846af4ba", "lat": 38.92252666666667, "is_reserved": 0, "fusion_lat": 0.0, "bike_id": "85705bfe0dec07f435ddaf6d846af4ba", "type": "electric_scooter", "is_disabled": 0, "fusion_lon": 0.0}, {"rental_uris": {"android": "https://dc.lft.to/lastmile_qr_scan", "ios": "https://dc.lft.to/lastmile_qr_scan"}, "lon": -77.0182865, "name": "9ea2e3710a02a6faf4c656b668f44b47", "lat": 38.90814966666667, "is_reserved": 0, "fusion_lat": 0.0, "bike_id": "9ea2e3710a02a6faf4c656b668f44b47", "type": "electric_bike", "is_disabled": 0, "fusion_lon": 0.0}, {"rental_uris": {"android": "https://dc.lft.to/lastmile_qr_scan", "ios": "https://dc.lft.to/lastmile_qr_scan"}, "lon": -76.98323316666666, "name": "236376fb42d470b24516a275e6863a69", "lat": 38.904353666666665, "is_reserved": 0, "fusion_lat": 0.0, "bike_id": "236376fb42d470b24516a275e6863a69", "type": "electric_scooter", "is_disabled": 0, "fusion_lon": 0.0}, {"rental_uris": {"android": "https://dc.lft.to/lastmile_qr_scan", "ios": "https://dc.lft.to/lastmile_qr_scan"}, "lon": -77.04581033333334, "name": "eccb546e7544522d0c69d31d0303da4a", "lat": 38.908680833333335, "is_reserved": 0, "fusion_lat": 0.0, "bike_id": "eccb546e7544522d0c69d31d0303da4a", "type": "electric_scooter", "is_disabled": 0, "fusion_lon": 0.0}, {"rental_uris": {"android": "https://dc.lft.to/lastmile_qr_scan", "ios": "https://dc.lft.to/lastmile_qr_scan"}, "lon": -77.034801, "name": "c5ea4580bf7d1bf2c2d26ed2201d3d0a", "lat": 38.917096666666666, "is_reserved": 0, "fusion_lat": 0.0, "bike_id": "c5ea4580bf7d1bf2c2d26ed2201d3d0a", "type": "electric_scooter", "is_disabled": 0, "fusion_lon": 0.0}, {"rental_uris": {"android": "https://dc.lft.to/lastmile_qr_scan", "ios": "https://dc.lft.to/lastmile_qr_scan"}, "lon": -77.07528766666667, "name": "1882915db431e8c7c9705d979dce41d5", "lat": 38.9396215, "is_reserved": 0, "fusion_lat": 0.0, "bike_id": "1882915db431e8c7c9705d979dce41d5", "type": "electric_scooter", "is_disabled": 0, "fusion_lon": 0.0}, {"rental_uris": {"android": "https://dc.lft.to/lastmile_qr_scan", "ios": "https://dc.lft.to/lastmile_qr_scan"}, "lon": -77.02405216666666, "name": "2e7418612c3396d494fedb62643d78db", "lat": 38.95731466666667, "is_reserved": 0, "fusion_lat": 0.0, "bike_id": "2e7418612c3396d494fedb62643d78db", "type": "electric_scooter", "is_disabled": 0, "fusion_lon": 0.0}, {"rental_uris": {"android": "https://dc.lft.to/lastmile_qr_scan", "ios": "https://dc.lft.to/lastmile_qr_scan"}, "lon": -77.00349483333333, "name": "c36b7a716074ecb7da61443df9c5a91c", "lat": 38.894636, "is_reserved": 0, "fusion_lat": 0.0, "bike_id": "c36b7a716074ecb7da61443df9c5a91c", "type": "electric_scooter", "is_disabled": 0, "fusion_lon": 0.0}, {"rental_uris": {"android": "https://dc.lft.to/lastmile_qr_scan", "ios": "https://dc.lft.to/lastmile_qr_scan"}, "lon": -77.0188235, "name": "2e921948f35ebefb48619ad6b654d42f", "lat": 38.9056085, "is_reserved": 0, "fusion_lat": 0.0, "bike_id": "2e921948f35ebefb48619ad6b654d42f", "type": "electric_scooter", "is_disabled": 0, "fusion_lon": 0.0}, {"rental_uris": {"android": "https://dc.lft.to/lastmile_qr_scan", "ios": "https://dc.lft.to/lastmile_qr_scan"}, "lon": -77.034677, "name": "c77632feb386e5492f5c994bd9ca83ae", "lat": 38.906829, "is_reserved": 0, "fusion_lat": 0.0, "bike_id": "c77632feb386e5492f5c994bd9ca83ae", "type": "electric_scooter", "is_disabled": 0, "fusion_lon": 0.0}, {"rental_uris": {"android": "https://dc.lft.to/lastmile_qr_scan", "ios": "https://dc.lft.to/lastmile_qr_scan"}, "lon": -77.05074533333334, "name": "b82d497cf73a1107bd9902106e1eff6e", "lat": 38.900798, "is_reserved": 0, "fusion_lat": 0.0, "bike_id": "b82d497cf73a1107bd9902106e1eff6e", "type": "electric_scooter", "is_disabled": 0, "fusion_lon": 0.0}, {"rental_uris": {"android": "https://dc.lft.to/lastmile_qr_scan", "ios": "https://dc.lft.to/lastmile_qr_scan"}, "lon": -77.00227183333334, "name": "7fb958793a1e59eb9b6598f4594675b2", "lat": 38.89518533333333, "is_reserved": 0, "fusion_lat": 0.0, "bike_id": "7fb958793a1e59eb9b6598f4594675b2", "type": "electric_scooter", "is_disabled": 0, "fusion_lon": 0.0}, {"rental_uris": {"android": "https://dc.lft.to/lastmile_qr_scan", "ios": "https://dc.lft.to/lastmile_qr_scan"}, "lon": -77.0326385, "name": "1fc1285d4f88ccc856c4849216a875cc", "lat": 38.939839, "is_reserved": 0, "fusion_lat": 0.0, "bike_id": "1fc1285d4f88ccc856c4849216a875cc", "type": "electric_scooter", "is_disabled": 0, "fusion_lon": 0.0}, {"rental_uris": {"android": "https://dc.lft.to/lastmile_qr_scan", "ios": "https://dc.lft.to/lastmile_qr_scan"}, "lon": -77.02492283333333, "name": "e760f623e313efd258c86788eab9be67", "lat": 38.90405533333333, "is_reserved": 0, "fusion_lat": 0.0, "bike_id": "e760f623e313efd258c86788eab9be67", "type": "electric_scooter", "is_disabled": 0, "fusion_lon": 0.0}, {"rental_uris": {"android": "https://dc.lft.to/lastmile_qr_scan", "ios": "https://dc.lft.to/lastmile_qr_scan"}, "lon": -77.026296, "name": "973600beeb85c4d713e7e941a81cfc50", "lat": 38.887686, "is_reserved": 0, "fusion_lat": 0.0, "bike_id": "973600beeb85c4d713e7e941a81cfc50", "type": "electric_scooter", "is_disabled": 0, "fusion_lon": 0.0}, {"rental_uris": {"android": "https://dc.lft.to/lastmile_qr_scan", "ios": "https://dc.lft.to/lastmile_qr_scan"}, "lon": -76.992636, "name": "7ddb650efa2afbad451d3e67902d9d61", "lat": 38.894388, "is_reserved": 0, "fusion_lat": 0.0, "bike_id": "7ddb650efa2afbad451d3e67902d9d61", "type": "electric_scooter", "is_disabled": 0, "fusion_lon": 0.0}, {"rental_uris": {"android": "https://dc.lft.to/lastmile_qr_scan", "ios": "https://dc.lft.to/lastmile_qr_scan"}, "lon": -77.0093985, "name": "83face7a194eb21d61c6a1622e975d02", "lat": 38.9057485, "is_reserved": 0, "fusion_lat": 0.0, "bike_id": "83face7a194eb21d61c6a1622e975d02", "type": "electric_scooter", "is_disabled": 0, "fusion_lon": 0.0}, {"rental_uris": {"android": "https://dc.lft.to/lastmile_qr_scan", "ios": "https://dc.lft.to/lastmile_qr_scan"}, "lon": -77.02379766666667, "name": "8773e77957dac59f8323a2979d1fb10b", "lat": 38.95247666666667, "is_reserved": 0, "fusion_lat": 0.0, "bike_id": "8773e77957dac59f8323a2979d1fb10b", "type": "electric_scooter", "is_disabled": 0, "fusion_lon": 0.0}, {"rental_uris": {"android": "https://dc.lft.to/lastmile_qr_scan", "ios": "https://dc.lft.to/lastmile_qr_scan"}, "lon": -77.02112116666666, "name": "50bd681a365055849ec5460ccbfff664", "lat": 38.927506666666666, "is_reserved": 0, "fusion_lat": 0.0, "bike_id": "50bd681a365055849ec5460ccbfff664", "type": "electric_scooter", "is_disabled": 0, "fusion_lon": 0.0}, {"rental_uris": {"android": "https://dc.lft.to/lastmile_qr_scan", "ios": "https://dc.lft.to/lastmile_qr_scan"}, "lon": -77.02228483333333, "name": "80d6e3de17d3bbc0c15ac356813f1cce", "lat": 38.956887, "is_reserved": 0, "fusion_lat": 0.0, "bike_id": "80d6e3de17d3bbc0c15ac356813f1cce", "type": "electric_bike", "is_disabled": 0, "fusion_lon": 0.0}, {"rental_uris": {"android": "https://dc.lft.to/lastmile_qr_scan", "ios": "https://dc.lft.to/lastmile_qr_scan"}, "lon": -77.00889516666666, "name": "6eaba64446797a3c39360a3542e319f9", "lat": 38.914748, "is_reserved": 0, "fusion_lat": 0.0, "bike_id": "6eaba64446797a3c39360a3542e319f9", "type": "electric_scooter", "is_disabled": 0, "fusion_lon": 0.0}, {"rental_uris": {"android": "https://dc.lft.to/lastmile_qr_scan", "ios": "https://dc.lft.to/lastmile_qr_scan"}, "lon": -77.02379183333333, "name": "b2dcdf9b9a7583ce639ef905bc830780", "lat": 38.90672983333333, "is_reserved": 0, "fusion_lat": 0.0, "bike_id": "b2dcdf9b9a7583ce639ef905bc830780", "type": "electric_scooter", "is_disabled": 0, "fusion_lon": 0.0}, {"rental_uris": {"android": "https://dc.lft.to/lastmile_qr_scan", "ios": "https://dc.lft.to/lastmile_qr_scan"}, "lon": -76.9289815, "name": "4b2682528dad179f5101b54615f82d59", "lat": 38.901867833333334, "is_reserved": 0, "fusion_lat": 0.0, "bike_id": "4b2682528dad179f5101b54615f82d59", "type": "electric_scooter", "is_disabled": 0, "fusion_lon": 0.0}, {"rental_uris": {"android": "https://dc.lft.to/lastmile_qr_scan", "ios": "https://dc.lft.to/lastmile_qr_scan"}, "lon": -77.00349083333333, "name": "8134e99fa31d9b21d4d2402f8eec35a9", "lat": 38.88698983333333, "is_reserved": 0, "fusion_lat": 0.0, "bike_id": "8134e99fa31d9b21d4d2402f8eec35a9", "type": "electric_scooter", "is_disabled": 0, "fusion_lon": 0.0}, {"rental_uris": {"android": "https://dc.lft.to/lastmile_qr_scan", "ios": "https://dc.lft.to/lastmile_qr_scan"}, "lon": -77.04141116666666, "name": "210f65542db4297152d424dec48eb2f4", "lat": 38.921895, "is_reserved": 0, "fusion_lat": 0.0, "bike_id": "210f65542db4297152d424dec48eb2f4", "type": "electric_scooter", "is_disabled": 0, "fusion_lon": 0.0}, {"rental_uris": {"android": "https://dc.lft.to/lastmile_qr_scan", "ios": "https://dc.lft.to/lastmile_qr_scan"}, "lon": -77.04267883333333, "name": "f102b4acb98148125beef0d75fcbe3e8", "lat": 38.830985166666665, "is_reserved": 0, "fusion_lat": 0.0, "bike_id": "f102b4acb98148125beef0d75fcbe3e8", "type": "electric_bike", "is_disabled": 0, "fusion_lon": 0.0}, {"rental_uris": {"android": "https://dc.lft.to/lastmile_qr_scan", "ios": "https://dc.lft.to/lastmile_qr_scan"}, "lon": -77.04324533333333, "name": "23aad5977975c2d8021a429af6463de5", "lat": 38.914145, "is_reserved": 0, "fusion_lat": 0.0, "bike_id": "23aad5977975c2d8021a429af6463de5", "type": "electric_scooter", "is_disabled": 0, "fusion_lon": 0.0}, {"rental_uris": {"android": "https://dc.lft.to/lastmile_qr_scan", "ios": "https://dc.lft.to/lastmile_qr_scan"}, "lon": -77.02385483333333, "name": "0c9ab857f5155d99163d2ecbc4f6e6d8", "lat": 38.89227983333333, "is_reserved": 0, "fusion_lat": 0.0, "bike_id": "0c9ab857f5155d99163d2ecbc4f6e6d8", "type": "electric_scooter", "is_disabled": 0, "fusion_lon": 0.0}, {"rental_uris": {"android": "https://dc.lft.to/lastmile_qr_scan", "ios": "https://dc.lft.to/lastmile_qr_scan"}, "lon": -77.02379866666666, "name": "43e5253d2f36828c793b6b63e27ebf5a", "lat": 38.89197583333333, "is_reserved": 0, "fusion_lat": 0.0, "bike_id": "43e5253d2f36828c793b6b63e27ebf5a", "type": "electric_scooter", "is_disabled": 0, "fusion_lon": 0.0}, {"rental_uris": {"android": "https://dc.lft.to/lastmile_qr_scan", "ios": "https://dc.lft.to/lastmile_qr_scan"}, "lon": -77.04185083333333, "name": "aeb63f96408efae4cf86f8d7a37ec31f", "lat": 38.90598166666667, "is_reserved": 0, "fusion_lat": 0.0, "bike_id": "aeb63f96408efae4cf86f8d7a37ec31f", "type": "electric_scooter", "is_disabled": 0, "fusion_lon": 0.0}, {"rental_uris": {"android": "https://dc.lft.to/lastmile_qr_scan", "ios": "https://dc.lft.to/lastmile_qr_scan"}, "lon": -77.03298016666666, "name": "91a3fd657103fe2d152018f032fc53af", "lat": 38.924543, "is_reserved": 0, "fusion_lat": 0.0, "bike_id": "91a3fd657103fe2d152018f032fc53af", "type": "electric_scooter", "is_disabled": 0, "fusion_lon": 0.0}, {"rental_uris": {"android": "https://dc.lft.to/lastmile_qr_scan", "ios": "https://dc.lft.to/lastmile_qr_scan"}, "lon": -76.98040683333333, "name": "0a0cb2dcea8f60fa9b508bdf16e62380", "lat": 38.90143033333333, "is_reserved": 0, "fusion_lat": 0.0, "bike_id": "0a0cb2dcea8f60fa9b508bdf16e62380", "type": "electric_scooter", "is_disabled": 0, "fusion_lon": 0.0}, {"rental_uris": {"android": "https://dc.lft.to/lastmile_qr_scan", "ios": "https://dc.lft.to/lastmile_qr_scan"}, "lon": -77.04231483333334, "name": "2e570aa7cc6da0baaed7453d3c63fe84", "lat": 38.91111316666667, "is_reserved": 0, "fusion_lat": 0.0, "bike_id": "2e570aa7cc6da0baaed7453d3c63fe84", "type": "electric_scooter", "is_disabled": 0, "fusion_lon": 0.0}, {"rental_uris": {"android": "https://dc.lft.to/lastmile_qr_scan", "ios": "https://dc.lft.to/lastmile_qr_scan"}, "lon": -77.03778216666667, "name": "5d5006768e1ce54c5ee75db9f72ee3b3", "lat": 38.996689833333335, "is_reserved": 0, "fusion_lat": 0.0, "bike_id": "5d5006768e1ce54c5ee75db9f72ee3b3", "type": "electric_bike", "is_disabled": 0, "fusion_lon": 0.0}, {"rental_uris": {"android": "https://dc.lft.to/lastmile_qr_scan", "ios": "https://dc.lft.to/lastmile_qr_scan"}, "lon": -77.01168016666666, "name": "2b48dba63a9bba4cd0e1795e45a4c769", "lat": 38.9134105, "is_reserved": 0, "fusion_lat": 0.0, "bike_id": "2b48dba63a9bba4cd0e1795e45a4c769", "type": "electric_scooter", "is_disabled": 0, "fusion_lon": 0.0}, {"rental_uris": {"android": "https://dc.lft.to/lastmile_qr_scan", "ios": "https://dc.lft.to/lastmile_qr_scan"}, "lon": -77.041958, "name": "629c28767d4c3d0c0b6f8b6f0d5f6286", "lat": 38.892220333333334, "is_reserved": 0, "fusion_lat": 0.0, "bike_id": "629c28767d4c3d0c0b6f8b6f0d5f6286", "type": "electric_scooter", "is_disabled": 0, "fusion_lon": 0.0}, {"rental_uris": {"android": "https://dc.lft.to/lastmile_qr_scan", "ios": "https://dc.lft.to/lastmile_qr_scan"}, "lon": -77.0235455, "name": "e07d22e852dc58b6e2ba111d81290890", "lat": 38.92514333333333, "is_reserved": 0, "fusion_lat": 0.0, "bike_id": "e07d22e852dc58b6e2ba111d81290890", "type": "electric_scooter", "is_disabled": 0, "fusion_lon": 0.0}, {"rental_uris": {"android": "https://dc.lft.to/lastmile_qr_scan", "ios": "https://dc.lft.to/lastmile_qr_scan"}, "lon": -77.045004, "name": "de421393e22f30da1b1b4e44a20574d1", "lat": 38.911127666666665, "is_reserved": 0, "fusion_lat": 0.0, "bike_id": "de421393e22f30da1b1b4e44a20574d1", "type": "electric_scooter", "is_disabled": 0, "fusion_lon": 0.0}, {"rental_uris": {"android": "https://dc.lft.to/lastmile_qr_scan", "ios": "https://dc.lft.to/lastmile_qr_scan"}, "lon": -77.02984566666667, "name": "624050ebf08fa518442ca15152fe2102", "lat": 38.907297166666666, "is_reserved": 0, "fusion_lat": 0.0, "bike_id": "624050ebf08fa518442ca15152fe2102", "type": "electric_scooter", "is_disabled": 0, "fusion_lon": 0.0}, {"rental_uris": {"android": "https://dc.lft.to/lastmile_qr_scan", "ios": "https://dc.lft.to/lastmile_qr_scan"}, "lon": -77.03064266666667, "name": "367df63784d3c4e1295b3cf844ca63da", "lat": 38.90251116666666, "is_reserved": 0, "fusion_lat": 0.0, "bike_id": "367df63784d3c4e1295b3cf844ca63da", "type": "electric_scooter", "is_disabled": 0, "fusion_lon": 0.0}, {"rental_uris": {"android": "https://dc.lft.to/lastmile_qr_scan", "ios": "https://dc.lft.to/lastmile_qr_scan"}, "lon": -77.02673333333334, "name": "a6a02dbbfde7eb56ac24fde6215c8fd4", "lat": 38.897596666666665, "is_reserved": 0, "fusion_lat": 0.0, "bike_id": "a6a02dbbfde7eb56ac24fde6215c8fd4", "type": "electric_scooter", "is_disabled": 0, "fusion_lon": 0.0}, {"rental_uris": {"android": "https://dc.lft.to/lastmile_qr_scan", "ios": "https://dc.lft.to/lastmile_qr_scan"}, "lon": -76.96384466666666, "name": "831fe649be8e9bcd5fde8b959ff2a821", "lat": 38.948928, "is_reserved": 0, "fusion_lat": 0.0, "bike_id": "831fe649be8e9bcd5fde8b959ff2a821", "type": "electric_bike", "is_disabled": 0, "fusion_lon": 0.0}, {"rental_uris": {"android": "https://dc.lft.to/lastmile_qr_scan", "ios": "https://dc.lft.to/lastmile_qr_scan"}, "lon": -77.01390666666667, "name": "2f1a44b2c1b7b9b092bfc6522dde7397", "lat": 38.94229083333333, "is_reserved": 0, "fusion_lat": 0.0, "bike_id": "2f1a44b2c1b7b9b092bfc6522dde7397", "type": "electric_scooter", "is_disabled": 0, "fusion_lon": 0.0}, {"rental_uris": {"android": "https://dc.lft.to/lastmile_qr_scan", "ios": "https://dc.lft.to/lastmile_qr_scan"}, "lon": -76.95419116666666, "name": "fc76f5b370c917544f7ed93e532cae04", "lat": 38.88996616666667, "is_reserved": 0, "fusion_lat": 0.0, "bike_id": "fc76f5b370c917544f7ed93e532cae04", "type": "electric_scooter", "is_disabled": 0, "fusion_lon": 0.0}, {"rental_uris": {"android": "https://dc.lft.to/lastmile_qr_scan", "ios": "https://dc.lft.to/lastmile_qr_scan"}, "lon": -77.01064266666667, "name": "dc85ecd3d02b4039c1d7683347cf6d73", "lat": 38.9203105, "is_reserved": 0, "fusion_lat": 0.0, "bike_id": "dc85ecd3d02b4039c1d7683347cf6d73", "type": "electric_scooter", "is_disabled": 0, "fusion_lon": 0.0}, {"rental_uris": {"android": "https://dc.lft.to/lastmile_qr_scan", "ios": "https://dc.lft.to/lastmile_qr_scan"}, "lon": -77.04675483333334, "name": "6ff434b1b0dc228d89078b61a6585236", "lat": 38.895632, "is_reserved": 0, "fusion_lat": 0.0, "bike_id": "6ff434b1b0dc228d89078b61a6585236", "type": "electric_scooter", "is_disabled": 0, "fusion_lon": 0.0}, {"rental_uris": {"android": "https://dc.lft.to/lastmile_qr_scan", "ios": "https://dc.lft.to/lastmile_qr_scan"}, "lon": -77.023531, "name": "44ebe9702df7398573cfc3229315dac9", "lat": 38.93536116666667, "is_reserved": 0, "fusion_lat": 0.0, "bike_id": "44ebe9702df7398573cfc3229315dac9", "type": "electric_scooter", "is_disabled": 0, "fusion_lon": 0.0}, {"rental_uris": {"android": "https://dc.lft.to/lastmile_qr_scan", "ios": "https://dc.lft.to/lastmile_qr_scan"}, "lon": -77.0348085, "name": "30135839d13c13ac8604f161065afa74", "lat": 38.90572783333333, "is_reserved": 0, "fusion_lat": 0.0, "bike_id": "30135839d13c13ac8604f161065afa74", "type": "electric_scooter", "is_disabled": 0, "fusion_lon": 0.0}, {"rental_uris": {"android": "https://dc.lft.to/lastmile_qr_scan", "ios": "https://dc.lft.to/lastmile_qr_scan"}, "lon": -77.02303216666667, "name": "7fb14ea45ef40b1f57a4a926c2e22b8b", "lat": 38.9265945, "is_reserved": 0, "fusion_lat": 0.0, "bike_id": "7fb14ea45ef40b1f57a4a926c2e22b8b", "type": "electric_scooter", "is_disabled": 0, "fusion_lon": 0.0}, {"rental_uris": {"android": "https://dc.lft.to/lastmile_qr_scan", "ios": "https://dc.lft.to/lastmile_qr_scan"}, "lon": -77.04331166666667, "name": "0793b5cf2383f555c5b3a22e9d2ab4a6", "lat": 38.903938, "is_reserved": 0, "fusion_lat": 0.0, "bike_id": "0793b5cf2383f555c5b3a22e9d2ab4a6", "type": "electric_scooter", "is_disabled": 0, "fusion_lon": 0.0}, {"rental_uris": {"android": "https://dc.lft.to/lastmile_qr_scan", "ios": "https://dc.lft.to/lastmile_qr_scan"}, "lon": -77.02721716666667, "name": "04bdb3d169da3a85254d4b4f454e5101", "lat": 38.90796616666667, "is_reserved": 0, "fusion_lat": 0.0, "bike_id": "04bdb3d169da3a85254d4b4f454e5101", "type": "electric_scooter", "is_disabled": 0, "fusion_lon": 0.0}, {"rental_uris": {"android": "https://dc.lft.to/lastmile_qr_scan", "ios": "https://dc.lft.to/lastmile_qr_scan"}, "lon": -76.926566, "name": "3bf80644ae628816c84d7e02e8a7a653", "lat": 38.90170833333333, "is_reserved": 0, "fusion_lat": 0.0, "bike_id": "3bf80644ae628816c84d7e02e8a7a653", "type": "electric_scooter", "is_disabled": 0, "fusion_lon": 0.0}, {"rental_uris": {"android": "https://dc.lft.to/lastmile_qr_scan", "ios": "https://dc.lft.to/lastmile_qr_scan"}, "lon": -76.9524515, "name": "514bc144ac24648983a69ba828eb4af4", "lat": 38.890461333333334, "is_reserved": 0, "fusion_lat": 0.0, "bike_id": "514bc144ac24648983a69ba828eb4af4", "type": "electric_scooter", "is_disabled": 0, "fusion_lon": 0.0}, {"rental_uris": {"android": "https://dc.lft.to/lastmile_qr_scan", "ios": "https://dc.lft.to/lastmile_qr_scan"}, "lon": -77.02210883333333, "name": "2f9e99b2f91aae44c73e029657c215ab", "lat": 38.903051833333336, "is_reserved": 0, "fusion_lat": 0.0, "bike_id": "2f9e99b2f91aae44c73e029657c215ab", "type": "electric_scooter", "is_disabled": 0, "fusion_lon": 0.0}, {"rental_uris": {"android": "https://dc.lft.to/lastmile_qr_scan", "ios": "https://dc.lft.to/lastmile_qr_scan"}, "lon": -77.03522483333333, "name": "be931482b0fd0b139b81eee0e522845e", "lat": 38.922441666666664, "is_reserved": 0, "fusion_lat": 0.0, "bike_id": "be931482b0fd0b139b81eee0e522845e", "type": "electric_scooter", "is_disabled": 0, "fusion_lon": 0.0}, {"rental_uris": {"android": "https://dc.lft.to/lastmile_qr_scan", "ios": "https://dc.lft.to/lastmile_qr_scan"}, "lon": -77.02387916666666, "name": "27f0614145583bc2aeebaa5bfd023d96", "lat": 38.91958183333333, "is_reserved": 0, "fusion_lat": 0.0, "bike_id": "27f0614145583bc2aeebaa5bfd023d96", "type": "electric_scooter", "is_disabled": 0, "fusion_lon": 0.0}, {"rental_uris": {"android": "https://dc.lft.to/lastmile_qr_scan", "ios": "https://dc.lft.to/lastmile_qr_scan"}, "lon": -77.01359733333334, "name": "5142d16441c62cf6543253a3d91d5fcb", "lat": 38.8978455, "is_reserved": 0, "fusion_lat": 0.0, "bike_id": "5142d16441c62cf6543253a3d91d5fcb", "type": "electric_scooter", "is_disabled": 0, "fusion_lon": 0.0}, {"rental_uris": {"android": "https://dc.lft.to/lastmile_qr_scan", "ios": "https://dc.lft.to/lastmile_qr_scan"}, "lon": -77.03176466666666, "name": "f6f6f215b73b2cb408095800749c059d", "lat": 38.907329833333336, "is_reserved": 0, "fusion_lat": 0.0, "bike_id": "f6f6f215b73b2cb408095800749c059d", "type": "electric_scooter", "is_disabled": 0, "fusion_lon": 0.0}, {"rental_uris": {"android": "https://dc.lft.to/lastmile_qr_scan", "ios": "https://dc.lft.to/lastmile_qr_scan"}, "lon": -77.02636166666667, "name": "22f0a9020f66765ea8c2fb1f8fb9fe17", "lat": 38.90421416666667, "is_reserved": 0, "fusion_lat": 0.0, "bike_id": "22f0a9020f66765ea8c2fb1f8fb9fe17", "type": "electric_scooter", "is_disabled": 0, "fusion_lon": 0.0}, {"rental_uris": {"android": "https://dc.lft.to/lastmile_qr_scan", "ios": "https://dc.lft.to/lastmile_qr_scan"}, "lon": -77.027339, "name": "9efcefed05bf835eace4d7dab6f2bea1", "lat": 38.92865916666667, "is_reserved": 0, "fusion_lat": 0.0, "bike_id": "9efcefed05bf835eace4d7dab6f2bea1", "type": "electric_scooter", "is_disabled": 0, "fusion_lon": 0.0}, {"rental_uris": {"android": "https://dc.lft.to/lastmile_qr_scan", "ios": "https://dc.lft.to/lastmile_qr_scan"}, "lon": -77.03410316666667, "name": "fc7c755bdb51f489795e1c150f205df4", "lat": 38.924412833333335, "is_reserved": 0, "fusion_lat": 0.0, "bike_id": "fc7c755bdb51f489795e1c150f205df4", "type": "electric_scooter", "is_disabled": 0, "fusion_lon": 0.0}, {"rental_uris": {"android": "https://dc.lft.to/lastmile_qr_scan", "ios": "https://dc.lft.to/lastmile_qr_scan"}, "lon": -77.036415, "name": "f92c0bdb8c8f0717274870bfa4432402", "lat": 38.914588333333334, "is_reserved": 0, "fusion_lat": 0.0, "bike_id": "f92c0bdb8c8f0717274870bfa4432402", "type": "electric_scooter", "is_disabled": 0, "fusion_lon": 0.0}, {"rental_uris": {"android": "https://dc.lft.to/lastmile_qr_scan", "ios": "https://dc.lft.to/lastmile_qr_scan"}, "lon": -77.02529483333333, "name": "c699a858c8ea77f7ce848ca122aedcb8", "lat": 38.93750816666667, "is_reserved": 0, "fusion_lat": 0.0, "bike_id": "c699a858c8ea77f7ce848ca122aedcb8", "type": "electric_scooter", "is_disabled": 0, "fusion_lon": 0.0}, {"rental_uris": {"android": "https://dc.lft.to/lastmile_qr_scan", "ios": "https://dc.lft.to/lastmile_qr_scan"}, "lon": -76.9887975, "name": "ffd87131ce8a5b89f1cd1cd496a2a76b", "lat": 38.86657783333333, "is_reserved": 0, "fusion_lat": 0.0, "bike_id": "ffd87131ce8a5b89f1cd1cd496a2a76b", "type": "electric_scooter", "is_disabled": 0, "fusion_lon": 0.0}, {"rental_uris": {"android": "https://dc.lft.to/lastmile_qr_scan", "ios": "https://dc.lft.to/lastmile_qr_scan"}, "lon": -77.01024566666666, "name": "ba092dc295ae8e87715be5390ebd8b6c", "lat": 38.920278333333336, "is_reserved": 0, "fusion_lat": 0.0, "bike_id": "ba092dc295ae8e87715be5390ebd8b6c", "type": "electric_scooter", "is_disabled": 0, "fusion_lon": 0.0}, {"rental_uris": {"android": "https://dc.lft.to/lastmile_qr_scan", "ios": "https://dc.lft.to/lastmile_qr_scan"}, "lon": -77.02134233333334, "name": "0b04c0107a706cdb76cdc661f9f3b458", "lat": 38.924904166666664, "is_reserved": 0, "fusion_lat": 0.0, "bike_id": "0b04c0107a706cdb76cdc661f9f3b458", "type": "electric_scooter", "is_disabled": 0, "fusion_lon": 0.0}, {"rental_uris": {"android": "https://dc.lft.to/lastmile_qr_scan", "ios": "https://dc.lft.to/lastmile_qr_scan"}, "lon": -76.98160483333334, "name": "3dda958d7ee474bd42b7c81eef7f2535", "lat": 38.89943616666667, "is_reserved": 0, "fusion_lat": 0.0, "bike_id": "3dda958d7ee474bd42b7c81eef7f2535", "type": "electric_scooter", "is_disabled": 0, "fusion_lon": 0.0}, {"rental_uris": {"android": "https://dc.lft.to/lastmile_qr_scan", "ios": "https://dc.lft.to/lastmile_qr_scan"}, "lon": -77.03642533333333, "name": "b51dd5ed2844354556b0364aee4b6057", "lat": 38.922995666666665, "is_reserved": 0, "fusion_lat": 0.0, "bike_id": "b51dd5ed2844354556b0364aee4b6057", "type": "electric_scooter", "is_disabled": 0, "fusion_lon": 0.0}, {"rental_uris": {"android": "https://dc.lft.to/lastmile_qr_scan", "ios": "https://dc.lft.to/lastmile_qr_scan"}, "lon": -77.0316605, "name": "6e161b1443af55f1387426c7c6d425db", "lat": 38.8933665, "is_reserved": 0, "fusion_lat": 0.0, "bike_id": "6e161b1443af55f1387426c7c6d425db", "type": "electric_scooter", "is_disabled": 0, "fusion_lon": 0.0}, {"rental_uris": {"android": "https://dc.lft.to/lastmile_qr_scan", "ios": "https://dc.lft.to/lastmile_qr_scan"}, "lon": -77.0633175, "name": "578a4112fb0947bfe45ee6a622672f17", "lat": 38.921110166666665, "is_reserved": 0, "fusion_lat": 0.0, "bike_id": "578a4112fb0947bfe45ee6a622672f17", "type": "electric_scooter", "is_disabled": 0, "fusion_lon": 0.0}, {"rental_uris": {"android": "https://dc.lft.to/lastmile_qr_scan", "ios": "https://dc.lft.to/lastmile_qr_scan"}, "lon": -77.02336783333334, "name": "2b837be6613e168a06dc5d0ff70a2545", "lat": 38.9311725, "is_reserved": 0, "fusion_lat": 0.0, "bike_id": "2b837be6613e168a06dc5d0ff70a2545", "type": "electric_scooter", "is_disabled": 0, "fusion_lon": 0.0}, {"rental_uris": {"android": "https://dc.lft.to/lastmile_qr_scan", "ios": "https://dc.lft.to/lastmile_qr_scan"}, "lon": -77.02163783333333, "name": "1e313874834fad2b019dd8bd06957cdd", "lat": 38.914706333333335, "is_reserved": 0, "fusion_lat": 0.0, "bike_id": "1e313874834fad2b019dd8bd06957cdd", "type": "electric_scooter", "is_disabled": 0, "fusion_lon": 0.0}, {"rental_uris": {"android": "https://dc.lft.to/lastmile_qr_scan", "ios": "https://dc.lft.to/lastmile_qr_scan"}, "lon": -77.0688015, "name": "185c5e4efa94885e46b97f7d017530ab", "lat": 38.90500883333333, "is_reserved": 0, "fusion_lat": 0.0, "bike_id": "185c5e4efa94885e46b97f7d017530ab", "type": "electric_scooter", "is_disabled": 0, "fusion_lon": 0.0}, {"rental_uris": {"android": "https://dc.lft.to/lastmile_qr_scan", "ios": "https://dc.lft.to/lastmile_qr_scan"}, "lon": -77.0121035, "name": "3de095eba0ebeac0c44df470cc10c4a3", "lat": 38.91903333333333, "is_reserved": 0, "fusion_lat": 0.0, "bike_id": "3de095eba0ebeac0c44df470cc10c4a3", "type": "electric_scooter", "is_disabled": 0, "fusion_lon": 0.0}, {"rental_uris": {"android": "https://dc.lft.to/lastmile_qr_scan", "ios": "https://dc.lft.to/lastmile_qr_scan"}, "lon": -77.03179116666666, "name": "75f10ffd4bf24099beb5ea82aa1c71b3", "lat": 38.907309833333336, "is_reserved": 0, "fusion_lat": 0.0, "bike_id": "75f10ffd4bf24099beb5ea82aa1c71b3", "type": "electric_scooter", "is_disabled": 0, "fusion_lon": 0.0}, {"rental_uris": {"android": "https://dc.lft.to/lastmile_qr_scan", "ios": "https://dc.lft.to/lastmile_qr_scan"}, "lon": -77.0248165, "name": "6451cbe3fc071179a67bba53915401cb", "lat": 38.938827833333335, "is_reserved": 0, "fusion_lat": 0.0, "bike_id": "6451cbe3fc071179a67bba53915401cb", "type": "electric_scooter", "is_disabled": 0, "fusion_lon": 0.0}, {"rental_uris": {"android": "https://dc.lft.to/lastmile_qr_scan", "ios": "https://dc.lft.to/lastmile_qr_scan"}, "lon": -77.03362916666667, "name": "5a491b5a59cea8ae23f7817002bca3b7", "lat": 38.93213166666666, "is_reserved": 0, "fusion_lat": 0.0, "bike_id": "5a491b5a59cea8ae23f7817002bca3b7", "type": "electric_scooter", "is_disabled": 0, "fusion_lon": 0.0}, {"rental_uris": {"android": "https://dc.lft.to/lastmile_qr_scan", "ios": "https://dc.lft.to/lastmile_qr_scan"}, "lon": -77.04699166666667, "name": "3a7c81896e5b848f1424c634eccb4ed6", "lat": 38.92176583333333, "is_reserved": 0, "fusion_lat": 0.0, "bike_id": "3a7c81896e5b848f1424c634eccb4ed6", "type": "electric_scooter", "is_disabled": 0, "fusion_lon": 0.0}, {"rental_uris": {"android": "https://dc.lft.to/lastmile_qr_scan", "ios": "https://dc.lft.to/lastmile_qr_scan"}, "lon": -76.99850033333334, "name": "f01c410e07656444bd1bf250b507ee7e", "lat": 38.907622, "is_reserved": 0, "fusion_lat": 0.0, "bike_id": "f01c410e07656444bd1bf250b507ee7e", "type": "electric_scooter", "is_disabled": 0, "fusion_lon": 0.0}, {"rental_uris": {"android": "https://dc.lft.to/lastmile_qr_scan", "ios": "https://dc.lft.to/lastmile_qr_scan"}, "lon": -77.02681916666667, "name": "46935b0f476ede1b262e0c5f38c6b011", "lat": 38.90720866666667, "is_reserved": 0, "fusion_lat": 0.0, "bike_id": "46935b0f476ede1b262e0c5f38c6b011", "type": "electric_scooter", "is_disabled": 0, "fusion_lon": 0.0}, {"rental_uris": {"android": "https://dc.lft.to/lastmile_qr_scan", "ios": "https://dc.lft.to/lastmile_qr_scan"}, "lon": -77.04347333333334, "name": "9bbda91c0f1b8ef4d3b2dcededc4e985", "lat": 38.923506, "is_reserved": 0, "fusion_lat": 0.0, "bike_id": "9bbda91c0f1b8ef4d3b2dcededc4e985", "type": "electric_scooter", "is_disabled": 0, "fusion_lon": 0.0}, {"rental_uris": {"android": "https://dc.lft.to/lastmile_qr_scan", "ios": "https://dc.lft.to/lastmile_qr_scan"}, "lon": -77.0311095, "name": "d97b600249688f6bff3015c1b5f47717", "lat": 38.919210166666666, "is_reserved": 0, "fusion_lat": 0.0, "bike_id": "d97b600249688f6bff3015c1b5f47717", "type": "electric_scooter", "is_disabled": 0, "fusion_lon": 0.0}, {"rental_uris": {"android": "https://dc.lft.to/lastmile_qr_scan", "ios": "https://dc.lft.to/lastmile_qr_scan"}, "lon": -77.03650733333333, "name": "5e90a98985f6112ccbe40bb54e51a526", "lat": 38.918705833333334, "is_reserved": 0, "fusion_lat": 0.0, "bike_id": "5e90a98985f6112ccbe40bb54e51a526", "type": "electric_scooter", "is_disabled": 0, "fusion_lon": 0.0}, {"rental_uris": {"android": "https://dc.lft.to/lastmile_qr_scan", "ios": "https://dc.lft.to/lastmile_qr_scan"}, "lon": -77.05526583333334, "name": "151a65c1be3da60afc735021c7c422b6", "lat": 38.89731366666667, "is_reserved": 0, "fusion_lat": 0.0, "bike_id": "151a65c1be3da60afc735021c7c422b6", "type": "electric_scooter", "is_disabled": 0, "fusion_lon": 0.0}, {"rental_uris": {"android": "https://dc.lft.to/lastmile_qr_scan", "ios": "https://dc.lft.to/lastmile_qr_scan"}, "lon": -76.985612, "name": "c9f253f481e69815b445cb8926710b75", "lat": 38.88374, "is_reserved": 0, "fusion_lat": 0.0, "bike_id": "c9f253f481e69815b445cb8926710b75", "type": "electric_scooter", "is_disabled": 0, "fusion_lon": 0.0}, {"rental_uris": {"android": "https://dc.lft.to/lastmile_qr_scan", "ios": "https://dc.lft.to/lastmile_qr_scan"}, "lon": -77.0646945, "name": "3b4aa0d6c199a53e465d2b0b443aee8d", "lat": 38.9738155, "is_reserved": 0, "fusion_lat": 0.0, "bike_id": "3b4aa0d6c199a53e465d2b0b443aee8d", "type": "electric_bike", "is_disabled": 0, "fusion_lon": 0.0}, {"rental_uris": {"android": "https://dc.lft.to/lastmile_qr_scan", "ios": "https://dc.lft.to/lastmile_qr_scan"}, "lon": -77.03200816666667, "name": "87e41372413e475fa236872f40f17a8e", "lat": 38.916273, "is_reserved": 0, "fusion_lat": 0.0, "bike_id": "87e41372413e475fa236872f40f17a8e", "type": "electric_scooter", "is_disabled": 0, "fusion_lon": 0.0}, {"rental_uris": {"android": "https://dc.lft.to/lastmile_qr_scan", "ios": "https://dc.lft.to/lastmile_qr_scan"}, "lon": -77.038342, "name": "d7266a4bfd694f62314fecda5ba5d367", "lat": 38.90271533333333, "is_reserved": 0, "fusion_lat": 0.0, "bike_id": "d7266a4bfd694f62314fecda5ba5d367", "type": "electric_scooter", "is_disabled": 0, "fusion_lon": 0.0}, {"rental_uris": {"android": "https://dc.lft.to/lastmile_qr_scan", "ios": "https://dc.lft.to/lastmile_qr_scan"}, "lon": -77.03181783333333, "name": "9ee010f5b60c2689f41090d32e3be5c1", "lat": 38.92093716666667, "is_reserved": 0, "fusion_lat": 0.0, "bike_id": "9ee010f5b60c2689f41090d32e3be5c1", "type": "electric_scooter", "is_disabled": 0, "fusion_lon": 0.0}, {"rental_uris": {"android": "https://dc.lft.to/lastmile_qr_scan", "ios": "https://dc.lft.to/lastmile_qr_scan"}, "lon": -77.03426633333333, "name": "b04f9492ee8c3f10f5a0082ae13ea914", "lat": 38.9652955, "is_reserved": 0, "fusion_lat": 0.0, "bike_id": "b04f9492ee8c3f10f5a0082ae13ea914", "type": "electric_bike", "is_disabled": 0, "fusion_lon": 0.0}, {"rental_uris": {"android": "https://dc.lft.to/lastmile_qr_scan", "ios": "https://dc.lft.to/lastmile_qr_scan"}, "lon": -76.94634866666667, "name": "fac188db37cf4ae05bf3cd4af9733e57", "lat": 38.898674, "is_reserved": 0, "fusion_lat": 0.0, "bike_id": "fac188db37cf4ae05bf3cd4af9733e57", "type": "electric_scooter", "is_disabled": 0, "fusion_lon": 0.0}, {"rental_uris": {"android": "https://dc.lft.to/lastmile_qr_scan", "ios": "https://dc.lft.to/lastmile_qr_scan"}, "lon": -76.9777865, "name": "cc88790f9e664c9b27c816e184fd6091", "lat": 38.891889666666664, "is_reserved": 0, "fusion_lat": 0.0, "bike_id": "cc88790f9e664c9b27c816e184fd6091", "type": "electric_bike", "is_disabled": 0, "fusion_lon": 0.0}, {"rental_uris": {"android": "https://dc.lft.to/lastmile_qr_scan", "ios": "https://dc.lft.to/lastmile_qr_scan"}, "lon": -77.04865783333334, "name": "9ef84f086414caa05271e82b99b53f80", "lat": 38.91622983333333, "is_reserved": 0, "fusion_lat": 0.0, "bike_id": "9ef84f086414caa05271e82b99b53f80", "type": "electric_scooter", "is_disabled": 0, "fusion_lon": 0.0}, {"rental_uris": {"android": "https://dc.lft.to/lastmile_qr_scan", "ios": "https://dc.lft.to/lastmile_qr_scan"}, "lon": -77.02700433333334, "name": "617ecfaedcf4d748699adc56c67af9e7", "lat": 38.91630333333333, "is_reserved": 0, "fusion_lat": 0.0, "bike_id": "617ecfaedcf4d748699adc56c67af9e7", "type": "electric_scooter", "is_disabled": 0, "fusion_lon": 0.0}, {"rental_uris": {"android": "https://dc.lft.to/lastmile_qr_scan", "ios": "https://dc.lft.to/lastmile_qr_scan"}, "lon": -77.04043316666667, "name": "a02c6fefe01f0381a2c82c987da79670", "lat": 38.902342833333336, "is_reserved": 0, "fusion_lat": 0.0, "bike_id": "a02c6fefe01f0381a2c82c987da79670", "type": "electric_scooter", "is_disabled": 0, "fusion_lon": 0.0}, {"rental_uris": {"android": "https://dc.lft.to/lastmile_qr_scan", "ios": "https://dc.lft.to/lastmile_qr_scan"}, "lon": -77.045468, "name": "36ddf049f5c496732f42079e887d59a7", "lat": 38.898697, "is_reserved": 0, "fusion_lat": 0.0, "bike_id": "36ddf049f5c496732f42079e887d59a7", "type": "electric_scooter", "is_disabled": 0, "fusion_lon": 0.0}, {"rental_uris": {"android": "https://dc.lft.to/lastmile_qr_scan", "ios": "https://dc.lft.to/lastmile_qr_scan"}, "lon": -77.02566833333333, "name": "c7720554c854a71777a8d0fb0363d5c6", "lat": 38.927834, "is_reserved": 0, "fusion_lat": 0.0, "bike_id": "c7720554c854a71777a8d0fb0363d5c6", "type": "electric_scooter", "is_disabled": 0, "fusion_lon": 0.0}, {"rental_uris": {"android": "https://dc.lft.to/lastmile_qr_scan", "ios": "https://dc.lft.to/lastmile_qr_scan"}, "lon": -77.0241275, "name": "159f5e5db1ba701ce17e09a06fa49d6b", "lat": 38.89224733333333, "is_reserved": 0, "fusion_lat": 0.0, "bike_id": "159f5e5db1ba701ce17e09a06fa49d6b", "type": "electric_scooter", "is_disabled": 0, "fusion_lon": 0.0}, {"rental_uris": {"android": "https://dc.lft.to/lastmile_qr_scan", "ios": "https://dc.lft.to/lastmile_qr_scan"}, "lon": -76.95753316666666, "name": "50c5e302832fb6c612094510fa9e57b7", "lat": 38.884276166666666, "is_reserved": 0, "fusion_lat": 0.0, "bike_id": "50c5e302832fb6c612094510fa9e57b7", "type": "electric_scooter", "is_disabled": 0, "fusion_lon": 0.0}, {"rental_uris": {"android": "https://dc.lft.to/lastmile_qr_scan", "ios": "https://dc.lft.to/lastmile_qr_scan"}, "lon": -77.02720633333334, "name": "4b0795193a4b092742eabc4877d18dfa", "lat": 38.951881166666666, "is_reserved": 0, "fusion_lat": 0.0, "bike_id": "4b0795193a4b092742eabc4877d18dfa", "type": "electric_scooter", "is_disabled": 0, "fusion_lon": 0.0}, {"rental_uris": {"android": "https://dc.lft.to/lastmile_qr_scan", "ios": "https://dc.lft.to/lastmile_qr_scan"}, "lon": -77.02856966666667, "name": "d3f93ed7824e58150ada693bbafa2710", "lat": 38.91703116666667, "is_reserved": 0, "fusion_lat": 0.0, "bike_id": "d3f93ed7824e58150ada693bbafa2710", "type": "electric_scooter", "is_disabled": 0, "fusion_lon": 0.0}, {"rental_uris": {"android": "https://dc.lft.to/lastmile_qr_scan", "ios": "https://dc.lft.to/lastmile_qr_scan"}, "lon": -77.0344725, "name": "06c4f2c8bf7790a1220bc2cc14e0407f", "lat": 38.9029005, "is_reserved": 0, "fusion_lat": 0.0, "bike_id": "06c4f2c8bf7790a1220bc2cc14e0407f", "type": "electric_scooter", "is_disabled": 0, "fusion_lon": 0.0}, {"rental_uris": {"android": "https://dc.lft.to/lastmile_qr_scan", "ios": "https://dc.lft.to/lastmile_qr_scan"}, "lon": -77.037505, "name": "dc62f0507078896839e919ea7a408f80", "lat": 38.91691766666667, "is_reserved": 0, "fusion_lat": 0.0, "bike_id": "dc62f0507078896839e919ea7a408f80", "type": "electric_scooter", "is_disabled": 0, "fusion_lon": 0.0}, {"rental_uris": {"android": "https://dc.lft.to/lastmile_qr_scan", "ios": "https://dc.lft.to/lastmile_qr_scan"}, "lon": -77.02112816666667, "name": "7fae6a178c4bb5b39e2ecd791f41a1ec", "lat": 38.9275415, "is_reserved": 0, "fusion_lat": 0.0, "bike_id": "7fae6a178c4bb5b39e2ecd791f41a1ec", "type": "electric_scooter", "is_disabled": 0, "fusion_lon": 0.0}, {"rental_uris": {"android": "https://dc.lft.to/lastmile_qr_scan", "ios": "https://dc.lft.to/lastmile_qr_scan"}, "lon": -77.07188133333334, "name": "a2bbcac4379febaf17a6aa44c0fcd5d7", "lat": 38.9091575, "is_reserved": 0, "fusion_lat": 0.0, "bike_id": "a2bbcac4379febaf17a6aa44c0fcd5d7", "type": "electric_scooter", "is_disabled": 0, "fusion_lon": 0.0}, {"rental_uris": {"android": "https://dc.lft.to/lastmile_qr_scan", "ios": "https://dc.lft.to/lastmile_qr_scan"}, "lon": -77.03179216666666, "name": "cf182cbdcf0a9fd8563ed0c6a14347a1", "lat": 38.901057333333334, "is_reserved": 0, "fusion_lat": 0.0, "bike_id": "cf182cbdcf0a9fd8563ed0c6a14347a1", "type": "electric_scooter", "is_disabled": 0, "fusion_lon": 0.0}, {"rental_uris": {"android": "https://dc.lft.to/lastmile_qr_scan", "ios": "https://dc.lft.to/lastmile_qr_scan"}, "lon": -77.04529666666667, "name": "4727a3f271a28c7fb18e0b3bd439362e", "lat": 38.92318316666667, "is_reserved": 0, "fusion_lat": 0.0, "bike_id": "4727a3f271a28c7fb18e0b3bd439362e", "type": "electric_scooter", "is_disabled": 0, "fusion_lon": 0.0}, {"rental_uris": {"android": "https://dc.lft.to/lastmile_qr_scan", "ios": "https://dc.lft.to/lastmile_qr_scan"}, "lon": -76.94246216666667, "name": "5ec4712485ba3564ecf3f1f7fd29136f", "lat": 38.893057666666664, "is_reserved": 0, "fusion_lat": 0.0, "bike_id": "5ec4712485ba3564ecf3f1f7fd29136f", "type": "electric_scooter", "is_disabled": 0, "fusion_lon": 0.0}, {"rental_uris": {"android": "https://dc.lft.to/lastmile_qr_scan", "ios": "https://dc.lft.to/lastmile_qr_scan"}, "lon": -77.03223666666666, "name": "6d67cae8aef26b89102a29af9924c169", "lat": 38.917057, "is_reserved": 0, "fusion_lat": 0.0, "bike_id": "6d67cae8aef26b89102a29af9924c169", "type": "electric_scooter", "is_disabled": 0, "fusion_lon": 0.0}, {"rental_uris": {"android": "https://dc.lft.to/lastmile_qr_scan", "ios": "https://dc.lft.to/lastmile_qr_scan"}, "lon": -77.03659516666667, "name": "26d4c126755c6add9d52354aa42cc7a8", "lat": 38.9238745, "is_reserved": 0, "fusion_lat": 0.0, "bike_id": "26d4c126755c6add9d52354aa42cc7a8", "type": "electric_scooter", "is_disabled": 0, "fusion_lon": 0.0}, {"rental_uris": {"android": "https://dc.lft.to/lastmile_qr_scan", "ios": "https://dc.lft.to/lastmile_qr_scan"}, "lon": -77.004925, "name": "b24da3c2e4b2fc2342fdceab5830f57b", "lat": 38.874699666666665, "is_reserved": 0, "fusion_lat": 0.0, "bike_id": "b24da3c2e4b2fc2342fdceab5830f57b", "type": "electric_scooter", "is_disabled": 0, "fusion_lon": 0.0}, {"rental_uris": {"android": "https://dc.lft.to/lastmile_qr_scan", "ios": "https://dc.lft.to/lastmile_qr_scan"}, "lon": -77.05487833333333, "name": "e6edcc893ac2f9cc2fb59d63bb650259", "lat": 38.90161283333333, "is_reserved": 0, "fusion_lat": 0.0, "bike_id": "e6edcc893ac2f9cc2fb59d63bb650259", "type": "electric_scooter", "is_disabled": 0, "fusion_lon": 0.0}, {"rental_uris": {"android": "https://dc.lft.to/lastmile_qr_scan", "ios": "https://dc.lft.to/lastmile_qr_scan"}, "lon": -77.03957016666666, "name": "6d5c677e812b6135c6108ff8d20d7300", "lat": 38.89241966666667, "is_reserved": 0, "fusion_lat": 0.0, "bike_id": "6d5c677e812b6135c6108ff8d20d7300", "type": "electric_scooter", "is_disabled": 0, "fusion_lon": 0.0}, {"rental_uris": {"android": "https://dc.lft.to/lastmile_qr_scan", "ios": "https://dc.lft.to/lastmile_qr_scan"}, "lon": -77.039952, "name": "32c232e82c696a2470f56a59afe57936", "lat": 38.9176255, "is_reserved": 0, "fusion_lat": 0.0, "bike_id": "32c232e82c696a2470f56a59afe57936", "type": "electric_scooter", "is_disabled": 0, "fusion_lon": 0.0}, {"rental_uris": {"android": "https://dc.lft.to/lastmile_qr_scan", "ios": "https://dc.lft.to/lastmile_qr_scan"}, "lon": -77.01771766666667, "name": "1c80d52ee0f44f153d9f46d0ca1c59c0", "lat": 38.87220166666667, "is_reserved": 0, "fusion_lat": 0.0, "bike_id": "1c80d52ee0f44f153d9f46d0ca1c59c0", "type": "electric_scooter", "is_disabled": 0, "fusion_lon": 0.0}, {"rental_uris": {"android": "https://dc.lft.to/lastmile_qr_scan", "ios": "https://dc.lft.to/lastmile_qr_scan"}, "lon": -77.01597216666667, "name": "1ca13f0806406b3afbb59b7af4697ab9", "lat": 38.9271535, "is_reserved": 0, "fusion_lat": 0.0, "bike_id": "1ca13f0806406b3afbb59b7af4697ab9", "type": "electric_scooter", "is_disabled": 0, "fusion_lon": 0.0}, {"rental_uris": {"android": "https://dc.lft.to/lastmile_qr_scan", "ios": "https://dc.lft.to/lastmile_qr_scan"}, "lon": -77.05149183333333, "name": "b3d77a544950026b9936d99a604e06cb", "lat": 38.896686833333334, "is_reserved": 0, "fusion_lat": 0.0, "bike_id": "b3d77a544950026b9936d99a604e06cb", "type": "electric_scooter", "is_disabled": 0, "fusion_lon": 0.0}, {"rental_uris": {"android": "https://dc.lft.to/lastmile_qr_scan", "ios": "https://dc.lft.to/lastmile_qr_scan"}, "lon": -77.0509395, "name": "5f66c5d6b944517a667e8aadbdc15251", "lat": 38.813314, "is_reserved": 0, "fusion_lat": 0.0, "bike_id": "5f66c5d6b944517a667e8aadbdc15251", "type": "electric_bike", "is_disabled": 0, "fusion_lon": 0.0}, {"rental_uris": {"android": "https://dc.lft.to/lastmile_qr_scan", "ios": "https://dc.lft.to/lastmile_qr_scan"}, "lon": -77.0319315, "name": "e24b883672a458f34f324247cde90b72", "lat": 38.916358333333335, "is_reserved": 0, "fusion_lat": 0.0, "bike_id": "e24b883672a458f34f324247cde90b72", "type": "electric_scooter", "is_disabled": 0, "fusion_lon": 0.0}, {"rental_uris": {"android": "https://dc.lft.to/lastmile_qr_scan", "ios": "https://dc.lft.to/lastmile_qr_scan"}, "lon": -77.01975216666666, "name": "6a196591a6fa4fa9a575173dda58e9d0", "lat": 38.883531833333336, "is_reserved": 0, "fusion_lat": 0.0, "bike_id": "6a196591a6fa4fa9a575173dda58e9d0", "type": "electric_scooter", "is_disabled": 0, "fusion_lon": 0.0}, {"rental_uris": {"android": "https://dc.lft.to/lastmile_qr_scan", "ios": "https://dc.lft.to/lastmile_qr_scan"}, "lon": -77.025651, "name": "4b37f6ae53df4b56127cb0381aa777f7", "lat": 38.92382166666667, "is_reserved": 0, "fusion_lat": 0.0, "bike_id": "4b37f6ae53df4b56127cb0381aa777f7", "type": "electric_scooter", "is_disabled": 0, "fusion_lon": 0.0}, {"rental_uris": {"android": "https://dc.lft.to/lastmile_qr_scan", "ios": "https://dc.lft.to/lastmile_qr_scan"}, "lon": -77.01200683333333, "name": "d1af90c829456956d41784d20c6bcfa8", "lat": 38.92763633333333, "is_reserved": 0, "fusion_lat": 0.0, "bike_id": "d1af90c829456956d41784d20c6bcfa8", "type": "electric_scooter", "is_disabled": 0, "fusion_lon": 0.0}, {"rental_uris": {"android": "https://dc.lft.to/lastmile_qr_scan", "ios": "https://dc.lft.to/lastmile_qr_scan"}, "lon": -77.06100633333334, "name": "74c3aa4a591d6b2c0e82522466c5bd29", "lat": 38.90524716666667, "is_reserved": 0, "fusion_lat": 0.0, "bike_id": "74c3aa4a591d6b2c0e82522466c5bd29", "type": "electric_scooter", "is_disabled": 0, "fusion_lon": 0.0}, {"rental_uris": {"android": "https://dc.lft.to/lastmile_qr_scan", "ios": "https://dc.lft.to/lastmile_qr_scan"}, "lon": -77.229272, "name": "fff86793e91cb357fded0d1808655a30", "lat": 38.931959, "is_reserved": 0, "fusion_lat": 0.0, "bike_id": "fff86793e91cb357fded0d1808655a30", "type": "electric_bike", "is_disabled": 0, "fusion_lon": 0.0}, {"rental_uris": {"android": "https://dc.lft.to/lastmile_qr_scan", "ios": "https://dc.lft.to/lastmile_qr_scan"}, "lon": -77.02476933333334, "name": "8ece32e315c8bb13e94fbc4cde56bb03", "lat": 38.88298366666667, "is_reserved": 0, "fusion_lat": 0.0, "bike_id": "8ece32e315c8bb13e94fbc4cde56bb03", "type": "electric_scooter", "is_disabled": 0, "fusion_lon": 0.0}, {"rental_uris": {"android": "https://dc.lft.to/lastmile_qr_scan", "ios": "https://dc.lft.to/lastmile_qr_scan"}, "lon": -77.04730716666667, "name": "19733b34ec9da8dce72ee66cce8f4725", "lat": 38.902550166666664, "is_reserved": 0, "fusion_lat": 0.0, "bike_id": "19733b34ec9da8dce72ee66cce8f4725", "type": "electric_scooter", "is_disabled": 0, "fusion_lon": 0.0}, {"rental_uris": {"android": "https://dc.lft.to/lastmile_qr_scan", "ios": "https://dc.lft.to/lastmile_qr_scan"}, "lon": -76.998557, "name": "24d1508b14a75ef1311f1daf4893527e", "lat": 38.900314, "is_reserved": 0, "fusion_lat": 0.0, "bike_id": "24d1508b14a75ef1311f1daf4893527e", "type": "electric_scooter", "is_disabled": 0, "fusion_lon": 0.0}, {"rental_uris": {"android": "https://dc.lft.to/lastmile_qr_scan", "ios": "https://dc.lft.to/lastmile_qr_scan"}, "lon": -77.017719, "name": "fe1e7296773768ef7d810700723f2e80", "lat": 38.9204725, "is_reserved": 0, "fusion_lat": 0.0, "bike_id": "fe1e7296773768ef7d810700723f2e80", "type": "electric_scooter", "is_disabled": 0, "fusion_lon": 0.0}, {"rental_uris": {"android": "https://dc.lft.to/lastmile_qr_scan", "ios": "https://dc.lft.to/lastmile_qr_scan"}, "lon": -77.03288116666667, "name": "8e374b0f5426e656b1d9cd2f098b04ee", "lat": 38.93257283333333, "is_reserved": 0, "fusion_lat": 0.0, "bike_id": "8e374b0f5426e656b1d9cd2f098b04ee", "type": "electric_scooter", "is_disabled": 0, "fusion_lon": 0.0}, {"rental_uris": {"android": "https://dc.lft.to/lastmile_qr_scan", "ios": "https://dc.lft.to/lastmile_qr_scan"}, "lon": -76.99547166666666, "name": "f6321264680211201429666425726d18", "lat": 38.83159883333333, "is_reserved": 0, "fusion_lat": 0.0, "bike_id": "f6321264680211201429666425726d18", "type": "electric_bike", "is_disabled": 0, "fusion_lon": 0.0}, {"rental_uris": {"android": "https://dc.lft.to/lastmile_qr_scan", "ios": "https://dc.lft.to/lastmile_qr_scan"}, "lon": -77.0198065, "name": "37f6eacaeb5738d19401226448162030", "lat": 38.911647, "is_reserved": 0, "fusion_lat": 0.0, "bike_id": "37f6eacaeb5738d19401226448162030", "type": "electric_scooter", "is_disabled": 0, "fusion_lon": 0.0}, {"rental_uris": {"android": "https://dc.lft.to/lastmile_qr_scan", "ios": "https://dc.lft.to/lastmile_qr_scan"}, "lon": -77.02359816666667, "name": "ef8367bbc636a52d43ab4d46d2c02224", "lat": 38.9019835, "is_reserved": 0, "fusion_lat": 0.0, "bike_id": "ef8367bbc636a52d43ab4d46d2c02224", "type": "electric_scooter", "is_disabled": 0, "fusion_lon": 0.0}, {"rental_uris": {"android": "https://dc.lft.to/lastmile_qr_scan", "ios": "https://dc.lft.to/lastmile_qr_scan"}, "lon": -77.03489816666666, "name": "7935defff7bc7937cd47cdb8bc5cc6be", "lat": 38.900236166666666, "is_reserved": 0, "fusion_lat": 0.0, "bike_id": "7935defff7bc7937cd47cdb8bc5cc6be", "type": "electric_scooter", "is_disabled": 0, "fusion_lon": 0.0}, {"rental_uris": {"android": "https://dc.lft.to/lastmile_qr_scan", "ios": "https://dc.lft.to/lastmile_qr_scan"}, "lon": -77.00424316666667, "name": "ea072164f7ceace12e9f9a023ec6e96b", "lat": 38.87723533333333, "is_reserved": 0, "fusion_lat": 0.0, "bike_id": "ea072164f7ceace12e9f9a023ec6e96b", "type": "electric_scooter", "is_disabled": 0, "fusion_lon": 0.0}, {"rental_uris": {"android": "https://dc.lft.to/lastmile_qr_scan", "ios": "https://dc.lft.to/lastmile_qr_scan"}, "lon": -76.972255, "name": "a0ffc112c3d87cce87f84e17b870ee7a", "lat": 38.90033833333333, "is_reserved": 0, "fusion_lat": 0.0, "bike_id": "a0ffc112c3d87cce87f84e17b870ee7a", "type": "electric_bike", "is_disabled": 0, "fusion_lon": 0.0}, {"rental_uris": {"android": "https://dc.lft.to/lastmile_qr_scan", "ios": "https://dc.lft.to/lastmile_qr_scan"}, "lon": -77.02376016666666, "name": "9d3e8b851615370473026e3ed7df2345", "lat": 38.953033166666664, "is_reserved": 0, "fusion_lat": 0.0, "bike_id": "9d3e8b851615370473026e3ed7df2345", "type": "electric_scooter", "is_disabled": 0, "fusion_lon": 0.0}, {"rental_uris": {"android": "https://dc.lft.to/lastmile_qr_scan", "ios": "https://dc.lft.to/lastmile_qr_scan"}, "lon": -77.028411, "name": "b6f3dbd125c1cfa3313648d0a05db099", "lat": 38.92470483333334, "is_reserved": 0, "fusion_lat": 0.0, "bike_id": "b6f3dbd125c1cfa3313648d0a05db099", "type": "electric_scooter", "is_disabled": 0, "fusion_lon": 0.0}, {"rental_uris": {"android": "https://dc.lft.to/lastmile_qr_scan", "ios": "https://dc.lft.to/lastmile_qr_scan"}, "lon": -76.99977566666666, "name": "b6d680699b559ccbac3e8d08af2c4390", "lat": 38.90836683333333, "is_reserved": 0, "fusion_lat": 0.0, "bike_id": "b6d680699b559ccbac3e8d08af2c4390", "type": "electric_scooter", "is_disabled": 0, "fusion_lon": 0.0}, {"rental_uris": {"android": "https://dc.lft.to/lastmile_qr_scan", "ios": "https://dc.lft.to/lastmile_qr_scan"}, "lon": -76.94651033333334, "name": "8f7c4f4121e8460bc94f2c9a54ed8a58", "lat": 38.898303, "is_reserved": 0, "fusion_lat": 0.0, "bike_id": "8f7c4f4121e8460bc94f2c9a54ed8a58", "type": "electric_scooter", "is_disabled": 0, "fusion_lon": 0.0}, {"rental_uris": {"android": "https://dc.lft.to/lastmile_qr_scan", "ios": "https://dc.lft.to/lastmile_qr_scan"}, "lon": -76.9856845, "name": "5a38d1e1e5594e21ccbabda9a16c42f6", "lat": 38.866823333333336, "is_reserved": 0, "fusion_lat": 0.0, "bike_id": "5a38d1e1e5594e21ccbabda9a16c42f6", "type": "electric_scooter", "is_disabled": 0, "fusion_lon": 0.0}, {"rental_uris": {"android": "https://dc.lft.to/lastmile_qr_scan", "ios": "https://dc.lft.to/lastmile_qr_scan"}, "lon": -77.02485816666666, "name": "9c902bd6ccb444d1efe7ff5e965c53ae", "lat": 38.938895, "is_reserved": 0, "fusion_lat": 0.0, "bike_id": "9c902bd6ccb444d1efe7ff5e965c53ae", "type": "electric_scooter", "is_disabled": 0, "fusion_lon": 0.0}, {"rental_uris": {"android": "https://dc.lft.to/lastmile_qr_scan", "ios": "https://dc.lft.to/lastmile_qr_scan"}, "lon": -76.98054216666667, "name": "9c0a13d9a18a14defa2273f78d1ccf96", "lat": 38.88532266666667, "is_reserved": 0, "fusion_lat": 0.0, "bike_id": "9c0a13d9a18a14defa2273f78d1ccf96", "type": "electric_scooter", "is_disabled": 0, "fusion_lon": 0.0}, {"rental_uris": {"android": "https://dc.lft.to/lastmile_qr_scan", "ios": "https://dc.lft.to/lastmile_qr_scan"}, "lon": -76.9938025, "name": "418badbf196df0899dec9ba9def75450", "lat": 38.9909825, "is_reserved": 0, "fusion_lat": 0.0, "bike_id": "418badbf196df0899dec9ba9def75450", "type": "electric_bike", "is_disabled": 0, "fusion_lon": 0.0}, {"rental_uris": {"android": "https://dc.lft.to/lastmile_qr_scan", "ios": "https://dc.lft.to/lastmile_qr_scan"}, "lon": -77.01886883333333, "name": "e37240a9021439b2b3a3bd66cacd401a", "lat": 38.90062066666667, "is_reserved": 0, "fusion_lat": 0.0, "bike_id": "e37240a9021439b2b3a3bd66cacd401a", "type": "electric_scooter", "is_disabled": 0, "fusion_lon": 0.0}, {"rental_uris": {"android": "https://dc.lft.to/lastmile_qr_scan", "ios": "https://dc.lft.to/lastmile_qr_scan"}, "lon": -77.00438916666667, "name": "8a5d19facf71cc88a5b2e49bc94b08e9", "lat": 38.87721466666667, "is_reserved": 0, "fusion_lat": 0.0, "bike_id": "8a5d19facf71cc88a5b2e49bc94b08e9", "type": "electric_scooter", "is_disabled": 0, "fusion_lon": 0.0}, {"rental_uris": {"android": "https://dc.lft.to/lastmile_qr_scan", "ios": "https://dc.lft.to/lastmile_qr_scan"}, "lon": -77.02206216666667, "name": "5cb8ca18518c7e1bbe995dbf9c0c1e8f", "lat": 38.892300166666665, "is_reserved": 0, "fusion_lat": 0.0, "bike_id": "5cb8ca18518c7e1bbe995dbf9c0c1e8f", "type": "electric_scooter", "is_disabled": 0, "fusion_lon": 0.0}, {"rental_uris": {"android": "https://dc.lft.to/lastmile_qr_scan", "ios": "https://dc.lft.to/lastmile_qr_scan"}, "lon": -77.02665483333334, "name": "df72ad1b524ad36fcd535fbc8a91ec55", "lat": 38.9310185, "is_reserved": 0, "fusion_lat": 0.0, "bike_id": "df72ad1b524ad36fcd535fbc8a91ec55", "type": "electric_scooter", "is_disabled": 0, "fusion_lon": 0.0}, {"rental_uris": {"android": "https://dc.lft.to/lastmile_qr_scan", "ios": "https://dc.lft.to/lastmile_qr_scan"}, "lon": -77.02785983333334, "name": "2d9ac93d14eb8fd5e5e52dedd688b403", "lat": 38.93863833333333, "is_reserved": 0, "fusion_lat": 0.0, "bike_id": "2d9ac93d14eb8fd5e5e52dedd688b403", "type": "electric_scooter", "is_disabled": 0, "fusion_lon": 0.0}, {"rental_uris": {"android": "https://dc.lft.to/lastmile_qr_scan", "ios": "https://dc.lft.to/lastmile_qr_scan"}, "lon": -77.01726233333333, "name": "0e5b570a9587e658f3677ba76b82ad8d", "lat": 38.900484, "is_reserved": 0, "fusion_lat": 0.0, "bike_id": "0e5b570a9587e658f3677ba76b82ad8d", "type": "electric_scooter", "is_disabled": 0, "fusion_lon": 0.0}, {"rental_uris": {"android": "https://dc.lft.to/lastmile_qr_scan", "ios": "https://dc.lft.to/lastmile_qr_scan"}, "lon": -77.01444316666667, "name": "7aea470c1725741cc49331a836691a8f", "lat": 38.9751135, "is_reserved": 0, "fusion_lat": 0.0, "bike_id": "7aea470c1725741cc49331a836691a8f", "type": "electric_scooter", "is_disabled": 0, "fusion_lon": 0.0}, {"rental_uris": {"android": "https://dc.lft.to/lastmile_qr_scan", "ios": "https://dc.lft.to/lastmile_qr_scan"}, "lon": -76.98195033333333, "name": "e76127d97e15b8fea45555985614c0e5", "lat": 38.92063016666667, "is_reserved": 0, "fusion_lat": 0.0, "bike_id": "e76127d97e15b8fea45555985614c0e5", "type": "electric_scooter", "is_disabled": 0, "fusion_lon": 0.0}, {"rental_uris": {"android": "https://dc.lft.to/lastmile_qr_scan", "ios": "https://dc.lft.to/lastmile_qr_scan"}, "lon": -77.03631533333333, "name": "6656ee4b1fb241507b7c58d2c09c4e5b", "lat": 38.93289516666667, "is_reserved": 0, "fusion_lat": 0.0, "bike_id": "6656ee4b1fb241507b7c58d2c09c4e5b", "type": "electric_bike", "is_disabled": 0, "fusion_lon": 0.0}, {"rental_uris": {"android": "https://dc.lft.to/lastmile_qr_scan", "ios": "https://dc.lft.to/lastmile_qr_scan"}, "lon": -76.96559733333333, "name": "bbc7ac411f8471306b212593777d929d", "lat": 38.91848733333333, "is_reserved": 0, "fusion_lat": 0.0, "bike_id": "bbc7ac411f8471306b212593777d929d", "type": "electric_scooter", "is_disabled": 0, "fusion_lon": 0.0}, {"rental_uris": {"android": "https://dc.lft.to/lastmile_qr_scan", "ios": "https://dc.lft.to/lastmile_qr_scan"}, "lon": -77.00054316666667, "name": "9ded6e18e4f6e9222c01213e39e9089a", "lat": 38.894369833333336, "is_reserved": 0, "fusion_lat": 0.0, "bike_id": "9ded6e18e4f6e9222c01213e39e9089a", "type": "electric_scooter", "is_disabled": 0, "fusion_lon": 0.0}, {"rental_uris": {"android": "https://dc.lft.to/lastmile_qr_scan", "ios": "https://dc.lft.to/lastmile_qr_scan"}, "lon": -77.02491266666667, "name": "0edfc8c3c684a6f44de7cb03e897b6a8", "lat": 38.941820666666665, "is_reserved": 0, "fusion_lat": 0.0, "bike_id": "0edfc8c3c684a6f44de7cb03e897b6a8", "type": "electric_bike", "is_disabled": 0, "fusion_lon": 0.0}, {"rental_uris": {"android": "https://dc.lft.to/lastmile_qr_scan", "ios": "https://dc.lft.to/lastmile_qr_scan"}, "lon": -76.996582, "name": "1ae5746927ed504fe1273aedf39cb5b4", "lat": 38.81611766666666, "is_reserved": 0, "fusion_lat": 0.0, "bike_id": "1ae5746927ed504fe1273aedf39cb5b4", "type": "electric_bike", "is_disabled": 0, "fusion_lon": 0.0}, {"rental_uris": {"android": "https://dc.lft.to/lastmile_qr_scan", "ios": "https://dc.lft.to/lastmile_qr_scan"}, "lon": -76.9723775, "name": "52b89eb88c6622ae583fec2fd1af721e", "lat": 38.904242333333336, "is_reserved": 0, "fusion_lat": 0.0, "bike_id": "52b89eb88c6622ae583fec2fd1af721e", "type": "electric_bike", "is_disabled": 0, "fusion_lon": 0.0}, {"rental_uris": {"android": "https://dc.lft.to/lastmile_qr_scan", "ios": "https://dc.lft.to/lastmile_qr_scan"}, "lon": -76.98765983333334, "name": "47ccf57c6614501d58705785efa8b829", "lat": 38.9002765, "is_reserved": 0, "fusion_lat": 0.0, "bike_id": "47ccf57c6614501d58705785efa8b829", "type": "electric_scooter", "is_disabled": 0, "fusion_lon": 0.0}, {"rental_uris": {"android": "https://dc.lft.to/lastmile_qr_scan", "ios": "https://dc.lft.to/lastmile_qr_scan"}, "lon": -77.03251016666667, "name": "74ecf587e8ebc77d3d762a99320981cf", "lat": 38.914206, "is_reserved": 0, "fusion_lat": 0.0, "bike_id": "74ecf587e8ebc77d3d762a99320981cf", "type": "electric_scooter", "is_disabled": 0, "fusion_lon": 0.0}, {"rental_uris": {"android": "https://dc.lft.to/lastmile_qr_scan", "ios": "https://dc.lft.to/lastmile_qr_scan"}, "lon": -76.95835283333334, "name": "c9eee52583151d009264c0123bc3c48d", "lat": 38.93047816666667, "is_reserved": 0, "fusion_lat": 0.0, "bike_id": "c9eee52583151d009264c0123bc3c48d", "type": "electric_bike", "is_disabled": 0, "fusion_lon": 0.0}, {"rental_uris": {"android": "https://dc.lft.to/lastmile_qr_scan", "ios": "https://dc.lft.to/lastmile_qr_scan"}, "lon": -77.024842, "name": "27eafceb08897d9c9445f89ccda6eee2", "lat": 38.91922533333333, "is_reserved": 0, "fusion_lat": 0.0, "bike_id": "27eafceb08897d9c9445f89ccda6eee2", "type": "electric_scooter", "is_disabled": 0, "fusion_lon": 0.0}, {"rental_uris": {"android": "https://dc.lft.to/lastmile_qr_scan", "ios": "https://dc.lft.to/lastmile_qr_scan"}, "lon": -77.04499, "name": "03c83c46d190977f9b23f088fac72b28", "lat": 39.01412533333333, "is_reserved": 0, "fusion_lat": 0.0, "bike_id": "03c83c46d190977f9b23f088fac72b28", "type": "electric_bike", "is_disabled": 0, "fusion_lon": 0.0}, {"rental_uris": {"android": "https://dc.lft.to/lastmile_qr_scan", "ios": "https://dc.lft.to/lastmile_qr_scan"}, "lon": -77.0224075, "name": "c2d731a151e9d7376a682a99feb9753a", "lat": 38.981083166666664, "is_reserved": 0, "fusion_lat": 0.0, "bike_id": "c2d731a151e9d7376a682a99feb9753a", "type": "electric_scooter", "is_disabled": 0, "fusion_lon": 0.0}, {"rental_uris": {"android": "https://dc.lft.to/lastmile_qr_scan", "ios": "https://dc.lft.to/lastmile_qr_scan"}, "lon": -77.04443366666666, "name": "13f3d7e8d80eb25148f5fc0f23acdb4b", "lat": 38.922309166666665, "is_reserved": 0, "fusion_lat": 0.0, "bike_id": "13f3d7e8d80eb25148f5fc0f23acdb4b", "type": "electric_scooter", "is_disabled": 0, "fusion_lon": 0.0}, {"rental_uris": {"android": "https://dc.lft.to/lastmile_qr_scan", "ios": "https://dc.lft.to/lastmile_qr_scan"}, "lon": -77.02838466666667, "name": "05cb5327758e0f795d84364f8cad704c", "lat": 38.893753, "is_reserved": 0, "fusion_lat": 0.0, "bike_id": "05cb5327758e0f795d84364f8cad704c", "type": "electric_scooter", "is_disabled": 0, "fusion_lon": 0.0}, {"rental_uris": {"android": "https://dc.lft.to/lastmile_qr_scan", "ios": "https://dc.lft.to/lastmile_qr_scan"}, "lon": -77.09962, "name": "7a159d9f966b847834a9c6fd433c5c95", "lat": 38.85792, "is_reserved": 0, "fusion_lat": 0.0, "bike_id": "7a159d9f966b847834a9c6fd433c5c95", "type": "electric_bike", "is_disabled": 0, "fusion_lon": 0.0}, {"rental_uris": {"android": "https://dc.lft.to/lastmile_qr_scan", "ios": "https://dc.lft.to/lastmile_qr_scan"}, "lon": -77.05391083333333, "name": "dd1dfdf709a042d0f1d1689ba631c7b4", "lat": 38.910694666666664, "is_reserved": 0, "fusion_lat": 0.0, "bike_id": "dd1dfdf709a042d0f1d1689ba631c7b4", "type": "electric_scooter", "is_disabled": 0, "fusion_lon": 0.0}, {"rental_uris": {"android": "https://dc.lft.to/lastmile_qr_scan", "ios": "https://dc.lft.to/lastmile_qr_scan"}, "lon": -77.0217765, "name": "6be7af0db9f6e579e1782c6f47d7c3d2", "lat": 38.892973833333336, "is_reserved": 0, "fusion_lat": 0.0, "bike_id": "6be7af0db9f6e579e1782c6f47d7c3d2", "type": "electric_scooter", "is_disabled": 0, "fusion_lon": 0.0}, {"rental_uris": {"android": "https://dc.lft.to/lastmile_qr_scan", "ios": "https://dc.lft.to/lastmile_qr_scan"}, "lon": -77.00736383333333, "name": "bf4fecda96ed207cb97ddf6800b2bcc1", "lat": 38.89772416666667, "is_reserved": 0, "fusion_lat": 0.0, "bike_id": "bf4fecda96ed207cb97ddf6800b2bcc1", "type": "electric_scooter", "is_disabled": 0, "fusion_lon": 0.0}, {"rental_uris": {"android": "https://dc.lft.to/lastmile_qr_scan", "ios": "https://dc.lft.to/lastmile_qr_scan"}, "lon": -77.034481, "name": "282b30e45feec2f87076f6b2b1773819", "lat": 38.907138, "is_reserved": 0, "fusion_lat": 0.0, "bike_id": "282b30e45feec2f87076f6b2b1773819", "type": "electric_scooter", "is_disabled": 0, "fusion_lon": 0.0}, {"rental_uris": {"android": "https://dc.lft.to/lastmile_qr_scan", "ios": "https://dc.lft.to/lastmile_qr_scan"}, "lon": -77.05032166666666, "name": "da49a16a637e4825e6fd003d9d9d0ee0", "lat": 38.896604333333336, "is_reserved": 0, "fusion_lat": 0.0, "bike_id": "da49a16a637e4825e6fd003d9d9d0ee0", "type": "electric_scooter", "is_disabled": 0, "fusion_lon": 0.0}, {"rental_uris": {"android": "https://dc.lft.to/lastmile_qr_scan", "ios": "https://dc.lft.to/lastmile_qr_scan"}, "lon": -77.03522783333334, "name": "e6f669abb46478ea4f4f42a7c52275d2", "lat": 38.91841133333333, "is_reserved": 0, "fusion_lat": 0.0, "bike_id": "e6f669abb46478ea4f4f42a7c52275d2", "type": "electric_scooter", "is_disabled": 0, "fusion_lon": 0.0}, {"rental_uris": {"android": "https://dc.lft.to/lastmile_qr_scan", "ios": "https://dc.lft.to/lastmile_qr_scan"}, "lon": -76.9941005, "name": "a123d1293f314d5007546b9b2abd77cb", "lat": 38.877843666666664, "is_reserved": 0, "fusion_lat": 0.0, "bike_id": "a123d1293f314d5007546b9b2abd77cb", "type": "electric_scooter", "is_disabled": 0, "fusion_lon": 0.0}, {"rental_uris": {"android": "https://dc.lft.to/lastmile_qr_scan", "ios": "https://dc.lft.to/lastmile_qr_scan"}, "lon": -77.00177683333334, "name": "c72a1049b09fd915f3e23d21e668bb3d", "lat": 38.90699016666667, "is_reserved": 0, "fusion_lat": 0.0, "bike_id": "c72a1049b09fd915f3e23d21e668bb3d", "type": "electric_scooter", "is_disabled": 0, "fusion_lon": 0.0}, {"rental_uris": {"android": "https://dc.lft.to/lastmile_qr_scan", "ios": "https://dc.lft.to/lastmile_qr_scan"}, "lon": -77.033569, "name": "ea4663ed4297fe3c7149dfd14040fef4", "lat": 38.92537566666667, "is_reserved": 0, "fusion_lat": 0.0, "bike_id": "ea4663ed4297fe3c7149dfd14040fef4", "type": "electric_scooter", "is_disabled": 0, "fusion_lon": 0.0}, {"rental_uris": {"android": "https://dc.lft.to/lastmile_qr_scan", "ios": "https://dc.lft.to/lastmile_qr_scan"}, "lon": -77.02916766666667, "name": "2113e26689b002f4b728f005daf34c91", "lat": 38.9230885, "is_reserved": 0, "fusion_lat": 0.0, "bike_id": "2113e26689b002f4b728f005daf34c91", "type": "electric_scooter", "is_disabled": 0, "fusion_lon": 0.0}, {"rental_uris": {"android": "https://dc.lft.to/lastmile_qr_scan", "ios": "https://dc.lft.to/lastmile_qr_scan"}, "lon": -76.9732925, "name": "b19ff4da52f6823635a488d0212ff264", "lat": 38.90409666666667, "is_reserved": 0, "fusion_lat": 0.0, "bike_id": "b19ff4da52f6823635a488d0212ff264", "type": "electric_scooter", "is_disabled": 0, "fusion_lon": 0.0}, {"rental_uris": {"android": "https://dc.lft.to/lastmile_qr_scan", "ios": "https://dc.lft.to/lastmile_qr_scan"}, "lon": -77.03853133333334, "name": "4fdad9ea2500180005731537bd512526", "lat": 38.915485333333336, "is_reserved": 0, "fusion_lat": 0.0, "bike_id": "4fdad9ea2500180005731537bd512526", "type": "electric_scooter", "is_disabled": 0, "fusion_lon": 0.0}, {"rental_uris": {"android": "https://dc.lft.to/lastmile_qr_scan", "ios": "https://dc.lft.to/lastmile_qr_scan"}, "lon": -77.00204, "name": "6f3df632820bcfb20cbddf9b690cffbf", "lat": 38.902368833333334, "is_reserved": 0, "fusion_lat": 0.0, "bike_id": "6f3df632820bcfb20cbddf9b690cffbf", "type": "electric_scooter", "is_disabled": 0, "fusion_lon": 0.0}, {"rental_uris": {"android": "https://dc.lft.to/lastmile_qr_scan", "ios": "https://dc.lft.to/lastmile_qr_scan"}, "lon": -77.02822766666667, "name": "044aa1001e63185730c9f6fa97f8f989", "lat": 38.899208, "is_reserved": 0, "fusion_lat": 0.0, "bike_id": "044aa1001e63185730c9f6fa97f8f989", "type": "electric_scooter", "is_disabled": 0, "fusion_lon": 0.0}, {"rental_uris": {"android": "https://dc.lft.to/lastmile_qr_scan", "ios": "https://dc.lft.to/lastmile_qr_scan"}, "lon": -77.06029283333334, "name": "98dde5009b381a665715582e204c456e", "lat": 38.97882283333333, "is_reserved": 0, "fusion_lat": 0.0, "bike_id": "98dde5009b381a665715582e204c456e", "type": "electric_bike", "is_disabled": 0, "fusion_lon": 0.0}, {"rental_uris": {"android": "https://dc.lft.to/lastmile_qr_scan", "ios": "https://dc.lft.to/lastmile_qr_scan"}, "lon": -77.03444366666666, "name": "d304e3e41b98c32cf32d5b85934bec07", "lat": 38.920516666666664, "is_reserved": 0, "fusion_lat": 0.0, "bike_id": "d304e3e41b98c32cf32d5b85934bec07", "type": "electric_scooter", "is_disabled": 0, "fusion_lon": 0.0}, {"rental_uris": {"android": "https://dc.lft.to/lastmile_qr_scan", "ios": "https://dc.lft.to/lastmile_qr_scan"}, "lon": -77.03187416666667, "name": "7fa353da596a8b6764f6d9e5b204021d", "lat": 38.892473833333334, "is_reserved": 0, "fusion_lat": 0.0, "bike_id": "7fa353da596a8b6764f6d9e5b204021d", "type": "electric_scooter", "is_disabled": 0, "fusion_lon": 0.0}, {"rental_uris": {"android": "https://dc.lft.to/lastmile_qr_scan", "ios": "https://dc.lft.to/lastmile_qr_scan"}, "lon": -77.04710616666667, "name": "db99252b8c14b292e79208a4dd432a18", "lat": 38.9211125, "is_reserved": 0, "fusion_lat": 0.0, "bike_id": "db99252b8c14b292e79208a4dd432a18", "type": "electric_scooter", "is_disabled": 0, "fusion_lon": 0.0}, {"rental_uris": {"android": "https://dc.lft.to/lastmile_qr_scan", "ios": "https://dc.lft.to/lastmile_qr_scan"}, "lon": -76.94770966666667, "name": "853872f2b8626daddab272470c546402", "lat": 38.8960585, "is_reserved": 0, "fusion_lat": 0.0, "bike_id": "853872f2b8626daddab272470c546402", "type": "electric_scooter", "is_disabled": 0, "fusion_lon": 0.0}, {"rental_uris": {"android": "https://dc.lft.to/lastmile_qr_scan", "ios": "https://dc.lft.to/lastmile_qr_scan"}, "lon": -76.9485665, "name": "b64a800f4e88f3b6cede8fc8a3812a0a", "lat": 38.8830145, "is_reserved": 0, "fusion_lat": 0.0, "bike_id": "b64a800f4e88f3b6cede8fc8a3812a0a", "type": "electric_scooter", "is_disabled": 0, "fusion_lon": 0.0}, {"rental_uris": {"android": "https://dc.lft.to/lastmile_qr_scan", "ios": "https://dc.lft.to/lastmile_qr_scan"}, "lon": -76.94892383333334, "name": "cfd72ce3252010247086d743054140a4", "lat": 38.89532533333333, "is_reserved": 0, "fusion_lat": 0.0, "bike_id": "cfd72ce3252010247086d743054140a4", "type": "electric_scooter", "is_disabled": 0, "fusion_lon": 0.0}, {"rental_uris": {"android": "https://dc.lft.to/lastmile_qr_scan", "ios": "https://dc.lft.to/lastmile_qr_scan"}, "lon": -76.951556, "name": "099308ce5f928a935448c6969b9cdb23", "lat": 38.88524533333333, "is_reserved": 0, "fusion_lat": 0.0, "bike_id": "099308ce5f928a935448c6969b9cdb23", "type": "electric_bike", "is_disabled": 0, "fusion_lon": 0.0}, {"rental_uris": {"android": "https://dc.lft.to/lastmile_qr_scan", "ios": "https://dc.lft.to/lastmile_qr_scan"}, "lon": -76.99006266666666, "name": "be4bbdfd0c0167a1c1461ac78535e040", "lat": 38.86507, "is_reserved": 0, "fusion_lat": 0.0, "bike_id": "be4bbdfd0c0167a1c1461ac78535e040", "type": "electric_scooter", "is_disabled": 0, "fusion_lon": 0.0}, {"rental_uris": {"android": "https://dc.lft.to/lastmile_qr_scan", "ios": "https://dc.lft.to/lastmile_qr_scan"}, "lon": -77.02450983333334, "name": "08ad5c4a18d7c2962f50bae6dc75fc48", "lat": 38.920383333333334, "is_reserved": 0, "fusion_lat": 0.0, "bike_id": "08ad5c4a18d7c2962f50bae6dc75fc48", "type": "electric_scooter", "is_disabled": 0, "fusion_lon": 0.0}, {"rental_uris": {"android": "https://dc.lft.to/lastmile_qr_scan", "ios": "https://dc.lft.to/lastmile_qr_scan"}, "lon": -77.02185066666667, "name": "36607066baefb648abf28ff8a75aa8e1", "lat": 38.91565166666667, "is_reserved": 0, "fusion_lat": 0.0, "bike_id": "36607066baefb648abf28ff8a75aa8e1", "type": "electric_scooter", "is_disabled": 0, "fusion_lon": 0.0}, {"rental_uris": {"android": "https://dc.lft.to/lastmile_qr_scan", "ios": "https://dc.lft.to/lastmile_qr_scan"}, "lon": -76.988252, "name": "de24ea7fc40cfe778fd8b2ba09855ddf", "lat": 38.900386166666664, "is_reserved": 0, "fusion_lat": 0.0, "bike_id": "de24ea7fc40cfe778fd8b2ba09855ddf", "type": "electric_scooter", "is_disabled": 0, "fusion_lon": 0.0}, {"rental_uris": {"android": "https://dc.lft.to/lastmile_qr_scan", "ios": "https://dc.lft.to/lastmile_qr_scan"}, "lon": -77.03204466666666, "name": "902147bf9b15ac7c81fc907a765935c8", "lat": 38.9037335, "is_reserved": 0, "fusion_lat": 0.0, "bike_id": "902147bf9b15ac7c81fc907a765935c8", "type": "electric_scooter", "is_disabled": 0, "fusion_lon": 0.0}, {"rental_uris": {"android": "https://dc.lft.to/lastmile_qr_scan", "ios": "https://dc.lft.to/lastmile_qr_scan"}, "lon": -77.04160666666667, "name": "f6dd1e3ae6f0f5a3a5a22e1efbf827d9", "lat": 38.892337833333336, "is_reserved": 0, "fusion_lat": 0.0, "bike_id": "f6dd1e3ae6f0f5a3a5a22e1efbf827d9", "type": "electric_scooter", "is_disabled": 0, "fusion_lon": 0.0}, {"rental_uris": {"android": "https://dc.lft.to/lastmile_qr_scan", "ios": "https://dc.lft.to/lastmile_qr_scan"}, "lon": -77.03285983333333, "name": "44406d82cf89fb580e9ee1dde396f85a", "lat": 38.93689116666667, "is_reserved": 0, "fusion_lat": 0.0, "bike_id": "44406d82cf89fb580e9ee1dde396f85a", "type": "electric_scooter", "is_disabled": 0, "fusion_lon": 0.0}, {"rental_uris": {"android": "https://dc.lft.to/lastmile_qr_scan", "ios": "https://dc.lft.to/lastmile_qr_scan"}, "lon": -77.03074866666667, "name": "1e073d7e3dbd14ba89959f3cd4af2ed9", "lat": 38.93307133333333, "is_reserved": 0, "fusion_lat": 0.0, "bike_id": "1e073d7e3dbd14ba89959f3cd4af2ed9", "type": "electric_scooter", "is_disabled": 0, "fusion_lon": 0.0}, {"rental_uris": {"android": "https://dc.lft.to/lastmile_qr_scan", "ios": "https://dc.lft.to/lastmile_qr_scan"}, "lon": -77.028752, "name": "b3d1f2361db245df072b8f115b0e67ff", "lat": 38.95725983333333, "is_reserved": 0, "fusion_lat": 0.0, "bike_id": "b3d1f2361db245df072b8f115b0e67ff", "type": "electric_scooter", "is_disabled": 0, "fusion_lon": 0.0}, {"rental_uris": {"android": "https://dc.lft.to/lastmile_qr_scan", "ios": "https://dc.lft.to/lastmile_qr_scan"}, "lon": -77.04448816666667, "name": "b3e2a750044406f38939ccb927fc572d", "lat": 38.90557916666667, "is_reserved": 0, "fusion_lat": 0.0, "bike_id": "b3e2a750044406f38939ccb927fc572d", "type": "electric_scooter", "is_disabled": 0, "fusion_lon": 0.0}, {"rental_uris": {"android": "https://dc.lft.to/lastmile_qr_scan", "ios": "https://dc.lft.to/lastmile_qr_scan"}, "lon": -77.02524816666667, "name": "8c7b16740d0af409921dca0e8cff4880", "lat": 38.906552, "is_reserved": 0, "fusion_lat": 0.0, "bike_id": "8c7b16740d0af409921dca0e8cff4880", "type": "electric_scooter", "is_disabled": 0, "fusion_lon": 0.0}, {"rental_uris": {"android": "https://dc.lft.to/lastmile_qr_scan", "ios": "https://dc.lft.to/lastmile_qr_scan"}, "lon": -76.9566345, "name": "5ac229e31a22ac30f0992b24b62dfa62", "lat": 38.88473, "is_reserved": 0, "fusion_lat": 0.0, "bike_id": "5ac229e31a22ac30f0992b24b62dfa62", "type": "electric_bike", "is_disabled": 0, "fusion_lon": 0.0}, {"rental_uris": {"android": "https://dc.lft.to/lastmile_qr_scan", "ios": "https://dc.lft.to/lastmile_qr_scan"}, "lon": -77.05533816666667, "name": "c6ccbe9a4c4aa809c9e0b070b7c8503e", "lat": 38.9279325, "is_reserved": 0, "fusion_lat": 0.0, "bike_id": "c6ccbe9a4c4aa809c9e0b070b7c8503e", "type": "electric_scooter", "is_disabled": 0, "fusion_lon": 0.0}, {"rental_uris": {"android": "https://dc.lft.to/lastmile_qr_scan", "ios": "https://dc.lft.to/lastmile_qr_scan"}, "lon": -77.0271575, "name": "9a590fa1cc5775feef2edaab37487f95", "lat": 38.9278295, "is_reserved": 0, "fusion_lat": 0.0, "bike_id": "9a590fa1cc5775feef2edaab37487f95", "type": "electric_scooter", "is_disabled": 0, "fusion_lon": 0.0}, {"rental_uris": {"android": "https://dc.lft.to/lastmile_qr_scan", "ios": "https://dc.lft.to/lastmile_qr_scan"}, "lon": -77.03288566666667, "name": "f99faef75d1a77ec01afb4e978782a80", "lat": 38.9368985, "is_reserved": 0, "fusion_lat": 0.0, "bike_id": "f99faef75d1a77ec01afb4e978782a80", "type": "electric_scooter", "is_disabled": 0, "fusion_lon": 0.0}, {"rental_uris": {"android": "https://dc.lft.to/lastmile_qr_scan", "ios": "https://dc.lft.to/lastmile_qr_scan"}, "lon": -77.02159516666667, "name": "f2ee215d5c6c6ce1a14075ff10abc8a7", "lat": 38.87924316666667, "is_reserved": 0, "fusion_lat": 0.0, "bike_id": "f2ee215d5c6c6ce1a14075ff10abc8a7", "type": "electric_scooter", "is_disabled": 0, "fusion_lon": 0.0}, {"rental_uris": {"android": "https://dc.lft.to/lastmile_qr_scan", "ios": "https://dc.lft.to/lastmile_qr_scan"}, "lon": -77.04712433333333, "name": "c4db03145bd66193979db9c505220987", "lat": 38.89734766666667, "is_reserved": 0, "fusion_lat": 0.0, "bike_id": "c4db03145bd66193979db9c505220987", "type": "electric_scooter", "is_disabled": 0, "fusion_lon": 0.0}, {"rental_uris": {"android": "https://dc.lft.to/lastmile_qr_scan", "ios": "https://dc.lft.to/lastmile_qr_scan"}, "lon": -77.04309433333333, "name": "3b181eceac54a965ea0deb081c2b245b", "lat": 39.0341575, "is_reserved": 0, "fusion_lat": 0.0, "bike_id": "3b181eceac54a965ea0deb081c2b245b", "type": "electric_bike", "is_disabled": 0, "fusion_lon": 0.0}, {"rental_uris": {"android": "https://dc.lft.to/lastmile_qr_scan", "ios": "https://dc.lft.to/lastmile_qr_scan"}, "lon": -77.03191616666666, "name": "8039cae99d1e90f8a57d0c57847efaab", "lat": 38.91830516666667, "is_reserved": 0, "fusion_lat": 0.0, "bike_id": "8039cae99d1e90f8a57d0c57847efaab", "type": "electric_scooter", "is_disabled": 0, "fusion_lon": 0.0}, {"rental_uris": {"android": "https://dc.lft.to/lastmile_qr_scan", "ios": "https://dc.lft.to/lastmile_qr_scan"}, "lon": -77.025868, "name": "ef9b75a845762fff5fb71e1cc6cbbb06", "lat": 38.901717166666664, "is_reserved": 0, "fusion_lat": 0.0, "bike_id": "ef9b75a845762fff5fb71e1cc6cbbb06", "type": "electric_scooter", "is_disabled": 0, "fusion_lon": 0.0}, {"rental_uris": {"android": "https://dc.lft.to/lastmile_qr_scan", "ios": "https://dc.lft.to/lastmile_qr_scan"}, "lon": -77.04234266666667, "name": "6641b4d005b1050ff1bf77dec7010212", "lat": 38.921799, "is_reserved": 0, "fusion_lat": 0.0, "bike_id": "6641b4d005b1050ff1bf77dec7010212", "type": "electric_scooter", "is_disabled": 0, "fusion_lon": 0.0}, {"rental_uris": {"android": "https://dc.lft.to/lastmile_qr_scan", "ios": "https://dc.lft.to/lastmile_qr_scan"}, "lon": -76.9849905, "name": "45d8539e654b7c3fa88e0cb2caaa47ad", "lat": 38.906848, "is_reserved": 0, "fusion_lat": 0.0, "bike_id": "45d8539e654b7c3fa88e0cb2caaa47ad", "type": "electric_scooter", "is_disabled": 0, "fusion_lon": 0.0}, {"rental_uris": {"android": "https://dc.lft.to/lastmile_qr_scan", "ios": "https://dc.lft.to/lastmile_qr_scan"}, "lon": -77.00067233333333, "name": "580bf44f0cc25fb14f228327676afa94", "lat": 38.876868333333334, "is_reserved": 0, "fusion_lat": 0.0, "bike_id": "580bf44f0cc25fb14f228327676afa94", "type": "electric_scooter", "is_disabled": 0, "fusion_lon": 0.0}, {"rental_uris": {"android": "https://dc.lft.to/lastmile_qr_scan", "ios": "https://dc.lft.to/lastmile_qr_scan"}, "lon": -77.02198583333333, "name": "dfb89fa8e7261b4ed92132de3e02d091", "lat": 38.91009116666667, "is_reserved": 0, "fusion_lat": 0.0, "bike_id": "dfb89fa8e7261b4ed92132de3e02d091", "type": "electric_scooter", "is_disabled": 0, "fusion_lon": 0.0}, {"rental_uris": {"android": "https://dc.lft.to/lastmile_qr_scan", "ios": "https://dc.lft.to/lastmile_qr_scan"}, "lon": -77.03504616666666, "name": "d43d35c82bc5b91337c2225c8f03def8", "lat": 38.921505333333336, "is_reserved": 0, "fusion_lat": 0.0, "bike_id": "d43d35c82bc5b91337c2225c8f03def8", "type": "electric_scooter", "is_disabled": 0, "fusion_lon": 0.0}, {"rental_uris": {"android": "https://dc.lft.to/lastmile_qr_scan", "ios": "https://dc.lft.to/lastmile_qr_scan"}, "lon": -77.03668816666666, "name": "70f8d457c022d069d901363654a492a6", "lat": 38.92095033333333, "is_reserved": 0, "fusion_lat": 0.0, "bike_id": "70f8d457c022d069d901363654a492a6", "type": "electric_scooter", "is_disabled": 0, "fusion_lon": 0.0}, {"rental_uris": {"android": "https://dc.lft.to/lastmile_qr_scan", "ios": "https://dc.lft.to/lastmile_qr_scan"}, "lon": -77.02983, "name": "d4931369cdb62af86b85b6fe114851d8", "lat": 38.907276333333336, "is_reserved": 0, "fusion_lat": 0.0, "bike_id": "d4931369cdb62af86b85b6fe114851d8", "type": "electric_scooter", "is_disabled": 0, "fusion_lon": 0.0}, {"rental_uris": {"android": "https://dc.lft.to/lastmile_qr_scan", "ios": "https://dc.lft.to/lastmile_qr_scan"}, "lon": -77.0247205, "name": "fa05ffe4ae811b899ef4ed7927e1d380", "lat": 38.920607333333336, "is_reserved": 0, "fusion_lat": 0.0, "bike_id": "fa05ffe4ae811b899ef4ed7927e1d380", "type": "electric_scooter", "is_disabled": 0, "fusion_lon": 0.0}, {"rental_uris": {"android": "https://dc.lft.to/lastmile_qr_scan", "ios": "https://dc.lft.to/lastmile_qr_scan"}, "lon": -76.9963905, "name": "eef9eccd6e67a32587a7afecf2b858df", "lat": 38.905286833333335, "is_reserved": 0, "fusion_lat": 0.0, "bike_id": "eef9eccd6e67a32587a7afecf2b858df", "type": "electric_scooter", "is_disabled": 0, "fusion_lon": 0.0}, {"rental_uris": {"android": "https://dc.lft.to/lastmile_qr_scan", "ios": "https://dc.lft.to/lastmile_qr_scan"}, "lon": -77.02744966666667, "name": "289a365bb891568bb6e7a7c9d3beb941", "lat": 38.927687166666665, "is_reserved": 0, "fusion_lat": 0.0, "bike_id": "289a365bb891568bb6e7a7c9d3beb941", "type": "electric_scooter", "is_disabled": 0, "fusion_lon": 0.0}, {"rental_uris": {"android": "https://dc.lft.to/lastmile_qr_scan", "ios": "https://dc.lft.to/lastmile_qr_scan"}, "lon": -77.0357355, "name": "846f84a4a863b46d50eedf33bdfc93f0", "lat": 38.9015495, "is_reserved": 0, "fusion_lat": 0.0, "bike_id": "846f84a4a863b46d50eedf33bdfc93f0", "type": "electric_scooter", "is_disabled": 0, "fusion_lon": 0.0}, {"rental_uris": {"android": "https://dc.lft.to/lastmile_qr_scan", "ios": "https://dc.lft.to/lastmile_qr_scan"}, "lon": -77.02186366666666, "name": "15772bc9baf04b893848bd173ebf428e", "lat": 38.900219, "is_reserved": 0, "fusion_lat": 0.0, "bike_id": "15772bc9baf04b893848bd173ebf428e", "type": "electric_scooter", "is_disabled": 0, "fusion_lon": 0.0}, {"rental_uris": {"android": "https://dc.lft.to/lastmile_qr_scan", "ios": "https://dc.lft.to/lastmile_qr_scan"}, "lon": -76.93337933333333, "name": "653094ee8b688b20a443f7be3ef2c8ee", "lat": 38.9086515, "is_reserved": 0, "fusion_lat": 0.0, "bike_id": "653094ee8b688b20a443f7be3ef2c8ee", "type": "electric_scooter", "is_disabled": 0, "fusion_lon": 0.0}, {"rental_uris": {"android": "https://dc.lft.to/lastmile_qr_scan", "ios": "https://dc.lft.to/lastmile_qr_scan"}, "lon": -77.035135, "name": "60ee9578ce799010ee2aa9183b9f87f8", "lat": 38.922583333333336, "is_reserved": 0, "fusion_lat": 0.0, "bike_id": "60ee9578ce799010ee2aa9183b9f87f8", "type": "electric_scooter", "is_disabled": 0, "fusion_lon": 0.0}, {"rental_uris": {"android": "https://dc.lft.to/lastmile_qr_scan", "ios": "https://dc.lft.to/lastmile_qr_scan"}, "lon": -77.024998, "name": "71d48d61d1089823f615ca3c9aef7710", "lat": 38.94171733333334, "is_reserved": 0, "fusion_lat": 0.0, "bike_id": "71d48d61d1089823f615ca3c9aef7710", "type": "electric_scooter", "is_disabled": 0, "fusion_lon": 0.0}, {"rental_uris": {"android": "https://dc.lft.to/lastmile_qr_scan", "ios": "https://dc.lft.to/lastmile_qr_scan"}, "lon": -77.0326665, "name": "5b92665607c512a8637671ef34436929", "lat": 38.93257083333334, "is_reserved": 0, "fusion_lat": 0.0, "bike_id": "5b92665607c512a8637671ef34436929", "type": "electric_scooter", "is_disabled": 0, "fusion_lon": 0.0}, {"rental_uris": {"android": "https://dc.lft.to/lastmile_qr_scan", "ios": "https://dc.lft.to/lastmile_qr_scan"}, "lon": -77.03241366666667, "name": "36630ef0788140c299ca5efd05b1771a", "lat": 38.927299, "is_reserved": 0, "fusion_lat": 0.0, "bike_id": "36630ef0788140c299ca5efd05b1771a", "type": "electric_scooter", "is_disabled": 0, "fusion_lon": 0.0}, {"rental_uris": {"android": "https://dc.lft.to/lastmile_qr_scan", "ios": "https://dc.lft.to/lastmile_qr_scan"}, "lon": -76.99560166666667, "name": "48a92ada5b9efe00068e35b2aca86779", "lat": 38.920667333333334, "is_reserved": 0, "fusion_lat": 0.0, "bike_id": "48a92ada5b9efe00068e35b2aca86779", "type": "electric_scooter", "is_disabled": 0, "fusion_lon": 0.0}, {"rental_uris": {"android": "https://dc.lft.to/lastmile_qr_scan", "ios": "https://dc.lft.to/lastmile_qr_scan"}, "lon": -77.001823, "name": "d44bdcd3e813cef03bf6a4e5d8f05dfa", "lat": 38.906041, "is_reserved": 0, "fusion_lat": 0.0, "bike_id": "d44bdcd3e813cef03bf6a4e5d8f05dfa", "type": "electric_scooter", "is_disabled": 0, "fusion_lon": 0.0}, {"rental_uris": {"android": "https://dc.lft.to/lastmile_qr_scan", "ios": "https://dc.lft.to/lastmile_qr_scan"}, "lon": -77.0298325, "name": "baee10ea9d772e1a0f7263e3b22feea7", "lat": 38.92358933333333, "is_reserved": 0, "fusion_lat": 0.0, "bike_id": "baee10ea9d772e1a0f7263e3b22feea7", "type": "electric_scooter", "is_disabled": 0, "fusion_lon": 0.0}, {"rental_uris": {"android": "https://dc.lft.to/lastmile_qr_scan", "ios": "https://dc.lft.to/lastmile_qr_scan"}, "lon": -77.12491216666666, "name": "ca68c275dcccaa75f3b0f465bcaab4a7", "lat": 38.827897166666666, "is_reserved": 0, "fusion_lat": 0.0, "bike_id": "ca68c275dcccaa75f3b0f465bcaab4a7", "type": "electric_bike", "is_disabled": 0, "fusion_lon": 0.0}, {"rental_uris": {"android": "https://dc.lft.to/lastmile_qr_scan", "ios": "https://dc.lft.to/lastmile_qr_scan"}, "lon": -76.98575833333334, "name": "5993a9a2d726779de003a0b21092b7aa", "lat": 38.86686666666667, "is_reserved": 0, "fusion_lat": 0.0, "bike_id": "5993a9a2d726779de003a0b21092b7aa", "type": "electric_scooter", "is_disabled": 0, "fusion_lon": 0.0}, {"rental_uris": {"android": "https://dc.lft.to/lastmile_qr_scan", "ios": "https://dc.lft.to/lastmile_qr_scan"}, "lon": -77.02157333333334, "name": "879565b0f8b4abbf6300ef1d5fff77b9", "lat": 38.923357833333334, "is_reserved": 0, "fusion_lat": 0.0, "bike_id": "879565b0f8b4abbf6300ef1d5fff77b9", "type": "electric_scooter", "is_disabled": 0, "fusion_lon": 0.0}, {"rental_uris": {"android": "https://dc.lft.to/lastmile_qr_scan", "ios": "https://dc.lft.to/lastmile_qr_scan"}, "lon": -77.01719416666667, "name": "5cf7cdefe25c44ba58e05c8ae60269cf", "lat": 38.89228033333333, "is_reserved": 0, "fusion_lat": 0.0, "bike_id": "5cf7cdefe25c44ba58e05c8ae60269cf", "type": "electric_scooter", "is_disabled": 0, "fusion_lon": 0.0}, {"rental_uris": {"android": "https://dc.lft.to/lastmile_qr_scan", "ios": "https://dc.lft.to/lastmile_qr_scan"}, "lon": -77.015741, "name": "f71af1692c06dea06113e3bfcd8ea8df", "lat": 38.92682933333333, "is_reserved": 0, "fusion_lat": 0.0, "bike_id": "f71af1692c06dea06113e3bfcd8ea8df", "type": "electric_scooter", "is_disabled": 0, "fusion_lon": 0.0}, {"rental_uris": {"android": "https://dc.lft.to/lastmile_qr_scan", "ios": "https://dc.lft.to/lastmile_qr_scan"}, "lon": -77.0548995, "name": "392de0c304e4c1e69a12a33bded7bc6c", "lat": 38.8997575, "is_reserved": 0, "fusion_lat": 0.0, "bike_id": "392de0c304e4c1e69a12a33bded7bc6c", "type": "electric_scooter", "is_disabled": 0, "fusion_lon": 0.0}, {"rental_uris": {"android": "https://dc.lft.to/lastmile_qr_scan", "ios": "https://dc.lft.to/lastmile_qr_scan"}, "lon": -77.0020095, "name": "431c3ca10576eeda473ce5df125a4a92", "lat": 38.902372166666666, "is_reserved": 0, "fusion_lat": 0.0, "bike_id": "431c3ca10576eeda473ce5df125a4a92", "type": "electric_scooter", "is_disabled": 0, "fusion_lon": 0.0}, {"rental_uris": {"android": "https://dc.lft.to/lastmile_qr_scan", "ios": "https://dc.lft.to/lastmile_qr_scan"}, "lon": -76.9865775, "name": "59851d0a3644aea69d6c52a2e823992c", "lat": 38.858067166666665, "is_reserved": 0, "fusion_lat": 0.0, "bike_id": "59851d0a3644aea69d6c52a2e823992c", "type": "electric_scooter", "is_disabled": 0, "fusion_lon": 0.0}, {"rental_uris": {"android": "https://dc.lft.to/lastmile_qr_scan", "ios": "https://dc.lft.to/lastmile_qr_scan"}, "lon": -76.99835133333333, "name": "b39f82001bdaf5956599d8cf48382be9", "lat": 38.8999965, "is_reserved": 0, "fusion_lat": 0.0, "bike_id": "b39f82001bdaf5956599d8cf48382be9", "type": "electric_bike", "is_disabled": 0, "fusion_lon": 0.0}, {"rental_uris": {"android": "https://dc.lft.to/lastmile_qr_scan", "ios": "https://dc.lft.to/lastmile_qr_scan"},