{"data": {"bikes": [{"lat": 38.91864916666667, "fusion_lat": 0.0, "type": "electric_scooter", "bike_id": "5b115b25bd3083471d3774c506b849f0", "rental_uris": {"ios": "https://dc.lft.to/lastmile_qr_scan", "android": "https://dc.lft.to/lastmile_qr_scan"}, "fusion_lon": 0.0, "lon": -77.02298766666667, "name": "5b115b25bd3083471d3774c506b849f0", "is_reserved": 0, "is_disabled": 0}, {"lat": 38.944478833333335, "fusion_lat": 0.0, "type": "electric_scooter", "bike_id": "ef9998d6d50024c7401eff07ec9afe71", "rental_uris": {"ios": "https://dc.lft.to/lastmile_qr_scan", "android": "https://dc.lft.to/lastmile_qr_scan"}, "fusion_lon": 0.0, "lon": -77.027988, "name": "ef9998d6d50024c7401eff07ec9afe71", "is_reserved": 0, "is_disabled": 0}, {"lat": 38.8988885, "fusion_lat": 0.0, "type": "electric_scooter", "bike_id": "66388cec24701f1e1e8514ae670d5239", "rental_uris": {"ios": "https://dc.lft.to/lastmile_qr_scan", "android": "https://dc.lft.to/lastmile_qr_scan"}, "fusion_lon": 0.0, "lon": -76.93176733333334, "name": "66388cec24701f1e1e8514ae670d5239", "is_reserved": 0, "is_disabled": 0}, {"lat": 38.91627733333333, "fusion_lat": 0.0, "type": "electric_scooter", "bike_id": "d22e591ad4e99d92b509e4f8c74b4983", "rental_uris": {"ios": "https://dc.lft.to/lastmile_qr_scan", "android": "https://dc.lft.to/lastmile_qr_scan"}, "fusion_lon": 0.0, "lon": -77.03162883333333, "name": "d22e591ad4e99d92b509e4f8c74b4983", "is_reserved": 0, "is_disabled": 0}, {"lat": 38.902631, "fusion_lat": 0.0, "type": "electric_scooter", "bike_id": "53b68ab6dea59f4925233408b74e66dc", "rental_uris": {"ios": "https://dc.lft.to/lastmile_qr_scan", "android": "https://dc.lft.to/lastmile_qr_scan"}, "fusion_lon": 0.0, "lon": -77.03462616666667, "name": "53b68ab6dea59f4925233408b74e66dc", "is_reserved": 0, "is_disabled": 0}, {"lat": 38.91551483333333, "fusion_lat": 0.0, "type": "electric_scooter", "bike_id": "c0ab2204a375ebdbdecdfc6f2f578106", "rental_uris": {"ios": "https://dc.lft.to/lastmile_qr_scan", "android": "https://dc.lft.to/lastmile_qr_scan"}, "fusion_lon": 0.0, "lon": -77.01015183333334, "name": "c0ab2204a375ebdbdecdfc6f2f578106", "is_reserved": 0, "is_disabled": 0}, {"lat": 38.897948666666665, "fusion_lat": 0.0, "type": "electric_scooter", "bike_id": "68ced2f67bb3be2caf45648159fea0ee", "rental_uris": {"ios": "https://dc.lft.to/lastmile_qr_scan", "android": "https://dc.lft.to/lastmile_qr_scan"}, "fusion_lon": 0.0, "lon": -77.02219033333333, "name": "68ced2f67bb3be2caf45648159fea0ee", "is_reserved": 0, "is_disabled": 0}, {"lat": 38.93283816666667, "fusion_lat": 0.0, "type": "electric_scooter", "bike_id": "6af1e6ac926a8c9da27c524a0e2e1df4", "rental_uris": {"ios": "https://dc.lft.to/lastmile_qr_scan", "android": "https://dc.lft.to/lastmile_qr_scan"}, "fusion_lon": 0.0, "lon": -76.984371, "name": "6af1e6ac926a8c9da27c524a0e2e1df4", "is_reserved": 0, "is_disabled": 0}, {"lat": 38.9308565, "fusion_lat": 0.0, "type": "electric_scooter", "bike_id": "0d8ab27383e5ba82eea37926a4e2aa74", "rental_uris": {"ios": "https://dc.lft.to/lastmile_qr_scan", "android": "https://dc.lft.to/lastmile_qr_scan"}, "fusion_lon": 0.0, "lon": -76.996087, "name": "0d8ab27383e5ba82eea37926a4e2aa74", "is_reserved": 0, "is_disabled": 0}, {"lat": 38.906843333333335, "fusion_lat": 0.0, "type": "electric_scooter", "bike_id": "4be65463954b707624684ac4f8140748", "rental_uris": {"ios": "https://dc.lft.to/lastmile_qr_scan", "android": "https://dc.lft.to/lastmile_qr_scan"}, "fusion_lon": 0.0, "lon": -77.06396283333333, "name": "4be65463954b707624684ac4f8140748", "is_reserved": 0, "is_disabled": 0}, {"lat": 38.927577666666664, "fusion_lat": 0.0, "type": "electric_scooter", "bike_id": "08ab367683f222adac5c523ce7eb786c", "rental_uris": {"ios": "https://dc.lft.to/lastmile_qr_scan", "android": "https://dc.lft.to/lastmile_qr_scan"}, "fusion_lon": 0.0, "lon": -77.05275616666667, "name": "08ab367683f222adac5c523ce7eb786c", "is_reserved": 0, "is_disabled": 0}, {"lat": 38.9140705, "fusion_lat": 0.0, "type": "electric_scooter", "bike_id": "abcc8e5afb734c048f63eda5c558cd42", "rental_uris": {"ios": "https://dc.lft.to/lastmile_qr_scan", "android": "https://dc.lft.to/lastmile_qr_scan"}, "fusion_lon": 0.0, "lon": -77.02836583333334, "name": "abcc8e5afb734c048f63eda5c558cd42", "is_reserved": 0, "is_disabled": 0}, {"lat": 38.91127, "fusion_lat": 0.0, "type": "electric_scooter", "bike_id": "563dceb3eaec58c71e2246f2f2a022b6", "rental_uris": {"ios": "https://dc.lft.to/lastmile_qr_scan", "android": "https://dc.lft.to/lastmile_qr_scan"}, "fusion_lon": 0.0, "lon": -77.05273783333334, "name": "563dceb3eaec58c71e2246f2f2a022b6", "is_reserved": 0, "is_disabled": 0}, {"lat": 38.922584, "fusion_lat": 0.0, "type": "electric_scooter", "bike_id": "5c2fe6b29299e39fce3c956b894bf71f", "rental_uris": {"ios": "https://dc.lft.to/lastmile_qr_scan", "android": "https://dc.lft.to/lastmile_qr_scan"}, "fusion_lon": 0.0, "lon": -77.021046, "name": "5c2fe6b29299e39fce3c956b894bf71f", "is_reserved": 0, "is_disabled": 0}, {"lat": 38.900195333333336, "fusion_lat": 0.0, "type": "electric_scooter", "bike_id": "e43e4caee33786e1f8dcd189d05671e1", "rental_uris": {"ios": "https://dc.lft.to/lastmile_qr_scan", "android": "https://dc.lft.to/lastmile_qr_scan"}, "fusion_lon": 0.0, "lon": -77.03928466666666, "name": "e43e4caee33786e1f8dcd189d05671e1", "is_reserved": 0, "is_disabled": 0}, {"lat": 38.901413166666664, "fusion_lat": 0.0, "type": "electric_scooter", "bike_id": "1ccb6d5d1857b36c68b1e758a5db87cc", "rental_uris": {"ios": "https://dc.lft.to/lastmile_qr_scan", "android": "https://dc.lft.to/lastmile_qr_scan"}, "fusion_lon": 0.0, "lon": -77.0134515, "name": "1ccb6d5d1857b36c68b1e758a5db87cc", "is_reserved": 0, "is_disabled": 0}, {"lat": 38.891782666666664, "fusion_lat": 0.0, "type": "electric_scooter", "bike_id": "d1e3df1e7f0c77a91117f409b237dea5", "rental_uris": {"ios": "https://dc.lft.to/lastmile_qr_scan", "android": "https://dc.lft.to/lastmile_qr_scan"}, "fusion_lon": 0.0, "lon": -77.00337083333334, "name": "d1e3df1e7f0c77a91117f409b237dea5", "is_reserved": 0, "is_disabled": 0}, {"lat": 38.9050845, "fusion_lat": 0.0, "type": "electric_scooter", "bike_id": "3ce41dd1363bab0fcd3b37ec17c89877", "rental_uris": {"ios": "https://dc.lft.to/lastmile_qr_scan", "android": "https://dc.lft.to/lastmile_qr_scan"}, "fusion_lon": 0.0, "lon": -76.99176666666666, "name": "3ce41dd1363bab0fcd3b37ec17c89877", "is_reserved": 0, "is_disabled": 0}, {"lat": 38.9562815, "fusion_lat": 0.0, "type": "electric_scooter", "bike_id": "f7710a2e24621de45bce8d4ed8b41306", "rental_uris": {"ios": "https://dc.lft.to/lastmile_qr_scan", "android": "https://dc.lft.to/lastmile_qr_scan"}, "fusion_lon": 0.0, "lon": -77.02834216666666, "name": "f7710a2e24621de45bce8d4ed8b41306", "is_reserved": 0, "is_disabled": 0}, {"lat": 38.874933, "fusion_lat": 0.0, "type": "electric_scooter", "bike_id": "9ad6c1cfbf6e60c271ec29a691cba8a6", "rental_uris": {"ios": "https://dc.lft.to/lastmile_qr_scan", "android": "https://dc.lft.to/lastmile_qr_scan"}, "fusion_lon": 0.0, "lon": -76.9997215, "name": "9ad6c1cfbf6e60c271ec29a691cba8a6", "is_reserved": 0, "is_disabled": 0}, {"lat": 38.89828, "fusion_lat": 0.0, "type": "electric_scooter", "bike_id": "2149aa08a4cdde11083c86931f0ef001", "rental_uris": {"ios": "https://dc.lft.to/lastmile_qr_scan", "android": "https://dc.lft.to/lastmile_qr_scan"}, "fusion_lon": 0.0, "lon": -77.03350316666666, "name": "2149aa08a4cdde11083c86931f0ef001", "is_reserved": 0, "is_disabled": 0}, {"lat": 38.90862033333333, "fusion_lat": 0.0, "type": "electric_scooter", "bike_id": "15d653bbf3e7d4d632f5a6d8e7efd0bf", "rental_uris": {"ios": "https://dc.lft.to/lastmile_qr_scan", "android": "https://dc.lft.to/lastmile_qr_scan"}, "fusion_lon": 0.0, "lon": -77.01873, "name": "15d653bbf3e7d4d632f5a6d8e7efd0bf", "is_reserved": 0, "is_disabled": 0}, {"lat": 38.902688833333336, "fusion_lat": 0.0, "type": "electric_scooter", "bike_id": "6c5e42a9b094b6c774618139a7a14a77", "rental_uris": {"ios": "https://dc.lft.to/lastmile_qr_scan", "android": "https://dc.lft.to/lastmile_qr_scan"}, "fusion_lon": 0.0, "lon": -77.0303435, "name": "6c5e42a9b094b6c774618139a7a14a77", "is_reserved": 0, "is_disabled": 0}, {"lat": 38.922315, "fusion_lat": 0.0, "type": "electric_scooter", "bike_id": "f38aeeef9697bf603eb589140ad4a201", "rental_uris": {"ios": "https://dc.lft.to/lastmile_qr_scan", "android": "https://dc.lft.to/lastmile_qr_scan"}, "fusion_lon": 0.0, "lon": -77.02330283333333, "name": "f38aeeef9697bf603eb589140ad4a201", "is_reserved": 0, "is_disabled": 0}, {"lat": 38.933678666666665, "fusion_lat": 0.0, "type": "electric_scooter", "bike_id": "f0a27c0f55edb7dff1f6a9b376ea7d09", "rental_uris": {"ios": "https://dc.lft.to/lastmile_qr_scan", "android": "https://dc.lft.to/lastmile_qr_scan"}, "fusion_lon": 0.0, "lon": -77.05727116666667, "name": "f0a27c0f55edb7dff1f6a9b376ea7d09", "is_reserved": 0, "is_disabled": 0}, {"lat": 38.92224433333333, "fusion_lat": 0.0, "type": "electric_scooter", "bike_id": "2a198dd2edd76b9dc96c066e54113b0c", "rental_uris": {"ios": "https://dc.lft.to/lastmile_qr_scan", "android": "https://dc.lft.to/lastmile_qr_scan"}, "fusion_lon": 0.0, "lon": -77.04333616666666, "name": "2a198dd2edd76b9dc96c066e54113b0c", "is_reserved": 0, "is_disabled": 0}, {"lat": 38.94020583333333, "fusion_lat": 0.0, "type": "electric_bike", "bike_id": "ea01d621bb9e3bcdd0e1232b4089dd91", "rental_uris": {"ios": "https://dc.lft.to/lastmile_qr_scan", "android": "https://dc.lft.to/lastmile_qr_scan"}, "fusion_lon": 0.0, "lon": -76.97611966666666, "name": "ea01d621bb9e3bcdd0e1232b4089dd91", "is_reserved": 0, "is_disabled": 0}, {"lat": 38.923388, "fusion_lat": 0.0, "type": "electric_scooter", "bike_id": "4317029e158364ed6bc1505e88377bfb", "rental_uris": {"ios": "https://dc.lft.to/lastmile_qr_scan", "android": "https://dc.lft.to/lastmile_qr_scan"}, "fusion_lon": 0.0, "lon": -77.04736066666666, "name": "4317029e158364ed6bc1505e88377bfb", "is_reserved": 0, "is_disabled": 0}, {"lat": 38.923581166666665, "fusion_lat": 0.0, "type": "electric_scooter", "bike_id": "096f43d5bae4116963f750241e14eb5b", "rental_uris": {"ios": "https://dc.lft.to/lastmile_qr_scan", "android": "https://dc.lft.to/lastmile_qr_scan"}, "fusion_lon": 0.0, "lon": -77.05422716666666, "name": "096f43d5bae4116963f750241e14eb5b", "is_reserved": 0, "is_disabled": 0}, {"lat": 38.914807, "fusion_lat": 0.0, "type": "electric_scooter", "bike_id": "a12069c3764f41fb435cabe8bc70cc18", "rental_uris": {"ios": "https://dc.lft.to/lastmile_qr_scan", "android": "https://dc.lft.to/lastmile_qr_scan"}, "fusion_lon": 0.0, "lon": -77.04248816666667, "name": "a12069c3764f41fb435cabe8bc70cc18", "is_reserved": 0, "is_disabled": 0}, {"lat": 38.90495883333333, "fusion_lat": 0.0, "type": "electric_bike", "bike_id": "d43e30d254e448027b58747c5d617852", "rental_uris": {"ios": "https://dc.lft.to/lastmile_qr_scan", "android": "https://dc.lft.to/lastmile_qr_scan"}, "fusion_lon": 0.0, "lon": -76.97439516666667, "name": "d43e30d254e448027b58747c5d617852", "is_reserved": 0, "is_disabled": 0}, {"lat": 38.784649333333334, "fusion_lat": 0.0, "type": "electric_bike", "bike_id": "3deeef9c1d607391eb558416328f79b0", "rental_uris": {"ios": "https://dc.lft.to/lastmile_qr_scan", "android": "https://dc.lft.to/lastmile_qr_scan"}, "fusion_lon": 0.0, "lon": -77.01626733333333, "name": "3deeef9c1d607391eb558416328f79b0", "is_reserved": 0, "is_disabled": 0}, {"lat": 38.91496983333333, "fusion_lat": 0.0, "type": "electric_scooter", "bike_id": "37b4b2eec082585d3a355bb092f8d36d", "rental_uris": {"ios": "https://dc.lft.to/lastmile_qr_scan", "android": "https://dc.lft.to/lastmile_qr_scan"}, "fusion_lon": 0.0, "lon": -76.9836485, "name": "37b4b2eec082585d3a355bb092f8d36d", "is_reserved": 0, "is_disabled": 0}, {"lat": 38.88738466666667, "fusion_lat": 0.0, "type": "electric_scooter", "bike_id": "f95bd4765c67846138acd2e0c58eb221", "rental_uris": {"ios": "https://dc.lft.to/lastmile_qr_scan", "android": "https://dc.lft.to/lastmile_qr_scan"}, "fusion_lon": 0.0, "lon": -77.031812, "name": "f95bd4765c67846138acd2e0c58eb221", "is_reserved": 0, "is_disabled": 0}, {"lat": 38.92030783333333, "fusion_lat": 0.0, "type": "electric_scooter", "bike_id": "b517fc592f2ef360d8e25797f50c3080", "rental_uris": {"ios": "https://dc.lft.to/lastmile_qr_scan", "android": "https://dc.lft.to/lastmile_qr_scan"}, "fusion_lon": 0.0, "lon": -77.0714995, "name": "b517fc592f2ef360d8e25797f50c3080", "is_reserved": 0, "is_disabled": 0}, {"lat": 38.942772166666664, "fusion_lat": 0.0, "type": "electric_scooter", "bike_id": "f66c649a22b0dd31d99b1ef6051a48a0", "rental_uris": {"ios": "https://dc.lft.to/lastmile_qr_scan", "android": "https://dc.lft.to/lastmile_qr_scan"}, "fusion_lon": 0.0, "lon": -77.02932283333334, "name": "f66c649a22b0dd31d99b1ef6051a48a0", "is_reserved": 0, "is_disabled": 0}, {"lat": 38.88632416666667, "fusion_lat": 0.0, "type": "electric_scooter", "bike_id": "9b991fec274ac67c259bb85b6d97f4c6", "rental_uris": {"ios": "https://dc.lft.to/lastmile_qr_scan", "android": "https://dc.lft.to/lastmile_qr_scan"}, "fusion_lon": 0.0, "lon": -77.02819966666667, "name": "9b991fec274ac67c259bb85b6d97f4c6", "is_reserved": 0, "is_disabled": 0}, {"lat": 38.919624666666664, "fusion_lat": 0.0, "type": "electric_scooter", "bike_id": "8469138a492404e96ea9c6cd48cf6af2", "rental_uris": {"ios": "https://dc.lft.to/lastmile_qr_scan", "android": "https://dc.lft.to/lastmile_qr_scan"}, "fusion_lon": 0.0, "lon": -77.01486866666667, "name": "8469138a492404e96ea9c6cd48cf6af2", "is_reserved": 0, "is_disabled": 0}, {"lat": 38.916853333333336, "fusion_lat": 0.0, "type": "electric_scooter", "bike_id": "c6486e2ccbda8004332f247fc61bf9d5", "rental_uris": {"ios": "https://dc.lft.to/lastmile_qr_scan", "android": "https://dc.lft.to/lastmile_qr_scan"}, "fusion_lon": 0.0, "lon": -77.02974933333333, "name": "c6486e2ccbda8004332f247fc61bf9d5", "is_reserved": 0, "is_disabled": 0}, {"lat": 38.90542766666667, "fusion_lat": 0.0, "type": "electric_scooter", "bike_id": "98d68443922da7d1fc8eec54325cedda", "rental_uris": {"ios": "https://dc.lft.to/lastmile_qr_scan", "android": "https://dc.lft.to/lastmile_qr_scan"}, "fusion_lon": 0.0, "lon": -77.02215483333333, "name": "98d68443922da7d1fc8eec54325cedda", "is_reserved": 0, "is_disabled": 0}, {"lat": 38.900405, "fusion_lat": 0.0, "type": "electric_scooter", "bike_id": "ab83eb3ea56ebe5b7f51a13c65da9540", "rental_uris": {"ios": "https://dc.lft.to/lastmile_qr_scan", "android": "https://dc.lft.to/lastmile_qr_scan"}, "fusion_lon": 0.0, "lon": -76.988321, "name": "ab83eb3ea56ebe5b7f51a13c65da9540", "is_reserved": 0, "is_disabled": 0}, {"lat": 38.91029983333333, "fusion_lat": 0.0, "type": "electric_scooter", "bike_id": "0c30e484093d6da37989abe754a13ae0", "rental_uris": {"ios": "https://dc.lft.to/lastmile_qr_scan", "android": "https://dc.lft.to/lastmile_qr_scan"}, "fusion_lon": 0.0, "lon": -77.04649716666667, "name": "0c30e484093d6da37989abe754a13ae0", "is_reserved": 0, "is_disabled": 0}, {"lat": 38.89440316666666, "fusion_lat": 0.0, "type": "electric_scooter", "bike_id": "9de5c3a40b9c3680fa7b4fb425336bdf", "rental_uris": {"ios": "https://dc.lft.to/lastmile_qr_scan", "android": "https://dc.lft.to/lastmile_qr_scan"}, "fusion_lon": 0.0, "lon": -77.02412566666666, "name": "9de5c3a40b9c3680fa7b4fb425336bdf", "is_reserved": 0, "is_disabled": 0}, {"lat": 38.8793165, "fusion_lat": 0.0, "type": "electric_bike", "bike_id": "8b945dd3dba4f27c353234747e0060e1", "rental_uris": {"ios": "https://dc.lft.to/lastmile_qr_scan", "android": "https://dc.lft.to/lastmile_qr_scan"}, "fusion_lon": 0.0, "lon": -76.9848935, "name": "8b945dd3dba4f27c353234747e0060e1", "is_reserved": 0, "is_disabled": 0}, {"lat": 38.9099585, "fusion_lat": 0.0, "type": "electric_scooter", "bike_id": "dd16d45e758f85f4eb87fdf254443032", "rental_uris": {"ios": "https://dc.lft.to/lastmile_qr_scan", "android": "https://dc.lft.to/lastmile_qr_scan"}, "fusion_lon": 0.0, "lon": -77.073485, "name": "dd16d45e758f85f4eb87fdf254443032", "is_reserved": 0, "is_disabled": 0}, {"lat": 38.90360866666666, "fusion_lat": 0.0, "type": "electric_scooter", "bike_id": "204a88b5aac13846ffe62ca1b84284cf", "rental_uris": {"ios": "https://dc.lft.to/lastmile_qr_scan", "android": "https://dc.lft.to/lastmile_qr_scan"}, "fusion_lon": 0.0, "lon": -77.04011866666667, "name": "204a88b5aac13846ffe62ca1b84284cf", "is_reserved": 0, "is_disabled": 0}, {"lat": 38.91714783333333, "fusion_lat": 0.0, "type": "electric_scooter", "bike_id": "4376432157cdeb61ee8632aa4b00c1f5", "rental_uris": {"ios": "https://dc.lft.to/lastmile_qr_scan", "android": "https://dc.lft.to/lastmile_qr_scan"}, "fusion_lon": 0.0, "lon": -77.03241883333334, "name": "4376432157cdeb61ee8632aa4b00c1f5", "is_reserved": 0, "is_disabled": 0}, {"lat": 38.92853, "fusion_lat": 0.0, "type": "electric_scooter", "bike_id": "766d542bc0147c2db37a4e6057e19587", "rental_uris": {"ios": "https://dc.lft.to/lastmile_qr_scan", "android": "https://dc.lft.to/lastmile_qr_scan"}, "fusion_lon": 0.0, "lon": -77.03610483333334, "name": "766d542bc0147c2db37a4e6057e19587", "is_reserved": 0, "is_disabled": 0}, {"lat": 38.94407733333333, "fusion_lat": 0.0, "type": "electric_bike", "bike_id": "165dd1601bfbceba87f84e90a3780236", "rental_uris": {"ios": "https://dc.lft.to/lastmile_qr_scan", "android": "https://dc.lft.to/lastmile_qr_scan"}, "fusion_lon": 0.0, "lon": -77.05514383333333, "name": "165dd1601bfbceba87f84e90a3780236", "is_reserved": 0, "is_disabled": 0}, {"lat": 38.997755166666664, "fusion_lat": 0.0, "type": "electric_bike", "bike_id": "8f8c04650865a35776961c08c835636d", "rental_uris": {"ios": "https://dc.lft.to/lastmile_qr_scan", "android": "https://dc.lft.to/lastmile_qr_scan"}, "fusion_lon": 0.0, "lon": -77.04718883333334, "name": "8f8c04650865a35776961c08c835636d", "is_reserved": 0, "is_disabled": 0}, {"lat": 38.89231633333333, "fusion_lat": 0.0, "type": "electric_scooter", "bike_id": "a9c65130f64875d789ce4f0efb2fea3f", "rental_uris": {"ios": "https://dc.lft.to/lastmile_qr_scan", "android": "https://dc.lft.to/lastmile_qr_scan"}, "fusion_lon": 0.0, "lon": -77.02613683333334, "name": "a9c65130f64875d789ce4f0efb2fea3f", "is_reserved": 0, "is_disabled": 0}, {"lat": 38.919542166666666, "fusion_lat": 0.0, "type": "electric_scooter", "bike_id": "9c49832d606c612a75f586f35a463694", "rental_uris": {"ios": "https://dc.lft.to/lastmile_qr_scan", "android": "https://dc.lft.to/lastmile_qr_scan"}, "fusion_lon": 0.0, "lon": -77.02482816666667, "name": "9c49832d606c612a75f586f35a463694", "is_reserved": 0, "is_disabled": 0}, {"lat": 38.905515666666666, "fusion_lat": 0.0, "type": "electric_scooter", "bike_id": "20e44c8a23e49084bd3e77cf213755d6", "rental_uris": {"ios": "https://dc.lft.to/lastmile_qr_scan", "android": "https://dc.lft.to/lastmile_qr_scan"}, "fusion_lon": 0.0, "lon": -77.00296733333333, "name": "20e44c8a23e49084bd3e77cf213755d6", "is_reserved": 0, "is_disabled": 0}, {"lat": 38.895283, "fusion_lat": 0.0, "type": "electric_scooter", "bike_id": "2cac6741f45a0a542319bddd708a445f", "rental_uris": {"ios": "https://dc.lft.to/lastmile_qr_scan", "android": "https://dc.lft.to/lastmile_qr_scan"}, "fusion_lon": 0.0, "lon": -77.0113835, "name": "2cac6741f45a0a542319bddd708a445f", "is_reserved": 0, "is_disabled": 0}, {"lat": 38.90624616666667, "fusion_lat": 0.0, "type": "electric_scooter", "bike_id": "947b53c1a46fcb42875b34de6e0af687", "rental_uris": {"ios": "https://dc.lft.to/lastmile_qr_scan", "android": "https://dc.lft.to/lastmile_qr_scan"}, "fusion_lon": 0.0, "lon": -77.03969133333334, "name": "947b53c1a46fcb42875b34de6e0af687", "is_reserved": 0, "is_disabled": 0}, {"lat": 38.887699833333336, "fusion_lat": 0.0, "type": "electric_scooter", "bike_id": "2f30f675b4ba9a643c809a7f67dad9ff", "rental_uris": {"ios": "https://dc.lft.to/lastmile_qr_scan", "android": "https://dc.lft.to/lastmile_qr_scan"}, "fusion_lon": 0.0, "lon": -77.00035383333334, "name": "2f30f675b4ba9a643c809a7f67dad9ff", "is_reserved": 0, "is_disabled": 0}, {"lat": 38.89994766666667, "fusion_lat": 0.0, "type": "electric_scooter", "bike_id": "af5ac8416c9026824ccb847e2c27fb41", "rental_uris": {"ios": "https://dc.lft.to/lastmile_qr_scan", "android": "https://dc.lft.to/lastmile_qr_scan"}, "fusion_lon": 0.0, "lon": -77.03210333333334, "name": "af5ac8416c9026824ccb847e2c27fb41", "is_reserved": 0, "is_disabled": 0}, {"lat": 38.90129666666667, "fusion_lat": 0.0, "type": "electric_scooter", "bike_id": "d414ff077715ab5115b4264e1797bc6a", "rental_uris": {"ios": "https://dc.lft.to/lastmile_qr_scan", "android": "https://dc.lft.to/lastmile_qr_scan"}, "fusion_lon": 0.0, "lon": -77.02541183333334, "name": "d414ff077715ab5115b4264e1797bc6a", "is_reserved": 0, "is_disabled": 0}, {"lat": 38.89172283333333, "fusion_lat": 0.0, "type": "electric_scooter", "bike_id": "cef89c73e9d416b2ec673b8619e578a1", "rental_uris": {"ios": "https://dc.lft.to/lastmile_qr_scan", "android": "https://dc.lft.to/lastmile_qr_scan"}, "fusion_lon": 0.0, "lon": -77.01560183333333, "name": "cef89c73e9d416b2ec673b8619e578a1", "is_reserved": 0, "is_disabled": 0}, {"lat": 38.90308183333333, "fusion_lat": 0.0, "type": "electric_scooter", "bike_id": "520f9d5ba671253360cf26e5ca1f8cc8", "rental_uris": {"ios": "https://dc.lft.to/lastmile_qr_scan", "android": "https://dc.lft.to/lastmile_qr_scan"}, "fusion_lon": 0.0, "lon": -76.97805766666667, "name": "520f9d5ba671253360cf26e5ca1f8cc8", "is_reserved": 0, "is_disabled": 0}, {"lat": 38.898400333333335, "fusion_lat": 0.0, "type": "electric_scooter", "bike_id": "bc4a8c9e473f64e25821e8054b13aaa3", "rental_uris": {"ios": "https://dc.lft.to/lastmile_qr_scan", "android": "https://dc.lft.to/lastmile_qr_scan"}, "fusion_lon": 0.0, "lon": -77.04909283333333, "name": "bc4a8c9e473f64e25821e8054b13aaa3", "is_reserved": 0, "is_disabled": 0}, {"lat": 38.91638916666667, "fusion_lat": 0.0, "type": "electric_scooter", "bike_id": "1a0123fbfb1c295722f80b4614181061", "rental_uris": {"ios": "https://dc.lft.to/lastmile_qr_scan", "android": "https://dc.lft.to/lastmile_qr_scan"}, "fusion_lon": 0.0, "lon": -77.02246616666666, "name": "1a0123fbfb1c295722f80b4614181061", "is_reserved": 0, "is_disabled": 0}, {"lat": 38.916959166666665, "fusion_lat": 0.0, "type": "electric_scooter", "bike_id": "cc0184f1af53afeff3741c28a08b7c29", "rental_uris": {"ios": "https://dc.lft.to/lastmile_qr_scan", "android": "https://dc.lft.to/lastmile_qr_scan"}, "fusion_lon": 0.0, "lon": -77.0354995, "name": "cc0184f1af53afeff3741c28a08b7c29", "is_reserved": 0, "is_disabled": 0}, {"lat": 38.921124166666665, "fusion_lat": 0.0, "type": "electric_scooter", "bike_id": "213ab361dd90a0d7de7c73d8f17470a7", "rental_uris": {"ios": "https://dc.lft.to/lastmile_qr_scan", "android": "https://dc.lft.to/lastmile_qr_scan"}, "fusion_lon": 0.0, "lon": -77.01769833333333, "name": "213ab361dd90a0d7de7c73d8f17470a7", "is_reserved": 0, "is_disabled": 0}, {"lat": 38.91183483333333, "fusion_lat": 0.0, "type": "electric_scooter", "bike_id": "fdc0cc510bca1fccd8380a285a87d401", "rental_uris": {"ios": "https://dc.lft.to/lastmile_qr_scan", "android": "https://dc.lft.to/lastmile_qr_scan"}, "fusion_lon": 0.0, "lon": -77.01994416666666, "name": "fdc0cc510bca1fccd8380a285a87d401", "is_reserved": 0, "is_disabled": 0}, {"lat": 38.895587, "fusion_lat": 0.0, "type": "electric_scooter", "bike_id": "603fefe09097ae649b292db98fbd9924", "rental_uris": {"ios": "https://dc.lft.to/lastmile_qr_scan", "android": "https://dc.lft.to/lastmile_qr_scan"}, "fusion_lon": 0.0, "lon": -76.9487185, "name": "603fefe09097ae649b292db98fbd9924", "is_reserved": 0, "is_disabled": 0}, {"lat": 38.8954055, "fusion_lat": 0.0, "type": "electric_scooter", "bike_id": "bee24e35a1da13376b841859432ef7b4", "rental_uris": {"ios": "https://dc.lft.to/lastmile_qr_scan", "android": "https://dc.lft.to/lastmile_qr_scan"}, "fusion_lon": 0.0, "lon": -76.9495965, "name": "bee24e35a1da13376b841859432ef7b4", "is_reserved": 0, "is_disabled": 0}, {"lat": 38.89886966666667, "fusion_lat": 0.0, "type": "electric_scooter", "bike_id": "1496a208859883d5b275b0f2e5b5b70a", "rental_uris": {"ios": "https://dc.lft.to/lastmile_qr_scan", "android": "https://dc.lft.to/lastmile_qr_scan"}, "fusion_lon": 0.0, "lon": -77.03969933333333, "name": "1496a208859883d5b275b0f2e5b5b70a", "is_reserved": 0, "is_disabled": 0}, {"lat": 38.935103833333336, "fusion_lat": 0.0, "type": "electric_bike", "bike_id": "f5f344537c5da7b7a129a992d3e3891d", "rental_uris": {"ios": "https://dc.lft.to/lastmile_qr_scan", "android": "https://dc.lft.to/lastmile_qr_scan"}, "fusion_lon": 0.0, "lon": -77.05828933333333, "name": "f5f344537c5da7b7a129a992d3e3891d", "is_reserved": 0, "is_disabled": 0}, {"lat": 38.89222216666667, "fusion_lat": 0.0, "type": "electric_scooter", "bike_id": "dd85ac26dc4bd54fa3d993a818930391", "rental_uris": {"ios": "https://dc.lft.to/lastmile_qr_scan", "android": "https://dc.lft.to/lastmile_qr_scan"}, "fusion_lon": 0.0, "lon": -77.04195866666667, "name": "dd85ac26dc4bd54fa3d993a818930391", "is_reserved": 0, "is_disabled": 0}, {"lat": 38.9082265, "fusion_lat": 0.0, "type": "electric_scooter", "bike_id": "73efca36f79acf394cb0658e3aca9102", "rental_uris": {"ios": "https://dc.lft.to/lastmile_qr_scan", "android": "https://dc.lft.to/lastmile_qr_scan"}, "fusion_lon": 0.0, "lon": -77.0355075, "name": "73efca36f79acf394cb0658e3aca9102", "is_reserved": 0, "is_disabled": 0}, {"lat": 38.898259, "fusion_lat": 0.0, "type": "electric_scooter", "bike_id": "601f260e16a1fcb345394beb33693ade", "rental_uris": {"ios": "https://dc.lft.to/lastmile_qr_scan", "android": "https://dc.lft.to/lastmile_qr_scan"}, "fusion_lon": 0.0, "lon": -76.946528, "name": "601f260e16a1fcb345394beb33693ade", "is_reserved": 0, "is_disabled": 0}, {"lat": 38.807603666666665, "fusion_lat": 0.0, "type": "electric_bike", "bike_id": "3bb10695e75feacf1f581368191bfa34", "rental_uris": {"ios": "https://dc.lft.to/lastmile_qr_scan", "android": "https://dc.lft.to/lastmile_qr_scan"}, "fusion_lon": 0.0, "lon": -77.12981833333333, "name": "3bb10695e75feacf1f581368191bfa34", "is_reserved": 0, "is_disabled": 0}, {"lat": 38.92469883333333, "fusion_lat": 0.0, "type": "electric_scooter", "bike_id": "572140fddd25a9ddc7fb609c1e7be072", "rental_uris": {"ios": "https://dc.lft.to/lastmile_qr_scan", "android": "https://dc.lft.to/lastmile_qr_scan"}, "fusion_lon": 0.0, "lon": -77.05232366666667, "name": "572140fddd25a9ddc7fb609c1e7be072", "is_reserved": 0, "is_disabled": 0}, {"lat": 38.904097, "fusion_lat": 0.0, "type": "electric_scooter", "bike_id": "5deb30e4a3c90cc1e62a856c09813788", "rental_uris": {"ios": "https://dc.lft.to/lastmile_qr_scan", "android": "https://dc.lft.to/lastmile_qr_scan"}, "fusion_lon": 0.0, "lon": -77.02958383333333, "name": "5deb30e4a3c90cc1e62a856c09813788", "is_reserved": 0, "is_disabled": 0}, {"lat": 38.881763666666664, "fusion_lat": 0.0, "type": "electric_scooter", "bike_id": "2ed0c97c2a07ba91805250b3a2519f11", "rental_uris": {"ios": "https://dc.lft.to/lastmile_qr_scan", "android": "https://dc.lft.to/lastmile_qr_scan"}, "fusion_lon": 0.0, "lon": -76.99261766666666, "name": "2ed0c97c2a07ba91805250b3a2519f11", "is_reserved": 0, "is_disabled": 0}, {"lat": 38.8782225, "fusion_lat": 0.0, "type": "electric_scooter", "bike_id": "220f86081720df9cc4bff3f35e8d094b", "rental_uris": {"ios": "https://dc.lft.to/lastmile_qr_scan", "android": "https://dc.lft.to/lastmile_qr_scan"}, "fusion_lon": 0.0, "lon": -77.0223665, "name": "220f86081720df9cc4bff3f35e8d094b", "is_reserved": 0, "is_disabled": 0}, {"lat": 38.9086415, "fusion_lat": 0.0, "type": "electric_scooter", "bike_id": "96a77c4aa706735d7f05405ad5b16a30", "rental_uris": {"ios": "https://dc.lft.to/lastmile_qr_scan", "android": "https://dc.lft.to/lastmile_qr_scan"}, "fusion_lon": 0.0, "lon": -77.023515, "name": "96a77c4aa706735d7f05405ad5b16a30", "is_reserved": 0, "is_disabled": 0}, {"lat": 38.911767, "fusion_lat": 0.0, "type": "electric_scooter", "bike_id": "eaa39d10d1f604ca61166843c19c6d39", "rental_uris": {"ios": "https://dc.lft.to/lastmile_qr_scan", "android": "https://dc.lft.to/lastmile_qr_scan"}, "fusion_lon": 0.0, "lon": -77.02828816666667, "name": "eaa39d10d1f604ca61166843c19c6d39", "is_reserved": 0, "is_disabled": 0}, {"lat": 38.903906, "fusion_lat": 0.0, "type": "electric_scooter", "bike_id": "71091870f9f313f3007ffdeb001f63d6", "rental_uris": {"ios": "https://dc.lft.to/lastmile_qr_scan", "android": "https://dc.lft.to/lastmile_qr_scan"}, "fusion_lon": 0.0, "lon": -77.020114, "name": "71091870f9f313f3007ffdeb001f63d6", "is_reserved": 0, "is_disabled": 0}, {"lat": 38.91110616666667, "fusion_lat": 0.0, "type": "electric_scooter", "bike_id": "4635490f473f00b338d517e35a395f55", "rental_uris": {"ios": "https://dc.lft.to/lastmile_qr_scan", "android": "https://dc.lft.to/lastmile_qr_scan"}, "fusion_lon": 0.0, "lon": -77.04539083333333, "name": "4635490f473f00b338d517e35a395f55", "is_reserved": 0, "is_disabled": 0}, {"lat": 38.928633833333336, "fusion_lat": 0.0, "type": "electric_scooter", "bike_id": "d13d2dae53c0f27f0d7181f477e8d437", "rental_uris": {"ios": "https://dc.lft.to/lastmile_qr_scan", "android": "https://dc.lft.to/lastmile_qr_scan"}, "fusion_lon": 0.0, "lon": -77.03460516666667, "name": "d13d2dae53c0f27f0d7181f477e8d437", "is_reserved": 0, "is_disabled": 0}, {"lat": 38.90269933333333, "fusion_lat": 0.0, "type": "electric_scooter", "bike_id": "f947139c4775b480603fd274e60459e5", "rental_uris": {"ios": "https://dc.lft.to/lastmile_qr_scan", "android": "https://dc.lft.to/lastmile_qr_scan"}, "fusion_lon": 0.0, "lon": -77.04660366666667, "name": "f947139c4775b480603fd274e60459e5", "is_reserved": 0, "is_disabled": 0}, {"lat": 38.91542166666667, "fusion_lat": 0.0, "type": "electric_scooter", "bike_id": "2c44a76a24114f7743f7ad5babcfc4b8", "rental_uris": {"ios": "https://dc.lft.to/lastmile_qr_scan", "android": "https://dc.lft.to/lastmile_qr_scan"}, "fusion_lon": 0.0, "lon": -77.0126815, "name": "2c44a76a24114f7743f7ad5babcfc4b8", "is_reserved": 0, "is_disabled": 0}, {"lat": 38.919675, "fusion_lat": 0.0, "type": "electric_scooter", "bike_id": "25f751c0a8f1935832f8195b0bca02af", "rental_uris": {"ios": "https://dc.lft.to/lastmile_qr_scan", "android": "https://dc.lft.to/lastmile_qr_scan"}, "fusion_lon": 0.0, "lon": -77.03853233333334, "name": "25f751c0a8f1935832f8195b0bca02af", "is_reserved": 0, "is_disabled": 0}, {"lat": 38.9170825, "fusion_lat": 0.0, "type": "electric_scooter", "bike_id": "a19b56db24c922f69699bf937916d666", "rental_uris": {"ios": "https://dc.lft.to/lastmile_qr_scan", "android": "https://dc.lft.to/lastmile_qr_scan"}, "fusion_lon": 0.0, "lon": -77.02547966666667, "name": "a19b56db24c922f69699bf937916d666", "is_reserved": 0, "is_disabled": 0}, {"lat": 38.921601833333334, "fusion_lat": 0.0, "type": "electric_scooter", "bike_id": "e5d4f4f4f38f1a64fbd40375e5234b67", "rental_uris": {"ios": "https://dc.lft.to/lastmile_qr_scan", "android": "https://dc.lft.to/lastmile_qr_scan"}, "fusion_lon": 0.0, "lon": -77.03321833333334, "name": "e5d4f4f4f38f1a64fbd40375e5234b67", "is_reserved": 0, "is_disabled": 0}, {"lat": 38.869719, "fusion_lat": 0.0, "type": "electric_scooter", "bike_id": "024a940e56995b6ff730eed4aa1dc420", "rental_uris": {"ios": "https://dc.lft.to/lastmile_qr_scan", "android": "https://dc.lft.to/lastmile_qr_scan"}, "fusion_lon": 0.0, "lon": -76.9784855, "name": "024a940e56995b6ff730eed4aa1dc420", "is_reserved": 0, "is_disabled": 0}, {"lat": 38.89184516666667, "fusion_lat": 0.0, "type": "electric_scooter", "bike_id": "c8a8fb969cf654f54a45808e62133296", "rental_uris": {"ios": "https://dc.lft.to/lastmile_qr_scan", "android": "https://dc.lft.to/lastmile_qr_scan"}, "fusion_lon": 0.0, "lon": -77.01598983333334, "name": "c8a8fb969cf654f54a45808e62133296", "is_reserved": 0, "is_disabled": 0}, {"lat": 38.87269516666667, "fusion_lat": 0.0, "type": "electric_scooter", "bike_id": "0daad0dbf686264c353b569dbb61d5d6", "rental_uris": {"ios": "https://dc.lft.to/lastmile_qr_scan", "android": "https://dc.lft.to/lastmile_qr_scan"}, "fusion_lon": 0.0, "lon": -77.01358633333334, "name": "0daad0dbf686264c353b569dbb61d5d6", "is_reserved": 0, "is_disabled": 0}, {"lat": 38.92579, "fusion_lat": 0.0, "type": "electric_scooter", "bike_id": "c2bc73a640a3c678d1a35b827cc08a93", "rental_uris": {"ios": "https://dc.lft.to/lastmile_qr_scan", "android": "https://dc.lft.to/lastmile_qr_scan"}, "fusion_lon": 0.0, "lon": -77.03355383333333, "name": "c2bc73a640a3c678d1a35b827cc08a93", "is_reserved": 0, "is_disabled": 0}, {"lat": 38.873735, "fusion_lat": 0.0, "type": "electric_scooter", "bike_id": "e2a844fe86049a04397a70f89f1d40e4", "rental_uris": {"ios": "https://dc.lft.to/lastmile_qr_scan", "android": "https://dc.lft.to/lastmile_qr_scan"}, "fusion_lon": 0.0, "lon": -77.0008295, "name": "e2a844fe86049a04397a70f89f1d40e4", "is_reserved": 0, "is_disabled": 0}, {"lat": 38.897443, "fusion_lat": 0.0, "type": "electric_scooter", "bike_id": "2fb845b30581764be92301c85adfb776", "rental_uris": {"ios": "https://dc.lft.to/lastmile_qr_scan", "android": "https://dc.lft.to/lastmile_qr_scan"}, "fusion_lon": 0.0, "lon": -77.04611316666667, "name": "2fb845b30581764be92301c85adfb776", "is_reserved": 0, "is_disabled": 0}, {"lat": 38.898723333333336, "fusion_lat": 0.0, "type": "electric_scooter", "bike_id": "92c7f381a77f1b28a1c25f616a28fb3d", "rental_uris": {"ios": "https://dc.lft.to/lastmile_qr_scan", "android": "https://dc.lft.to/lastmile_qr_scan"}, "fusion_lon": 0.0, "lon": -77.05002383333333, "name": "92c7f381a77f1b28a1c25f616a28fb3d", "is_reserved": 0, "is_disabled": 0}, {"lat": 38.893493166666666, "fusion_lat": 0.0, "type": "electric_scooter", "bike_id": "b81489c88b2d4bfd66ec77239be4cf65", "rental_uris": {"ios": "https://dc.lft.to/lastmile_qr_scan", "android": "https://dc.lft.to/lastmile_qr_scan"}, "fusion_lon": 0.0, "lon": -77.02622383333333, "name": "b81489c88b2d4bfd66ec77239be4cf65", "is_reserved": 0, "is_disabled": 0}, {"lat": 38.917086166666664, "fusion_lat": 0.0, "type": "electric_scooter", "bike_id": "50e54a6eaeec2e0b2f5851de96e68619", "rental_uris": {"ios": "https://dc.lft.to/lastmile_qr_scan", "android": "https://dc.lft.to/lastmile_qr_scan"}, "fusion_lon": 0.0, "lon": -77.04079033333333, "name": "50e54a6eaeec2e0b2f5851de96e68619", "is_reserved": 0, "is_disabled": 0}, {"lat": 38.898302, "fusion_lat": 0.0, "type": "electric_scooter", "bike_id": "43ebe2c6ed18e0bcb680df4688edce4a", "rental_uris": {"ios": "https://dc.lft.to/lastmile_qr_scan", "android": "https://dc.lft.to/lastmile_qr_scan"}, "fusion_lon": 0.0, "lon": -77.0502955, "name": "43ebe2c6ed18e0bcb680df4688edce4a", "is_reserved": 0, "is_disabled": 0}, {"lat": 38.924468, "fusion_lat": 0.0, "type": "electric_scooter", "bike_id": "aa8badb1717fa02c3da622a657f35e2f", "rental_uris": {"ios": "https://dc.lft.to/lastmile_qr_scan", "android": "https://dc.lft.to/lastmile_qr_scan"}, "fusion_lon": 0.0, "lon": -77.02231383333333, "name": "aa8badb1717fa02c3da622a657f35e2f", "is_reserved": 0, "is_disabled": 0}, {"lat": 38.90148466666667, "fusion_lat": 0.0, "type": "electric_scooter", "bike_id": "fdd7635bb63885f633cefb2f1b9d56d8", "rental_uris": {"ios": "https://dc.lft.to/lastmile_qr_scan", "android": "https://dc.lft.to/lastmile_qr_scan"}, "fusion_lon": 0.0, "lon": -77.01747133333333, "name": "fdd7635bb63885f633cefb2f1b9d56d8", "is_reserved": 0, "is_disabled": 0}, {"lat": 38.89219966666667, "fusion_lat": 0.0, "type": "electric_scooter", "bike_id": "1df6dee7fa9735163687273355ec58b4", "rental_uris": {"ios": "https://dc.lft.to/lastmile_qr_scan", "android": "https://dc.lft.to/lastmile_qr_scan"}, "fusion_lon": 0.0, "lon": -77.03169416666667, "name": "1df6dee7fa9735163687273355ec58b4", "is_reserved": 0, "is_disabled": 0}, {"lat": 38.923686833333335, "fusion_lat": 0.0, "type": "electric_scooter", "bike_id": "24d45f6cfa6d4693bd0588ee68bd2262", "rental_uris": {"ios": "https://dc.lft.to/lastmile_qr_scan", "android": "https://dc.lft.to/lastmile_qr_scan"}, "fusion_lon": 0.0, "lon": -77.04410366666667, "name": "24d45f6cfa6d4693bd0588ee68bd2262", "is_reserved": 0, "is_disabled": 0}, {"lat": 38.9151875, "fusion_lat": 0.0, "type": "electric_scooter", "bike_id": "1778808c9daf0797ea2786d7ec45d35b", "rental_uris": {"ios": "https://dc.lft.to/lastmile_qr_scan", "android": "https://dc.lft.to/lastmile_qr_scan"}, "fusion_lon": 0.0, "lon": -77.01427733333334, "name": "1778808c9daf0797ea2786d7ec45d35b", "is_reserved": 0, "is_disabled": 0}, {"lat": 38.892157833333336, "fusion_lat": 0.0, "type": "electric_scooter", "bike_id": "3296eea736d9390d122470c276239493", "rental_uris": {"ios": "https://dc.lft.to/lastmile_qr_scan", "android": "https://dc.lft.to/lastmile_qr_scan"}, "fusion_lon": 0.0, "lon": -77.02772233333333, "name": "3296eea736d9390d122470c276239493", "is_reserved": 0, "is_disabled": 0}, {"lat": 38.917344166666666, "fusion_lat": 0.0, "type": "electric_scooter", "bike_id": "7b3816868fee850aa5d2b2df1320285b", "rental_uris": {"ios": "https://dc.lft.to/lastmile_qr_scan", "android": "https://dc.lft.to/lastmile_qr_scan"}, "fusion_lon": 0.0, "lon": -77.04172716666666, "name": "7b3816868fee850aa5d2b2df1320285b", "is_reserved": 0, "is_disabled": 0}, {"lat": 38.919095666666664, "fusion_lat": 0.0, "type": "electric_scooter", "bike_id": "027fe29a4ef519cec8531caaebfe4cf6", "rental_uris": {"ios": "https://dc.lft.to/lastmile_qr_scan", "android": "https://dc.lft.to/lastmile_qr_scan"}, "fusion_lon": 0.0, "lon": -77.025082, "name": "027fe29a4ef519cec8531caaebfe4cf6", "is_reserved": 0, "is_disabled": 0}, {"lat": 38.921030333333334, "fusion_lat": 0.0, "type": "electric_scooter", "bike_id": "cc1dddc77ff813e8609041f1bed0a1db", "rental_uris": {"ios": "https://dc.lft.to/lastmile_qr_scan", "android": "https://dc.lft.to/lastmile_qr_scan"}, "fusion_lon": 0.0, "lon": -77.02217166666667, "name": "cc1dddc77ff813e8609041f1bed0a1db", "is_reserved": 0, "is_disabled": 0}, {"lat": 38.91823466666666, "fusion_lat": 0.0, "type": "electric_scooter", "bike_id": "93d67ea29d8c314bc763c0cd57e3c2dd", "rental_uris": {"ios": "https://dc.lft.to/lastmile_qr_scan", "android": "https://dc.lft.to/lastmile_qr_scan"}, "fusion_lon": 0.0, "lon": -77.04177166666666, "name": "93d67ea29d8c314bc763c0cd57e3c2dd", "is_reserved": 0, "is_disabled": 0}, {"lat": 38.90549866666667, "fusion_lat": 0.0, "type": "electric_scooter", "bike_id": "3ef4c3907aa3522c1bc1e635975af86a", "rental_uris": {"ios": "https://dc.lft.to/lastmile_qr_scan", "android": "https://dc.lft.to/lastmile_qr_scan"}, "fusion_lon": 0.0, "lon": -77.046551, "name": "3ef4c3907aa3522c1bc1e635975af86a", "is_reserved": 0, "is_disabled": 0}, {"lat": 38.850704, "fusion_lat": 0.0, "type": "electric_bike", "bike_id": "248087dfbd1918c66399ea69d80a3b77", "rental_uris": {"ios": "https://dc.lft.to/lastmile_qr_scan", "android": "https://dc.lft.to/lastmile_qr_scan"}, "fusion_lon": 0.0, "lon": -76.957085, "name": "248087dfbd1918c66399ea69d80a3b77", "is_reserved": 0, "is_disabled": 0}, {"lat": 38.873651333333335, "fusion_lat": 0.0, "type": "electric_scooter", "bike_id": "56e715d9b010a7233ccad199e02245eb", "rental_uris": {"ios": "https://dc.lft.to/lastmile_qr_scan", "android": "https://dc.lft.to/lastmile_qr_scan"}, "fusion_lon": 0.0, "lon": -77.001701, "name": "56e715d9b010a7233ccad199e02245eb", "is_reserved": 0, "is_disabled": 0}, {"lat": 38.8873715, "fusion_lat": 0.0, "type": "electric_scooter", "bike_id": "6ff8b46542e54e7577eaf49252266f34", "rental_uris": {"ios": "https://dc.lft.to/lastmile_qr_scan", "android": "https://dc.lft.to/lastmile_qr_scan"}, "fusion_lon": 0.0, "lon": -77.0152835, "name": "6ff8b46542e54e7577eaf49252266f34", "is_reserved": 0, "is_disabled": 0}, {"lat": 38.926284333333335, "fusion_lat": 0.0, "type": "electric_scooter", "bike_id": "5708b824b17d0ef446a6e63f3569d95b", "rental_uris": {"ios": "https://dc.lft.to/lastmile_qr_scan", "android": "https://dc.lft.to/lastmile_qr_scan"}, "fusion_lon": 0.0, "lon": -77.04194966666667, "name": "5708b824b17d0ef446a6e63f3569d95b", "is_reserved": 0, "is_disabled": 0}, {"lat": 38.898830833333335, "fusion_lat": 0.0, "type": "electric_scooter", "bike_id": "85dadd5cbd1a04e8d102eb61aa87164d", "rental_uris": {"ios": "https://dc.lft.to/lastmile_qr_scan", "android": "https://dc.lft.to/lastmile_qr_scan"}, "fusion_lon": 0.0, "lon": -77.0434665, "name": "85dadd5cbd1a04e8d102eb61aa87164d", "is_reserved": 0, "is_disabled": 0}, {"lat": 38.911852, "fusion_lat": 0.0, "type": "electric_scooter", "bike_id": "21a3e95f0ee839d289aefd75bd8ab9e6", "rental_uris": {"ios": "https://dc.lft.to/lastmile_qr_scan", "android": "https://dc.lft.to/lastmile_qr_scan"}, "fusion_lon": 0.0, "lon": -77.0411775, "name": "21a3e95f0ee839d289aefd75bd8ab9e6", "is_reserved": 0, "is_disabled": 0}, {"lat": 38.89830516666667, "fusion_lat": 0.0, "type": "electric_scooter", "bike_id": "2db92feaec85dff6eaaf4f74224d140a", "rental_uris": {"ios": "https://dc.lft.to/lastmile_qr_scan", "android": "https://dc.lft.to/lastmile_qr_scan"}, "fusion_lon": 0.0, "lon": -77.03140783333333, "name": "2db92feaec85dff6eaaf4f74224d140a", "is_reserved": 0, "is_disabled": 0}, {"lat": 38.91254333333333, "fusion_lat": 0.0, "type": "electric_scooter", "bike_id": "a838b376b9b9b9b6d09455ba3f8a0292", "rental_uris": {"ios": "https://dc.lft.to/lastmile_qr_scan", "android": "https://dc.lft.to/lastmile_qr_scan"}, "fusion_lon": 0.0, "lon": -77.03855433333334, "name": "a838b376b9b9b9b6d09455ba3f8a0292", "is_reserved": 0, "is_disabled": 0}, {"lat": 38.92139616666667, "fusion_lat": 0.0, "type": "electric_scooter", "bike_id": "d9ac014ffba8f13d8054b91791a8651c", "rental_uris": {"ios": "https://dc.lft.to/lastmile_qr_scan", "android": "https://dc.lft.to/lastmile_qr_scan"}, "fusion_lon": 0.0, "lon": -77.01806016666667, "name": "d9ac014ffba8f13d8054b91791a8651c", "is_reserved": 0, "is_disabled": 0}, {"lat": 38.96440333333334, "fusion_lat": 0.0, "type": "electric_scooter", "bike_id": "9db1353cdc982031a4c98c655f55103e", "rental_uris": {"ios": "https://dc.lft.to/lastmile_qr_scan", "android": "https://dc.lft.to/lastmile_qr_scan"}, "fusion_lon": 0.0, "lon": -77.019999, "name": "9db1353cdc982031a4c98c655f55103e", "is_reserved": 0, "is_disabled": 0}, {"lat": 38.842772833333335, "fusion_lat": 0.0, "type": "electric_bike", "bike_id": "f2d07c8ed8d6d7610d790d7ecb9f2e02", "rental_uris": {"ios": "https://dc.lft.to/lastmile_qr_scan", "android": "https://dc.lft.to/lastmile_qr_scan"}, "fusion_lon": 0.0, "lon": -76.98841933333334, "name": "f2d07c8ed8d6d7610d790d7ecb9f2e02", "is_reserved": 0, "is_disabled": 0}, {"lat": 38.87344, "fusion_lat": 0.0, "type": "electric_scooter", "bike_id": "ddac867162c2afe7d2c2a3b6a8da7280", "rental_uris": {"ios": "https://dc.lft.to/lastmile_qr_scan", "android": "https://dc.lft.to/lastmile_qr_scan"}, "fusion_lon": 0.0, "lon": -76.99163433333334, "name": "ddac867162c2afe7d2c2a3b6a8da7280", "is_reserved": 0, "is_disabled": 0}, {"lat": 38.91915216666666, "fusion_lat": 0.0, "type": "electric_scooter", "bike_id": "90fce4a528d05a581eb28daa1b91c3d6", "rental_uris": {"ios": "https://dc.lft.to/lastmile_qr_scan", "android": "https://dc.lft.to/lastmile_qr_scan"}, "fusion_lon": 0.0, "lon": -77.02503966666667, "name": "90fce4a528d05a581eb28daa1b91c3d6", "is_reserved": 0, "is_disabled": 0}, {"lat": 38.957387, "fusion_lat": 0.0, "type": "electric_scooter", "bike_id": "bd5f41140f31394aecebab4177b09b08", "rental_uris": {"ios": "https://dc.lft.to/lastmile_qr_scan", "android": "https://dc.lft.to/lastmile_qr_scan"}, "fusion_lon": 0.0, "lon": -77.00222, "name": "bd5f41140f31394aecebab4177b09b08", "is_reserved": 0, "is_disabled": 0}, {"lat": 38.923151, "fusion_lat": 0.0, "type": "electric_scooter", "bike_id": "75ed8520668cfea5fc788fa15ef51404", "rental_uris": {"ios": "https://dc.lft.to/lastmile_qr_scan", "android": "https://dc.lft.to/lastmile_qr_scan"}, "fusion_lon": 0.0, "lon": -77.02895966666667, "name": "75ed8520668cfea5fc788fa15ef51404", "is_reserved": 0, "is_disabled": 0}, {"lat": 38.908514833333335, "fusion_lat": 0.0, "type": "electric_scooter", "bike_id": "4255db9f2f0e8048d0529dc290b94cf8", "rental_uris": {"ios": "https://dc.lft.to/lastmile_qr_scan", "android": "https://dc.lft.to/lastmile_qr_scan"}, "fusion_lon": 0.0, "lon": -77.01966483333334, "name": "4255db9f2f0e8048d0529dc290b94cf8", "is_reserved": 0, "is_disabled": 0}, {"lat": 38.9076825, "fusion_lat": 0.0, "type": "electric_scooter", "bike_id": "fa6c032e5b6a6894f8ca9c990368a2d2", "rental_uris": {"ios": "https://dc.lft.to/lastmile_qr_scan", "android": "https://dc.lft.to/lastmile_qr_scan"}, "fusion_lon": 0.0, "lon": -77.03580083333334, "name": "fa6c032e5b6a6894f8ca9c990368a2d2", "is_reserved": 0, "is_disabled": 0}, {"lat": 38.90580283333333, "fusion_lat": 0.0, "type": "electric_scooter", "bike_id": "3335c1a85b215c740dee6d4bee478099", "rental_uris": {"ios": "https://dc.lft.to/lastmile_qr_scan", "android": "https://dc.lft.to/lastmile_qr_scan"}, "fusion_lon": 0.0, "lon": -76.99317, "name": "3335c1a85b215c740dee6d4bee478099", "is_reserved": 0, "is_disabled": 0}, {"lat": 38.908809833333336, "fusion_lat": 0.0, "type": "electric_scooter", "bike_id": "80a09803d2c3944b6e78ef3a195d5981", "rental_uris": {"ios": "https://dc.lft.to/lastmile_qr_scan", "android": "https://dc.lft.to/lastmile_qr_scan"}, "fusion_lon": 0.0, "lon": -77.0324375, "name": "80a09803d2c3944b6e78ef3a195d5981", "is_reserved": 0, "is_disabled": 0}, {"lat": 38.910549833333334, "fusion_lat": 0.0, "type": "electric_scooter", "bike_id": "37eaca479b0631acca12000e05acd43a", "rental_uris": {"ios": "https://dc.lft.to/lastmile_qr_scan", "android": "https://dc.lft.to/lastmile_qr_scan"}, "fusion_lon": 0.0, "lon": -77.0309115, "name": "37eaca479b0631acca12000e05acd43a", "is_reserved": 0, "is_disabled": 0}, {"lat": 38.99680033333333, "fusion_lat": 0.0, "type": "electric_bike", "bike_id": "6e3b24a046589f793e709016c5b1c516", "rental_uris": {"ios": "https://dc.lft.to/lastmile_qr_scan", "android": "https://dc.lft.to/lastmile_qr_scan"}, "fusion_lon": 0.0, "lon": -77.0255715, "name": "6e3b24a046589f793e709016c5b1c516", "is_reserved": 0, "is_disabled": 0}, {"lat": 38.924688833333335, "fusion_lat": 0.0, "type": "electric_scooter", "bike_id": "711752338fb0b0f209cf3bcf2cc3a489", "rental_uris": {"ios": "https://dc.lft.to/lastmile_qr_scan", "android": "https://dc.lft.to/lastmile_qr_scan"}, "fusion_lon": 0.0, "lon": -77.02218033333334, "name": "711752338fb0b0f209cf3bcf2cc3a489", "is_reserved": 0, "is_disabled": 0}, {"lat": 38.892176166666665, "fusion_lat": 0.0, "type": "electric_scooter", "bike_id": "1aaadcaa44779c6821f0d688d70e2c34", "rental_uris": {"ios": "https://dc.lft.to/lastmile_qr_scan", "android": "https://dc.lft.to/lastmile_qr_scan"}, "fusion_lon": 0.0, "lon": -77.02776383333334, "name": "1aaadcaa44779c6821f0d688d70e2c34", "is_reserved": 0, "is_disabled": 0}, {"lat": 38.9232035, "fusion_lat": 0.0, "type": "electric_bike", "bike_id": "dc933897182e0a354e39f4498fe962a6", "rental_uris": {"ios": "https://dc.lft.to/lastmile_qr_scan", "android": "https://dc.lft.to/lastmile_qr_scan"}, "fusion_lon": 0.0, "lon": -77.0731435, "name": "dc933897182e0a354e39f4498fe962a6", "is_reserved": 0, "is_disabled": 0}, {"lat": 38.900089333333334, "fusion_lat": 0.0, "type": "electric_scooter", "bike_id": "b6df5cd356734ca4865f6aaa0c270e3a", "rental_uris": {"ios": "https://dc.lft.to/lastmile_qr_scan", "android": "https://dc.lft.to/lastmile_qr_scan"}, "fusion_lon": 0.0, "lon": -77.032878, "name": "b6df5cd356734ca4865f6aaa0c270e3a", "is_reserved": 0, "is_disabled": 0}, {"lat": 38.87652633333333, "fusion_lat": 0.0, "type": "electric_scooter", "bike_id": "6c479313fec54821e65ac5fa85589622", "rental_uris": {"ios": "https://dc.lft.to/lastmile_qr_scan", "android": "https://dc.lft.to/lastmile_qr_scan"}, "fusion_lon": 0.0, "lon": -77.003159, "name": "6c479313fec54821e65ac5fa85589622", "is_reserved": 0, "is_disabled": 0}, {"lat": 38.915947833333334, "fusion_lat": 0.0, "type": "electric_scooter", "bike_id": "87f29f5198a5f5d50dff58ae1f09bf3f", "rental_uris": {"ios": "https://dc.lft.to/lastmile_qr_scan", "android": "https://dc.lft.to/lastmile_qr_scan"}, "fusion_lon": 0.0, "lon": -77.01441366666667, "name": "87f29f5198a5f5d50dff58ae1f09bf3f", "is_reserved": 0, "is_disabled": 0}, {"lat": 38.91690216666667, "fusion_lat": 0.0, "type": "electric_scooter", "bike_id": "0c30c5642f8ecaf7a353ccb54dff6bde", "rental_uris": {"ios": "https://dc.lft.to/lastmile_qr_scan", "android": "https://dc.lft.to/lastmile_qr_scan"}, "fusion_lon": 0.0, "lon": -77.03630816666667, "name": "0c30c5642f8ecaf7a353ccb54dff6bde", "is_reserved": 0, "is_disabled": 0}, {"lat": 38.89800433333333, "fusion_lat": 0.0, "type": "electric_scooter", "bike_id": "53dbef8341f7a75504df76092dd1c66b", "rental_uris": {"ios": "https://dc.lft.to/lastmile_qr_scan", "android": "https://dc.lft.to/lastmile_qr_scan"}, "fusion_lon": 0.0, "lon": -77.021992, "name": "53dbef8341f7a75504df76092dd1c66b", "is_reserved": 0, "is_disabled": 0}, {"lat": 38.899006166666666, "fusion_lat": 0.0, "type": "electric_scooter", "bike_id": "83e092d7cc4a844b3f39d289a0dec1b7", "rental_uris": {"ios": "https://dc.lft.to/lastmile_qr_scan", "android": "https://dc.lft.to/lastmile_qr_scan"}, "fusion_lon": 0.0, "lon": -77.02382016666667, "name": "83e092d7cc4a844b3f39d289a0dec1b7", "is_reserved": 0, "is_disabled": 0}, {"lat": 38.9001885, "fusion_lat": 0.0, "type": "electric_scooter", "bike_id": "4e3a80d02562df59e373dbfb7fe43e08", "rental_uris": {"ios": "https://dc.lft.to/lastmile_qr_scan", "android": "https://dc.lft.to/lastmile_qr_scan"}, "fusion_lon": 0.0, "lon": -77.00213266666667, "name": "4e3a80d02562df59e373dbfb7fe43e08", "is_reserved": 0, "is_disabled": 0}, {"lat": 38.90268233333333, "fusion_lat": 0.0, "type": "electric_scooter", "bike_id": "e5976dec7e6c12988b781edd67699a1f", "rental_uris": {"ios": "https://dc.lft.to/lastmile_qr_scan", "android": "https://dc.lft.to/lastmile_qr_scan"}, "fusion_lon": 0.0, "lon": -77.01999183333334, "name": "e5976dec7e6c12988b781edd67699a1f", "is_reserved": 0, "is_disabled": 0}, {"lat": 38.856174333333335, "fusion_lat": 0.0, "type": "electric_bike", "bike_id": "5cc1a79bea2f77f33bafe206dd963adf", "rental_uris": {"ios": "https://dc.lft.to/lastmile_qr_scan", "android": "https://dc.lft.to/lastmile_qr_scan"}, "fusion_lon": 0.0, "lon": -76.96152433333333, "name": "5cc1a79bea2f77f33bafe206dd963adf", "is_reserved": 0, "is_disabled": 0}, {"lat": 38.898432, "fusion_lat": 0.0, "type": "electric_scooter", "bike_id": "aec1ed9c1e521f3be1a84ed9a898e188", "rental_uris": {"ios": "https://dc.lft.to/lastmile_qr_scan", "android": "https://dc.lft.to/lastmile_qr_scan"}, "fusion_lon": 0.0, "lon": -77.0276365, "name": "aec1ed9c1e521f3be1a84ed9a898e188", "is_reserved": 0, "is_disabled": 0}, {"lat": 38.93605066666667, "fusion_lat": 0.0, "type": "electric_scooter", "bike_id": "f59a077c5fde3f9cdb5bbb516af8af44", "rental_uris": {"ios": "https://dc.lft.to/lastmile_qr_scan", "android": "https://dc.lft.to/lastmile_qr_scan"}, "fusion_lon": 0.0, "lon": -77.031829, "name": "f59a077c5fde3f9cdb5bbb516af8af44", "is_reserved": 0, "is_disabled": 0}, {"lat": 38.884870166666666, "fusion_lat": 0.0, "type": "electric_scooter", "bike_id": "11f0c8399c0d9f3bb48c9db1eb6fc8e4", "rental_uris": {"ios": "https://dc.lft.to/lastmile_qr_scan", "android": "https://dc.lft.to/lastmile_qr_scan"}, "fusion_lon": 0.0, "lon": -77.0347305, "name": "11f0c8399c0d9f3bb48c9db1eb6fc8e4", "is_reserved": 0, "is_disabled": 0}, {"lat": 38.892325166666666, "fusion_lat": 0.0, "type": "electric_scooter", "bike_id": "e9d57635effa142714eb2eb74402e281", "rental_uris": {"ios": "https://dc.lft.to/lastmile_qr_scan", "android": "https://dc.lft.to/lastmile_qr_scan"}, "fusion_lon": 0.0, "lon": -77.02205416666666, "name": "e9d57635effa142714eb2eb74402e281", "is_reserved": 0, "is_disabled": 0}, {"lat": 38.91955383333333, "fusion_lat": 0.0, "type": "electric_scooter", "bike_id": "98db380968584aef9cb300616ec87def", "rental_uris": {"ios": "https://dc.lft.to/lastmile_qr_scan", "android": "https://dc.lft.to/lastmile_qr_scan"}, "fusion_lon": 0.0, "lon": -77.0320445, "name": "98db380968584aef9cb300616ec87def", "is_reserved": 0, "is_disabled": 0}, {"lat": 38.905171833333334, "fusion_lat": 0.0, "type": "electric_scooter", "bike_id": "37283b1b90ff8fa5a12ea7bdb648000b", "rental_uris": {"ios": "https://dc.lft.to/lastmile_qr_scan", "android": "https://dc.lft.to/lastmile_qr_scan"}, "fusion_lon": 0.0, "lon": -77.065814, "name": "37283b1b90ff8fa5a12ea7bdb648000b", "is_reserved": 0, "is_disabled": 0}, {"lat": 38.89962, "fusion_lat": 0.0, "type": "electric_scooter", "bike_id": "ac044234304ee28fb8a70541cfabcfc8", "rental_uris": {"ios": "https://dc.lft.to/lastmile_qr_scan", "android": "https://dc.lft.to/lastmile_qr_scan"}, "fusion_lon": 0.0, "lon": -77.0509245, "name": "ac044234304ee28fb8a70541cfabcfc8", "is_reserved": 0, "is_disabled": 0}, {"lat": 38.8983795, "fusion_lat": 0.0, "type": "electric_scooter", "bike_id": "f724d5c64ab4d61cbb43ede20c66c4e2", "rental_uris": {"ios": "https://dc.lft.to/lastmile_qr_scan", "android": "https://dc.lft.to/lastmile_qr_scan"}, "fusion_lon": 0.0, "lon": -77.03932416666666, "name": "f724d5c64ab4d61cbb43ede20c66c4e2", "is_reserved": 0, "is_disabled": 0}, {"lat": 38.84421483333333, "fusion_lat": 0.0, "type": "electric_scooter", "bike_id": "4ac9271a4d071c1df5d0396f0cd7fc52", "rental_uris": {"ios": "https://dc.lft.to/lastmile_qr_scan", "android": "https://dc.lft.to/lastmile_qr_scan"}, "fusion_lon": 0.0, "lon": -76.99779483333333, "name": "4ac9271a4d071c1df5d0396f0cd7fc52", "is_reserved": 0, "is_disabled": 0}, {"lat": 38.909240833333335, "fusion_lat": 0.0, "type": "electric_scooter", "bike_id": "34d5a09cbe7e8bed70b3d6baa2bc4c87", "rental_uris": {"ios": "https://dc.lft.to/lastmile_qr_scan", "android": "https://dc.lft.to/lastmile_qr_scan"}, "fusion_lon": 0.0, "lon": -76.99966333333333, "name": "34d5a09cbe7e8bed70b3d6baa2bc4c87", "is_reserved": 0, "is_disabled": 0}, {"lat": 38.884863333333335, "fusion_lat": 0.0, "type": "electric_scooter", "bike_id": "e33cca263094ac28c402ffa8c3547ce2", "rental_uris": {"ios": "https://dc.lft.to/lastmile_qr_scan", "android": "https://dc.lft.to/lastmile_qr_scan"}, "fusion_lon": 0.0, "lon": -77.00711083333333, "name": "e33cca263094ac28c402ffa8c3547ce2", "is_reserved": 0, "is_disabled": 0}, {"lat": 38.9243625, "fusion_lat": 0.0, "type": "electric_scooter", "bike_id": "ea1463dd4e518d8272900132e2f775de", "rental_uris": {"ios": "https://dc.lft.to/lastmile_qr_scan", "android": "https://dc.lft.to/lastmile_qr_scan"}, "fusion_lon": 0.0, "lon": -77.020305, "name": "ea1463dd4e518d8272900132e2f775de", "is_reserved": 0, "is_disabled": 0}, {"lat": 38.90737633333333, "fusion_lat": 0.0, "type": "electric_scooter", "bike_id": "bed774da350042ed76479d1c2bc2c6fd", "rental_uris": {"ios": "https://dc.lft.to/lastmile_qr_scan", "android": "https://dc.lft.to/lastmile_qr_scan"}, "fusion_lon": 0.0, "lon": -77.0130455, "name": "bed774da350042ed76479d1c2bc2c6fd", "is_reserved": 0, "is_disabled": 0}, {"lat": 38.89698816666667, "fusion_lat": 0.0, "type": "electric_bike", "bike_id": "796db1ae25769b58b99f487dd0dc1b15", "rental_uris": {"ios": "https://dc.lft.to/lastmile_qr_scan", "android": "https://dc.lft.to/lastmile_qr_scan"}, "fusion_lon": 0.0, "lon": -76.96305366666667, "name": "796db1ae25769b58b99f487dd0dc1b15", "is_reserved": 0, "is_disabled": 0}, {"lat": 38.92447666666666, "fusion_lat": 0.0, "type": "electric_scooter", "bike_id": "0822f4b7f4aaaae1188edc85bc54632f", "rental_uris": {"ios": "https://dc.lft.to/lastmile_qr_scan", "android": "https://dc.lft.to/lastmile_qr_scan"}, "fusion_lon": 0.0, "lon": -76.989858, "name": "0822f4b7f4aaaae1188edc85bc54632f", "is_reserved": 0, "is_disabled": 0}, {"lat": 38.9081115, "fusion_lat": 0.0, "type": "electric_scooter", "bike_id": "80ed6999c6daeee66fd8a496158887e4", "rental_uris": {"ios": "https://dc.lft.to/lastmile_qr_scan", "android": "https://dc.lft.to/lastmile_qr_scan"}, "fusion_lon": 0.0, "lon": -77.02535033333334, "name": "80ed6999c6daeee66fd8a496158887e4", "is_reserved": 0, "is_disabled": 0}, {"lat": 38.9072205, "fusion_lat": 0.0, "type": "electric_scooter", "bike_id": "c3ee36e830e3eb094d239de1f0fb5cca", "rental_uris": {"ios": "https://dc.lft.to/lastmile_qr_scan", "android": "https://dc.lft.to/lastmile_qr_scan"}, "fusion_lon": 0.0, "lon": -77.07608383333333, "name": "c3ee36e830e3eb094d239de1f0fb5cca", "is_reserved": 0, "is_disabled": 0}, {"lat": 38.897175833333336, "fusion_lat": 0.0, "type": "electric_scooter", "bike_id": "152b4f1d0af5c489930347ae5d51c560", "rental_uris": {"ios": "https://dc.lft.to/lastmile_qr_scan", "android": "https://dc.lft.to/lastmile_qr_scan"}, "fusion_lon": 0.0, "lon": -77.0079305, "name": "152b4f1d0af5c489930347ae5d51c560", "is_reserved": 0, "is_disabled": 0}, {"lat": 38.901241666666664, "fusion_lat": 0.0, "type": "electric_scooter", "bike_id": "e325d183cd891b54ac199669fd5ef406", "rental_uris": {"ios": "https://dc.lft.to/lastmile_qr_scan", "android": "https://dc.lft.to/lastmile_qr_scan"}, "fusion_lon": 0.0, "lon": -77.01744583333333, "name": "e325d183cd891b54ac199669fd5ef406", "is_reserved": 0, "is_disabled": 0}, {"lat": 38.90062133333333, "fusion_lat": 0.0, "type": "electric_scooter", "bike_id": "ce75a556f0f03f9d702339c8b45e03a4", "rental_uris": {"ios": "https://dc.lft.to/lastmile_qr_scan", "android": "https://dc.lft.to/lastmile_qr_scan"}, "fusion_lon": 0.0, "lon": -77.05132366666666, "name": "ce75a556f0f03f9d702339c8b45e03a4", "is_reserved": 0, "is_disabled": 0}, {"lat": 38.8987445, "fusion_lat": 0.0, "type": "electric_scooter", "bike_id": "35d91acaffb04bbe615030d057cc9772", "rental_uris": {"ios": "https://dc.lft.to/lastmile_qr_scan", "android": "https://dc.lft.to/lastmile_qr_scan"}, "fusion_lon": 0.0, "lon": -76.9318915, "name": "35d91acaffb04bbe615030d057cc9772", "is_reserved": 0, "is_disabled": 0}, {"lat": 38.91261433333333, "fusion_lat": 0.0, "type": "electric_scooter", "bike_id": "5168adae1b40e7399af6f79c1616c3ed", "rental_uris": {"ios": "https://dc.lft.to/lastmile_qr_scan", "android": "https://dc.lft.to/lastmile_qr_scan"}, "fusion_lon": 0.0, "lon": -77.03176416666666, "name": "5168adae1b40e7399af6f79c1616c3ed", "is_reserved": 0, "is_disabled": 0}, {"lat": 38.88932833333333, "fusion_lat": 0.0, "type": "electric_scooter", "bike_id": "95658fae4b304bde0990e4554a15a610", "rental_uris": {"ios": "https://dc.lft.to/lastmile_qr_scan", "android": "https://dc.lft.to/lastmile_qr_scan"}, "fusion_lon": 0.0, "lon": -76.99370216666667, "name": "95658fae4b304bde0990e4554a15a610", "is_reserved": 0, "is_disabled": 0}, {"lat": 38.89854483333333, "fusion_lat": 0.0, "type": "electric_scooter", "bike_id": "79cd0a48dccee9a79e8cfb6b035d198b", "rental_uris": {"ios": "https://dc.lft.to/lastmile_qr_scan", "android": "https://dc.lft.to/lastmile_qr_scan"}, "fusion_lon": 0.0, "lon": -77.0137115, "name": "79cd0a48dccee9a79e8cfb6b035d198b", "is_reserved": 0, "is_disabled": 0}, {"lat": 38.89840016666667, "fusion_lat": 0.0, "type": "electric_scooter", "bike_id": "73f314ab0c9c2e4dbc3f7c40f98cbcbf", "rental_uris": {"ios": "https://dc.lft.to/lastmile_qr_scan", "android": "https://dc.lft.to/lastmile_qr_scan"}, "fusion_lon": 0.0, "lon": -77.0465635, "name": "73f314ab0c9c2e4dbc3f7c40f98cbcbf", "is_reserved": 0, "is_disabled": 0}, {"lat": 38.847597, "fusion_lat": 0.0, "type": "electric_scooter", "bike_id": "1bcc7390eb171aa8c063bb659ba2a795", "rental_uris": {"ios": "https://dc.lft.to/lastmile_qr_scan", "android": "https://dc.lft.to/lastmile_qr_scan"}, "fusion_lon": 0.0, "lon": -76.994996, "name": "1bcc7390eb171aa8c063bb659ba2a795", "is_reserved": 0, "is_disabled": 0}, {"lat": 38.8983575, "fusion_lat": 0.0, "type": "electric_scooter", "bike_id": "747f3deea5e9a2b1338af34e832964c0", "rental_uris": {"ios": "https://dc.lft.to/lastmile_qr_scan", "android": "https://dc.lft.to/lastmile_qr_scan"}, "fusion_lon": 0.0, "lon": -77.00749566666667, "name": "747f3deea5e9a2b1338af34e832964c0", "is_reserved": 0, "is_disabled": 0}, {"lat": 38.89826983333333, "fusion_lat": 0.0, "type": "electric_scooter", "bike_id": "d23008c3423016ff52a27e6a25a4168d", "rental_uris": {"ios": "https://dc.lft.to/lastmile_qr_scan", "android": "https://dc.lft.to/lastmile_qr_scan"}, "fusion_lon": 0.0, "lon": -77.02852816666666, "name": "d23008c3423016ff52a27e6a25a4168d", "is_reserved": 0, "is_disabled": 0}, {"lat": 38.919107, "fusion_lat": 0.0, "type": "electric_scooter", "bike_id": "c12f4d646a9493c7f47f6e2f58e72d82", "rental_uris": {"ios": "https://dc.lft.to/lastmile_qr_scan", "android": "https://dc.lft.to/lastmile_qr_scan"}, "fusion_lon": 0.0, "lon": -77.02511133333333, "name": "c12f4d646a9493c7f47f6e2f58e72d82", "is_reserved": 0, "is_disabled": 0}, {"lat": 38.93821, "fusion_lat": 0.0, "type": "electric_scooter", "bike_id": "8eba01aefa877f065c7e04ec7e9eec19", "rental_uris": {"ios": "https://dc.lft.to/lastmile_qr_scan", "android": "https://dc.lft.to/lastmile_qr_scan"}, "fusion_lon": 0.0, "lon": -76.9892335, "name": "8eba01aefa877f065c7e04ec7e9eec19", "is_reserved": 0, "is_disabled": 0}, {"lat": 38.916343499999996, "fusion_lat": 0.0, "type": "electric_scooter", "bike_id": "150dcf7a57447d7d20a0426e961b6f07", "rental_uris": {"ios": "https://dc.lft.to/lastmile_qr_scan", "android": "https://dc.lft.to/lastmile_qr_scan"}, "fusion_lon": 0.0, "lon": -77.01582133333334, "name": "150dcf7a57447d7d20a0426e961b6f07", "is_reserved": 0, "is_disabled": 0}, {"lat": 38.8992175, "fusion_lat": 0.0, "type": "electric_scooter", "bike_id": "e981302f69664821beae9c83ef62185c", "rental_uris": {"ios": "https://dc.lft.to/lastmile_qr_scan", "android": "https://dc.lft.to/lastmile_qr_scan"}, "fusion_lon": 0.0, "lon": -76.93376516666666, "name": "e981302f69664821beae9c83ef62185c", "is_reserved": 0, "is_disabled": 0}, {"lat": 39.014858, "fusion_lat": 0.0, "type": "electric_bike", "bike_id": "3d1b5f267d3682ecf6691be5990ab5e8", "rental_uris": {"ios": "https://dc.lft.to/lastmile_qr_scan", "android": "https://dc.lft.to/lastmile_qr_scan"}, "fusion_lon": 0.0, "lon": -77.0995065, "name": "3d1b5f267d3682ecf6691be5990ab5e8", "is_reserved": 0, "is_disabled": 0}, {"lat": 38.921096166666665, "fusion_lat": 0.0, "type": "electric_scooter", "bike_id": "b9d049adafc6965acd7bfce86fd53a08", "rental_uris": {"ios": "https://dc.lft.to/lastmile_qr_scan", "android": "https://dc.lft.to/lastmile_qr_scan"}, "fusion_lon": 0.0, "lon": -77.046851, "name": "b9d049adafc6965acd7bfce86fd53a08", "is_reserved": 0, "is_disabled": 0}, {"lat": 38.90886033333334, "fusion_lat": 0.0, "type": "electric_scooter", "bike_id": "23b2e89f79736b6d3dce544e1610e766", "rental_uris": {"ios": "https://dc.lft.to/lastmile_qr_scan", "android": "https://dc.lft.to/lastmile_qr_scan"}, "fusion_lon": 0.0, "lon": -76.99133833333333, "name": "23b2e89f79736b6d3dce544e1610e766", "is_reserved": 0, "is_disabled": 0}, {"lat": 38.87496016666667, "fusion_lat": 0.0, "type": "electric_scooter", "bike_id": "c861015140e14a2ccb9a8ba62170b0d5", "rental_uris": {"ios": "https://dc.lft.to/lastmile_qr_scan", "android": "https://dc.lft.to/lastmile_qr_scan"}, "fusion_lon": 0.0, "lon": -76.99975533333334, "name": "c861015140e14a2ccb9a8ba62170b0d5", "is_reserved": 0, "is_disabled": 0}, {"lat": 38.91991483333334, "fusion_lat": 0.0, "type": "electric_scooter", "bike_id": "71da7e2fec21f4d79d0b326716820d24", "rental_uris": {"ios": "https://dc.lft.to/lastmile_qr_scan", "android": "https://dc.lft.to/lastmile_qr_scan"}, "fusion_lon": 0.0, "lon": -77.0253385, "name": "71da7e2fec21f4d79d0b326716820d24", "is_reserved": 0, "is_disabled": 0}, {"lat": 38.902544, "fusion_lat": 0.0, "type": "electric_scooter", "bike_id": "6555d9fcc07663587586561e432b163c", "rental_uris": {"ios": "https://dc.lft.to/lastmile_qr_scan", "android": "https://dc.lft.to/lastmile_qr_scan"}, "fusion_lon": 0.0, "lon": -77.037438, "name": "6555d9fcc07663587586561e432b163c", "is_reserved": 0, "is_disabled": 0}, {"lat": 38.910273833333335, "fusion_lat": 0.0, "type": "electric_scooter", "bike_id": "6ef7ee138af6b666ca2eafe15123eb53", "rental_uris": {"ios": "https://dc.lft.to/lastmile_qr_scan", "android": "https://dc.lft.to/lastmile_qr_scan"}, "fusion_lon": 0.0, "lon": -76.9972235, "name": "6ef7ee138af6b666ca2eafe15123eb53", "is_reserved": 0, "is_disabled": 0}, {"lat": 38.915557666666665, "fusion_lat": 0.0, "type": "electric_scooter", "bike_id": "2d5ea8a0ee329bc19295cb90df782778", "rental_uris": {"ios": "https://dc.lft.to/lastmile_qr_scan", "android": "https://dc.lft.to/lastmile_qr_scan"}, "fusion_lon": 0.0, "lon": -77.032533, "name": "2d5ea8a0ee329bc19295cb90df782778", "is_reserved": 0, "is_disabled": 0}, {"lat": 38.90423333333333, "fusion_lat": 0.0, "type": "electric_scooter", "bike_id": "2a7ca8386e3a0986620eeee13921f8ed", "rental_uris": {"ios": "https://dc.lft.to/lastmile_qr_scan", "android": "https://dc.lft.to/lastmile_qr_scan"}, "fusion_lon": 0.0, "lon": -77.0196365, "name": "2a7ca8386e3a0986620eeee13921f8ed", "is_reserved": 0, "is_disabled": 0}, {"lat": 38.90205916666667, "fusion_lat": 0.0, "type": "electric_scooter", "bike_id": "55a799977030a8e8c84e1e099edda90e", "rental_uris": {"ios": "https://dc.lft.to/lastmile_qr_scan", "android": "https://dc.lft.to/lastmile_qr_scan"}, "fusion_lon": 0.0, "lon": -77.02250166666667, "name": "55a799977030a8e8c84e1e099edda90e", "is_reserved": 0, "is_disabled": 0}, {"lat": 38.92449216666667, "fusion_lat": 0.0, "type": "electric_scooter", "bike_id": "c821dc56ba7071fe9f3a645be5851a06", "rental_uris": {"ios": "https://dc.lft.to/lastmile_qr_scan", "android": "https://dc.lft.to/lastmile_qr_scan"}, "fusion_lon": 0.0, "lon": -77.05204516666667, "name": "c821dc56ba7071fe9f3a645be5851a06", "is_reserved": 0, "is_disabled": 0}, {"lat": 38.832509333333334, "fusion_lat": 0.0, "type": "electric_bike", "bike_id": "7e0201811e9011d2dca778af38c30413", "rental_uris": {"ios": "https://dc.lft.to/lastmile_qr_scan", "android": "https://dc.lft.to/lastmile_qr_scan"}, "fusion_lon": 0.0, "lon": -77.00725383333334, "name": "7e0201811e9011d2dca778af38c30413", "is_reserved": 0, "is_disabled": 0}, {"lat": 38.900695666666664, "fusion_lat": 0.0, "type": "electric_scooter", "bike_id": "6488061cc105f6438b71da67bd659cc4", "rental_uris": {"ios": "https://dc.lft.to/lastmile_qr_scan", "android": "https://dc.lft.to/lastmile_qr_scan"}, "fusion_lon": 0.0, "lon": -77.050136, "name": "6488061cc105f6438b71da67bd659cc4", "is_reserved": 0, "is_disabled": 0}, {"lat": 38.931864166666664, "fusion_lat": 0.0, "type": "electric_scooter", "bike_id": "04f145ecfa45318ed7b5622717e7bb35", "rental_uris": {"ios": "https://dc.lft.to/lastmile_qr_scan", "android": "https://dc.lft.to/lastmile_qr_scan"}, "fusion_lon": 0.0, "lon": -77.01986833333333, "name": "04f145ecfa45318ed7b5622717e7bb35", "is_reserved": 0, "is_disabled": 0}, {"lat": 38.904729, "fusion_lat": 0.0, "type": "electric_scooter", "bike_id": "505a15fec30aa6517d19d364b80aa6fc", "rental_uris": {"ios": "https://dc.lft.to/lastmile_qr_scan", "android": "https://dc.lft.to/lastmile_qr_scan"}, "fusion_lon": 0.0, "lon": -77.04861083333333, "name": "505a15fec30aa6517d19d364b80aa6fc", "is_reserved": 0, "is_disabled": 0}, {"lat": 38.90589966666667, "fusion_lat": 0.0, "type": "electric_scooter", "bike_id": "eb64d6bbd50763d03ab357728f89766f", "rental_uris": {"ios": "https://dc.lft.to/lastmile_qr_scan", "android": "https://dc.lft.to/lastmile_qr_scan"}, "fusion_lon": 0.0, "lon": -77.04033633333333, "name": "eb64d6bbd50763d03ab357728f89766f", "is_reserved": 0, "is_disabled": 0}, {"lat": 38.93233633333333, "fusion_lat": 0.0, "type": "electric_scooter", "bike_id": "b10b208619763e0417e83966d7d1ded9", "rental_uris": {"ios": "https://dc.lft.to/lastmile_qr_scan", "android": "https://dc.lft.to/lastmile_qr_scan"}, "fusion_lon": 0.0, "lon": -77.02958466666666, "name": "b10b208619763e0417e83966d7d1ded9", "is_reserved": 0, "is_disabled": 0}, {"lat": 38.89956033333333, "fusion_lat": 0.0, "type": "electric_scooter", "bike_id": "5bc795130fee952b5343c96ebdd91238", "rental_uris": {"ios": "https://dc.lft.to/lastmile_qr_scan", "android": "https://dc.lft.to/lastmile_qr_scan"}, "fusion_lon": 0.0, "lon": -77.046514, "name": "5bc795130fee952b5343c96ebdd91238", "is_reserved": 0, "is_disabled": 0}, {"lat": 38.89545116666667, "fusion_lat": 0.0, "type": "electric_scooter", "bike_id": "b72e04ad054de1d07258857b839b12a3", "rental_uris": {"ios": "https://dc.lft.to/lastmile_qr_scan", "android": "https://dc.lft.to/lastmile_qr_scan"}, "fusion_lon": 0.0, "lon": -76.98337316666667, "name": "b72e04ad054de1d07258857b839b12a3", "is_reserved": 0, "is_disabled": 0}, {"lat": 38.900879833333335, "fusion_lat": 0.0, "type": "electric_scooter", "bike_id": "182694fbb801ff3dda088386ebf08682", "rental_uris": {"ios": "https://dc.lft.to/lastmile_qr_scan", "android": "https://dc.lft.to/lastmile_qr_scan"}, "fusion_lon": 0.0, "lon": -76.92957333333334, "name": "182694fbb801ff3dda088386ebf08682", "is_reserved": 0, "is_disabled": 0}, {"lat": 38.967992333333335, "fusion_lat": 0.0, "type": "electric_scooter", "bike_id": "6338dce581220c5c39adbfe994bce483", "rental_uris": {"ios": "https://dc.lft.to/lastmile_qr_scan", "android": "https://dc.lft.to/lastmile_qr_scan"}, "fusion_lon": 0.0, "lon": -77.02426416666667, "name": "6338dce581220c5c39adbfe994bce483", "is_reserved": 0, "is_disabled": 0}, {"lat": 38.884032166666664, "fusion_lat": 0.0, "type": "electric_scooter", "bike_id": "d42790e34e878b5161f456c47c77fc97", "rental_uris": {"ios": "https://dc.lft.to/lastmile_qr_scan", "android": "https://dc.lft.to/lastmile_qr_scan"}, "fusion_lon": 0.0, "lon": -77.031903, "name": "d42790e34e878b5161f456c47c77fc97", "is_reserved": 0, "is_disabled": 0}, {"lat": 38.917467333333335, "fusion_lat": 0.0, "type": "electric_scooter", "bike_id": "fe9405a2bac8b5ab8dfc619d95a94f1c", "rental_uris": {"ios": "https://dc.lft.to/lastmile_qr_scan", "android": "https://dc.lft.to/lastmile_qr_scan"}, "fusion_lon": 0.0, "lon": -77.02495533333334, "name": "fe9405a2bac8b5ab8dfc619d95a94f1c", "is_reserved": 0, "is_disabled": 0}, {"lat": 38.83740433333333, "fusion_lat": 0.0, "type": "electric_bike", "bike_id": "534ec6fa9ade2d11dae6ebfdb651d1a3", "rental_uris": {"ios": "https://dc.lft.to/lastmile_qr_scan", "android": "https://dc.lft.to/lastmile_qr_scan"}, "fusion_lon": 0.0, "lon": -76.9981255, "name": "534ec6fa9ade2d11dae6ebfdb651d1a3", "is_reserved": 0, "is_disabled": 0}, {"lat": 38.88430566666667, "fusion_lat": 0.0, "type": "electric_scooter", "bike_id": "b617ccb805c1591e2fef194043ed71fe", "rental_uris": {"ios": "https://dc.lft.to/lastmile_qr_scan", "android": "https://dc.lft.to/lastmile_qr_scan"}, "fusion_lon": 0.0, "lon": -76.95759333333334, "name": "b617ccb805c1591e2fef194043ed71fe", "is_reserved": 0, "is_disabled": 0}, {"lat": 38.9140475, "fusion_lat": 0.0, "type": "electric_scooter", "bike_id": "c33c9d77e237cca6cf1078a6f5df29fe", "rental_uris": {"ios": "https://dc.lft.to/lastmile_qr_scan", "android": "https://dc.lft.to/lastmile_qr_scan"}, "fusion_lon": 0.0, "lon": -77.0321555, "name": "c33c9d77e237cca6cf1078a6f5df29fe", "is_reserved": 0, "is_disabled": 0}, {"lat": 38.91798816666667, "fusion_lat": 0.0, "type": "electric_scooter", "bike_id": "cd161fe21ded66a3dc06544402f2f650", "rental_uris": {"ios": "https://dc.lft.to/lastmile_qr_scan", "android": "https://dc.lft.to/lastmile_qr_scan"}, "fusion_lon": 0.0, "lon": -77.02704783333333, "name": "cd161fe21ded66a3dc06544402f2f650", "is_reserved": 0, "is_disabled": 0}, {"lat": 38.910083, "fusion_lat": 0.0, "type": "electric_scooter", "bike_id": "219e1f501dfba0155da2ad5e44ab7ca3", "rental_uris": {"ios": "https://dc.lft.to/lastmile_qr_scan", "android": "https://dc.lft.to/lastmile_qr_scan"}, "fusion_lon": 0.0, "lon": -76.9940475, "name": "219e1f501dfba0155da2ad5e44ab7ca3", "is_reserved": 0, "is_disabled": 0}, {"lat": 38.900479833333335, "fusion_lat": 0.0, "type": "electric_scooter", "bike_id": "ef79a7a916de74dad1738a9a3aae086d", "rental_uris": {"ios": "https://dc.lft.to/lastmile_qr_scan", "android": "https://dc.lft.to/lastmile_qr_scan"}, "fusion_lon": 0.0, "lon": -77.0128015, "name": "ef79a7a916de74dad1738a9a3aae086d", "is_reserved": 0, "is_disabled": 0}, {"lat": 38.921352, "fusion_lat": 0.0, "type": "electric_scooter", "bike_id": "e0180daf2badf48325aadc750b9f2537", "rental_uris": {"ios": "https://dc.lft.to/lastmile_qr_scan", "android": "https://dc.lft.to/lastmile_qr_scan"}, "fusion_lon": 0.0, "lon": -77.00942283333333, "name": "e0180daf2badf48325aadc750b9f2537", "is_reserved": 0, "is_disabled": 0}, {"lat": 38.923977666666666, "fusion_lat": 0.0, "type": "electric_bike", "bike_id": "59d5b31b1bc3cbc472176b62115c9b20", "rental_uris": {"ios": "https://dc.lft.to/lastmile_qr_scan", "android": "https://dc.lft.to/lastmile_qr_scan"}, "fusion_lon": 0.0, "lon": -77.00000683333333, "name": "59d5b31b1bc3cbc472176b62115c9b20", "is_reserved": 0, "is_disabled": 0}, {"lat": 38.903809, "fusion_lat": 0.0, "type": "electric_scooter", "bike_id": "b3b993475da761d1ae9c5036a71954d8", "rental_uris": {"ios": "https://dc.lft.to/lastmile_qr_scan", "android": "https://dc.lft.to/lastmile_qr_scan"}, "fusion_lon": 0.0, "lon": -76.97616133333334, "name": "b3b993475da761d1ae9c5036a71954d8", "is_reserved": 0, "is_disabled": 0}, {"lat": 38.90459, "fusion_lat": 0.0, "type": "electric_scooter", "bike_id": "44ad876b545c3922e85c4b72fd06d126", "rental_uris": {"ios": "https://dc.lft.to/lastmile_qr_scan", "android": "https://dc.lft.to/lastmile_qr_scan"}, "fusion_lon": 0.0, "lon": -77.01895166666667, "name": "44ad876b545c3922e85c4b72fd06d126", "is_reserved": 0, "is_disabled": 0}, {"lat": 38.90627166666667, "fusion_lat": 0.0, "type": "electric_scooter", "bike_id": "1c5a03ab35a268eb37bca26f20586eb3", "rental_uris": {"ios": "https://dc.lft.to/lastmile_qr_scan", "android": "https://dc.lft.to/lastmile_qr_scan"}, "fusion_lon": 0.0, "lon": -77.00596416666667, "name": "1c5a03ab35a268eb37bca26f20586eb3", "is_reserved": 0, "is_disabled": 0}, {"lat": 38.91296166666667, "fusion_lat": 0.0, "type": "electric_scooter", "bike_id": "61e0a0a3288a1c949cd140012a4da0ec", "rental_uris": {"ios": "https://dc.lft.to/lastmile_qr_scan", "android": "https://dc.lft.to/lastmile_qr_scan"}, "fusion_lon": 0.0, "lon": -76.98473133333333, "name": "61e0a0a3288a1c949cd140012a4da0ec", "is_reserved": 0, "is_disabled": 0}, {"lat": 38.961419166666666, "fusion_lat": 0.0, "type": "electric_scooter", "bike_id": "7f6b4afdebbc4ecc53b3f47201eca3b7", "rental_uris": {"ios": "https://dc.lft.to/lastmile_qr_scan", "android": "https://dc.lft.to/lastmile_qr_scan"}, "fusion_lon": 0.0, "lon": -77.027867, "name": "7f6b4afdebbc4ecc53b3f47201eca3b7", "is_reserved": 0, "is_disabled": 0}, {"lat": 38.9207765, "fusion_lat": 0.0, "type": "electric_scooter", "bike_id": "1bd884af2af64d61f3fd4b8b05f9cfab", "rental_uris": {"ios": "https://dc.lft.to/lastmile_qr_scan", "android": "https://dc.lft.to/lastmile_qr_scan"}, "fusion_lon": 0.0, "lon": -77.02313666666667, "name": "1bd884af2af64d61f3fd4b8b05f9cfab", "is_reserved": 0, "is_disabled": 0}, {"lat": 38.892692333333336, "fusion_lat": 0.0, "type": "electric_scooter", "bike_id": "fc764a9cc91a86d03ca6d5999e708cc1", "rental_uris": {"ios": "https://dc.lft.to/lastmile_qr_scan", "android": "https://dc.lft.to/lastmile_qr_scan"}, "fusion_lon": 0.0, "lon": -77.04672416666666, "name": "fc764a9cc91a86d03ca6d5999e708cc1", "is_reserved": 0, "is_disabled": 0}, {"lat": 38.91812783333334, "fusion_lat": 0.0, "type": "electric_scooter", "bike_id": "59e20a6c2df0350f3c975cbc67ec06e1", "rental_uris": {"ios": "https://dc.lft.to/lastmile_qr_scan", "android": "https://dc.lft.to/lastmile_qr_scan"}, "fusion_lon": 0.0, "lon": -77.03636416666667, "name": "59e20a6c2df0350f3c975cbc67ec06e1", "is_reserved": 0, "is_disabled": 0}, {"lat": 38.929124, "fusion_lat": 0.0, "type": "electric_scooter", "bike_id": "dd6b904690fbac88a184fea94276b6d1", "rental_uris": {"ios": "https://dc.lft.to/lastmile_qr_scan", "android": "https://dc.lft.to/lastmile_qr_scan"}, "fusion_lon": 0.0, "lon": -77.0729915, "name": "dd6b904690fbac88a184fea94276b6d1", "is_reserved": 0, "is_disabled": 0}, {"lat": 38.917768, "fusion_lat": 0.0, "type": "electric_scooter", "bike_id": "690517f2d62c1d411abfdda2f8fdc774", "rental_uris": {"ios": "https://dc.lft.to/lastmile_qr_scan", "android": "https://dc.lft.to/lastmile_qr_scan"}, "fusion_lon": 0.0, "lon": -77.021183, "name": "690517f2d62c1d411abfdda2f8fdc774", "is_reserved": 0, "is_disabled": 0}, {"lat": 38.915869, "fusion_lat": 0.0, "type": "electric_scooter", "bike_id": "0cc927aeaa4233b104a1158b35b182ad", "rental_uris": {"ios": "https://dc.lft.to/lastmile_qr_scan", "android": "https://dc.lft.to/lastmile_qr_scan"}, "fusion_lon": 0.0, "lon": -77.032189, "name": "0cc927aeaa4233b104a1158b35b182ad", "is_reserved": 0, "is_disabled": 0}, {"lat": 38.9118095, "fusion_lat": 0.0, "type": "electric_bike", "bike_id": "c9dd9a53d59c6604551b1eaa198fc612", "rental_uris": {"ios": "https://dc.lft.to/lastmile_qr_scan", "android": "https://dc.lft.to/lastmile_qr_scan"}, "fusion_lon": 0.0, "lon": -77.026967, "name": "c9dd9a53d59c6604551b1eaa198fc612", "is_reserved": 0, "is_disabled": 0}, {"lat": 38.9639275, "fusion_lat": 0.0, "type": "electric_scooter", "bike_id": "d18ecf36a9fec6fb7026a2c073a68ad2", "rental_uris": {"ios": "https://dc.lft.to/lastmile_qr_scan", "android": "https://dc.lft.to/lastmile_qr_scan"}, "fusion_lon": 0.0, "lon": -77.02592283333334, "name": "d18ecf36a9fec6fb7026a2c073a68ad2", "is_reserved": 0, "is_disabled": 0}, {"lat": 38.900861, "fusion_lat": 0.0, "type": "electric_scooter", "bike_id": "e5807bb4099cfd742c1ea3f4822e19f1", "rental_uris": {"ios": "https://dc.lft.to/lastmile_qr_scan", "android": "https://dc.lft.to/lastmile_qr_scan"}, "fusion_lon": 0.0, "lon": -77.02293783333333, "name": "e5807bb4099cfd742c1ea3f4822e19f1", "is_reserved": 0, "is_disabled": 0}, {"lat": 38.900453666666664, "fusion_lat": 0.0, "type": "electric_scooter", "bike_id": "a697fe6329870d9b8b2d90877077cdf6", "rental_uris": {"ios": "https://dc.lft.to/lastmile_qr_scan", "android": "https://dc.lft.to/lastmile_qr_scan"}, "fusion_lon": 0.0, "lon": -77.02637366666667, "name": "a697fe6329870d9b8b2d90877077cdf6", "is_reserved": 0, "is_disabled": 0}, {"lat": 38.91781316666667, "fusion_lat": 0.0, "type": "electric_scooter", "bike_id": "8f6eeb32e2a0da75f369ad80f75a888e", "rental_uris": {"ios": "https://dc.lft.to/lastmile_qr_scan", "android": "https://dc.lft.to/lastmile_qr_scan"}, "fusion_lon": 0.0, "lon": -77.0364785, "name": "8f6eeb32e2a0da75f369ad80f75a888e", "is_reserved": 0, "is_disabled": 0}, {"lat": 38.961421666666666, "fusion_lat": 0.0, "type": "electric_scooter", "bike_id": "0b454c82b659e9d87aa7d5c6261abc54", "rental_uris": {"ios": "https://dc.lft.to/lastmile_qr_scan", "android": "https://dc.lft.to/lastmile_qr_scan"}, "fusion_lon": 0.0, "lon": -77.02810266666667, "name": "0b454c82b659e9d87aa7d5c6261abc54", "is_reserved": 0, "is_disabled": 0}, {"lat": 38.9100105, "fusion_lat": 0.0, "type": "electric_scooter", "bike_id": "0cb8185f50f3d9242b428bf80cb129c5", "rental_uris": {"ios": "https://dc.lft.to/lastmile_qr_scan", "android": "https://dc.lft.to/lastmile_qr_scan"}, "fusion_lon": 0.0, "lon": -77.040044, "name": "0cb8185f50f3d9242b428bf80cb129c5", "is_reserved": 0, "is_disabled": 0}, {"lat": 38.89617333333333, "fusion_lat": 0.0, "type": "electric_scooter", "bike_id": "34451ed40afaccd12e65ef8e4bb525f1", "rental_uris": {"ios": "https://dc.lft.to/lastmile_qr_scan", "android": "https://dc.lft.to/lastmile_qr_scan"}, "fusion_lon": 0.0, "lon": -77.0297135, "name": "34451ed40afaccd12e65ef8e4bb525f1", "is_reserved": 0, "is_disabled": 0}, {"lat": 38.89926083333334, "fusion_lat": 0.0, "type": "electric_scooter", "bike_id": "55c0ab8e045e62774ce571f1d375c5a6", "rental_uris": {"ios": "https://dc.lft.to/lastmile_qr_scan", "android": "https://dc.lft.to/lastmile_qr_scan"}, "fusion_lon": 0.0, "lon": -77.0127445, "name": "55c0ab8e045e62774ce571f1d375c5a6", "is_reserved": 0, "is_disabled": 0}, {"lat": 38.928270166666664, "fusion_lat": 0.0, "type": "electric_scooter", "bike_id": "57571b38e1ed471210c8d5f9d9159186", "rental_uris": {"ios": "https://dc.lft.to/lastmile_qr_scan", "android": "https://dc.lft.to/lastmile_qr_scan"}, "fusion_lon": 0.0, "lon": -77.03714433333333, "name": "57571b38e1ed471210c8d5f9d9159186", "is_reserved": 0, "is_disabled": 0}, {"lat": 38.93452383333333, "fusion_lat": 0.0, "type": "electric_scooter", "bike_id": "a1819a2f2143477c0acdbc345ac76333", "rental_uris": {"ios": "https://dc.lft.to/lastmile_qr_scan", "android": "https://dc.lft.to/lastmile_qr_scan"}, "fusion_lon": 0.0, "lon": -77.02913216666667, "name": "a1819a2f2143477c0acdbc345ac76333", "is_reserved": 0, "is_disabled": 0}, {"lat": 38.98043166666667, "fusion_lat": 0.0, "type": "electric_bike", "bike_id": "2be50d29f0513e0983692a43a093d703", "rental_uris": {"ios": "https://dc.lft.to/lastmile_qr_scan", "android": "https://dc.lft.to/lastmile_qr_scan"}, "fusion_lon": 0.0, "lon": -76.95788366666666, "name": "2be50d29f0513e0983692a43a093d703", "is_reserved": 0, "is_disabled": 0}, {"lat": 38.897026, "fusion_lat": 0.0, "type": "electric_scooter", "bike_id": "cc29d78de552a52184fdae81fb6ab52f", "rental_uris": {"ios": "https://dc.lft.to/lastmile_qr_scan", "android": "https://dc.lft.to/lastmile_qr_scan"}, "fusion_lon": 0.0, "lon": -76.93573083333334, "name": "cc29d78de552a52184fdae81fb6ab52f", "is_reserved": 0, "is_disabled": 0}, {"lat": 38.916758, "fusion_lat": 0.0, "type": "electric_scooter", "bike_id": "c0ac297f8da7788ec666656908963afb", "rental_uris": {"ios": "https://dc.lft.to/lastmile_qr_scan", "android": "https://dc.lft.to/lastmile_qr_scan"}, "fusion_lon": 0.0, "lon": -77.02279916666667, "name": "c0ac297f8da7788ec666656908963afb", "is_reserved": 0, "is_disabled": 0}, {"lat": 38.92497316666667, "fusion_lat": 0.0, "type": "electric_scooter", "bike_id": "dbb16afffea95af104f738a650963249", "rental_uris": {"ios": "https://dc.lft.to/lastmile_qr_scan", "android": "https://dc.lft.to/lastmile_qr_scan"}, "fusion_lon": 0.0, "lon": -77.02446833333333, "name": "dbb16afffea95af104f738a650963249", "is_reserved": 0, "is_disabled": 0}, {"lat": 38.885340166666666, "fusion_lat": 0.0, "type": "electric_scooter", "bike_id": "864373cfec5a217ff9279e202ddcd729", "rental_uris": {"ios": "https://dc.lft.to/lastmile_qr_scan", "android": "https://dc.lft.to/lastmile_qr_scan"}, "fusion_lon": 0.0, "lon": -76.99825283333334, "name": "864373cfec5a217ff9279e202ddcd729", "is_reserved": 0, "is_disabled": 0}, {"lat": 38.91495183333333, "fusion_lat": 0.0, "type": "electric_scooter", "bike_id": "0d796bac376dddc1cb1af1e3d9285b46", "rental_uris": {"ios": "https://dc.lft.to/lastmile_qr_scan", "android": "https://dc.lft.to/lastmile_qr_scan"}, "fusion_lon": 0.0, "lon": -77.01855866666666, "name": "0d796bac376dddc1cb1af1e3d9285b46", "is_reserved": 0, "is_disabled": 0}, {"lat": 38.9065295, "fusion_lat": 0.0, "type": "electric_scooter", "bike_id": "d3310366155e434602130d0917ddd3b5", "rental_uris": {"ios": "https://dc.lft.to/lastmile_qr_scan", "android": "https://dc.lft.to/lastmile_qr_scan"}, "fusion_lon": 0.0, "lon": -77.038907, "name": "d3310366155e434602130d0917ddd3b5", "is_reserved": 0, "is_disabled": 0}, {"lat": 38.91507933333333, "fusion_lat": 0.0, "type": "electric_scooter", "bike_id": "3cb22cfd7cde39fec616ad561e2366f5", "rental_uris": {"ios": "https://dc.lft.to/lastmile_qr_scan", "android": "https://dc.lft.to/lastmile_qr_scan"}, "fusion_lon": 0.0, "lon": -77.01905616666667, "name": "3cb22cfd7cde39fec616ad561e2366f5", "is_reserved": 0, "is_disabled": 0}, {"lat": 38.90065216666667, "fusion_lat": 0.0, "type": "electric_scooter", "bike_id": "fa48d7b7459860fbd31ba60e9e72c5bb", "rental_uris": {"ios": "https://dc.lft.to/lastmile_qr_scan", "android": "https://dc.lft.to/lastmile_qr_scan"}, "fusion_lon": 0.0, "lon": -77.054343, "name": "fa48d7b7459860fbd31ba60e9e72c5bb", "is_reserved": 0, "is_disabled": 0}, {"lat": 38.90546633333334, "fusion_lat": 0.0, "type": "electric_scooter", "bike_id": "ca3886f9c2b94fb0fec9b43f8d807490", "rental_uris": {"ios": "https://dc.lft.to/lastmile_qr_scan", "android": "https://dc.lft.to/lastmile_qr_scan"}, "fusion_lon": 0.0, "lon": -76.994741, "name": "ca3886f9c2b94fb0fec9b43f8d807490", "is_reserved": 0, "is_disabled": 0}, {"lat": 38.91482766666667, "fusion_lat": 0.0, "type": "electric_scooter", "bike_id": "a00dc699ea7c7a884f139737dbd55216", "rental_uris": {"ios": "https://dc.lft.to/lastmile_qr_scan", "android": "https://dc.lft.to/lastmile_qr_scan"}, "fusion_lon": 0.0, "lon": -77.024546, "name": "a00dc699ea7c7a884f139737dbd55216", "is_reserved": 0, "is_disabled": 0}, {"lat": 38.920313666666665, "fusion_lat": 0.0, "type": "electric_scooter", "bike_id": "0c9611653b32172989388c945f2432f1", "rental_uris": {"ios": "https://dc.lft.to/lastmile_qr_scan", "android": "https://dc.lft.to/lastmile_qr_scan"}, "fusion_lon": 0.0, "lon": -77.0385215, "name": "0c9611653b32172989388c945f2432f1", "is_reserved": 0, "is_disabled": 0}, {"lat": 38.92433666666667, "fusion_lat": 0.0, "type": "electric_scooter", "bike_id": "ee7f2ea94bfa39d4e49946dfb48bcb0b", "rental_uris": {"ios": "https://dc.lft.to/lastmile_qr_scan", "android": "https://dc.lft.to/lastmile_qr_scan"}, "fusion_lon": 0.0, "lon": -77.02020266666666, "name": "ee7f2ea94bfa39d4e49946dfb48bcb0b", "is_reserved": 0, "is_disabled": 0}, {"lat": 38.883866833333336, "fusion_lat": 0.0, "type": "electric_scooter", "bike_id": "24aced558069e0d0ea2f6ae7cbf7e418", "rental_uris": {"ios": "https://dc.lft.to/lastmile_qr_scan", "android": "https://dc.lft.to/lastmile_qr_scan"}, "fusion_lon": 0.0, "lon": -76.995559, "name": "24aced558069e0d0ea2f6ae7cbf7e418", "is_reserved": 0, "is_disabled": 0}, {"lat": 38.9209005, "fusion_lat": 0.0, "type": "electric_scooter", "bike_id": "232a06cc79a7e501dda6d16b82d47c98", "rental_uris": {"ios": "https://dc.lft.to/lastmile_qr_scan", "android": "https://dc.lft.to/lastmile_qr_scan"}, "fusion_lon": 0.0, "lon": -77.07558566666667, "name": "232a06cc79a7e501dda6d16b82d47c98", "is_reserved": 0, "is_disabled": 0}, {"lat": 38.89213216666667, "fusion_lat": 0.0, "type": "electric_scooter", "bike_id": "1ad3f896f13bf76ec187179c78993d93", "rental_uris": {"ios": "https://dc.lft.to/lastmile_qr_scan", "android": "https://dc.lft.to/lastmile_qr_scan"}, "fusion_lon": 0.0, "lon": -77.026602, "name": "1ad3f896f13bf76ec187179c78993d93", "is_reserved": 0, "is_disabled": 0}, {"lat": 38.9022755, "fusion_lat": 0.0, "type": "electric_scooter", "bike_id": "df367d78a04a582f2c751f89f790ce17", "rental_uris": {"ios": "https://dc.lft.to/lastmile_qr_scan", "android": "https://dc.lft.to/lastmile_qr_scan"}, "fusion_lon": 0.0, "lon": -76.94197516666667, "name": "df367d78a04a582f2c751f89f790ce17", "is_reserved": 0, "is_disabled": 0}, {"lat": 38.91109683333333, "fusion_lat": 0.0, "type": "electric_scooter", "bike_id": "cfe5d78e876f978758d52801df9e4ddf", "rental_uris": {"ios": "https://dc.lft.to/lastmile_qr_scan", "android": "https://dc.lft.to/lastmile_qr_scan"}, "fusion_lon": 0.0, "lon": -77.02415233333333, "name": "cfe5d78e876f978758d52801df9e4ddf", "is_reserved": 0, "is_disabled": 0}, {"lat": 38.896638, "fusion_lat": 0.0, "type": "electric_scooter", "bike_id": "3fa70ec8c91086e83a39b9f0586b2d19", "rental_uris": {"ios": "https://dc.lft.to/lastmile_qr_scan", "android": "https://dc.lft.to/lastmile_qr_scan"}, "fusion_lon": 0.0, "lon": -77.03348983333333, "name": "3fa70ec8c91086e83a39b9f0586b2d19", "is_reserved": 0, "is_disabled": 0}, {"lat": 38.92240966666667, "fusion_lat": 0.0, "type": "electric_scooter", "bike_id": "da492e2914d8d009085c4387c1c18617", "rental_uris": {"ios": "https://dc.lft.to/lastmile_qr_scan", "android": "https://dc.lft.to/lastmile_qr_scan"}, "fusion_lon": 0.0, "lon": -77.02197616666666, "name": "da492e2914d8d009085c4387c1c18617", "is_reserved": 0, "is_disabled": 0}, {"lat": 38.85725166666667, "fusion_lat": 0.0, "type": "electric_bike", "bike_id": "691244fa66a03a931764eec097f61d08", "rental_uris": {"ios": "https://dc.lft.to/lastmile_qr_scan", "android": "https://dc.lft.to/lastmile_qr_scan"}, "fusion_lon": 0.0, "lon": -76.97772083333334, "name": "691244fa66a03a931764eec097f61d08", "is_reserved": 0, "is_disabled": 0}, {"lat": 38.917933833333336, "fusion_lat": 0.0, "type": "electric_scooter", "bike_id": "468b26afe014567c32de3c9fe322ef12", "rental_uris": {"ios": "https://dc.lft.to/lastmile_qr_scan", "android": "https://dc.lft.to/lastmile_qr_scan"}, "fusion_lon": 0.0, "lon": -77.0228595, "name": "468b26afe014567c32de3c9fe322ef12", "is_reserved": 0, "is_disabled": 0}, {"lat": 38.89754166666667, "fusion_lat": 0.0, "type": "electric_scooter", "bike_id": "fbd648af5f0f51f54d01bb766fd698cb", "rental_uris": {"ios": "https://dc.lft.to/lastmile_qr_scan", "android": "https://dc.lft.to/lastmile_qr_scan"}, "fusion_lon": 0.0, "lon": -77.00750033333334, "name": "fbd648af5f0f51f54d01bb766fd698cb", "is_reserved": 0, "is_disabled": 0}, {"lat": 38.89731366666667, "fusion_lat": 0.0, "type": "electric_scooter", "bike_id": "c038735bed2f4f7b35d1efd6097d1004", "rental_uris": {"ios": "https://dc.lft.to/lastmile_qr_scan", "android": "https://dc.lft.to/lastmile_qr_scan"}, "fusion_lon": 0.0, "lon": -77.00366733333334, "name": "c038735bed2f4f7b35d1efd6097d1004", "is_reserved": 0, "is_disabled": 0}, {"lat": 38.8982285, "fusion_lat": 0.0, "type": "electric_scooter", "bike_id": "faaa642c96e38b5f3c81fd19dbab5e45", "rental_uris": {"ios": "https://dc.lft.to/lastmile_qr_scan", "android": "https://dc.lft.to/lastmile_qr_scan"}, "fusion_lon": 0.0, "lon": -77.05004716666667, "name": "faaa642c96e38b5f3c81fd19dbab5e45", "is_reserved": 0, "is_disabled": 0}, {"lat": 38.898765166666664, "fusion_lat": 0.0, "type": "electric_scooter", "bike_id": "c03c472b765bc815e9688cb25ad293dc", "rental_uris": {"ios": "https://dc.lft.to/lastmile_qr_scan", "android": "https://dc.lft.to/lastmile_qr_scan"}, "fusion_lon": 0.0, "lon": -76.9318645, "name": "c03c472b765bc815e9688cb25ad293dc", "is_reserved": 0, "is_disabled": 0}, {"lat": 38.916692166666664, "fusion_lat": 0.0, "type": "electric_scooter", "bike_id": "d6a61abc6ef8d56b7af2ff803d5055c6", "rental_uris": {"ios": "https://dc.lft.to/lastmile_qr_scan", "android": "https://dc.lft.to/lastmile_qr_scan"}, "fusion_lon": 0.0, "lon": -77.02292366666667, "name": "d6a61abc6ef8d56b7af2ff803d5055c6", "is_reserved": 0, "is_disabled": 0}, {"lat": 38.93415783333333, "fusion_lat": 0.0, "type": "electric_bike", "bike_id": "eaf83b239c54b13f58b6fc9143a3c887", "rental_uris": {"ios": "https://dc.lft.to/lastmile_qr_scan", "android": "https://dc.lft.to/lastmile_qr_scan"}, "fusion_lon": 0.0, "lon": -77.04306283333334, "name": "eaf83b239c54b13f58b6fc9143a3c887", "is_reserved": 0, "is_disabled": 0}, {"lat": 38.9055525, "fusion_lat": 0.0, "type": "electric_scooter", "bike_id": "e0890d83de527c48c6cde7cecbee9197", "rental_uris": {"ios": "https://dc.lft.to/lastmile_qr_scan", "android": "https://dc.lft.to/lastmile_qr_scan"}, "fusion_lon": 0.0, "lon": -77.04244533333333, "name": "e0890d83de527c48c6cde7cecbee9197", "is_reserved": 0, "is_disabled": 0}, {"lat": 38.902341, "fusion_lat": 0.0, "type": "electric_scooter", "bike_id": "1b4b9ccf935bf71338d44c03a520c3d4", "rental_uris": {"ios": "https://dc.lft.to/lastmile_qr_scan", "android": "https://dc.lft.to/lastmile_qr_scan"}, "fusion_lon": 0.0, "lon": -77.045987, "name": "1b4b9ccf935bf71338d44c03a520c3d4", "is_reserved": 0, "is_disabled": 0}, {"lat": 38.90638283333333, "fusion_lat": 0.0, "type": "electric_scooter", "bike_id": "7774009846e09ee96b33ca2c034ea81e", "rental_uris": {"ios": "https://dc.lft.to/lastmile_qr_scan", "android": "https://dc.lft.to/lastmile_qr_scan"}, "fusion_lon": 0.0, "lon": -77.0095955, "name": "7774009846e09ee96b33ca2c034ea81e", "is_reserved": 0, "is_disabled": 0}, {"lat": 38.88744533333333, "fusion_lat": 0.0, "type": "electric_scooter", "bike_id": "c247b395928cfe74c8bf8596ab3ca20f", "rental_uris": {"ios": "https://dc.lft.to/lastmile_qr_scan", "android": "https://dc.lft.to/lastmile_qr_scan"}, "fusion_lon": 0.0, "lon": -77.02567116666667, "name": "c247b395928cfe74c8bf8596ab3ca20f", "is_reserved": 0, "is_disabled": 0}, {"lat": 38.95091166666667, "fusion_lat": 0.0, "type": "electric_scooter", "bike_id": "f2f653f952953aec1a5616efb236561b", "rental_uris": {"ios": "https://dc.lft.to/lastmile_qr_scan", "android": "https://dc.lft.to/lastmile_qr_scan"}, "fusion_lon": 0.0, "lon": -77.0270925, "name": "f2f653f952953aec1a5616efb236561b", "is_reserved": 0, "is_disabled": 0}, {"lat": 38.9346435, "fusion_lat": 0.0, "type": "electric_scooter", "bike_id": "3cdcd68210ce2a7dc9e5714bad036fba", "rental_uris": {"ios": "https://dc.lft.to/lastmile_qr_scan", "android": "https://dc.lft.to/lastmile_qr_scan"}, "fusion_lon": 0.0, "lon": -77.02775583333333, "name": "3cdcd68210ce2a7dc9e5714bad036fba", "is_reserved": 0, "is_disabled": 0}, {"lat": 38.9127775, "fusion_lat": 0.0, "type": "electric_scooter", "bike_id": "dd73240f586f7deda07444fcef2b4f11", "rental_uris": {"ios": "https://dc.lft.to/lastmile_qr_scan", "android": "https://dc.lft.to/lastmile_qr_scan"}, "fusion_lon": 0.0, "lon": -77.0450945, "name": "dd73240f586f7deda07444fcef2b4f11", "is_reserved": 0, "is_disabled": 0}, {"lat": 38.89605666666667, "fusion_lat": 0.0, "type": "electric_scooter", "bike_id": "ead5b8eba64897a754b35b81977a48f4", "rental_uris": {"ios": "https://dc.lft.to/lastmile_qr_scan", "android": "https://dc.lft.to/lastmile_qr_scan"}, "fusion_lon": 0.0, "lon": -77.00911416666666, "name": "ead5b8eba64897a754b35b81977a48f4", "is_reserved": 0, "is_disabled": 0}, {"lat": 38.887343, "fusion_lat": 0.0, "type": "electric_scooter", "bike_id": "1d6cf144984ce217e3b78b6c4245bf3b", "rental_uris": {"ios": "https://dc.lft.to/lastmile_qr_scan", "android": "https://dc.lft.to/lastmile_qr_scan"}, "fusion_lon": 0.0, "lon": -77.00335883333334, "name": "1d6cf144984ce217e3b78b6c4245bf3b", "is_reserved": 0, "is_disabled": 0}, {"lat": 38.9078935, "fusion_lat": 0.0, "type": "electric_scooter", "bike_id": "f48fda485f05fcc6d59d6a22fc8d8227", "rental_uris": {"ios": "https://dc.lft.to/lastmile_qr_scan", "android": "https://dc.lft.to/lastmile_qr_scan"}, "fusion_lon": 0.0, "lon": -77.06416583333333, "name": "f48fda485f05fcc6d59d6a22fc8d8227", "is_reserved": 0, "is_disabled": 0}, {"lat": 38.96611383333333, "fusion_lat": 0.0, "type": "electric_scooter", "bike_id": "5191bcaaa26e56de721e95f86c5f0144", "rental_uris": {"ios": "https://dc.lft.to/lastmile_qr_scan", "android": "https://dc.lft.to/lastmile_qr_scan"}, "fusion_lon": 0.0, "lon": -77.02005016666666, "name": "5191bcaaa26e56de721e95f86c5f0144", "is_reserved": 0, "is_disabled": 0}, {"lat": 38.921436, "fusion_lat": 0.0, "type": "electric_scooter", "bike_id": "6be253631b10ff5a4c04b0fee2ae6239", "rental_uris": {"ios": "https://dc.lft.to/lastmile_qr_scan", "android": "https://dc.lft.to/lastmile_qr_scan"}, "fusion_lon": 0.0, "lon": -77.04356683333333, "name": "6be253631b10ff5a4c04b0fee2ae6239", "is_reserved": 0, "is_disabled": 0}, {"lat": 38.899252833333335, "fusion_lat": 0.0, "type": "electric_scooter", "bike_id": "0e015b3b1de67009efd274cfb41fb72a", "rental_uris": {"ios": "https://dc.lft.to/lastmile_qr_scan", "android": "https://dc.lft.to/lastmile_qr_scan"}, "fusion_lon": 0.0, "lon": -77.01271116666666, "name": "0e015b3b1de67009efd274cfb41fb72a", "is_reserved": 0, "is_disabled": 0}, {"lat": 38.89538433333333, "fusion_lat": 0.0, "type": "electric_scooter", "bike_id": "4a911318ce12345ed4f824b897ab1e24", "rental_uris": {"ios": "https://dc.lft.to/lastmile_qr_scan", "android": "https://dc.lft.to/lastmile_qr_scan"}, "fusion_lon": 0.0, "lon": -77.00358916666667, "name": "4a911318ce12345ed4f824b897ab1e24", "is_reserved": 0, "is_disabled": 0}, {"lat": 38.91712233333333, "fusion_lat": 0.0, "type": "electric_scooter", "bike_id": "d33b702cb1f00e00fd82d878e478b869", "rental_uris": {"ios": "https://dc.lft.to/lastmile_qr_scan", "android": "https://dc.lft.to/lastmile_qr_scan"}, "fusion_lon": 0.0, "lon": -77.029614, "name": "d33b702cb1f00e00fd82d878e478b869", "is_reserved": 0, "is_disabled": 0}, {"lat": 38.83628016666667, "fusion_lat": 0.0, "type": "electric_bike", "bike_id": "c7fddcaf34f31c92bf4fc022edf11e6b", "rental_uris": {"ios": "https://dc.lft.to/lastmile_qr_scan", "android": "https://dc.lft.to/lastmile_qr_scan"}, "fusion_lon": 0.0, "lon": -77.069436, "name": "c7fddcaf34f31c92bf4fc022edf11e6b", "is_reserved": 0, "is_disabled": 0}, {"lat": 38.918571666666665, "fusion_lat": 0.0, "type": "electric_bike", "bike_id": "1eb2a86d467526f4c7dc2288fd8439b8", "rental_uris": {"ios": "https://dc.lft.to/lastmile_qr_scan", "android": "https://dc.lft.to/lastmile_qr_scan"}, "fusion_lon": 0.0, "lon": -76.96084466666667, "name": "1eb2a86d467526f4c7dc2288fd8439b8", "is_reserved": 0, "is_disabled": 0}, {"lat": 38.9012915, "fusion_lat": 0.0, "type": "electric_scooter", "bike_id": "47ff9530f524b4f61311421a96609d97", "rental_uris": {"ios": "https://dc.lft.to/lastmile_qr_scan", "android": "https://dc.lft.to/lastmile_qr_scan"}, "fusion_lon": 0.0, "lon": -77.04427, "name": "47ff9530f524b4f61311421a96609d97", "is_reserved": 0, "is_disabled": 0}, {"lat": 38.953945, "fusion_lat": 0.0, "type": "electric_scooter", "bike_id": "d279a8d5c8ff6e2a0c5d4d07cb58d654", "rental_uris": {"ios": "https://dc.lft.to/lastmile_qr_scan", "android": "https://dc.lft.to/lastmile_qr_scan"}, "fusion_lon": 0.0, "lon": -77.02791966666666, "name": "d279a8d5c8ff6e2a0c5d4d07cb58d654", "is_reserved": 0, "is_disabled": 0}, {"lat": 38.926066666666664, "fusion_lat": 0.0, "type": "electric_scooter", "bike_id": "e377f130f39ae4cd513ea1378b8f9a49", "rental_uris": {"ios": "https://dc.lft.to/lastmile_qr_scan", "android": "https://dc.lft.to/lastmile_qr_scan"}, "fusion_lon": 0.0, "lon": -77.02160616666667, "name": "e377f130f39ae4cd513ea1378b8f9a49", "is_reserved": 0, "is_disabled": 0}, {"lat": 38.877013833333336, "fusion_lat": 0.0, "type": "electric_scooter", "bike_id": "d9ca5a9746542d1b4d4c7cf4c869db07", "rental_uris": {"ios": "https://dc.lft.to/lastmile_qr_scan", "android": "https://dc.lft.to/lastmile_qr_scan"}, "fusion_lon": 0.0, "lon": -77.00666833333334, "name": "d9ca5a9746542d1b4d4c7cf4c869db07", "is_reserved": 0, "is_disabled": 0}, {"lat": 38.881173, "fusion_lat": 0.0, "type": "electric_scooter", "bike_id": "e0473e8412d9dea6fde25ef457910e55", "rental_uris": {"ios": "https://dc.lft.to/lastmile_qr_scan", "android": "https://dc.lft.to/lastmile_qr_scan"}, "fusion_lon": 0.0, "lon": -77.017414, "name": "e0473e8412d9dea6fde25ef457910e55", "is_reserved": 0, "is_disabled": 0}, {"lat": 38.874590833333336, "fusion_lat": 0.0, "type": "electric_scooter", "bike_id": "997bfebdd310f1d945243946e9494293", "rental_uris": {"ios": "https://dc.lft.to/lastmile_qr_scan", "android": "https://dc.lft.to/lastmile_qr_scan"}, "fusion_lon": 0.0, "lon": -77.00544666666667, "name": "997bfebdd310f1d945243946e9494293", "is_reserved": 0, "is_disabled": 0}, {"lat": 38.90205616666667, "fusion_lat": 0.0, "type": "electric_scooter", "bike_id": "aa7e65d16631e42ec19d9fd0c8655608", "rental_uris": {"ios": "https://dc.lft.to/lastmile_qr_scan", "android": "https://dc.lft.to/lastmile_qr_scan"}, "fusion_lon": 0.0, "lon": -77.02100433333334, "name": "aa7e65d16631e42ec19d9fd0c8655608", "is_reserved": 0, "is_disabled": 0}, {"lat": 38.9149865, "fusion_lat": 0.0, "type": "electric_scooter", "bike_id": "fc12f406960e842ecb6384a6b680506d", "rental_uris": {"ios": "https://dc.lft.to/lastmile_qr_scan", "android": "https://dc.lft.to/lastmile_qr_scan"}, "fusion_lon": 0.0, "lon": -76.98363366666666, "name": "fc12f406960e842ecb6384a6b680506d", "is_reserved": 0, "is_disabled": 0}, {"lat": 38.92263066666667, "fusion_lat": 0.0, "type": "electric_scooter", "bike_id": "081b7f9b454504bfcc833ed1771e6e1b", "rental_uris": {"ios": "https://dc.lft.to/lastmile_qr_scan", "android": "https://dc.lft.to/lastmile_qr_scan"}, "fusion_lon": 0.0, "lon": -77.0244095, "name": "081b7f9b454504bfcc833ed1771e6e1b", "is_reserved": 0, "is_disabled": 0}, {"lat": 38.9243575, "fusion_lat": 0.0, "type": "electric_scooter", "bike_id": "34311344e00f8baddd0aafd5af8306a2", "rental_uris": {"ios": "https://dc.lft.to/lastmile_qr_scan", "android": "https://dc.lft.to/lastmile_qr_scan"}, "fusion_lon": 0.0, "lon": -77.05212566666667, "name": "34311344e00f8baddd0aafd5af8306a2", "is_reserved": 0, "is_disabled": 0}, {"lat": 38.91556416666667, "fusion_lat": 0.0, "type": "electric_scooter", "bike_id": "1867a980a5e527f26d36e0d6f3e2e366", "rental_uris": {"ios": "https://dc.lft.to/lastmile_qr_scan", "android": "https://dc.lft.to/lastmile_qr_scan"}, "fusion_lon": 0.0, "lon": -77.02841983333333, "name": "1867a980a5e527f26d36e0d6f3e2e366", "is_reserved": 0, "is_disabled": 0},