{"data": {"bikes": [{"is_disabled": 0, "fusion_lon": 0.0, "fusion_lat": 0.0, "lat": 38.900885333333335, "type": "electric_scooter", "lon": -77.0476085, "bike_id": "5e8e6262a9ab393f00f7c571c47586d5", "rental_uris": {"android": "https://dc.lft.to/lastmile_qr_scan", "ios": "https://dc.lft.to/lastmile_qr_scan"}, "name": "5e8e6262a9ab393f00f7c571c47586d5", "is_reserved": 0}, {"is_disabled": 0, "fusion_lon": 0.0, "fusion_lat": 0.0, "lat": 38.87706416666666, "type": "electric_scooter", "lon": -77.01766516666666, "bike_id": "9e638fdf64fe40171ceee3a4f308b752", "rental_uris": {"android": "https://dc.lft.to/lastmile_qr_scan", "ios": "https://dc.lft.to/lastmile_qr_scan"}, "name": "9e638fdf64fe40171ceee3a4f308b752", "is_reserved": 0}, {"is_disabled": 0, "fusion_lon": 0.0, "fusion_lat": 0.0, "lat": 38.895775, "type": "electric_bike", "lon": -76.97618666666666, "bike_id": "9ceda8ac83f825b169333ee4fd87a65f", "rental_uris": {"android": "https://dc.lft.to/lastmile_qr_scan", "ios": "https://dc.lft.to/lastmile_qr_scan"}, "name": "9ceda8ac83f825b169333ee4fd87a65f", "is_reserved": 0}, {"is_disabled": 0, "fusion_lon": 0.0, "fusion_lat": 0.0, "lat": 38.9341335, "type": "electric_scooter", "lon": -77.042696, "bike_id": "d932edec6b661c52a71184b3f20b8515", "rental_uris": {"android": "https://dc.lft.to/lastmile_qr_scan", "ios": "https://dc.lft.to/lastmile_qr_scan"}, "name": "d932edec6b661c52a71184b3f20b8515", "is_reserved": 0}, {"is_disabled": 0, "fusion_lon": 0.0, "fusion_lat": 0.0, "lat": 38.922449666666665, "type": "electric_scooter", "lon": -77.03661366666667, "bike_id": "46deaaa371c187e80637c932961b541b", "rental_uris": {"android": "https://dc.lft.to/lastmile_qr_scan", "ios": "https://dc.lft.to/lastmile_qr_scan"}, "name": "46deaaa371c187e80637c932961b541b", "is_reserved": 0}, {"is_disabled": 0, "fusion_lon": 0.0, "fusion_lat": 0.0, "lat": 38.90681466666667, "type": "electric_bike", "lon": -76.95199516666666, "bike_id": "a63137bd17a2137fca17f325820553c6", "rental_uris": {"android": "https://dc.lft.to/lastmile_qr_scan", "ios": "https://dc.lft.to/lastmile_qr_scan"}, "name": "a63137bd17a2137fca17f325820553c6", "is_reserved": 0}, {"is_disabled": 0, "fusion_lon": 0.0, "fusion_lat": 0.0, "lat": 38.93564, "type": "electric_scooter", "lon": -77.02497033333333, "bike_id": "459a0daf3dbd2f201bd7232a2fa4a90d", "rental_uris": {"android": "https://dc.lft.to/lastmile_qr_scan", "ios": "https://dc.lft.to/lastmile_qr_scan"}, "name": "459a0daf3dbd2f201bd7232a2fa4a90d", "is_reserved": 0}, {"is_disabled": 0, "fusion_lon": 0.0, "fusion_lat": 0.0, "lat": 38.908533, "type": "electric_scooter", "lon": -77.04343533333333, "bike_id": "e4f181bb069c565d86683b1ef71531a0", "rental_uris": {"android": "https://dc.lft.to/lastmile_qr_scan", "ios": "https://dc.lft.to/lastmile_qr_scan"}, "name": "e4f181bb069c565d86683b1ef71531a0", "is_reserved": 0}, {"is_disabled": 0, "fusion_lon": 0.0, "fusion_lat": 0.0, "lat": 38.920946, "type": "electric_scooter", "lon": -77.025881, "bike_id": "2d8c0cfe95d0882154098047d42923fa", "rental_uris": {"android": "https://dc.lft.to/lastmile_qr_scan", "ios": "https://dc.lft.to/lastmile_qr_scan"}, "name": "2d8c0cfe95d0882154098047d42923fa", "is_reserved": 0}, {"is_disabled": 0, "fusion_lon": 0.0, "fusion_lat": 0.0, "lat": 38.9198585, "type": "electric_scooter", "lon": -77.041636, "bike_id": "95cf7c2ec28ba55b7c8b0b99e8b808a2", "rental_uris": {"android": "https://dc.lft.to/lastmile_qr_scan", "ios": "https://dc.lft.to/lastmile_qr_scan"}, "name": "95cf7c2ec28ba55b7c8b0b99e8b808a2", "is_reserved": 0}, {"is_disabled": 0, "fusion_lon": 0.0, "fusion_lat": 0.0, "lat": 38.9083555, "type": "electric_scooter", "lon": -77.03464733333334, "bike_id": "92405978a2d0ab2d3ba9c3baf8907948", "rental_uris": {"android": "https://dc.lft.to/lastmile_qr_scan", "ios": "https://dc.lft.to/lastmile_qr_scan"}, "name": "92405978a2d0ab2d3ba9c3baf8907948", "is_reserved": 0}, {"is_disabled": 0, "fusion_lon": 0.0, "fusion_lat": 0.0, "lat": 38.884518666666665, "type": "electric_scooter", "lon": -76.95095483333333, "bike_id": "a4a580d3085dcd509b9f8558ea8e25de", "rental_uris": {"android": "https://dc.lft.to/lastmile_qr_scan", "ios": "https://dc.lft.to/lastmile_qr_scan"}, "name": "a4a580d3085dcd509b9f8558ea8e25de", "is_reserved": 0}, {"is_disabled": 0, "fusion_lon": 0.0, "fusion_lat": 0.0, "lat": 38.90685083333334, "type": "electric_scooter", "lon": -77.03768566666666, "bike_id": "afafa675da0c4a04a4ffcdea94ca25dc", "rental_uris": {"android": "https://dc.lft.to/lastmile_qr_scan", "ios": "https://dc.lft.to/lastmile_qr_scan"}, "name": "afafa675da0c4a04a4ffcdea94ca25dc", "is_reserved": 0}, {"is_disabled": 0, "fusion_lon": 0.0, "fusion_lat": 0.0, "lat": 38.923537833333334, "type": "electric_scooter", "lon": -77.03905833333333, "bike_id": "00730d0d841e7c8b576da44d2d534d2f", "rental_uris": {"android": "https://dc.lft.to/lastmile_qr_scan", "ios": "https://dc.lft.to/lastmile_qr_scan"}, "name": "00730d0d841e7c8b576da44d2d534d2f", "is_reserved": 0}, {"is_disabled": 0, "fusion_lon": 0.0, "fusion_lat": 0.0, "lat": 38.898341, "type": "electric_scooter", "lon": -76.94634866666667, "bike_id": "39f069d62862c9ecba943dcb56404067", "rental_uris": {"android": "https://dc.lft.to/lastmile_qr_scan", "ios": "https://dc.lft.to/lastmile_qr_scan"}, "name": "39f069d62862c9ecba943dcb56404067", "is_reserved": 0}, {"is_disabled": 0, "fusion_lon": 0.0, "fusion_lat": 0.0, "lat": 38.91628733333334, "type": "electric_scooter", "lon": -77.04020683333333, "bike_id": "ac8b1a2bc579a69393520774a8b993f8", "rental_uris": {"android": "https://dc.lft.to/lastmile_qr_scan", "ios": "https://dc.lft.to/lastmile_qr_scan"}, "name": "ac8b1a2bc579a69393520774a8b993f8", "is_reserved": 0}, {"is_disabled": 0, "fusion_lon": 0.0, "fusion_lat": 0.0, "lat": 38.9112565, "type": "electric_scooter", "lon": -77.05934233333333, "bike_id": "908551c8e0126f65139116b86c3860db", "rental_uris": {"android": "https://dc.lft.to/lastmile_qr_scan", "ios": "https://dc.lft.to/lastmile_qr_scan"}, "name": "908551c8e0126f65139116b86c3860db", "is_reserved": 0}, {"is_disabled": 0, "fusion_lon": 0.0, "fusion_lat": 0.0, "lat": 38.904961666666665, "type": "electric_scooter", "lon": -77.00123716666667, "bike_id": "60f84bd974fe75d0b524429877b4218f", "rental_uris": {"android": "https://dc.lft.to/lastmile_qr_scan", "ios": "https://dc.lft.to/lastmile_qr_scan"}, "name": "60f84bd974fe75d0b524429877b4218f", "is_reserved": 0}, {"is_disabled": 0, "fusion_lon": 0.0, "fusion_lat": 0.0, "lat": 38.903852666666666, "type": "electric_scooter", "lon": -77.04870783333334, "bike_id": "63798e8407af45f69ecf83cf4d8e69e1", "rental_uris": {"android": "https://dc.lft.to/lastmile_qr_scan", "ios": "https://dc.lft.to/lastmile_qr_scan"}, "name": "63798e8407af45f69ecf83cf4d8e69e1", "is_reserved": 0}, {"is_disabled": 0, "fusion_lon": 0.0, "fusion_lat": 0.0, "lat": 38.914268166666666, "type": "electric_scooter", "lon": -77.03183816666666, "bike_id": "f44e77ff80f3dc21e6c938db716e3856", "rental_uris": {"android": "https://dc.lft.to/lastmile_qr_scan", "ios": "https://dc.lft.to/lastmile_qr_scan"}, "name": "f44e77ff80f3dc21e6c938db716e3856", "is_reserved": 0}, {"is_disabled": 0, "fusion_lon": 0.0, "fusion_lat": 0.0, "lat": 38.92526333333333, "type": "electric_scooter", "lon": -77.0442195, "bike_id": "365caf5980bd187b4a7645f56338f619", "rental_uris": {"android": "https://dc.lft.to/lastmile_qr_scan", "ios": "https://dc.lft.to/lastmile_qr_scan"}, "name": "365caf5980bd187b4a7645f56338f619", "is_reserved": 0}, {"is_disabled": 0, "fusion_lon": 0.0, "fusion_lat": 0.0, "lat": 38.90521783333333, "type": "electric_scooter", "lon": -77.05085133333333, "bike_id": "1093a8de05d05b58ee1ade389c24014d", "rental_uris": {"android": "https://dc.lft.to/lastmile_qr_scan", "ios": "https://dc.lft.to/lastmile_qr_scan"}, "name": "1093a8de05d05b58ee1ade389c24014d", "is_reserved": 0}, {"is_disabled": 0, "fusion_lon": 0.0, "fusion_lat": 0.0, "lat": 38.900099833333336, "type": "electric_scooter", "lon": -76.99883983333334, "bike_id": "d99832fb202b66bd4c8952782e78003d", "rental_uris": {"android": "https://dc.lft.to/lastmile_qr_scan", "ios": "https://dc.lft.to/lastmile_qr_scan"}, "name": "d99832fb202b66bd4c8952782e78003d", "is_reserved": 0}, {"is_disabled": 0, "fusion_lon": 0.0, "fusion_lat": 0.0, "lat": 38.9156455, "type": "electric_scooter", "lon": -77.03150966666666, "bike_id": "05b79e521e0a7eb7c1fb5b8d8c15fa46", "rental_uris": {"android": "https://dc.lft.to/lastmile_qr_scan", "ios": "https://dc.lft.to/lastmile_qr_scan"}, "name": "05b79e521e0a7eb7c1fb5b8d8c15fa46", "is_reserved": 0}, {"is_disabled": 0, "fusion_lon": 0.0, "fusion_lat": 0.0, "lat": 38.895371, "type": "electric_scooter", "lon": -77.041277, "bike_id": "13f3bcde2365683b274e7025490b851c", "rental_uris": {"android": "https://dc.lft.to/lastmile_qr_scan", "ios": "https://dc.lft.to/lastmile_qr_scan"}, "name": "13f3bcde2365683b274e7025490b851c", "is_reserved": 0}, {"is_disabled": 0, "fusion_lon": 0.0, "fusion_lat": 0.0, "lat": 38.924697, "type": "electric_scooter", "lon": -77.029856, "bike_id": "9516adf0d419384cdd4822e2e0327757", "rental_uris": {"android": "https://dc.lft.to/lastmile_qr_scan", "ios": "https://dc.lft.to/lastmile_qr_scan"}, "name": "9516adf0d419384cdd4822e2e0327757", "is_reserved": 0}, {"is_disabled": 0, "fusion_lon": 0.0, "fusion_lat": 0.0, "lat": 38.92050733333333, "type": "electric_scooter", "lon": -77.02612216666667, "bike_id": "86f4e3ce457052466c7811988b96334f", "rental_uris": {"android": "https://dc.lft.to/lastmile_qr_scan", "ios": "https://dc.lft.to/lastmile_qr_scan"}, "name": "86f4e3ce457052466c7811988b96334f", "is_reserved": 0}, {"is_disabled": 0, "fusion_lon": 0.0, "fusion_lat": 0.0, "lat": 38.908347166666665, "type": "electric_scooter", "lon": -76.99699733333334, "bike_id": "91f5acdd00397cd077eb493e06e7d5d7", "rental_uris": {"android": "https://dc.lft.to/lastmile_qr_scan", "ios": "https://dc.lft.to/lastmile_qr_scan"}, "name": "91f5acdd00397cd077eb493e06e7d5d7", "is_reserved": 0}, {"is_disabled": 0, "fusion_lon": 0.0, "fusion_lat": 0.0, "lat": 38.90215883333333, "type": "electric_scooter", "lon": -77.02369333333333, "bike_id": "c77c6e41d11fafa01ff687eed3b62dc2", "rental_uris": {"android": "https://dc.lft.to/lastmile_qr_scan", "ios": "https://dc.lft.to/lastmile_qr_scan"}, "name": "c77c6e41d11fafa01ff687eed3b62dc2", "is_reserved": 0}, {"is_disabled": 0, "fusion_lon": 0.0, "fusion_lat": 0.0, "lat": 38.905585333333335, "type": "electric_scooter", "lon": -77.033494, "bike_id": "146c580a25af783d3a197339218eca1d", "rental_uris": {"android": "https://dc.lft.to/lastmile_qr_scan", "ios": "https://dc.lft.to/lastmile_qr_scan"}, "name": "146c580a25af783d3a197339218eca1d", "is_reserved": 0}, {"is_disabled": 0, "fusion_lon": 0.0, "fusion_lat": 0.0, "lat": 38.90356933333333, "type": "electric_scooter", "lon": -77.06270366666666, "bike_id": "76f38535036fa4639cafde496ea2a0fd", "rental_uris": {"android": "https://dc.lft.to/lastmile_qr_scan", "ios": "https://dc.lft.to/lastmile_qr_scan"}, "name": "76f38535036fa4639cafde496ea2a0fd", "is_reserved": 0}, {"is_disabled": 0, "fusion_lon": 0.0, "fusion_lat": 0.0, "lat": 38.918632833333334, "type": "electric_scooter", "lon": -77.0416795, "bike_id": "5142c5abe65b846b307ce30ad107fbf2", "rental_uris": {"android": "https://dc.lft.to/lastmile_qr_scan", "ios": "https://dc.lft.to/lastmile_qr_scan"}, "name": "5142c5abe65b846b307ce30ad107fbf2", "is_reserved": 0}, {"is_disabled": 0, "fusion_lon": 0.0, "fusion_lat": 0.0, "lat": 38.9182315, "type": "electric_scooter", "lon": -77.012155, "bike_id": "e4641fd16436f7de028904be387c9d3f", "rental_uris": {"android": "https://dc.lft.to/lastmile_qr_scan", "ios": "https://dc.lft.to/lastmile_qr_scan"}, "name": "e4641fd16436f7de028904be387c9d3f", "is_reserved": 0}, {"is_disabled": 0, "fusion_lon": 0.0, "fusion_lat": 0.0, "lat": 38.90142516666667, "type": "electric_scooter", "lon": -77.01776733333334, "bike_id": "0a587c1713569e4b65bc4043fda7cde3", "rental_uris": {"android": "https://dc.lft.to/lastmile_qr_scan", "ios": "https://dc.lft.to/lastmile_qr_scan"}, "name": "0a587c1713569e4b65bc4043fda7cde3", "is_reserved": 0}, {"is_disabled": 0, "fusion_lon": 0.0, "fusion_lat": 0.0, "lat": 38.84517816666666, "type": "electric_bike", "lon": -77.0779825, "bike_id": "7dcad4a95621f78165e87a540447ce50", "rental_uris": {"android": "https://dc.lft.to/lastmile_qr_scan", "ios": "https://dc.lft.to/lastmile_qr_scan"}, "name": "7dcad4a95621f78165e87a540447ce50", "is_reserved": 0}, {"is_disabled": 0, "fusion_lon": 0.0, "fusion_lat": 0.0, "lat": 38.875792833333335, "type": "electric_scooter", "lon": -77.00593233333333, "bike_id": "6c85722f06ac1089c88073558ac21315", "rental_uris": {"android": "https://dc.lft.to/lastmile_qr_scan", "ios": "https://dc.lft.to/lastmile_qr_scan"}, "name": "6c85722f06ac1089c88073558ac21315", "is_reserved": 0}, {"is_disabled": 0, "fusion_lon": 0.0, "fusion_lat": 0.0, "lat": 38.9204495, "type": "electric_scooter", "lon": -77.023652, "bike_id": "971e8f05007596a21d441ce5a37eeddb", "rental_uris": {"android": "https://dc.lft.to/lastmile_qr_scan", "ios": "https://dc.lft.to/lastmile_qr_scan"}, "name": "971e8f05007596a21d441ce5a37eeddb", "is_reserved": 0}, {"is_disabled": 0, "fusion_lon": 0.0, "fusion_lat": 0.0, "lat": 38.911210833333335, "type": "electric_scooter", "lon": -77.02236483333333, "bike_id": "10f84191f867c9b3fa5d8ca3305d34a2", "rental_uris": {"android": "https://dc.lft.to/lastmile_qr_scan", "ios": "https://dc.lft.to/lastmile_qr_scan"}, "name": "10f84191f867c9b3fa5d8ca3305d34a2", "is_reserved": 0}, {"is_disabled": 0, "fusion_lon": 0.0, "fusion_lat": 0.0, "lat": 38.905282, "type": "electric_scooter", "lon": -77.04901583333333, "bike_id": "b303329b7c43bc424a4b11a239c00d8d", "rental_uris": {"android": "https://dc.lft.to/lastmile_qr_scan", "ios": "https://dc.lft.to/lastmile_qr_scan"}, "name": "b303329b7c43bc424a4b11a239c00d8d", "is_reserved": 0}, {"is_disabled": 0, "fusion_lon": 0.0, "fusion_lat": 0.0, "lat": 38.941980666666666, "type": "electric_scooter", "lon": -77.02577633333334, "bike_id": "5ee08ae7fc7ac04311e5f66fecd8049d", "rental_uris": {"android": "https://dc.lft.to/lastmile_qr_scan", "ios": "https://dc.lft.to/lastmile_qr_scan"}, "name": "5ee08ae7fc7ac04311e5f66fecd8049d", "is_reserved": 0}, {"is_disabled": 0, "fusion_lon": 0.0, "fusion_lat": 0.0, "lat": 38.99996466666666, "type": "electric_bike", "lon": -76.91808566666667, "bike_id": "34575f81ba1f678396ed4b86f87f1633", "rental_uris": {"android": "https://dc.lft.to/lastmile_qr_scan", "ios": "https://dc.lft.to/lastmile_qr_scan"}, "name": "34575f81ba1f678396ed4b86f87f1633", "is_reserved": 0}, {"is_disabled": 0, "fusion_lon": 0.0, "fusion_lat": 0.0, "lat": 38.933234666666664, "type": "electric_scooter", "lon": -77.02932966666667, "bike_id": "23e2db32183edd2b9a423a78becb2640", "rental_uris": {"android": "https://dc.lft.to/lastmile_qr_scan", "ios": "https://dc.lft.to/lastmile_qr_scan"}, "name": "23e2db32183edd2b9a423a78becb2640", "is_reserved": 0}, {"is_disabled": 0, "fusion_lon": 0.0, "fusion_lat": 0.0, "lat": 38.914758666666664, "type": "electric_scooter", "lon": -77.00346233333333, "bike_id": "9b2de42a192944284722e394fbcfc3f5", "rental_uris": {"android": "https://dc.lft.to/lastmile_qr_scan", "ios": "https://dc.lft.to/lastmile_qr_scan"}, "name": "9b2de42a192944284722e394fbcfc3f5", "is_reserved": 0}, {"is_disabled": 0, "fusion_lon": 0.0, "fusion_lat": 0.0, "lat": 38.921863, "type": "electric_scooter", "lon": -76.99699216666667, "bike_id": "e2d7c446661b7337fdb8eeb612e65094", "rental_uris": {"android": "https://dc.lft.to/lastmile_qr_scan", "ios": "https://dc.lft.to/lastmile_qr_scan"}, "name": "e2d7c446661b7337fdb8eeb612e65094", "is_reserved": 0}, {"is_disabled": 0, "fusion_lon": 0.0, "fusion_lat": 0.0, "lat": 38.904149833333335, "type": "electric_scooter", "lon": -76.99067933333333, "bike_id": "0c33cb286653e70900b04c2e4acf1f75", "rental_uris": {"android": "https://dc.lft.to/lastmile_qr_scan", "ios": "https://dc.lft.to/lastmile_qr_scan"}, "name": "0c33cb286653e70900b04c2e4acf1f75", "is_reserved": 0}, {"is_disabled": 0, "fusion_lon": 0.0, "fusion_lat": 0.0, "lat": 38.89609133333333, "type": "electric_scooter", "lon": -77.00913916666667, "bike_id": "07513a393be6ba549cf5101238fd4c8b", "rental_uris": {"android": "https://dc.lft.to/lastmile_qr_scan", "ios": "https://dc.lft.to/lastmile_qr_scan"}, "name": "07513a393be6ba549cf5101238fd4c8b", "is_reserved": 0}, {"is_disabled": 0, "fusion_lon": 0.0, "fusion_lat": 0.0, "lat": 38.925933666666666, "type": "electric_bike", "lon": -76.88909066666666, "bike_id": "36058fd183fe00b3f6f6587ef8bfbc4e", "rental_uris": {"android": "https://dc.lft.to/lastmile_qr_scan", "ios": "https://dc.lft.to/lastmile_qr_scan"}, "name": "36058fd183fe00b3f6f6587ef8bfbc4e", "is_reserved": 0}, {"is_disabled": 0, "fusion_lon": 0.0, "fusion_lat": 0.0, "lat": 38.9056995, "type": "electric_scooter", "lon": -77.04670283333333, "bike_id": "70e4a05a98578314c4bd161bf6b486f5", "rental_uris": {"android": "https://dc.lft.to/lastmile_qr_scan", "ios": "https://dc.lft.to/lastmile_qr_scan"}, "name": "70e4a05a98578314c4bd161bf6b486f5", "is_reserved": 0}, {"is_disabled": 0, "fusion_lon": 0.0, "fusion_lat": 0.0, "lat": 38.95415833333333, "type": "electric_scooter", "lon": -77.02843333333334, "bike_id": "67f081cd2a782312b1a0fa6f46ecc603", "rental_uris": {"android": "https://dc.lft.to/lastmile_qr_scan", "ios": "https://dc.lft.to/lastmile_qr_scan"}, "name": "67f081cd2a782312b1a0fa6f46ecc603", "is_reserved": 0}, {"is_disabled": 0, "fusion_lon": 0.0, "fusion_lat": 0.0, "lat": 38.97678716666667, "type": "electric_bike", "lon": -76.97167583333334, "bike_id": "39c3098e37c4e4123ca4c23811722551", "rental_uris": {"android": "https://dc.lft.to/lastmile_qr_scan", "ios": "https://dc.lft.to/lastmile_qr_scan"}, "name": "39c3098e37c4e4123ca4c23811722551", "is_reserved": 0}, {"is_disabled": 0, "fusion_lon": 0.0, "fusion_lat": 0.0, "lat": 38.91870983333333, "type": "electric_scooter", "lon": -77.0448725, "bike_id": "aa15f2ff570eafa4a8253f1bea2b5acd", "rental_uris": {"android": "https://dc.lft.to/lastmile_qr_scan", "ios": "https://dc.lft.to/lastmile_qr_scan"}, "name": "aa15f2ff570eafa4a8253f1bea2b5acd", "is_reserved": 0}, {"is_disabled": 0, "fusion_lon": 0.0, "fusion_lat": 0.0, "lat": 38.89234966666667, "type": "electric_bike", "lon": -76.952211, "bike_id": "c87a8551f7e6e0db2e39fcee32cf3e0f", "rental_uris": {"android": "https://dc.lft.to/lastmile_qr_scan", "ios": "https://dc.lft.to/lastmile_qr_scan"}, "name": "c87a8551f7e6e0db2e39fcee32cf3e0f", "is_reserved": 0}, {"is_disabled": 0, "fusion_lon": 0.0, "fusion_lat": 0.0, "lat": 38.91707666666667, "type": "electric_scooter", "lon": -77.01076683333334, "bike_id": "dec565ff1c2ab46c391fdf8a65c0b01b", "rental_uris": {"android": "https://dc.lft.to/lastmile_qr_scan", "ios": "https://dc.lft.to/lastmile_qr_scan"}, "name": "dec565ff1c2ab46c391fdf8a65c0b01b", "is_reserved": 0}, {"is_disabled": 0, "fusion_lon": 0.0, "fusion_lat": 0.0, "lat": 38.914156, "type": "electric_scooter", "lon": -77.03230916666666, "bike_id": "7b1daed47dd75b69511c29fef8042212", "rental_uris": {"android": "https://dc.lft.to/lastmile_qr_scan", "ios": "https://dc.lft.to/lastmile_qr_scan"}, "name": "7b1daed47dd75b69511c29fef8042212", "is_reserved": 0}, {"is_disabled": 0, "fusion_lon": 0.0, "fusion_lat": 0.0, "lat": 38.913512, "type": "electric_scooter", "lon": -77.03207533333334, "bike_id": "5b3011ebf60801b91afb215505c77563", "rental_uris": {"android": "https://dc.lft.to/lastmile_qr_scan", "ios": "https://dc.lft.to/lastmile_qr_scan"}, "name": "5b3011ebf60801b91afb215505c77563", "is_reserved": 0}, {"is_disabled": 0, "fusion_lon": 0.0, "fusion_lat": 0.0, "lat": 38.92158583333333, "type": "electric_scooter", "lon": -77.03381833333333, "bike_id": "eb10de90d544031bfe73f3480d0ee059", "rental_uris": {"android": "https://dc.lft.to/lastmile_qr_scan", "ios": "https://dc.lft.to/lastmile_qr_scan"}, "name": "eb10de90d544031bfe73f3480d0ee059", "is_reserved": 0}, {"is_disabled": 0, "fusion_lon": 0.0, "fusion_lat": 0.0, "lat": 38.9181575, "type": "electric_scooter", "lon": -77.0400095, "bike_id": "4f2cf31b8374e73e37671c606287bd64", "rental_uris": {"android": "https://dc.lft.to/lastmile_qr_scan", "ios": "https://dc.lft.to/lastmile_qr_scan"}, "name": "4f2cf31b8374e73e37671c606287bd64", "is_reserved": 0}, {"is_disabled": 0, "fusion_lon": 0.0, "fusion_lat": 0.0, "lat": 38.8977755, "type": "electric_scooter", "lon": -77.024786, "bike_id": "45927484f677eb5f3cc2fd9fb853e60a", "rental_uris": {"android": "https://dc.lft.to/lastmile_qr_scan", "ios": "https://dc.lft.to/lastmile_qr_scan"}, "name": "45927484f677eb5f3cc2fd9fb853e60a", "is_reserved": 0}, {"is_disabled": 0, "fusion_lon": 0.0, "fusion_lat": 0.0, "lat": 38.94178, "type": "electric_scooter", "lon": -77.036543, "bike_id": "601e39d33ea1418e35d38e18690721c7", "rental_uris": {"android": "https://dc.lft.to/lastmile_qr_scan", "ios": "https://dc.lft.to/lastmile_qr_scan"}, "name": "601e39d33ea1418e35d38e18690721c7", "is_reserved": 0}, {"is_disabled": 0, "fusion_lon": 0.0, "fusion_lat": 0.0, "lat": 38.9181385, "type": "electric_scooter", "lon": -77.02716833333334, "bike_id": "96ffde6da417f33f1a7da63c90f4955d", "rental_uris": {"android": "https://dc.lft.to/lastmile_qr_scan", "ios": "https://dc.lft.to/lastmile_qr_scan"}, "name": "96ffde6da417f33f1a7da63c90f4955d", "is_reserved": 0}, {"is_disabled": 0, "fusion_lon": 0.0, "fusion_lat": 0.0, "lat": 38.93278866666667, "type": "electric_scooter", "lon": -77.036317, "bike_id": "776994ea0eff7569875b18b4b843801f", "rental_uris": {"android": "https://dc.lft.to/lastmile_qr_scan", "ios": "https://dc.lft.to/lastmile_qr_scan"}, "name": "776994ea0eff7569875b18b4b843801f", "is_reserved": 0}, {"is_disabled": 0, "fusion_lon": 0.0, "fusion_lat": 0.0, "lat": 38.901938666666666, "type": "electric_scooter", "lon": -77.04802766666667, "bike_id": "17f3ce579a95a766d1481c9318a2ef77", "rental_uris": {"android": "https://dc.lft.to/lastmile_qr_scan", "ios": "https://dc.lft.to/lastmile_qr_scan"}, "name": "17f3ce579a95a766d1481c9318a2ef77", "is_reserved": 0}, {"is_disabled": 0, "fusion_lon": 0.0, "fusion_lat": 0.0, "lat": 38.900294333333335, "type": "electric_scooter", "lon": -77.00205083333333, "bike_id": "547277e43367f6d5a44d809ade8f019d", "rental_uris": {"android": "https://dc.lft.to/lastmile_qr_scan", "ios": "https://dc.lft.to/lastmile_qr_scan"}, "name": "547277e43367f6d5a44d809ade8f019d", "is_reserved": 0}, {"is_disabled": 0, "fusion_lon": 0.0, "fusion_lat": 0.0, "lat": 38.95645416666667, "type": "electric_scooter", "lon": -77.01498983333333, "bike_id": "717a336e801c825ce014a65abfe6a4ef", "rental_uris": {"android": "https://dc.lft.to/lastmile_qr_scan", "ios": "https://dc.lft.to/lastmile_qr_scan"}, "name": "717a336e801c825ce014a65abfe6a4ef", "is_reserved": 0}, {"is_disabled": 0, "fusion_lon": 0.0, "fusion_lat": 0.0, "lat": 38.89488933333333, "type": "electric_scooter", "lon": -77.00211483333334, "bike_id": "af8e0ed210f92482023396c3b759ab27", "rental_uris": {"android": "https://dc.lft.to/lastmile_qr_scan", "ios": "https://dc.lft.to/lastmile_qr_scan"}, "name": "af8e0ed210f92482023396c3b759ab27", "is_reserved": 0}, {"is_disabled": 0, "fusion_lon": 0.0, "fusion_lat": 0.0, "lat": 38.918074, "type": "electric_scooter", "lon": -77.02690083333333, "bike_id": "29088fec7eb5bb4b929205d004bea7a1", "rental_uris": {"android": "https://dc.lft.to/lastmile_qr_scan", "ios": "https://dc.lft.to/lastmile_qr_scan"}, "name": "29088fec7eb5bb4b929205d004bea7a1", "is_reserved": 0}, {"is_disabled": 0, "fusion_lon": 0.0, "fusion_lat": 0.0, "lat": 38.91714433333333, "type": "electric_scooter", "lon": -77.03856833333333, "bike_id": "4482806a512fc6eca4003f2a026c39cc", "rental_uris": {"android": "https://dc.lft.to/lastmile_qr_scan", "ios": "https://dc.lft.to/lastmile_qr_scan"}, "name": "4482806a512fc6eca4003f2a026c39cc", "is_reserved": 0}, {"is_disabled": 0, "fusion_lon": 0.0, "fusion_lat": 0.0, "lat": 38.92110616666667, "type": "electric_scooter", "lon": -77.0422125, "bike_id": "505c9b54b42920032c17c3360d595c24", "rental_uris": {"android": "https://dc.lft.to/lastmile_qr_scan", "ios": "https://dc.lft.to/lastmile_qr_scan"}, "name": "505c9b54b42920032c17c3360d595c24", "is_reserved": 0}, {"is_disabled": 0, "fusion_lon": 0.0, "fusion_lat": 0.0, "lat": 38.9157995, "type": "electric_scooter", "lon": -77.020038, "bike_id": "be9b452c6d9d0e22099da1e6f034836e", "rental_uris": {"android": "https://dc.lft.to/lastmile_qr_scan", "ios": "https://dc.lft.to/lastmile_qr_scan"}, "name": "be9b452c6d9d0e22099da1e6f034836e", "is_reserved": 0}, {"is_disabled": 0, "fusion_lon": 0.0, "fusion_lat": 0.0, "lat": 38.92015116666666, "type": "electric_scooter", "lon": -77.03205883333334, "bike_id": "680d4bc4e896304ac56a647142eb518f", "rental_uris": {"android": "https://dc.lft.to/lastmile_qr_scan", "ios": "https://dc.lft.to/lastmile_qr_scan"}, "name": "680d4bc4e896304ac56a647142eb518f", "is_reserved": 0}, {"is_disabled": 0, "fusion_lon": 0.0, "fusion_lat": 0.0, "lat": 38.91872383333333, "type": "electric_scooter", "lon": -77.04485, "bike_id": "3b81ba80f3925af0c3ab31717ce210e0", "rental_uris": {"android": "https://dc.lft.to/lastmile_qr_scan", "ios": "https://dc.lft.to/lastmile_qr_scan"}, "name": "3b81ba80f3925af0c3ab31717ce210e0", "is_reserved": 0}, {"is_disabled": 0, "fusion_lon": 0.0, "fusion_lat": 0.0, "lat": 38.9106615, "type": "electric_scooter", "lon": -76.98663383333333, "bike_id": "535b314f9f321ee8467b527e67dfd9fc", "rental_uris": {"android": "https://dc.lft.to/lastmile_qr_scan", "ios": "https://dc.lft.to/lastmile_qr_scan"}, "name": "535b314f9f321ee8467b527e67dfd9fc", "is_reserved": 0}, {"is_disabled": 0, "fusion_lon": 0.0, "fusion_lat": 0.0, "lat": 38.90260466666667, "type": "electric_scooter", "lon": -77.02993866666667, "bike_id": "344f49042d48d06c692608543abc0924", "rental_uris": {"android": "https://dc.lft.to/lastmile_qr_scan", "ios": "https://dc.lft.to/lastmile_qr_scan"}, "name": "344f49042d48d06c692608543abc0924", "is_reserved": 0}, {"is_disabled": 0, "fusion_lon": 0.0, "fusion_lat": 0.0, "lat": 38.90970933333333, "type": "electric_scooter", "lon": -77.04529533333333, "bike_id": "b041a95c8cea2b5b17c77a68dcbdfc35", "rental_uris": {"android": "https://dc.lft.to/lastmile_qr_scan", "ios": "https://dc.lft.to/lastmile_qr_scan"}, "name": "b041a95c8cea2b5b17c77a68dcbdfc35", "is_reserved": 0}, {"is_disabled": 0, "fusion_lon": 0.0, "fusion_lat": 0.0, "lat": 38.91782883333333, "type": "electric_scooter", "lon": -77.023014, "bike_id": "c761be420d21b23b00eeb0dddc93b080", "rental_uris": {"android": "https://dc.lft.to/lastmile_qr_scan", "ios": "https://dc.lft.to/lastmile_qr_scan"}, "name": "c761be420d21b23b00eeb0dddc93b080", "is_reserved": 0}, {"is_disabled": 0, "fusion_lon": 0.0, "fusion_lat": 0.0, "lat": 38.902829833333335, "type": "electric_scooter", "lon": -77.02426416666667, "bike_id": "3d3492bd7575ecad5e866e37d0cdc98d", "rental_uris": {"android": "https://dc.lft.to/lastmile_qr_scan", "ios": "https://dc.lft.to/lastmile_qr_scan"}, "name": "3d3492bd7575ecad5e866e37d0cdc98d", "is_reserved": 0}, {"is_disabled": 0, "fusion_lon": 0.0, "fusion_lat": 0.0, "lat": 38.87729866666667, "type": "electric_scooter", "lon": -77.00058083333333, "bike_id": "7a5a06e538fe8ba3d5032f3d1b4759b0", "rental_uris": {"android": "https://dc.lft.to/lastmile_qr_scan", "ios": "https://dc.lft.to/lastmile_qr_scan"}, "name": "7a5a06e538fe8ba3d5032f3d1b4759b0", "is_reserved": 0}, {"is_disabled": 0, "fusion_lon": 0.0, "fusion_lat": 0.0, "lat": 38.905243166666665, "type": "electric_scooter", "lon": -77.05087433333334, "bike_id": "449726424f8e61e73e85da8c2fa3c176", "rental_uris": {"android": "https://dc.lft.to/lastmile_qr_scan", "ios": "https://dc.lft.to/lastmile_qr_scan"}, "name": "449726424f8e61e73e85da8c2fa3c176", "is_reserved": 0}, {"is_disabled": 0, "fusion_lon": 0.0, "fusion_lat": 0.0, "lat": 38.895567166666666, "type": "electric_scooter", "lon": -77.00405183333334, "bike_id": "f568535e259531eddead1367192eab29", "rental_uris": {"android": "https://dc.lft.to/lastmile_qr_scan", "ios": "https://dc.lft.to/lastmile_qr_scan"}, "name": "f568535e259531eddead1367192eab29", "is_reserved": 0}, {"is_disabled": 0, "fusion_lon": 0.0, "fusion_lat": 0.0, "lat": 38.89874183333333, "type": "electric_scooter", "lon": -76.93185133333333, "bike_id": "c73ec47df3b42bada6c16efddccb28a1", "rental_uris": {"android": "https://dc.lft.to/lastmile_qr_scan", "ios": "https://dc.lft.to/lastmile_qr_scan"}, "name": "c73ec47df3b42bada6c16efddccb28a1", "is_reserved": 0}, {"is_disabled": 0, "fusion_lon": 0.0, "fusion_lat": 0.0, "lat": 38.9802645, "type": "electric_bike", "lon": -76.92916383333333, "bike_id": "445a29587b7f24b6b1d0e0d25863a589", "rental_uris": {"android": "https://dc.lft.to/lastmile_qr_scan", "ios": "https://dc.lft.to/lastmile_qr_scan"}, "name": "445a29587b7f24b6b1d0e0d25863a589", "is_reserved": 0}, {"is_disabled": 0, "fusion_lon": 0.0, "fusion_lat": 0.0, "lat": 38.912661166666666, "type": "electric_scooter", "lon": -77.04154233333334, "bike_id": "932b431fd11026ad5b6bdf4f17900721", "rental_uris": {"android": "https://dc.lft.to/lastmile_qr_scan", "ios": "https://dc.lft.to/lastmile_qr_scan"}, "name": "932b431fd11026ad5b6bdf4f17900721", "is_reserved": 0}, {"is_disabled": 0, "fusion_lon": 0.0, "fusion_lat": 0.0, "lat": 38.98593833333334, "type": "electric_bike", "lon": -77.03755183333334, "bike_id": "29ab268e5dd40d663ce81f1ac744ca88", "rental_uris": {"android": "https://dc.lft.to/lastmile_qr_scan", "ios": "https://dc.lft.to/lastmile_qr_scan"}, "name": "29ab268e5dd40d663ce81f1ac744ca88", "is_reserved": 0}, {"is_disabled": 0, "fusion_lon": 0.0, "fusion_lat": 0.0, "lat": 38.92588966666667, "type": "electric_scooter", "lon": -77.0374275, "bike_id": "9b284ced17689bd47c1f58d23d9f40a7", "rental_uris": {"android": "https://dc.lft.to/lastmile_qr_scan", "ios": "https://dc.lft.to/lastmile_qr_scan"}, "name": "9b284ced17689bd47c1f58d23d9f40a7", "is_reserved": 0}, {"is_disabled": 0, "fusion_lon": 0.0, "fusion_lat": 0.0, "lat": 38.912797833333336, "type": "electric_scooter", "lon": -77.03862566666666, "bike_id": "41e0695a99529bb2c5c186b646b73f64", "rental_uris": {"android": "https://dc.lft.to/lastmile_qr_scan", "ios": "https://dc.lft.to/lastmile_qr_scan"}, "name": "41e0695a99529bb2c5c186b646b73f64", "is_reserved": 0}, {"is_disabled": 0, "fusion_lon": 0.0, "fusion_lat": 0.0, "lat": 38.897810166666666, "type": "electric_scooter", "lon": -77.0503515, "bike_id": "3fa1e817f65d2af70804580d7ea3d75e", "rental_uris": {"android": "https://dc.lft.to/lastmile_qr_scan", "ios": "https://dc.lft.to/lastmile_qr_scan"}, "name": "3fa1e817f65d2af70804580d7ea3d75e", "is_reserved": 0}, {"is_disabled": 0, "fusion_lon": 0.0, "fusion_lat": 0.0, "lat": 38.89834533333333, "type": "electric_scooter", "lon": -76.94632216666666, "bike_id": "44e996cb0998315d8d3f5ef7e622a4c8", "rental_uris": {"android": "https://dc.lft.to/lastmile_qr_scan", "ios": "https://dc.lft.to/lastmile_qr_scan"}, "name": "44e996cb0998315d8d3f5ef7e622a4c8", "is_reserved": 0}, {"is_disabled": 0, "fusion_lon": 0.0, "fusion_lat": 0.0, "lat": 38.941066666666664, "type": "electric_scooter", "lon": -77.0613915, "bike_id": "78a070bc74aaef4b04bc25fcad3b499f", "rental_uris": {"android": "https://dc.lft.to/lastmile_qr_scan", "ios": "https://dc.lft.to/lastmile_qr_scan"}, "name": "78a070bc74aaef4b04bc25fcad3b499f", "is_reserved": 0}, {"is_disabled": 0, "fusion_lon": 0.0, "fusion_lat": 0.0, "lat": 38.866988166666665, "type": "electric_scooter", "lon": -76.98711983333334, "bike_id": "586cff0ebca764dd70d3374e7f991501", "rental_uris": {"android": "https://dc.lft.to/lastmile_qr_scan", "ios": "https://dc.lft.to/lastmile_qr_scan"}, "name": "586cff0ebca764dd70d3374e7f991501", "is_reserved": 0}, {"is_disabled": 0, "fusion_lon": 0.0, "fusion_lat": 0.0, "lat": 38.91271483333333, "type": "electric_scooter", "lon": -77.0222275, "bike_id": "b241b3fa4c737f55dda73734fc6cc6ec", "rental_uris": {"android": "https://dc.lft.to/lastmile_qr_scan", "ios": "https://dc.lft.to/lastmile_qr_scan"}, "name": "b241b3fa4c737f55dda73734fc6cc6ec", "is_reserved": 0}, {"is_disabled": 0, "fusion_lon": 0.0, "fusion_lat": 0.0, "lat": 38.9067955, "type": "electric_scooter", "lon": -77.04337066666666, "bike_id": "6852c1bb806d48207d2ae35d44eb54fb", "rental_uris": {"android": "https://dc.lft.to/lastmile_qr_scan", "ios": "https://dc.lft.to/lastmile_qr_scan"}, "name": "6852c1bb806d48207d2ae35d44eb54fb", "is_reserved": 0}, {"is_disabled": 0, "fusion_lon": 0.0, "fusion_lat": 0.0, "lat": 38.89217166666667, "type": "electric_scooter", "lon": -77.02264, "bike_id": "5fc2e2f663d2e2017f2f207b372ea4f9", "rental_uris": {"android": "https://dc.lft.to/lastmile_qr_scan", "ios": "https://dc.lft.to/lastmile_qr_scan"}, "name": "5fc2e2f663d2e2017f2f207b372ea4f9", "is_reserved": 0}, {"is_disabled": 0, "fusion_lon": 0.0, "fusion_lat": 0.0, "lat": 38.86509, "type": "electric_scooter", "lon": -76.99006783333333, "bike_id": "e48bf61f48baad948abd7f81661fd3bb", "rental_uris": {"android": "https://dc.lft.to/lastmile_qr_scan", "ios": "https://dc.lft.to/lastmile_qr_scan"}, "name": "e48bf61f48baad948abd7f81661fd3bb", "is_reserved": 0}, {"is_disabled": 0, "fusion_lon": 0.0, "fusion_lat": 0.0, "lat": 38.919152, "type": "electric_scooter", "lon": -77.03025983333333, "bike_id": "0938da0c58768954e495b097171af2d3", "rental_uris": {"android": "https://dc.lft.to/lastmile_qr_scan", "ios": "https://dc.lft.to/lastmile_qr_scan"}, "name": "0938da0c58768954e495b097171af2d3", "is_reserved": 0}, {"is_disabled": 0, "fusion_lon": 0.0, "fusion_lat": 0.0, "lat": 38.9498135, "type": "electric_scooter", "lon": -77.02704583333333, "bike_id": "84ec3fa004376a38ece5728f01cbcb3e", "rental_uris": {"android": "https://dc.lft.to/lastmile_qr_scan", "ios": "https://dc.lft.to/lastmile_qr_scan"}, "name": "84ec3fa004376a38ece5728f01cbcb3e", "is_reserved": 0}, {"is_disabled": 0, "fusion_lon": 0.0, "fusion_lat": 0.0, "lat": 38.891597, "type": "electric_scooter", "lon": -77.0154515, "bike_id": "c819738d7e75974fec3bb4ef7f8697f8", "rental_uris": {"android": "https://dc.lft.to/lastmile_qr_scan", "ios": "https://dc.lft.to/lastmile_qr_scan"}, "name": "c819738d7e75974fec3bb4ef7f8697f8", "is_reserved": 0}, {"is_disabled": 0, "fusion_lon": 0.0, "fusion_lat": 0.0, "lat": 38.93104483333333, "type": "electric_scooter", "lon": -77.04121416666666, "bike_id": "fc58f54dae99a4a7ad2f5cd074b47d2a", "rental_uris": {"android": "https://dc.lft.to/lastmile_qr_scan", "ios": "https://dc.lft.to/lastmile_qr_scan"}, "name": "fc58f54dae99a4a7ad2f5cd074b47d2a", "is_reserved": 0}, {"is_disabled": 0, "fusion_lon": 0.0, "fusion_lat": 0.0, "lat": 38.91127216666667, "type": "electric_scooter", "lon": -77.03186883333333, "bike_id": "69f2582a2e45461c0324f4705510d72a", "rental_uris": {"android": "https://dc.lft.to/lastmile_qr_scan", "ios": "https://dc.lft.to/lastmile_qr_scan"}, "name": "69f2582a2e45461c0324f4705510d72a", "is_reserved": 0}, {"is_disabled": 0, "fusion_lon": 0.0, "fusion_lat": 0.0, "lat": 38.910353, "type": "electric_scooter", "lon": -77.01376266666666, "bike_id": "e5cd40f094edbefba4480553f1b8bd26", "rental_uris": {"android": "https://dc.lft.to/lastmile_qr_scan", "ios": "https://dc.lft.to/lastmile_qr_scan"}, "name": "e5cd40f094edbefba4480553f1b8bd26", "is_reserved": 0}, {"is_disabled": 0, "fusion_lon": 0.0, "fusion_lat": 0.0, "lat": 38.89762283333334, "type": "electric_scooter", "lon": -77.05166066666666, "bike_id": "f8792778b9d32a68e7eaf5f141795e54", "rental_uris": {"android": "https://dc.lft.to/lastmile_qr_scan", "ios": "https://dc.lft.to/lastmile_qr_scan"}, "name": "f8792778b9d32a68e7eaf5f141795e54", "is_reserved": 0}, {"is_disabled": 0, "fusion_lon": 0.0, "fusion_lat": 0.0, "lat": 38.898469666666664, "type": "electric_scooter", "lon": -76.94494333333333, "bike_id": "620777d66d86e0ece4890d05d3c20cfe", "rental_uris": {"android": "https://dc.lft.to/lastmile_qr_scan", "ios": "https://dc.lft.to/lastmile_qr_scan"}, "name": "620777d66d86e0ece4890d05d3c20cfe", "is_reserved": 0}, {"is_disabled": 0, "fusion_lon": 0.0, "fusion_lat": 0.0, "lat": 38.89044616666666, "type": "electric_scooter", "lon": -76.93756316666666, "bike_id": "612153a08b3240131eec5eb7679a122b", "rental_uris": {"android": "https://dc.lft.to/lastmile_qr_scan", "ios": "https://dc.lft.to/lastmile_qr_scan"}, "name": "612153a08b3240131eec5eb7679a122b", "is_reserved": 0}, {"is_disabled": 0, "fusion_lon": 0.0, "fusion_lat": 0.0, "lat": 38.900854, "type": "electric_scooter", "lon": -77.01310316666667, "bike_id": "b33b644709a607ebe892587f7e3da9c3", "rental_uris": {"android": "https://dc.lft.to/lastmile_qr_scan", "ios": "https://dc.lft.to/lastmile_qr_scan"}, "name": "b33b644709a607ebe892587f7e3da9c3", "is_reserved": 0}, {"is_disabled": 0, "fusion_lon": 0.0, "fusion_lat": 0.0, "lat": 38.960564166666664, "type": "electric_scooter", "lon": -77.08570766666666, "bike_id": "97de760671fbd22d8f61e75bcaeacefb", "rental_uris": {"android": "https://dc.lft.to/lastmile_qr_scan", "ios": "https://dc.lft.to/lastmile_qr_scan"}, "name": "97de760671fbd22d8f61e75bcaeacefb", "is_reserved": 0}, {"is_disabled": 0, "fusion_lon": 0.0, "fusion_lat": 0.0, "lat": 38.9312995, "type": "electric_scooter", "lon": -77.02199183333333, "bike_id": "65c893990d2c588024aa3b475fbce009", "rental_uris": {"android": "https://dc.lft.to/lastmile_qr_scan", "ios": "https://dc.lft.to/lastmile_qr_scan"}, "name": "65c893990d2c588024aa3b475fbce009", "is_reserved": 0}, {"is_disabled": 0, "fusion_lon": 0.0, "fusion_lat": 0.0, "lat": 38.89337483333333, "type": "electric_scooter", "lon": -77.02120033333334, "bike_id": "30d66b3731b88b13e814f1ed306ce915", "rental_uris": {"android": "https://dc.lft.to/lastmile_qr_scan", "ios": "https://dc.lft.to/lastmile_qr_scan"}, "name": "30d66b3731b88b13e814f1ed306ce915", "is_reserved": 0}, {"is_disabled": 0, "fusion_lon": 0.0, "fusion_lat": 0.0, "lat": 38.906012, "type": "electric_scooter", "lon": -77.01626466666667, "bike_id": "47318012954fc5c317001de3908fb53f", "rental_uris": {"android": "https://dc.lft.to/lastmile_qr_scan", "ios": "https://dc.lft.to/lastmile_qr_scan"}, "name": "47318012954fc5c317001de3908fb53f", "is_reserved": 0}, {"is_disabled": 0, "fusion_lon": 0.0, "fusion_lat": 0.0, "lat": 38.941895833333334, "type": "electric_scooter", "lon": -77.04255, "bike_id": "d8fffb302fd71666806ddfe05508e1ca", "rental_uris": {"android": "https://dc.lft.to/lastmile_qr_scan", "ios": "https://dc.lft.to/lastmile_qr_scan"}, "name": "d8fffb302fd71666806ddfe05508e1ca", "is_reserved": 0}, {"is_disabled": 0, "fusion_lon": 0.0, "fusion_lat": 0.0, "lat": 38.923076333333334, "type": "electric_scooter", "lon": -77.03927516666667, "bike_id": "1e52744cb85516b3866a9add28d1441f", "rental_uris": {"android": "https://dc.lft.to/lastmile_qr_scan", "ios": "https://dc.lft.to/lastmile_qr_scan"}, "name": "1e52744cb85516b3866a9add28d1441f", "is_reserved": 0}, {"is_disabled": 0, "fusion_lon": 0.0, "fusion_lat": 0.0, "lat": 38.935457666666665, "type": "electric_scooter", "lon": -77.0341955, "bike_id": "af392d473aa5a3d0322c4cf2ff0dd254", "rental_uris": {"android": "https://dc.lft.to/lastmile_qr_scan", "ios": "https://dc.lft.to/lastmile_qr_scan"}, "name": "af392d473aa5a3d0322c4cf2ff0dd254", "is_reserved": 0}, {"is_disabled": 0, "fusion_lon": 0.0, "fusion_lat": 0.0, "lat": 39.02294933333334, "type": "electric_bike", "lon": -77.021049, "bike_id": "b1a674187c7a2c96d976dce5f7dd7f1c", "rental_uris": {"android": "https://dc.lft.to/lastmile_qr_scan", "ios": "https://dc.lft.to/lastmile_qr_scan"}, "name": "b1a674187c7a2c96d976dce5f7dd7f1c", "is_reserved": 0}, {"is_disabled": 0, "fusion_lon": 0.0, "fusion_lat": 0.0, "lat": 38.93207066666667, "type": "electric_scooter", "lon": -77.03666533333333, "bike_id": "7efd286539268edf9522b48190add1a7", "rental_uris": {"android": "https://dc.lft.to/lastmile_qr_scan", "ios": "https://dc.lft.to/lastmile_qr_scan"}, "name": "7efd286539268edf9522b48190add1a7", "is_reserved": 0}, {"is_disabled": 0, "fusion_lon": 0.0, "fusion_lat": 0.0, "lat": 38.909170833333334, "type": "electric_scooter", "lon": -77.02285683333334, "bike_id": "d10d1e8ae0132c58cd0582ec4aed53df", "rental_uris": {"android": "https://dc.lft.to/lastmile_qr_scan", "ios": "https://dc.lft.to/lastmile_qr_scan"}, "name": "d10d1e8ae0132c58cd0582ec4aed53df", "is_reserved": 0}, {"is_disabled": 0, "fusion_lon": 0.0, "fusion_lat": 0.0, "lat": 38.899708, "type": "electric_scooter", "lon": -77.02963983333333, "bike_id": "1b100226eaf8e21687862a6869ea33c2", "rental_uris": {"android": "https://dc.lft.to/lastmile_qr_scan", "ios": "https://dc.lft.to/lastmile_qr_scan"}, "name": "1b100226eaf8e21687862a6869ea33c2", "is_reserved": 0}, {"is_disabled": 0, "fusion_lon": 0.0, "fusion_lat": 0.0, "lat": 38.985037, "type": "electric_bike", "lon": -76.98194066666667, "bike_id": "63b72865ddedd3c59ae8306b8a85e20b", "rental_uris": {"android": "https://dc.lft.to/lastmile_qr_scan", "ios": "https://dc.lft.to/lastmile_qr_scan"}, "name": "63b72865ddedd3c59ae8306b8a85e20b", "is_reserved": 0}, {"is_disabled": 0, "fusion_lon": 0.0, "fusion_lat": 0.0, "lat": 38.905061, "type": "electric_scooter", "lon": -77.025319, "bike_id": "c0e07e64235aac19c78dde5848ec4d7d", "rental_uris": {"android": "https://dc.lft.to/lastmile_qr_scan", "ios": "https://dc.lft.to/lastmile_qr_scan"}, "name": "c0e07e64235aac19c78dde5848ec4d7d", "is_reserved": 0}, {"is_disabled": 0, "fusion_lon": 0.0, "fusion_lat": 0.0, "lat": 38.8992305, "type": "electric_scooter", "lon": -77.01506266666667, "bike_id": "28da0e2e9553f32eb39c4199e82d0ac8", "rental_uris": {"android": "https://dc.lft.to/lastmile_qr_scan", "ios": "https://dc.lft.to/lastmile_qr_scan"}, "name": "28da0e2e9553f32eb39c4199e82d0ac8", "is_reserved": 0}, {"is_disabled": 0, "fusion_lon": 0.0, "fusion_lat": 0.0, "lat": 38.831493, "type": "electric_bike", "lon": -76.99693033333334, "bike_id": "6dde74f55299c9e0ec3c5aadbe4f42a4", "rental_uris": {"android": "https://dc.lft.to/lastmile_qr_scan", "ios": "https://dc.lft.to/lastmile_qr_scan"}, "name": "6dde74f55299c9e0ec3c5aadbe4f42a4", "is_reserved": 0}, {"is_disabled": 0, "fusion_lon": 0.0, "fusion_lat": 0.0, "lat": 38.892474666666665, "type": "electric_scooter", "lon": -77.04658033333334, "bike_id": "510b6a258d51e3f9184a1fed73aaaaa6", "rental_uris": {"android": "https://dc.lft.to/lastmile_qr_scan", "ios": "https://dc.lft.to/lastmile_qr_scan"}, "name": "510b6a258d51e3f9184a1fed73aaaaa6", "is_reserved": 0}, {"is_disabled": 0, "fusion_lon": 0.0, "fusion_lat": 0.0, "lat": 38.952749833333336, "type": "electric_bike", "lon": -77.0698005, "bike_id": "c5ccde771dd737cbfc486f8c38988139", "rental_uris": {"android": "https://dc.lft.to/lastmile_qr_scan", "ios": "https://dc.lft.to/lastmile_qr_scan"}, "name": "c5ccde771dd737cbfc486f8c38988139", "is_reserved": 0}, {"is_disabled": 0, "fusion_lon": 0.0, "fusion_lat": 0.0, "lat": 38.92481166666666, "type": "electric_scooter", "lon": -77.02727683333333, "bike_id": "599059e9065ff852cb91708de8b2a919", "rental_uris": {"android": "https://dc.lft.to/lastmile_qr_scan", "ios": "https://dc.lft.to/lastmile_qr_scan"}, "name": "599059e9065ff852cb91708de8b2a919", "is_reserved": 0}, {"is_disabled": 0, "fusion_lon": 0.0, "fusion_lat": 0.0, "lat": 38.9095165, "type": "electric_scooter", "lon": -77.0237985, "bike_id": "2a1dedaa78c25508cfd48a3ebdb96b0c", "rental_uris": {"android": "https://dc.lft.to/lastmile_qr_scan", "ios": "https://dc.lft.to/lastmile_qr_scan"}, "name": "2a1dedaa78c25508cfd48a3ebdb96b0c", "is_reserved": 0}, {"is_disabled": 0, "fusion_lon": 0.0, "fusion_lat": 0.0, "lat": 38.95309683333333, "type": "electric_scooter", "lon": -77.0360225, "bike_id": "1708060552c06d5b56f5f069cbf84ae1", "rental_uris": {"android": "https://dc.lft.to/lastmile_qr_scan", "ios": "https://dc.lft.to/lastmile_qr_scan"}, "name": "1708060552c06d5b56f5f069cbf84ae1", "is_reserved": 0}, {"is_disabled": 0, "fusion_lon": 0.0, "fusion_lat": 0.0, "lat": 38.9498315, "type": "electric_scooter", "lon": -77.02702416666666, "bike_id": "1e2bbcd36c9c9c3166282604214207d3", "rental_uris": {"android": "https://dc.lft.to/lastmile_qr_scan", "ios": "https://dc.lft.to/lastmile_qr_scan"}, "name": "1e2bbcd36c9c9c3166282604214207d3", "is_reserved": 0}, {"is_disabled": 0, "fusion_lon": 0.0, "fusion_lat": 0.0, "lat": 38.918287166666666, "type": "electric_scooter", "lon": -77.03234366666666, "bike_id": "723a306eafa9ec211dc472ffeb2e4dc1", "rental_uris": {"android": "https://dc.lft.to/lastmile_qr_scan", "ios": "https://dc.lft.to/lastmile_qr_scan"}, "name": "723a306eafa9ec211dc472ffeb2e4dc1", "is_reserved": 0}, {"is_disabled": 0, "fusion_lon": 0.0, "fusion_lat": 0.0, "lat": 38.89565533333333, "type": "electric_bike", "lon": -77.1274155, "bike_id": "7364ee06122a0fc9a11682007357b37d", "rental_uris": {"android": "https://dc.lft.to/lastmile_qr_scan", "ios": "https://dc.lft.to/lastmile_qr_scan"}, "name": "7364ee06122a0fc9a11682007357b37d", "is_reserved": 0}, {"is_disabled": 0, "fusion_lon": 0.0, "fusion_lat": 0.0, "lat": 38.99838583333333, "type": "electric_bike", "lon": -77.0290835, "bike_id": "dc5c3d9a61508f77f78799205ce4e27e", "rental_uris": {"android": "https://dc.lft.to/lastmile_qr_scan", "ios": "https://dc.lft.to/lastmile_qr_scan"}, "name": "dc5c3d9a61508f77f78799205ce4e27e", "is_reserved": 0}, {"is_disabled": 0, "fusion_lon": 0.0, "fusion_lat": 0.0, "lat": 38.8979735, "type": "electric_scooter", "lon": -76.93051683333333, "bike_id": "333e5998096b51a9a9727e6cb73cac0e", "rental_uris": {"android": "https://dc.lft.to/lastmile_qr_scan", "ios": "https://dc.lft.to/lastmile_qr_scan"}, "name": "333e5998096b51a9a9727e6cb73cac0e", "is_reserved": 0}, {"is_disabled": 0, "fusion_lon": 0.0, "fusion_lat": 0.0, "lat": 38.957569, "type": "electric_bike", "lon": -77.020598, "bike_id": "7d355d2c7c37a8a0a865cacca3e79ddd", "rental_uris": {"android": "https://dc.lft.to/lastmile_qr_scan", "ios": "https://dc.lft.to/lastmile_qr_scan"}, "name": "7d355d2c7c37a8a0a865cacca3e79ddd", "is_reserved": 0}, {"is_disabled": 0, "fusion_lon": 0.0, "fusion_lat": 0.0, "lat": 38.92411333333333, "type": "electric_scooter", "lon": -77.0354885, "bike_id": "e733a2466adae4539650f66f19455edb", "rental_uris": {"android": "https://dc.lft.to/lastmile_qr_scan", "ios": "https://dc.lft.to/lastmile_qr_scan"}, "name": "e733a2466adae4539650f66f19455edb", "is_reserved": 0}, {"is_disabled": 0, "fusion_lon": 0.0, "fusion_lat": 0.0, "lat": 38.92654183333333, "type": "electric_scooter", "lon": -77.037161, "bike_id": "a125db3dd0cc8880a4e5c8f1936bf86a", "rental_uris": {"android": "https://dc.lft.to/lastmile_qr_scan", "ios": "https://dc.lft.to/lastmile_qr_scan"}, "name": "a125db3dd0cc8880a4e5c8f1936bf86a", "is_reserved": 0}, {"is_disabled": 0, "fusion_lon": 0.0, "fusion_lat": 0.0, "lat": 38.906509166666666, "type": "electric_scooter", "lon": -77.02717933333334, "bike_id": "5fadadc9a520f58f9e84725b46988bcb", "rental_uris": {"android": "https://dc.lft.to/lastmile_qr_scan", "ios": "https://dc.lft.to/lastmile_qr_scan"}, "name": "5fadadc9a520f58f9e84725b46988bcb", "is_reserved": 0}, {"is_disabled": 0, "fusion_lon": 0.0, "fusion_lat": 0.0, "lat": 38.90765866666667, "type": "electric_scooter", "lon": -77.03845383333334, "bike_id": "f9a8b2d499c16ee02b7dc8905503c420", "rental_uris": {"android": "https://dc.lft.to/lastmile_qr_scan", "ios": "https://dc.lft.to/lastmile_qr_scan"}, "name": "f9a8b2d499c16ee02b7dc8905503c420", "is_reserved": 0}, {"is_disabled": 0, "fusion_lon": 0.0, "fusion_lat": 0.0, "lat": 38.9017825, "type": "electric_scooter", "lon": -77.01838666666667, "bike_id": "1a689e503b7193e539967813df023906", "rental_uris": {"android": "https://dc.lft.to/lastmile_qr_scan", "ios": "https://dc.lft.to/lastmile_qr_scan"}, "name": "1a689e503b7193e539967813df023906", "is_reserved": 0}, {"is_disabled": 0, "fusion_lon": 0.0, "fusion_lat": 0.0, "lat": 38.89832666666667, "type": "electric_scooter", "lon": -77.031633, "bike_id": "81459c0e36e71e62597ded454a54c44f", "rental_uris": {"android": "https://dc.lft.to/lastmile_qr_scan", "ios": "https://dc.lft.to/lastmile_qr_scan"}, "name": "81459c0e36e71e62597ded454a54c44f", "is_reserved": 0}, {"is_disabled": 0, "fusion_lon": 0.0, "fusion_lat": 0.0, "lat": 38.9215025, "type": "electric_scooter", "lon": -77.0386185, "bike_id": "e0b09956a2bda27cd095b870042787fe", "rental_uris": {"android": "https://dc.lft.to/lastmile_qr_scan", "ios": "https://dc.lft.to/lastmile_qr_scan"}, "name": "e0b09956a2bda27cd095b870042787fe", "is_reserved": 0}, {"is_disabled": 0, "fusion_lon": 0.0, "fusion_lat": 0.0, "lat": 38.947525, "type": "electric_scooter", "lon": -77.02983333333333, "bike_id": "c87f6e4ce0f1a26245c19432f8bc2687", "rental_uris": {"android": "https://dc.lft.to/lastmile_qr_scan", "ios": "https://dc.lft.to/lastmile_qr_scan"}, "name": "c87f6e4ce0f1a26245c19432f8bc2687", "is_reserved": 0}, {"is_disabled": 0, "fusion_lon": 0.0, "fusion_lat": 0.0, "lat": 38.931099333333336, "type": "electric_scooter", "lon": -77.012477, "bike_id": "d4c94b4747187bd3775ac374c86ef925", "rental_uris": {"android": "https://dc.lft.to/lastmile_qr_scan", "ios": "https://dc.lft.to/lastmile_qr_scan"}, "name": "d4c94b4747187bd3775ac374c86ef925", "is_reserved": 0}, {"is_disabled": 0, "fusion_lon": 0.0, "fusion_lat": 0.0, "lat": 38.909545666666666, "type": "electric_scooter", "lon": -77.04060766666667, "bike_id": "ac033e7c84ed3bb39d4a165b73f24515", "rental_uris": {"android": "https://dc.lft.to/lastmile_qr_scan", "ios": "https://dc.lft.to/lastmile_qr_scan"}, "name": "ac033e7c84ed3bb39d4a165b73f24515", "is_reserved": 0}, {"is_disabled": 0, "fusion_lon": 0.0, "fusion_lat": 0.0, "lat": 38.863574, "type": "electric_scooter", "lon": -76.99064, "bike_id": "c68fb5c16b441912bb253acdf5ec0837", "rental_uris": {"android": "https://dc.lft.to/lastmile_qr_scan", "ios": "https://dc.lft.to/lastmile_qr_scan"}, "name": "c68fb5c16b441912bb253acdf5ec0837", "is_reserved": 0}, {"is_disabled": 0, "fusion_lon": 0.0, "fusion_lat": 0.0, "lat": 38.9068075, "type": "electric_scooter", "lon": -77.03114266666667, "bike_id": "a59ec107bc551be63a8448de70c8e40e", "rental_uris": {"android": "https://dc.lft.to/lastmile_qr_scan", "ios": "https://dc.lft.to/lastmile_qr_scan"}, "name": "a59ec107bc551be63a8448de70c8e40e", "is_reserved": 0}, {"is_disabled": 0, "fusion_lon": 0.0, "fusion_lat": 0.0, "lat": 38.90201716666667, "type": "electric_scooter", "lon": -76.98200166666666, "bike_id": "68c3c7e7fb1a84eb83357e861e9a9501", "rental_uris": {"android": "https://dc.lft.to/lastmile_qr_scan", "ios": "https://dc.lft.to/lastmile_qr_scan"}, "name": "68c3c7e7fb1a84eb83357e861e9a9501", "is_reserved": 0}, {"is_disabled": 0, "fusion_lon": 0.0, "fusion_lat": 0.0, "lat": 38.92669816666667, "type": "electric_bike", "lon": -77.00811566666667, "bike_id": "676d89b875293002b5c06b730e336cb5", "rental_uris": {"android": "https://dc.lft.to/lastmile_qr_scan", "ios": "https://dc.lft.to/lastmile_qr_scan"}, "name": "676d89b875293002b5c06b730e336cb5", "is_reserved": 0}, {"is_disabled": 0, "fusion_lon": 0.0, "fusion_lat": 0.0, "lat": 38.90598283333333, "type": "electric_scooter", "lon": -77.06371633333333, "bike_id": "adac31884ce0764964af8aab01070a87", "rental_uris": {"android": "https://dc.lft.to/lastmile_qr_scan", "ios": "https://dc.lft.to/lastmile_qr_scan"}, "name": "adac31884ce0764964af8aab01070a87", "is_reserved": 0}, {"is_disabled": 0, "fusion_lon": 0.0, "fusion_lat": 0.0, "lat": 38.918030333333334, "type": "electric_scooter", "lon": -77.03435316666666, "bike_id": "7fd6b84e3be6d69b17671909e4a190eb", "rental_uris": {"android": "https://dc.lft.to/lastmile_qr_scan", "ios": "https://dc.lft.to/lastmile_qr_scan"}, "name": "7fd6b84e3be6d69b17671909e4a190eb", "is_reserved": 0}, {"is_disabled": 0, "fusion_lon": 0.0, "fusion_lat": 0.0, "lat": 38.90061333333333, "type": "electric_scooter", "lon": -77.048895, "bike_id": "8e399e0c34f85fee89876ae335320c7e", "rental_uris": {"android": "https://dc.lft.to/lastmile_qr_scan", "ios": "https://dc.lft.to/lastmile_qr_scan"}, "name": "8e399e0c34f85fee89876ae335320c7e", "is_reserved": 0}, {"is_disabled": 0, "fusion_lon": 0.0, "fusion_lat": 0.0, "lat": 38.898347333333334, "type": "electric_scooter", "lon": -77.031243, "bike_id": "e2009b86c9c94196d5fb28a97e120435", "rental_uris": {"android": "https://dc.lft.to/lastmile_qr_scan", "ios": "https://dc.lft.to/lastmile_qr_scan"}, "name": "e2009b86c9c94196d5fb28a97e120435", "is_reserved": 0}, {"is_disabled": 0, "fusion_lon": 0.0, "fusion_lat": 0.0, "lat": 38.9451965, "type": "electric_scooter", "lon": -77.02982316666667, "bike_id": "dbee8b538ce0f46392092246633f6469", "rental_uris": {"android": "https://dc.lft.to/lastmile_qr_scan", "ios": "https://dc.lft.to/lastmile_qr_scan"}, "name": "dbee8b538ce0f46392092246633f6469", "is_reserved": 0}, {"is_disabled": 0, "fusion_lon": 0.0, "fusion_lat": 0.0, "lat": 38.90766716666667, "type": "electric_scooter", "lon": -77.0384695, "bike_id": "9a10148c228ae87e123090f059fd5658", "rental_uris": {"android": "https://dc.lft.to/lastmile_qr_scan", "ios": "https://dc.lft.to/lastmile_qr_scan"}, "name": "9a10148c228ae87e123090f059fd5658", "is_reserved": 0}, {"is_disabled": 0, "fusion_lon": 0.0, "fusion_lat": 0.0, "lat": 38.9101585, "type": "electric_scooter", "lon": -77.03643716666667, "bike_id": "4e4227424cc3a8fdfc1c000b9a878088", "rental_uris": {"android": "https://dc.lft.to/lastmile_qr_scan", "ios": "https://dc.lft.to/lastmile_qr_scan"}, "name": "4e4227424cc3a8fdfc1c000b9a878088", "is_reserved": 0}, {"is_disabled": 0, "fusion_lon": 0.0, "fusion_lat": 0.0, "lat": 38.883757833333334, "type": "electric_scooter", "lon": -76.923737, "bike_id": "536548793f365cde0cec7496f2b7b494", "rental_uris": {"android": "https://dc.lft.to/lastmile_qr_scan", "ios": "https://dc.lft.to/lastmile_qr_scan"}, "name": "536548793f365cde0cec7496f2b7b494", "is_reserved": 0}, {"is_disabled": 0, "fusion_lon": 0.0, "fusion_lat": 0.0, "lat": 38.9241345, "type": "electric_scooter", "lon": -76.99746433333334, "bike_id": "c4e14c226577b39f570cbe578febda43", "rental_uris": {"android": "https://dc.lft.to/lastmile_qr_scan", "ios": "https://dc.lft.to/lastmile_qr_scan"}, "name": "c4e14c226577b39f570cbe578febda43", "is_reserved": 0}, {"is_disabled": 0, "fusion_lon": 0.0, "fusion_lat": 0.0, "lat": 38.90299366666667, "type": "electric_scooter", "lon": -77.0364185, "bike_id": "3d5fa9e4507c8e59f6d550a2711000e8", "rental_uris": {"android": "https://dc.lft.to/lastmile_qr_scan", "ios": "https://dc.lft.to/lastmile_qr_scan"}, "name": "3d5fa9e4507c8e59f6d550a2711000e8", "is_reserved": 0}, {"is_disabled": 0, "fusion_lon": 0.0, "fusion_lat": 0.0, "lat": 38.827323166666666, "type": "electric_bike", "lon": -77.00864333333334, "bike_id": "483f56c464063772616ce0eac12110f3", "rental_uris": {"android": "https://dc.lft.to/lastmile_qr_scan", "ios": "https://dc.lft.to/lastmile_qr_scan"}, "name": "483f56c464063772616ce0eac12110f3", "is_reserved": 0}, {"is_disabled": 0, "fusion_lon": 0.0, "fusion_lat": 0.0, "lat": 38.9074055, "type": "electric_scooter", "lon": -77.034521, "bike_id": "8430964716eb6a510040933ae1955bd7", "rental_uris": {"android": "https://dc.lft.to/lastmile_qr_scan", "ios": "https://dc.lft.to/lastmile_qr_scan"}, "name": "8430964716eb6a510040933ae1955bd7", "is_reserved": 0}, {"is_disabled": 0, "fusion_lon": 0.0, "fusion_lat": 0.0, "lat": 38.900553333333335, "type": "electric_scooter", "lon": -76.988337, "bike_id": "17e23326aadb6b6d5831e4b0717597e9", "rental_uris": {"android": "https://dc.lft.to/lastmile_qr_scan", "ios": "https://dc.lft.to/lastmile_qr_scan"}, "name": "17e23326aadb6b6d5831e4b0717597e9", "is_reserved": 0}, {"is_disabled": 0, "fusion_lon": 0.0, "fusion_lat": 0.0, "lat": 38.88863, "type": "electric_scooter", "lon": -76.9773885, "bike_id": "6b160cb2534b4579fea968591c929d2a", "rental_uris": {"android": "https://dc.lft.to/lastmile_qr_scan", "ios": "https://dc.lft.to/lastmile_qr_scan"}, "name": "6b160cb2534b4579fea968591c929d2a", "is_reserved": 0}, {"is_disabled": 0, "fusion_lon": 0.0, "fusion_lat": 0.0, "lat": 38.90131566666667, "type": "electric_scooter", "lon": -77.041789, "bike_id": "6d25f05f12f819c6127cb96d35c1625f", "rental_uris": {"android": "https://dc.lft.to/lastmile_qr_scan", "ios": "https://dc.lft.to/lastmile_qr_scan"}, "name": "6d25f05f12f819c6127cb96d35c1625f", "is_reserved": 0}, {"is_disabled": 0, "fusion_lon": 0.0, "fusion_lat": 0.0, "lat": 38.89514333333333, "type": "electric_scooter", "lon": -77.0219975, "bike_id": "da034ed8dd4d8e721eb43eed2d5d6dee", "rental_uris": {"android": "https://dc.lft.to/lastmile_qr_scan", "ios": "https://dc.lft.to/lastmile_qr_scan"}, "name": "da034ed8dd4d8e721eb43eed2d5d6dee", "is_reserved": 0}, {"is_disabled": 0, "fusion_lon": 0.0, "fusion_lat": 0.0, "lat": 38.893189666666665, "type": "electric_scooter", "lon": -77.01978616666666, "bike_id": "9ba76bf1ea66a86023bbd60adfa0910f", "rental_uris": {"android": "https://dc.lft.to/lastmile_qr_scan", "ios": "https://dc.lft.to/lastmile_qr_scan"}, "name": "9ba76bf1ea66a86023bbd60adfa0910f", "is_reserved": 0}, {"is_disabled": 0, "fusion_lon": 0.0, "fusion_lat": 0.0, "lat": 38.9153895, "type": "electric_scooter", "lon": -77.03202433333334, "bike_id": "cf17eda139e975cafe6b2883bd751ec7", "rental_uris": {"android": "https://dc.lft.to/lastmile_qr_scan", "ios": "https://dc.lft.to/lastmile_qr_scan"}, "name": "cf17eda139e975cafe6b2883bd751ec7", "is_reserved": 0}, {"is_disabled": 0, "fusion_lon": 0.0, "fusion_lat": 0.0, "lat": 38.85063933333333, "type": "electric_scooter", "lon": -76.96528266666667, "bike_id": "7f56e3fa2d2556539f3dc52c83739005", "rental_uris": {"android": "https://dc.lft.to/lastmile_qr_scan", "ios": "https://dc.lft.to/lastmile_qr_scan"}, "name": "7f56e3fa2d2556539f3dc52c83739005", "is_reserved": 0}, {"is_disabled": 0, "fusion_lon": 0.0, "fusion_lat": 0.0, "lat": 38.915486666666666, "type": "electric_scooter", "lon": -77.03851316666666, "bike_id": "1e82e1b2cd837f6e35eeb97335531720", "rental_uris": {"android": "https://dc.lft.to/lastmile_qr_scan", "ios": "https://dc.lft.to/lastmile_qr_scan"}, "name": "1e82e1b2cd837f6e35eeb97335531720", "is_reserved": 0}, {"is_disabled": 0, "fusion_lon": 0.0, "fusion_lat": 0.0, "lat": 38.89707, "type": "electric_scooter", "lon": -77.020443, "bike_id": "d03fa8b683fb78b618d4108f7cfb9da8", "rental_uris": {"android": "https://dc.lft.to/lastmile_qr_scan", "ios": "https://dc.lft.to/lastmile_qr_scan"}, "name": "d03fa8b683fb78b618d4108f7cfb9da8", "is_reserved": 0}, {"is_disabled": 0, "fusion_lon": 0.0, "fusion_lat": 0.0, "lat": 38.901643, "type": "electric_scooter", "lon": -77.04163833333334, "bike_id": "b5e10c43bd342ea596478822cde69b86", "rental_uris": {"android": "https://dc.lft.to/lastmile_qr_scan", "ios": "https://dc.lft.to/lastmile_qr_scan"}, "name": "b5e10c43bd342ea596478822cde69b86", "is_reserved": 0}, {"is_disabled": 0, "fusion_lon": 0.0, "fusion_lat": 0.0, "lat": 38.83120816666667, "type": "electric_bike", "lon": -77.04322916666666, "bike_id": "f54671df6674420b79bcf93e634e8cb7", "rental_uris": {"android": "https://dc.lft.to/lastmile_qr_scan", "ios": "https://dc.lft.to/lastmile_qr_scan"}, "name": "f54671df6674420b79bcf93e634e8cb7", "is_reserved": 0}, {"is_disabled": 0, "fusion_lon": 0.0, "fusion_lat": 0.0, "lat": 38.87574866666667, "type": "electric_scooter", "lon": -77.006071, "bike_id": "668d3d515e7a78ed17608bef2cbf904a", "rental_uris": {"android": "https://dc.lft.to/lastmile_qr_scan", "ios": "https://dc.lft.to/lastmile_qr_scan"}, "name": "668d3d515e7a78ed17608bef2cbf904a", "is_reserved": 0}, {"is_disabled": 0, "fusion_lon": 0.0, "fusion_lat": 0.0, "lat": 38.905727, "type": "electric_scooter", "lon": -77.02173683333334, "bike_id": "98066ad1d2a6c9526a4e53fcffc3cc31", "rental_uris": {"android": "https://dc.lft.to/lastmile_qr_scan", "ios": "https://dc.lft.to/lastmile_qr_scan"}, "name": "98066ad1d2a6c9526a4e53fcffc3cc31", "is_reserved": 0}, {"is_disabled": 0, "fusion_lon": 0.0, "fusion_lat": 0.0, "lat": 38.90727966666667, "type": "electric_scooter", "lon": -77.04012483333334, "bike_id": "3bcef7882af0bf150e8f372a7ff8528f", "rental_uris": {"android": "https://dc.lft.to/lastmile_qr_scan", "ios": "https://dc.lft.to/lastmile_qr_scan"}, "name": "3bcef7882af0bf150e8f372a7ff8528f", "is_reserved": 0}, {"is_disabled": 0, "fusion_lon": 0.0, "fusion_lat": 0.0, "lat": 38.905485666666664, "type": "electric_scooter", "lon": -77.03364466666666, "bike_id": "5bdd2539c7004767190d22ff00acb3e0", "rental_uris": {"android": "https://dc.lft.to/lastmile_qr_scan", "ios": "https://dc.lft.to/lastmile_qr_scan"}, "name": "5bdd2539c7004767190d22ff00acb3e0", "is_reserved": 0}, {"is_disabled": 0, "fusion_lon": 0.0, "fusion_lat": 0.0, "lat": 38.8870195, "type": "electric_scooter", "lon": -76.95367733333333, "bike_id": "98732a2a32a833d4e2d709657d206096", "rental_uris": {"android": "https://dc.lft.to/lastmile_qr_scan", "ios": "https://dc.lft.to/lastmile_qr_scan"}, "name": "98732a2a32a833d4e2d709657d206096", "is_reserved": 0}, {"is_disabled": 0, "fusion_lon": 0.0, "fusion_lat": 0.0, "lat": 38.917445, "type": "electric_scooter", "lon": -77.03663566666667, "bike_id": "5e831c33677d9cf6a1d1d2888a49629b", "rental_uris": {"android": "https://dc.lft.to/lastmile_qr_scan", "ios": "https://dc.lft.to/lastmile_qr_scan"}, "name": "5e831c33677d9cf6a1d1d2888a49629b", "is_reserved": 0}, {"is_disabled": 0, "fusion_lon": 0.0, "fusion_lat": 0.0, "lat": 38.916807166666665, "type": "electric_scooter", "lon": -77.0268635, "bike_id": "fcc87c0be05aba4cb1a7f456acc19b68", "rental_uris": {"android": "https://dc.lft.to/lastmile_qr_scan", "ios": "https://dc.lft.to/lastmile_qr_scan"}, "name": "fcc87c0be05aba4cb1a7f456acc19b68", "is_reserved": 0}, {"is_disabled": 0, "fusion_lon": 0.0, "fusion_lat": 0.0, "lat": 38.86244466666667, "type": "electric_scooter", "lon": -76.995339, "bike_id": "dd7cf87b79abf06bc437858b5a5dbde7", "rental_uris": {"android": "https://dc.lft.to/lastmile_qr_scan", "ios": "https://dc.lft.to/lastmile_qr_scan"}, "name": "dd7cf87b79abf06bc437858b5a5dbde7", "is_reserved": 0}, {"is_disabled": 0, "fusion_lon": 0.0, "fusion_lat": 0.0, "lat": 38.900172833333336, "type": "electric_scooter", "lon": -77.006724, "bike_id": "165038ac51f6a8b96650a39a59352053", "rental_uris": {"android": "https://dc.lft.to/lastmile_qr_scan", "ios": "https://dc.lft.to/lastmile_qr_scan"}, "name": "165038ac51f6a8b96650a39a59352053", "is_reserved": 0}, {"is_disabled": 0, "fusion_lon": 0.0, "fusion_lat": 0.0, "lat": 38.904288, "type": "electric_scooter", "lon": -77.026069, "bike_id": "d0ccb20f242c72adcace82922e9fa268", "rental_uris": {"android": "https://dc.lft.to/lastmile_qr_scan", "ios": "https://dc.lft.to/lastmile_qr_scan"}, "name": "d0ccb20f242c72adcace82922e9fa268", "is_reserved": 0}, {"is_disabled": 0, "fusion_lon": 0.0, "fusion_lat": 0.0, "lat": 38.84291233333333, "type": "electric_scooter", "lon": -76.99945516666666, "bike_id": "1f60a30993c824f59b92a98d5545a776", "rental_uris": {"android": "https://dc.lft.to/lastmile_qr_scan", "ios": "https://dc.lft.to/lastmile_qr_scan"}, "name": "1f60a30993c824f59b92a98d5545a776", "is_reserved": 0}, {"is_disabled": 0, "fusion_lon": 0.0, "fusion_lat": 0.0, "lat": 38.879373666666666, "type": "electric_bike", "lon": -77.01462783333334, "bike_id": "bef3f3b71cdced4c2d09e238bd175a2e", "rental_uris": {"android": "https://dc.lft.to/lastmile_qr_scan", "ios": "https://dc.lft.to/lastmile_qr_scan"}, "name": "bef3f3b71cdced4c2d09e238bd175a2e", "is_reserved": 0}, {"is_disabled": 0, "fusion_lon": 0.0, "fusion_lat": 0.0, "lat": 38.932945833333335, "type": "electric_scooter", "lon": -77.02448366666667, "bike_id": "0d52115145e6742535f62a5a9c110311", "rental_uris": {"android": "https://dc.lft.to/lastmile_qr_scan", "ios": "https://dc.lft.to/lastmile_qr_scan"}, "name": "0d52115145e6742535f62a5a9c110311", "is_reserved": 0}, {"is_disabled": 0, "fusion_lon": 0.0, "fusion_lat": 0.0, "lat": 38.910548, "type": "electric_scooter", "lon": -77.0434145, "bike_id": "0aa2658140a5e7a8092a85e8513a91e1", "rental_uris": {"android": "https://dc.lft.to/lastmile_qr_scan", "ios": "https://dc.lft.to/lastmile_qr_scan"}, "name": "0aa2658140a5e7a8092a85e8513a91e1", "is_reserved": 0}, {"is_disabled": 0, "fusion_lon": 0.0, "fusion_lat": 0.0, "lat": 38.90968633333333, "type": "electric_scooter", "lon": -77.021769, "bike_id": "fa53990a4df2132d2706d1de8b97ebf1", "rental_uris": {"android": "https://dc.lft.to/lastmile_qr_scan", "ios": "https://dc.lft.to/lastmile_qr_scan"}, "name": "fa53990a4df2132d2706d1de8b97ebf1", "is_reserved": 0}, {"is_disabled": 0, "fusion_lon": 0.0, "fusion_lat": 0.0, "lat": 38.9178985, "type": "electric_scooter", "lon": -77.03176366666666, "bike_id": "c70473508aeeb48eaf952ac914e1769c", "rental_uris": {"android": "https://dc.lft.to/lastmile_qr_scan", "ios": "https://dc.lft.to/lastmile_qr_scan"}, "name": "c70473508aeeb48eaf952ac914e1769c", "is_reserved": 0}, {"is_disabled": 0, "fusion_lon": 0.0, "fusion_lat": 0.0, "lat": 38.928201333333334, "type": "electric_scooter", "lon": -77.03631566666667, "bike_id": "7aef2728fc104608dc1cb2389071555a", "rental_uris": {"android": "https://dc.lft.to/lastmile_qr_scan", "ios": "https://dc.lft.to/lastmile_qr_scan"}, "name": "7aef2728fc104608dc1cb2389071555a", "is_reserved": 0}, {"is_disabled": 0, "fusion_lon": 0.0, "fusion_lat": 0.0, "lat": 38.9057595, "type": "electric_scooter", "lon": -77.007188, "bike_id": "2238da06bfbd4f11320a3000dad5ece4", "rental_uris": {"android": "https://dc.lft.to/lastmile_qr_scan", "ios": "https://dc.lft.to/lastmile_qr_scan"}, "name": "2238da06bfbd4f11320a3000dad5ece4", "is_reserved": 0}, {"is_disabled": 0, "fusion_lon": 0.0, "fusion_lat": 0.0, "lat": 38.919950166666666, "type": "electric_scooter", "lon": -77.03270883333333, "bike_id": "06902f34e73d3b2f0c5a80fabeb2d582", "rental_uris": {"android": "https://dc.lft.to/lastmile_qr_scan", "ios": "https://dc.lft.to/lastmile_qr_scan"}, "name": "06902f34e73d3b2f0c5a80fabeb2d582", "is_reserved": 0}, {"is_disabled": 0, "fusion_lon": 0.0, "fusion_lat": 0.0, "lat": 38.909444666666666, "type": "electric_scooter", "lon": -77.01528433333333, "bike_id": "80d9f909721e8087f116778ffd6a7da2", "rental_uris": {"android": "https://dc.lft.to/lastmile_qr_scan", "ios": "https://dc.lft.to/lastmile_qr_scan"}, "name": "80d9f909721e8087f116778ffd6a7da2", "is_reserved": 0}, {"is_disabled": 0, "fusion_lon": 0.0, "fusion_lat": 0.0, "lat": 38.93715866666667, "type": "electric_scooter", "lon": -77.03259683333333, "bike_id": "2bf4bd3afbc55ee875673eb9a5ee2835", "rental_uris": {"android": "https://dc.lft.to/lastmile_qr_scan", "ios": "https://dc.lft.to/lastmile_qr_scan"}, "name": "2bf4bd3afbc55ee875673eb9a5ee2835", "is_reserved": 0}, {"is_disabled": 0, "fusion_lon": 0.0, "fusion_lat": 0.0, "lat": 38.89263166666667, "type": "electric_scooter", "lon": -76.94155, "bike_id": "00e93bbbbe5edb81343c56e4eecc7884", "rental_uris": {"android": "https://dc.lft.to/lastmile_qr_scan", "ios": "https://dc.lft.to/lastmile_qr_scan"}, "name": "00e93bbbbe5edb81343c56e4eecc7884", "is_reserved": 0}, {"is_disabled": 0, "fusion_lon": 0.0, "fusion_lat": 0.0, "lat": 38.886394833333334, "type": "electric_scooter", "lon": -77.02251483333333, "bike_id": "3e9ed6ee1be7305b2b2e33312c43995b", "rental_uris": {"android": "https://dc.lft.to/lastmile_qr_scan", "ios": "https://dc.lft.to/lastmile_qr_scan"}, "name": "3e9ed6ee1be7305b2b2e33312c43995b", "is_reserved": 0}, {"is_disabled": 0, "fusion_lon": 0.0, "fusion_lat": 0.0, "lat": 38.917468666666664, "type": "electric_scooter", "lon": -77.03659433333333, "bike_id": "be15281b633bd643e18c6a8b5507da24", "rental_uris": {"android": "https://dc.lft.to/lastmile_qr_scan", "ios": "https://dc.lft.to/lastmile_qr_scan"}, "name": "be15281b633bd643e18c6a8b5507da24", "is_reserved": 0}, {"is_disabled": 0, "fusion_lon": 0.0, "fusion_lat": 0.0, "lat": 38.9097135, "type": "electric_scooter", "lon": -77.03623216666666, "bike_id": "1cbcc265decee83a935cb653dce782af", "rental_uris": {"android": "https://dc.lft.to/lastmile_qr_scan", "ios": "https://dc.lft.to/lastmile_qr_scan"}, "name": "1cbcc265decee83a935cb653dce782af", "is_reserved": 0}, {"is_disabled": 0, "fusion_lon": 0.0, "fusion_lat": 0.0, "lat": 38.8650565, "type": "electric_scooter", "lon": -76.99000616666666, "bike_id": "fdb0b08c91e03d6bb79fb74dc760acf0", "rental_uris": {"android": "https://dc.lft.to/lastmile_qr_scan", "ios": "https://dc.lft.to/lastmile_qr_scan"}, "name": "fdb0b08c91e03d6bb79fb74dc760acf0", "is_reserved": 0}, {"is_disabled": 0, "fusion_lon": 0.0, "fusion_lat": 0.0, "lat": 38.892213, "type": "electric_scooter", "lon": -77.01556033333334, "bike_id": "5a1991b6b2a7a20f7f7aae4ca295f329", "rental_uris": {"android": "https://dc.lft.to/lastmile_qr_scan", "ios": "https://dc.lft.to/lastmile_qr_scan"}, "name": "5a1991b6b2a7a20f7f7aae4ca295f329", "is_reserved": 0}, {"is_disabled": 0, "fusion_lon": 0.0, "fusion_lat": 0.0, "lat": 38.918719, "type": "electric_scooter", "lon": -77.04180966666667, "bike_id": "e78688ae1608a37f35c6b074456706a6", "rental_uris": {"android": "https://dc.lft.to/lastmile_qr_scan", "ios": "https://dc.lft.to/lastmile_qr_scan"}, "name": "e78688ae1608a37f35c6b074456706a6", "is_reserved": 0}, {"is_disabled": 0, "fusion_lon": 0.0, "fusion_lat": 0.0, "lat": 38.93188816666667, "type": "electric_bike", "lon": -77.229382, "bike_id": "6ed29d914e32fbac093050a9187083e6", "rental_uris": {"android": "https://dc.lft.to/lastmile_qr_scan", "ios": "https://dc.lft.to/lastmile_qr_scan"}, "name": "6ed29d914e32fbac093050a9187083e6", "is_reserved": 0}, {"is_disabled": 0, "fusion_lon": 0.0, "fusion_lat": 0.0, "lat": 38.9175125, "type": "electric_scooter", "lon": -77.0249305, "bike_id": "8e21300ce490f42928fe1283ba183aff", "rental_uris": {"android": "https://dc.lft.to/lastmile_qr_scan", "ios": "https://dc.lft.to/lastmile_qr_scan"}, "name": "8e21300ce490f42928fe1283ba183aff", "is_reserved": 0}, {"is_disabled": 0, "fusion_lon": 0.0, "fusion_lat": 0.0, "lat": 38.9527865, "type": "electric_bike", "lon": -77.06976983333334, "bike_id": "0d1fd0fb54d2e8ddda39c8869a1dce66", "rental_uris": {"android": "https://dc.lft.to/lastmile_qr_scan", "ios": "https://dc.lft.to/lastmile_qr_scan"}, "name": "0d1fd0fb54d2e8ddda39c8869a1dce66", "is_reserved": 0}, {"is_disabled": 0, "fusion_lon": 0.0, "fusion_lat": 0.0, "lat": 38.909689166666666, "type": "electric_scooter", "lon": -77.02178233333333, "bike_id": "0b9a21f549920793d8a701fb0a89f400", "rental_uris": {"android": "https://dc.lft.to/lastmile_qr_scan", "ios": "https://dc.lft.to/lastmile_qr_scan"}, "name": "0b9a21f549920793d8a701fb0a89f400", "is_reserved": 0}, {"is_disabled": 0, "fusion_lon": 0.0, "fusion_lat": 0.0, "lat": 38.99259133333334, "type": "electric_bike", "lon": -77.049952, "bike_id": "f46970050382d90b486a62eb53152597", "rental_uris": {"android": "https://dc.lft.to/lastmile_qr_scan", "ios": "https://dc.lft.to/lastmile_qr_scan"}, "name": "f46970050382d90b486a62eb53152597", "is_reserved": 0}, {"is_disabled": 0, "fusion_lon": 0.0, "fusion_lat": 0.0, "lat": 38.95075933333333, "type": "electric_scooter", "lon": -77.02874816666667, "bike_id": "dd14e20e027a28bf95ad670260a08915", "rental_uris": {"android": "https://dc.lft.to/lastmile_qr_scan", "ios": "https://dc.lft.to/lastmile_qr_scan"}, "name": "dd14e20e027a28bf95ad670260a08915", "is_reserved": 0}, {"is_disabled": 0, "fusion_lon": 0.0, "fusion_lat": 0.0, "lat": 38.868585333333336, "type": "electric_bike", "lon": -76.91658866666667, "bike_id": "61efc20dc4e8e0cf431238f6515021c7", "rental_uris": {"android": "https://dc.lft.to/lastmile_qr_scan", "ios": "https://dc.lft.to/lastmile_qr_scan"}, "name": "61efc20dc4e8e0cf431238f6515021c7", "is_reserved": 0}, {"is_disabled": 0, "fusion_lon": 0.0, "fusion_lat": 0.0, "lat": 38.910356, "type": "electric_scooter", "lon": -77.0147735, "bike_id": "baa4050112d4745384d4968167f73cb6", "rental_uris": {"android": "https://dc.lft.to/lastmile_qr_scan", "ios": "https://dc.lft.to/lastmile_qr_scan"}, "name": "baa4050112d4745384d4968167f73cb6", "is_reserved": 0}, {"is_disabled": 0, "fusion_lon": 0.0, "fusion_lat": 0.0, "lat": 38.921578833333335, "type": "electric_scooter", "lon": -77.03455966666667, "bike_id": "ff7d4aa3895585029b417a73d4a2012e", "rental_uris": {"android": "https://dc.lft.to/lastmile_qr_scan", "ios": "https://dc.lft.to/lastmile_qr_scan"}, "name": "ff7d4aa3895585029b417a73d4a2012e", "is_reserved": 0}, {"is_disabled": 0, "fusion_lon": 0.0, "fusion_lat": 0.0, "lat": 38.93638283333333, "type": "electric_scooter", "lon": -77.03695666666667, "bike_id": "7ae23f17d23823f1d3a2661b3dbba295", "rental_uris": {"android": "https://dc.lft.to/lastmile_qr_scan", "ios": "https://dc.lft.to/lastmile_qr_scan"}, "name": "7ae23f17d23823f1d3a2661b3dbba295", "is_reserved": 0}, {"is_disabled": 0, "fusion_lon": 0.0, "fusion_lat": 0.0, "lat": 38.90023266666667, "type": "electric_scooter", "lon": -76.9983095, "bike_id": "16827f64cc5ed8d6b4a371d680dccd65", "rental_uris": {"android": "https://dc.lft.to/lastmile_qr_scan", "ios": "https://dc.lft.to/lastmile_qr_scan"}, "name": "16827f64cc5ed8d6b4a371d680dccd65", "is_reserved": 0}, {"is_disabled": 0, "fusion_lon": 0.0, "fusion_lat": 0.0, "lat": 38.903775333333336, "type": "electric_scooter", "lon": -77.04621516666667, "bike_id": "ee018d05738120e4d7189d3945340c07", "rental_uris": {"android": "https://dc.lft.to/lastmile_qr_scan", "ios": "https://dc.lft.to/lastmile_qr_scan"}, "name": "ee018d05738120e4d7189d3945340c07", "is_reserved": 0}, {"is_disabled": 0, "fusion_lon": 0.0, "fusion_lat": 0.0, "lat": 38.8765775, "type": "electric_scooter", "lon": -77.0173775, "bike_id": "d884ade87c90d8fd807aa787e333aec2", "rental_uris": {"android": "https://dc.lft.to/lastmile_qr_scan", "ios": "https://dc.lft.to/lastmile_qr_scan"}, "name": "d884ade87c90d8fd807aa787e333aec2", "is_reserved": 0}, {"is_disabled": 0, "fusion_lon": 0.0, "fusion_lat": 0.0, "lat": 38.89595083333333, "type": "electric_scooter", "lon": -77.02311816666666, "bike_id": "776f196e37942436d97c06bf915f7d61", "rental_uris": {"android": "https://dc.lft.to/lastmile_qr_scan", "ios": "https://dc.lft.to/lastmile_qr_scan"}, "name": "776f196e37942436d97c06bf915f7d61", "is_reserved": 0}, {"is_disabled": 0, "fusion_lon": 0.0, "fusion_lat": 0.0, "lat": 38.887372, "type": "electric_scooter", "lon": -76.99629216666666, "bike_id": "44d939e6208d4085df5157db341383b7", "rental_uris": {"android": "https://dc.lft.to/lastmile_qr_scan", "ios": "https://dc.lft.to/lastmile_qr_scan"}, "name": "44d939e6208d4085df5157db341383b7", "is_reserved": 0}, {"is_disabled": 0, "fusion_lon": 0.0, "fusion_lat": 0.0, "lat": 38.897022, "type": "electric_scooter", "lon": -76.94714216666667, "bike_id": "1c6f65ecc2efbf4fb654b4bc4148258b", "rental_uris": {"android": "https://dc.lft.to/lastmile_qr_scan", "ios": "https://dc.lft.to/lastmile_qr_scan"}, "name": "1c6f65ecc2efbf4fb654b4bc4148258b", "is_reserved": 0}, {"is_disabled": 0, "fusion_lon": 0.0, "fusion_lat": 0.0, "lat": 38.87575866666667, "type": "electric_scooter", "lon": -77.00596616666667, "bike_id": "fb59e3b20f4873c2156f1f2ea6fc28f5", "rental_uris": {"android": "https://dc.lft.to/lastmile_qr_scan", "ios": "https://dc.lft.to/lastmile_qr_scan"}, "name": "fb59e3b20f4873c2156f1f2ea6fc28f5", "is_reserved": 0}, {"is_disabled": 0, "fusion_lon": 0.0, "fusion_lat": 0.0, "lat": 38.88610633333333, "type": "electric_scooter", "lon": -76.99503316666667, "bike_id": "ee1209d6896ad818f73edf41f93ab53c", "rental_uris": {"android": "https://dc.lft.to/lastmile_qr_scan", "ios": "https://dc.lft.to/lastmile_qr_scan"}, "name": "ee1209d6896ad818f73edf41f93ab53c", "is_reserved": 0}, {"is_disabled": 0, "fusion_lon": 0.0, "fusion_lat": 0.0, "lat": 38.842876833333335, "type": "electric_scooter", "lon": -76.99962083333334, "bike_id": "dc0c1afbf4dd4eb41cd505cdcfa8a34f", "rental_uris": {"android": "https://dc.lft.to/lastmile_qr_scan", "ios": "https://dc.lft.to/lastmile_qr_scan"}, "name": "dc0c1afbf4dd4eb41cd505cdcfa8a34f", "is_reserved": 0}, {"is_disabled": 0, "fusion_lon": 0.0, "fusion_lat": 0.0, "lat": 38.917165833333335, "type": "electric_scooter", "lon": -77.03860933333333, "bike_id": "5a408bac330f333987425b0f1c07e05c", "rental_uris": {"android": "https://dc.lft.to/lastmile_qr_scan", "ios": "https://dc.lft.to/lastmile_qr_scan"}, "name": "5a408bac330f333987425b0f1c07e05c", "is_reserved": 0}, {"is_disabled": 0, "fusion_lon": 0.0, "fusion_lat": 0.0, "lat": 38.91570433333333, "type": "electric_scooter", "lon": -77.0417265, "bike_id": "1b2dbb172ad1cd87551b8a5718dcba9d", "rental_uris": {"android": "https://dc.lft.to/lastmile_qr_scan", "ios": "https://dc.lft.to/lastmile_qr_scan"}, "name": "1b2dbb172ad1cd87551b8a5718dcba9d", "is_reserved": 0}, {"is_disabled": 0, "fusion_lon": 0.0, "fusion_lat": 0.0, "lat": 38.90579983333333, "type": "electric_scooter", "lon": -77.0260795, "bike_id": "5ba291eacb1473c2ace3fe2aac378766", "rental_uris": {"android": "https://dc.lft.to/lastmile_qr_scan", "ios": "https://dc.lft.to/lastmile_qr_scan"}, "name": "5ba291eacb1473c2ace3fe2aac378766", "is_reserved": 0}, {"is_disabled": 0, "fusion_lon": 0.0, "fusion_lat": 0.0, "lat": 38.91667983333333, "type": "electric_scooter", "lon": -77.02265483333333, "bike_id": "31eb1e30fe22efc5c762e86512a972d5", "rental_uris": {"android": "https://dc.lft.to/lastmile_qr_scan", "ios": "https://dc.lft.to/lastmile_qr_scan"}, "name": "31eb1e30fe22efc5c762e86512a972d5", "is_reserved": 0}, {"is_disabled": 0, "fusion_lon": 0.0, "fusion_lat": 0.0, "lat": 38.83810666666667, "type": "electric_scooter", "lon": -77.0043545, "bike_id": "128488421783a9d3f676da24f92415bd", "rental_uris": {"android": "https://dc.lft.to/lastmile_qr_scan", "ios": "https://dc.lft.to/lastmile_qr_scan"}, "name": "128488421783a9d3f676da24f92415bd", "is_reserved": 0}, {"is_disabled": 0, "fusion_lon": 0.0, "fusion_lat": 0.0, "lat": 38.93501783333333, "type": "electric_bike", "lon": -76.949576, "bike_id": "6bfc9979007999ad8bc91832c39d7a28", "rental_uris": {"android": "https://dc.lft.to/lastmile_qr_scan", "ios": "https://dc.lft.to/lastmile_qr_scan"}, "name": "6bfc9979007999ad8bc91832c39d7a28", "is_reserved": 0}, {"is_disabled": 0, "fusion_lon": 0.0, "fusion_lat": 0.0, "lat": 39.09996616666667, "type": "electric_bike", "lon": -77.18641033333333, "bike_id": "76449e92bc564096b269d16dd078542d", "rental_uris": {"android": "https://dc.lft.to/lastmile_qr_scan", "ios": "https://dc.lft.to/lastmile_qr_scan"}, "name": "76449e92bc564096b269d16dd078542d", "is_reserved": 0}, {"is_disabled": 0, "fusion_lon": 0.0, "fusion_lat": 0.0, "lat": 38.91678866666667, "type": "electric_scooter", "lon": -77.02969633333333, "bike_id": "33bb049432b15b047aab1b6970cf451a", "rental_uris": {"android": "https://dc.lft.to/lastmile_qr_scan", "ios": "https://dc.lft.to/lastmile_qr_scan"}, "name": "33bb049432b15b047aab1b6970cf451a", "is_reserved": 0}, {"is_disabled": 0, "fusion_lon": 0.0, "fusion_lat": 0.0, "lat": 38.9024205, "type": "electric_scooter", "lon": -76.989683, "bike_id": "35962870272aee782098cf30ebdeedb2", "rental_uris": {"android": "https://dc.lft.to/lastmile_qr_scan", "ios": "https://dc.lft.to/lastmile_qr_scan"}, "name": "35962870272aee782098cf30ebdeedb2", "is_reserved": 0}, {"is_disabled": 0, "fusion_lon": 0.0, "fusion_lat": 0.0, "lat": 38.904923833333335, "type": "electric_scooter", "lon": -77.029389, "bike_id": "5cc4b42a8fd35faacdf192caecaadc63", "rental_uris": {"android": "https://dc.lft.to/lastmile_qr_scan", "ios": "https://dc.lft.to/lastmile_qr_scan"}, "name": "5cc4b42a8fd35faacdf192caecaadc63", "is_reserved": 0}, {"is_disabled": 0, "fusion_lon": 0.0, "fusion_lat": 0.0, "lat": 38.90239483333333, "type": "electric_scooter", "lon": -77.01808333333334, "bike_id": "32313611131d04b5b2debdd0038037b4", "rental_uris": {"android": "https://dc.lft.to/lastmile_qr_scan", "ios": "https://dc.lft.to/lastmile_qr_scan"}, "name": "32313611131d04b5b2debdd0038037b4", "is_reserved": 0}, {"is_disabled": 0, "fusion_lon": 0.0, "fusion_lat": 0.0, "lat": 38.9214745, "type": "electric_scooter", "lon": -77.02960283333333, "bike_id": "5e434151868589c29bf5958b1e330aee", "rental_uris": {"android": "https://dc.lft.to/lastmile_qr_scan", "ios": "https://dc.lft.to/lastmile_qr_scan"}, "name": "5e434151868589c29bf5958b1e330aee", "is_reserved": 0}, {"is_disabled": 0, "fusion_lon": 0.0, "fusion_lat": 0.0, "lat": 38.88528733333333, "type": "electric_scooter", "lon": -76.92700466666666, "bike_id": "0ad168ad46bebfa72e7aa5b490893ae6", "rental_uris": {"android": "https://dc.lft.to/lastmile_qr_scan", "ios": "https://dc.lft.to/lastmile_qr_scan"}, "name": "0ad168ad46bebfa72e7aa5b490893ae6", "is_reserved": 0}, {"is_disabled": 0, "fusion_lon": 0.0, "fusion_lat": 0.0, "lat": 38.9334005, "type": "electric_scooter", "lon": -77.04130533333333, "bike_id": "4fa0a05690eccdf80fe8227978b74c9c", "rental_uris": {"android": "https://dc.lft.to/lastmile_qr_scan", "ios": "https://dc.lft.to/lastmile_qr_scan"}, "name": "4fa0a05690eccdf80fe8227978b74c9c", "is_reserved": 0}, {"is_disabled": 0, "fusion_lon": 0.0, "fusion_lat": 0.0, "lat": 38.867298, "type": "electric_scooter", "lon": -76.97940216666667, "bike_id": "068c0c2081f9e4ae74a02898fee4bc27", "rental_uris": {"android": "https://dc.lft.to/lastmile_qr_scan", "ios": "https://dc.lft.to/lastmile_qr_scan"}, "name": "068c0c2081f9e4ae74a02898fee4bc27", "is_reserved": 0}, {"is_disabled": 0, "fusion_lon": 0.0, "fusion_lat": 0.0, "lat": 38.90967916666666, "type": "electric_scooter", "lon": -77.02178266666667, "bike_id": "6f5a02f775c893f2fb69b494725978ae", "rental_uris": {"android": "https://dc.lft.to/lastmile_qr_scan", "ios": "https://dc.lft.to/lastmile_qr_scan"}, "name": "6f5a02f775c893f2fb69b494725978ae", "is_reserved": 0}, {"is_disabled": 0, "fusion_lon": 0.0, "fusion_lat": 0.0, "lat": 38.90686783333334, "type": "electric_bike", "lon": -77.0363925, "bike_id": "365ae63115d5c1a325696c01655f49ee", "rental_uris": {"android": "https://dc.lft.to/lastmile_qr_scan", "ios": "https://dc.lft.to/lastmile_qr_scan"}, "name": "365ae63115d5c1a325696c01655f49ee", "is_reserved": 0}, {"is_disabled": 0, "fusion_lon": 0.0, "fusion_lat": 0.0, "lat": 38.92319466666667, "type": "electric_scooter", "lon": -77.04621466666667, "bike_id": "7234c0e57dd159d7b752fc565ffe54dc", "rental_uris": {"android": "https://dc.lft.to/lastmile_qr_scan", "ios": "https://dc.lft.to/lastmile_qr_scan"}, "name": "7234c0e57dd159d7b752fc565ffe54dc", "is_reserved": 0}, {"is_disabled": 0, "fusion_lon": 0.0, "fusion_lat": 0.0, "lat": 38.934122, "type": "electric_scooter", "lon": -77.0245035, "bike_id": "6cb02d14ae2224501cbe6b4919ad6119", "rental_uris": {"android": "https://dc.lft.to/lastmile_qr_scan", "ios": "https://dc.lft.to/lastmile_qr_scan"}, "name": "6cb02d14ae2224501cbe6b4919ad6119", "is_reserved": 0}, {"is_disabled": 0, "fusion_lon": 0.0, "fusion_lat": 0.0, "lat": 38.92431966666667, "type": "electric_scooter", "lon": -77.03540583333333, "bike_id": "676922fc39b60eed6813d2c92438830f", "rental_uris": {"android": "https://dc.lft.to/lastmile_qr_scan", "ios": "https://dc.lft.to/lastmile_qr_scan"}, "name": "676922fc39b60eed6813d2c92438830f", "is_reserved": 0}, {"is_disabled": 0, "fusion_lon": 0.0, "fusion_lat": 0.0, "lat": 38.917107, "type": "electric_scooter", "lon": -77.03857966666666, "bike_id": "c16ee033b1e85db6704723de4a721fd9", "rental_uris": {"android": "https://dc.lft.to/lastmile_qr_scan", "ios": "https://dc.lft.to/lastmile_qr_scan"}, "name": "c16ee033b1e85db6704723de4a721fd9", "is_reserved": 0}, {"is_disabled": 0, "fusion_lon": 0.0, "fusion_lat": 0.0, "lat": 38.931907333333335, "type": "electric_scooter", "lon": -77.02833683333333, "bike_id": "03737b8a42a8a2894f0b6bdef5701c27", "rental_uris": {"android": "https://dc.lft.to/lastmile_qr_scan", "ios": "https://dc.lft.to/lastmile_qr_scan"}, "name": "03737b8a42a8a2894f0b6bdef5701c27", "is_reserved": 0}, {"is_disabled": 0, "fusion_lon": 0.0, "fusion_lat": 0.0, "lat": 38.929609, "type": "electric_scooter", "lon": -77.04200716666666, "bike_id": "d77e7d4d2a6449713dd6d7de1fe914e9", "rental_uris": {"android": "https://dc.lft.to/lastmile_qr_scan", "ios": "https://dc.lft.to/lastmile_qr_scan"}, "name": "d77e7d4d2a6449713dd6d7de1fe914e9", "is_reserved": 0}, {"is_disabled": 0, "fusion_lon": 0.0, "fusion_lat": 0.0, "lat": 38.9162535, "type": "electric_scooter", "lon": -77.03142016666666, "bike_id": "cc2f8c367269203be4a96fb5e4a7d0e2", "rental_uris": {"android": "https://dc.lft.to/lastmile_qr_scan", "ios": "https://dc.lft.to/lastmile_qr_scan"}, "name": "cc2f8c367269203be4a96fb5e4a7d0e2", "is_reserved": 0}, {"is_disabled": 0, "fusion_lon": 0.0, "fusion_lat": 0.0, "lat": 38.933327166666665, "type": "electric_bike", "lon": -77.04215033333334, "bike_id": "a75185d42fb48602b345b0f3a6237d2d", "rental_uris": {"android": "https://dc.lft.to/lastmile_qr_scan", "ios": "https://dc.lft.to/lastmile_qr_scan"}, "name": "a75185d42fb48602b345b0f3a6237d2d", "is_reserved": 0}, {"is_disabled": 0, "fusion_lon": 0.0, "fusion_lat": 0.0, "lat": 38.94619633333333, "type": "electric_scooter", "lon": -77.03622283333333, "bike_id": "8fc529484b624db5033593eb922029b9", "rental_uris": {"android": "https://dc.lft.to/lastmile_qr_scan", "ios": "https://dc.lft.to/lastmile_qr_scan"}, "name": "8fc529484b624db5033593eb922029b9", "is_reserved": 0}, {"is_disabled": 0, "fusion_lon": 0.0, "fusion_lat": 0.0, "lat": 38.86699766666667, "type": "electric_scooter", "lon": -76.98712533333334, "bike_id": "2a6cdcb68f48950e67e552c883e68045", "rental_uris": {"android": "https://dc.lft.to/lastmile_qr_scan", "ios": "https://dc.lft.to/lastmile_qr_scan"}, "name": "2a6cdcb68f48950e67e552c883e68045", "is_reserved": 0}, {"is_disabled": 0, "fusion_lon": 0.0, "fusion_lat": 0.0, "lat": 38.931027, "type": "electric_scooter", "lon": -77.02669533333334, "bike_id": "48cfddd5322ccee297afba48f0144ace", "rental_uris": {"android": "https://dc.lft.to/lastmile_qr_scan", "ios": "https://dc.lft.to/lastmile_qr_scan"}, "name": "48cfddd5322ccee297afba48f0144ace", "is_reserved": 0}, {"is_disabled": 0, "fusion_lon": 0.0, "fusion_lat": 0.0, "lat": 38.90373183333333, "type": "electric_scooter", "lon": -77.0302145, "bike_id": "226524b7302c67149d271c974b911acd", "rental_uris": {"android": "https://dc.lft.to/lastmile_qr_scan", "ios": "https://dc.lft.to/lastmile_qr_scan"}, "name": "226524b7302c67149d271c974b911acd", "is_reserved": 0}, {"is_disabled": 0, "fusion_lon": 0.0, "fusion_lat": 0.0, "lat": 38.92018433333333, "type": "electric_scooter", "lon": -77.03135666666667, "bike_id": "a5bb44e583760b8e661f6135ada22eff", "rental_uris": {"android": "https://dc.lft.to/lastmile_qr_scan", "ios": "https://dc.lft.to/lastmile_qr_scan"}, "name": "a5bb44e583760b8e661f6135ada22eff", "is_reserved": 0}, {"is_disabled": 0, "fusion_lon": 0.0, "fusion_lat": 0.0, "lat": 38.86909966666666, "type": "electric_scooter", "lon": -77.01373783333334, "bike_id": "56fd122a91f997755ae85540df5ab19c", "rental_uris": {"android": "https://dc.lft.to/lastmile_qr_scan", "ios": "https://dc.lft.to/lastmile_qr_scan"}, "name": "56fd122a91f997755ae85540df5ab19c", "is_reserved": 0}, {"is_disabled": 0, "fusion_lon": 0.0, "fusion_lat": 0.0, "lat": 38.86363033333333, "type": "electric_scooter", "lon": -76.99069983333334, "bike_id": "f6f1a66274b1f285818020e9c41c7133", "rental_uris": {"android": "https://dc.lft.to/lastmile_qr_scan", "ios": "https://dc.lft.to/lastmile_qr_scan"}, "name": "f6f1a66274b1f285818020e9c41c7133", "is_reserved": 0}, {"is_disabled": 0, "fusion_lon": 0.0, "fusion_lat": 0.0, "lat": 38.90701583333333, "type": "electric_scooter", "lon": -76.98689166666666, "bike_id": "33898ddc5b4b0c671ff1892bb9a20621", "rental_uris": {"android": "https://dc.lft.to/lastmile_qr_scan", "ios": "https://dc.lft.to/lastmile_qr_scan"}, "name": "33898ddc5b4b0c671ff1892bb9a20621", "is_reserved": 0}, {"is_disabled": 0, "fusion_lon": 0.0, "fusion_lat": 0.0, "lat": 38.925257, "type": "electric_scooter", "lon": -77.076678, "bike_id": "50a397bfb3d8560249405ac38f970fb5", "rental_uris": {"android": "https://dc.lft.to/lastmile_qr_scan", "ios": "https://dc.lft.to/lastmile_qr_scan"}, "name": "50a397bfb3d8560249405ac38f970fb5", "is_reserved": 0}, {"is_disabled": 0, "fusion_lon": 0.0, "fusion_lat": 0.0, "lat": 38.89483283333333, "type": "electric_scooter", "lon": -76.994198, "bike_id": "9abe72af02e3e6cec47904da78f73d7e", "rental_uris": {"android": "https://dc.lft.to/lastmile_qr_scan", "ios": "https://dc.lft.to/lastmile_qr_scan"}, "name": "9abe72af02e3e6cec47904da78f73d7e", "is_reserved": 0}, {"is_disabled": 0, "fusion_lon": 0.0, "fusion_lat": 0.0, "lat": 38.89985766666667, "type": "electric_scooter", "lon": -77.02035783333334, "bike_id": "9740cb8779d206331d44aecc5ac59e66", "rental_uris": {"android": "https://dc.lft.to/lastmile_qr_scan", "ios": "https://dc.lft.to/lastmile_qr_scan"}, "name": "9740cb8779d206331d44aecc5ac59e66", "is_reserved": 0}, {"is_disabled": 0, "fusion_lon": 0.0, "fusion_lat": 0.0, "lat": 38.89954216666667, "type": "electric_scooter", "lon": -77.04780766666667, "bike_id": "4ae862cdaf4bc3ea1579d1c3fc5a6c01", "rental_uris": {"android": "https://dc.lft.to/lastmile_qr_scan", "ios": "https://dc.lft.to/lastmile_qr_scan"}, "name": "4ae862cdaf4bc3ea1579d1c3fc5a6c01", "is_reserved": 0}, {"is_disabled": 0, "fusion_lon": 0.0, "fusion_lat": 0.0, "lat": 38.91045916666667, "type": "electric_scooter", "lon": -77.03365916666667, "bike_id": "b847f5fcfb0862877e7ac69b2bdf3da7", "rental_uris": {"android": "https://dc.lft.to/lastmile_qr_scan", "ios": "https://dc.lft.to/lastmile_qr_scan"}, "name": "b847f5fcfb0862877e7ac69b2bdf3da7", "is_reserved": 0}, {"is_disabled": 0, "fusion_lon": 0.0, "fusion_lat": 0.0, "lat": 38.91550733333333, "type": "electric_scooter", "lon": -77.01232533333334, "bike_id": "8f59532df4f6e4714dd120464257d43b", "rental_uris": {"android": "https://dc.lft.to/lastmile_qr_scan", "ios": "https://dc.lft.to/lastmile_qr_scan"}, "name": "8f59532df4f6e4714dd120464257d43b", "is_reserved": 0}, {"is_disabled": 0, "fusion_lon": 0.0, "fusion_lat": 0.0, "lat": 38.892756, "type": "electric_scooter", "lon": -77.03212716666667, "bike_id": "af90d022adf55424ebc318a9b83c1e96", "rental_uris": {"android": "https://dc.lft.to/lastmile_qr_scan", "ios": "https://dc.lft.to/lastmile_qr_scan"}, "name": "af90d022adf55424ebc318a9b83c1e96", "is_reserved": 0}, {"is_disabled": 0, "fusion_lon": 0.0, "fusion_lat": 0.0, "lat": 38.92317716666667, "type": "electric_scooter", "lon": -77.0421135, "bike_id": "2cc492632a4dc209ee610f9204fb946e", "rental_uris": {"android": "https://dc.lft.to/lastmile_qr_scan", "ios": "https://dc.lft.to/lastmile_qr_scan"}, "name": "2cc492632a4dc209ee610f9204fb946e", "is_reserved": 0}, {"is_disabled": 0, "fusion_lon": 0.0, "fusion_lat": 0.0, "lat": 38.92165633333333, "type": "electric_scooter", "lon": -77.03845833333334, "bike_id": "fcbfccb5dc1a3bd2810b817126984611", "rental_uris": {"android": "https://dc.lft.to/lastmile_qr_scan", "ios": "https://dc.lft.to/lastmile_qr_scan"}, "name": "fcbfccb5dc1a3bd2810b817126984611", "is_reserved": 0}, {"is_disabled": 0, "fusion_lon": 0.0, "fusion_lat": 0.0, "lat": 38.848453666666664, "type": "electric_bike", "lon": -77.08046983333334, "bike_id": "016f681b6fbf491ad5e65dad95a85076", "rental_uris": {"android": "https://dc.lft.to/lastmile_qr_scan", "ios": "https://dc.lft.to/lastmile_qr_scan"}, "name": "016f681b6fbf491ad5e65dad95a85076", "is_reserved": 0}, {"is_disabled": 0, "fusion_lon": 0.0, "fusion_lat": 0.0, "lat": 38.896747166666664, "type": "electric_scooter", "lon": -76.947058, "bike_id": "e71e53cad1cf5767b058e131651234c6", "rental_uris": {"android": "https://dc.lft.to/lastmile_qr_scan", "ios": "https://dc.lft.to/lastmile_qr_scan"}, "name": "e71e53cad1cf5767b058e131651234c6", "is_reserved": 0}, {"is_disabled": 0, "fusion_lon": 0.0, "fusion_lat": 0.0, "lat": 38.9444855, "type": "electric_scooter", "lon": -77.0635205, "bike_id": "133d5bceea174cb9bba215084e75e18c", "rental_uris": {"android": "https://dc.lft.to/lastmile_qr_scan", "ios": "https://dc.lft.to/lastmile_qr_scan"}, "name": "133d5bceea174cb9bba215084e75e18c", "is_reserved": 0}, {"is_disabled": 0, "fusion_lon": 0.0, "fusion_lat": 0.0, "lat": 38.96603866666667, "type": "electric_bike", "lon": -76.983293, "bike_id": "534386f6f6a91c5d7122d0baa5f692b5", "rental_uris": {"android": "https://dc.lft.to/lastmile_qr_scan", "ios": "https://dc.lft.to/lastmile_qr_scan"}, "name": "534386f6f6a91c5d7122d0baa5f692b5", "is_reserved": 0}, {"is_disabled": 0, "fusion_lon": 0.0, "fusion_lat": 0.0, "lat": 38.90024583333334, "type": "electric_scooter", "lon": -76.99765566666667, "bike_id": "426b24100ff36b514dc7418cc257c932", "rental_uris": {"android": "https://dc.lft.to/lastmile_qr_scan", "ios": "https://dc.lft.to/lastmile_qr_scan"}, "name": "426b24100ff36b514dc7418cc257c932", "is_reserved": 0}, {"is_disabled": 0, "fusion_lon": 0.0, "fusion_lat": 0.0, "lat": 38.908459666666666, "type": "electric_scooter", "lon": -77.023882, "bike_id": "f2a834e66383f19ff6296ed4060e26d2", "rental_uris": {"android": "https://dc.lft.to/lastmile_qr_scan", "ios": "https://dc.lft.to/lastmile_qr_scan"}, "name": "f2a834e66383f19ff6296ed4060e26d2", "is_reserved": 0}, {"is_disabled": 0, "fusion_lon": 0.0, "fusion_lat": 0.0, "lat": 38.9177475, "type": "electric_scooter", "lon": -77.023092, "bike_id": "a1357647c4b3301350dbf62aa7f2e7c9", "rental_uris": {"android": "https://dc.lft.to/lastmile_qr_scan", "ios": "https://dc.lft.to/lastmile_qr_scan"}, "name": "a1357647c4b3301350dbf62aa7f2e7c9", "is_reserved": 0}, {"is_disabled": 0, "fusion_lon": 0.0, "fusion_lat": 0.0, "lat": 38.87574733333334, "type": "electric_scooter", "lon": -77.0199325, "bike_id": "2824cd5739df83591c18fa6a5178e5e2", "rental_uris": {"android": "https://dc.lft.to/lastmile_qr_scan", "ios": "https://dc.lft.to/lastmile_qr_scan"}, "name": "2824cd5739df83591c18fa6a5178e5e2", "is_reserved": 0}, {"is_disabled": 0, "fusion_lon": 0.0, "fusion_lat": 0.0, "lat": 38.953577333333335, "type": "electric_bike", "lon": -76.980934, "bike_id": "aba8619552ea258502a845d50a178089", "rental_uris": {"android": "https://dc.lft.to/lastmile_qr_scan", "ios": "https://dc.lft.to/lastmile_qr_scan"}, "name": "aba8619552ea258502a845d50a178089", "is_reserved": 0}, {"is_disabled": 0, "fusion_lon": 0.0, "fusion_lat": 0.0, "lat": 38.91789083333333, "type": "electric_scooter", "lon": -77.03661616666666, "bike_id": "1bd74f19e47bda11c93c5cddc71a236b", "rental_uris": {"android": "https://dc.lft.to/lastmile_qr_scan", "ios": "https://dc.lft.to/lastmile_qr_scan"}, "name": "1bd74f19e47bda11c93c5cddc71a236b", "is_reserved": 0}, {"is_disabled": 0, "fusion_lon": 0.0, "fusion_lat": 0.0, "lat": 38.933957166666666, "type": "electric_scooter", "lon": -77.02733833333333, "bike_id": "52d7abb0288ea768c64f76a86c0c48ad", "rental_uris": {"android": "https://dc.lft.to/lastmile_qr_scan", "ios": "https://dc.lft.to/lastmile_qr_scan"}, "name": "52d7abb0288ea768c64f76a86c0c48ad", "is_reserved": 0}, {"is_disabled": 0, "fusion_lon": 0.0, "fusion_lat": 0.0, "lat": 38.91532266666667, "type": "electric_scooter", "lon": -77.02176466666667, "bike_id": "119bea46fa4b2bb7f23744cd0cdf38d2", "rental_uris": {"android": "https://dc.lft.to/lastmile_qr_scan", "ios": "https://dc.lft.to/lastmile_qr_scan"}, "name": "119bea46fa4b2bb7f23744cd0cdf38d2", "is_reserved": 0}, {"is_disabled": 0, "fusion_lon": 0.0, "fusion_lat": 0.0, "lat": 38.902758, "type": "electric_scooter", "lon": -77.03643133333334, "bike_id": "6b41353b68e597703e0da69bb0e80d40", "rental_uris": {"android": "https://dc.lft.to/lastmile_qr_scan", "ios": "https://dc.lft.to/lastmile_qr_scan"}, "name": "6b41353b68e597703e0da69bb0e80d40", "is_reserved": 0}, {"is_disabled": 0, "fusion_lon": 0.0, "fusion_lat": 0.0, "lat": 38.905824333333335, "type": "electric_scooter", "lon": -77.02394616666666, "bike_id": "15b2c78eafc55f803dbc08693b9f688d", "rental_uris": {"android": "https://dc.lft.to/lastmile_qr_scan", "ios": "https://dc.lft.to/lastmile_qr_scan"}, "name": "15b2c78eafc55f803dbc08693b9f688d", "is_reserved": 0}, {"is_disabled": 0, "fusion_lon": 0.0, "fusion_lat": 0.0, "lat": 38.92034483333333, "type": "electric_scooter", "lon": -77.01904633333334, "bike_id": "16d2316364f76cc7202df20e952d41cc", "rental_uris": {"android": "https://dc.lft.to/lastmile_qr_scan", "ios": "https://dc.lft.to/lastmile_qr_scan"}, "name": "16d2316364f76cc7202df20e952d41cc", "is_reserved": 0}, {"is_disabled": 0, "fusion_lon": 0.0, "fusion_lat": 0.0, "lat": 38.80299, "type": "electric_bike", "lon": -77.03982483333333, "bike_id": "e55a8856abd662e495ffa8c0ef6227bf", "rental_uris": {"android": "https://dc.lft.to/lastmile_qr_scan", "ios": "https://dc.lft.to/lastmile_qr_scan"}, "name": "e55a8856abd662e495ffa8c0ef6227bf", "is_reserved": 0}, {"is_disabled": 0, "fusion_lon": 0.0, "fusion_lat": 0.0, "lat": 38.887398, "type": "electric_scooter", "lon": -77.015389, "bike_id": "7c9a6c58a6a0c2831ac4818959f5e8e8", "rental_uris": {"android": "https://dc.lft.to/lastmile_qr_scan", "ios": "https://dc.lft.to/lastmile_qr_scan"}, "name": "7c9a6c58a6a0c2831ac4818959f5e8e8", "is_reserved": 0}, {"is_disabled": 0, "fusion_lon": 0.0, "fusion_lat": 0.0, "lat": 38.91955183333334, "type": "electric_scooter", "lon": -77.01396583333333, "bike_id": "c836f919e75172c5d02379c6addfb379", "rental_uris": {"android": "https://dc.lft.to/lastmile_qr_scan", "ios": "https://dc.lft.to/lastmile_qr_scan"}, "name": "c836f919e75172c5d02379c6addfb379", "is_reserved": 0}, {"is_disabled": 0, "fusion_lon": 0.0, "fusion_lat": 0.0, "lat": 38.922629, "type": "electric_scooter", "lon": -77.03302733333334, "bike_id": "2b450d7915f2be6cd48cb270af2edf98", "rental_uris": {"android": "https://dc.lft.to/lastmile_qr_scan", "ios": "https://dc.lft.to/lastmile_qr_scan"}, "name": "2b450d7915f2be6cd48cb270af2edf98", "is_reserved": 0}, {"is_disabled": 0, "fusion_lon": 0.0, "fusion_lat": 0.0, "lat": 38.917088166666666, "type": "electric_scooter", "lon": -77.028801, "bike_id": "b720b1c80f609a8f17372ae159a8cb87", "rental_uris": {"android": "https://dc.lft.to/lastmile_qr_scan", "ios": "https://dc.lft.to/lastmile_qr_scan"}, "name": "b720b1c80f609a8f17372ae159a8cb87", "is_reserved": 0}, {"is_disabled": 0, "fusion_lon": 0.0, "fusion_lat": 0.0, "lat": 38.924827, "type": "electric_scooter", "lon": -77.029962, "bike_id": "35111961dffcfdf26a286ce830adbefe", "rental_uris": {"android": "https://dc.lft.to/lastmile_qr_scan", "ios": "https://dc.lft.to/lastmile_qr_scan"}, "name": "35111961dffcfdf26a286ce830adbefe", "is_reserved": 0}, {"is_disabled": 0, "fusion_lon": 0.0, "fusion_lat": 0.0, "lat": 38.9180755, "type": "electric_scooter", "lon": -77.03567283333334, "bike_id": "66972062e661a75232c15910b4741cf6", "rental_uris": {"android": "https://dc.lft.to/lastmile_qr_scan", "ios": "https://dc.lft.to/lastmile_qr_scan"}, "name": "66972062e661a75232c15910b4741cf6", "is_reserved": 0}, {"is_disabled": 0, "fusion_lon": 0.0, "fusion_lat": 0.0, "lat": 38.934868333333334, "type": "electric_scooter", "lon": -77.024069, "bike_id": "4b3bfba5c97176bb406c82234b9a86f0", "rental_uris": {"android": "https://dc.lft.to/lastmile_qr_scan", "ios": "https://dc.lft.to/lastmile_qr_scan"}, "name": "4b3bfba5c97176bb406c82234b9a86f0", "is_reserved": 0}, {"is_disabled": 0, "fusion_lon": 0.0, "fusion_lat": 0.0, "lat": 38.913137666666664, "type": "electric_scooter", "lon": -77.0365515, "bike_id": "f8abe72a6bdae35c73ae6d72b793c939", "rental_uris": {"android": "https://dc.lft.to/lastmile_qr_scan", "ios": "https://dc.lft.to/lastmile_qr_scan"}, "name": "f8abe72a6bdae35c73ae6d72b793c939", "is_reserved": 0}, {"is_disabled": 0, "fusion_lon": 0.0, "fusion_lat": 0.0, "lat": 38.929695333333335, "type": "electric_scooter", "lon": -77.00535616666667, "bike_id": "8436cce69b5484a7bc7a5ae30f9d2536", "rental_uris": {"android": "https://dc.lft.to/lastmile_qr_scan", "ios": "https://dc.lft.to/lastmile_qr_scan"}, "name": "8436cce69b5484a7bc7a5ae30f9d2536", "is_reserved": 0}, {"is_disabled": 0, "fusion_lon": 0.0, "fusion_lat": 0.0, "lat": 38.928135833333336, "type": "electric_scooter", "lon": -77.02343833333333, "bike_id": "31b27219bf466c6eb40b977559360d0a", "rental_uris": {"android": "https://dc.lft.to/lastmile_qr_scan", "ios": "https://dc.lft.to/lastmile_qr_scan"}, "name": "31b27219bf466c6eb40b977559360d0a", "is_reserved": 0}, {"is_disabled": 0, "fusion_lon": 0.0, "fusion_lat": 0.0, "lat": 38.892247, "type": "electric_scooter", "lon": -77.03185866666666, "bike_id": "81ce3f6701b798aaec82126de4fe9704", "rental_uris": {"android": "https://dc.lft.to/lastmile_qr_scan", "ios": "https://dc.lft.to/lastmile_qr_scan"}, "name": "81ce3f6701b798aaec82126de4fe9704", "is_reserved": 0},