{"data": {"bikes": [{"rental_uris": {"ios": "https://dc.lft.to/lastmile_qr_scan", "android": "https://dc.lft.to/lastmile_qr_scan"}, "lon": -76.99487, "type": "electric_scooter", "fusion_lat": 0.0, "lat": 38.93202216666667, "name": "d0282bb0caa39dfb3e22180c78c286b3", "fusion_lon": 0.0, "bike_id": "d0282bb0caa39dfb3e22180c78c286b3", "is_disabled": 0, "is_reserved": 0}, {"rental_uris": {"ios": "https://dc.lft.to/lastmile_qr_scan", "android": "https://dc.lft.to/lastmile_qr_scan"}, "lon": -77.03013016666667, "type": "electric_scooter", "fusion_lat": 0.0, "lat": 38.89755233333333, "name": "c8dd6ac87da4abedfc05e73747aebc30", "fusion_lon": 0.0, "bike_id": "c8dd6ac87da4abedfc05e73747aebc30", "is_disabled": 0, "is_reserved": 0}, {"rental_uris": {"ios": "https://dc.lft.to/lastmile_qr_scan", "android": "https://dc.lft.to/lastmile_qr_scan"}, "lon": -76.93834716666667, "type": "electric_scooter", "fusion_lat": 0.0, "lat": 38.897651833333335, "name": "c372c0803fe45cec5b951c0b18a1e016", "fusion_lon": 0.0, "bike_id": "c372c0803fe45cec5b951c0b18a1e016", "is_disabled": 0, "is_reserved": 0}, {"rental_uris": {"ios": "https://dc.lft.to/lastmile_qr_scan", "android": "https://dc.lft.to/lastmile_qr_scan"}, "lon": -76.96507716666666, "type": "electric_scooter", "fusion_lat": 0.0, "lat": 38.876477333333334, "name": "9d2ec8d61f8fef0f65263e6dacf26d18", "fusion_lon": 0.0, "bike_id": "9d2ec8d61f8fef0f65263e6dacf26d18", "is_disabled": 0, "is_reserved": 0}, {"rental_uris": {"ios": "https://dc.lft.to/lastmile_qr_scan", "android": "https://dc.lft.to/lastmile_qr_scan"}, "lon": -77.00114883333333, "type": "electric_scooter", "fusion_lat": 0.0, "lat": 38.89434833333333, "name": "d577d6606422c4a606891e2a76baf9c6", "fusion_lon": 0.0, "bike_id": "d577d6606422c4a606891e2a76baf9c6", "is_disabled": 0, "is_reserved": 0}, {"rental_uris": {"ios": "https://dc.lft.to/lastmile_qr_scan", "android": "https://dc.lft.to/lastmile_qr_scan"}, "lon": -77.02315416666667, "type": "electric_scooter", "fusion_lat": 0.0, "lat": 38.917024, "name": "c132ed84bb8122d9be1973113c62f5b1", "fusion_lon": 0.0, "bike_id": "c132ed84bb8122d9be1973113c62f5b1", "is_disabled": 0, "is_reserved": 0}, {"rental_uris": {"ios": "https://dc.lft.to/lastmile_qr_scan", "android": "https://dc.lft.to/lastmile_qr_scan"}, "lon": -77.004328, "type": "electric_scooter", "fusion_lat": 0.0, "lat": 38.903951666666664, "name": "6c5e45a93639286286df8d0319883aa8", "fusion_lon": 0.0, "bike_id": "6c5e45a93639286286df8d0319883aa8", "is_disabled": 0, "is_reserved": 0}, {"rental_uris": {"ios": "https://dc.lft.to/lastmile_qr_scan", "android": "https://dc.lft.to/lastmile_qr_scan"}, "lon": -77.02970566666667, "type": "electric_scooter", "fusion_lat": 0.0, "lat": 38.91042133333333, "name": "5331c6e1f903c32190e683d91f47c763", "fusion_lon": 0.0, "bike_id": "5331c6e1f903c32190e683d91f47c763", "is_disabled": 0, "is_reserved": 0}, {"rental_uris": {"ios": "https://dc.lft.to/lastmile_qr_scan", "android": "https://dc.lft.to/lastmile_qr_scan"}, "lon": -77.022053, "type": "electric_scooter", "fusion_lat": 0.0, "lat": 38.915429, "name": "bc57040710e49a8a2da5958470d1519f", "fusion_lon": 0.0, "bike_id": "bc57040710e49a8a2da5958470d1519f", "is_disabled": 0, "is_reserved": 0}, {"rental_uris": {"ios": "https://dc.lft.to/lastmile_qr_scan", "android": "https://dc.lft.to/lastmile_qr_scan"}, "lon": -77.03418766666667, "type": "electric_scooter", "fusion_lat": 0.0, "lat": 38.91924733333333, "name": "4b1964b8257d8a61763d873c761aa643", "fusion_lon": 0.0, "bike_id": "4b1964b8257d8a61763d873c761aa643", "is_disabled": 0, "is_reserved": 0}, {"rental_uris": {"ios": "https://dc.lft.to/lastmile_qr_scan", "android": "https://dc.lft.to/lastmile_qr_scan"}, "lon": -77.04427966666667, "type": "electric_scooter", "fusion_lat": 0.0, "lat": 38.92117183333333, "name": "4679679f0113f5f5e1629d464c02a38b", "fusion_lon": 0.0, "bike_id": "4679679f0113f5f5e1629d464c02a38b", "is_disabled": 0, "is_reserved": 0}, {"rental_uris": {"ios": "https://dc.lft.to/lastmile_qr_scan", "android": "https://dc.lft.to/lastmile_qr_scan"}, "lon": -77.01927933333333, "type": "electric_scooter", "fusion_lat": 0.0, "lat": 38.95684833333333, "name": "d42a5c061e5b228231959470ecc4f43e", "fusion_lon": 0.0, "bike_id": "d42a5c061e5b228231959470ecc4f43e", "is_disabled": 0, "is_reserved": 0}, {"rental_uris": {"ios": "https://dc.lft.to/lastmile_qr_scan", "android": "https://dc.lft.to/lastmile_qr_scan"}, "lon": -77.061449, "type": "electric_scooter", "fusion_lat": 0.0, "lat": 38.9052585, "name": "d6ba08e72182ca17ef545b525344d57c", "fusion_lon": 0.0, "bike_id": "d6ba08e72182ca17ef545b525344d57c", "is_disabled": 0, "is_reserved": 0}, {"rental_uris": {"ios": "https://dc.lft.to/lastmile_qr_scan", "android": "https://dc.lft.to/lastmile_qr_scan"}, "lon": -77.037471, "type": "electric_scooter", "fusion_lat": 0.0, "lat": 38.925993166666665, "name": "40f965867b0a681bc8b02a634e52ec0b", "fusion_lon": 0.0, "bike_id": "40f965867b0a681bc8b02a634e52ec0b", "is_disabled": 0, "is_reserved": 0}, {"rental_uris": {"ios": "https://dc.lft.to/lastmile_qr_scan", "android": "https://dc.lft.to/lastmile_qr_scan"}, "lon": -77.05680033333333, "type": "electric_scooter", "fusion_lat": 0.0, "lat": 38.92330833333333, "name": "66f0abcb9ff20418363d7757919fb1b8", "fusion_lon": 0.0, "bike_id": "66f0abcb9ff20418363d7757919fb1b8", "is_disabled": 0, "is_reserved": 0}, {"rental_uris": {"ios": "https://dc.lft.to/lastmile_qr_scan", "android": "https://dc.lft.to/lastmile_qr_scan"}, "lon": -77.00209633333333, "type": "electric_scooter", "fusion_lat": 0.0, "lat": 38.822488666666665, "name": "e16da1f214cb2b3c9be838edcb0f33ae", "fusion_lon": 0.0, "bike_id": "e16da1f214cb2b3c9be838edcb0f33ae", "is_disabled": 0, "is_reserved": 0}, {"rental_uris": {"ios": "https://dc.lft.to/lastmile_qr_scan", "android": "https://dc.lft.to/lastmile_qr_scan"}, "lon": -77.02362683333334, "type": "electric_scooter", "fusion_lat": 0.0, "lat": 38.90305, "name": "756c76d2cab4941bf83487051efdebc8", "fusion_lon": 0.0, "bike_id": "756c76d2cab4941bf83487051efdebc8", "is_disabled": 0, "is_reserved": 0}, {"rental_uris": {"ios": "https://dc.lft.to/lastmile_qr_scan", "android": "https://dc.lft.to/lastmile_qr_scan"}, "lon": -77.03321383333333, "type": "electric_scooter", "fusion_lat": 0.0, "lat": 38.909648, "name": "b0f8d6f0065e999666f49f4d88af72cb", "fusion_lon": 0.0, "bike_id": "b0f8d6f0065e999666f49f4d88af72cb", "is_disabled": 0, "is_reserved": 0}, {"rental_uris": {"ios": "https://dc.lft.to/lastmile_qr_scan", "android": "https://dc.lft.to/lastmile_qr_scan"}, "lon": -77.0295865, "type": "electric_scooter", "fusion_lat": 0.0, "lat": 38.91580116666667, "name": "2b4bab96fabbcf433b3313d2de6ac879", "fusion_lon": 0.0, "bike_id": "2b4bab96fabbcf433b3313d2de6ac879", "is_disabled": 0, "is_reserved": 0}, {"rental_uris": {"ios": "https://dc.lft.to/lastmile_qr_scan", "android": "https://dc.lft.to/lastmile_qr_scan"}, "lon": -77.03182483333333, "type": "electric_scooter", "fusion_lat": 0.0, "lat": 38.91820666666667, "name": "7aa96a40b153604ca3b2434507abc148", "fusion_lon": 0.0, "bike_id": "7aa96a40b153604ca3b2434507abc148", "is_disabled": 0, "is_reserved": 0}, {"rental_uris": {"ios": "https://dc.lft.to/lastmile_qr_scan", "android": "https://dc.lft.to/lastmile_qr_scan"}, "lon": -77.022954, "type": "electric_scooter", "fusion_lat": 0.0, "lat": 38.912816166666666, "name": "49e9927b96f1d5d0fd5529abf84166a3", "fusion_lon": 0.0, "bike_id": "49e9927b96f1d5d0fd5529abf84166a3", "is_disabled": 0, "is_reserved": 0}, {"rental_uris": {"ios": "https://dc.lft.to/lastmile_qr_scan", "android": "https://dc.lft.to/lastmile_qr_scan"}, "lon": -77.032276, "type": "electric_scooter", "fusion_lat": 0.0, "lat": 38.918196, "name": "0c8b51398ac532a3d0046d5e10c2af36", "fusion_lon": 0.0, "bike_id": "0c8b51398ac532a3d0046d5e10c2af36", "is_disabled": 0, "is_reserved": 0}, {"rental_uris": {"ios": "https://dc.lft.to/lastmile_qr_scan", "android": "https://dc.lft.to/lastmile_qr_scan"}, "lon": -77.00276933333333, "type": "electric_scooter", "fusion_lat": 0.0, "lat": 38.8973835, "name": "1c10395e054c2d323a3106cefe6f0bc3", "fusion_lon": 0.0, "bike_id": "1c10395e054c2d323a3106cefe6f0bc3", "is_disabled": 0, "is_reserved": 0}, {"rental_uris": {"ios": "https://dc.lft.to/lastmile_qr_scan", "android": "https://dc.lft.to/lastmile_qr_scan"}, "lon": -77.1050285, "type": "electric_bike", "fusion_lat": 0.0, "lat": 38.928418666666666, "name": "36596d2d3f78603162c1cd448829707b", "fusion_lon": 0.0, "bike_id": "36596d2d3f78603162c1cd448829707b", "is_disabled": 0, "is_reserved": 0}, {"rental_uris": {"ios": "https://dc.lft.to/lastmile_qr_scan", "android": "https://dc.lft.to/lastmile_qr_scan"}, "lon": -77.08943533333333, "type": "electric_bike", "fusion_lat": 0.0, "lat": 38.84107616666667, "name": "d0f55f8e450c317f2b6f98df0fc23065", "fusion_lon": 0.0, "bike_id": "d0f55f8e450c317f2b6f98df0fc23065", "is_disabled": 0, "is_reserved": 0}, {"rental_uris": {"ios": "https://dc.lft.to/lastmile_qr_scan", "android": "https://dc.lft.to/lastmile_qr_scan"}, "lon": -77.05137616666667, "type": "electric_scooter", "fusion_lat": 0.0, "lat": 38.905392166666665, "name": "475910a6e742c159d02607a2343aec05", "fusion_lon": 0.0, "bike_id": "475910a6e742c159d02607a2343aec05", "is_disabled": 0, "is_reserved": 0}, {"rental_uris": {"ios": "https://dc.lft.to/lastmile_qr_scan", "android": "https://dc.lft.to/lastmile_qr_scan"}, "lon": -77.02652283333333, "type": "electric_scooter", "fusion_lat": 0.0, "lat": 38.89220816666667, "name": "01ff842cf77613f960604c72a3dd8e76", "fusion_lon": 0.0, "bike_id": "01ff842cf77613f960604c72a3dd8e76", "is_disabled": 0, "is_reserved": 0}, {"rental_uris": {"ios": "https://dc.lft.to/lastmile_qr_scan", "android": "https://dc.lft.to/lastmile_qr_scan"}, "lon": -77.05359366666667, "type": "electric_scooter", "fusion_lat": 0.0, "lat": 38.92714333333333, "name": "c920e2e2ddfa89f1188bccfefa163de5", "fusion_lon": 0.0, "bike_id": "c920e2e2ddfa89f1188bccfefa163de5", "is_disabled": 0, "is_reserved": 0}, {"rental_uris": {"ios": "https://dc.lft.to/lastmile_qr_scan", "android": "https://dc.lft.to/lastmile_qr_scan"}, "lon": -77.00699833333333, "type": "electric_scooter", "fusion_lat": 0.0, "lat": 38.9005365, "name": "c7faeff4ae32fb1f271b9fa81136511c", "fusion_lon": 0.0, "bike_id": "c7faeff4ae32fb1f271b9fa81136511c", "is_disabled": 0, "is_reserved": 0}, {"rental_uris": {"ios": "https://dc.lft.to/lastmile_qr_scan", "android": "https://dc.lft.to/lastmile_qr_scan"}, "lon": -76.98413916666667, "type": "electric_scooter", "fusion_lat": 0.0, "lat": 38.85969433333333, "name": "0699c549ca33582580aa2a2679572d86", "fusion_lon": 0.0, "bike_id": "0699c549ca33582580aa2a2679572d86", "is_disabled": 0, "is_reserved": 0}, {"rental_uris": {"ios": "https://dc.lft.to/lastmile_qr_scan", "android": "https://dc.lft.to/lastmile_qr_scan"}, "lon": -77.04894216666666, "type": "electric_scooter", "fusion_lat": 0.0, "lat": 38.90354516666667, "name": "3c57e174343b92f20cad3625eea3acf5", "fusion_lon": 0.0, "bike_id": "3c57e174343b92f20cad3625eea3acf5", "is_disabled": 0, "is_reserved": 0}, {"rental_uris": {"ios": "https://dc.lft.to/lastmile_qr_scan", "android": "https://dc.lft.to/lastmile_qr_scan"}, "lon": -77.04175233333333, "type": "electric_scooter", "fusion_lat": 0.0, "lat": 38.917009166666666, "name": "a09787db9ed0a7f87ab47c6fbab83f08", "fusion_lon": 0.0, "bike_id": "a09787db9ed0a7f87ab47c6fbab83f08", "is_disabled": 0, "is_reserved": 0}, {"rental_uris": {"ios": "https://dc.lft.to/lastmile_qr_scan", "android": "https://dc.lft.to/lastmile_qr_scan"}, "lon": -77.0345385, "type": "electric_scooter", "fusion_lat": 0.0, "lat": 38.917632833333336, "name": "71ff871f627bcfbff8915069314b0228", "fusion_lon": 0.0, "bike_id": "71ff871f627bcfbff8915069314b0228", "is_disabled": 0, "is_reserved": 0}, {"rental_uris": {"ios": "https://dc.lft.to/lastmile_qr_scan", "android": "https://dc.lft.to/lastmile_qr_scan"}, "lon": -77.02154966666667, "type": "electric_scooter", "fusion_lat": 0.0, "lat": 38.91625333333333, "name": "afd3c257a678c11b645f435e35106bab", "fusion_lon": 0.0, "bike_id": "afd3c257a678c11b645f435e35106bab", "is_disabled": 0, "is_reserved": 0}, {"rental_uris": {"ios": "https://dc.lft.to/lastmile_qr_scan", "android": "https://dc.lft.to/lastmile_qr_scan"}, "lon": -77.05883883333334, "type": "electric_scooter", "fusion_lat": 0.0, "lat": 38.93633283333333, "name": "2f448b72724930818442085488fd445a", "fusion_lon": 0.0, "bike_id": "2f448b72724930818442085488fd445a", "is_disabled": 0, "is_reserved": 0}, {"rental_uris": {"ios": "https://dc.lft.to/lastmile_qr_scan", "android": "https://dc.lft.to/lastmile_qr_scan"}, "lon": -76.94652566666667, "type": "electric_scooter", "fusion_lat": 0.0, "lat": 38.8982515, "name": "bcff2ff73be824748c6816b0e83edafc", "fusion_lon": 0.0, "bike_id": "bcff2ff73be824748c6816b0e83edafc", "is_disabled": 0, "is_reserved": 0}, {"rental_uris": {"ios": "https://dc.lft.to/lastmile_qr_scan", "android": "https://dc.lft.to/lastmile_qr_scan"}, "lon": -77.06346533333334, "type": "electric_bike", "fusion_lat": 0.0, "lat": 38.908492, "name": "e5b3bae0b008a7fb063915b33717ddda", "fusion_lon": 0.0, "bike_id": "e5b3bae0b008a7fb063915b33717ddda", "is_disabled": 0, "is_reserved": 0}, {"rental_uris": {"ios": "https://dc.lft.to/lastmile_qr_scan", "android": "https://dc.lft.to/lastmile_qr_scan"}, "lon": -77.03336883333333, "type": "electric_scooter", "fusion_lat": 0.0, "lat": 38.90645683333334, "name": "d74c91622368ebb2ed0ba481a97802b9", "fusion_lon": 0.0, "bike_id": "d74c91622368ebb2ed0ba481a97802b9", "is_disabled": 0, "is_reserved": 0}, {"rental_uris": {"ios": "https://dc.lft.to/lastmile_qr_scan", "android": "https://dc.lft.to/lastmile_qr_scan"}, "lon": -77.03183083333333, "type": "electric_scooter", "fusion_lat": 0.0, "lat": 38.919212, "name": "a98c112b926b85147530a2eab4fa388f", "fusion_lon": 0.0, "bike_id": "a98c112b926b85147530a2eab4fa388f", "is_disabled": 0, "is_reserved": 0}, {"rental_uris": {"ios": "https://dc.lft.to/lastmile_qr_scan", "android": "https://dc.lft.to/lastmile_qr_scan"}, "lon": -76.97252333333333, "type": "electric_bike", "fusion_lat": 0.0, "lat": 38.95741916666667, "name": "e82db7cb8c825d839584a61c698120c7", "fusion_lon": 0.0, "bike_id": "e82db7cb8c825d839584a61c698120c7", "is_disabled": 0, "is_reserved": 0}, {"rental_uris": {"ios": "https://dc.lft.to/lastmile_qr_scan", "android": "https://dc.lft.to/lastmile_qr_scan"}, "lon": -77.00486066666667, "type": "electric_scooter", "fusion_lat": 0.0, "lat": 38.91250866666667, "name": "fc6c8f00dfe8c8250a2e503fe7e0fa59", "fusion_lon": 0.0, "bike_id": "fc6c8f00dfe8c8250a2e503fe7e0fa59", "is_disabled": 0, "is_reserved": 0}, {"rental_uris": {"ios": "https://dc.lft.to/lastmile_qr_scan", "android": "https://dc.lft.to/lastmile_qr_scan"}, "lon": -77.02400766666666, "type": "electric_scooter", "fusion_lat": 0.0, "lat": 38.9160025, "name": "18185b316c5907501ff87bd9bac32cfc", "fusion_lon": 0.0, "bike_id": "18185b316c5907501ff87bd9bac32cfc", "is_disabled": 0, "is_reserved": 0}, {"rental_uris": {"ios": "https://dc.lft.to/lastmile_qr_scan", "android": "https://dc.lft.to/lastmile_qr_scan"}, "lon": -77.03211683333333, "type": "electric_scooter", "fusion_lat": 0.0, "lat": 38.937501, "name": "cc718394f17a934e8becf1da4a76fa6e", "fusion_lon": 0.0, "bike_id": "cc718394f17a934e8becf1da4a76fa6e", "is_disabled": 0, "is_reserved": 0}, {"rental_uris": {"ios": "https://dc.lft.to/lastmile_qr_scan", "android": "https://dc.lft.to/lastmile_qr_scan"}, "lon": -77.0500415, "type": "electric_scooter", "fusion_lat": 0.0, "lat": 38.904166833333335, "name": "3158b8568d4327c549be923d00bec7fe", "fusion_lon": 0.0, "bike_id": "3158b8568d4327c549be923d00bec7fe", "is_disabled": 0, "is_reserved": 0}, {"rental_uris": {"ios": "https://dc.lft.to/lastmile_qr_scan", "android": "https://dc.lft.to/lastmile_qr_scan"}, "lon": -77.0219375, "type": "electric_scooter", "fusion_lat": 0.0, "lat": 38.911518, "name": "9d0e4b65ead44a372e79bfd6ef6f1ac0", "fusion_lon": 0.0, "bike_id": "9d0e4b65ead44a372e79bfd6ef6f1ac0", "is_disabled": 0, "is_reserved": 0}, {"rental_uris": {"ios": "https://dc.lft.to/lastmile_qr_scan", "android": "https://dc.lft.to/lastmile_qr_scan"}, "lon": -77.01549466666667, "type": "electric_scooter", "fusion_lat": 0.0, "lat": 38.902611, "name": "6180cb24da66c87479307dc914b0cfee", "fusion_lon": 0.0, "bike_id": "6180cb24da66c87479307dc914b0cfee", "is_disabled": 0, "is_reserved": 0}, {"rental_uris": {"ios": "https://dc.lft.to/lastmile_qr_scan", "android": "https://dc.lft.to/lastmile_qr_scan"}, "lon": -77.04479433333333, "type": "electric_scooter", "fusion_lat": 0.0, "lat": 38.90051166666667, "name": "dd66f5469295597c17d64e99b132416e", "fusion_lon": 0.0, "bike_id": "dd66f5469295597c17d64e99b132416e", "is_disabled": 0, "is_reserved": 0}, {"rental_uris": {"ios": "https://dc.lft.to/lastmile_qr_scan", "android": "https://dc.lft.to/lastmile_qr_scan"}, "lon": -77.0116405, "type": "electric_bike", "fusion_lat": 0.0, "lat": 38.872314333333335, "name": "659080ee8bdd1208ed3ce31a365306d7", "fusion_lon": 0.0, "bike_id": "659080ee8bdd1208ed3ce31a365306d7", "is_disabled": 0, "is_reserved": 0}, {"rental_uris": {"ios": "https://dc.lft.to/lastmile_qr_scan", "android": "https://dc.lft.to/lastmile_qr_scan"}, "lon": -77.07724166666667, "type": "electric_scooter", "fusion_lat": 0.0, "lat": 38.947002166666664, "name": "4f8662729a692555fe941892abf18ae6", "fusion_lon": 0.0, "bike_id": "4f8662729a692555fe941892abf18ae6", "is_disabled": 0, "is_reserved": 0}, {"rental_uris": {"ios": "https://dc.lft.to/lastmile_qr_scan", "android": "https://dc.lft.to/lastmile_qr_scan"}, "lon": -76.98094183333333, "type": "electric_bike", "fusion_lat": 0.0, "lat": 38.88133166666667, "name": "65b5a9cc9e085a3ea29ea3fe1a9e97c4", "fusion_lon": 0.0, "bike_id": "65b5a9cc9e085a3ea29ea3fe1a9e97c4", "is_disabled": 0, "is_reserved": 0}, {"rental_uris": {"ios": "https://dc.lft.to/lastmile_qr_scan", "android": "https://dc.lft.to/lastmile_qr_scan"}, "lon": -77.03205666666666, "type": "electric_scooter", "fusion_lat": 0.0, "lat": 38.91157916666667, "name": "4ceabfcc678a8a77b357c75b6eb8b591", "fusion_lon": 0.0, "bike_id": "4ceabfcc678a8a77b357c75b6eb8b591", "is_disabled": 0, "is_reserved": 0}, {"rental_uris": {"ios": "https://dc.lft.to/lastmile_qr_scan", "android": "https://dc.lft.to/lastmile_qr_scan"}, "lon": -76.9839185, "type": "electric_scooter", "fusion_lat": 0.0, "lat": 38.87833933333334, "name": "801d4e4899b645e82f9b79978730859b", "fusion_lon": 0.0, "bike_id": "801d4e4899b645e82f9b79978730859b", "is_disabled": 0, "is_reserved": 0}, {"rental_uris": {"ios": "https://dc.lft.to/lastmile_qr_scan", "android": "https://dc.lft.to/lastmile_qr_scan"}, "lon": -77.0347375, "type": "electric_scooter", "fusion_lat": 0.0, "lat": 38.923556, "name": "6ea0f5eb6fcebc3fc61269d5f82ff108", "fusion_lon": 0.0, "bike_id": "6ea0f5eb6fcebc3fc61269d5f82ff108", "is_disabled": 0, "is_reserved": 0}, {"rental_uris": {"ios": "https://dc.lft.to/lastmile_qr_scan", "android": "https://dc.lft.to/lastmile_qr_scan"}, "lon": -77.042453, "type": "electric_scooter", "fusion_lat": 0.0, "lat": 38.92234066666666, "name": "95e9336e7ffb96bdb30506d69b73c454", "fusion_lon": 0.0, "bike_id": "95e9336e7ffb96bdb30506d69b73c454", "is_disabled": 0, "is_reserved": 0}, {"rental_uris": {"ios": "https://dc.lft.to/lastmile_qr_scan", "android": "https://dc.lft.to/lastmile_qr_scan"}, "lon": -77.01210033333334, "type": "electric_bike", "fusion_lat": 0.0, "lat": 38.870823, "name": "ac2c0a1bdac13078c96c5a493f95adb4", "fusion_lon": 0.0, "bike_id": "ac2c0a1bdac13078c96c5a493f95adb4", "is_disabled": 0, "is_reserved": 0}, {"rental_uris": {"ios": "https://dc.lft.to/lastmile_qr_scan", "android": "https://dc.lft.to/lastmile_qr_scan"}, "lon": -77.05154666666667, "type": "electric_scooter", "fusion_lat": 0.0, "lat": 38.89749716666667, "name": "38f734f1a6cf5adcec693ebc71632cdc", "fusion_lon": 0.0, "bike_id": "38f734f1a6cf5adcec693ebc71632cdc", "is_disabled": 0, "is_reserved": 0}, {"rental_uris": {"ios": "https://dc.lft.to/lastmile_qr_scan", "android": "https://dc.lft.to/lastmile_qr_scan"}, "lon": -77.021905, "type": "electric_scooter", "fusion_lat": 0.0, "lat": 38.88034566666666, "name": "121dd79e74a72a41ccfcc3ba8b5da025", "fusion_lon": 0.0, "bike_id": "121dd79e74a72a41ccfcc3ba8b5da025", "is_disabled": 0, "is_reserved": 0}, {"rental_uris": {"ios": "https://dc.lft.to/lastmile_qr_scan", "android": "https://dc.lft.to/lastmile_qr_scan"}, "lon": -77.047925, "type": "electric_scooter", "fusion_lat": 0.0, "lat": 38.899594666666665, "name": "5d15900fd16140655529af4d6c4c4a8f", "fusion_lon": 0.0, "bike_id": "5d15900fd16140655529af4d6c4c4a8f", "is_disabled": 0, "is_reserved": 0}, {"rental_uris": {"ios": "https://dc.lft.to/lastmile_qr_scan", "android": "https://dc.lft.to/lastmile_qr_scan"}, "lon": -77.04177133333333, "type": "electric_scooter", "fusion_lat": 0.0, "lat": 38.91858533333333, "name": "5e2437955d8372bf98f5ae22332798eb", "fusion_lon": 0.0, "bike_id": "5e2437955d8372bf98f5ae22332798eb", "is_disabled": 0, "is_reserved": 0}, {"rental_uris": {"ios": "https://dc.lft.to/lastmile_qr_scan", "android": "https://dc.lft.to/lastmile_qr_scan"}, "lon": -77.03209866666667, "type": "electric_scooter", "fusion_lat": 0.0, "lat": 38.917165, "name": "e072dab5e8bdd48f296c39702f468b7f", "fusion_lon": 0.0, "bike_id": "e072dab5e8bdd48f296c39702f468b7f", "is_disabled": 0, "is_reserved": 0}, {"rental_uris": {"ios": "https://dc.lft.to/lastmile_qr_scan", "android": "https://dc.lft.to/lastmile_qr_scan"}, "lon": -77.07102133333333, "type": "electric_bike", "fusion_lat": 0.0, "lat": 38.9144585, "name": "c5c6f91ab89b56da3690e11d85fc76e1", "fusion_lon": 0.0, "bike_id": "c5c6f91ab89b56da3690e11d85fc76e1", "is_disabled": 0, "is_reserved": 0}, {"rental_uris": {"ios": "https://dc.lft.to/lastmile_qr_scan", "android": "https://dc.lft.to/lastmile_qr_scan"}, "lon": -77.031734, "type": "electric_scooter", "fusion_lat": 0.0, "lat": 38.893584833333335, "name": "7990e2f34304cd4d97c88a5aaeb8cf12", "fusion_lon": 0.0, "bike_id": "7990e2f34304cd4d97c88a5aaeb8cf12", "is_disabled": 0, "is_reserved": 0}, {"rental_uris": {"ios": "https://dc.lft.to/lastmile_qr_scan", "android": "https://dc.lft.to/lastmile_qr_scan"}, "lon": -77.051189, "type": "electric_bike", "fusion_lat": 0.0, "lat": 38.999643166666665, "name": "e54c585804f9b039ac8cf39ec88ce44a", "fusion_lon": 0.0, "bike_id": "e54c585804f9b039ac8cf39ec88ce44a", "is_disabled": 0, "is_reserved": 0}, {"rental_uris": {"ios": "https://dc.lft.to/lastmile_qr_scan", "android": "https://dc.lft.to/lastmile_qr_scan"}, "lon": -77.04164466666667, "type": "electric_scooter", "fusion_lat": 0.0, "lat": 38.9098255, "name": "5b89d5750cab01c9a896b728a4070a5a", "fusion_lon": 0.0, "bike_id": "5b89d5750cab01c9a896b728a4070a5a", "is_disabled": 0, "is_reserved": 0}, {"rental_uris": {"ios": "https://dc.lft.to/lastmile_qr_scan", "android": "https://dc.lft.to/lastmile_qr_scan"}, "lon": -77.031945, "type": "electric_bike", "fusion_lat": 0.0, "lat": 38.91797066666667, "name": "3dd8e068d4adfd70616b433009f0c30f", "fusion_lon": 0.0, "bike_id": "3dd8e068d4adfd70616b433009f0c30f", "is_disabled": 0, "is_reserved": 0}, {"rental_uris": {"ios": "https://dc.lft.to/lastmile_qr_scan", "android": "https://dc.lft.to/lastmile_qr_scan"}, "lon": -76.98884716666667, "type": "electric_scooter", "fusion_lat": 0.0, "lat": 38.86658766666667, "name": "a900e40385bc3fc4a9cbee3517364f6c", "fusion_lon": 0.0, "bike_id": "a900e40385bc3fc4a9cbee3517364f6c", "is_disabled": 0, "is_reserved": 0}, {"rental_uris": {"ios": "https://dc.lft.to/lastmile_qr_scan", "android": "https://dc.lft.to/lastmile_qr_scan"}, "lon": -77.03145016666667, "type": "electric_scooter", "fusion_lat": 0.0, "lat": 38.912652, "name": "c9fe9cda073348b6230e36dd18b40b5e", "fusion_lon": 0.0, "bike_id": "c9fe9cda073348b6230e36dd18b40b5e", "is_disabled": 0, "is_reserved": 0}, {"rental_uris": {"ios": "https://dc.lft.to/lastmile_qr_scan", "android": "https://dc.lft.to/lastmile_qr_scan"}, "lon": -77.02713933333334, "type": "electric_scooter", "fusion_lat": 0.0, "lat": 38.910673333333335, "name": "b8906c23245753b40b6fe835497183e4", "fusion_lon": 0.0, "bike_id": "b8906c23245753b40b6fe835497183e4", "is_disabled": 0, "is_reserved": 0}, {"rental_uris": {"ios": "https://dc.lft.to/lastmile_qr_scan", "android": "https://dc.lft.to/lastmile_qr_scan"}, "lon": -77.03930083333333, "type": "electric_scooter", "fusion_lat": 0.0, "lat": 38.92095583333333, "name": "b3a380820fd8792b5597b4fff01444e9", "fusion_lon": 0.0, "bike_id": "b3a380820fd8792b5597b4fff01444e9", "is_disabled": 0, "is_reserved": 0}, {"rental_uris": {"ios": "https://dc.lft.to/lastmile_qr_scan", "android": "https://dc.lft.to/lastmile_qr_scan"}, "lon": -76.94944033333333, "type": "electric_scooter", "fusion_lat": 0.0, "lat": 38.88379466666667, "name": "778209b7775236e0e9a1a5cd63d795b1", "fusion_lon": 0.0, "bike_id": "778209b7775236e0e9a1a5cd63d795b1", "is_disabled": 0, "is_reserved": 0}, {"rental_uris": {"ios": "https://dc.lft.to/lastmile_qr_scan", "android": "https://dc.lft.to/lastmile_qr_scan"}, "lon": -77.06131683333334, "type": "electric_scooter", "fusion_lat": 0.0, "lat": 38.90230116666667, "name": "e239d7781c1a3cfdef9160510e91852c", "fusion_lon": 0.0, "bike_id": "e239d7781c1a3cfdef9160510e91852c", "is_disabled": 0, "is_reserved": 0}, {"rental_uris": {"ios": "https://dc.lft.to/lastmile_qr_scan", "android": "https://dc.lft.to/lastmile_qr_scan"}, "lon": -77.03940966666667, "type": "electric_scooter", "fusion_lat": 0.0, "lat": 38.931517166666666, "name": "23f35f80a199dc3769ee463712a1432f", "fusion_lon": 0.0, "bike_id": "23f35f80a199dc3769ee463712a1432f", "is_disabled": 0, "is_reserved": 0}, {"rental_uris": {"ios": "https://dc.lft.to/lastmile_qr_scan", "android": "https://dc.lft.to/lastmile_qr_scan"}, "lon": -77.02257216666666, "type": "electric_scooter", "fusion_lat": 0.0, "lat": 38.916614333333335, "name": "4c1b246cff2e61d318909a58a888f74c", "fusion_lon": 0.0, "bike_id": "4c1b246cff2e61d318909a58a888f74c", "is_disabled": 0, "is_reserved": 0}, {"rental_uris": {"ios": "https://dc.lft.to/lastmile_qr_scan", "android": "https://dc.lft.to/lastmile_qr_scan"}, "lon": -77.015343, "type": "electric_scooter", "fusion_lat": 0.0, "lat": 38.898180333333336, "name": "c5d5f5a46c5d81777ba020e100f55179", "fusion_lon": 0.0, "bike_id": "c5d5f5a46c5d81777ba020e100f55179", "is_disabled": 0, "is_reserved": 0}, {"rental_uris": {"ios": "https://dc.lft.to/lastmile_qr_scan", "android": "https://dc.lft.to/lastmile_qr_scan"}, "lon": -76.97736833333333, "type": "electric_scooter", "fusion_lat": 0.0, "lat": 38.872881666666665, "name": "6ee4f4686696d7fa69765cc27ab85639", "fusion_lon": 0.0, "bike_id": "6ee4f4686696d7fa69765cc27ab85639", "is_disabled": 0, "is_reserved": 0}, {"rental_uris": {"ios": "https://dc.lft.to/lastmile_qr_scan", "android": "https://dc.lft.to/lastmile_qr_scan"}, "lon": -77.05464666666667, "type": "electric_scooter", "fusion_lat": 0.0, "lat": 38.90497166666667, "name": "d83f9c675f6a5bc8772c73f60d7b44c8", "fusion_lon": 0.0, "bike_id": "d83f9c675f6a5bc8772c73f60d7b44c8", "is_disabled": 0, "is_reserved": 0}, {"rental_uris": {"ios": "https://dc.lft.to/lastmile_qr_scan", "android": "https://dc.lft.to/lastmile_qr_scan"}, "lon": -77.03303066666666, "type": "electric_scooter", "fusion_lat": 0.0, "lat": 38.93134633333333, "name": "f1e6a7b77a679cf4add32041c3b4107c", "fusion_lon": 0.0, "bike_id": "f1e6a7b77a679cf4add32041c3b4107c", "is_disabled": 0, "is_reserved": 0}, {"rental_uris": {"ios": "https://dc.lft.to/lastmile_qr_scan", "android": "https://dc.lft.to/lastmile_qr_scan"}, "lon": -76.99776016666667, "type": "electric_scooter", "fusion_lat": 0.0, "lat": 38.8442195, "name": "7d2ea777d279b7b9cfc0698ca56ee1bd", "fusion_lon": 0.0, "bike_id": "7d2ea777d279b7b9cfc0698ca56ee1bd", "is_disabled": 0, "is_reserved": 0}, {"rental_uris": {"ios": "https://dc.lft.to/lastmile_qr_scan", "android": "https://dc.lft.to/lastmile_qr_scan"}, "lon": -77.037952, "type": "electric_bike", "fusion_lat": 0.0, "lat": 38.996661, "name": "26f948d3deb0a36a614519b58d2b1a1e", "fusion_lon": 0.0, "bike_id": "26f948d3deb0a36a614519b58d2b1a1e", "is_disabled": 0, "is_reserved": 0}, {"rental_uris": {"ios": "https://dc.lft.to/lastmile_qr_scan", "android": "https://dc.lft.to/lastmile_qr_scan"}, "lon": -77.04301516666666, "type": "electric_scooter", "fusion_lat": 0.0, "lat": 38.9072245, "name": "ab012e4a1d84f5e6664ac299ca3bfadf", "fusion_lon": 0.0, "bike_id": "ab012e4a1d84f5e6664ac299ca3bfadf", "is_disabled": 0, "is_reserved": 0}, {"rental_uris": {"ios": "https://dc.lft.to/lastmile_qr_scan", "android": "https://dc.lft.to/lastmile_qr_scan"}, "lon": -77.02504266666666, "type": "electric_scooter", "fusion_lat": 0.0, "lat": 38.88029266666667, "name": "a40b925e37efa585f2dc057b40f2219a", "fusion_lon": 0.0, "bike_id": "a40b925e37efa585f2dc057b40f2219a", "is_disabled": 0, "is_reserved": 0}, {"rental_uris": {"ios": "https://dc.lft.to/lastmile_qr_scan", "android": "https://dc.lft.to/lastmile_qr_scan"}, "lon": -76.95736433333333, "type": "electric_scooter", "fusion_lat": 0.0, "lat": 38.8921985, "name": "a232c408dc190496171e75ed70f19c3c", "fusion_lon": 0.0, "bike_id": "a232c408dc190496171e75ed70f19c3c", "is_disabled": 0, "is_reserved": 0}, {"rental_uris": {"ios": "https://dc.lft.to/lastmile_qr_scan", "android": "https://dc.lft.to/lastmile_qr_scan"}, "lon": -77.04488283333333, "type": "electric_scooter", "fusion_lat": 0.0, "lat": 38.9110345, "name": "85e350ba718ae5c26b20a1a877aacfca", "fusion_lon": 0.0, "bike_id": "85e350ba718ae5c26b20a1a877aacfca", "is_disabled": 0, "is_reserved": 0}, {"rental_uris": {"ios": "https://dc.lft.to/lastmile_qr_scan", "android": "https://dc.lft.to/lastmile_qr_scan"}, "lon": -77.02953633333334, "type": "electric_scooter", "fusion_lat": 0.0, "lat": 38.900577166666665, "name": "a0027a53614ace9d72a9b0d04ca2cbac", "fusion_lon": 0.0, "bike_id": "a0027a53614ace9d72a9b0d04ca2cbac", "is_disabled": 0, "is_reserved": 0}, {"rental_uris": {"ios": "https://dc.lft.to/lastmile_qr_scan", "android": "https://dc.lft.to/lastmile_qr_scan"}, "lon": -77.13185916666667, "type": "electric_bike", "fusion_lat": 0.0, "lat": 38.86906666666667, "name": "73db8438bb031b83b74e812ed2c766ea", "fusion_lon": 0.0, "bike_id": "73db8438bb031b83b74e812ed2c766ea", "is_disabled": 0, "is_reserved": 0}, {"rental_uris": {"ios": "https://dc.lft.to/lastmile_qr_scan", "android": "https://dc.lft.to/lastmile_qr_scan"}, "lon": -76.9745065, "type": "electric_bike", "fusion_lat": 0.0, "lat": 38.86409966666667, "name": "6f7a1d1285f161f977e704fe76f31f2e", "fusion_lon": 0.0, "bike_id": "6f7a1d1285f161f977e704fe76f31f2e", "is_disabled": 0, "is_reserved": 0}, {"rental_uris": {"ios": "https://dc.lft.to/lastmile_qr_scan", "android": "https://dc.lft.to/lastmile_qr_scan"}, "lon": -77.03829933333333, "type": "electric_scooter", "fusion_lat": 0.0, "lat": 38.921732, "name": "ba6b4ff77426d17850168706c73bc45b", "fusion_lon": 0.0, "bike_id": "ba6b4ff77426d17850168706c73bc45b", "is_disabled": 0, "is_reserved": 0}, {"rental_uris": {"ios": "https://dc.lft.to/lastmile_qr_scan", "android": "https://dc.lft.to/lastmile_qr_scan"}, "lon": -77.02988, "type": "electric_bike", "fusion_lat": 0.0, "lat": 38.900309, "name": "ae357386eb318ec7c6db9bc67242818d", "fusion_lon": 0.0, "bike_id": "ae357386eb318ec7c6db9bc67242818d", "is_disabled": 0, "is_reserved": 0}, {"rental_uris": {"ios": "https://dc.lft.to/lastmile_qr_scan", "android": "https://dc.lft.to/lastmile_qr_scan"}, "lon": -77.03829016666667, "type": "electric_scooter", "fusion_lat": 0.0, "lat": 38.9125375, "name": "836147ad3a49681593fff034e98f5df3", "fusion_lon": 0.0, "bike_id": "836147ad3a49681593fff034e98f5df3", "is_disabled": 0, "is_reserved": 0}, {"rental_uris": {"ios": "https://dc.lft.to/lastmile_qr_scan", "android": "https://dc.lft.to/lastmile_qr_scan"}, "lon": -77.01937183333334, "type": "electric_scooter", "fusion_lat": 0.0, "lat": 38.94924266666666, "name": "62326ca7ad9929c6739686ab450d188b", "fusion_lon": 0.0, "bike_id": "62326ca7ad9929c6739686ab450d188b", "is_disabled": 0, "is_reserved": 0}, {"rental_uris": {"ios": "https://dc.lft.to/lastmile_qr_scan", "android": "https://dc.lft.to/lastmile_qr_scan"}, "lon": -77.04342616666666, "type": "electric_scooter", "fusion_lat": 0.0, "lat": 38.896689, "name": "f6d35d898f9e7e5a7474421456396922", "fusion_lon": 0.0, "bike_id": "f6d35d898f9e7e5a7474421456396922", "is_disabled": 0, "is_reserved": 0}, {"rental_uris": {"ios": "https://dc.lft.to/lastmile_qr_scan", "android": "https://dc.lft.to/lastmile_qr_scan"}, "lon": -77.028043, "type": "electric_scooter", "fusion_lat": 0.0, "lat": 38.89535133333333, "name": "6930bf5953df95057fac796b071ca7cb", "fusion_lon": 0.0, "bike_id": "6930bf5953df95057fac796b071ca7cb", "is_disabled": 0, "is_reserved": 0}, {"rental_uris": {"ios": "https://dc.lft.to/lastmile_qr_scan", "android": "https://dc.lft.to/lastmile_qr_scan"}, "lon": -77.05474333333333, "type": "electric_scooter", "fusion_lat": 0.0, "lat": 38.90492533333333, "name": "6eee1c52c8bd32ff47a2177d02bf3e72", "fusion_lon": 0.0, "bike_id": "6eee1c52c8bd32ff47a2177d02bf3e72", "is_disabled": 0, "is_reserved": 0}, {"rental_uris": {"ios": "https://dc.lft.to/lastmile_qr_scan", "android": "https://dc.lft.to/lastmile_qr_scan"}, "lon": -77.01210133333333, "type": "electric_scooter", "fusion_lat": 0.0, "lat": 38.92119566666667, "name": "3c415fa46e997abd6be8ca83893d3249", "fusion_lon": 0.0, "bike_id": "3c415fa46e997abd6be8ca83893d3249", "is_disabled": 0, "is_reserved": 0}, {"rental_uris": {"ios": "https://dc.lft.to/lastmile_qr_scan", "android": "https://dc.lft.to/lastmile_qr_scan"}, "lon": -77.03350283333333, "type": "electric_scooter", "fusion_lat": 0.0, "lat": 38.92881283333333, "name": "778c203185dd67c507a67aec91a99272", "fusion_lon": 0.0, "bike_id": "778c203185dd67c507a67aec91a99272", "is_disabled": 0, "is_reserved": 0}, {"rental_uris": {"ios": "https://dc.lft.to/lastmile_qr_scan", "android": "https://dc.lft.to/lastmile_qr_scan"}, "lon": -77.07564633333334, "type": "electric_scooter", "fusion_lat": 0.0, "lat": 38.914296666666665, "name": "0d52aed503932c759c2f98ce93664174", "fusion_lon": 0.0, "bike_id": "0d52aed503932c759c2f98ce93664174", "is_disabled": 0, "is_reserved": 0}, {"rental_uris": {"ios": "https://dc.lft.to/lastmile_qr_scan", "android": "https://dc.lft.to/lastmile_qr_scan"}, "lon": -77.02796566666666, "type": "electric_scooter", "fusion_lat": 0.0, "lat": 38.893601333333336, "name": "9132493ff9b658425f14aa5c89416c43", "fusion_lon": 0.0, "bike_id": "9132493ff9b658425f14aa5c89416c43", "is_disabled": 0, "is_reserved": 0}, {"rental_uris": {"ios": "https://dc.lft.to/lastmile_qr_scan", "android": "https://dc.lft.to/lastmile_qr_scan"}, "lon": -77.04162383333333, "type": "electric_scooter", "fusion_lat": 0.0, "lat": 38.90149066666667, "name": "4b2fa918e9fad1cb2a03e9d69293612f", "fusion_lon": 0.0, "bike_id": "4b2fa918e9fad1cb2a03e9d69293612f", "is_disabled": 0, "is_reserved": 0}, {"rental_uris": {"ios": "https://dc.lft.to/lastmile_qr_scan", "android": "https://dc.lft.to/lastmile_qr_scan"}, "lon": -77.00308216666667, "type": "electric_scooter", "fusion_lat": 0.0, "lat": 38.87752, "name": "5c2338f3da51c4cbdaabc332f67c07ba", "fusion_lon": 0.0, "bike_id": "5c2338f3da51c4cbdaabc332f67c07ba", "is_disabled": 0, "is_reserved": 0}, {"rental_uris": {"ios": "https://dc.lft.to/lastmile_qr_scan", "android": "https://dc.lft.to/lastmile_qr_scan"}, "lon": -77.00088983333333, "type": "electric_bike", "fusion_lat": 0.0, "lat": 38.87482933333333, "name": "451cdb718b195331fa9dd4e9f10ceadb", "fusion_lon": 0.0, "bike_id": "451cdb718b195331fa9dd4e9f10ceadb", "is_disabled": 0, "is_reserved": 0}, {"rental_uris": {"ios": "https://dc.lft.to/lastmile_qr_scan", "android": "https://dc.lft.to/lastmile_qr_scan"}, "lon": -76.98902916666667, "type": "electric_scooter", "fusion_lat": 0.0, "lat": 38.86689583333333, "name": "232d99563a5d30ad929de6a5b55b300b", "fusion_lon": 0.0, "bike_id": "232d99563a5d30ad929de6a5b55b300b", "is_disabled": 0, "is_reserved": 0}, {"rental_uris": {"ios": "https://dc.lft.to/lastmile_qr_scan", "android": "https://dc.lft.to/lastmile_qr_scan"}, "lon": -77.05516766666666, "type": "electric_scooter", "fusion_lat": 0.0, "lat": 38.929532333333334, "name": "1572007f85d0e76a8f84e3d0d354581d", "fusion_lon": 0.0, "bike_id": "1572007f85d0e76a8f84e3d0d354581d", "is_disabled": 0, "is_reserved": 0}, {"rental_uris": {"ios": "https://dc.lft.to/lastmile_qr_scan", "android": "https://dc.lft.to/lastmile_qr_scan"}, "lon": -77.10779833333333, "type": "electric_bike", "fusion_lat": 0.0, "lat": 38.89215333333333, "name": "27b409293dc644cba3e369a91a236e59", "fusion_lon": 0.0, "bike_id": "27b409293dc644cba3e369a91a236e59", "is_disabled": 0, "is_reserved": 0}, {"rental_uris": {"ios": "https://dc.lft.to/lastmile_qr_scan", "android": "https://dc.lft.to/lastmile_qr_scan"}, "lon": -76.9271075, "type": "electric_scooter", "fusion_lat": 0.0, "lat": 38.887692333333334, "name": "6862aae29060855461b7818f5e1de979", "fusion_lon": 0.0, "bike_id": "6862aae29060855461b7818f5e1de979", "is_disabled": 0, "is_reserved": 0}, {"rental_uris": {"ios": "https://dc.lft.to/lastmile_qr_scan", "android": "https://dc.lft.to/lastmile_qr_scan"}, "lon": -77.00123683333334, "type": "electric_scooter", "fusion_lat": 0.0, "lat": 38.87488066666667, "name": "17e6dde65e42cf4ab05914a5b10a9896", "fusion_lon": 0.0, "bike_id": "17e6dde65e42cf4ab05914a5b10a9896", "is_disabled": 0, "is_reserved": 0}, {"rental_uris": {"ios": "https://dc.lft.to/lastmile_qr_scan", "android": "https://dc.lft.to/lastmile_qr_scan"}, "lon": -77.0663385, "type": "electric_scooter", "fusion_lat": 0.0, "lat": 38.92801383333333, "name": "16ae0f60397f8c8762b88a7889a40e89", "fusion_lon": 0.0, "bike_id": "16ae0f60397f8c8762b88a7889a40e89", "is_disabled": 0, "is_reserved": 0}, {"rental_uris": {"ios": "https://dc.lft.to/lastmile_qr_scan", "android": "https://dc.lft.to/lastmile_qr_scan"}, "lon": -77.03538766666667, "type": "electric_scooter", "fusion_lat": 0.0, "lat": 38.92415966666667, "name": "96f014bebec80e4ecefd3ae59b73d981", "fusion_lon": 0.0, "bike_id": "96f014bebec80e4ecefd3ae59b73d981", "is_disabled": 0, "is_reserved": 0}, {"rental_uris": {"ios": "https://dc.lft.to/lastmile_qr_scan", "android": "https://dc.lft.to/lastmile_qr_scan"}, "lon": -77.04568716666667, "type": "electric_scooter", "fusion_lat": 0.0, "lat": 38.91356833333333, "name": "901fa074cbb80e2f02f9fe38756a7428", "fusion_lon": 0.0, "bike_id": "901fa074cbb80e2f02f9fe38756a7428", "is_disabled": 0, "is_reserved": 0}, {"rental_uris": {"ios": "https://dc.lft.to/lastmile_qr_scan", "android": "https://dc.lft.to/lastmile_qr_scan"}, "lon": -76.98837266666666, "type": "electric_scooter", "fusion_lat": 0.0, "lat": 38.894648833333335, "name": "43f9200703152bf8b923e0082f850e8c", "fusion_lon": 0.0, "bike_id": "43f9200703152bf8b923e0082f850e8c", "is_disabled": 0, "is_reserved": 0}, {"rental_uris": {"ios": "https://dc.lft.to/lastmile_qr_scan", "android": "https://dc.lft.to/lastmile_qr_scan"}, "lon": -77.02645266666667, "type": "electric_scooter", "fusion_lat": 0.0, "lat": 38.89717816666667, "name": "5d7fb4242b01872a0690a4ed6a68519d", "fusion_lon": 0.0, "bike_id": "5d7fb4242b01872a0690a4ed6a68519d", "is_disabled": 0, "is_reserved": 0}, {"rental_uris": {"ios": "https://dc.lft.to/lastmile_qr_scan", "android": "https://dc.lft.to/lastmile_qr_scan"}, "lon": -77.04543433333333, "type": "electric_scooter", "fusion_lat": 0.0, "lat": 38.917915666666666, "name": "32dc663a1a083a2016dc525850269769", "fusion_lon": 0.0, "bike_id": "32dc663a1a083a2016dc525850269769", "is_disabled": 0, "is_reserved": 0}, {"rental_uris": {"ios": "https://dc.lft.to/lastmile_qr_scan", "android": "https://dc.lft.to/lastmile_qr_scan"}, "lon": -77.04297716666666, "type": "electric_scooter", "fusion_lat": 0.0, "lat": 38.92331316666667, "name": "379d12ad2bae3b00203d3a5165a6f356", "fusion_lon": 0.0, "bike_id": "379d12ad2bae3b00203d3a5165a6f356", "is_disabled": 0, "is_reserved": 0}, {"rental_uris": {"ios": "https://dc.lft.to/lastmile_qr_scan", "android": "https://dc.lft.to/lastmile_qr_scan"}, "lon": -77.01701383333334, "type": "electric_scooter", "fusion_lat": 0.0, "lat": 38.92019716666667, "name": "1ba8ce7255f8a5c748152e5ea213340c", "fusion_lon": 0.0, "bike_id": "1ba8ce7255f8a5c748152e5ea213340c", "is_disabled": 0, "is_reserved": 0}, {"rental_uris": {"ios": "https://dc.lft.to/lastmile_qr_scan", "android": "https://dc.lft.to/lastmile_qr_scan"}, "lon": -77.03440633333334, "type": "electric_scooter", "fusion_lat": 0.0, "lat": 38.917785333333335, "name": "aedf3c1a5794a95ffc44552752957d4e", "fusion_lon": 0.0, "bike_id": "aedf3c1a5794a95ffc44552752957d4e", "is_disabled": 0, "is_reserved": 0}, {"rental_uris": {"ios": "https://dc.lft.to/lastmile_qr_scan", "android": "https://dc.lft.to/lastmile_qr_scan"}, "lon": -77.03197866666666, "type": "electric_scooter", "fusion_lat": 0.0, "lat": 38.91767683333333, "name": "5c98721c721a4f50393c26586422ee8a", "fusion_lon": 0.0, "bike_id": "5c98721c721a4f50393c26586422ee8a", "is_disabled": 0, "is_reserved": 0}, {"rental_uris": {"ios": "https://dc.lft.to/lastmile_qr_scan", "android": "https://dc.lft.to/lastmile_qr_scan"}, "lon": -77.03132233333334, "type": "electric_scooter", "fusion_lat": 0.0, "lat": 38.92380383333333, "name": "44b34a7df0c21eef045f7e564da63971", "fusion_lon": 0.0, "bike_id": "44b34a7df0c21eef045f7e564da63971", "is_disabled": 0, "is_reserved": 0}, {"rental_uris": {"ios": "https://dc.lft.to/lastmile_qr_scan", "android": "https://dc.lft.to/lastmile_qr_scan"}, "lon": -77.01282933333333, "type": "electric_scooter", "fusion_lat": 0.0, "lat": 38.900467666666664, "name": "acf04fc89515986aa8380f998c41f180", "fusion_lon": 0.0, "bike_id": "acf04fc89515986aa8380f998c41f180", "is_disabled": 0, "is_reserved": 0}, {"rental_uris": {"ios": "https://dc.lft.to/lastmile_qr_scan", "android": "https://dc.lft.to/lastmile_qr_scan"}, "lon": -77.02238933333334, "type": "electric_scooter", "fusion_lat": 0.0, "lat": 38.902165, "name": "2142e670637a02e0c0c41eb98a250449", "fusion_lon": 0.0, "bike_id": "2142e670637a02e0c0c41eb98a250449", "is_disabled": 0, "is_reserved": 0}, {"rental_uris": {"ios": "https://dc.lft.to/lastmile_qr_scan", "android": "https://dc.lft.to/lastmile_qr_scan"}, "lon": -77.055084, "type": "electric_scooter", "fusion_lat": 0.0, "lat": 38.92979316666667, "name": "715315522abbbf31d7115f6facd6349c", "fusion_lon": 0.0, "bike_id": "715315522abbbf31d7115f6facd6349c", "is_disabled": 0, "is_reserved": 0}, {"rental_uris": {"ios": "https://dc.lft.to/lastmile_qr_scan", "android": "https://dc.lft.to/lastmile_qr_scan"}, "lon": -77.02372683333333, "type": "electric_scooter", "fusion_lat": 0.0, "lat": 38.892232166666666, "name": "dbe1d35297fe0a64a5635dcef8d7b4ec", "fusion_lon": 0.0, "bike_id": "dbe1d35297fe0a64a5635dcef8d7b4ec", "is_disabled": 0, "is_reserved": 0}, {"rental_uris": {"ios": "https://dc.lft.to/lastmile_qr_scan", "android": "https://dc.lft.to/lastmile_qr_scan"}, "lon": -77.013922, "type": "electric_scooter", "fusion_lat": 0.0, "lat": 38.970124, "name": "3579409d297be8b018eabbd415de93b6", "fusion_lon": 0.0, "bike_id": "3579409d297be8b018eabbd415de93b6", "is_disabled": 0, "is_reserved": 0}, {"rental_uris": {"ios": "https://dc.lft.to/lastmile_qr_scan", "android": "https://dc.lft.to/lastmile_qr_scan"}, "lon": -77.02216016666667, "type": "electric_scooter", "fusion_lat": 0.0, "lat": 38.915436, "name": "e5332534165b66336a0a1c57ef3db2fc", "fusion_lon": 0.0, "bike_id": "e5332534165b66336a0a1c57ef3db2fc", "is_disabled": 0, "is_reserved": 0}, {"rental_uris": {"ios": "https://dc.lft.to/lastmile_qr_scan", "android": "https://dc.lft.to/lastmile_qr_scan"}, "lon": -76.995115, "type": "electric_scooter", "fusion_lat": 0.0, "lat": 38.84471816666667, "name": "eae36fc32a01029389b969f23d5adf81", "fusion_lon": 0.0, "bike_id": "eae36fc32a01029389b969f23d5adf81", "is_disabled": 0, "is_reserved": 0}, {"rental_uris": {"ios": "https://dc.lft.to/lastmile_qr_scan", "android": "https://dc.lft.to/lastmile_qr_scan"}, "lon": -76.98840416666667, "type": "electric_bike", "fusion_lat": 0.0, "lat": 38.84267066666666, "name": "04b7d0f367e72877f8c58e1f9b757fa9", "fusion_lon": 0.0, "bike_id": "04b7d0f367e72877f8c58e1f9b757fa9", "is_disabled": 0, "is_reserved": 0}, {"rental_uris": {"ios": "https://dc.lft.to/lastmile_qr_scan", "android": "https://dc.lft.to/lastmile_qr_scan"}, "lon": -76.99539616666667, "type": "electric_scooter", "fusion_lat": 0.0, "lat": 38.92672866666667, "name": "445f582afb7f04e25c3e40237fc71d18", "fusion_lon": 0.0, "bike_id": "445f582afb7f04e25c3e40237fc71d18", "is_disabled": 0, "is_reserved": 0}, {"rental_uris": {"ios": "https://dc.lft.to/lastmile_qr_scan", "android": "https://dc.lft.to/lastmile_qr_scan"}, "lon": -76.9849715, "type": "electric_scooter", "fusion_lat": 0.0, "lat": 38.86043216666667, "name": "d7ef9ae1befb7e6d37d717a562625016", "fusion_lon": 0.0, "bike_id": "d7ef9ae1befb7e6d37d717a562625016", "is_disabled": 0, "is_reserved": 0}, {"rental_uris": {"ios": "https://dc.lft.to/lastmile_qr_scan", "android": "https://dc.lft.to/lastmile_qr_scan"}, "lon": -77.05179416666667, "type": "electric_scooter", "fusion_lat": 0.0, "lat": 38.92412483333333, "name": "f70570c4fa91fb85a2424d9e860b2e7f", "fusion_lon": 0.0, "bike_id": "f70570c4fa91fb85a2424d9e860b2e7f", "is_disabled": 0, "is_reserved": 0}, {"rental_uris": {"ios": "https://dc.lft.to/lastmile_qr_scan", "android": "https://dc.lft.to/lastmile_qr_scan"}, "lon": -77.00264566666667, "type": "electric_scooter", "fusion_lat": 0.0, "lat": 38.87750416666667, "name": "55b9ab9eb6b5ade09a7264c3b283c4d9", "fusion_lon": 0.0, "bike_id": "55b9ab9eb6b5ade09a7264c3b283c4d9", "is_disabled": 0, "is_reserved": 0}, {"rental_uris": {"ios": "https://dc.lft.to/lastmile_qr_scan", "android": "https://dc.lft.to/lastmile_qr_scan"}, "lon": -76.97588133333333, "type": "electric_scooter", "fusion_lat": 0.0, "lat": 38.901943833333334, "name": "d06cff66d220484348db36e27ec3609a", "fusion_lon": 0.0, "bike_id": "d06cff66d220484348db36e27ec3609a", "is_disabled": 0, "is_reserved": 0}, {"rental_uris": {"ios": "https://dc.lft.to/lastmile_qr_scan", "android": "https://dc.lft.to/lastmile_qr_scan"}, "lon": -77.03319983333333, "type": "electric_scooter", "fusion_lat": 0.0, "lat": 38.897455, "name": "34d3745aaefe4efd654f5bc01d9356ad", "fusion_lon": 0.0, "bike_id": "34d3745aaefe4efd654f5bc01d9356ad", "is_disabled": 0, "is_reserved": 0}, {"rental_uris": {"ios": "https://dc.lft.to/lastmile_qr_scan", "android": "https://dc.lft.to/lastmile_qr_scan"}, "lon": -77.045144, "type": "electric_scooter", "fusion_lat": 0.0, "lat": 38.886097, "name": "7bb9d866f63f10243da21d196f0ac04a", "fusion_lon": 0.0, "bike_id": "7bb9d866f63f10243da21d196f0ac04a", "is_disabled": 0, "is_reserved": 0}, {"rental_uris": {"ios": "https://dc.lft.to/lastmile_qr_scan", "android": "https://dc.lft.to/lastmile_qr_scan"}, "lon": -77.05003633333334, "type": "electric_scooter", "fusion_lat": 0.0, "lat": 38.89227183333333, "name": "e9ba3895e7cdaef9f4f2c810e1425467", "fusion_lon": 0.0, "bike_id": "e9ba3895e7cdaef9f4f2c810e1425467", "is_disabled": 0, "is_reserved": 0}, {"rental_uris": {"ios": "https://dc.lft.to/lastmile_qr_scan", "android": "https://dc.lft.to/lastmile_qr_scan"}, "lon": -77.100913, "type": "electric_bike", "fusion_lat": 0.0, "lat": 38.9595245, "name": "4b0bbdecab95302c2989ba4228d836c5", "fusion_lon": 0.0, "bike_id": "4b0bbdecab95302c2989ba4228d836c5", "is_disabled": 0, "is_reserved": 0}, {"rental_uris": {"ios": "https://dc.lft.to/lastmile_qr_scan", "android": "https://dc.lft.to/lastmile_qr_scan"}, "lon": -77.0695275, "type": "electric_bike", "fusion_lat": 0.0, "lat": 38.99041166666667, "name": "2c107688c70e6094fc59017f0d6413ea", "fusion_lon": 0.0, "bike_id": "2c107688c70e6094fc59017f0d6413ea", "is_disabled": 0, "is_reserved": 0}, {"rental_uris": {"ios": "https://dc.lft.to/lastmile_qr_scan", "android": "https://dc.lft.to/lastmile_qr_scan"}, "lon": -77.02699416666667, "type": "electric_scooter", "fusion_lat": 0.0, "lat": 38.9066505, "name": "2b3bb68471af0fdf5b75b633c04c86be", "fusion_lon": 0.0, "bike_id": "2b3bb68471af0fdf5b75b633c04c86be", "is_disabled": 0, "is_reserved": 0}, {"rental_uris": {"ios": "https://dc.lft.to/lastmile_qr_scan", "android": "https://dc.lft.to/lastmile_qr_scan"}, "lon": -77.021555, "type": "electric_scooter", "fusion_lat": 0.0, "lat": 38.926011833333334, "name": "d4cb0e81f647848a2a6d64bc98b79062", "fusion_lon": 0.0, "bike_id": "d4cb0e81f647848a2a6d64bc98b79062", "is_disabled": 0, "is_reserved": 0}, {"rental_uris": {"ios": "https://dc.lft.to/lastmile_qr_scan", "android": "https://dc.lft.to/lastmile_qr_scan"}, "lon": -77.00207633333333, "type": "electric_scooter", "fusion_lat": 0.0, "lat": 38.900675, "name": "84d80faf6d6e384718b536c97b70db79", "fusion_lon": 0.0, "bike_id": "84d80faf6d6e384718b536c97b70db79", "is_disabled": 0, "is_reserved": 0}, {"rental_uris": {"ios": "https://dc.lft.to/lastmile_qr_scan", "android": "https://dc.lft.to/lastmile_qr_scan"}, "lon": -77.0075085, "type": "electric_scooter", "fusion_lat": 0.0, "lat": 38.8765035, "name": "64e78f7c02b86235335628b5d50ff740", "fusion_lon": 0.0, "bike_id": "64e78f7c02b86235335628b5d50ff740", "is_disabled": 0, "is_reserved": 0}, {"rental_uris": {"ios": "https://dc.lft.to/lastmile_qr_scan", "android": "https://dc.lft.to/lastmile_qr_scan"}, "lon": -77.03566733333334, "type": "electric_scooter", "fusion_lat": 0.0, "lat": 38.9181275, "name": "ada2c1b753c3ab078f53eb5532cf64e9", "fusion_lon": 0.0, "bike_id": "ada2c1b753c3ab078f53eb5532cf64e9", "is_disabled": 0, "is_reserved": 0}, {"rental_uris": {"ios": "https://dc.lft.to/lastmile_qr_scan", "android": "https://dc.lft.to/lastmile_qr_scan"}, "lon": -77.04167666666666, "type": "electric_scooter", "fusion_lat": 0.0, "lat": 38.91934066666666, "name": "1c546d8b0a1eaff5161fd3b7f90fbf8a", "fusion_lon": 0.0, "bike_id": "1c546d8b0a1eaff5161fd3b7f90fbf8a", "is_disabled": 0, "is_reserved": 0}, {"rental_uris": {"ios": "https://dc.lft.to/lastmile_qr_scan", "android": "https://dc.lft.to/lastmile_qr_scan"}, "lon": -77.04239816666667, "type": "electric_scooter", "fusion_lat": 0.0, "lat": 38.92219216666667, "name": "5869ab04dc1ba53501b3985d3c6b6974", "fusion_lon": 0.0, "bike_id": "5869ab04dc1ba53501b3985d3c6b6974", "is_disabled": 0, "is_reserved": 0}, {"rental_uris": {"ios": "https://dc.lft.to/lastmile_qr_scan", "android": "https://dc.lft.to/lastmile_qr_scan"}, "lon": -77.03335433333334, "type": "electric_scooter", "fusion_lat": 0.0, "lat": 38.892305666666665, "name": "e53bd2660e3844c4d7eb1cd78834113a", "fusion_lon": 0.0, "bike_id": "e53bd2660e3844c4d7eb1cd78834113a", "is_disabled": 0, "is_reserved": 0}, {"rental_uris": {"ios": "https://dc.lft.to/lastmile_qr_scan", "android": "https://dc.lft.to/lastmile_qr_scan"}, "lon": -77.05885116666667, "type": "electric_scooter", "fusion_lat": 0.0, "lat": 38.93633166666667, "name": "f3c7a9ebcb48acb5cb09a64567e91b77", "fusion_lon": 0.0, "bike_id": "f3c7a9ebcb48acb5cb09a64567e91b77", "is_disabled": 0, "is_reserved": 0}, {"rental_uris": {"ios": "https://dc.lft.to/lastmile_qr_scan", "android": "https://dc.lft.to/lastmile_qr_scan"}, "lon": -76.99003983333333, "type": "electric_scooter", "fusion_lat": 0.0, "lat": 38.86499766666667, "name": "47fdf59034f8ebbb224e2de6cfd24d72", "fusion_lon": 0.0, "bike_id": "47fdf59034f8ebbb224e2de6cfd24d72", "is_disabled": 0, "is_reserved": 0}, {"rental_uris": {"ios": "https://dc.lft.to/lastmile_qr_scan", "android": "https://dc.lft.to/lastmile_qr_scan"}, "lon": -77.002126, "type": "electric_scooter", "fusion_lat": 0.0, "lat": 38.9021615, "name": "f6d94d1a864affe76fb54454053213f8", "fusion_lon": 0.0, "bike_id": "f6d94d1a864affe76fb54454053213f8", "is_disabled": 0, "is_reserved": 0}, {"rental_uris": {"ios": "https://dc.lft.to/lastmile_qr_scan", "android": "https://dc.lft.to/lastmile_qr_scan"}, "lon": -77.03703566666667, "type": "electric_scooter", "fusion_lat": 0.0, "lat": 38.928115, "name": "4e45a7625e5faf79295a35a397b20871", "fusion_lon": 0.0, "bike_id": "4e45a7625e5faf79295a35a397b20871", "is_disabled": 0, "is_reserved": 0}, {"rental_uris": {"ios": "https://dc.lft.to/lastmile_qr_scan", "android": "https://dc.lft.to/lastmile_qr_scan"}, "lon": -77.03224116666667, "type": "electric_scooter", "fusion_lat": 0.0, "lat": 38.9126315, "name": "864b3fb7c54b240fe0b51682382efeca", "fusion_lon": 0.0, "bike_id": "864b3fb7c54b240fe0b51682382efeca", "is_disabled": 0, "is_reserved": 0}, {"rental_uris": {"ios": "https://dc.lft.to/lastmile_qr_scan", "android": "https://dc.lft.to/lastmile_qr_scan"}, "lon": -77.03995866666666, "type": "electric_scooter", "fusion_lat": 0.0, "lat": 38.90036216666667, "name": "75eaaced042dc52bdafc6164d83c47fe", "fusion_lon": 0.0, "bike_id": "75eaaced042dc52bdafc6164d83c47fe", "is_disabled": 0, "is_reserved": 0}, {"rental_uris": {"ios": "https://dc.lft.to/lastmile_qr_scan", "android": "https://dc.lft.to/lastmile_qr_scan"}, "lon": -77.00743966666667, "type": "electric_scooter", "fusion_lat": 0.0, "lat": 38.95516966666667, "name": "175e580425c38f93390825a278b9b5f6", "fusion_lon": 0.0, "bike_id": "175e580425c38f93390825a278b9b5f6", "is_disabled": 0, "is_reserved": 0}, {"rental_uris": {"ios": "https://dc.lft.to/lastmile_qr_scan", "android": "https://dc.lft.to/lastmile_qr_scan"}, "lon": -77.04111216666666, "type": "electric_scooter", "fusion_lat": 0.0, "lat": 38.92440933333334, "name": "acd0452caa04a2b36ba74135b3bfe4ae", "fusion_lon": 0.0, "bike_id": "acd0452caa04a2b36ba74135b3bfe4ae", "is_disabled": 0, "is_reserved": 0}, {"rental_uris": {"ios": "https://dc.lft.to/lastmile_qr_scan", "android": "https://dc.lft.to/lastmile_qr_scan"}, "lon": -76.99848583333333, "type": "electric_scooter", "fusion_lat": 0.0, "lat": 38.900021, "name": "675e8dc48307639bafc1a362ca165c01", "fusion_lon": 0.0, "bike_id": "675e8dc48307639bafc1a362ca165c01", "is_disabled": 0, "is_reserved": 0}, {"rental_uris": {"ios": "https://dc.lft.to/lastmile_qr_scan", "android": "https://dc.lft.to/lastmile_qr_scan"}, "lon": -77.03472616666667, "type": "electric_scooter", "fusion_lat": 0.0, "lat": 38.9127, "name": "e58d34ad69f25b61e7931273be684fc3", "fusion_lon": 0.0, "bike_id": "e58d34ad69f25b61e7931273be684fc3", "is_disabled": 0, "is_reserved": 0}, {"rental_uris": {"ios": "https://dc.lft.to/lastmile_qr_scan", "android": "https://dc.lft.to/lastmile_qr_scan"}, "lon": -76.97927183333333, "type": "electric_scooter", "fusion_lat": 0.0, "lat": 38.90665933333333, "name": "0bf1142e5dd27fffff04afe7fd50e99a", "fusion_lon": 0.0, "bike_id": "0bf1142e5dd27fffff04afe7fd50e99a", "is_disabled": 0, "is_reserved": 0}, {"rental_uris": {"ios": "https://dc.lft.to/lastmile_qr_scan", "android": "https://dc.lft.to/lastmile_qr_scan"}, "lon": -77.03350633333334, "type": "electric_scooter", "fusion_lat": 0.0, "lat": 38.9118905, "name": "ca749b652d4402c8bc4bcbf7482f3f6d", "fusion_lon": 0.0, "bike_id": "ca749b652d4402c8bc4bcbf7482f3f6d", "is_disabled": 0, "is_reserved": 0}, {"rental_uris": {"ios": "https://dc.lft.to/lastmile_qr_scan", "android": "https://dc.lft.to/lastmile_qr_scan"}, "lon": -77.04135683333334, "type": "electric_scooter", "fusion_lat": 0.0, "lat": 38.9236415, "name": "1181e183ca12f7fd664bc4f62c481573", "fusion_lon": 0.0, "bike_id": "1181e183ca12f7fd664bc4f62c481573", "is_disabled": 0, "is_reserved": 0}, {"rental_uris": {"ios": "https://dc.lft.to/lastmile_qr_scan", "android": "https://dc.lft.to/lastmile_qr_scan"}, "lon": -76.9740625, "type": "electric_scooter", "fusion_lat": 0.0, "lat": 38.901596833333336, "name": "2f145ef789ac6cea50aac0a342867fba", "fusion_lon": 0.0, "bike_id": "2f145ef789ac6cea50aac0a342867fba", "is_disabled": 0, "is_reserved": 0}, {"rental_uris": {"ios": "https://dc.lft.to/lastmile_qr_scan", "android": "https://dc.lft.to/lastmile_qr_scan"}, "lon": -77.0218105, "type": "electric_scooter", "fusion_lat": 0.0, "lat": 38.914849333333336, "name": "7e9154dc50952db346465eb62397b37e", "fusion_lon": 0.0, "bike_id": "7e9154dc50952db346465eb62397b37e", "is_disabled": 0, "is_reserved": 0}, {"rental_uris": {"ios": "https://dc.lft.to/lastmile_qr_scan", "android": "https://dc.lft.to/lastmile_qr_scan"}, "lon": -77.01625666666666, "type": "electric_bike", "fusion_lat": 0.0, "lat": 38.903387, "name": "e6675b34183619c386cb38978266d0a6", "fusion_lon": 0.0, "bike_id": "e6675b34183619c386cb38978266d0a6", "is_disabled": 0, "is_reserved": 0}, {"rental_uris": {"ios": "https://dc.lft.to/lastmile_qr_scan", "android": "https://dc.lft.to/lastmile_qr_scan"}, "lon": -77.0179155, "type": "electric_scooter", "fusion_lat": 0.0, "lat": 38.89238483333333, "name": "d9db3a79dc6ed8335ed9c367f98ee310", "fusion_lon": 0.0, "bike_id": "d9db3a79dc6ed8335ed9c367f98ee310", "is_disabled": 0, "is_reserved": 0}, {"rental_uris": {"ios": "https://dc.lft.to/lastmile_qr_scan", "android": "https://dc.lft.to/lastmile_qr_scan"}, "lon": -77.00252766666667, "type": "electric_scooter", "fusion_lat": 0.0, "lat": 38.911824333333335, "name": "29369b4fbe202cfece20c3938de64047", "fusion_lon": 0.0, "bike_id": "29369b4fbe202cfece20c3938de64047", "is_disabled": 0, "is_reserved": 0}, {"rental_uris": {"ios": "https://dc.lft.to/lastmile_qr_scan", "android": "https://dc.lft.to/lastmile_qr_scan"}, "lon": -76.93721616666667, "type": "electric_scooter", "fusion_lat": 0.0, "lat": 38.89590066666667, "name": "c6841eedc81f0bd18dff3bed11880012", "fusion_lon": 0.0, "bike_id": "c6841eedc81f0bd18dff3bed11880012", "is_disabled": 0, "is_reserved": 0}, {"rental_uris": {"ios": "https://dc.lft.to/lastmile_qr_scan", "android": "https://dc.lft.to/lastmile_qr_scan"}, "lon": -76.97494133333333, "type": "electric_bike", "fusion_lat": 0.0, "lat": 38.920007, "name": "03dd3d99636506238b705920083525ba", "fusion_lon": 0.0, "bike_id": "03dd3d99636506238b705920083525ba", "is_disabled": 0, "is_reserved": 0}, {"rental_uris": {"ios": "https://dc.lft.to/lastmile_qr_scan", "android": "https://dc.lft.to/lastmile_qr_scan"}, "lon": -77.03989166666666, "type": "electric_scooter", "fusion_lat": 0.0, "lat": 38.9036845, "name": "06d4bc504c257c50b1209a220ec548c6", "fusion_lon": 0.0, "bike_id": "06d4bc504c257c50b1209a220ec548c6", "is_disabled": 0, "is_reserved": 0}, {"rental_uris": {"ios": "https://dc.lft.to/lastmile_qr_scan", "android": "https://dc.lft.to/lastmile_qr_scan"}, "lon": -77.041783, "type": "electric_scooter", "fusion_lat": 0.0, "lat": 38.9054465, "name": "5d3d7cbefc52e7aca191b41168b65f48", "fusion_lon": 0.0, "bike_id": "5d3d7cbefc52e7aca191b41168b65f48", "is_disabled": 0, "is_reserved": 0}, {"rental_uris": {"ios": "https://dc.lft.to/lastmile_qr_scan", "android": "https://dc.lft.to/lastmile_qr_scan"}, "lon": -76.97329066666667, "type": "electric_scooter", "fusion_lat": 0.0, "lat": 38.91771633333333, "name": "da3129d1e2d9c83a7e29483a9250cbb9", "fusion_lon": 0.0, "bike_id": "da3129d1e2d9c83a7e29483a9250cbb9", "is_disabled": 0, "is_reserved": 0}, {"rental_uris": {"ios": "https://dc.lft.to/lastmile_qr_scan", "android": "https://dc.lft.to/lastmile_qr_scan"}, "lon": -77.05724533333333, "type": "electric_scooter", "fusion_lat": 0.0, "lat": 38.905313666666665, "name": "06ff35cde66ca30acbcbe381ff843894", "fusion_lon": 0.0, "bike_id": "06ff35cde66ca30acbcbe381ff843894", "is_disabled": 0, "is_reserved": 0}, {"rental_uris": {"ios": "https://dc.lft.to/lastmile_qr_scan", "android": "https://dc.lft.to/lastmile_qr_scan"}, "lon": -77.02961233333333, "type": "electric_scooter", "fusion_lat": 0.0, "lat": 38.9226515, "name": "f1c9d61eb3afb47ac17fe08f816994d5", "fusion_lon": 0.0, "bike_id": "f1c9d61eb3afb47ac17fe08f816994d5", "is_disabled": 0, "is_reserved": 0}, {"rental_uris": {"ios": "https://dc.lft.to/lastmile_qr_scan", "android": "https://dc.lft.to/lastmile_qr_scan"}, "lon": -77.03154983333333, "type": "electric_scooter", "fusion_lat": 0.0, "lat": 38.945243833333336, "name": "c08a9645ccf507c25c1d66612ecebdd0", "fusion_lon": 0.0, "bike_id": "c08a9645ccf507c25c1d66612ecebdd0", "is_disabled": 0, "is_reserved": 0}, {"rental_uris": {"ios": "https://dc.lft.to/lastmile_qr_scan", "android": "https://dc.lft.to/lastmile_qr_scan"}, "lon": -77.03993216666667, "type": "electric_scooter", "fusion_lat": 0.0, "lat": 38.898912333333335, "name": "7a171eea7a37b9ac85ba9111fa5f2d7f", "fusion_lon": 0.0, "bike_id": "7a171eea7a37b9ac85ba9111fa5f2d7f", "is_disabled": 0, "is_reserved": 0}, {"rental_uris": {"ios": "https://dc.lft.to/lastmile_qr_scan", "android": "https://dc.lft.to/lastmile_qr_scan"}, "lon": -76.9962025, "type": "electric_scooter", "fusion_lat": 0.0, "lat": 38.8855185, "name": "a70f8fa968a20ff1babb98ff65c6ea47", "fusion_lon": 0.0, "bike_id": "a70f8fa968a20ff1babb98ff65c6ea47", "is_disabled": 0, "is_reserved": 0}, {"rental_uris": {"ios": "https://dc.lft.to/lastmile_qr_scan", "android": "https://dc.lft.to/lastmile_qr_scan"}, "lon": -77.044819, "type": "electric_scooter", "fusion_lat": 0.0, "lat": 38.90939733333333, "name": "a25f13498b307d8a538b288c2e969caf", "fusion_lon": 0.0, "bike_id": "a25f13498b307d8a538b288c2e969caf", "is_disabled": 0, "is_reserved": 0}, {"rental_uris": {"ios": "https://dc.lft.to/lastmile_qr_scan", "android": "https://dc.lft.to/lastmile_qr_scan"}, "lon": -77.02159283333333, "type": "electric_scooter", "fusion_lat": 0.0, "lat": 38.897494, "name": "1ee708de8822ecf34220955edd3d4faa", "fusion_lon": 0.0, "bike_id": "1ee708de8822ecf34220955edd3d4faa", "is_disabled": 0, "is_reserved": 0}, {"rental_uris": {"ios": "https://dc.lft.to/lastmile_qr_scan", "android": "https://dc.lft.to/lastmile_qr_scan"}, "lon": -77.05512166666666, "type": "electric_scooter", "fusion_lat": 0.0, "lat": 38.929998166666664, "name": "e6e3f346e7457f66d3b0a29d34f3389b", "fusion_lon": 0.0, "bike_id": "e6e3f346e7457f66d3b0a29d34f3389b", "is_disabled": 0, "is_reserved": 0}, {"rental_uris": {"ios": "https://dc.lft.to/lastmile_qr_scan", "android": "https://dc.lft.to/lastmile_qr_scan"}, "lon": -77.03352566666666, "type": "electric_scooter", "fusion_lat": 0.0, "lat": 38.8953315, "name": "7c50637e3d0484ecc44d30efcf6e179c", "fusion_lon": 0.0, "bike_id": "7c50637e3d0484ecc44d30efcf6e179c", "is_disabled": 0, "is_reserved": 0}, {"rental_uris": {"ios": "https://dc.lft.to/lastmile_qr_scan", "android": "https://dc.lft.to/lastmile_qr_scan"}, "lon": -77.00578266666666, "type": "electric_scooter", "fusion_lat": 0.0, "lat": 38.84497133333333, "name": "eeeb813f7cb5c3e62bdf9fb20322ec78", "fusion_lon": 0.0, "bike_id": "eeeb813f7cb5c3e62bdf9fb20322ec78", "is_disabled": 0, "is_reserved": 0}, {"rental_uris": {"ios": "https://dc.lft.to/lastmile_qr_scan", "android": "https://dc.lft.to/lastmile_qr_scan"}, "lon": -77.02279616666667, "type": "electric_scooter", "fusion_lat": 0.0, "lat": 38.87832566666667, "name": "60d7c6e1cd06f1bd2abe9a336d06ac69", "fusion_lon": 0.0, "bike_id": "60d7c6e1cd06f1bd2abe9a336d06ac69", "is_disabled": 0, "is_reserved": 0}, {"rental_uris": {"ios": "https://dc.lft.to/lastmile_qr_scan", "android": "https://dc.lft.to/lastmile_qr_scan"}, "lon": -77.0757815, "type": "electric_bike", "fusion_lat": 0.0, "lat": 38.906884, "name": "588b10ab25eb00f0d0b01695267702b1", "fusion_lon": 0.0, "bike_id": "588b10ab25eb00f0d0b01695267702b1", "is_disabled": 0, "is_reserved": 0}, {"rental_uris": {"ios": "https://dc.lft.to/lastmile_qr_scan", "android": "https://dc.lft.to/lastmile_qr_scan"}, "lon": -77.02227466666666, "type": "electric_scooter", "fusion_lat": 0.0, "lat": 38.92099266666666, "name": "56336bc57c2abed6b646562d45ac10c8", "fusion_lon": 0.0, "bike_id": "56336bc57c2abed6b646562d45ac10c8", "is_disabled": 0, "is_reserved": 0}, {"rental_uris": {"ios": "https://dc.lft.to/lastmile_qr_scan", "android": "https://dc.lft.to/lastmile_qr_scan"}, "lon": -77.0319755, "type": "electric_scooter", "fusion_lat": 0.0, "lat": 38.92128066666667, "name": "c390734c8a832872584e495d7567e224", "fusion_lon": 0.0, "bike_id": "c390734c8a832872584e495d7567e224", "is_disabled": 0, "is_reserved": 0}, {"rental_uris": {"ios": "https://dc.lft.to/lastmile_qr_scan", "android": "https://dc.lft.to/lastmile_qr_scan"}, "lon": -77.03965783333334, "type": "electric_bike", "fusion_lat": 0.0, "lat": 38.8051945, "name": "e010d9c47f02368ebe718553141f3c3f", "fusion_lon": 0.0, "bike_id": "e010d9c47f02368ebe718553141f3c3f", "is_disabled": 0, "is_reserved": 0}, {"rental_uris": {"ios": "https://dc.lft.to/lastmile_qr_scan", "android": "https://dc.lft.to/lastmile_qr_scan"}, "lon": -77.0893835, "type": "electric_bike", "fusion_lat": 0.0, "lat": 38.841019, "name": "e59a4b0beadf68774db42d321d99dc56", "fusion_lon": 0.0, "bike_id": "e59a4b0beadf68774db42d321d99dc56", "is_disabled": 0, "is_reserved": 0}, {"rental_uris": {"ios": "https://dc.lft.to/lastmile_qr_scan", "android": "https://dc.lft.to/lastmile_qr_scan"}, "lon": -76.995892, "type": "electric_scooter", "fusion_lat": 0.0, "lat": 38.88740633333333, "name": "84810de94b1a12f3622c6d7d8b0f37de", "fusion_lon": 0.0, "bike_id": "84810de94b1a12f3622c6d7d8b0f37de", "is_disabled": 0, "is_reserved": 0}, {"rental_uris": {"ios": "https://dc.lft.to/lastmile_qr_scan", "android": "https://dc.lft.to/lastmile_qr_scan"}, "lon": -77.0302635, "type": "electric_scooter", "fusion_lat": 0.0, "lat": 38.922473, "name": "ed0b5e78536ce39b16a53ff09c542632", "fusion_lon": 0.0, "bike_id": "ed0b5e78536ce39b16a53ff09c542632", "is_disabled": 0, "is_reserved": 0}, {"rental_uris": {"ios": "https://dc.lft.to/lastmile_qr_scan", "android": "https://dc.lft.to/lastmile_qr_scan"}, "lon": -77.03243533333334, "type": "electric_scooter", "fusion_lat": 0.0, "lat": 38.9288775, "name": "bd319bfdf34ad0e03b3ab52f6f2bb5c8", "fusion_lon": 0.0, "bike_id": "bd319bfdf34ad0e03b3ab52f6f2bb5c8", "is_disabled": 0, "is_reserved": 0}, {"rental_uris": {"ios": "https://dc.lft.to/lastmile_qr_scan", "android": "https://dc.lft.to/lastmile_qr_scan"}, "lon": -77.04188666666667, "type": "electric_scooter", "fusion_lat": 0.0, "lat": 38.922039833333336, "name": "4f40fc584c53753fd8c357ccbd3cf7ea", "fusion_lon": 0.0, "bike_id": "4f40fc584c53753fd8c357ccbd3cf7ea", "is_disabled": 0, "is_reserved": 0}, {"rental_uris": {"ios": "https://dc.lft.to/lastmile_qr_scan", "android": "https://dc.lft.to/lastmile_qr_scan"}, "lon": -77.026182, "type": "electric_scooter", "fusion_lat": 0.0, "lat": 38.951892666666666, "name": "21547f47dc7528b9a787576b0d189198", "fusion_lon": 0.0, "bike_id": "21547f47dc7528b9a787576b0d189198", "is_disabled": 0, "is_reserved": 0}, {"rental_uris": {"ios": "https://dc.lft.to/lastmile_qr_scan", "android": "https://dc.lft.to/lastmile_qr_scan"}, "lon": -77.03963283333333, "type": "electric_scooter", "fusion_lat": 0.0, "lat": 38.9260645, "name": "7693b9b72cf585c6f58907c9a421208c", "fusion_lon": 0.0, "bike_id": "7693b9b72cf585c6f58907c9a421208c", "is_disabled": 0, "is_reserved": 0}, {"rental_uris": {"ios": "https://dc.lft.to/lastmile_qr_scan", "android": "https://dc.lft.to/lastmile_qr_scan"}, "lon": -77.02980933333333, "type": "electric_scooter", "fusion_lat": 0.0, "lat": 38.958272666666666, "name": "8841e9fd5e81f230657b6a2a52dae904", "fusion_lon": 0.0, "bike_id": "8841e9fd5e81f230657b6a2a52dae904", "is_disabled": 0, "is_reserved": 0}, {"rental_uris": {"ios": "https://dc.lft.to/lastmile_qr_scan", "android": "https://dc.lft.to/lastmile_qr_scan"}, "lon": -77.0235875, "type": "electric_scooter", "fusion_lat": 0.0, "lat": 38.93193566666667, "name": "4a254c56a6eacaa265c16a3e27ff7ee2", "fusion_lon": 0.0, "bike_id": "4a254c56a6eacaa265c16a3e27ff7ee2", "is_disabled": 0, "is_reserved": 0}, {"rental_uris": {"ios": "https://dc.lft.to/lastmile_qr_scan", "android": "https://dc.lft.to/lastmile_qr_scan"}, "lon": -77.03854783333334, "type": "electric_scooter", "fusion_lat": 0.0, "lat": 38.931270833333336, "name": "8a27b3e67f8cf73a78982173225f4580", "fusion_lon": 0.0, "bike_id": "8a27b3e67f8cf73a78982173225f4580", "is_disabled": 0, "is_reserved": 0}, {"rental_uris": {"ios": "https://dc.lft.to/lastmile_qr_scan", "android": "https://dc.lft.to/lastmile_qr_scan"}, "lon": -76.93887383333333, "type": "electric_bike", "fusion_lat": 0.0, "lat": 38.88326766666667, "name": "a9480d67115bac3317a0d69b00fd20d1", "fusion_lon": 0.0, "bike_id": "a9480d67115bac3317a0d69b00fd20d1", "is_disabled": 0, "is_reserved": 0}, {"rental_uris": {"ios": "https://dc.lft.to/lastmile_qr_scan", "android": "https://dc.lft.to/lastmile_qr_scan"}, "lon": -77.029902, "type": "electric_scooter", "fusion_lat": 0.0, "lat": 38.956277, "name": "7a37d3718c3ff23d997e0a260e4f7a47", "fusion_lon": 0.0, "bike_id": "7a37d3718c3ff23d997e0a260e4f7a47", "is_disabled": 0, "is_reserved": 0}, {"rental_uris": {"ios": "https://dc.lft.to/lastmile_qr_scan", "android": "https://dc.lft.to/lastmile_qr_scan"}, "lon": -77.0266785, "type": "electric_scooter", "fusion_lat": 0.0, "lat": 38.9754275, "name": "ff99a5363213af1aa837dd442df76089", "fusion_lon": 0.0, "bike_id": "ff99a5363213af1aa837dd442df76089", "is_disabled": 0, "is_reserved": 0}, {"rental_uris": {"ios": "https://dc.lft.to/lastmile_qr_scan", "android": "https://dc.lft.to/lastmile_qr_scan"}, "lon": -77.0549995, "type": "electric_scooter", "fusion_lat": 0.0, "lat": 38.929732333333334, "name": "7caf223768988d853646ad20a796d32e", "fusion_lon": 0.0, "bike_id": "7caf223768988d853646ad20a796d32e", "is_disabled": 0, "is_reserved": 0}, {"rental_uris": {"ios": "https://dc.lft.to/lastmile_qr_scan", "android": "https://dc.lft.to/lastmile_qr_scan"}, "lon": -77.01792433333334, "type": "electric_scooter", "fusion_lat": 0.0, "lat": 38.91466783333333, "name": "9e42bbef0ab09c04316ccf4b8e04b1e0", "fusion_lon": 0.0, "bike_id": "9e42bbef0ab09c04316ccf4b8e04b1e0", "is_disabled": 0, "is_reserved": 0}, {"rental_uris": {"ios": "https://dc.lft.to/lastmile_qr_scan", "android": "https://dc.lft.to/lastmile_qr_scan"}, "lon": -77.09671766666666, "type": "electric_scooter", "fusion_lat": 0.0, "lat": 38.9176435, "name": "e9a6fb065b0b677054e2477204c84cb5", "fusion_lon": 0.0, "bike_id": "e9a6fb065b0b677054e2477204c84cb5", "is_disabled": 0, "is_reserved": 0}, {"rental_uris": {"ios": "https://dc.lft.to/lastmile_qr_scan", "android": "https://dc.lft.to/lastmile_qr_scan"}, "lon": -77.042593, "type": "electric_scooter", "fusion_lat": 0.0, "lat": 38.920607833333335, "name": "50d4e51efcaf5c76755ae52311488ce0", "fusion_lon": 0.0, "bike_id": "50d4e51efcaf5c76755ae52311488ce0", "is_disabled": 0, "is_reserved": 0}, {"rental_uris": {"ios": "https://dc.lft.to/lastmile_qr_scan", "android": "https://dc.lft.to/lastmile_qr_scan"}, "lon": -76.97701616666667, "type": "electric_scooter", "fusion_lat": 0.0, "lat": 38.90252366666667, "name": "a10ea4e9a0e143cf6621f34c21c4f411", "fusion_lon": 0.0, "bike_id": "a10ea4e9a0e143cf6621f34c21c4f411", "is_disabled": 0, "is_reserved": 0}, {"rental_uris": {"ios": "https://dc.lft.to/lastmile_qr_scan", "android": "https://dc.lft.to/lastmile_qr_scan"}, "lon": -76.985605, "type": "electric_scooter", "fusion_lat": 0.0, "lat": 38.899523, "name": "ebb75436035c921479b80a54fb78f001", "fusion_lon": 0.0, "bike_id": "ebb75436035c921479b80a54fb78f001", "is_disabled": 0, "is_reserved": 0}, {"rental_uris": {"ios": "https://dc.lft.to/lastmile_qr_scan", "android": "https://dc.lft.to/lastmile_qr_scan"}, "lon": -76.9888235, "type": "electric_scooter", "fusion_lat": 0.0, "lat": 38.86656383333333, "name": "8fb0e14965bb495bd3b76a301ac22e40", "fusion_lon": 0.0, "bike_id": "8fb0e14965bb495bd3b76a301ac22e40", "is_disabled": 0, "is_reserved": 0}, {"rental_uris": {"ios": "https://dc.lft.to/lastmile_qr_scan", "android": "https://dc.lft.to/lastmile_qr_scan"}, "lon": -77.0344595, "type": "electric_scooter", "fusion_lat": 0.0, "lat": 38.909962666666665, "name": "dee8024fc4cadab3378b9e48f1a7a91a", "fusion_lon": 0.0, "bike_id": "dee8024fc4cadab3378b9e48f1a7a91a", "is_disabled": 0, "is_reserved": 0}, {"rental_uris": {"ios": "https://dc.lft.to/lastmile_qr_scan", "android": "https://dc.lft.to/lastmile_qr_scan"}, "lon": -77.02044666666667, "type": "electric_scooter", "fusion_lat": 0.0, "lat": 38.9155455, "name": "3db525992aa2c4b0dac098288b52b482", "fusion_lon": 0.0, "bike_id": "3db525992aa2c4b0dac098288b52b482", "is_disabled": 0, "is_reserved": 0}, {"rental_uris": {"ios": "https://dc.lft.to/lastmile_qr_scan", "android": "https://dc.lft.to/lastmile_qr_scan"}, "lon": -77.04313533333334, "type": "electric_scooter", "fusion_lat": 0.0, "lat": 38.892197, "name": "507ed453776431c67a67bb703b9d223b", "fusion_lon": 0.0, "bike_id": "507ed453776431c67a67bb703b9d223b", "is_disabled": 0, "is_reserved": 0}, {"rental_uris": {"ios": "https://dc.lft.to/lastmile_qr_scan", "android": "https://dc.lft.to/lastmile_qr_scan"}, "lon": -76.99029866666666, "type": "electric_scooter", "fusion_lat": 0.0, "lat": 38.8887745, "name": "8b1dc37ae14c3c9ea9c8d5c3de8a9f75", "fusion_lon": 0.0, "bike_id": "8b1dc37ae14c3c9ea9c8d5c3de8a9f75", "is_disabled": 0, "is_reserved": 0}, {"rental_uris": {"ios": "https://dc.lft.to/lastmile_qr_scan", "android": "https://dc.lft.to/lastmile_qr_scan"}, "lon": -77.0436135, "type": "electric_scooter", "fusion_lat": 0.0, "lat": 38.908379833333335, "name": "ac7c5d9921a724197602a7d7075b73c6", "fusion_lon": 0.0, "bike_id": "ac7c5d9921a724197602a7d7075b73c6", "is_disabled": 0, "is_reserved": 0}, {"rental_uris": {"ios": "https://dc.lft.to/lastmile_qr_scan", "android": "https://dc.lft.to/lastmile_qr_scan"}, "lon": -76.949695, "type": "electric_scooter", "fusion_lat": 0.0, "lat": 38.89372566666667, "name": "2cb1b4dd47478aed92d852b83b32c89b", "fusion_lon": 0.0, "bike_id": "2cb1b4dd47478aed92d852b83b32c89b", "is_disabled": 0, "is_reserved": 0}, {"rental_uris": {"ios": "https://dc.lft.to/lastmile_qr_scan", "android": "https://dc.lft.to/lastmile_qr_scan"}, "lon": -77.0021025, "type": "electric_scooter", "fusion_lat": 0.0, "lat": 38.902219333333335, "name": "f408fd5ea7aaaedacff4d10a56954e84", "fusion_lon": 0.0, "bike_id": "f408fd5ea7aaaedacff4d10a56954e84", "is_disabled": 0, "is_reserved": 0}, {"rental_uris": {"ios": "https://dc.lft.to/lastmile_qr_scan", "android": "https://dc.lft.to/lastmile_qr_scan"}, "lon": -77.12045066666667, "type": "electric_bike", "fusion_lat": 0.0, "lat": 38.855123166666665, "name": "ff9fe2864743f7d40f1c98f14ba574f1", "fusion_lon": 0.0, "bike_id": "ff9fe2864743f7d40f1c98f14ba574f1", "is_disabled": 0, "is_reserved": 0}, {"rental_uris": {"ios": "https://dc.lft.to/lastmile_qr_scan", "android": "https://dc.lft.to/lastmile_qr_scan"}, "lon": -76.93177166666666, "type": "electric_scooter", "fusion_lat": 0.0, "lat": 38.89884683333333, "name": "a4637aa35a95f4537379cb6af16eb560", "fusion_lon": 0.0, "bike_id": "a4637aa35a95f4537379cb6af16eb560", "is_disabled": 0, "is_reserved": 0}, {"rental_uris": {"ios": "https://dc.lft.to/lastmile_qr_scan", "android": "https://dc.lft.to/lastmile_qr_scan"}, "lon": -77.046592, "type": "electric_scooter", "fusion_lat": 0.0, "lat": 38.89333666666667, "name": "72fbeadf6ab8d2ef2d6cff974bf766dd", "fusion_lon": 0.0, "bike_id": "72fbeadf6ab8d2ef2d6cff974bf766dd", "is_disabled": 0, "is_reserved": 0}, {"rental_uris": {"ios": "https://dc.lft.to/lastmile_qr_scan", "android": "https://dc.lft.to/lastmile_qr_scan"}, "lon": -77.05163716666667, "type": "electric_scooter", "fusion_lat": 0.0, "lat": 38.897687833333336, "name": "2987f64895eb90aefc3f4cc5e1e8fb10", "fusion_lon": 0.0, "bike_id": "2987f64895eb90aefc3f4cc5e1e8fb10", "is_disabled": 0, "is_reserved": 0}, {"rental_uris": {"ios": "https://dc.lft.to/lastmile_qr_scan", "android": "https://dc.lft.to/lastmile_qr_scan"}, "lon": -77.03926866666667, "type": "electric_scooter", "fusion_lat": 0.0, "lat": 38.92310916666667, "name": "7ac4f2e08e58862bff6303ca00da9c85", "fusion_lon": 0.0, "bike_id": "7ac4f2e08e58862bff6303ca00da9c85", "is_disabled": 0, "is_reserved": 0}, {"rental_uris": {"ios": "https://dc.lft.to/lastmile_qr_scan", "android": "https://dc.lft.to/lastmile_qr_scan"}, "lon": -77.00603216666667, "type": "electric_scooter", "fusion_lat": 0.0, "lat": 38.877076333333335, "name": "612527558b39d7268b2e2d7822d6c1de", "fusion_lon": 0.0, "bike_id": "612527558b39d7268b2e2d7822d6c1de", "is_disabled": 0, "is_reserved": 0}, {"rental_uris": {"ios": "https://dc.lft.to/lastmile_qr_scan", "android": "https://dc.lft.to/lastmile_qr_scan"}, "lon": -77.02373316666667, "type": "electric_scooter", "fusion_lat": 0.0, "lat": 38.89923533333334, "name": "822517e92ae3182454d09ce0b97e6697", "fusion_lon": 0.0, "bike_id": "822517e92ae3182454d09ce0b97e6697", "is_disabled": 0, "is_reserved": 0}, {"rental_uris": {"ios": "https://dc.lft.to/lastmile_qr_scan", "android": "https://dc.lft.to/lastmile_qr_scan"}, "lon": -77.04336566666667, "type": "electric_scooter", "fusion_lat": 0.0, "lat": 38.896563, "name": "6c8de3ac3f85cf93ef1c52bb1fa070c7", "fusion_lon": 0.0, "bike_id": "6c8de3ac3f85cf93ef1c52bb1fa070c7", "is_disabled": 0, "is_reserved": 0}, {"rental_uris": {"ios": "https://dc.lft.to/lastmile_qr_scan", "android": "https://dc.lft.to/lastmile_qr_scan"}, "lon": -77.04372316666667, "type": "electric_scooter", "fusion_lat": 0.0, "lat": 38.91789266666667, "name": "422b01de5bb797b140e3929e4839504c", "fusion_lon": 0.0, "bike_id": "422b01de5bb797b140e3929e4839504c", "is_disabled": 0, "is_reserved": 0}, {"rental_uris": {"ios": "https://dc.lft.to/lastmile_qr_scan", "android": "https://dc.lft.to/lastmile_qr_scan"}, "lon": -77.03560183333333, "type": "electric_bike", "fusion_lat": 0.0, "lat": 38.96471483333333, "name": "3b41c6b31e469e746c653955f4fc78d3", "fusion_lon": 0.0, "bike_id": "3b41c6b31e469e746c653955f4fc78d3", "is_disabled": 0, "is_reserved": 0}, {"rental_uris": {"ios": "https://dc.lft.to/lastmile_qr_scan", "android": "https://dc.lft.to/lastmile_qr_scan"}, "lon": -76.9997465, "type": "electric_scooter", "fusion_lat": 0.0, "lat": 38.909295166666666, "name": "78fb1d911a4d5beb8c3c83a7431dceb4", "fusion_lon": 0.0, "bike_id": "78fb1d911a4d5beb8c3c83a7431dceb4", "is_disabled": 0, "is_reserved": 0}, {"rental_uris": {"ios": "https://dc.lft.to/lastmile_qr_scan", "android": "https://dc.lft.to/lastmile_qr_scan"}, "lon": -76.98514016666667, "type": "electric_scooter", "fusion_lat": 0.0, "lat": 38.906072, "name": "307f683258a60bffda872acaa78c681f", "fusion_lon": 0.0, "bike_id": "307f683258a60bffda872acaa78c681f", "is_disabled": 0, "is_reserved": 0}, {"rental_uris": {"ios": "https://dc.lft.to/lastmile_qr_scan", "android": "https://dc.lft.to/lastmile_qr_scan"}, "lon": -77.0417145, "type": "electric_scooter", "fusion_lat": 0.0, "lat": 38.919369, "name": "24eda522dc4bd54bdbf5b3e7a6776827", "fusion_lon": 0.0, "bike_id": "24eda522dc4bd54bdbf5b3e7a6776827", "is_disabled": 0, "is_reserved": 0}, {"rental_uris": {"ios": "https://dc.lft.to/lastmile_qr_scan", "android": "https://dc.lft.to/lastmile_qr_scan"}, "lon": -77.018304, "type": "electric_scooter", "fusion_lat": 0.0, "lat": 38.89966883333334, "name": "99c2fdd992b61638589424bf117acd7d", "fusion_lon": 0.0, "bike_id": "99c2fdd992b61638589424bf117acd7d", "is_disabled": 0, "is_reserved": 0}, {"rental_uris": {"ios": "https://dc.lft.to/lastmile_qr_scan", "android": "https://dc.lft.to/lastmile_qr_scan"}, "lon": -77.02618216666667, "type": "electric_scooter", "fusion_lat": 0.0, "lat": 38.9004845, "name": "316db17535da1ec0494eaa87c3971612", "fusion_lon": 0.0, "bike_id": "316db17535da1ec0494eaa87c3971612", "is_disabled": 0, "is_reserved": 0}, {"rental_uris": {"ios": "https://dc.lft.to/lastmile_qr_scan", "android": "https://dc.lft.to/lastmile_qr_scan"}, "lon": -76.99822166666667, "type": "electric_scooter", "fusion_lat": 0.0, "lat": 38.88871966666667, "name": "dadcde3a59f80e40e7cee9d13905b852", "fusion_lon": 0.0, "bike_id": "dadcde3a59f80e40e7cee9d13905b852", "is_disabled": 0, "is_reserved": 0}, {"rental_uris": {"ios": "https://dc.lft.to/lastmile_qr_scan", "android": "https://dc.lft.to/lastmile_qr_scan"}, "lon": -77.03220383333333, "type": "electric_scooter", "fusion_lat": 0.0, "lat": 38.9181545, "name": "d63efcf2d608a7fdc39d73f8e2b79c32", "fusion_lon": 0.0, "bike_id": "d63efcf2d608a7fdc39d73f8e2b79c32", "is_disabled": 0, "is_reserved": 0}, {"rental_uris": {"ios": "https://dc.lft.to/lastmile_qr_scan", "android": "https://dc.lft.to/lastmile_qr_scan"}, "lon": -77.04657366666666, "type": "electric_scooter", "fusion_lat": 0.0, "lat": 38.8933555, "name": "aa98a2a65fe68029552aef0d1886d522", "fusion_lon": 0.0, "bike_id": "aa98a2a65fe68029552aef0d1886d522", "is_disabled": 0, "is_reserved": 0}, {"rental_uris": {"ios": "https://dc.lft.to/lastmile_qr_scan", "android": "https://dc.lft.to/lastmile_qr_scan"}, "lon": -77.06599516666667, "type": "electric_scooter", "fusion_lat": 0.0, "lat": 38.905188333333335, "name": "d7ab8cdaa82884a33610b7e320cf9be4", "fusion_lon": 0.0, "bike_id": "d7ab8cdaa82884a33610b7e320cf9be4", "is_disabled": 0, "is_reserved": 0}, {"rental_uris": {"ios": "https://dc.lft.to/lastmile_qr_scan", "android": "https://dc.lft.to/lastmile_qr_scan"}, "lon": -77.04271233333333, "type": "electric_scooter", "fusion_lat": 0.0, "lat": 38.902746666666665, "name": "07e389cd28b96030338c4b75d2467e26", "fusion_lon": 0.0, "bike_id": "07e389cd28b96030338c4b75d2467e26", "is_disabled": 0, "is_reserved": 0}, {"rental_uris": {"ios": "https://dc.lft.to/lastmile_qr_scan", "android": "https://dc.lft.to/lastmile_qr_scan"}, "lon": -76.94880516666667, "type": "electric_scooter", "fusion_lat": 0.0, "lat": 38.89498566666666, "name": "080a58ff91847566ec64c8cfc0037c47", "fusion_lon": 0.0, "bike_id": "080a58ff91847566ec64c8cfc0037c47", "is_disabled": 0, "is_reserved": 0}, {"rental_uris": {"ios": "https://dc.lft.to/lastmile_qr_scan", "android": "https://dc.lft.to/lastmile_qr_scan"}, "lon": -77.0512265, "type": "electric_scooter", "fusion_lat": 0.0, "lat": 38.92356133333333, "name": "6b5944dc58e2d90d40a21471e3bf52fc", "fusion_lon": 0.0, "bike_id": "6b5944dc58e2d90d40a21471e3bf52fc", "is_disabled": 0, "is_reserved": 0}, {"rental_uris": {"ios": "https://dc.lft.to/lastmile_qr_scan", "android": "https://dc.lft.to/lastmile_qr_scan"}, "lon": -77.10686933333334, "type": "electric_bike", "fusion_lat": 0.0, "lat": 38.93580083333333, "name": "0cb346c13f3e3333e1be5283299bd0df", "fusion_lon": 0.0, "bike_id": "0cb346c13f3e3333e1be5283299bd0df", "is_disabled": 0, "is_reserved": 0}, {"rental_uris": {"ios": "https://dc.lft.to/lastmile_qr_scan", "android": "https://dc.lft.to/lastmile_qr_scan"}, "lon": -77.03265266666666, "type": "electric_scooter", "fusion_lat": 0.0, "lat": 38.93523183333333, "name": "6963d7fd87249e79200b79dd363bdd17", "fusion_lon": 0.0, "bike_id": "6963d7fd87249e79200b79dd363bdd17", "is_disabled": 0, "is_reserved": 0}, {"rental_uris": {"ios": "https://dc.lft.to/lastmile_qr_scan", "android": "https://dc.lft.to/lastmile_qr_scan"}, "lon": -77.00750266666667, "type": "electric_scooter", "fusion_lat": 0.0, "lat": 38.897335166666664, "name": "219f880e7e37fc42f7b32af14549fb99", "fusion_lon": 0.0, "bike_id": "219f880e7e37fc42f7b32af14549fb99", "is_disabled": 0, "is_reserved": 0}, {"rental_uris": {"ios": "https://dc.lft.to/lastmile_qr_scan", "android": "https://dc.lft.to/lastmile_qr_scan"}, "lon": -77.02493016666666, "type": "electric_scooter", "fusion_lat": 0.0, "lat": 38.8973695, "name": "28cd04718f169a406299020c02262320", "fusion_lon": 0.0, "bike_id": "28cd04718f169a406299020c02262320", "is_disabled": 0, "is_reserved": 0}, {"rental_uris": {"ios": "https://dc.lft.to/lastmile_qr_scan", "android": "https://dc.lft.to/lastmile_qr_scan"}, "lon": -77.0664145, "type": "electric_bike", "fusion_lat": 0.0, "lat": 38.82046916666667, "name": "eccb2538bef1f77b2e4415a939b15865", "fusion_lon": 0.0, "bike_id": "eccb2538bef1f77b2e4415a939b15865", "is_disabled": 0, "is_reserved": 0}, {"rental_uris": {"ios": "https://dc.lft.to/lastmile_qr_scan", "android": "https://dc.lft.to/lastmile_qr_scan"}, "lon": -77.04997683333333, "type": "electric_scooter", "fusion_lat": 0.0, "lat": 38.898953666666664, "name": "44de9530005cbfa3cc2ab58a607a8f9c", "fusion_lon": 0.0, "bike_id": "44de9530005cbfa3cc2ab58a607a8f9c", "is_disabled": 0, "is_reserved": 0}, {"rental_uris": {"ios": "https://dc.lft.to/lastmile_qr_scan", "android": "https://dc.lft.to/lastmile_qr_scan"}, "lon": -77.076868, "type": "electric_bike", "fusion_lat": 0.0, "lat": 38.83193516666667, "name": "b3352691e7bc86e489ac2b0405a4274e", "fusion_lon": 0.0, "bike_id": "b3352691e7bc86e489ac2b0405a4274e", "is_disabled": 0, "is_reserved": 0}, {"rental_uris": {"ios": "https://dc.lft.to/lastmile_qr_scan", "android": "https://dc.lft.to/lastmile_qr_scan"}, "lon": -77.029131, "type": "electric_scooter", "fusion_lat": 0.0, "lat": 38.89852583333333, "name": "666e37ad54f82c869c17eef8fe01415f", "fusion_lon": 0.0, "bike_id": "666e37ad54f82c869c17eef8fe01415f", "is_disabled": 0, "is_reserved": 0}, {"rental_uris": {"ios": "https://dc.lft.to/lastmile_qr_scan", "android": "https://dc.lft.to/lastmile_qr_scan"}, "lon": -77.04804433333334, "type": "electric_scooter", "fusion_lat": 0.0, "lat": 38.892200333333335, "name": "2118097aacc5f08fc70441b2af65415e", "fusion_lon": 0.0, "bike_id": "2118097aacc5f08fc70441b2af65415e", "is_disabled": 0, "is_reserved": 0}, {"rental_uris": {"ios": "https://dc.lft.to/lastmile_qr_scan", "android": "https://dc.lft.to/lastmile_qr_scan"}, "lon": -77.11219033333333, "type": "electric_bike", "fusion_lat": 0.0, "lat": 38.828746333333335, "name": "0d8a335cd0427226497407fe91071a47", "fusion_lon": 0.0, "bike_id": "0d8a335cd0427226497407fe91071a47", "is_disabled": 0, "is_reserved": 0}, {"rental_uris": {"ios": "https://dc.lft.to/lastmile_qr_scan", "android": "https://dc.lft.to/lastmile_qr_scan"}, "lon": -77.03349316666667, "type": "electric_scooter", "fusion_lat": 0.0, "lat": 38.892382833333336, "name": "483966d39ed8031e3bb8c157478057cf", "fusion_lon": 0.0, "bike_id": "483966d39ed8031e3bb8c157478057cf", "is_disabled": 0, "is_reserved": 0}, {"rental_uris": {"ios": "https://dc.lft.to/lastmile_qr_scan", "android": "https://dc.lft.to/lastmile_qr_scan"}, "lon": -77.02723366666666, "type": "electric_scooter", "fusion_lat": 0.0, "lat": 38.918175833333336, "name": "552d72432e3b8ec96a4afe7ee5f80e9d", "fusion_lon": 0.0, "bike_id": "552d72432e3b8ec96a4afe7ee5f80e9d", "is_disabled": 0, "is_reserved": 0}, {"rental_uris": {"ios": "https://dc.lft.to/lastmile_qr_scan", "android": "https://dc.lft.to/lastmile_qr_scan"}, "lon": -77.036897, "type": "electric_scooter", "fusion_lat": 0.0, "lat": 38.936461666666666, "name": "3ac46f33094c27d92b855185f2d9e5c6", "fusion_lon": 0.0, "bike_id": "3ac46f33094c27d92b855185f2d9e5c6", "is_disabled": 0, "is_reserved": 0}, {"rental_uris": {"ios": "https://dc.lft.to/lastmile_qr_scan", "android": "https://dc.lft.to/lastmile_qr_scan"}, "lon": -77.04741783333333, "type": "electric_scooter", "fusion_lat": 0.0, "lat": 38.902279166666666, "name": "26c160ea0025ba963ab6563d51500523", "fusion_lon": 0.0, "bike_id": "26c160ea0025ba963ab6563d51500523", "is_disabled": 0, "is_reserved": 0}, {"rental_uris": {"ios": "https://dc.lft.to/lastmile_qr_scan", "android": "https://dc.lft.to/lastmile_qr_scan"}, "lon": -77.11199566666667, "type": "electric_bike", "fusion_lat": 0.0, "lat": 38.81304466666667, "name": "f04bcd19f2ae0730947f0711f60cfbd3", "fusion_lon": 0.0, "bike_id": "f04bcd19f2ae0730947f0711f60cfbd3", "is_disabled": 0, "is_reserved": 0}, {"rental_uris": {"ios": "https://dc.lft.to/lastmile_qr_scan", "android": "https://dc.lft.to/lastmile_qr_scan"}, "lon": -76.9354595, "type": "electric_bike", "fusion_lat": 0.0, "lat": 38.955504833333336, "name": "02e1865672e8798cfeffc8384586cb76", "fusion_lon": 0.0, "bike_id": "02e1865672e8798cfeffc8384586cb76", "is_disabled": 0, "is_reserved": 0}, {"rental_uris": {"ios": "https://dc.lft.to/lastmile_qr_scan", "android": "https://dc.lft.to/lastmile_qr_scan"}, "lon": -77.03255433333334, "type": "electric_scooter", "fusion_lat": 0.0, "lat": 38.929302, "name": "1b5aa28db2c7a945bda1877b57fa1bba", "fusion_lon": 0.0, "bike_id": "1b5aa28db2c7a945bda1877b57fa1bba", "is_disabled": 0, "is_reserved": 0}, {"rental_uris": {"ios": "https://dc.lft.to/lastmile_qr_scan", "android": "https://dc.lft.to/lastmile_qr_scan"}, "lon": -77.122655, "type": "electric_bike", "fusion_lat": 0.0, "lat": 38.891850166666664, "name": "a56a17d0ff4d36a800ad8b4da12e5c3c", "fusion_lon": 0.0, "bike_id": "a56a17d0ff4d36a800ad8b4da12e5c3c", "is_disabled": 0, "is_reserved": 0}, {"rental_uris": {"ios": "https://dc.lft.to/lastmile_qr_scan", "android": "https://dc.lft.to/lastmile_qr_scan"}, "lon": -76.9575935, "type": "electric_scooter", "fusion_lat": 0.0, "lat": 38.884269, "name": "afd59a3e0bcfa3c188f603a9f7a16f11", "fusion_lon": 0.0, "bike_id": "afd59a3e0bcfa3c188f603a9f7a16f11", "is_disabled": 0, "is_reserved": 0}, {"rental_uris": {"ios": "https://dc.lft.to/lastmile_qr_scan", "android": "https://dc.lft.to/lastmile_qr_scan"}, "lon": -77.02402866666667, "type": "electric_scooter", "fusion_lat": 0.0, "lat": 38.91598583333333, "name": "6533b6073632143ba7e3919eee3e4f39", "fusion_lon": 0.0, "bike_id": "6533b6073632143ba7e3919eee3e4f39", "is_disabled": 0, "is_reserved": 0}, {"rental_uris": {"ios": "https://dc.lft.to/lastmile_qr_scan", "android": "https://dc.lft.to/lastmile_qr_scan"}, "lon": -76.99509133333333, "type": "electric_scooter", "fusion_lat": 0.0, "lat": 38.88495566666667, "name": "7b8bd0356a45ed7b83bb02446c2b533e", "fusion_lon": 0.0, "bike_id": "7b8bd0356a45ed7b83bb02446c2b533e", "is_disabled": 0, "is_reserved": 0}, {"rental_uris": {"ios": "https://dc.lft.to/lastmile_qr_scan", "android": "https://dc.lft.to/lastmile_qr_scan"}, "lon": -77.0490085, "type": "electric_bike", "fusion_lat": 0.0, "lat": 38.87491216666667, "name": "6fdfdd86947e90a139f947bf8c551ac5", "fusion_lon": 0.0, "bike_id": "6fdfdd86947e90a139f947bf8c551ac5", "is_disabled": 0, "is_reserved": 0}, {"rental_uris": {"ios": "https://dc.lft.to/lastmile_qr_scan", "android": "https://dc.lft.to/lastmile_qr_scan"}, "lon": -77.02318916666667, "type": "electric_scooter", "fusion_lat": 0.0, "lat": 38.9168945, "name": "40eb90813996b52a16d37e7526e89f18", "fusion_lon": 0.0, "bike_id": "40eb90813996b52a16d37e7526e89f18", "is_disabled": 0, "is_reserved": 0}, {"rental_uris": {"ios": "https://dc.lft.to/lastmile_qr_scan", "android": "https://dc.lft.to/lastmile_qr_scan"}, "lon": -77.03470566666667, "type": "electric_scooter", "fusion_lat": 0.0, "lat": 38.929880833333335, "name": "e5cfdd0d16fb91e8c7c05a67ea1701a0", "fusion_lon": 0.0, "bike_id": "e5cfdd0d16fb91e8c7c05a67ea1701a0", "is_disabled": 0, "is_reserved": 0}, {"rental_uris": {"ios": "https://dc.lft.to/lastmile_qr_scan", "android": "https://dc.lft.to/lastmile_qr_scan"}, "lon": -76.9904725, "type": "electric_scooter", "fusion_lat": 0.0, "lat": 38.901378, "name": "51040a852509c920d99a1bb28e91fa6d", "fusion_lon": 0.0, "bike_id": "51040a852509c920d99a1bb28e91fa6d", "is_disabled": 0, "is_reserved": 0}, {"rental_uris": {"ios": "https://dc.lft.to/lastmile_qr_scan", "android": "https://dc.lft.to/lastmile_qr_scan"}, "lon": -77.02186733333333, "type": "electric_scooter", "fusion_lat": 0.0, "lat": 38.910252166666666, "name": "dfb7a0f65cacfd8ad27c47e9f08870b9", "fusion_lon": 0.0, "bike_id": "dfb7a0f65cacfd8ad27c47e9f08870b9", "is_disabled": 0, "is_reserved": 0}, {"rental_uris": {"ios": "https://dc.lft.to/lastmile_qr_scan", "android": "https://dc.lft.to/lastmile_qr_scan"}, "lon": -76.9465395, "type": "electric_scooter", "fusion_lat": 0.0, "lat": 38.898225333333336, "name": "9780eea958cee1bc05e3483a9476435f", "fusion_lon": 0.0, "bike_id": "9780eea958cee1bc05e3483a9476435f", "is_disabled": 0, "is_reserved": 0}, {"rental_uris": {"ios": "https://dc.lft.to/lastmile_qr_scan", "android": "https://dc.lft.to/lastmile_qr_scan"}, "lon": -77.0034635, "type": "electric_scooter", "fusion_lat": 0.0, "lat": 38.89757816666667, "name": "15583d0a98784a9099025a3740867a9f", "fusion_lon": 0.0, "bike_id": "15583d0a98784a9099025a3740867a9f", "is_disabled": 0, "is_reserved": 0}, {"rental_uris": {"ios": "https://dc.lft.to/lastmile_qr_scan", "android": "https://dc.lft.to/lastmile_qr_scan"}, "lon": -76.9865685, "type": "electric_scooter", "fusion_lat": 0.0, "lat": 38.85803333333333, "name": "43fa080363abc660beafeb76f8d16b98", "fusion_lon": 0.0, "bike_id": "43fa080363abc660beafeb76f8d16b98", "is_disabled": 0, "is_reserved": 0}, {"rental_uris": {"ios": "https://dc.lft.to/lastmile_qr_scan", "android": "https://dc.lft.to/lastmile_qr_scan"}, "lon": -77.06325933333333, "type": "electric_scooter", "fusion_lat": 0.0, "lat": 38.904003333333335, "name": "5f6f8d3f65721fe9c8a634eb81c3f21f", "fusion_lon": 0.0, "bike_id": "5f6f8d3f65721fe9c8a634eb81c3f21f", "is_disabled": 0, "is_reserved": 0}, {"rental_uris": {"ios": "https://dc.lft.to/lastmile_qr_scan", "android": "https://dc.lft.to/lastmile_qr_scan"}, "lon": -76.98656666666666, "type": "electric_scooter", "fusion_lat": 0.0, "lat": 38.858038666666666, "name": "6f3c86f169b4056879938954a15229b6", "fusion_lon": 0.0, "bike_id": "6f3c86f169b4056879938954a15229b6", "is_disabled": 0, "is_reserved": 0}, {"rental_uris": {"ios": "https://dc.lft.to/lastmile_qr_scan", "android": "https://dc.lft.to/lastmile_qr_scan"}, "lon": -76.98572466666667, "type": "electric_scooter", "fusion_lat": 0.0, "lat": 38.89887233333334, "name": "de27f895a42e174030981e57d70258ed", "fusion_lon": 0.0, "bike_id": "de27f895a42e174030981e57d70258ed", "is_disabled": 0, "is_reserved": 0}, {"rental_uris": {"ios": "https://dc.lft.to/lastmile_qr_scan", "android": "https://dc.lft.to/lastmile_qr_scan"}, "lon": -77.10030966666666, "type": "electric_bike", "fusion_lat": 0.0, "lat": 38.99061616666667, "name": "c38bac3a3977fae7ae3bb499f5798e8e", "fusion_lon": 0.0, "bike_id": "c38bac3a3977fae7ae3bb499f5798e8e", "is_disabled": 0, "is_reserved": 0}, {"rental_uris": {"ios": "https://dc.lft.to/lastmile_qr_scan", "android": "https://dc.lft.to/lastmile_qr_scan"}, "lon": -76.9995515, "type": "electric_scooter", "fusion_lat": 0.0, "lat": 38.8428515, "name": "1d141348c809c05fdaca422d5325c199", "fusion_lon": 0.0, "bike_id": "1d141348c809c05fdaca422d5325c199", "is_disabled": 0, "is_reserved": 0}, {"rental_uris": {"ios": "https://dc.lft.to/lastmile_qr_scan", "android": "https://dc.lft.to/lastmile_qr_scan"}, "lon": -77.03212666666667, "type": "electric_scooter", "fusion_lat": 0.0, "lat": 38.962362666666664, "name": "c108297fe9fa71fad2f58330e214c4da", "fusion_lon": 0.0, "bike_id": "c108297fe9fa71fad2f58330e214c4da", "is_disabled": 0, "is_reserved": 0}, {"rental_uris": {"ios": "https://dc.lft.to/lastmile_qr_scan", "android": "https://dc.lft.to/lastmile_qr_scan"}, "lon": -77.03633, "type": "electric_scooter", "fusion_lat": 0.0, "lat": 38.956404, "name": "65370f4560dd8322eb55958eece5959e", "fusion_lon": 0.0, "bike_id": "65370f4560dd8322eb55958eece5959e", "is_disabled": 0, "is_reserved": 0}, {"rental_uris": {"ios": "https://dc.lft.to/lastmile_qr_scan", "android": "https://dc.lft.to/lastmile_qr_scan"}, "lon": -77.020056, "type": "electric_scooter", "fusion_lat": 0.0, "lat": 38.9026495, "name": "04ee606becd62a2438db5ee89e46bd9c", "fusion_lon": 0.0, "bike_id": "04ee606becd62a2438db5ee89e46bd9c", "is_disabled": 0, "is_reserved": 0}, {"rental_uris": {"ios": "https://dc.lft.to/lastmile_qr_scan", "android": "https://dc.lft.to/lastmile_qr_scan"}, "lon": -77.0173755, "type": "electric_scooter", "fusion_lat": 0.0, "lat": 38.97465666666667, "name": "6d76271a34573b68f298b6c57338490b", "fusion_lon": 0.0, "bike_id": "6d76271a34573b68f298b6c57338490b", "is_disabled": 0, "is_reserved": 0}, {"rental_uris": {"ios": "https://dc.lft.to/lastmile_qr_scan", "android": "https://dc.lft.to/lastmile_qr_scan"}, "lon": -77.03763916666666, "type": "electric_scooter", "fusion_lat": 0.0, "lat": 38.92918616666667, "name": "94cf694996a4b849734b76da00dfe694", "fusion_lon": 0.0, "bike_id": "94cf694996a4b849734b76da00dfe694", "is_disabled": 0, "is_reserved": 0}, {"rental_uris": {"ios": "https://dc.lft.to/lastmile_qr_scan", "android": "https://dc.lft.to/lastmile_qr_scan"}, "lon": -77.043946, "type": "electric_bike", "fusion_lat": 0.0, "lat": 38.929405333333335, "name": "9ecc20fcc955cf34be3aa3152108aea8", "fusion_lon": 0.0, "bike_id": "9ecc20fcc955cf34be3aa3152108aea8", "is_disabled": 0, "is_reserved": 0}, {"rental_uris": {"ios": "https://dc.lft.to/lastmile_qr_scan", "android": "https://dc.lft.to/lastmile_qr_scan"}, "lon": -76.9732935, "type": "electric_bike", "fusion_lat": 0.0, "lat": 38.850609666666664, "name": "d5dedcbea114b95f613b918481125fd3", "fusion_lon": 0.0, "bike_id": "d5dedcbea114b95f613b918481125fd3", "is_disabled": 0, "is_reserved": 0}, {"rental_uris": {"ios": "https://dc.lft.to/lastmile_qr_scan", "android": "https://dc.lft.to/lastmile_qr_scan"}, "lon": -77.04538033333333, "type": "electric_scooter", "fusion_lat": 0.0, "lat": 38.91935483333334, "name": "18cde7ad95ff8c584e609a7a085ecf11", "fusion_lon": 0.0, "bike_id": "18cde7ad95ff8c584e609a7a085ecf11", "is_disabled": 0, "is_reserved": 0}, {"rental_uris": {"ios": "https://dc.lft.to/lastmile_qr_scan", "android": "https://dc.lft.to/lastmile_qr_scan"}, "lon": -77.032227, "type": "electric_scooter", "fusion_lat": 0.0, "lat": 38.918119, "name": "4927838603796945c40f1fe04ca7a80e", "fusion_lon": 0.0, "bike_id": "4927838603796945c40f1fe04ca7a80e", "is_disabled": 0, "is_reserved": 0}, {"rental_uris": {"ios": "https://dc.lft.to/lastmile_qr_scan", "android": "https://dc.lft.to/lastmile_qr_scan"}, "lon": -77.00890716666666, "type": "electric_scooter", "fusion_lat": 0.0, "lat": 38.9231035, "name": "437afd431be22c995d166df2279ac042", "fusion_lon": 0.0, "bike_id": "437afd431be22c995d166df2279ac042", "is_disabled": 0, "is_reserved": 0}, {"rental_uris": {"ios": "https://dc.lft.to/lastmile_qr_scan", "android": "https://dc.lft.to/lastmile_qr_scan"}, "lon": -77.029345, "type": "electric_bike", "fusion_lat": 0.0, "lat": 38.899256333333334, "name": "96bc91b413918d2ba7532623bda16cd0", "fusion_lon": 0.0, "bike_id": "96bc91b413918d2ba7532623bda16cd0", "is_disabled": 0, "is_reserved": 0}, {"rental_uris": {"ios": "https://dc.lft.to/lastmile_qr_scan", "android": "https://dc.lft.to/lastmile_qr_scan"}, "lon": -77.02227733333334, "type": "electric_scooter", "fusion_lat": 0.0, "lat": 38.887440166666664, "name": "9607d4ba90382232fe76ddb1ba114db0", "fusion_lon": 0.0, "bike_id": "9607d4ba90382232fe76ddb1ba114db0", "is_disabled": 0, "is_reserved": 0}, {"rental_uris": {"ios": "https://dc.lft.to/lastmile_qr_scan", "android": "https://dc.lft.to/lastmile_qr_scan"}, "lon": -77.06095533333334, "type": "electric_scooter", "fusion_lat": 0.0, "lat": 38.91216983333333, "name": "a76a821e406415d0a40fef0a10e0807a", "fusion_lon": 0.0, "bike_id": "a76a821e406415d0a40fef0a10e0807a", "is_disabled": 0, "is_reserved": 0}, {"rental_uris": {"ios": "https://dc.lft.to/lastmile_qr_scan", "android": "https://dc.lft.to/lastmile_qr_scan"}, "lon": -77.039775, "type": "electric_scooter", "fusion_lat": 0.0, "lat": 38.902854166666664, "name": "710ddcd46debebd21692f320e71cbefb", "fusion_lon": 0.0, "bike_id": "710ddcd46debebd21692f320e71cbefb", "is_disabled": 0, "is_reserved": 0}, {"rental_uris": {"ios": "https://dc.lft.to/lastmile_qr_scan", "android": "https://dc.lft.to/lastmile_qr_scan"}, "lon": -77.05266283333333, "type": "electric_scooter", "fusion_lat": 0.0, "lat": 38.9101065, "name": "a9ec9d788f28c1c23421fe2c8c4c6877", "fusion_lon": 0.0, "bike_id": "a9ec9d788f28c1c23421fe2c8c4c6877", "is_disabled": 0, "is_reserved": 0}, {"rental_uris": {"ios": "https://dc.lft.to/lastmile_qr_scan", "android": "https://dc.lft.to/lastmile_qr_scan"}, "lon": -76.9955985, "type": "electric_scooter", "fusion_lat": 0.0, "lat": 38.923069, "name": "b2ca532649aec5e3aaac91d7bd0f1b89", "fusion_lon": 0.0, "bike_id": "b2ca532649aec5e3aaac91d7bd0f1b89", "is_disabled": 0, "is_reserved": 0}, {"rental_uris": {"ios": "https://dc.lft.to/lastmile_qr_scan", "android": "https://dc.lft.to/lastmile_qr_scan"}, "lon": -77.02707266666667, "type": "electric_scooter", "fusion_lat": 0.0, "lat": 38.95002016666667, "name": "a2781dd69ac86d777f1b77ad73c64e39", "fusion_lon": 0.0, "bike_id": "a2781dd69ac86d777f1b77ad73c64e39", "is_disabled": 0, "is_reserved": 0}, {"rental_uris": {"ios": "https://dc.lft.to/lastmile_qr_scan", "android": "https://dc.lft.to/lastmile_qr_scan"}, "lon": -77.0514975, "type": "electric_scooter", "fusion_lat": 0.0, "lat": 38.923681333333334, "name": "f5d993ce8f61e8c86a40bebaab7b37dc", "fusion_lon": 0.0, "bike_id": "f5d993ce8f61e8c86a40bebaab7b37dc", "is_disabled": 0, "is_reserved": 0}, {"rental_uris": {"ios": "https://dc.lft.to/lastmile_qr_scan", "android": "https://dc.lft.to/lastmile_qr_scan"}, "lon": -77.042714, "type": "electric_scooter", "fusion_lat": 0.0, "lat": 38.91781183333333, "name": "3662eba288aced14a09dd01d8d31a179", "fusion_lon": 0.0, "bike_id": "3662eba288aced14a09dd01d8d31a179", "is_disabled": 0, "is_reserved": 0}, {"rental_uris": {"ios": "https://dc.lft.to/lastmile_qr_scan", "android": "https://dc.lft.to/lastmile_qr_scan"},