{"data": {"bikes": [{"bike_id": "c3e41437785df1e51710bff1c38854f2", "type": "electric_scooter", "is_disabled": 0, "lat": 38.89741816666667, "rental_uris": {"ios": "https://dc.lft.to/lastmile_qr_scan", "android": "https://dc.lft.to/lastmile_qr_scan"}, "is_reserved": 0, "fusion_lon": 0.0, "fusion_lat": 0.0, "lon": -76.94728433333333, "name": "c3e41437785df1e51710bff1c38854f2"}, {"bike_id": "8f3c8c082671bd8c7d2e523336f5ccc1", "type": "electric_scooter", "is_disabled": 0, "lat": 38.9288175, "rental_uris": {"ios": "https://dc.lft.to/lastmile_qr_scan", "android": "https://dc.lft.to/lastmile_qr_scan"}, "is_reserved": 0, "fusion_lon": 0.0, "fusion_lat": 0.0, "lon": -77.02707666666667, "name": "8f3c8c082671bd8c7d2e523336f5ccc1"}, {"bike_id": "a9e674e66f72681d8f4f49b7d67a6330", "type": "electric_scooter", "is_disabled": 0, "lat": 38.900507166666664, "rental_uris": {"ios": "https://dc.lft.to/lastmile_qr_scan", "android": "https://dc.lft.to/lastmile_qr_scan"}, "is_reserved": 0, "fusion_lon": 0.0, "fusion_lat": 0.0, "lon": -77.0006835, "name": "a9e674e66f72681d8f4f49b7d67a6330"}, {"bike_id": "a56d54ccb246c7b924da1e87c27f20bb", "type": "electric_scooter", "is_disabled": 0, "lat": 38.90375566666667, "rental_uris": {"ios": "https://dc.lft.to/lastmile_qr_scan", "android": "https://dc.lft.to/lastmile_qr_scan"}, "is_reserved": 0, "fusion_lon": 0.0, "fusion_lat": 0.0, "lon": -77.0356605, "name": "a56d54ccb246c7b924da1e87c27f20bb"}, {"bike_id": "d7178ff5e4bff04b597d55399bca1688", "type": "electric_scooter", "is_disabled": 0, "lat": 38.91526283333334, "rental_uris": {"ios": "https://dc.lft.to/lastmile_qr_scan", "android": "https://dc.lft.to/lastmile_qr_scan"}, "is_reserved": 0, "fusion_lon": 0.0, "fusion_lat": 0.0, "lon": -77.021883, "name": "d7178ff5e4bff04b597d55399bca1688"}, {"bike_id": "a850685e1cda44946d4740f896745785", "type": "electric_scooter", "is_disabled": 0, "lat": 38.941424, "rental_uris": {"ios": "https://dc.lft.to/lastmile_qr_scan", "android": "https://dc.lft.to/lastmile_qr_scan"}, "is_reserved": 0, "fusion_lon": 0.0, "fusion_lat": 0.0, "lon": -77.0232775, "name": "a850685e1cda44946d4740f896745785"}, {"bike_id": "d81e881a7080101260bd5af522b0d963", "type": "electric_scooter", "is_disabled": 0, "lat": 38.90833683333334, "rental_uris": {"ios": "https://dc.lft.to/lastmile_qr_scan", "android": "https://dc.lft.to/lastmile_qr_scan"}, "is_reserved": 0, "fusion_lon": 0.0, "fusion_lat": 0.0, "lon": -77.03376233333333, "name": "d81e881a7080101260bd5af522b0d963"}, {"bike_id": "8214625478b72c4b2615521a60b2c46f", "type": "electric_scooter", "is_disabled": 0, "lat": 38.9297425, "rental_uris": {"ios": "https://dc.lft.to/lastmile_qr_scan", "android": "https://dc.lft.to/lastmile_qr_scan"}, "is_reserved": 0, "fusion_lon": 0.0, "fusion_lat": 0.0, "lon": -77.01302033333333, "name": "8214625478b72c4b2615521a60b2c46f"}, {"bike_id": "323b1e454c9208e458274af46bcec010", "type": "electric_scooter", "is_disabled": 0, "lat": 38.89525283333333, "rental_uris": {"ios": "https://dc.lft.to/lastmile_qr_scan", "android": "https://dc.lft.to/lastmile_qr_scan"}, "is_reserved": 0, "fusion_lon": 0.0, "fusion_lat": 0.0, "lon": -76.94895033333333, "name": "323b1e454c9208e458274af46bcec010"}, {"bike_id": "be47d58884d54dd7d9c80fe81b350ac5", "type": "electric_scooter", "is_disabled": 0, "lat": 38.933998833333334, "rental_uris": {"ios": "https://dc.lft.to/lastmile_qr_scan", "android": "https://dc.lft.to/lastmile_qr_scan"}, "is_reserved": 0, "fusion_lon": 0.0, "fusion_lat": 0.0, "lon": -77.03523883333334, "name": "be47d58884d54dd7d9c80fe81b350ac5"}, {"bike_id": "073e17ae81cca8e84ca7c17a0ac441a9", "type": "electric_scooter", "is_disabled": 0, "lat": 38.9384765, "rental_uris": {"ios": "https://dc.lft.to/lastmile_qr_scan", "android": "https://dc.lft.to/lastmile_qr_scan"}, "is_reserved": 0, "fusion_lon": 0.0, "fusion_lat": 0.0, "lon": -77.07239066666666, "name": "073e17ae81cca8e84ca7c17a0ac441a9"}, {"bike_id": "9d66dcbd396e3679311cab3e9752d550", "type": "electric_scooter", "is_disabled": 0, "lat": 38.90782383333333, "rental_uris": {"ios": "https://dc.lft.to/lastmile_qr_scan", "android": "https://dc.lft.to/lastmile_qr_scan"}, "is_reserved": 0, "fusion_lon": 0.0, "fusion_lat": 0.0, "lon": -77.0317695, "name": "9d66dcbd396e3679311cab3e9752d550"}, {"bike_id": "ce7b791f88d4e67c7b2f41b5c6e43c2c", "type": "electric_scooter", "is_disabled": 0, "lat": 38.907779166666664, "rental_uris": {"ios": "https://dc.lft.to/lastmile_qr_scan", "android": "https://dc.lft.to/lastmile_qr_scan"}, "is_reserved": 0, "fusion_lon": 0.0, "fusion_lat": 0.0, "lon": -77.07249916666666, "name": "ce7b791f88d4e67c7b2f41b5c6e43c2c"}, {"bike_id": "1dde4ba8c66b19483d1d56343f958df2", "type": "electric_scooter", "is_disabled": 0, "lat": 38.90942866666666, "rental_uris": {"ios": "https://dc.lft.to/lastmile_qr_scan", "android": "https://dc.lft.to/lastmile_qr_scan"}, "is_reserved": 0, "fusion_lon": 0.0, "fusion_lat": 0.0, "lon": -77.05567616666667, "name": "1dde4ba8c66b19483d1d56343f958df2"}, {"bike_id": "aa6b85e68cd3b1c7d783eb191dabaf41", "type": "electric_scooter", "is_disabled": 0, "lat": 38.965002166666665, "rental_uris": {"ios": "https://dc.lft.to/lastmile_qr_scan", "android": "https://dc.lft.to/lastmile_qr_scan"}, "is_reserved": 0, "fusion_lon": 0.0, "fusion_lat": 0.0, "lon": -77.00205, "name": "aa6b85e68cd3b1c7d783eb191dabaf41"}, {"bike_id": "8783d6b043e3cd078157c9ab54007d60", "type": "electric_scooter", "is_disabled": 0, "lat": 38.909509166666666, "rental_uris": {"ios": "https://dc.lft.to/lastmile_qr_scan", "android": "https://dc.lft.to/lastmile_qr_scan"}, "is_reserved": 0, "fusion_lon": 0.0, "fusion_lat": 0.0, "lon": -77.04825466666667, "name": "8783d6b043e3cd078157c9ab54007d60"}, {"bike_id": "549ace7463a73ab7f3fb55868fc76cee", "type": "electric_scooter", "is_disabled": 0, "lat": 38.9098355, "rental_uris": {"ios": "https://dc.lft.to/lastmile_qr_scan", "android": "https://dc.lft.to/lastmile_qr_scan"}, "is_reserved": 0, "fusion_lon": 0.0, "fusion_lat": 0.0, "lon": -77.0151605, "name": "549ace7463a73ab7f3fb55868fc76cee"}, {"bike_id": "6e198ed6206c6516dc9b6ce5a37e2940", "type": "electric_bike", "is_disabled": 0, "lat": 38.938976833333335, "rental_uris": {"ios": "https://dc.lft.to/lastmile_qr_scan", "android": "https://dc.lft.to/lastmile_qr_scan"}, "is_reserved": 0, "fusion_lon": 0.0, "fusion_lat": 0.0, "lon": -77.06356833333334, "name": "6e198ed6206c6516dc9b6ce5a37e2940"}, {"bike_id": "344736369abc2a4358d01a4295030afa", "type": "electric_scooter", "is_disabled": 0, "lat": 38.9115095, "rental_uris": {"ios": "https://dc.lft.to/lastmile_qr_scan", "android": "https://dc.lft.to/lastmile_qr_scan"}, "is_reserved": 0, "fusion_lon": 0.0, "fusion_lat": 0.0, "lon": -77.04424816666666, "name": "344736369abc2a4358d01a4295030afa"}, {"bike_id": "960ba1fc888919bb8db4ac88084eaef2", "type": "electric_scooter", "is_disabled": 0, "lat": 38.89964583333333, "rental_uris": {"ios": "https://dc.lft.to/lastmile_qr_scan", "android": "https://dc.lft.to/lastmile_qr_scan"}, "is_reserved": 0, "fusion_lon": 0.0, "fusion_lat": 0.0, "lon": -77.01626016666667, "name": "960ba1fc888919bb8db4ac88084eaef2"}, {"bike_id": "cdbf52738ffa6db49e61b36cfaff5bbd", "type": "electric_scooter", "is_disabled": 0, "lat": 38.916912333333336, "rental_uris": {"ios": "https://dc.lft.to/lastmile_qr_scan", "android": "https://dc.lft.to/lastmile_qr_scan"}, "is_reserved": 0, "fusion_lon": 0.0, "fusion_lat": 0.0, "lon": -77.02522883333333, "name": "cdbf52738ffa6db49e61b36cfaff5bbd"}, {"bike_id": "c9696b8525746831b16a42fd003cca79", "type": "electric_scooter", "is_disabled": 0, "lat": 38.844319666666664, "rental_uris": {"ios": "https://dc.lft.to/lastmile_qr_scan", "android": "https://dc.lft.to/lastmile_qr_scan"}, "is_reserved": 0, "fusion_lon": 0.0, "fusion_lat": 0.0, "lon": -76.998754, "name": "c9696b8525746831b16a42fd003cca79"}, {"bike_id": "5808a6c4f3bcfd50a7eb904184c7a496", "type": "electric_scooter", "is_disabled": 0, "lat": 38.92367316666667, "rental_uris": {"ios": "https://dc.lft.to/lastmile_qr_scan", "android": "https://dc.lft.to/lastmile_qr_scan"}, "is_reserved": 0, "fusion_lon": 0.0, "fusion_lat": 0.0, "lon": -77.05044833333334, "name": "5808a6c4f3bcfd50a7eb904184c7a496"}, {"bike_id": "6495b5e3a9417151f29a897d0f8b39e0", "type": "electric_scooter", "is_disabled": 0, "lat": 38.922545666666664, "rental_uris": {"ios": "https://dc.lft.to/lastmile_qr_scan", "android": "https://dc.lft.to/lastmile_qr_scan"}, "is_reserved": 0, "fusion_lon": 0.0, "fusion_lat": 0.0, "lon": -77.0425245, "name": "6495b5e3a9417151f29a897d0f8b39e0"}, {"bike_id": "442d311b547f59a09e04c3c0583c0f5d", "type": "electric_scooter", "is_disabled": 0, "lat": 38.899801833333335, "rental_uris": {"ios": "https://dc.lft.to/lastmile_qr_scan", "android": "https://dc.lft.to/lastmile_qr_scan"}, "is_reserved": 0, "fusion_lon": 0.0, "fusion_lat": 0.0, "lon": -77.02163033333333, "name": "442d311b547f59a09e04c3c0583c0f5d"}, {"bike_id": "83be2592b2f078a327f5f2994a2e4cdd", "type": "electric_scooter", "is_disabled": 0, "lat": 38.92855816666667, "rental_uris": {"ios": "https://dc.lft.to/lastmile_qr_scan", "android": "https://dc.lft.to/lastmile_qr_scan"}, "is_reserved": 0, "fusion_lon": 0.0, "fusion_lat": 0.0, "lon": -77.0139125, "name": "83be2592b2f078a327f5f2994a2e4cdd"}, {"bike_id": "0fd090153f7508e1ee3e30d442100d2f", "type": "electric_scooter", "is_disabled": 0, "lat": 38.9138075, "rental_uris": {"ios": "https://dc.lft.to/lastmile_qr_scan", "android": "https://dc.lft.to/lastmile_qr_scan"}, "is_reserved": 0, "fusion_lon": 0.0, "fusion_lat": 0.0, "lon": -77.01709183333334, "name": "0fd090153f7508e1ee3e30d442100d2f"}, {"bike_id": "baa9f741f073497680b0f09f6c8daf52", "type": "electric_scooter", "is_disabled": 0, "lat": 38.92738883333333, "rental_uris": {"ios": "https://dc.lft.to/lastmile_qr_scan", "android": "https://dc.lft.to/lastmile_qr_scan"}, "is_reserved": 0, "fusion_lon": 0.0, "fusion_lat": 0.0, "lon": -77.034298, "name": "baa9f741f073497680b0f09f6c8daf52"}, {"bike_id": "1cb1c0f4c89384d9842be190a30a2023", "type": "electric_bike", "is_disabled": 0, "lat": 38.908645166666666, "rental_uris": {"ios": "https://dc.lft.to/lastmile_qr_scan", "android": "https://dc.lft.to/lastmile_qr_scan"}, "is_reserved": 0, "fusion_lon": 0.0, "fusion_lat": 0.0, "lon": -76.99129933333333, "name": "1cb1c0f4c89384d9842be190a30a2023"}, {"bike_id": "ab7d2c43d3ab46a3fb000513a18ecf71", "type": "electric_scooter", "is_disabled": 0, "lat": 38.918408166666666, "rental_uris": {"ios": "https://dc.lft.to/lastmile_qr_scan", "android": "https://dc.lft.to/lastmile_qr_scan"}, "is_reserved": 0, "fusion_lon": 0.0, "fusion_lat": 0.0, "lon": -76.9655585, "name": "ab7d2c43d3ab46a3fb000513a18ecf71"}, {"bike_id": "780bcf2770cf3f3348a8424070f0191a", "type": "electric_scooter", "is_disabled": 0, "lat": 38.87903266666667, "rental_uris": {"ios": "https://dc.lft.to/lastmile_qr_scan", "android": "https://dc.lft.to/lastmile_qr_scan"}, "is_reserved": 0, "fusion_lon": 0.0, "fusion_lat": 0.0, "lon": -77.02203466666667, "name": "780bcf2770cf3f3348a8424070f0191a"}, {"bike_id": "c0df4108dc4de9285a8b86639b734f5c", "type": "electric_scooter", "is_disabled": 0, "lat": 38.91100216666667, "rental_uris": {"ios": "https://dc.lft.to/lastmile_qr_scan", "android": "https://dc.lft.to/lastmile_qr_scan"}, "is_reserved": 0, "fusion_lon": 0.0, "fusion_lat": 0.0, "lon": -77.04220616666667, "name": "c0df4108dc4de9285a8b86639b734f5c"}, {"bike_id": "7e68b915fff344834725aaf16b362e12", "type": "electric_scooter", "is_disabled": 0, "lat": 38.914137, "rental_uris": {"ios": "https://dc.lft.to/lastmile_qr_scan", "android": "https://dc.lft.to/lastmile_qr_scan"}, "is_reserved": 0, "fusion_lon": 0.0, "fusion_lat": 0.0, "lon": -77.0322445, "name": "7e68b915fff344834725aaf16b362e12"}, {"bike_id": "74ccbc35e3e5a8c0240ca37d8e74486f", "type": "electric_scooter", "is_disabled": 0, "lat": 38.880284, "rental_uris": {"ios": "https://dc.lft.to/lastmile_qr_scan", "android": "https://dc.lft.to/lastmile_qr_scan"}, "is_reserved": 0, "fusion_lon": 0.0, "fusion_lat": 0.0, "lon": -77.010071, "name": "74ccbc35e3e5a8c0240ca37d8e74486f"}, {"bike_id": "ae28983b21ae767c3608ffd603b5a932", "type": "electric_scooter", "is_disabled": 0, "lat": 38.928444166666665, "rental_uris": {"ios": "https://dc.lft.to/lastmile_qr_scan", "android": "https://dc.lft.to/lastmile_qr_scan"}, "is_reserved": 0, "fusion_lon": 0.0, "fusion_lat": 0.0, "lon": -77.0330555, "name": "ae28983b21ae767c3608ffd603b5a932"}, {"bike_id": "8b2eb1a7e9900dba70acfc09649e8695", "type": "electric_scooter", "is_disabled": 0, "lat": 38.916880666666664, "rental_uris": {"ios": "https://dc.lft.to/lastmile_qr_scan", "android": "https://dc.lft.to/lastmile_qr_scan"}, "is_reserved": 0, "fusion_lon": 0.0, "fusion_lat": 0.0, "lon": -77.028796, "name": "8b2eb1a7e9900dba70acfc09649e8695"}, {"bike_id": "1a1bc297bd9b43949ac26faa45e30ca8", "type": "electric_scooter", "is_disabled": 0, "lat": 38.91554333333333, "rental_uris": {"ios": "https://dc.lft.to/lastmile_qr_scan", "android": "https://dc.lft.to/lastmile_qr_scan"}, "is_reserved": 0, "fusion_lon": 0.0, "fusion_lat": 0.0, "lon": -77.02647283333333, "name": "1a1bc297bd9b43949ac26faa45e30ca8"}, {"bike_id": "a615e8683cd8202b7e1cc51ae1db7137", "type": "electric_scooter", "is_disabled": 0, "lat": 38.94965533333333, "rental_uris": {"ios": "https://dc.lft.to/lastmile_qr_scan", "android": "https://dc.lft.to/lastmile_qr_scan"}, "is_reserved": 0, "fusion_lon": 0.0, "fusion_lat": 0.0, "lon": -77.02328, "name": "a615e8683cd8202b7e1cc51ae1db7137"}, {"bike_id": "d854877d3843bbc2c389c277068a0b99", "type": "electric_scooter", "is_disabled": 0, "lat": 38.844360333333334, "rental_uris": {"ios": "https://dc.lft.to/lastmile_qr_scan", "android": "https://dc.lft.to/lastmile_qr_scan"}, "is_reserved": 0, "fusion_lon": 0.0, "fusion_lat": 0.0, "lon": -76.99877816666667, "name": "d854877d3843bbc2c389c277068a0b99"}, {"bike_id": "7fdc3782cb9b22b5fd40e227c60322fa", "type": "electric_scooter", "is_disabled": 0, "lat": 38.91808783333333, "rental_uris": {"ios": "https://dc.lft.to/lastmile_qr_scan", "android": "https://dc.lft.to/lastmile_qr_scan"}, "is_reserved": 0, "fusion_lon": 0.0, "fusion_lat": 0.0, "lon": -77.03192783333333, "name": "7fdc3782cb9b22b5fd40e227c60322fa"}, {"bike_id": "76d6106467e2b519866807ce93a2ebc7", "type": "electric_scooter", "is_disabled": 0, "lat": 38.91702016666667, "rental_uris": {"ios": "https://dc.lft.to/lastmile_qr_scan", "android": "https://dc.lft.to/lastmile_qr_scan"}, "is_reserved": 0, "fusion_lon": 0.0, "fusion_lat": 0.0, "lon": -77.024863, "name": "76d6106467e2b519866807ce93a2ebc7"}, {"bike_id": "aa9562c0d8bffacc41681626a23a55b5", "type": "electric_bike", "is_disabled": 0, "lat": 38.925628833333334, "rental_uris": {"ios": "https://dc.lft.to/lastmile_qr_scan", "android": "https://dc.lft.to/lastmile_qr_scan"}, "is_reserved": 0, "fusion_lon": 0.0, "fusion_lat": 0.0, "lon": -77.04382083333333, "name": "aa9562c0d8bffacc41681626a23a55b5"}, {"bike_id": "c8309b02db18acd0cade88cbb61a2d31", "type": "electric_scooter", "is_disabled": 0, "lat": 38.92476283333333, "rental_uris": {"ios": "https://dc.lft.to/lastmile_qr_scan", "android": "https://dc.lft.to/lastmile_qr_scan"}, "is_reserved": 0, "fusion_lon": 0.0, "fusion_lat": 0.0, "lon": -77.02837966666667, "name": "c8309b02db18acd0cade88cbb61a2d31"}, {"bike_id": "30eb7b6ea48101c7b657a1e9d7423600", "type": "electric_scooter", "is_disabled": 0, "lat": 38.883572666666666, "rental_uris": {"ios": "https://dc.lft.to/lastmile_qr_scan", "android": "https://dc.lft.to/lastmile_qr_scan"}, "is_reserved": 0, "fusion_lon": 0.0, "fusion_lat": 0.0, "lon": -77.01998433333333, "name": "30eb7b6ea48101c7b657a1e9d7423600"}, {"bike_id": "62fba52bc27dc63fd58de60db528449e", "type": "electric_scooter", "is_disabled": 0, "lat": 38.930697333333335, "rental_uris": {"ios": "https://dc.lft.to/lastmile_qr_scan", "android": "https://dc.lft.to/lastmile_qr_scan"}, "is_reserved": 0, "fusion_lon": 0.0, "fusion_lat": 0.0, "lon": -77.03195633333333, "name": "62fba52bc27dc63fd58de60db528449e"}, {"bike_id": "3e343ff08ddf8dbb9316555f538bdddc", "type": "electric_scooter", "is_disabled": 0, "lat": 38.91171516666667, "rental_uris": {"ios": "https://dc.lft.to/lastmile_qr_scan", "android": "https://dc.lft.to/lastmile_qr_scan"}, "is_reserved": 0, "fusion_lon": 0.0, "fusion_lat": 0.0, "lon": -77.00454616666667, "name": "3e343ff08ddf8dbb9316555f538bdddc"}, {"bike_id": "84a7f9877d6e8625f48b9c9b7cd9d682", "type": "electric_scooter", "is_disabled": 0, "lat": 38.930629833333334, "rental_uris": {"ios": "https://dc.lft.to/lastmile_qr_scan", "android": "https://dc.lft.to/lastmile_qr_scan"}, "is_reserved": 0, "fusion_lon": 0.0, "fusion_lat": 0.0, "lon": -77.0412575, "name": "84a7f9877d6e8625f48b9c9b7cd9d682"}, {"bike_id": "a3df996c1d93b81e5c675be46b6ef4e1", "type": "electric_scooter", "is_disabled": 0, "lat": 38.914846, "rental_uris": {"ios": "https://dc.lft.to/lastmile_qr_scan", "android": "https://dc.lft.to/lastmile_qr_scan"}, "is_reserved": 0, "fusion_lon": 0.0, "fusion_lat": 0.0, "lon": -77.03129483333333, "name": "a3df996c1d93b81e5c675be46b6ef4e1"}, {"bike_id": "82a185508d47d563a4099b31b986c8a6", "type": "electric_scooter", "is_disabled": 0, "lat": 38.898706833333335, "rental_uris": {"ios": "https://dc.lft.to/lastmile_qr_scan", "android": "https://dc.lft.to/lastmile_qr_scan"}, "is_reserved": 0, "fusion_lon": 0.0, "fusion_lat": 0.0, "lon": -76.93189683333334, "name": "82a185508d47d563a4099b31b986c8a6"}, {"bike_id": "ac0ab3ac35a1e5d137d6f758a8f386d0", "type": "electric_scooter", "is_disabled": 0, "lat": 38.93105216666667, "rental_uris": {"ios": "https://dc.lft.to/lastmile_qr_scan", "android": "https://dc.lft.to/lastmile_qr_scan"}, "is_reserved": 0, "fusion_lon": 0.0, "fusion_lat": 0.0, "lon": -77.04125083333334, "name": "ac0ab3ac35a1e5d137d6f758a8f386d0"}, {"bike_id": "fab4247ff1eed8e759f56eea6cf9d9ff", "type": "electric_scooter", "is_disabled": 0, "lat": 38.89981916666667, "rental_uris": {"ios": "https://dc.lft.to/lastmile_qr_scan", "android": "https://dc.lft.to/lastmile_qr_scan"}, "is_reserved": 0, "fusion_lon": 0.0, "fusion_lat": 0.0, "lon": -77.01927716666667, "name": "fab4247ff1eed8e759f56eea6cf9d9ff"}, {"bike_id": "7a34f74be7b85c78128d0b15711e0b0c", "type": "electric_bike", "is_disabled": 0, "lat": 38.93962633333334, "rental_uris": {"ios": "https://dc.lft.to/lastmile_qr_scan", "android": "https://dc.lft.to/lastmile_qr_scan"}, "is_reserved": 0, "fusion_lon": 0.0, "fusion_lat": 0.0, "lon": -77.0526025, "name": "7a34f74be7b85c78128d0b15711e0b0c"}, {"bike_id": "61ae810b6cc5cc261541cc197ce1abcc", "type": "electric_scooter", "is_disabled": 0, "lat": 38.911107, "rental_uris": {"ios": "https://dc.lft.to/lastmile_qr_scan", "android": "https://dc.lft.to/lastmile_qr_scan"}, "is_reserved": 0, "fusion_lon": 0.0, "fusion_lat": 0.0, "lon": -77.037378, "name": "61ae810b6cc5cc261541cc197ce1abcc"}, {"bike_id": "b61ee2c9adfc81c24abce38f88f91685", "type": "electric_scooter", "is_disabled": 0, "lat": 38.9212425, "rental_uris": {"ios": "https://dc.lft.to/lastmile_qr_scan", "android": "https://dc.lft.to/lastmile_qr_scan"}, "is_reserved": 0, "fusion_lon": 0.0, "fusion_lat": 0.0, "lon": -77.027163, "name": "b61ee2c9adfc81c24abce38f88f91685"}, {"bike_id": "4d11a6c0539c1e9006bd0794142dd71f", "type": "electric_scooter", "is_disabled": 0, "lat": 38.92244433333333, "rental_uris": {"ios": "https://dc.lft.to/lastmile_qr_scan", "android": "https://dc.lft.to/lastmile_qr_scan"}, "is_reserved": 0, "fusion_lon": 0.0, "fusion_lat": 0.0, "lon": -77.04279866666667, "name": "4d11a6c0539c1e9006bd0794142dd71f"}, {"bike_id": "930852974b1b96efea4c4ac916d0ee01", "type": "electric_scooter", "is_disabled": 0, "lat": 38.9071145, "rental_uris": {"ios": "https://dc.lft.to/lastmile_qr_scan", "android": "https://dc.lft.to/lastmile_qr_scan"}, "is_reserved": 0, "fusion_lon": 0.0, "fusion_lat": 0.0, "lon": -77.04387583333333, "name": "930852974b1b96efea4c4ac916d0ee01"}, {"bike_id": "90929f6b49ba11297c12b0f1ad870b1d", "type": "electric_scooter", "is_disabled": 0, "lat": 38.912714, "rental_uris": {"ios": "https://dc.lft.to/lastmile_qr_scan", "android": "https://dc.lft.to/lastmile_qr_scan"}, "is_reserved": 0, "fusion_lon": 0.0, "fusion_lat": 0.0, "lon": -77.05162716666666, "name": "90929f6b49ba11297c12b0f1ad870b1d"}, {"bike_id": "0f598fab56202bbfe869ee8c97e7e6e9", "type": "electric_scooter", "is_disabled": 0, "lat": 38.9169785, "rental_uris": {"ios": "https://dc.lft.to/lastmile_qr_scan", "android": "https://dc.lft.to/lastmile_qr_scan"}, "is_reserved": 0, "fusion_lon": 0.0, "fusion_lat": 0.0, "lon": -77.0331265, "name": "0f598fab56202bbfe869ee8c97e7e6e9"}, {"bike_id": "5c01dc5eb9d070f854199c356234d989", "type": "electric_scooter", "is_disabled": 0, "lat": 38.9082245, "rental_uris": {"ios": "https://dc.lft.to/lastmile_qr_scan", "android": "https://dc.lft.to/lastmile_qr_scan"}, "is_reserved": 0, "fusion_lon": 0.0, "fusion_lat": 0.0, "lon": -77.03182866666667, "name": "5c01dc5eb9d070f854199c356234d989"}, {"bike_id": "1b5bd4d82aa8f4e928ea62c44027de9d", "type": "electric_scooter", "is_disabled": 0, "lat": 38.91326683333333, "rental_uris": {"ios": "https://dc.lft.to/lastmile_qr_scan", "android": "https://dc.lft.to/lastmile_qr_scan"}, "is_reserved": 0, "fusion_lon": 0.0, "fusion_lat": 0.0, "lon": -77.03193966666667, "name": "1b5bd4d82aa8f4e928ea62c44027de9d"}, {"bike_id": "ee4b719de910f771d30ec6aee9c9596d", "type": "electric_scooter", "is_disabled": 0, "lat": 38.931459833333335, "rental_uris": {"ios": "https://dc.lft.to/lastmile_qr_scan", "android": "https://dc.lft.to/lastmile_qr_scan"}, "is_reserved": 0, "fusion_lon": 0.0, "fusion_lat": 0.0, "lon": -77.03349283333333, "name": "ee4b719de910f771d30ec6aee9c9596d"}, {"bike_id": "fd702d28b2e76ea2b05a1e1bde3a7a0a", "type": "electric_scooter", "is_disabled": 0, "lat": 38.943307, "rental_uris": {"ios": "https://dc.lft.to/lastmile_qr_scan", "android": "https://dc.lft.to/lastmile_qr_scan"}, "is_reserved": 0, "fusion_lon": 0.0, "fusion_lat": 0.0, "lon": -77.0148095, "name": "fd702d28b2e76ea2b05a1e1bde3a7a0a"}, {"bike_id": "c018086d6f776ad83fb9f01066bc9aec", "type": "electric_scooter", "is_disabled": 0, "lat": 38.937124, "rental_uris": {"ios": "https://dc.lft.to/lastmile_qr_scan", "android": "https://dc.lft.to/lastmile_qr_scan"}, "is_reserved": 0, "fusion_lon": 0.0, "fusion_lat": 0.0, "lon": -76.99055883333334, "name": "c018086d6f776ad83fb9f01066bc9aec"}, {"bike_id": "f858a25ed6b9e44b8f94074142ff6fe0", "type": "electric_scooter", "is_disabled": 0, "lat": 38.89796033333333, "rental_uris": {"ios": "https://dc.lft.to/lastmile_qr_scan", "android": "https://dc.lft.to/lastmile_qr_scan"}, "is_reserved": 0, "fusion_lon": 0.0, "fusion_lat": 0.0, "lon": -77.02388033333334, "name": "f858a25ed6b9e44b8f94074142ff6fe0"}, {"bike_id": "42c418ae3b8a28bc90f41ff5e278907a", "type": "electric_scooter", "is_disabled": 0, "lat": 38.916989666666666, "rental_uris": {"ios": "https://dc.lft.to/lastmile_qr_scan", "android": "https://dc.lft.to/lastmile_qr_scan"}, "is_reserved": 0, "fusion_lon": 0.0, "fusion_lat": 0.0, "lon": -77.00656916666667, "name": "42c418ae3b8a28bc90f41ff5e278907a"}, {"bike_id": "6e5a52ae0e4d4413cfdfa6fd1d8b4a7d", "type": "electric_scooter", "is_disabled": 0, "lat": 38.91821733333333, "rental_uris": {"ios": "https://dc.lft.to/lastmile_qr_scan", "android": "https://dc.lft.to/lastmile_qr_scan"}, "is_reserved": 0, "fusion_lon": 0.0, "fusion_lat": 0.0, "lon": -77.04945683333334, "name": "6e5a52ae0e4d4413cfdfa6fd1d8b4a7d"}, {"bike_id": "36f4e4b8ffdf4751ea64f10cdc38e000", "type": "electric_scooter", "is_disabled": 0, "lat": 38.9313395, "rental_uris": {"ios": "https://dc.lft.to/lastmile_qr_scan", "android": "https://dc.lft.to/lastmile_qr_scan"}, "is_reserved": 0, "fusion_lon": 0.0, "fusion_lat": 0.0, "lon": -76.995799, "name": "36f4e4b8ffdf4751ea64f10cdc38e000"}, {"bike_id": "5f858e2a6ace94e3add567c80b765335", "type": "electric_scooter", "is_disabled": 0, "lat": 38.9332975, "rental_uris": {"ios": "https://dc.lft.to/lastmile_qr_scan", "android": "https://dc.lft.to/lastmile_qr_scan"}, "is_reserved": 0, "fusion_lon": 0.0, "fusion_lat": 0.0, "lon": -77.020647, "name": "5f858e2a6ace94e3add567c80b765335"}, {"bike_id": "a3acee4c723e1234a8a2fcd5c4c649b0", "type": "electric_scooter", "is_disabled": 0, "lat": 38.916857666666665, "rental_uris": {"ios": "https://dc.lft.to/lastmile_qr_scan", "android": "https://dc.lft.to/lastmile_qr_scan"}, "is_reserved": 0, "fusion_lon": 0.0, "fusion_lat": 0.0, "lon": -77.0295605, "name": "a3acee4c723e1234a8a2fcd5c4c649b0"}, {"bike_id": "eaaca922034684f0e8dda404d1bc98c0", "type": "electric_scooter", "is_disabled": 0, "lat": 38.907047166666665, "rental_uris": {"ios": "https://dc.lft.to/lastmile_qr_scan", "android": "https://dc.lft.to/lastmile_qr_scan"}, "is_reserved": 0, "fusion_lon": 0.0, "fusion_lat": 0.0, "lon": -77.02403083333333, "name": "eaaca922034684f0e8dda404d1bc98c0"}, {"bike_id": "3a2221ec750bb0d570c8cbd1a4f67d5a", "type": "electric_bike", "is_disabled": 0, "lat": 38.944093, "rental_uris": {"ios": "https://dc.lft.to/lastmile_qr_scan", "android": "https://dc.lft.to/lastmile_qr_scan"}, "is_reserved": 0, "fusion_lon": 0.0, "fusion_lat": 0.0, "lon": -77.03209583333333, "name": "3a2221ec750bb0d570c8cbd1a4f67d5a"}, {"bike_id": "96fb9e5d3a54444d5742aafaef1d4eb0", "type": "electric_bike", "is_disabled": 0, "lat": 39.052802166666666, "rental_uris": {"ios": "https://dc.lft.to/lastmile_qr_scan", "android": "https://dc.lft.to/lastmile_qr_scan"}, "is_reserved": 0, "fusion_lon": 0.0, "fusion_lat": 0.0, "lon": -77.0807365, "name": "96fb9e5d3a54444d5742aafaef1d4eb0"}, {"bike_id": "e64bc5c680031b7b4d5353c492831860", "type": "electric_scooter", "is_disabled": 0, "lat": 38.89953033333333, "rental_uris": {"ios": "https://dc.lft.to/lastmile_qr_scan", "android": "https://dc.lft.to/lastmile_qr_scan"}, "is_reserved": 0, "fusion_lon": 0.0, "fusion_lat": 0.0, "lon": -77.0035575, "name": "e64bc5c680031b7b4d5353c492831860"}, {"bike_id": "8e99a2a5ae796f21c039ed3b076595fc", "type": "electric_scooter", "is_disabled": 0, "lat": 38.9297985, "rental_uris": {"ios": "https://dc.lft.to/lastmile_qr_scan", "android": "https://dc.lft.to/lastmile_qr_scan"}, "is_reserved": 0, "fusion_lon": 0.0, "fusion_lat": 0.0, "lon": -77.03201383333334, "name": "8e99a2a5ae796f21c039ed3b076595fc"}, {"bike_id": "81793e76675426965b8ca7a55f92d182", "type": "electric_scooter", "is_disabled": 0, "lat": 38.90963983333333, "rental_uris": {"ios": "https://dc.lft.to/lastmile_qr_scan", "android": "https://dc.lft.to/lastmile_qr_scan"}, "is_reserved": 0, "fusion_lon": 0.0, "fusion_lat": 0.0, "lon": -77.04654833333333, "name": "81793e76675426965b8ca7a55f92d182"}, {"bike_id": "19762e89a11051471ea5187afb7c3676", "type": "electric_scooter", "is_disabled": 0, "lat": 38.866953, "rental_uris": {"ios": "https://dc.lft.to/lastmile_qr_scan", "android": "https://dc.lft.to/lastmile_qr_scan"}, "is_reserved": 0, "fusion_lon": 0.0, "fusion_lat": 0.0, "lon": -76.9871115, "name": "19762e89a11051471ea5187afb7c3676"}, {"bike_id": "50e6b4e5feb563035796c032669dfba5", "type": "electric_scooter", "is_disabled": 0, "lat": 38.896693, "rental_uris": {"ios": "https://dc.lft.to/lastmile_qr_scan", "android": "https://dc.lft.to/lastmile_qr_scan"}, "is_reserved": 0, "fusion_lon": 0.0, "fusion_lat": 0.0, "lon": -77.0237325, "name": "50e6b4e5feb563035796c032669dfba5"}, {"bike_id": "3c572f6d85e2e8a64907ed268ba82a20", "type": "electric_scooter", "is_disabled": 0, "lat": 38.921588166666666, "rental_uris": {"ios": "https://dc.lft.to/lastmile_qr_scan", "android": "https://dc.lft.to/lastmile_qr_scan"}, "is_reserved": 0, "fusion_lon": 0.0, "fusion_lat": 0.0, "lon": -77.03324366666666, "name": "3c572f6d85e2e8a64907ed268ba82a20"}, {"bike_id": "3c37781dbf3a225c286ef7aefbf40646", "type": "electric_scooter", "is_disabled": 0, "lat": 38.887345333333336, "rental_uris": {"ios": "https://dc.lft.to/lastmile_qr_scan", "android": "https://dc.lft.to/lastmile_qr_scan"}, "is_reserved": 0, "fusion_lon": 0.0, "fusion_lat": 0.0, "lon": -77.02839983333334, "name": "3c37781dbf3a225c286ef7aefbf40646"}, {"bike_id": "e9056c51f82de9fc7eaec76a1f5f3431", "type": "electric_scooter", "is_disabled": 0, "lat": 38.91559266666667, "rental_uris": {"ios": "https://dc.lft.to/lastmile_qr_scan", "android": "https://dc.lft.to/lastmile_qr_scan"}, "is_reserved": 0, "fusion_lon": 0.0, "fusion_lat": 0.0, "lon": -77.02027366666667, "name": "e9056c51f82de9fc7eaec76a1f5f3431"}, {"bike_id": "347a80e13fbfe0133f0390c7c1e584f1", "type": "electric_scooter", "is_disabled": 0, "lat": 38.91416366666667, "rental_uris": {"ios": "https://dc.lft.to/lastmile_qr_scan", "android": "https://dc.lft.to/lastmile_qr_scan"}, "is_reserved": 0, "fusion_lon": 0.0, "fusion_lat": 0.0, "lon": -77.01234633333333, "name": "347a80e13fbfe0133f0390c7c1e584f1"}, {"bike_id": "913c43c6efa6c1bd79ca11f4d5ba0cd3", "type": "electric_scooter", "is_disabled": 0, "lat": 38.8382475, "rental_uris": {"ios": "https://dc.lft.to/lastmile_qr_scan", "android": "https://dc.lft.to/lastmile_qr_scan"}, "is_reserved": 0, "fusion_lon": 0.0, "fusion_lat": 0.0, "lon": -77.00270566666667, "name": "913c43c6efa6c1bd79ca11f4d5ba0cd3"}, {"bike_id": "6bc6421eb8be384744bb666078ed2371", "type": "electric_scooter", "is_disabled": 0, "lat": 38.92494133333334, "rental_uris": {"ios": "https://dc.lft.to/lastmile_qr_scan", "android": "https://dc.lft.to/lastmile_qr_scan"}, "is_reserved": 0, "fusion_lon": 0.0, "fusion_lat": 0.0, "lon": -77.02154116666667, "name": "6bc6421eb8be384744bb666078ed2371"}, {"bike_id": "8a54757b4f467527a57f7878ea4b46a7", "type": "electric_scooter", "is_disabled": 0, "lat": 38.917561, "rental_uris": {"ios": "https://dc.lft.to/lastmile_qr_scan", "android": "https://dc.lft.to/lastmile_qr_scan"}, "is_reserved": 0, "fusion_lon": 0.0, "fusion_lat": 0.0, "lon": -77.02494716666666, "name": "8a54757b4f467527a57f7878ea4b46a7"}, {"bike_id": "4b64e99f7bb0389debacbefba5eb83d3", "type": "electric_scooter", "is_disabled": 0, "lat": 38.933093, "rental_uris": {"ios": "https://dc.lft.to/lastmile_qr_scan", "android": "https://dc.lft.to/lastmile_qr_scan"}, "is_reserved": 0, "fusion_lon": 0.0, "fusion_lat": 0.0, "lon": -77.03269266666666, "name": "4b64e99f7bb0389debacbefba5eb83d3"}, {"bike_id": "5b97db4a851f0265c3db7d5ad54f89ee", "type": "electric_scooter", "is_disabled": 0, "lat": 38.9047085, "rental_uris": {"ios": "https://dc.lft.to/lastmile_qr_scan", "android": "https://dc.lft.to/lastmile_qr_scan"}, "is_reserved": 0, "fusion_lon": 0.0, "fusion_lat": 0.0, "lon": -77.00736633333334, "name": "5b97db4a851f0265c3db7d5ad54f89ee"}, {"bike_id": "c904949e98a7e96eddcac55e61e02ef0", "type": "electric_scooter", "is_disabled": 0, "lat": 38.900504, "rental_uris": {"ios": "https://dc.lft.to/lastmile_qr_scan", "android": "https://dc.lft.to/lastmile_qr_scan"}, "is_reserved": 0, "fusion_lon": 0.0, "fusion_lat": 0.0, "lon": -77.0503155, "name": "c904949e98a7e96eddcac55e61e02ef0"}, {"bike_id": "96337314cb1c340f635f889fc8cb3656", "type": "electric_scooter", "is_disabled": 0, "lat": 38.916814, "rental_uris": {"ios": "https://dc.lft.to/lastmile_qr_scan", "android": "https://dc.lft.to/lastmile_qr_scan"}, "is_reserved": 0, "fusion_lon": 0.0, "fusion_lat": 0.0, "lon": -77.029246, "name": "96337314cb1c340f635f889fc8cb3656"}, {"bike_id": "112a65fbb79cfd50f8e0e4428aed58ac", "type": "electric_scooter", "is_disabled": 0, "lat": 38.90080316666667, "rental_uris": {"ios": "https://dc.lft.to/lastmile_qr_scan", "android": "https://dc.lft.to/lastmile_qr_scan"}, "is_reserved": 0, "fusion_lon": 0.0, "fusion_lat": 0.0, "lon": -77.04835833333334, "name": "112a65fbb79cfd50f8e0e4428aed58ac"}, {"bike_id": "3f6345e5ed4162856055fab0ae826043", "type": "electric_scooter", "is_disabled": 0, "lat": 38.933976666666666, "rental_uris": {"ios": "https://dc.lft.to/lastmile_qr_scan", "android": "https://dc.lft.to/lastmile_qr_scan"}, "is_reserved": 0, "fusion_lon": 0.0, "fusion_lat": 0.0, "lon": -77.05745983333334, "name": "3f6345e5ed4162856055fab0ae826043"}, {"bike_id": "297570632617a1f447dfd527d0121318", "type": "electric_scooter", "is_disabled": 0, "lat": 38.906699, "rental_uris": {"ios": "https://dc.lft.to/lastmile_qr_scan", "android": "https://dc.lft.to/lastmile_qr_scan"}, "is_reserved": 0, "fusion_lon": 0.0, "fusion_lat": 0.0, "lon": -77.02702533333333, "name": "297570632617a1f447dfd527d0121318"}, {"bike_id": "946cea58c688c1db17ab33327166b90c", "type": "electric_scooter", "is_disabled": 0, "lat": 38.96437516666667, "rental_uris": {"ios": "https://dc.lft.to/lastmile_qr_scan", "android": "https://dc.lft.to/lastmile_qr_scan"}, "is_reserved": 0, "fusion_lon": 0.0, "fusion_lat": 0.0, "lon": -77.020705, "name": "946cea58c688c1db17ab33327166b90c"}, {"bike_id": "b4f172a94f033c8727d73b37a27afe96", "type": "electric_scooter", "is_disabled": 0, "lat": 38.901484833333335, "rental_uris": {"ios": "https://dc.lft.to/lastmile_qr_scan", "android": "https://dc.lft.to/lastmile_qr_scan"}, "is_reserved": 0, "fusion_lon": 0.0, "fusion_lat": 0.0, "lon": -77.02285733333333, "name": "b4f172a94f033c8727d73b37a27afe96"}, {"bike_id": "9144d2d45c592a8864a74c22eff3cab3", "type": "electric_scooter", "is_disabled": 0, "lat": 38.90226033333333, "rental_uris": {"ios": "https://dc.lft.to/lastmile_qr_scan", "android": "https://dc.lft.to/lastmile_qr_scan"}, "is_reserved": 0, "fusion_lon": 0.0, "fusion_lat": 0.0, "lon": -77.02983816666666, "name": "9144d2d45c592a8864a74c22eff3cab3"}, {"bike_id": "bd6dac6818063087ba6d2965fd73e3b8", "type": "electric_scooter", "is_disabled": 0, "lat": 38.916334, "rental_uris": {"ios": "https://dc.lft.to/lastmile_qr_scan", "android": "https://dc.lft.to/lastmile_qr_scan"}, "is_reserved": 0, "fusion_lon": 0.0, "fusion_lat": 0.0, "lon": -77.02547266666667, "name": "bd6dac6818063087ba6d2965fd73e3b8"}, {"bike_id": "b85d0a42771051783d7fe4b736634fde", "type": "electric_scooter", "is_disabled": 0, "lat": 38.89735366666667, "rental_uris": {"ios": "https://dc.lft.to/lastmile_qr_scan", "android": "https://dc.lft.to/lastmile_qr_scan"}, "is_reserved": 0, "fusion_lon": 0.0, "fusion_lat": 0.0, "lon": -76.94728166666667, "name": "b85d0a42771051783d7fe4b736634fde"}, {"bike_id": "20b4ba3d129cfc3121fa99c3749a04a7", "type": "electric_scooter", "is_disabled": 0, "lat": 38.9174085, "rental_uris": {"ios": "https://dc.lft.to/lastmile_qr_scan", "android": "https://dc.lft.to/lastmile_qr_scan"}, "is_reserved": 0, "fusion_lon": 0.0, "fusion_lat": 0.0, "lon": -77.03189066666667, "name": "20b4ba3d129cfc3121fa99c3749a04a7"}, {"bike_id": "e736d553832a2e7aa2c7510abb048677", "type": "electric_scooter", "is_disabled": 0, "lat": 38.8747555, "rental_uris": {"ios": "https://dc.lft.to/lastmile_qr_scan", "android": "https://dc.lft.to/lastmile_qr_scan"}, "is_reserved": 0, "fusion_lon": 0.0, "fusion_lat": 0.0, "lon": -77.010763, "name": "e736d553832a2e7aa2c7510abb048677"}, {"bike_id": "1ba95129153d7643a5259975eb74923e", "type": "electric_scooter", "is_disabled": 0, "lat": 38.905022, "rental_uris": {"ios": "https://dc.lft.to/lastmile_qr_scan", "android": "https://dc.lft.to/lastmile_qr_scan"}, "is_reserved": 0, "fusion_lon": 0.0, "fusion_lat": 0.0, "lon": -76.99958133333334, "name": "1ba95129153d7643a5259975eb74923e"}, {"bike_id": "f65963a747a57413cfa0b0a4644f7b0f", "type": "electric_bike", "is_disabled": 0, "lat": 38.878839, "rental_uris": {"ios": "https://dc.lft.to/lastmile_qr_scan", "android": "https://dc.lft.to/lastmile_qr_scan"}, "is_reserved": 0, "fusion_lon": 0.0, "fusion_lat": 0.0, "lon": -77.09615683333334, "name": "f65963a747a57413cfa0b0a4644f7b0f"}, {"bike_id": "94d7d7abd077a7f1afdd0d032461f0a3", "type": "electric_scooter", "is_disabled": 0, "lat": 38.915460833333334, "rental_uris": {"ios": "https://dc.lft.to/lastmile_qr_scan", "android": "https://dc.lft.to/lastmile_qr_scan"}, "is_reserved": 0, "fusion_lon": 0.0, "fusion_lat": 0.0, "lon": -77.03217083333334, "name": "94d7d7abd077a7f1afdd0d032461f0a3"}, {"bike_id": "41ce90490b7f16b14a0024a64f9b3a76", "type": "electric_scooter", "is_disabled": 0, "lat": 38.90322616666667, "rental_uris": {"ios": "https://dc.lft.to/lastmile_qr_scan", "android": "https://dc.lft.to/lastmile_qr_scan"}, "is_reserved": 0, "fusion_lon": 0.0, "fusion_lat": 0.0, "lon": -77.02887183333333, "name": "41ce90490b7f16b14a0024a64f9b3a76"}, {"bike_id": "799a2c4bc3358d9c89aa437ef8509b35", "type": "electric_scooter", "is_disabled": 0, "lat": 38.90053066666667, "rental_uris": {"ios": "https://dc.lft.to/lastmile_qr_scan", "android": "https://dc.lft.to/lastmile_qr_scan"}, "is_reserved": 0, "fusion_lon": 0.0, "fusion_lat": 0.0, "lon": -76.99762133333333, "name": "799a2c4bc3358d9c89aa437ef8509b35"}, {"bike_id": "eee65665063cc1a146d339bbf344d578", "type": "electric_scooter", "is_disabled": 0, "lat": 38.9237105, "rental_uris": {"ios": "https://dc.lft.to/lastmile_qr_scan", "android": "https://dc.lft.to/lastmile_qr_scan"}, "is_reserved": 0, "fusion_lon": 0.0, "fusion_lat": 0.0, "lon": -77.04312816666666, "name": "eee65665063cc1a146d339bbf344d578"}, {"bike_id": "c3874581133a25d6f31686e88d57b2a1", "type": "electric_scooter", "is_disabled": 0, "lat": 38.907530333333334, "rental_uris": {"ios": "https://dc.lft.to/lastmile_qr_scan", "android": "https://dc.lft.to/lastmile_qr_scan"}, "is_reserved": 0, "fusion_lon": 0.0, "fusion_lat": 0.0, "lon": -77.04149233333334, "name": "c3874581133a25d6f31686e88d57b2a1"}, {"bike_id": "b1491eed15555fc46723458c7b173ee4", "type": "electric_scooter", "is_disabled": 0, "lat": 38.900901, "rental_uris": {"ios": "https://dc.lft.to/lastmile_qr_scan", "android": "https://dc.lft.to/lastmile_qr_scan"}, "is_reserved": 0, "fusion_lon": 0.0, "fusion_lat": 0.0, "lon": -77.02435283333334, "name": "b1491eed15555fc46723458c7b173ee4"}, {"bike_id": "1c1e967c7448d9c81088153950e6870d", "type": "electric_scooter", "is_disabled": 0, "lat": 38.9317255, "rental_uris": {"ios": "https://dc.lft.to/lastmile_qr_scan", "android": "https://dc.lft.to/lastmile_qr_scan"}, "is_reserved": 0, "fusion_lon": 0.0, "fusion_lat": 0.0, "lon": -77.03164, "name": "1c1e967c7448d9c81088153950e6870d"}, {"bike_id": "4b40a66bb4e6b8a44cebf526f76017d8", "type": "electric_scooter", "is_disabled": 0, "lat": 38.887704166666666, "rental_uris": {"ios": "https://dc.lft.to/lastmile_qr_scan", "android": "https://dc.lft.to/lastmile_qr_scan"}, "is_reserved": 0, "fusion_lon": 0.0, "fusion_lat": 0.0, "lon": -76.95524116666667, "name": "4b40a66bb4e6b8a44cebf526f76017d8"}, {"bike_id": "fedc4ac1cd362c80b8dfdd209449761d", "type": "electric_scooter", "is_disabled": 0, "lat": 38.91557066666667, "rental_uris": {"ios": "https://dc.lft.to/lastmile_qr_scan", "android": "https://dc.lft.to/lastmile_qr_scan"}, "is_reserved": 0, "fusion_lon": 0.0, "fusion_lat": 0.0, "lon": -77.03262966666667, "name": "fedc4ac1cd362c80b8dfdd209449761d"}, {"bike_id": "4b89eace8dbfb440d823b755cfb894ef", "type": "electric_scooter", "is_disabled": 0, "lat": 38.901281166666664, "rental_uris": {"ios": "https://dc.lft.to/lastmile_qr_scan", "android": "https://dc.lft.to/lastmile_qr_scan"}, "is_reserved": 0, "fusion_lon": 0.0, "fusion_lat": 0.0, "lon": -77.0323505, "name": "4b89eace8dbfb440d823b755cfb894ef"}, {"bike_id": "a7dce7fe1f317dbdbfb6bcaaa8bce789", "type": "electric_scooter", "is_disabled": 0, "lat": 38.9094305, "rental_uris": {"ios": "https://dc.lft.to/lastmile_qr_scan", "android": "https://dc.lft.to/lastmile_qr_scan"}, "is_reserved": 0, "fusion_lon": 0.0, "fusion_lat": 0.0, "lon": -77.05569, "name": "a7dce7fe1f317dbdbfb6bcaaa8bce789"}, {"bike_id": "e4ea1240e19c4e6797ddd2822daee16f", "type": "electric_scooter", "is_disabled": 0, "lat": 38.8662505, "rental_uris": {"ios": "https://dc.lft.to/lastmile_qr_scan", "android": "https://dc.lft.to/lastmile_qr_scan"}, "is_reserved": 0, "fusion_lon": 0.0, "fusion_lat": 0.0, "lon": -76.98714583333333, "name": "e4ea1240e19c4e6797ddd2822daee16f"}, {"bike_id": "388c463e9dd82beab50b85277280f0f3", "type": "electric_scooter", "is_disabled": 0, "lat": 38.92286683333333, "rental_uris": {"ios": "https://dc.lft.to/lastmile_qr_scan", "android": "https://dc.lft.to/lastmile_qr_scan"}, "is_reserved": 0, "fusion_lon": 0.0, "fusion_lat": 0.0, "lon": -77.0447285, "name": "388c463e9dd82beab50b85277280f0f3"}, {"bike_id": "f52a1bc3bfd546b8a876bdf24b3873d6", "type": "electric_scooter", "is_disabled": 0, "lat": 38.896283, "rental_uris": {"ios": "https://dc.lft.to/lastmile_qr_scan", "android": "https://dc.lft.to/lastmile_qr_scan"}, "is_reserved": 0, "fusion_lon": 0.0, "fusion_lat": 0.0, "lon": -77.070872, "name": "f52a1bc3bfd546b8a876bdf24b3873d6"}, {"bike_id": "1db061ce81844e2fdac567a65a5740ef", "type": "electric_scooter", "is_disabled": 0, "lat": 38.910203333333335, "rental_uris": {"ios": "https://dc.lft.to/lastmile_qr_scan", "android": "https://dc.lft.to/lastmile_qr_scan"}, "is_reserved": 0, "fusion_lon": 0.0, "fusion_lat": 0.0, "lon": -77.03194783333333, "name": "1db061ce81844e2fdac567a65a5740ef"}, {"bike_id": "a201119d3f1a1667a28f20c8209ae2ce", "type": "electric_scooter", "is_disabled": 0, "lat": 38.907863166666665, "rental_uris": {"ios": "https://dc.lft.to/lastmile_qr_scan", "android": "https://dc.lft.to/lastmile_qr_scan"}, "is_reserved": 0, "fusion_lon": 0.0, "fusion_lat": 0.0, "lon": -77.0482675, "name": "a201119d3f1a1667a28f20c8209ae2ce"}, {"bike_id": "8fc162217e7e5ed68bd578377e395630", "type": "electric_bike", "is_disabled": 0, "lat": 38.91563566666667, "rental_uris": {"ios": "https://dc.lft.to/lastmile_qr_scan", "android": "https://dc.lft.to/lastmile_qr_scan"}, "is_reserved": 0, "fusion_lon": 0.0, "fusion_lat": 0.0, "lon": -77.03321866666667, "name": "8fc162217e7e5ed68bd578377e395630"}, {"bike_id": "5a5452e5f3aa5f2e25249fdee1a71d97", "type": "electric_scooter", "is_disabled": 0, "lat": 38.9183855, "rental_uris": {"ios": "https://dc.lft.to/lastmile_qr_scan", "android": "https://dc.lft.to/lastmile_qr_scan"}, "is_reserved": 0, "fusion_lon": 0.0, "fusion_lat": 0.0, "lon": -77.02306766666666, "name": "5a5452e5f3aa5f2e25249fdee1a71d97"}, {"bike_id": "463b2d469ad4f0f594d9dab7e5f1c713", "type": "electric_scooter", "is_disabled": 0, "lat": 38.9314275, "rental_uris": {"ios": "https://dc.lft.to/lastmile_qr_scan", "android": "https://dc.lft.to/lastmile_qr_scan"}, "is_reserved": 0, "fusion_lon": 0.0, "fusion_lat": 0.0, "lon": -77.0335615, "name": "463b2d469ad4f0f594d9dab7e5f1c713"}, {"bike_id": "0ee6409bfd8a08bc6ba14db5b4aaa1ec", "type": "electric_scooter", "is_disabled": 0, "lat": 38.918383666666664, "rental_uris": {"ios": "https://dc.lft.to/lastmile_qr_scan", "android": "https://dc.lft.to/lastmile_qr_scan"}, "is_reserved": 0, "fusion_lon": 0.0, "fusion_lat": 0.0, "lon": -76.965584, "name": "0ee6409bfd8a08bc6ba14db5b4aaa1ec"}, {"bike_id": "ac22f88bcf3b981d62a46fd3a56cf813", "type": "electric_scooter", "is_disabled": 0, "lat": 38.940211, "rental_uris": {"ios": "https://dc.lft.to/lastmile_qr_scan", "android": "https://dc.lft.to/lastmile_qr_scan"}, "is_reserved": 0, "fusion_lon": 0.0, "fusion_lat": 0.0, "lon": -76.97609783333333, "name": "ac22f88bcf3b981d62a46fd3a56cf813"}, {"bike_id": "80b5f3dde69928689a775b793007f843", "type": "electric_scooter", "is_disabled": 0, "lat": 38.918403833333336, "rental_uris": {"ios": "https://dc.lft.to/lastmile_qr_scan", "android": "https://dc.lft.to/lastmile_qr_scan"}, "is_reserved": 0, "fusion_lon": 0.0, "fusion_lat": 0.0, "lon": -76.9655765, "name": "80b5f3dde69928689a775b793007f843"}, {"bike_id": "7774d642047e3c75e6d11723526b76a6", "type": "electric_scooter", "is_disabled": 0, "lat": 38.89476916666667, "rental_uris": {"ios": "https://dc.lft.to/lastmile_qr_scan", "android": "https://dc.lft.to/lastmile_qr_scan"}, "is_reserved": 0, "fusion_lon": 0.0, "fusion_lat": 0.0, "lon": -76.948589, "name": "7774d642047e3c75e6d11723526b76a6"}, {"bike_id": "f7e41be38f127efee0d88144a38beefa", "type": "electric_scooter", "is_disabled": 0, "lat": 38.89426016666667, "rental_uris": {"ios": "https://dc.lft.to/lastmile_qr_scan", "android": "https://dc.lft.to/lastmile_qr_scan"}, "is_reserved": 0, "fusion_lon": 0.0, "fusion_lat": 0.0, "lon": -77.01055933333333, "name": "f7e41be38f127efee0d88144a38beefa"}, {"bike_id": "929357ce602ed828298d3091aa1e79b7", "type": "electric_bike", "is_disabled": 0, "lat": 38.978901666666665, "rental_uris": {"ios": "https://dc.lft.to/lastmile_qr_scan", "android": "https://dc.lft.to/lastmile_qr_scan"}, "is_reserved": 0, "fusion_lon": 0.0, "fusion_lat": 0.0, "lon": -77.06037383333333, "name": "929357ce602ed828298d3091aa1e79b7"}, {"bike_id": "6b58fb91662c8a1f38b627e1790c6876", "type": "electric_scooter", "is_disabled": 0, "lat": 38.916916666666665, "rental_uris": {"ios": "https://dc.lft.to/lastmile_qr_scan", "android": "https://dc.lft.to/lastmile_qr_scan"}, "is_reserved": 0, "fusion_lon": 0.0, "fusion_lat": 0.0, "lon": -77.03774516666667, "name": "6b58fb91662c8a1f38b627e1790c6876"}, {"bike_id": "0634480d1ae3c36ef195326717dda177", "type": "electric_scooter", "is_disabled": 0, "lat": 38.916985833333335, "rental_uris": {"ios": "https://dc.lft.to/lastmile_qr_scan", "android": "https://dc.lft.to/lastmile_qr_scan"}, "is_reserved": 0, "fusion_lon": 0.0, "fusion_lat": 0.0, "lon": -77.03173366666667, "name": "0634480d1ae3c36ef195326717dda177"}, {"bike_id": "bc0b0f9e01e45a076e55060fbf3bb8ef", "type": "electric_scooter", "is_disabled": 0, "lat": 38.91538383333334, "rental_uris": {"ios": "https://dc.lft.to/lastmile_qr_scan", "android": "https://dc.lft.to/lastmile_qr_scan"}, "is_reserved": 0, "fusion_lon": 0.0, "fusion_lat": 0.0, "lon": -77.02207133333333, "name": "bc0b0f9e01e45a076e55060fbf3bb8ef"}, {"bike_id": "081f90b4d55c2622d14596b0d5e8a6ce", "type": "electric_scooter", "is_disabled": 0, "lat": 38.9002055, "rental_uris": {"ios": "https://dc.lft.to/lastmile_qr_scan", "android": "https://dc.lft.to/lastmile_qr_scan"}, "is_reserved": 0, "fusion_lon": 0.0, "fusion_lat": 0.0, "lon": -76.98537583333334, "name": "081f90b4d55c2622d14596b0d5e8a6ce"}, {"bike_id": "ca8e9d1ebc5fbd042fac20b3de9b2388", "type": "electric_scooter", "is_disabled": 0, "lat": 38.91765766666666, "rental_uris": {"ios": "https://dc.lft.to/lastmile_qr_scan", "android": "https://dc.lft.to/lastmile_qr_scan"}, "is_reserved": 0, "fusion_lon": 0.0, "fusion_lat": 0.0, "lon": -77.02279666666666, "name": "ca8e9d1ebc5fbd042fac20b3de9b2388"}, {"bike_id": "936fc8638d4f2dcb0076a63df91c24ab", "type": "electric_scooter", "is_disabled": 0, "lat": 38.87433083333333, "rental_uris": {"ios": "https://dc.lft.to/lastmile_qr_scan", "android": "https://dc.lft.to/lastmile_qr_scan"}, "is_reserved": 0, "fusion_lon": 0.0, "fusion_lat": 0.0, "lon": -77.0006125, "name": "936fc8638d4f2dcb0076a63df91c24ab"}, {"bike_id": "a315c0fd511c753e7fbe80e1e7b51453", "type": "electric_scooter", "is_disabled": 0, "lat": 38.9248905, "rental_uris": {"ios": "https://dc.lft.to/lastmile_qr_scan", "android": "https://dc.lft.to/lastmile_qr_scan"}, "is_reserved": 0, "fusion_lon": 0.0, "fusion_lat": 0.0, "lon": -77.02448933333334, "name": "a315c0fd511c753e7fbe80e1e7b51453"}, {"bike_id": "edf957546cfaddd8b393ee5937ced2f4", "type": "electric_scooter", "is_disabled": 0, "lat": 38.965509, "rental_uris": {"ios": "https://dc.lft.to/lastmile_qr_scan", "android": "https://dc.lft.to/lastmile_qr_scan"}, "is_reserved": 0, "fusion_lon": 0.0, "fusion_lat": 0.0, "lon": -77.03625116666667, "name": "edf957546cfaddd8b393ee5937ced2f4"}, {"bike_id": "af1f2bec1064e615f5fb976bd6c45e7f", "type": "electric_scooter", "is_disabled": 0, "lat": 38.91906266666667, "rental_uris": {"ios": "https://dc.lft.to/lastmile_qr_scan", "android": "https://dc.lft.to/lastmile_qr_scan"}, "is_reserved": 0, "fusion_lon": 0.0, "fusion_lat": 0.0, "lon": -77.03129883333334, "name": "af1f2bec1064e615f5fb976bd6c45e7f"}, {"bike_id": "a77ac4e9a9facb0177dbf286ab21ae0a", "type": "electric_scooter", "is_disabled": 0, "lat": 38.8950755, "rental_uris": {"ios": "https://dc.lft.to/lastmile_qr_scan", "android": "https://dc.lft.to/lastmile_qr_scan"}, "is_reserved": 0, "fusion_lon": 0.0, "fusion_lat": 0.0, "lon": -77.043556, "name": "a77ac4e9a9facb0177dbf286ab21ae0a"}, {"bike_id": "94c6e3d434f41450c6a928b882d19b65", "type": "electric_scooter", "is_disabled": 0, "lat": 38.89994166666666, "rental_uris": {"ios": "https://dc.lft.to/lastmile_qr_scan", "android": "https://dc.lft.to/lastmile_qr_scan"}, "is_reserved": 0, "fusion_lon": 0.0, "fusion_lat": 0.0, "lon": -77.02723116666667, "name": "94c6e3d434f41450c6a928b882d19b65"}, {"bike_id": "f622fded2a746db5a76b5e80bf613f52", "type": "electric_scooter", "is_disabled": 0, "lat": 38.922299333333335, "rental_uris": {"ios": "https://dc.lft.to/lastmile_qr_scan", "android": "https://dc.lft.to/lastmile_qr_scan"}, "is_reserved": 0, "fusion_lon": 0.0, "fusion_lat": 0.0, "lon": -76.97532916666667, "name": "f622fded2a746db5a76b5e80bf613f52"}, {"bike_id": "f4551ea5169d1e744f3a382f2c1541cb", "type": "electric_scooter", "is_disabled": 0, "lat": 38.903550833333334, "rental_uris": {"ios": "https://dc.lft.to/lastmile_qr_scan", "android": "https://dc.lft.to/lastmile_qr_scan"}, "is_reserved": 0, "fusion_lon": 0.0, "fusion_lat": 0.0, "lon": -76.9922535, "name": "f4551ea5169d1e744f3a382f2c1541cb"}, {"bike_id": "498931752cac12579714265676af06ee", "type": "electric_scooter", "is_disabled": 0, "lat": 38.91139966666667, "rental_uris": {"ios": "https://dc.lft.to/lastmile_qr_scan", "android": "https://dc.lft.to/lastmile_qr_scan"}, "is_reserved": 0, "fusion_lon": 0.0, "fusion_lat": 0.0, "lon": -77.04496816666666, "name": "498931752cac12579714265676af06ee"}, {"bike_id": "bfd82ddb6b39c3ccc1fc9427de204a00", "type": "electric_scooter", "is_disabled": 0, "lat": 38.956356166666666, "rental_uris": {"ios": "https://dc.lft.to/lastmile_qr_scan", "android": "https://dc.lft.to/lastmile_qr_scan"}, "is_reserved": 0, "fusion_lon": 0.0, "fusion_lat": 0.0, "lon": -77.03629816666667, "name": "bfd82ddb6b39c3ccc1fc9427de204a00"}, {"bike_id": "c796871bfc5d956b83e93319b2c25e84", "type": "electric_bike", "is_disabled": 0, "lat": 39.051071666666665, "rental_uris": {"ios": "https://dc.lft.to/lastmile_qr_scan", "android": "https://dc.lft.to/lastmile_qr_scan"}, "is_reserved": 0, "fusion_lon": 0.0, "fusion_lat": 0.0, "lon": -77.11749433333334, "name": "c796871bfc5d956b83e93319b2c25e84"}, {"bike_id": "cc28c97bef427a7db170a5a5e4ba7247", "type": "electric_scooter", "is_disabled": 0, "lat": 38.93317916666667, "rental_uris": {"ios": "https://dc.lft.to/lastmile_qr_scan", "android": "https://dc.lft.to/lastmile_qr_scan"}, "is_reserved": 0, "fusion_lon": 0.0, "fusion_lat": 0.0, "lon": -77.02755233333333, "name": "cc28c97bef427a7db170a5a5e4ba7247"}, {"bike_id": "fe11b525d7e6a4356ea589115d507dc9", "type": "electric_scooter", "is_disabled": 0, "lat": 38.90709716666667, "rental_uris": {"ios": "https://dc.lft.to/lastmile_qr_scan", "android": "https://dc.lft.to/lastmile_qr_scan"}, "is_reserved": 0, "fusion_lon": 0.0, "fusion_lat": 0.0, "lon": -77.02404466666667, "name": "fe11b525d7e6a4356ea589115d507dc9"}, {"bike_id": "7418a9a48f04eeea51da920709e3da64", "type": "electric_scooter", "is_disabled": 0, "lat": 38.92744783333333, "rental_uris": {"ios": "https://dc.lft.to/lastmile_qr_scan", "android": "https://dc.lft.to/lastmile_qr_scan"}, "is_reserved": 0, "fusion_lon": 0.0, "fusion_lat": 0.0, "lon": -77.02536733333334, "name": "7418a9a48f04eeea51da920709e3da64"}, {"bike_id": "ec84ecc6021e09c209c2d6158b9249d2", "type": "electric_scooter", "is_disabled": 0, "lat": 38.934642833333335, "rental_uris": {"ios": "https://dc.lft.to/lastmile_qr_scan", "android": "https://dc.lft.to/lastmile_qr_scan"}, "is_reserved": 0, "fusion_lon": 0.0, "fusion_lat": 0.0, "lon": -77.02766683333333, "name": "ec84ecc6021e09c209c2d6158b9249d2"}, {"bike_id": "a32d6cb59a26e26943e936ffb157697f", "type": "electric_scooter", "is_disabled": 0, "lat": 38.952519333333335, "rental_uris": {"ios": "https://dc.lft.to/lastmile_qr_scan", "android": "https://dc.lft.to/lastmile_qr_scan"}, "is_reserved": 0, "fusion_lon": 0.0, "fusion_lat": 0.0, "lon": -77.0196615, "name": "a32d6cb59a26e26943e936ffb157697f"}, {"bike_id": "e7845069af1756395c351bb811ac4acf", "type": "electric_bike", "is_disabled": 0, "lat": 38.983683, "rental_uris": {"ios": "https://dc.lft.to/lastmile_qr_scan", "android": "https://dc.lft.to/lastmile_qr_scan"}, "is_reserved": 0, "fusion_lon": 0.0, "fusion_lat": 0.0, "lon": -76.9721895, "name": "e7845069af1756395c351bb811ac4acf"}, {"bike_id": "1bcc33a5b2f5d6c3cdfc3b5b01ef4f1b", "type": "electric_scooter", "is_disabled": 0, "lat": 38.897245833333336, "rental_uris": {"ios": "https://dc.lft.to/lastmile_qr_scan", "android": "https://dc.lft.to/lastmile_qr_scan"}, "is_reserved": 0, "fusion_lon": 0.0, "fusion_lat": 0.0, "lon": -77.04608983333334, "name": "1bcc33a5b2f5d6c3cdfc3b5b01ef4f1b"}, {"bike_id": "64bdb1cc1a3dd00afbc51e7ad815c493", "type": "electric_scooter", "is_disabled": 0, "lat": 38.86649083333333, "rental_uris": {"ios": "https://dc.lft.to/lastmile_qr_scan", "android": "https://dc.lft.to/lastmile_qr_scan"}, "is_reserved": 0, "fusion_lon": 0.0, "fusion_lat": 0.0, "lon": -76.98821, "name": "64bdb1cc1a3dd00afbc51e7ad815c493"}, {"bike_id": "9d0fcc89da3f588438a725583fee240b", "type": "electric_scooter", "is_disabled": 0, "lat": 38.866836, "rental_uris": {"ios": "https://dc.lft.to/lastmile_qr_scan", "android": "https://dc.lft.to/lastmile_qr_scan"}, "is_reserved": 0, "fusion_lon": 0.0, "fusion_lat": 0.0, "lon": -76.98579266666667, "name": "9d0fcc89da3f588438a725583fee240b"}, {"bike_id": "2255362958312db2fa91b69d02cfee72", "type": "electric_scooter", "is_disabled": 0, "lat": 38.887349666666665, "rental_uris": {"ios": "https://dc.lft.to/lastmile_qr_scan", "android": "https://dc.lft.to/lastmile_qr_scan"}, "is_reserved": 0, "fusion_lon": 0.0, "fusion_lat": 0.0, "lon": -77.031958, "name": "2255362958312db2fa91b69d02cfee72"}, {"bike_id": "f9851fac339c5973eaba0308218609de", "type": "electric_bike", "is_disabled": 0, "lat": 38.85934816666666, "rental_uris": {"ios": "https://dc.lft.to/lastmile_qr_scan", "android": "https://dc.lft.to/lastmile_qr_scan"}, "is_reserved": 0, "fusion_lon": 0.0, "fusion_lat": 0.0, "lon": -77.1183345, "name": "f9851fac339c5973eaba0308218609de"}, {"bike_id": "6ae7ada0905f28bea2fc1661a339ad4c", "type": "electric_bike", "is_disabled": 0, "lat": 38.8236445, "rental_uris": {"ios": "https://dc.lft.to/lastmile_qr_scan", "android": "https://dc.lft.to/lastmile_qr_scan"}, "is_reserved": 0, "fusion_lon": 0.0, "fusion_lat": 0.0, "lon": -77.00224783333333, "name": "6ae7ada0905f28bea2fc1661a339ad4c"}, {"bike_id": "32ff1b0661b3218191ae0b45f6ddc4a2", "type": "electric_scooter", "is_disabled": 0, "lat": 38.915635, "rental_uris": {"ios": "https://dc.lft.to/lastmile_qr_scan", "android": "https://dc.lft.to/lastmile_qr_scan"}, "is_reserved": 0, "fusion_lon": 0.0, "fusion_lat": 0.0, "lon": -77.01958083333334, "name": "32ff1b0661b3218191ae0b45f6ddc4a2"}, {"bike_id": "c997b935caac02ebc8ac8c647de36e84", "type": "electric_scooter", "is_disabled": 0, "lat": 38.92105433333333, "rental_uris": {"ios": "https://dc.lft.to/lastmile_qr_scan", "android": "https://dc.lft.to/lastmile_qr_scan"}, "is_reserved": 0, "fusion_lon": 0.0, "fusion_lat": 0.0, "lon": -77.04693433333334, "name": "c997b935caac02ebc8ac8c647de36e84"}, {"bike_id": "d44217b5edf26531301f624a05e2477f", "type": "electric_scooter", "is_disabled": 0, "lat": 38.8973245, "rental_uris": {"ios": "https://dc.lft.to/lastmile_qr_scan", "android": "https://dc.lft.to/lastmile_qr_scan"}, "is_reserved": 0, "fusion_lon": 0.0, "fusion_lat": 0.0, "lon": -77.02463083333333, "name": "d44217b5edf26531301f624a05e2477f"}, {"bike_id": "cfe6272b6ac9fb71dff7250e1e23f7db", "type": "electric_scooter", "is_disabled": 0, "lat": 38.91408716666667, "rental_uris": {"ios": "https://dc.lft.to/lastmile_qr_scan", "android": "https://dc.lft.to/lastmile_qr_scan"}, "is_reserved": 0, "fusion_lon": 0.0, "fusion_lat": 0.0, "lon": -77.02430433333333, "name": "cfe6272b6ac9fb71dff7250e1e23f7db"}, {"bike_id": "b2fa8add6d8992d00d6c344c8112f932", "type": "electric_scooter", "is_disabled": 0, "lat": 38.915585166666666, "rental_uris": {"ios": "https://dc.lft.to/lastmile_qr_scan", "android": "https://dc.lft.to/lastmile_qr_scan"}, "is_reserved": 0, "fusion_lon": 0.0, "fusion_lat": 0.0, "lon": -77.02051333333333, "name": "b2fa8add6d8992d00d6c344c8112f932"}, {"bike_id": "d889408974e9f7641b648e98dd469d81", "type": "electric_scooter", "is_disabled": 0, "lat": 38.9249005, "rental_uris": {"ios": "https://dc.lft.to/lastmile_qr_scan", "android": "https://dc.lft.to/lastmile_qr_scan"}, "is_reserved": 0, "fusion_lon": 0.0, "fusion_lat": 0.0, "lon": -77.0217625, "name": "d889408974e9f7641b648e98dd469d81"}, {"bike_id": "29222f1cc9b0fe2e8a3bfc96a7b1ee16", "type": "electric_scooter", "is_disabled": 0, "lat": 38.908978166666664, "rental_uris": {"ios": "https://dc.lft.to/lastmile_qr_scan", "android": "https://dc.lft.to/lastmile_qr_scan"}, "is_reserved": 0, "fusion_lon": 0.0, "fusion_lat": 0.0, "lon": -77.04433616666667, "name": "29222f1cc9b0fe2e8a3bfc96a7b1ee16"}, {"bike_id": "385be01cbeac59a4e46682007913f1e8", "type": "electric_scooter", "is_disabled": 0, "lat": 38.9156835, "rental_uris": {"ios": "https://dc.lft.to/lastmile_qr_scan", "android": "https://dc.lft.to/lastmile_qr_scan"}, "is_reserved": 0, "fusion_lon": 0.0, "fusion_lat": 0.0, "lon": -77.0196165, "name": "385be01cbeac59a4e46682007913f1e8"}, {"bike_id": "a8ed9fb49dc834cfa07100548c323abc", "type": "electric_scooter", "is_disabled": 0, "lat": 38.924769833333336, "rental_uris": {"ios": "https://dc.lft.to/lastmile_qr_scan", "android": "https://dc.lft.to/lastmile_qr_scan"}, "is_reserved": 0, "fusion_lon": 0.0, "fusion_lat": 0.0, "lon": -77.02833783333334, "name": "a8ed9fb49dc834cfa07100548c323abc"}, {"bike_id": "20751b0f625043fade77d94ceb49b886", "type": "electric_scooter", "is_disabled": 0, "lat": 38.8669765, "rental_uris": {"ios": "https://dc.lft.to/lastmile_qr_scan", "android": "https://dc.lft.to/lastmile_qr_scan"}, "is_reserved": 0, "fusion_lon": 0.0, "fusion_lat": 0.0, "lon": -76.98545433333334, "name": "20751b0f625043fade77d94ceb49b886"}, {"bike_id": "55739e5494b91bb2075b155d46a89121", "type": "electric_scooter", "is_disabled": 0, "lat": 38.8978155, "rental_uris": {"ios": "https://dc.lft.to/lastmile_qr_scan", "android": "https://dc.lft.to/lastmile_qr_scan"}, "is_reserved": 0, "fusion_lon": 0.0, "fusion_lat": 0.0, "lon": -76.94739116666666, "name": "55739e5494b91bb2075b155d46a89121"}, {"bike_id": "a3c98f9991d3a631f0619c861b1c868a", "type": "electric_scooter", "is_disabled": 0, "lat": 38.91265816666667, "rental_uris": {"ios": "https://dc.lft.to/lastmile_qr_scan", "android": "https://dc.lft.to/lastmile_qr_scan"}, "is_reserved": 0, "fusion_lon": 0.0, "fusion_lat": 0.0, "lon": -77.01145116666666, "name": "a3c98f9991d3a631f0619c861b1c868a"}, {"bike_id": "1a985b6aa8f3022aa6df6a904fe440d6", "type": "electric_scooter", "is_disabled": 0, "lat": 38.92165166666667, "rental_uris": {"ios": "https://dc.lft.to/lastmile_qr_scan", "android": "https://dc.lft.to/lastmile_qr_scan"}, "is_reserved": 0, "fusion_lon": 0.0, "fusion_lat": 0.0, "lon": -77.038461, "name": "1a985b6aa8f3022aa6df6a904fe440d6"}, {"bike_id": "65c608f45234a6cb966749d78ff999dc", "type": "electric_scooter", "is_disabled": 0, "lat": 38.889745, "rental_uris": {"ios": "https://dc.lft.to/lastmile_qr_scan", "android": "https://dc.lft.to/lastmile_qr_scan"}, "is_reserved": 0, "fusion_lon": 0.0, "fusion_lat": 0.0, "lon": -76.98244916666667, "name": "65c608f45234a6cb966749d78ff999dc"}, {"bike_id": "bf453c18e07fa242de8a8ce2068cfb5b", "type": "electric_scooter", "is_disabled": 0, "lat": 38.896851, "rental_uris": {"ios": "https://dc.lft.to/lastmile_qr_scan", "android": "https://dc.lft.to/lastmile_qr_scan"}, "is_reserved": 0, "fusion_lon": 0.0, "fusion_lat": 0.0, "lon": -76.99972283333334, "name": "bf453c18e07fa242de8a8ce2068cfb5b"}, {"bike_id": "80cf4da355e530c4ab98d1a5824d34ba", "type": "electric_scooter", "is_disabled": 0, "lat": 38.8865455, "rental_uris": {"ios": "https://dc.lft.to/lastmile_qr_scan", "android": "https://dc.lft.to/lastmile_qr_scan"}, "is_reserved": 0, "fusion_lon": 0.0, "fusion_lat": 0.0, "lon": -77.03391066666667, "name": "80cf4da355e530c4ab98d1a5824d34ba"}, {"bike_id": "4d1ed056545d8280118873e6ce85f8e1", "type": "electric_scooter", "is_disabled": 0, "lat": 38.91817483333333, "rental_uris": {"ios": "https://dc.lft.to/lastmile_qr_scan", "android": "https://dc.lft.to/lastmile_qr_scan"}, "is_reserved": 0, "fusion_lon": 0.0, "fusion_lat": 0.0, "lon": -77.02716366666667, "name": "4d1ed056545d8280118873e6ce85f8e1"}, {"bike_id": "b49c208668f6d28c0565099244f8e061", "type": "electric_scooter", "is_disabled": 0, "lat": 38.926722166666664, "rental_uris": {"ios": "https://dc.lft.to/lastmile_qr_scan", "android": "https://dc.lft.to/lastmile_qr_scan"}, "is_reserved": 0, "fusion_lon": 0.0, "fusion_lat": 0.0, "lon": -77.01476383333333, "name": "b49c208668f6d28c0565099244f8e061"}, {"bike_id": "0462c2155e1a87654bee58966f7396c6", "type": "electric_scooter", "is_disabled": 0, "lat": 38.88706083333334, "rental_uris": {"ios": "https://dc.lft.to/lastmile_qr_scan", "android": "https://dc.lft.to/lastmile_qr_scan"}, "is_reserved": 0, "fusion_lon": 0.0, "fusion_lat": 0.0, "lon": -77.02210183333334, "name": "0462c2155e1a87654bee58966f7396c6"}, {"bike_id": "8d284a9a8da552f6ee52047734a5d8be", "type": "electric_scooter", "is_disabled": 0, "lat": 38.900301666666664, "rental_uris": {"ios": "https://dc.lft.to/lastmile_qr_scan", "android": "https://dc.lft.to/lastmile_qr_scan"}, "is_reserved": 0, "fusion_lon": 0.0, "fusion_lat": 0.0, "lon": -76.9915565, "name": "8d284a9a8da552f6ee52047734a5d8be"}, {"bike_id": "2c4dca4511af7c736f6783ddbda86fac", "type": "electric_scooter", "is_disabled": 0, "lat": 38.9181145, "rental_uris": {"ios": "https://dc.lft.to/lastmile_qr_scan", "android": "https://dc.lft.to/lastmile_qr_scan"}, "is_reserved": 0, "fusion_lon": 0.0, "fusion_lat": 0.0, "lon": -77.03202216666666, "name": "2c4dca4511af7c736f6783ddbda86fac"}, {"bike_id": "3844cb193d53a019cd81c39bc2029120", "type": "electric_scooter", "is_disabled": 0, "lat": 38.898374833333335, "rental_uris": {"ios": "https://dc.lft.to/lastmile_qr_scan", "android": "https://dc.lft.to/lastmile_qr_scan"}, "is_reserved": 0, "fusion_lon": 0.0, "fusion_lat": 0.0, "lon": -77.026111, "name": "3844cb193d53a019cd81c39bc2029120"}, {"bike_id": "14e848c8729e702ee004515166472cc7", "type": "electric_bike", "is_disabled": 0, "lat": 38.935499, "rental_uris": {"ios": "https://dc.lft.to/lastmile_qr_scan", "android": "https://dc.lft.to/lastmile_qr_scan"}, "is_reserved": 0, "fusion_lon": 0.0, "fusion_lat": 0.0, "lon": -76.93901816666667, "name": "14e848c8729e702ee004515166472cc7"}, {"bike_id": "950eee844b97d489f1c986fc7eec068d", "type": "electric_scooter", "is_disabled": 0, "lat": 38.924679833333336, "rental_uris": {"ios": "https://dc.lft.to/lastmile_qr_scan", "android": "https://dc.lft.to/lastmile_qr_scan"}, "is_reserved": 0, "fusion_lon": 0.0, "fusion_lat": 0.0, "lon": -77.03106333333334, "name": "950eee844b97d489f1c986fc7eec068d"}, {"bike_id": "bc71316e07ae3624ce077a888b09a7cd", "type": "electric_scooter", "is_disabled": 0, "lat": 38.92847066666667, "rental_uris": {"ios": "https://dc.lft.to/lastmile_qr_scan", "android": "https://dc.lft.to/lastmile_qr_scan"}, "is_reserved": 0, "fusion_lon": 0.0, "fusion_lat": 0.0, "lon": -77.0329815, "name": "bc71316e07ae3624ce077a888b09a7cd"}, {"bike_id": "ec8cba8a73f40368c2e5cf4e92fe0c38", "type": "electric_scooter", "is_disabled": 0, "lat": 38.91592833333333, "rental_uris": {"ios": "https://dc.lft.to/lastmile_qr_scan", "android": "https://dc.lft.to/lastmile_qr_scan"}, "is_reserved": 0, "fusion_lon": 0.0, "fusion_lat": 0.0, "lon": -77.068123, "name": "ec8cba8a73f40368c2e5cf4e92fe0c38"}, {"bike_id": "721fc80e07d737098d4369a1c4d9a43c", "type": "electric_scooter", "is_disabled": 0, "lat": 38.90674166666667, "rental_uris": {"ios": "https://dc.lft.to/lastmile_qr_scan", "android": "https://dc.lft.to/lastmile_qr_scan"}, "is_reserved": 0, "fusion_lon": 0.0, "fusion_lat": 0.0, "lon": -77.0270125, "name": "721fc80e07d737098d4369a1c4d9a43c"}, {"bike_id": "6b42702adc310feaf26377698ea80fb0", "type": "electric_scooter", "is_disabled": 0, "lat": 38.9170365, "rental_uris": {"ios": "https://dc.lft.to/lastmile_qr_scan", "android": "https://dc.lft.to/lastmile_qr_scan"}, "is_reserved": 0, "fusion_lon": 0.0, "fusion_lat": 0.0, "lon": -77.02416066666666, "name": "6b42702adc310feaf26377698ea80fb0"}, {"bike_id": "67632d20f1d6cac0181c65bfccc44bf8", "type": "electric_scooter", "is_disabled": 0, "lat": 38.88277816666667, "rental_uris": {"ios": "https://dc.lft.to/lastmile_qr_scan", "android": "https://dc.lft.to/lastmile_qr_scan"}, "is_reserved": 0, "fusion_lon": 0.0, "fusion_lat": 0.0, "lon": -76.92933633333334, "name": "67632d20f1d6cac0181c65bfccc44bf8"}, {"bike_id": "e7440bf268dbba5dc03e58c82e186d16", "type": "electric_scooter", "is_disabled": 0, "lat": 38.9224415, "rental_uris": {"ios": "https://dc.lft.to/lastmile_qr_scan", "android": "https://dc.lft.to/lastmile_qr_scan"}, "is_reserved": 0, "fusion_lon": 0.0, "fusion_lat": 0.0, "lon": -77.04274033333333, "name": "e7440bf268dbba5dc03e58c82e186d16"}, {"bike_id": "e39750dda3b6cc8d4b116781ecf6cab1", "type": "electric_scooter", "is_disabled": 0, "lat": 38.905665666666664, "rental_uris": {"ios": "https://dc.lft.to/lastmile_qr_scan", "android": "https://dc.lft.to/lastmile_qr_scan"}, "is_reserved": 0, "fusion_lon": 0.0, "fusion_lat": 0.0, "lon": -76.976348, "name": "e39750dda3b6cc8d4b116781ecf6cab1"}, {"bike_id": "9673f959278c065c988fc8eae0f44db6", "type": "electric_scooter", "is_disabled": 0, "lat": 38.8709575, "rental_uris": {"ios": "https://dc.lft.to/lastmile_qr_scan", "android": "https://dc.lft.to/lastmile_qr_scan"}, "is_reserved": 0, "fusion_lon": 0.0, "fusion_lat": 0.0, "lon": -77.01201566666667, "name": "9673f959278c065c988fc8eae0f44db6"}, {"bike_id": "e0eb1cd99415c2656572d4e87b443b7a", "type": "electric_scooter", "is_disabled": 0, "lat": 38.875036, "rental_uris": {"ios": "https://dc.lft.to/lastmile_qr_scan", "android": "https://dc.lft.to/lastmile_qr_scan"}, "is_reserved": 0, "fusion_lon": 0.0, "fusion_lat": 0.0, "lon": -77.0007375, "name": "e0eb1cd99415c2656572d4e87b443b7a"}, {"bike_id": "cb5e21d9bc2c0dbb3cde6d1e01c46cd7", "type": "electric_scooter", "is_disabled": 0, "lat": 38.88671866666667, "rental_uris": {"ios": "https://dc.lft.to/lastmile_qr_scan", "android": "https://dc.lft.to/lastmile_qr_scan"}, "is_reserved": 0, "fusion_lon": 0.0, "fusion_lat": 0.0, "lon": -76.98781733333334, "name": "cb5e21d9bc2c0dbb3cde6d1e01c46cd7"}, {"bike_id": "5a7c2f214e53e9ad10dd3ff3a846a4ac", "type": "electric_scooter", "is_disabled": 0, "lat": 38.912675666666665, "rental_uris": {"ios": "https://dc.lft.to/lastmile_qr_scan", "android": "https://dc.lft.to/lastmile_qr_scan"}, "is_reserved": 0, "fusion_lon": 0.0, "fusion_lat": 0.0, "lon": -77.02212733333333, "name": "5a7c2f214e53e9ad10dd3ff3a846a4ac"}, {"bike_id": "07280ee7fbbe44a3e8dbf4de495d86cf", "type": "electric_scooter", "is_disabled": 0, "lat": 38.9194705, "rental_uris": {"ios": "https://dc.lft.to/lastmile_qr_scan", "android": "https://dc.lft.to/lastmile_qr_scan"}, "is_reserved": 0, "fusion_lon": 0.0, "fusion_lat": 0.0, "lon": -77.02503583333333, "name": "07280ee7fbbe44a3e8dbf4de495d86cf"}, {"bike_id": "936285d894539e096fc5d8208ca9f874", "type": "electric_scooter", "is_disabled": 0, "lat": 38.90262333333333, "rental_uris": {"ios": "https://dc.lft.to/lastmile_qr_scan", "android": "https://dc.lft.to/lastmile_qr_scan"}, "is_reserved": 0, "fusion_lon": 0.0, "fusion_lat": 0.0, "lon": -77.0343415, "name": "936285d894539e096fc5d8208ca9f874"}, {"bike_id": "eb06d0ff34f4a51abc778b631009a673", "type": "electric_scooter", "is_disabled": 0, "lat": 38.925611833333335, "rental_uris": {"ios": "https://dc.lft.to/lastmile_qr_scan", "android": "https://dc.lft.to/lastmile_qr_scan"}, "is_reserved": 0, "fusion_lon": 0.0, "fusion_lat": 0.0, "lon": -77.05305966666667, "name": "eb06d0ff34f4a51abc778b631009a673"}, {"bike_id": "e77a573f49b4756a7abe75b1d0e642f6", "type": "electric_scooter", "is_disabled": 0, "lat": 38.92861933333333, "rental_uris": {"ios": "https://dc.lft.to/lastmile_qr_scan", "android": "https://dc.lft.to/lastmile_qr_scan"}, "is_reserved": 0, "fusion_lon": 0.0, "fusion_lat": 0.0, "lon": -77.0372, "name": "e77a573f49b4756a7abe75b1d0e642f6"}, {"bike_id": "fd417aa06fba9e98fcaa8db61b35545b", "type": "electric_scooter", "is_disabled": 0, "lat": 38.9175805, "rental_uris": {"ios": "https://dc.lft.to/lastmile_qr_scan", "android": "https://dc.lft.to/lastmile_qr_scan"}, "is_reserved": 0, "fusion_lon": 0.0, "fusion_lat": 0.0, "lon": -77.04768283333334, "name": "fd417aa06fba9e98fcaa8db61b35545b"}, {"bike_id": "c29300920a1bcfe08a75257d71f66cd0", "type": "electric_scooter", "is_disabled": 0, "lat": 38.92246166666666, "rental_uris": {"ios": "https://dc.lft.to/lastmile_qr_scan", "android": "https://dc.lft.to/lastmile_qr_scan"}, "is_reserved": 0, "fusion_lon": 0.0, "fusion_lat": 0.0, "lon": -77.04276933333334, "name": "c29300920a1bcfe08a75257d71f66cd0"}, {"bike_id": "6d62b29a9d62e4c44c5eda33c792c006", "type": "electric_scooter", "is_disabled": 0, "lat": 38.921854333333336, "rental_uris": {"ios": "https://dc.lft.to/lastmile_qr_scan", "android": "https://dc.lft.to/lastmile_qr_scan"}, "is_reserved": 0, "fusion_lon": 0.0, "fusion_lat": 0.0, "lon": -77.03799983333333, "name": "6d62b29a9d62e4c44c5eda33c792c006"}, {"bike_id": "e32b7190f73e6d92b2b1a72e626ce6a2", "type": "electric_scooter", "is_disabled": 0, "lat": 38.91816716666666, "rental_uris": {"ios": "https://dc.lft.to/lastmile_qr_scan", "android": "https://dc.lft.to/lastmile_qr_scan"}, "is_reserved": 0, "fusion_lon": 0.0, "fusion_lat": 0.0, "lon": -77.00260866666666, "name": "e32b7190f73e6d92b2b1a72e626ce6a2"}, {"bike_id": "cc9146bdd72b075b8f3018b598973993", "type": "electric_scooter", "is_disabled": 0, "lat": 38.91105, "rental_uris": {"ios": "https://dc.lft.to/lastmile_qr_scan", "android": "https://dc.lft.to/lastmile_qr_scan"}, "is_reserved": 0, "fusion_lon": 0.0, "fusion_lat": 0.0, "lon": -77.04470133333334, "name": "cc9146bdd72b075b8f3018b598973993"}, {"bike_id": "d7df4cd0b69c213fa420aa25dd27fec3", "type": "electric_scooter", "is_disabled": 0, "lat": 38.912743166666665, "rental_uris": {"ios": "https://dc.lft.to/lastmile_qr_scan", "android": "https://dc.lft.to/lastmile_qr_scan"}, "is_reserved": 0, "fusion_lon": 0.0, "fusion_lat": 0.0, "lon": -77.022086, "name": "d7df4cd0b69c213fa420aa25dd27fec3"}, {"bike_id": "89340d75c5cb308cbecb4c37da42611b", "type": "electric_scooter", "is_disabled": 0, "lat": 38.92350866666666, "rental_uris": {"ios": "https://dc.lft.to/lastmile_qr_scan", "android": "https://dc.lft.to/lastmile_qr_scan"}, "is_reserved": 0, "fusion_lon": 0.0, "fusion_lat": 0.0, "lon": -77.04147583333334, "name": "89340d75c5cb308cbecb4c37da42611b"}, {"bike_id": "a6a57835d106b30a932aa7da6183c6d2", "type": "electric_bike", "is_disabled": 0, "lat": 38.94899433333333, "rental_uris": {"ios": "https://dc.lft.to/lastmile_qr_scan", "android": "https://dc.lft.to/lastmile_qr_scan"}, "is_reserved": 0, "fusion_lon": 0.0, "fusion_lat": 0.0, "lon": -76.9638315, "name": "a6a57835d106b30a932aa7da6183c6d2"}, {"bike_id": "f50e4380b2e82f8e4d62d849a3d45275", "type": "electric_scooter", "is_disabled": 0, "lat": 38.8990445, "rental_uris": {"ios": "https://dc.lft.to/lastmile_qr_scan", "android": "https://dc.lft.to/lastmile_qr_scan"}, "is_reserved": 0, "fusion_lon": 0.0, "fusion_lat": 0.0, "lon": -77.03980283333334, "name": "f50e4380b2e82f8e4d62d849a3d45275"}, {"bike_id": "47ff39f2f9275ee7143830e1a23576a4", "type": "electric_scooter", "is_disabled": 0, "lat": 38.9158455, "rental_uris": {"ios": "https://dc.lft.to/lastmile_qr_scan", "android": "https://dc.lft.to/lastmile_qr_scan"}, "is_reserved": 0, "fusion_lon": 0.0, "fusion_lat": 0.0, "lon": -77.04643583333333, "name": "47ff39f2f9275ee7143830e1a23576a4"}, {"bike_id": "818358bcef8291016b59da49a1918338", "type": "electric_scooter", "is_disabled": 0, "lat": 38.863698166666666, "rental_uris": {"ios": "https://dc.lft.to/lastmile_qr_scan", "android": "https://dc.lft.to/lastmile_qr_scan"}, "is_reserved": 0, "fusion_lon": 0.0, "fusion_lat": 0.0, "lon": -76.99057833333333, "name": "818358bcef8291016b59da49a1918338"}, {"bike_id": "f7f635ff8edb24a8156e511dae96dea8", "type": "electric_bike", "is_disabled": 0, "lat": 38.955188166666666, "rental_uris": {"ios": "https://dc.lft.to/lastmile_qr_scan", "android": "https://dc.lft.to/lastmile_qr_scan"}, "is_reserved": 0, "fusion_lon": 0.0, "fusion_lat": 0.0, "lon": -76.93910233333334, "name": "f7f635ff8edb24a8156e511dae96dea8"}, {"bike_id": "96e4f52f4d72e35255e476c89a4c97e0", "type": "electric_scooter", "is_disabled": 0, "lat": 38.916321833333335, "rental_uris": {"ios": "https://dc.lft.to/lastmile_qr_scan", "android": "https://dc.lft.to/lastmile_qr_scan"}, "is_reserved": 0, "fusion_lon": 0.0, "fusion_lat": 0.0, "lon": -77.02015083333333, "name": "96e4f52f4d72e35255e476c89a4c97e0"}, {"bike_id": "327949f5d3965fbbd3f14cd24fbdd21c", "type": "electric_scooter", "is_disabled": 0, "lat": 38.9170695, "rental_uris": {"ios": "https://dc.lft.to/lastmile_qr_scan", "android": "https://dc.lft.to/lastmile_qr_scan"}, "is_reserved": 0, "fusion_lon": 0.0, "fusion_lat": 0.0, "lon": -77.0266655, "name": "327949f5d3965fbbd3f14cd24fbdd21c"}, {"bike_id": "50fbf80eee3e52e7fad6b144d9ef5700", "type": "electric_bike", "is_disabled": 0, "lat": 38.80971816666667, "rental_uris": {"ios": "https://dc.lft.to/lastmile_qr_scan", "android": "https://dc.lft.to/lastmile_qr_scan"}, "is_reserved": 0, "fusion_lon": 0.0, "fusion_lat": 0.0, "lon": -77.08634533333333, "name": "50fbf80eee3e52e7fad6b144d9ef5700"}, {"bike_id": "351089cded0f8df3754a42970008c064", "type": "electric_scooter", "is_disabled": 0, "lat": 38.91755883333333, "rental_uris": {"ios": "https://dc.lft.to/lastmile_qr_scan", "android": "https://dc.lft.to/lastmile_qr_scan"}, "is_reserved": 0, "fusion_lon": 0.0, "fusion_lat": 0.0, "lon": -77.04769083333333, "name": "351089cded0f8df3754a42970008c064"}, {"bike_id": "80acd777bd33ac91b5adb5ec5e7a1a91", "type": "electric_scooter", "is_disabled": 0, "lat": 38.908778, "rental_uris": {"ios": "https://dc.lft.to/lastmile_qr_scan", "android": "https://dc.lft.to/lastmile_qr_scan"}, "is_reserved": 0, "fusion_lon": 0.0, "fusion_lat": 0.0, "lon": -77.03233166666666, "name": "80acd777bd33ac91b5adb5ec5e7a1a91"}, {"bike_id": "a2275cf1039b8d922b5bc351f80be7dc", "type": "electric_scooter", "is_disabled": 0, "lat": 38.905559333333336, "rental_uris": {"ios": "https://dc.lft.to/lastmile_qr_scan", "android": "https://dc.lft.to/lastmile_qr_scan"}, "is_reserved": 0, "fusion_lon": 0.0, "fusion_lat": 0.0, "lon": -77.006272, "name": "a2275cf1039b8d922b5bc351f80be7dc"}, {"bike_id": "b19ff35329daabe9539ffc49fc1e13c2", "type": "electric_scooter", "is_disabled": 0, "lat": 38.92862316666667, "rental_uris": {"ios": "https://dc.lft.to/lastmile_qr_scan", "android": "https://dc.lft.to/lastmile_qr_scan"}, "is_reserved": 0, "fusion_lon": 0.0, "fusion_lat": 0.0, "lon": -77.03713433333333, "name": "b19ff35329daabe9539ffc49fc1e13c2"}, {"bike_id": "51557d8bba18e84497d301435f3644cc", "type": "electric_scooter", "is_disabled": 0, "lat": 38.955743, "rental_uris": {"ios": "https://dc.lft.to/lastmile_qr_scan", "android": "https://dc.lft.to/lastmile_qr_scan"}, "is_reserved": 0, "fusion_lon": 0.0, "fusion_lat": 0.0, "lon": -77.08043133333334, "name": "51557d8bba18e84497d301435f3644cc"}, {"bike_id": "208ec5538bc58b40324b4fe0247b62cc", "type": "electric_scooter", "is_disabled": 0, "lat": 38.90315433333333, "rental_uris": {"ios": "https://dc.lft.to/lastmile_qr_scan", "android": "https://dc.lft.to/lastmile_qr_scan"}, "is_reserved": 0, "fusion_lon": 0.0, "fusion_lat": 0.0, "lon": -76.991334, "name": "208ec5538bc58b40324b4fe0247b62cc"}, {"bike_id": "51e435669dde4aff94c16fb8138a9ad2", "type": "electric_scooter", "is_disabled": 0, "lat": 38.91167016666667, "rental_uris": {"ios": "https://dc.lft.to/lastmile_qr_scan", "android": "https://dc.lft.to/lastmile_qr_scan"}, "is_reserved": 0, "fusion_lon": 0.0, "fusion_lat": 0.0, "lon": -77.03198266666666, "name": "51e435669dde4aff94c16fb8138a9ad2"}, {"bike_id": "005ab776c3d806802180c7435842d899", "type": "electric_scooter", "is_disabled": 0, "lat": 38.88154266666667, "rental_uris": {"ios": "https://dc.lft.to/lastmile_qr_scan", "android": "https://dc.lft.to/lastmile_qr_scan"}, "is_reserved": 0, "fusion_lon": 0.0, "fusion_lat": 0.0, "lon": -77.02765633333334, "name": "005ab776c3d806802180c7435842d899"}, {"bike_id": "71e8eede65cc8169bdff067e9a9961cf", "type": "electric_scooter", "is_disabled": 0, "lat": 38.918426833333335, "rental_uris": {"ios": "https://dc.lft.to/lastmile_qr_scan", "android": "https://dc.lft.to/lastmile_qr_scan"}, "is_reserved": 0, "fusion_lon": 0.0, "fusion_lat": 0.0, "lon": -76.9655415, "name": "71e8eede65cc8169bdff067e9a9961cf"}, {"bike_id": "3864fa8e4684168a904ce3cb80666177", "type": "electric_scooter", "is_disabled": 0, "lat": 38.98692333333334, "rental_uris": {"ios": "https://dc.lft.to/lastmile_qr_scan", "android": "https://dc.lft.to/lastmile_qr_scan"}, "is_reserved": 0, "fusion_lon": 0.0, "fusion_lat": 0.0, "lon": -77.0297355, "name": "3864fa8e4684168a904ce3cb80666177"}, {"bike_id": "069bbe9d8115f62062f3d291877177f3", "type": "electric_scooter", "is_disabled": 0, "lat": 38.904874, "rental_uris": {"ios": "https://dc.lft.to/lastmile_qr_scan", "android": "https://dc.lft.to/lastmile_qr_scan"}, "is_reserved": 0, "fusion_lon": 0.0, "fusion_lat": 0.0, "lon": -77.02950866666667, "name": "069bbe9d8115f62062f3d291877177f3"}, {"bike_id": "7c1410ca72b80aaed3054f450d6ea019", "type": "electric_scooter", "is_disabled": 0, "lat": 38.91775166666667, "rental_uris": {"ios": "https://dc.lft.to/lastmile_qr_scan", "android": "https://dc.lft.to/lastmile_qr_scan"}, "is_reserved": 0, "fusion_lon": 0.0, "fusion_lat": 0.0, "lon": -77.02392216666667, "name": "7c1410ca72b80aaed3054f450d6ea019"}, {"bike_id": "96cfea8a29e8945879592bf5104fae07", "type": "electric_scooter", "is_disabled": 0, "lat": 38.91727233333334, "rental_uris": {"ios": "https://dc.lft.to/lastmile_qr_scan", "android": "https://dc.lft.to/lastmile_qr_scan"}, "is_reserved": 0, "fusion_lon": 0.0, "fusion_lat": 0.0, "lon": -77.02716616666666, "name": "96cfea8a29e8945879592bf5104fae07"}, {"bike_id": "131661295a029e602ce32c5f470fdcb1", "type": "electric_scooter", "is_disabled": 0, "lat": 38.928483666666665, "rental_uris": {"ios": "https://dc.lft.to/lastmile_qr_scan", "android": "https://dc.lft.to/lastmile_qr_scan"}, "is_reserved": 0, "fusion_lon": 0.0, "fusion_lat": 0.0, "lon": -77.0329455, "name": "131661295a029e602ce32c5f470fdcb1"}, {"bike_id": "17ab591fa7da80284f464bc038f8e71e", "type": "electric_scooter", "is_disabled": 0, "lat": 38.906813, "rental_uris": {"ios": "https://dc.lft.to/lastmile_qr_scan", "android": "https://dc.lft.to/lastmile_qr_scan"}, "is_reserved": 0, "fusion_lon": 0.0, "fusion_lat": 0.0, "lon": -77.05325566666667, "name": "17ab591fa7da80284f464bc038f8e71e"}, {"bike_id": "92cb852722e20540119d05deae17e792", "type": "electric_scooter", "is_disabled": 0, "lat": 38.88712133333333, "rental_uris": {"ios": "https://dc.lft.to/lastmile_qr_scan", "android": "https://dc.lft.to/lastmile_qr_scan"}, "is_reserved": 0, "fusion_lon": 0.0, "fusion_lat": 0.0, "lon": -77.02208216666666, "name": "92cb852722e20540119d05deae17e792"}, {"bike_id": "a6a234acc6483eee7ad4170e1b8df7b5", "type": "electric_scooter", "is_disabled": 0, "lat": 38.9102195, "rental_uris": {"ios": "https://dc.lft.to/lastmile_qr_scan", "android": "https://dc.lft.to/lastmile_qr_scan"}, "is_reserved": 0, "fusion_lon": 0.0, "fusion_lat": 0.0, "lon": -77.028269, "name": "a6a234acc6483eee7ad4170e1b8df7b5"}, {"bike_id": "7842fa00c976466d0d2a6517bff4ea3c", "type": "electric_scooter", "is_disabled": 0, "lat": 38.909051, "rental_uris": {"ios": "https://dc.lft.to/lastmile_qr_scan", "android": "https://dc.lft.to/lastmile_qr_scan"}, "is_reserved": 0, "fusion_lon": 0.0, "fusion_lat": 0.0, "lon": -77.0421105, "name": "7842fa00c976466d0d2a6517bff4ea3c"}, {"bike_id": "953940ab2d9b29adda8270fb990954e8", "type": "electric_scooter", "is_disabled": 0, "lat": 38.917012, "rental_uris": {"ios": "https://dc.lft.to/lastmile_qr_scan", "android": "https://dc.lft.to/lastmile_qr_scan"}, "is_reserved": 0, "fusion_lon": 0.0, "fusion_lat": 0.0, "lon": -77.03174733333333, "name": "953940ab2d9b29adda8270fb990954e8"}, {"bike_id": "8e3f166965c66f4d5d53724fdbfa64e5", "type": "electric_scooter", "is_disabled": 0, "lat": 38.89224, "rental_uris": {"ios": "https://dc.lft.to/lastmile_qr_scan", "android": "https://dc.lft.to/lastmile_qr_scan"}, "is_reserved": 0, "fusion_lon": 0.0, "fusion_lat": 0.0, "lon": -77.0397785, "name": "8e3f166965c66f4d5d53724fdbfa64e5"}, {"bike_id": "561471804383cdb36238ad66195bf775", "type": "electric_scooter", "is_disabled": 0, "lat": 38.91442833333333, "rental_uris": {"ios": "https://dc.lft.to/lastmile_qr_scan", "android": "https://dc.lft.to/lastmile_qr_scan"}, "is_reserved": 0, "fusion_lon": 0.0, "fusion_lat": 0.0, "lon": -77.02595733333334, "name": "561471804383cdb36238ad66195bf775"}, {"bike_id": "1265080c03ae4cd7296866608e68adda", "type": "electric_scooter", "is_disabled": 0, "lat": 38.91035333333333, "rental_uris": {"ios": "https://dc.lft.to/lastmile_qr_scan", "android": "https://dc.lft.to/lastmile_qr_scan"}, "is_reserved": 0, "fusion_lon": 0.0, "fusion_lat": 0.0, "lon": -77.03800983333333, "name": "1265080c03ae4cd7296866608e68adda"}, {"bike_id": "fd0fef5df30bc0cbe101d704ade6f22e", "type": "electric_scooter", "is_disabled": 0, "lat": 38.901270833333335, "rental_uris": {"ios": "https://dc.lft.to/lastmile_qr_scan", "android": "https://dc.lft.to/lastmile_qr_scan"}, "is_reserved": 0, "fusion_lon": 0.0, "fusion_lat": 0.0, "lon": -77.017889, "name": "fd0fef5df30bc0cbe101d704ade6f22e"}, {"bike_id": "2426e022189ed74d5d899f38f3b77cdd", "type": "electric_scooter", "is_disabled": 0, "lat": 38.887393, "rental_uris": {"ios": "https://dc.lft.to/lastmile_qr_scan", "android": "https://dc.lft.to/lastmile_qr_scan"}, "is_reserved": 0, "fusion_lon": 0.0, "fusion_lat": 0.0, "lon": -77.02943066666667, "name": "2426e022189ed74d5d899f38f3b77cdd"}, {"bike_id": "82c86eff7aa5ac46d6881682ace0bc6d", "type": "electric_scooter", "is_disabled": 0, "lat": 38.905057666666664, "rental_uris": {"ios": "https://dc.lft.to/lastmile_qr_scan", "android": "https://dc.lft.to/lastmile_qr_scan"}, "is_reserved": 0, "fusion_lon": 0.0, "fusion_lat": 0.0, "lon": -77.02948683333334, "name": "82c86eff7aa5ac46d6881682ace0bc6d"}, {"bike_id": "cfa33d4db3fde1f58b82f0d228f4ebe4", "type": "electric_scooter", "is_disabled": 0, "lat": 38.89285233333333, "rental_uris": {"ios": "https://dc.lft.to/lastmile_qr_scan", "android": "https://dc.lft.to/lastmile_qr_scan"}, "is_reserved": 0, "fusion_lon": 0.0, "fusion_lat": 0.0, "lon": -77.033314, "name": "cfa33d4db3fde1f58b82f0d228f4ebe4"}, {"bike_id": "0d6433d6812dad76866a527ee0075d2a", "type": "electric_scooter", "is_disabled": 0, "lat": 38.89012116666667, "rental_uris": {"ios": "https://dc.lft.to/lastmile_qr_scan", "android": "https://dc.lft.to/lastmile_qr_scan"}, "is_reserved": 0, "fusion_lon": 0.0, "fusion_lat": 0.0, "lon": -76.9375005, "name": "0d6433d6812dad76866a527ee0075d2a"}, {"bike_id": "4ce14e672f35762760eee54e3fa97ead", "type": "electric_scooter", "is_disabled": 0, "lat": 38.884228, "rental_uris": {"ios": "https://dc.lft.to/lastmile_qr_scan", "android": "https://dc.lft.to/lastmile_qr_scan"}, "is_reserved": 0, "fusion_lon": 0.0, "fusion_lat": 0.0, "lon": -76.95745216666667, "name": "4ce14e672f35762760eee54e3fa97ead"}, {"bike_id": "6765709731680b8102a3b83c788dad4f", "type": "electric_scooter", "is_disabled": 0, "lat": 38.9205195, "rental_uris": {"ios": "https://dc.lft.to/lastmile_qr_scan", "android": "https://dc.lft.to/lastmile_qr_scan"}, "is_reserved": 0, "fusion_lon": 0.0, "fusion_lat": 0.0, "lon": -77.02423383333333, "name": "6765709731680b8102a3b83c788dad4f"}, {"bike_id": "6527cca7790de283f3618f36c8ff413a", "type": "electric_scooter", "is_disabled": 0, "lat": 38.91835, "rental_uris": {"ios": "https://dc.lft.to/lastmile_qr_scan", "android": "https://dc.lft.to/lastmile_qr_scan"}, "is_reserved": 0, "fusion_lon": 0.0, "fusion_lat": 0.0, "lon": -77.04528033333334, "name": "6527cca7790de283f3618f36c8ff413a"}, {"bike_id": "6446d8a629b2a29a054faeea011c95b0", "type": "electric_scooter", "is_disabled": 0, "lat": 38.917876166666666, "rental_uris": {"ios": "https://dc.lft.to/lastmile_qr_scan", "android": "https://dc.lft.to/lastmile_qr_scan"}, "is_reserved": 0, "fusion_lon": 0.0, "fusion_lat": 0.0, "lon": -77.02302433333334, "name": "6446d8a629b2a29a054faeea011c95b0"}, {"bike_id": "e5b09b5927568b39b6617493cf5307d4", "type": "electric_scooter", "is_disabled": 0, "lat": 38.91179, "rental_uris": {"ios": "https://dc.lft.to/lastmile_qr_scan", "android": "https://dc.lft.to/lastmile_qr_scan"}, "is_reserved": 0, "fusion_lon": 0.0, "fusion_lat": 0.0, "lon": -77.0320605, "name": "e5b09b5927568b39b6617493cf5307d4"}, {"bike_id": "ff077edad8fbec0c27bc4203d4d1dc10", "type": "electric_scooter", "is_disabled": 0, "lat": 38.897099833333336, "rental_uris": {"ios": "https://dc.lft.to/lastmile_qr_scan", "android": "https://dc.lft.to/lastmile_qr_scan"}, "is_reserved": 0, "fusion_lon": 0.0, "fusion_lat": 0.0, "lon": -77.00754433333333, "name": "ff077edad8fbec0c27bc4203d4d1dc10"}, {"bike_id": "aad0c55cbe243265c944d734b57f0b1e", "type": "electric_scooter", "is_disabled": 0, "lat": 38.9183935, "rental_uris": {"ios": "https://dc.lft.to/lastmile_qr_scan", "android": "https://dc.lft.to/lastmile_qr_scan"}, "is_reserved": 0, "fusion_lon": 0.0, "fusion_lat": 0.0, "lon": -76.9655535, "name": "aad0c55cbe243265c944d734b57f0b1e"}, {"bike_id": "b96006207be1b17ad27ba48d76f6edaa", "type": "electric_scooter", "is_disabled": 0, "lat": 38.942871, "rental_uris": {"ios": "https://dc.lft.to/lastmile_qr_scan", "android": "https://dc.lft.to/lastmile_qr_scan"}, "is_reserved": 0, "fusion_lon": 0.0, "fusion_lat": 0.0, "lon": -77.02175383333334, "name": "b96006207be1b17ad27ba48d76f6edaa"}, {"bike_id": "a85b55d8054d6ed0d4a413aa2dd6ca28", "type": "electric_scooter", "is_disabled": 0, "lat": 38.92234166666667, "rental_uris": {"ios": "https://dc.lft.to/lastmile_qr_scan", "android": "https://dc.lft.to/lastmile_qr_scan"}, "is_reserved": 0, "fusion_lon": 0.0, "fusion_lat": 0.0, "lon": -77.04272483333334, "name": "a85b55d8054d6ed0d4a413aa2dd6ca28"}, {"bike_id": "e3bae8cf1d99f1a9a9940dce011b1ca6", "type": "electric_scooter", "is_disabled": 0, "lat": 38.89743583333333, "rental_uris": {"ios": "https://dc.lft.to/lastmile_qr_scan", "android": "https://dc.lft.to/lastmile_qr_scan"}, "is_reserved": 0, "fusion_lon": 0.0, "fusion_lat": 0.0, "lon": -77.0245655, "name": "e3bae8cf1d99f1a9a9940dce011b1ca6"}, {"bike_id": "2147d50813ae7d73adce5f0b50d33202", "type": "electric_scooter", "is_disabled": 0, "lat": 38.89291216666667, "rental_uris": {"ios": "https://dc.lft.to/lastmile_qr_scan", "android": "https://dc.lft.to/lastmile_qr_scan"}, "is_reserved": 0, "fusion_lon": 0.0, "fusion_lat": 0.0, "lon": -77.04487483333334, "name": "2147d50813ae7d73adce5f0b50d33202"}, {"bike_id": "1612f5b6000b622ceec58ef5e3ca713b", "type": "electric_scooter", "is_disabled": 0, "lat": 38.933394666666665, "rental_uris": {"ios": "https://dc.lft.to/lastmile_qr_scan", "android": "https://dc.lft.to/lastmile_qr_scan"}, "is_reserved": 0, "fusion_lon": 0.0, "fusion_lat": 0.0, "lon": -77.0399465, "name": "1612f5b6000b622ceec58ef5e3ca713b"}, {"bike_id": "99fbe11b0c64a037a1ae0f452738bff5", "type": "electric_scooter", "is_disabled": 0, "lat": 38.916372, "rental_uris": {"ios": "https://dc.lft.to/lastmile_qr_scan", "android": "https://dc.lft.to/lastmile_qr_scan"}, "is_reserved": 0, "fusion_lon": 0.0, "fusion_lat": 0.0, "lon": -77.022095, "name": "99fbe11b0c64a037a1ae0f452738bff5"}, {"bike_id": "912c0481d152f9343c5fe9752cac7cca", "type": "electric_scooter", "is_disabled": 0, "lat": 38.92441933333333, "rental_uris": {"ios": "https://dc.lft.to/lastmile_qr_scan", "android": "https://dc.lft.to/lastmile_qr_scan"}, "is_reserved": 0, "fusion_lon": 0.0, "fusion_lat": 0.0, "lon": -77.03340033333333, "name": "912c0481d152f9343c5fe9752cac7cca"}, {"bike_id": "cf9471d49f7c30956f1293f7a0be96bc", "type": "electric_scooter", "is_disabled": 0, "lat": 38.88129966666666, "rental_uris": {"ios": "https://dc.lft.to/lastmile_qr_scan", "android": "https://dc.lft.to/lastmile_qr_scan"}, "is_reserved": 0, "fusion_lon": 0.0, "fusion_lat": 0.0, "lon": -77.00074716666667, "name": "cf9471d49f7c30956f1293f7a0be96bc"}, {"bike_id": "aeabe07e0d7a6a40d5a5cdf0d50ec110", "type": "electric_scooter", "is_disabled": 0, "lat": 38.90419983333334, "rental_uris": {"ios": "https://dc.lft.to/lastmile_qr_scan", "android": "https://dc.lft.to/lastmile_qr_scan"}, "is_reserved": 0, "fusion_lon": 0.0, "fusion_lat": 0.0, "lon": -77.02498083333333, "name": "aeabe07e0d7a6a40d5a5cdf0d50ec110"}, {"bike_id": "0b89bd714ae184617b5a97795f9f80d0", "type": "electric_scooter", "is_disabled": 0, "lat": 38.887331333333336, "rental_uris": {"ios": "https://dc.lft.to/lastmile_qr_scan", "android": "https://dc.lft.to/lastmile_qr_scan"}, "is_reserved": 0, "fusion_lon": 0.0, "fusion_lat": 0.0, "lon": -77.031896, "name": "0b89bd714ae184617b5a97795f9f80d0"}, {"bike_id": "f5977b7395574b14e037ff2ab3e8504e", "type": "electric_scooter", "is_disabled": 0, "lat": 38.923254666666665, "rental_uris": {"ios": "https://dc.lft.to/lastmile_qr_scan", "android": "https://dc.lft.to/lastmile_qr_scan"}, "is_reserved": 0, "fusion_lon": 0.0, "fusion_lat": 0.0, "lon": -77.05422483333334, "name": "f5977b7395574b14e037ff2ab3e8504e"}, {"bike_id": "cb66684ab35e282ddff9b29cc0bffbfe", "type": "electric_scooter", "is_disabled": 0, "lat": 38.89843966666667, "rental_uris": {"ios": "https://dc.lft.to/lastmile_qr_scan", "android": "https://dc.lft.to/lastmile_qr_scan"}, "is_reserved": 0, "fusion_lon": 0.0, "fusion_lat": 0.0, "lon": -76.946348, "name": "cb66684ab35e282ddff9b29cc0bffbfe"}, {"bike_id": "bf32b8bd47c6782d03d82091da6e658a", "type": "electric_bike", "is_disabled": 0, "lat": 38.815112, "rental_uris": {"ios": "https://dc.lft.to/lastmile_qr_scan", "android": "https://dc.lft.to/lastmile_qr_scan"}, "is_reserved": 0, "fusion_lon": 0.0, "fusion_lat": 0.0, "lon": -77.12658833333333, "name": "bf32b8bd47c6782d03d82091da6e658a"}, {"bike_id": "a3d929bfee9b326f2a363c4491ca32f6", "type": "electric_bike", "is_disabled": 0, "lat": 38.796009166666664, "rental_uris": {"ios": "https://dc.lft.to/lastmile_qr_scan", "android": "https://dc.lft.to/lastmile_qr_scan"}, "is_reserved": 0, "fusion_lon": 0.0, "fusion_lat": 0.0, "lon": -76.99745783333333, "name": "a3d929bfee9b326f2a363c4491ca32f6"}, {"bike_id": "c10cf151cc7f4470762bdd27a7459d90", "type": "electric_scooter", "is_disabled": 0, "lat": 38.90673683333333, "rental_uris": {"ios": "https://dc.lft.to/lastmile_qr_scan", "android": "https://dc.lft.to/lastmile_qr_scan"}, "is_reserved": 0, "fusion_lon": 0.0, "fusion_lat": 0.0, "lon": -77.02696433333334, "name": "c10cf151cc7f4470762bdd27a7459d90"}, {"bike_id": "66ecb4c5b493c6ccd9c307666bf119e7", "type": "electric_scooter", "is_disabled": 0, "lat": 38.90475633333333, "rental_uris": {"ios": "https://dc.lft.to/lastmile_qr_scan", "android": "https://dc.lft.to/lastmile_qr_scan"}, "is_reserved": 0, "fusion_lon": 0.0, "fusion_lat": 0.0, "lon": -77.06116333333334, "name": "66ecb4c5b493c6ccd9c307666bf119e7"}, {"bike_id": "02f2f8c11e18ecfa492e8bd44bd1946f", "type": "electric_scooter", "is_disabled": 0, "lat": 38.917690666666665, "rental_uris": {"ios": "https://dc.lft.to/lastmile_qr_scan", "android": "https://dc.lft.to/lastmile_qr_scan"}, "is_reserved": 0, "fusion_lon": 0.0, "fusion_lat": 0.0, "lon": -77.04060016666666, "name": "02f2f8c11e18ecfa492e8bd44bd1946f"}, {"bike_id": "2623e2d69d67fe76e71f66eeac634f28", "type": "electric_scooter", "is_disabled": 0, "lat": 38.976752166666664, "rental_uris": {"ios": "https://dc.lft.to/lastmile_qr_scan", "android": "https://dc.lft.to/lastmile_qr_scan"}, "is_reserved": 0, "fusion_lon": 0.0, "fusion_lat": 0.0, "lon": -77.01662, "name": "2623e2d69d67fe76e71f66eeac634f28"}, {"bike_id": "47bedd6626583f75ef07e34aadeafb85", "type": "electric_bike", "is_disabled": 0, "lat": 38.8323935, "rental_uris": {"ios": "https://dc.lft.to/lastmile_qr_scan", "android": "https://dc.lft.to/lastmile_qr_scan"}, "is_reserved": 0, "fusion_lon": 0.0, "fusion_lat": 0.0, "lon": -76.94630583333333, "name": "47bedd6626583f75ef07e34aadeafb85"}, {"bike_id": "444a51ad6e95b6ad64b51f3b2642e413", "type": "electric_scooter", "is_disabled": 0, "lat": 38.905644, "rental_uris": {"ios": "https://dc.lft.to/lastmile_qr_scan", "android": "https://dc.lft.to/lastmile_qr_scan"}, "is_reserved": 0, "fusion_lon": 0.0, "fusion_lat": 0.0, "lon": -76.97785033333334, "name": "444a51ad6e95b6ad64b51f3b2642e413"}, {"bike_id": "8fd64fc1261c4e5ad703a6b0b08d4499", "type": "electric_scooter", "is_disabled": 0, "lat": 38.939911, "rental_uris": {"ios": "https://dc.lft.to/lastmile_qr_scan", "android": "https://dc.lft.to/lastmile_qr_scan"}, "is_reserved": 0, "fusion_lon": 0.0, "fusion_lat": 0.0, "lon": -77.01700233333334, "name": "8fd64fc1261c4e5ad703a6b0b08d4499"}, {"bike_id": "0fdf4b656df093b59e1e97cbccb3dc4c", "type": "electric_scooter", "is_disabled": 0, "lat": 38.87754983333333, "rental_uris": {"ios": "https://dc.lft.to/lastmile_qr_scan", "android": "https://dc.lft.to/lastmile_qr_scan"}, "is_reserved": 0, "fusion_lon": 0.0, "fusion_lat": 0.0, "lon": -76.98686666666667, "name": "0fdf4b656df093b59e1e97cbccb3dc4c"}, {"bike_id": "2a20df690b6521704ac32c59d944fb28", "type": "electric_scooter", "is_disabled": 0, "lat": 38.903818, "rental_uris": {"ios": "https://dc.lft.to/lastmile_qr_scan", "android": "https://dc.lft.to/lastmile_qr_scan"}, "is_reserved": 0, "fusion_lon": 0.0, "fusion_lat": 0.0, "lon": -77.03209366666667, "name": "2a20df690b6521704ac32c59d944fb28"}, {"bike_id": "c7b6f88a3b5def7d1d0ed4513478d444", "type": "electric_scooter", "is_disabled": 0, "lat": 38.90276383333333, "rental_uris": {"ios": "https://dc.lft.to/lastmile_qr_scan", "android": "https://dc.lft.to/lastmile_qr_scan"}, "is_reserved": 0, "fusion_lon": 0.0, "fusion_lat": 0.0, "lon": -76.97033716666667, "name": "c7b6f88a3b5def7d1d0ed4513478d444"}, {"bike_id": "a42290045281b3cd0aef0189c2067cfa", "type": "electric_scooter", "is_disabled": 0, "lat": 38.918441666666666, "rental_uris": {"ios": "https://dc.lft.to/lastmile_qr_scan", "android": "https://dc.lft.to/lastmile_qr_scan"}, "is_reserved": 0, "fusion_lon": 0.0, "fusion_lat": 0.0, "lon": -77.02528083333333, "name": "a42290045281b3cd0aef0189c2067cfa"}, {"bike_id": "971fb9c83f8899e48f6b8361bdda7296", "type": "electric_scooter", "is_disabled": 0, "lat": 38.895700833333336, "rental_uris": {"ios": "https://dc.lft.to/lastmile_qr_scan", "android": "https://dc.lft.to/lastmile_qr_scan"}, "is_reserved": 0, "fusion_lon": 0.0, "fusion_lat": 0.0, "lon": -76.93027816666667, "name": "971fb9c83f8899e48f6b8361bdda7296"}, {"bike_id": "13b4d90902f7c223300e4061c7c2c2de", "type": "electric_scooter", "is_disabled": 0, "lat": 38.921709, "rental_uris": {"ios": "https://dc.lft.to/lastmile_qr_scan", "android": "https://dc.lft.to/lastmile_qr_scan"}, "is_reserved": 0, "fusion_lon": 0.0, "fusion_lat": 0.0, "lon": -77.0264545, "name": "13b4d90902f7c223300e4061c7c2c2de"}, {"bike_id": "3dc09587868f7557fe97bb4839f0f1dc", "type": "electric_scooter", "is_disabled": 0, "lat": 38.9096365, "rental_uris": {"ios": "https://dc.lft.to/lastmile_qr_scan", "android": "https://dc.lft.to/lastmile_qr_scan"}, "is_reserved": 0, "fusion_lon": 0.0, "fusion_lat": 0.0, "lon": -77.0143785, "name": "3dc09587868f7557fe97bb4839f0f1dc"}, {"bike_id": "c676f563136f5fe00d1eb5b6d063bd14", "type": "electric_scooter", "is_disabled": 0, "lat": 38.9286345, "rental_uris": {"ios": "https://dc.lft.to/lastmile_qr_scan", "android": "https://dc.lft.to/lastmile_qr_scan"}, "is_reserved": 0, "fusion_lon": 0.0, "fusion_lat": 0.0, "lon": -77.03262583333333, "name": "c676f563136f5fe00d1eb5b6d063bd14"}, {"bike_id": "1e1f9c68a4d1b9d0c22db8664f3396fc", "type": "electric_scooter", "is_disabled": 0, "lat": 38.918353333333336, "rental_uris": {"ios": "https://dc.lft.to/lastmile_qr_scan", "android": "https://dc.lft.to/lastmile_qr_scan"}, "is_reserved": 0, "fusion_lon": 0.0, "fusion_lat": 0.0, "lon": -76.96555666666667, "name": "1e1f9c68a4d1b9d0c22db8664f3396fc"}, {"bike_id": "43af393f1943f8aacbb0d1d86a748618", "type": "electric_scooter", "is_disabled": 0, "lat": 38.90091816666666, "rental_uris": {"ios": "https://dc.lft.to/lastmile_qr_scan", "android": "https://dc.lft.to/lastmile_qr_scan"}, "is_reserved": 0, "fusion_lon": 0.0, "fusion_lat": 0.0, "lon": -77.01832766666666, "name": "43af393f1943f8aacbb0d1d86a748618"}, {"bike_id": "c3216fdfa37dedaab50ce6c764588db4", "type": "electric_scooter", "is_disabled": 0, "lat": 38.898414333333335, "rental_uris": {"ios": "https://dc.lft.to/lastmile_qr_scan", "android": "https://dc.lft.to/lastmile_qr_scan"}, "is_reserved": 0, "fusion_lon": 0.0, "fusion_lat": 0.0, "lon": -77.03052483333333, "name": "c3216fdfa37dedaab50ce6c764588db4"}, {"bike_id": "b6748b36b0fbf37011824caaabea7fe9", "type": "electric_scooter", "is_disabled": 0, "lat": 38.90356633333333, "rental_uris": {"ios": "https://dc.lft.to/lastmile_qr_scan", "android": "https://dc.lft.to/lastmile_qr_scan"}, "is_reserved": 0, "fusion_lon": 0.0, "fusion_lat": 0.0, "lon": -77.02213116666667, "name": "b6748b36b0fbf37011824caaabea7fe9"}, {"bike_id": "75978530f63ff9d8c383e4449fde4f32", "type": "electric_scooter", "is_disabled": 0, "lat": 38.9215385, "rental_uris": {"ios": "https://dc.lft.to/lastmile_qr_scan", "android": "https://dc.lft.to/lastmile_qr_scan"}, "is_reserved": 0, "fusion_lon": 0.0, "fusion_lat": 0.0, "lon": -77.0334655, "name": "75978530f63ff9d8c383e4449fde4f32"}, {"bike_id": "ca2e148829444ca95190bb5874fc5e84", "type": "electric_scooter", "is_disabled": 0, "lat": 38.90572183333333, "rental_uris": {"ios": "https://dc.lft.to/lastmile_qr_scan", "android": "https://dc.lft.to/lastmile_qr_scan"}, "is_reserved": 0, "fusion_lon": 0.0, "fusion_lat": 0.0, "lon": -77.0569065, "name": "ca2e148829444ca95190bb5874fc5e84"}, {"bike_id": "f2f31b163096edb9fc0ddf9203e60141", "type": "electric_scooter", "is_disabled": 0, "lat": 38.9059465, "rental_uris": {"ios": "https://dc.lft.to/lastmile_qr_scan", "android": "https://dc.lft.to/lastmile_qr_scan"}, "is_reserved": 0, "fusion_lon": 0.0, "fusion_lat": 0.0, "lon": -77.0271925, "name": "f2f31b163096edb9fc0ddf9203e60141"}, {"bike_id": "4dc6c0b0f8cbb17a7888e10b79e7b0ef", "type": "electric_bike", "is_disabled": 0, "lat": 38.94738, "rental_uris": {"ios": "https://dc.lft.to/lastmile_qr_scan", "android": "https://dc.lft.to/lastmile_qr_scan"}, "is_reserved": 0, "fusion_lon": 0.0, "fusion_lat": 0.0, "lon": -76.99582116666667, "name": "4dc6c0b0f8cbb17a7888e10b79e7b0ef"}, {"bike_id": "3a8615ca4a916eb0c4ce8879d3373fc0", "type": "electric_scooter", "is_disabled": 0, "lat": 38.914998833333335, "rental_uris": {"ios": "https://dc.lft.to/lastmile_qr_scan", "android": "https://dc.lft.to/lastmile_qr_scan"}, "is_reserved": 0, "fusion_lon": 0.0, "fusion_lat": 0.0, "lon": -77.01778933333334, "name": "3a8615ca4a916eb0c4ce8879d3373fc0"}, {"bike_id": "d435c4a73ede6d75487a4fff1e904f60", "type": "electric_scooter", "is_disabled": 0, "lat": 38.89735866666667, "rental_uris": {"ios": "https://dc.lft.to/lastmile_qr_scan", "android": "https://dc.lft.to/lastmile_qr_scan"}, "is_reserved": 0, "fusion_lon": 0.0, "fusion_lat": 0.0, "lon": -77.05475233333334, "name": "d435c4a73ede6d75487a4fff1e904f60"}, {"bike_id": "a82628c9bc58b5e73f41d22eaafa7bf3", "type": "electric_scooter", "is_disabled": 0, "lat": 38.90395983333333, "rental_uris": {"ios": "https://dc.lft.to/lastmile_qr_scan", "android": "https://dc.lft.to/lastmile_qr_scan"}, "is_reserved": 0, "fusion_lon": 0.0, "fusion_lat": 0.0, "lon": -77.06775066666667, "name": "a82628c9bc58b5e73f41d22eaafa7bf3"}, {"bike_id": "1c86bc823eb53227391314623e7a3b8a", "type": "electric_scooter", "is_disabled": 0, "lat": 38.9223245, "rental_uris": {"ios": "https://dc.lft.to/lastmile_qr_scan", "android": "https://dc.lft.to/lastmile_qr_scan"}, "is_reserved": 0, "fusion_lon": 0.0, "fusion_lat": 0.0, "lon": -77.03705366666667, "name": "1c86bc823eb53227391314623e7a3b8a"},