{"data": {"bikes": [{"name": "a5587e59fadc17bd25f058976425074e", "type": "electric_scooter", "fusion_lon": 0.0, "lon": -77.0283325, "is_disabled": 0, "lat": 38.8873725, "fusion_lat": 0.0, "is_reserved": 0, "rental_uris": {"android": "https://dc.lft.to/lastmile_qr_scan", "ios": "https://dc.lft.to/lastmile_qr_scan"}, "bike_id": "a5587e59fadc17bd25f058976425074e"}, {"name": "1bfa60790bc43e00edef4cea2ca259ee", "type": "electric_bike", "fusion_lon": 0.0, "lon": -77.09455133333333, "is_disabled": 0, "lat": 38.80757, "fusion_lat": 0.0, "is_reserved": 0, "rental_uris": {"android": "https://dc.lft.to/lastmile_qr_scan", "ios": "https://dc.lft.to/lastmile_qr_scan"}, "bike_id": "1bfa60790bc43e00edef4cea2ca259ee"}, {"name": "daf2dc6b5e55f2474db436d0757403c5", "type": "electric_scooter", "fusion_lon": 0.0, "lon": -77.02723833333333, "is_disabled": 0, "lat": 38.927831, "fusion_lat": 0.0, "is_reserved": 0, "rental_uris": {"android": "https://dc.lft.to/lastmile_qr_scan", "ios": "https://dc.lft.to/lastmile_qr_scan"}, "bike_id": "daf2dc6b5e55f2474db436d0757403c5"}, {"name": "50e4466a9728600ffb152f5b3c79fbad", "type": "electric_scooter", "fusion_lon": 0.0, "lon": -77.033814, "is_disabled": 0, "lat": 38.92174033333333, "fusion_lat": 0.0, "is_reserved": 0, "rental_uris": {"android": "https://dc.lft.to/lastmile_qr_scan", "ios": "https://dc.lft.to/lastmile_qr_scan"}, "bike_id": "50e4466a9728600ffb152f5b3c79fbad"}, {"name": "e0bd03e5d98b1c8881f157352bb78e04", "type": "electric_scooter", "fusion_lon": 0.0, "lon": -76.991725, "is_disabled": 0, "lat": 38.876335166666664, "fusion_lat": 0.0, "is_reserved": 0, "rental_uris": {"android": "https://dc.lft.to/lastmile_qr_scan", "ios": "https://dc.lft.to/lastmile_qr_scan"}, "bike_id": "e0bd03e5d98b1c8881f157352bb78e04"}, {"name": "8c36f435c508c3239e24844d51af1b10", "type": "electric_scooter", "fusion_lon": 0.0, "lon": -77.004088, "is_disabled": 0, "lat": 38.92918, "fusion_lat": 0.0, "is_reserved": 0, "rental_uris": {"android": "https://dc.lft.to/lastmile_qr_scan", "ios": "https://dc.lft.to/lastmile_qr_scan"}, "bike_id": "8c36f435c508c3239e24844d51af1b10"}, {"name": "aea9b0aac4cb880c461158b7a50fee29", "type": "electric_scooter", "fusion_lon": 0.0, "lon": -77.03608116666666, "is_disabled": 0, "lat": 38.9315325, "fusion_lat": 0.0, "is_reserved": 0, "rental_uris": {"android": "https://dc.lft.to/lastmile_qr_scan", "ios": "https://dc.lft.to/lastmile_qr_scan"}, "bike_id": "aea9b0aac4cb880c461158b7a50fee29"}, {"name": "6a686470cdc4c2445a5478a01628c177", "type": "electric_scooter", "fusion_lon": 0.0, "lon": -77.0067165, "is_disabled": 0, "lat": 38.89791016666667, "fusion_lat": 0.0, "is_reserved": 0, "rental_uris": {"android": "https://dc.lft.to/lastmile_qr_scan", "ios": "https://dc.lft.to/lastmile_qr_scan"}, "bike_id": "6a686470cdc4c2445a5478a01628c177"}, {"name": "96f3d6e1fc7e948e7d790b74f44f4674", "type": "electric_scooter", "fusion_lon": 0.0, "lon": -77.030052, "is_disabled": 0, "lat": 38.89745333333333, "fusion_lat": 0.0, "is_reserved": 0, "rental_uris": {"android": "https://dc.lft.to/lastmile_qr_scan", "ios": "https://dc.lft.to/lastmile_qr_scan"}, "bike_id": "96f3d6e1fc7e948e7d790b74f44f4674"}, {"name": "20c2078c874becb47ab7c374dba982aa", "type": "electric_scooter", "fusion_lon": 0.0, "lon": -76.9871655, "is_disabled": 0, "lat": 38.86708183333333, "fusion_lat": 0.0, "is_reserved": 0, "rental_uris": {"android": "https://dc.lft.to/lastmile_qr_scan", "ios": "https://dc.lft.to/lastmile_qr_scan"}, "bike_id": "20c2078c874becb47ab7c374dba982aa"}, {"name": "7b47cb692763017ef64bf860762c21d8", "type": "electric_bike", "fusion_lon": 0.0, "lon": -76.93871233333333, "is_disabled": 0, "lat": 38.95626266666667, "fusion_lat": 0.0, "is_reserved": 0, "rental_uris": {"android": "https://dc.lft.to/lastmile_qr_scan", "ios": "https://dc.lft.to/lastmile_qr_scan"}, "bike_id": "7b47cb692763017ef64bf860762c21d8"}, {"name": "2c3335a3a4325a0733956750e541144e", "type": "electric_scooter", "fusion_lon": 0.0, "lon": -77.0240025, "is_disabled": 0, "lat": 38.903301666666664, "fusion_lat": 0.0, "is_reserved": 0, "rental_uris": {"android": "https://dc.lft.to/lastmile_qr_scan", "ios": "https://dc.lft.to/lastmile_qr_scan"}, "bike_id": "2c3335a3a4325a0733956750e541144e"}, {"name": "129a0ca3b39f206df549cf9d4a9bf1f0", "type": "electric_scooter", "fusion_lon": 0.0, "lon": -77.03320633333334, "is_disabled": 0, "lat": 38.928693, "fusion_lat": 0.0, "is_reserved": 0, "rental_uris": {"android": "https://dc.lft.to/lastmile_qr_scan", "ios": "https://dc.lft.to/lastmile_qr_scan"}, "bike_id": "129a0ca3b39f206df549cf9d4a9bf1f0"}, {"name": "9f229a3072dba6d96bef299c53d96412", "type": "electric_scooter", "fusion_lon": 0.0, "lon": -77.03908233333334, "is_disabled": 0, "lat": 38.921975, "fusion_lat": 0.0, "is_reserved": 0, "rental_uris": {"android": "https://dc.lft.to/lastmile_qr_scan", "ios": "https://dc.lft.to/lastmile_qr_scan"}, "bike_id": "9f229a3072dba6d96bef299c53d96412"}, {"name": "6263c2f57d3760ce936cea6991d8503c", "type": "electric_scooter", "fusion_lon": 0.0, "lon": -77.02336633333333, "is_disabled": 0, "lat": 38.9302245, "fusion_lat": 0.0, "is_reserved": 0, "rental_uris": {"android": "https://dc.lft.to/lastmile_qr_scan", "ios": "https://dc.lft.to/lastmile_qr_scan"}, "bike_id": "6263c2f57d3760ce936cea6991d8503c"}, {"name": "3888f6731f739bfb5a0318370e2b2d80", "type": "electric_scooter", "fusion_lon": 0.0, "lon": -77.059182, "is_disabled": 0, "lat": 38.904556166666666, "fusion_lat": 0.0, "is_reserved": 0, "rental_uris": {"android": "https://dc.lft.to/lastmile_qr_scan", "ios": "https://dc.lft.to/lastmile_qr_scan"}, "bike_id": "3888f6731f739bfb5a0318370e2b2d80"}, {"name": "b70f98b29f507f122703052553b6d68d", "type": "electric_scooter", "fusion_lon": 0.0, "lon": -77.06110083333333, "is_disabled": 0, "lat": 38.904823666666665, "fusion_lat": 0.0, "is_reserved": 0, "rental_uris": {"android": "https://dc.lft.to/lastmile_qr_scan", "ios": "https://dc.lft.to/lastmile_qr_scan"}, "bike_id": "b70f98b29f507f122703052553b6d68d"}, {"name": "0ae8194418fc65a3e79542c4fb5ffffb", "type": "electric_scooter", "fusion_lon": 0.0, "lon": -76.996143, "is_disabled": 0, "lat": 38.88495366666667, "fusion_lat": 0.0, "is_reserved": 0, "rental_uris": {"android": "https://dc.lft.to/lastmile_qr_scan", "ios": "https://dc.lft.to/lastmile_qr_scan"}, "bike_id": "0ae8194418fc65a3e79542c4fb5ffffb"}, {"name": "ec8f7b8ebe1207bbfabf3a982038d9c4", "type": "electric_scooter", "fusion_lon": 0.0, "lon": -76.99487966666666, "is_disabled": 0, "lat": 38.90107616666667, "fusion_lat": 0.0, "is_reserved": 0, "rental_uris": {"android": "https://dc.lft.to/lastmile_qr_scan", "ios": "https://dc.lft.to/lastmile_qr_scan"}, "bike_id": "ec8f7b8ebe1207bbfabf3a982038d9c4"}, {"name": "3631af60ec3153b590ea3f9a765be9c8", "type": "electric_scooter", "fusion_lon": 0.0, "lon": -77.03049833333333, "is_disabled": 0, "lat": 38.902362, "fusion_lat": 0.0, "is_reserved": 0, "rental_uris": {"android": "https://dc.lft.to/lastmile_qr_scan", "ios": "https://dc.lft.to/lastmile_qr_scan"}, "bike_id": "3631af60ec3153b590ea3f9a765be9c8"}, {"name": "0bfc99604d97ecfdfc378120ba2961e1", "type": "electric_scooter", "fusion_lon": 0.0, "lon": -76.97334483333333, "is_disabled": 0, "lat": 38.9041295, "fusion_lat": 0.0, "is_reserved": 0, "rental_uris": {"android": "https://dc.lft.to/lastmile_qr_scan", "ios": "https://dc.lft.to/lastmile_qr_scan"}, "bike_id": "0bfc99604d97ecfdfc378120ba2961e1"}, {"name": "272c41e022b629a9d83770173f3155eb", "type": "electric_scooter", "fusion_lon": 0.0, "lon": -76.98519333333333, "is_disabled": 0, "lat": 38.8600795, "fusion_lat": 0.0, "is_reserved": 0, "rental_uris": {"android": "https://dc.lft.to/lastmile_qr_scan", "ios": "https://dc.lft.to/lastmile_qr_scan"}, "bike_id": "272c41e022b629a9d83770173f3155eb"}, {"name": "9de9a669df40b7a49c0ca8ceb21cf890", "type": "electric_bike", "fusion_lon": 0.0, "lon": -77.16229333333334, "is_disabled": 0, "lat": 38.886633, "fusion_lat": 0.0, "is_reserved": 0, "rental_uris": {"android": "https://dc.lft.to/lastmile_qr_scan", "ios": "https://dc.lft.to/lastmile_qr_scan"}, "bike_id": "9de9a669df40b7a49c0ca8ceb21cf890"}, {"name": "5ff32a60ae61d869b9016c42c46f6c2c", "type": "electric_scooter", "fusion_lon": 0.0, "lon": -77.04571133333333, "is_disabled": 0, "lat": 38.90236766666666, "fusion_lat": 0.0, "is_reserved": 0, "rental_uris": {"android": "https://dc.lft.to/lastmile_qr_scan", "ios": "https://dc.lft.to/lastmile_qr_scan"}, "bike_id": "5ff32a60ae61d869b9016c42c46f6c2c"}, {"name": "56dbe9797f36737adcf7a3f4ec0ace33", "type": "electric_scooter", "fusion_lon": 0.0, "lon": -77.03429116666666, "is_disabled": 0, "lat": 38.93334316666667, "fusion_lat": 0.0, "is_reserved": 0, "rental_uris": {"android": "https://dc.lft.to/lastmile_qr_scan", "ios": "https://dc.lft.to/lastmile_qr_scan"}, "bike_id": "56dbe9797f36737adcf7a3f4ec0ace33"}, {"name": "3ea98b8daacd281805f45875f35d0afd", "type": "electric_scooter", "fusion_lon": 0.0, "lon": -77.01140016666666, "is_disabled": 0, "lat": 38.90000633333333, "fusion_lat": 0.0, "is_reserved": 0, "rental_uris": {"android": "https://dc.lft.to/lastmile_qr_scan", "ios": "https://dc.lft.to/lastmile_qr_scan"}, "bike_id": "3ea98b8daacd281805f45875f35d0afd"}, {"name": "1ed8fa24a37bc7fad2468cca75de726b", "type": "electric_scooter", "fusion_lon": 0.0, "lon": -77.026931, "is_disabled": 0, "lat": 38.90685366666666, "fusion_lat": 0.0, "is_reserved": 0, "rental_uris": {"android": "https://dc.lft.to/lastmile_qr_scan", "ios": "https://dc.lft.to/lastmile_qr_scan"}, "bike_id": "1ed8fa24a37bc7fad2468cca75de726b"}, {"name": "8d5168d8c85df34d947498d54e885a73", "type": "electric_scooter", "fusion_lon": 0.0, "lon": -76.982313, "is_disabled": 0, "lat": 38.86474616666667, "fusion_lat": 0.0, "is_reserved": 0, "rental_uris": {"android": "https://dc.lft.to/lastmile_qr_scan", "ios": "https://dc.lft.to/lastmile_qr_scan"}, "bike_id": "8d5168d8c85df34d947498d54e885a73"}, {"name": "4c9ed42c037cdf5eb68c4c2e0db5dbdd", "type": "electric_scooter", "fusion_lon": 0.0, "lon": -76.9882605, "is_disabled": 0, "lat": 38.89076633333333, "fusion_lat": 0.0, "is_reserved": 0, "rental_uris": {"android": "https://dc.lft.to/lastmile_qr_scan", "ios": "https://dc.lft.to/lastmile_qr_scan"}, "bike_id": "4c9ed42c037cdf5eb68c4c2e0db5dbdd"}, {"name": "bdd7953c24c9c32e53d910dc340e9f05", "type": "electric_scooter", "fusion_lon": 0.0, "lon": -77.0005975, "is_disabled": 0, "lat": 38.875353, "fusion_lat": 0.0, "is_reserved": 0, "rental_uris": {"android": "https://dc.lft.to/lastmile_qr_scan", "ios": "https://dc.lft.to/lastmile_qr_scan"}, "bike_id": "bdd7953c24c9c32e53d910dc340e9f05"}, {"name": "1c1d26f65534d936cce64e47f89aad86", "type": "electric_scooter", "fusion_lon": 0.0, "lon": -76.98341366666666, "is_disabled": 0, "lat": 38.895503833333336, "fusion_lat": 0.0, "is_reserved": 0, "rental_uris": {"android": "https://dc.lft.to/lastmile_qr_scan", "ios": "https://dc.lft.to/lastmile_qr_scan"}, "bike_id": "1c1d26f65534d936cce64e47f89aad86"}, {"name": "6b7f1496efbac44dc12f6f46195adc31", "type": "electric_scooter", "fusion_lon": 0.0, "lon": -77.03637816666667, "is_disabled": 0, "lat": 38.901336, "fusion_lat": 0.0, "is_reserved": 0, "rental_uris": {"android": "https://dc.lft.to/lastmile_qr_scan", "ios": "https://dc.lft.to/lastmile_qr_scan"}, "bike_id": "6b7f1496efbac44dc12f6f46195adc31"}, {"name": "e35a4b520fb7c3abfd2c4bd59f814d1a", "type": "electric_scooter", "fusion_lon": 0.0, "lon": -77.03786283333334, "is_disabled": 0, "lat": 38.927082666666664, "fusion_lat": 0.0, "is_reserved": 0, "rental_uris": {"android": "https://dc.lft.to/lastmile_qr_scan", "ios": "https://dc.lft.to/lastmile_qr_scan"}, "bike_id": "e35a4b520fb7c3abfd2c4bd59f814d1a"}, {"name": "8b1b3a91a042f62e7b3731d062e17093", "type": "electric_scooter", "fusion_lon": 0.0, "lon": -77.0199615, "is_disabled": 0, "lat": 38.9142305, "fusion_lat": 0.0, "is_reserved": 0, "rental_uris": {"android": "https://dc.lft.to/lastmile_qr_scan", "ios": "https://dc.lft.to/lastmile_qr_scan"}, "bike_id": "8b1b3a91a042f62e7b3731d062e17093"}, {"name": "8fd6965c5f7d7a8eba6f58cd7603fd11", "type": "electric_scooter", "fusion_lon": 0.0, "lon": -77.07307633333333, "is_disabled": 0, "lat": 38.9345115, "fusion_lat": 0.0, "is_reserved": 0, "rental_uris": {"android": "https://dc.lft.to/lastmile_qr_scan", "ios": "https://dc.lft.to/lastmile_qr_scan"}, "bike_id": "8fd6965c5f7d7a8eba6f58cd7603fd11"}, {"name": "6c640b49b8ca7a31f1b681245a672a2c", "type": "electric_scooter", "fusion_lon": 0.0, "lon": -77.00462816666666, "is_disabled": 0, "lat": 38.87662183333333, "fusion_lat": 0.0, "is_reserved": 0, "rental_uris": {"android": "https://dc.lft.to/lastmile_qr_scan", "ios": "https://dc.lft.to/lastmile_qr_scan"}, "bike_id": "6c640b49b8ca7a31f1b681245a672a2c"}, {"name": "ebbe7cdcc1c861b9cd88455e3c6f22da", "type": "electric_scooter", "fusion_lon": 0.0, "lon": -77.02606, "is_disabled": 0, "lat": 38.928478166666665, "fusion_lat": 0.0, "is_reserved": 0, "rental_uris": {"android": "https://dc.lft.to/lastmile_qr_scan", "ios": "https://dc.lft.to/lastmile_qr_scan"}, "bike_id": "ebbe7cdcc1c861b9cd88455e3c6f22da"}, {"name": "148f4efc6e1821a4bfbbcd824f2b8aab", "type": "electric_bike", "fusion_lon": 0.0, "lon": -77.0094325, "is_disabled": 0, "lat": 38.92134733333333, "fusion_lat": 0.0, "is_reserved": 0, "rental_uris": {"android": "https://dc.lft.to/lastmile_qr_scan", "ios": "https://dc.lft.to/lastmile_qr_scan"}, "bike_id": "148f4efc6e1821a4bfbbcd824f2b8aab"}, {"name": "0f75fbb9c927f4bc384e98ad71c157f7", "type": "electric_scooter", "fusion_lon": 0.0, "lon": -77.00224633333333, "is_disabled": 0, "lat": 38.8948655, "fusion_lat": 0.0, "is_reserved": 0, "rental_uris": {"android": "https://dc.lft.to/lastmile_qr_scan", "ios": "https://dc.lft.to/lastmile_qr_scan"}, "bike_id": "0f75fbb9c927f4bc384e98ad71c157f7"}, {"name": "427af236b9669dcd54189b87470a00e4", "type": "electric_scooter", "fusion_lon": 0.0, "lon": -77.03855833333333, "is_disabled": 0, "lat": 38.91551033333333, "fusion_lat": 0.0, "is_reserved": 0, "rental_uris": {"android": "https://dc.lft.to/lastmile_qr_scan", "ios": "https://dc.lft.to/lastmile_qr_scan"}, "bike_id": "427af236b9669dcd54189b87470a00e4"}, {"name": "51a4eeef3096dd68dd9fab139e168155", "type": "electric_scooter", "fusion_lon": 0.0, "lon": -76.9333775, "is_disabled": 0, "lat": 38.90868316666667, "fusion_lat": 0.0, "is_reserved": 0, "rental_uris": {"android": "https://dc.lft.to/lastmile_qr_scan", "ios": "https://dc.lft.to/lastmile_qr_scan"}, "bike_id": "51a4eeef3096dd68dd9fab139e168155"}, {"name": "e30f6bedc75f79d2e3bae699523c1102", "type": "electric_scooter", "fusion_lon": 0.0, "lon": -76.99655883333334, "is_disabled": 0, "lat": 38.860095666666666, "fusion_lat": 0.0, "is_reserved": 0, "rental_uris": {"android": "https://dc.lft.to/lastmile_qr_scan", "ios": "https://dc.lft.to/lastmile_qr_scan"}, "bike_id": "e30f6bedc75f79d2e3bae699523c1102"}, {"name": "fabbe982f221fc94ff7cb83503340d8f", "type": "electric_scooter", "fusion_lon": 0.0, "lon": -77.02487066666667, "is_disabled": 0, "lat": 38.94184333333333, "fusion_lat": 0.0, "is_reserved": 0, "rental_uris": {"android": "https://dc.lft.to/lastmile_qr_scan", "ios": "https://dc.lft.to/lastmile_qr_scan"}, "bike_id": "fabbe982f221fc94ff7cb83503340d8f"}, {"name": "d25a1207fecdb36fe09c92ea3afcd944", "type": "electric_scooter", "fusion_lon": 0.0, "lon": -76.93555816666667, "is_disabled": 0, "lat": 38.88264066666667, "fusion_lat": 0.0, "is_reserved": 0, "rental_uris": {"android": "https://dc.lft.to/lastmile_qr_scan", "ios": "https://dc.lft.to/lastmile_qr_scan"}, "bike_id": "d25a1207fecdb36fe09c92ea3afcd944"}, {"name": "0e6cb274ab7437c40b9c4bb447d8efcc", "type": "electric_scooter", "fusion_lon": 0.0, "lon": -77.007324, "is_disabled": 0, "lat": 38.89852366666667, "fusion_lat": 0.0, "is_reserved": 0, "rental_uris": {"android": "https://dc.lft.to/lastmile_qr_scan", "ios": "https://dc.lft.to/lastmile_qr_scan"}, "bike_id": "0e6cb274ab7437c40b9c4bb447d8efcc"}, {"name": "f0ff943812f3012ab90cdc5f71765418", "type": "electric_scooter", "fusion_lon": 0.0, "lon": -77.05106633333334, "is_disabled": 0, "lat": 38.923593833333335, "fusion_lat": 0.0, "is_reserved": 0, "rental_uris": {"android": "https://dc.lft.to/lastmile_qr_scan", "ios": "https://dc.lft.to/lastmile_qr_scan"}, "bike_id": "f0ff943812f3012ab90cdc5f71765418"}, {"name": "d35767ca6de54b0113e32aa28d53046f", "type": "electric_scooter", "fusion_lon": 0.0, "lon": -77.03196766666667, "is_disabled": 0, "lat": 38.907886166666664, "fusion_lat": 0.0, "is_reserved": 0, "rental_uris": {"android": "https://dc.lft.to/lastmile_qr_scan", "ios": "https://dc.lft.to/lastmile_qr_scan"}, "bike_id": "d35767ca6de54b0113e32aa28d53046f"}, {"name": "f75b9e718d6fc9433227fcfcb9bbb24e", "type": "electric_scooter", "fusion_lon": 0.0, "lon": -77.0282835, "is_disabled": 0, "lat": 38.898829666666664, "fusion_lat": 0.0, "is_reserved": 0, "rental_uris": {"android": "https://dc.lft.to/lastmile_qr_scan", "ios": "https://dc.lft.to/lastmile_qr_scan"}, "bike_id": "f75b9e718d6fc9433227fcfcb9bbb24e"}, {"name": "0b970570618dd90ec4fb26c0300b6412", "type": "electric_scooter", "fusion_lon": 0.0, "lon": -77.02401733333333, "is_disabled": 0, "lat": 38.919646, "fusion_lat": 0.0, "is_reserved": 0, "rental_uris": {"android": "https://dc.lft.to/lastmile_qr_scan", "ios": "https://dc.lft.to/lastmile_qr_scan"}, "bike_id": "0b970570618dd90ec4fb26c0300b6412"}, {"name": "b7c03f9ae7bb5c3ff3fe9545e92a87e1", "type": "electric_scooter", "fusion_lon": 0.0, "lon": -77.02241516666666, "is_disabled": 0, "lat": 38.908642, "fusion_lat": 0.0, "is_reserved": 0, "rental_uris": {"android": "https://dc.lft.to/lastmile_qr_scan", "ios": "https://dc.lft.to/lastmile_qr_scan"}, "bike_id": "b7c03f9ae7bb5c3ff3fe9545e92a87e1"}, {"name": "80257885709693c94ecf6c19b5b8baac", "type": "electric_scooter", "fusion_lon": 0.0, "lon": -77.03710733333334, "is_disabled": 0, "lat": 38.9263865, "fusion_lat": 0.0, "is_reserved": 0, "rental_uris": {"android": "https://dc.lft.to/lastmile_qr_scan", "ios": "https://dc.lft.to/lastmile_qr_scan"}, "bike_id": "80257885709693c94ecf6c19b5b8baac"}, {"name": "4603f929c0e95f57fd3ec19bd667f42a", "type": "electric_scooter", "fusion_lon": 0.0, "lon": -76.98359783333333, "is_disabled": 0, "lat": 38.894399166666666, "fusion_lat": 0.0, "is_reserved": 0, "rental_uris": {"android": "https://dc.lft.to/lastmile_qr_scan", "ios": "https://dc.lft.to/lastmile_qr_scan"}, "bike_id": "4603f929c0e95f57fd3ec19bd667f42a"}, {"name": "1041b4ec3e22dfae9713d0379c6520d4", "type": "electric_scooter", "fusion_lon": 0.0, "lon": -77.00047983333333, "is_disabled": 0, "lat": 38.90764716666666, "fusion_lat": 0.0, "is_reserved": 0, "rental_uris": {"android": "https://dc.lft.to/lastmile_qr_scan", "ios": "https://dc.lft.to/lastmile_qr_scan"}, "bike_id": "1041b4ec3e22dfae9713d0379c6520d4"}, {"name": "a1ecef76a8a082fe8e438639e1a00b37", "type": "electric_bike", "fusion_lon": 0.0, "lon": -77.00729483333333, "is_disabled": 0, "lat": 38.89787316666666, "fusion_lat": 0.0, "is_reserved": 0, "rental_uris": {"android": "https://dc.lft.to/lastmile_qr_scan", "ios": "https://dc.lft.to/lastmile_qr_scan"}, "bike_id": "a1ecef76a8a082fe8e438639e1a00b37"}, {"name": "d6848789a43140b02e568adb5120e2cf", "type": "electric_scooter", "fusion_lon": 0.0, "lon": -76.9955545, "is_disabled": 0, "lat": 38.90026, "fusion_lat": 0.0, "is_reserved": 0, "rental_uris": {"android": "https://dc.lft.to/lastmile_qr_scan", "ios": "https://dc.lft.to/lastmile_qr_scan"}, "bike_id": "d6848789a43140b02e568adb5120e2cf"}, {"name": "363b3d84eec60418a37463eca10c92ca", "type": "electric_scooter", "fusion_lon": 0.0, "lon": -77.04009383333333, "is_disabled": 0, "lat": 38.89639716666667, "fusion_lat": 0.0, "is_reserved": 0, "rental_uris": {"android": "https://dc.lft.to/lastmile_qr_scan", "ios": "https://dc.lft.to/lastmile_qr_scan"}, "bike_id": "363b3d84eec60418a37463eca10c92ca"}, {"name": "0f089a1862f80d37bcfb0135d773dad3", "type": "electric_scooter", "fusion_lon": 0.0, "lon": -77.04479983333333, "is_disabled": 0, "lat": 38.91869783333333, "fusion_lat": 0.0, "is_reserved": 0, "rental_uris": {"android": "https://dc.lft.to/lastmile_qr_scan", "ios": "https://dc.lft.to/lastmile_qr_scan"}, "bike_id": "0f089a1862f80d37bcfb0135d773dad3"}, {"name": "973cc7d4f23e357fa974b96fa12fa36b", "type": "electric_scooter", "fusion_lon": 0.0, "lon": -77.00206316666667, "is_disabled": 0, "lat": 38.96554966666667, "fusion_lat": 0.0, "is_reserved": 0, "rental_uris": {"android": "https://dc.lft.to/lastmile_qr_scan", "ios": "https://dc.lft.to/lastmile_qr_scan"}, "bike_id": "973cc7d4f23e357fa974b96fa12fa36b"}, {"name": "5b1bd82e15069a3a0e8c57530da735f3", "type": "electric_scooter", "fusion_lon": 0.0, "lon": -77.01958216666667, "is_disabled": 0, "lat": 38.89256316666667, "fusion_lat": 0.0, "is_reserved": 0, "rental_uris": {"android": "https://dc.lft.to/lastmile_qr_scan", "ios": "https://dc.lft.to/lastmile_qr_scan"}, "bike_id": "5b1bd82e15069a3a0e8c57530da735f3"}, {"name": "56a58e0cfa46db6f96758b075fc7a28f", "type": "electric_scooter", "fusion_lon": 0.0, "lon": -77.026861, "is_disabled": 0, "lat": 38.894591, "fusion_lat": 0.0, "is_reserved": 0, "rental_uris": {"android": "https://dc.lft.to/lastmile_qr_scan", "ios": "https://dc.lft.to/lastmile_qr_scan"}, "bike_id": "56a58e0cfa46db6f96758b075fc7a28f"}, {"name": "a4bddfc856c574002769f16792bab5ee", "type": "electric_scooter", "fusion_lon": 0.0, "lon": -77.001416, "is_disabled": 0, "lat": 38.87310683333333, "fusion_lat": 0.0, "is_reserved": 0, "rental_uris": {"android": "https://dc.lft.to/lastmile_qr_scan", "ios": "https://dc.lft.to/lastmile_qr_scan"}, "bike_id": "a4bddfc856c574002769f16792bab5ee"}, {"name": "9b0f48de37d18c1eafaf9b49cf32cdfd", "type": "electric_scooter", "fusion_lon": 0.0, "lon": -77.01480383333333, "is_disabled": 0, "lat": 38.914129333333335, "fusion_lat": 0.0, "is_reserved": 0, "rental_uris": {"android": "https://dc.lft.to/lastmile_qr_scan", "ios": "https://dc.lft.to/lastmile_qr_scan"}, "bike_id": "9b0f48de37d18c1eafaf9b49cf32cdfd"}, {"name": "5dfb75ea639b2fae3898f59255313971", "type": "electric_scooter", "fusion_lon": 0.0, "lon": -77.01073333333333, "is_disabled": 0, "lat": 38.9096055, "fusion_lat": 0.0, "is_reserved": 0, "rental_uris": {"android": "https://dc.lft.to/lastmile_qr_scan", "ios": "https://dc.lft.to/lastmile_qr_scan"}, "bike_id": "5dfb75ea639b2fae3898f59255313971"}, {"name": "7e24cb1e39b9d9011246728d02045ad1", "type": "electric_scooter", "fusion_lon": 0.0, "lon": -76.998335, "is_disabled": 0, "lat": 38.90494433333333, "fusion_lat": 0.0, "is_reserved": 0, "rental_uris": {"android": "https://dc.lft.to/lastmile_qr_scan", "ios": "https://dc.lft.to/lastmile_qr_scan"}, "bike_id": "7e24cb1e39b9d9011246728d02045ad1"}, {"name": "37d2ca91a09252f46d38064c4c311d49", "type": "electric_scooter", "fusion_lon": 0.0, "lon": -77.042014, "is_disabled": 0, "lat": 38.90667, "fusion_lat": 0.0, "is_reserved": 0, "rental_uris": {"android": "https://dc.lft.to/lastmile_qr_scan", "ios": "https://dc.lft.to/lastmile_qr_scan"}, "bike_id": "37d2ca91a09252f46d38064c4c311d49"}, {"name": "c37fb617cef403e2692daa25a6ad9e12", "type": "electric_bike", "fusion_lon": 0.0, "lon": -76.97252816666666, "is_disabled": 0, "lat": 38.957424833333334, "fusion_lat": 0.0, "is_reserved": 0, "rental_uris": {"android": "https://dc.lft.to/lastmile_qr_scan", "ios": "https://dc.lft.to/lastmile_qr_scan"}, "bike_id": "c37fb617cef403e2692daa25a6ad9e12"}, {"name": "826a4fdf2b48c53e5d987b10572a45fb", "type": "electric_bike", "fusion_lon": 0.0, "lon": -76.97255633333333, "is_disabled": 0, "lat": 38.957498, "fusion_lat": 0.0, "is_reserved": 0, "rental_uris": {"android": "https://dc.lft.to/lastmile_qr_scan", "ios": "https://dc.lft.to/lastmile_qr_scan"}, "bike_id": "826a4fdf2b48c53e5d987b10572a45fb"}, {"name": "9106bb2978472cbaacf2c74ef6192fe4", "type": "electric_scooter", "fusion_lon": 0.0, "lon": -76.93021266666666, "is_disabled": 0, "lat": 38.90168716666667, "fusion_lat": 0.0, "is_reserved": 0, "rental_uris": {"android": "https://dc.lft.to/lastmile_qr_scan", "ios": "https://dc.lft.to/lastmile_qr_scan"}, "bike_id": "9106bb2978472cbaacf2c74ef6192fe4"}, {"name": "17137d35ed8537eb4623475020650994", "type": "electric_scooter", "fusion_lon": 0.0, "lon": -77.01982333333333, "is_disabled": 0, "lat": 38.887206166666665, "fusion_lat": 0.0, "is_reserved": 0, "rental_uris": {"android": "https://dc.lft.to/lastmile_qr_scan", "ios": "https://dc.lft.to/lastmile_qr_scan"}, "bike_id": "17137d35ed8537eb4623475020650994"}, {"name": "2ff47d55661ad7ff03c885e03e8901a2", "type": "electric_scooter", "fusion_lon": 0.0, "lon": -77.08303683333334, "is_disabled": 0, "lat": 38.92853916666667, "fusion_lat": 0.0, "is_reserved": 0, "rental_uris": {"android": "https://dc.lft.to/lastmile_qr_scan", "ios": "https://dc.lft.to/lastmile_qr_scan"}, "bike_id": "2ff47d55661ad7ff03c885e03e8901a2"}, {"name": "fbc1d19596b312499251eb6f57a3d6c3", "type": "electric_scooter", "fusion_lon": 0.0, "lon": -77.072687, "is_disabled": 0, "lat": 38.90784766666667, "fusion_lat": 0.0, "is_reserved": 0, "rental_uris": {"android": "https://dc.lft.to/lastmile_qr_scan", "ios": "https://dc.lft.to/lastmile_qr_scan"}, "bike_id": "fbc1d19596b312499251eb6f57a3d6c3"}, {"name": "16461402d9ee18732362bfa3c7f39bd3", "type": "electric_scooter", "fusion_lon": 0.0, "lon": -77.02639666666667, "is_disabled": 0, "lat": 38.894471, "fusion_lat": 0.0, "is_reserved": 0, "rental_uris": {"android": "https://dc.lft.to/lastmile_qr_scan", "ios": "https://dc.lft.to/lastmile_qr_scan"}, "bike_id": "16461402d9ee18732362bfa3c7f39bd3"}, {"name": "88c0d647e3f4eaa22e449e7f55fb738f", "type": "electric_scooter", "fusion_lon": 0.0, "lon": -77.03853816666667, "is_disabled": 0, "lat": 38.917720333333335, "fusion_lat": 0.0, "is_reserved": 0, "rental_uris": {"android": "https://dc.lft.to/lastmile_qr_scan", "ios": "https://dc.lft.to/lastmile_qr_scan"}, "bike_id": "88c0d647e3f4eaa22e449e7f55fb738f"}, {"name": "c2fd2a44a0170e2ad734d6d30b04eb89", "type": "electric_scooter", "fusion_lon": 0.0, "lon": -77.02476033333333, "is_disabled": 0, "lat": 38.930971, "fusion_lat": 0.0, "is_reserved": 0, "rental_uris": {"android": "https://dc.lft.to/lastmile_qr_scan", "ios": "https://dc.lft.to/lastmile_qr_scan"}, "bike_id": "c2fd2a44a0170e2ad734d6d30b04eb89"}, {"name": "4fa26e318e1cabc728e8e6848852b3e9", "type": "electric_scooter", "fusion_lon": 0.0, "lon": -77.03227833333334, "is_disabled": 0, "lat": 38.9259075, "fusion_lat": 0.0, "is_reserved": 0, "rental_uris": {"android": "https://dc.lft.to/lastmile_qr_scan", "ios": "https://dc.lft.to/lastmile_qr_scan"}, "bike_id": "4fa26e318e1cabc728e8e6848852b3e9"}, {"name": "93b656e1295f245fc1f09ad0ae753b8d", "type": "electric_scooter", "fusion_lon": 0.0, "lon": -77.01766616666667, "is_disabled": 0, "lat": 38.902674, "fusion_lat": 0.0, "is_reserved": 0, "rental_uris": {"android": "https://dc.lft.to/lastmile_qr_scan", "ios": "https://dc.lft.to/lastmile_qr_scan"}, "bike_id": "93b656e1295f245fc1f09ad0ae753b8d"}, {"name": "16e8c5ffb75fc79939a1fa866b7577ad", "type": "electric_scooter", "fusion_lon": 0.0, "lon": -77.03379766666667, "is_disabled": 0, "lat": 38.92446483333333, "fusion_lat": 0.0, "is_reserved": 0, "rental_uris": {"android": "https://dc.lft.to/lastmile_qr_scan", "ios": "https://dc.lft.to/lastmile_qr_scan"}, "bike_id": "16e8c5ffb75fc79939a1fa866b7577ad"}, {"name": "ae3f845743eff8bf814f0397657271fe", "type": "electric_scooter", "fusion_lon": 0.0, "lon": -77.02047, "is_disabled": 0, "lat": 38.9365445, "fusion_lat": 0.0, "is_reserved": 0, "rental_uris": {"android": "https://dc.lft.to/lastmile_qr_scan", "ios": "https://dc.lft.to/lastmile_qr_scan"}, "bike_id": "ae3f845743eff8bf814f0397657271fe"}, {"name": "e87b7bd8738f4ad33976d119bbd1f0de", "type": "electric_scooter", "fusion_lon": 0.0, "lon": -77.0465545, "is_disabled": 0, "lat": 38.8987685, "fusion_lat": 0.0, "is_reserved": 0, "rental_uris": {"android": "https://dc.lft.to/lastmile_qr_scan", "ios": "https://dc.lft.to/lastmile_qr_scan"}, "bike_id": "e87b7bd8738f4ad33976d119bbd1f0de"}, {"name": "9bba1430f4fb076362b1904b25057f3d", "type": "electric_scooter", "fusion_lon": 0.0, "lon": -77.04254616666667, "is_disabled": 0, "lat": 38.922462, "fusion_lat": 0.0, "is_reserved": 0, "rental_uris": {"android": "https://dc.lft.to/lastmile_qr_scan", "ios": "https://dc.lft.to/lastmile_qr_scan"}, "bike_id": "9bba1430f4fb076362b1904b25057f3d"}, {"name": "439461421fef05f8a723285f254a61e2", "type": "electric_scooter", "fusion_lon": 0.0, "lon": -77.0383135, "is_disabled": 0, "lat": 38.9123115, "fusion_lat": 0.0, "is_reserved": 0, "rental_uris": {"android": "https://dc.lft.to/lastmile_qr_scan", "ios": "https://dc.lft.to/lastmile_qr_scan"}, "bike_id": "439461421fef05f8a723285f254a61e2"}, {"name": "f9f9d7ad1d13c3be0051e90591fca38e", "type": "electric_scooter", "fusion_lon": 0.0, "lon": -77.03250966666667, "is_disabled": 0, "lat": 38.928472166666666, "fusion_lat": 0.0, "is_reserved": 0, "rental_uris": {"android": "https://dc.lft.to/lastmile_qr_scan", "ios": "https://dc.lft.to/lastmile_qr_scan"}, "bike_id": "f9f9d7ad1d13c3be0051e90591fca38e"}, {"name": "862411c1d23eea2b6e3bc4cda74fc67c", "type": "electric_scooter", "fusion_lon": 0.0, "lon": -76.98695483333333, "is_disabled": 0, "lat": 38.90015666666667, "fusion_lat": 0.0, "is_reserved": 0, "rental_uris": {"android": "https://dc.lft.to/lastmile_qr_scan", "ios": "https://dc.lft.to/lastmile_qr_scan"}, "bike_id": "862411c1d23eea2b6e3bc4cda74fc67c"}, {"name": "6f418a48377923fe3bddd21afe9c73e4", "type": "electric_scooter", "fusion_lon": 0.0, "lon": -76.93402933333333, "is_disabled": 0, "lat": 38.89893983333333, "fusion_lat": 0.0, "is_reserved": 0, "rental_uris": {"android": "https://dc.lft.to/lastmile_qr_scan", "ios": "https://dc.lft.to/lastmile_qr_scan"}, "bike_id": "6f418a48377923fe3bddd21afe9c73e4"}, {"name": "80b1a6c45149a3e195338d18f2e3d36c", "type": "electric_scooter", "fusion_lon": 0.0, "lon": -77.05167216666666, "is_disabled": 0, "lat": 38.9240665, "fusion_lat": 0.0, "is_reserved": 0, "rental_uris": {"android": "https://dc.lft.to/lastmile_qr_scan", "ios": "https://dc.lft.to/lastmile_qr_scan"}, "bike_id": "80b1a6c45149a3e195338d18f2e3d36c"}, {"name": "c568d3311481871d2dcaea202c2f0669", "type": "electric_scooter", "fusion_lon": 0.0, "lon": -77.02715416666666, "is_disabled": 0, "lat": 38.917198166666665, "fusion_lat": 0.0, "is_reserved": 0, "rental_uris": {"android": "https://dc.lft.to/lastmile_qr_scan", "ios": "https://dc.lft.to/lastmile_qr_scan"}, "bike_id": "c568d3311481871d2dcaea202c2f0669"}, {"name": "7edf018fd117ab75e50b758de3e07bf5", "type": "electric_scooter", "fusion_lon": 0.0, "lon": -77.02412583333333, "is_disabled": 0, "lat": 38.9309915, "fusion_lat": 0.0, "is_reserved": 0, "rental_uris": {"android": "https://dc.lft.to/lastmile_qr_scan", "ios": "https://dc.lft.to/lastmile_qr_scan"}, "bike_id": "7edf018fd117ab75e50b758de3e07bf5"}, {"name": "f8caf7ccee4abebb672678f804c29f3e", "type": "electric_scooter", "fusion_lon": 0.0, "lon": -77.0296985, "is_disabled": 0, "lat": 38.917274166666665, "fusion_lat": 0.0, "is_reserved": 0, "rental_uris": {"android": "https://dc.lft.to/lastmile_qr_scan", "ios": "https://dc.lft.to/lastmile_qr_scan"}, "bike_id": "f8caf7ccee4abebb672678f804c29f3e"}, {"name": "8b97d36e9ef37ad9070b32144a4c97ef", "type": "electric_bike", "fusion_lon": 0.0, "lon": -77.07696333333334, "is_disabled": 0, "lat": 38.99423933333333, "fusion_lat": 0.0, "is_reserved": 0, "rental_uris": {"android": "https://dc.lft.to/lastmile_qr_scan", "ios": "https://dc.lft.to/lastmile_qr_scan"}, "bike_id": "8b97d36e9ef37ad9070b32144a4c97ef"}, {"name": "dcecdcc15b71e7e4ab84902e5f30b165", "type": "electric_scooter", "fusion_lon": 0.0, "lon": -77.020216, "is_disabled": 0, "lat": 38.8849965, "fusion_lat": 0.0, "is_reserved": 0, "rental_uris": {"android": "https://dc.lft.to/lastmile_qr_scan", "ios": "https://dc.lft.to/lastmile_qr_scan"}, "bike_id": "dcecdcc15b71e7e4ab84902e5f30b165"}, {"name": "375683f3ead435c68891c8bf8a6e1bfe", "type": "electric_scooter", "fusion_lon": 0.0, "lon": -77.0844255, "is_disabled": 0, "lat": 38.93986366666667, "fusion_lat": 0.0, "is_reserved": 0, "rental_uris": {"android": "https://dc.lft.to/lastmile_qr_scan", "ios": "https://dc.lft.to/lastmile_qr_scan"}, "bike_id": "375683f3ead435c68891c8bf8a6e1bfe"}, {"name": "3c6de1979543c1414f2c40da5a321cd8", "type": "electric_scooter", "fusion_lon": 0.0, "lon": -77.0401345, "is_disabled": 0, "lat": 38.896372, "fusion_lat": 0.0, "is_reserved": 0, "rental_uris": {"android": "https://dc.lft.to/lastmile_qr_scan", "ios": "https://dc.lft.to/lastmile_qr_scan"}, "bike_id": "3c6de1979543c1414f2c40da5a321cd8"}, {"name": "660b2f2cf53000929bf7cb53c086838b", "type": "electric_scooter", "fusion_lon": 0.0, "lon": -77.04055383333333, "is_disabled": 0, "lat": 38.900325, "fusion_lat": 0.0, "is_reserved": 0, "rental_uris": {"android": "https://dc.lft.to/lastmile_qr_scan", "ios": "https://dc.lft.to/lastmile_qr_scan"}, "bike_id": "660b2f2cf53000929bf7cb53c086838b"}, {"name": "f5939788e635917e73dae7c81e64cf6f", "type": "electric_scooter", "fusion_lon": 0.0, "lon": -77.03568366666667, "is_disabled": 0, "lat": 38.901254, "fusion_lat": 0.0, "is_reserved": 0, "rental_uris": {"android": "https://dc.lft.to/lastmile_qr_scan", "ios": "https://dc.lft.to/lastmile_qr_scan"}, "bike_id": "f5939788e635917e73dae7c81e64cf6f"}, {"name": "ced6285a2079623384acb28d9d78c41f", "type": "electric_scooter", "fusion_lon": 0.0, "lon": -77.02168533333334, "is_disabled": 0, "lat": 38.89725283333333, "fusion_lat": 0.0, "is_reserved": 0, "rental_uris": {"android": "https://dc.lft.to/lastmile_qr_scan", "ios": "https://dc.lft.to/lastmile_qr_scan"}, "bike_id": "ced6285a2079623384acb28d9d78c41f"}, {"name": "83290f316e78d07c6102d531b7a37451", "type": "electric_scooter", "fusion_lon": 0.0, "lon": -77.038811, "is_disabled": 0, "lat": 38.91847833333333, "fusion_lat": 0.0, "is_reserved": 0, "rental_uris": {"android": "https://dc.lft.to/lastmile_qr_scan", "ios": "https://dc.lft.to/lastmile_qr_scan"}, "bike_id": "83290f316e78d07c6102d531b7a37451"}, {"name": "e48b9252cc0b2de63b43dcbd67872431", "type": "electric_scooter", "fusion_lon": 0.0, "lon": -77.02211716666666, "is_disabled": 0, "lat": 38.89233083333333, "fusion_lat": 0.0, "is_reserved": 0, "rental_uris": {"android": "https://dc.lft.to/lastmile_qr_scan", "ios": "https://dc.lft.to/lastmile_qr_scan"}, "bike_id": "e48b9252cc0b2de63b43dcbd67872431"}, {"name": "21b43ad026546dd373f792b7d749c474", "type": "electric_scooter", "fusion_lon": 0.0, "lon": -77.0241315, "is_disabled": 0, "lat": 38.941914833333335, "fusion_lat": 0.0, "is_reserved": 0, "rental_uris": {"android": "https://dc.lft.to/lastmile_qr_scan", "ios": "https://dc.lft.to/lastmile_qr_scan"}, "bike_id": "21b43ad026546dd373f792b7d749c474"}, {"name": "05680d4a1e66d2074cc1294f26e6c6e6", "type": "electric_scooter", "fusion_lon": 0.0, "lon": -77.038909, "is_disabled": 0, "lat": 38.932737333333336, "fusion_lat": 0.0, "is_reserved": 0, "rental_uris": {"android": "https://dc.lft.to/lastmile_qr_scan", "ios": "https://dc.lft.to/lastmile_qr_scan"}, "bike_id": "05680d4a1e66d2074cc1294f26e6c6e6"}, {"name": "f7aff495dbd886b8ab2b127d4121fa08", "type": "electric_scooter", "fusion_lon": 0.0, "lon": -77.07276416666667, "is_disabled": 0, "lat": 38.90909766666667, "fusion_lat": 0.0, "is_reserved": 0, "rental_uris": {"android": "https://dc.lft.to/lastmile_qr_scan", "ios": "https://dc.lft.to/lastmile_qr_scan"}, "bike_id": "f7aff495dbd886b8ab2b127d4121fa08"}, {"name": "cb1164bcfb3065ae61fcd4c4e52e9368", "type": "electric_scooter", "fusion_lon": 0.0, "lon": -77.00227483333333, "is_disabled": 0, "lat": 38.92508466666666, "fusion_lat": 0.0, "is_reserved": 0, "rental_uris": {"android": "https://dc.lft.to/lastmile_qr_scan", "ios": "https://dc.lft.to/lastmile_qr_scan"}, "bike_id": "cb1164bcfb3065ae61fcd4c4e52e9368"}, {"name": "48190a35f5b98e6581f7d40af7b8b441", "type": "electric_scooter", "fusion_lon": 0.0, "lon": -77.05275216666666, "is_disabled": 0, "lat": 38.905386, "fusion_lat": 0.0, "is_reserved": 0, "rental_uris": {"android": "https://dc.lft.to/lastmile_qr_scan", "ios": "https://dc.lft.to/lastmile_qr_scan"}, "bike_id": "48190a35f5b98e6581f7d40af7b8b441"}, {"name": "e54b2c9e8e07991c544b53e9545c1499", "type": "electric_scooter", "fusion_lon": 0.0, "lon": -77.022347, "is_disabled": 0, "lat": 38.89222516666667, "fusion_lat": 0.0, "is_reserved": 0, "rental_uris": {"android": "https://dc.lft.to/lastmile_qr_scan", "ios": "https://dc.lft.to/lastmile_qr_scan"}, "bike_id": "e54b2c9e8e07991c544b53e9545c1499"}, {"name": "a8b6207cbd112e8d97a0c091cdab5716", "type": "electric_scooter", "fusion_lon": 0.0, "lon": -76.97170483333333, "is_disabled": 0, "lat": 38.86140483333333, "fusion_lat": 0.0, "is_reserved": 0, "rental_uris": {"android": "https://dc.lft.to/lastmile_qr_scan", "ios": "https://dc.lft.to/lastmile_qr_scan"}, "bike_id": "a8b6207cbd112e8d97a0c091cdab5716"}, {"name": "b6098f952790a85a434ad87d91421c2c", "type": "electric_scooter", "fusion_lon": 0.0, "lon": -77.05735533333333, "is_disabled": 0, "lat": 38.93373416666667, "fusion_lat": 0.0, "is_reserved": 0, "rental_uris": {"android": "https://dc.lft.to/lastmile_qr_scan", "ios": "https://dc.lft.to/lastmile_qr_scan"}, "bike_id": "b6098f952790a85a434ad87d91421c2c"}, {"name": "e327a80013e8b76ff28d25fc1c628a1e", "type": "electric_scooter", "fusion_lon": 0.0, "lon": -77.02621833333333, "is_disabled": 0, "lat": 38.933388666666666, "fusion_lat": 0.0, "is_reserved": 0, "rental_uris": {"android": "https://dc.lft.to/lastmile_qr_scan", "ios": "https://dc.lft.to/lastmile_qr_scan"}, "bike_id": "e327a80013e8b76ff28d25fc1c628a1e"}, {"name": "f4565c4023f1464430aca707796197ee", "type": "electric_scooter", "fusion_lon": 0.0, "lon": -77.04198166666667, "is_disabled": 0, "lat": 38.92103266666667, "fusion_lat": 0.0, "is_reserved": 0, "rental_uris": {"android": "https://dc.lft.to/lastmile_qr_scan", "ios": "https://dc.lft.to/lastmile_qr_scan"}, "bike_id": "f4565c4023f1464430aca707796197ee"}, {"name": "a4c43d7f389153419181e1a1a4496f90", "type": "electric_scooter", "fusion_lon": 0.0, "lon": -77.044785, "is_disabled": 0, "lat": 38.9188005, "fusion_lat": 0.0, "is_reserved": 0, "rental_uris": {"android": "https://dc.lft.to/lastmile_qr_scan", "ios": "https://dc.lft.to/lastmile_qr_scan"}, "bike_id": "a4c43d7f389153419181e1a1a4496f90"}, {"name": "472c70a88ecd080f76b625e60d28f73a", "type": "electric_scooter", "fusion_lon": 0.0, "lon": -77.021695, "is_disabled": 0, "lat": 38.905733166666664, "fusion_lat": 0.0, "is_reserved": 0, "rental_uris": {"android": "https://dc.lft.to/lastmile_qr_scan", "ios": "https://dc.lft.to/lastmile_qr_scan"}, "bike_id": "472c70a88ecd080f76b625e60d28f73a"}, {"name": "f4e22d91544aa2483ce2c4aec93f1a83", "type": "electric_scooter", "fusion_lon": 0.0, "lon": -76.94640483333333, "is_disabled": 0, "lat": 38.898612, "fusion_lat": 0.0, "is_reserved": 0, "rental_uris": {"android": "https://dc.lft.to/lastmile_qr_scan", "ios": "https://dc.lft.to/lastmile_qr_scan"}, "bike_id": "f4e22d91544aa2483ce2c4aec93f1a83"}, {"name": "cfb417caa7facd2da41c0675be710630", "type": "electric_bike", "fusion_lon": 0.0, "lon": -77.12530066666666, "is_disabled": 0, "lat": 39.056354, "fusion_lat": 0.0, "is_reserved": 0, "rental_uris": {"android": "https://dc.lft.to/lastmile_qr_scan", "ios": "https://dc.lft.to/lastmile_qr_scan"}, "bike_id": "cfb417caa7facd2da41c0675be710630"}, {"name": "139a0e9de724b7672307fa2f9c1bb3dd", "type": "electric_scooter", "fusion_lon": 0.0, "lon": -77.028428, "is_disabled": 0, "lat": 38.898775, "fusion_lat": 0.0, "is_reserved": 0, "rental_uris": {"android": "https://dc.lft.to/lastmile_qr_scan", "ios": "https://dc.lft.to/lastmile_qr_scan"}, "bike_id": "139a0e9de724b7672307fa2f9c1bb3dd"}, {"name": "312616442e0a5c7c13558f529dd45d93", "type": "electric_scooter", "fusion_lon": 0.0, "lon": -77.0418, "is_disabled": 0, "lat": 38.9182445, "fusion_lat": 0.0, "is_reserved": 0, "rental_uris": {"android": "https://dc.lft.to/lastmile_qr_scan", "ios": "https://dc.lft.to/lastmile_qr_scan"}, "bike_id": "312616442e0a5c7c13558f529dd45d93"}, {"name": "d58fd28b1dda302480b5059273691efe", "type": "electric_scooter", "fusion_lon": 0.0, "lon": -77.0388205, "is_disabled": 0, "lat": 38.906469666666666, "fusion_lat": 0.0, "is_reserved": 0, "rental_uris": {"android": "https://dc.lft.to/lastmile_qr_scan", "ios": "https://dc.lft.to/lastmile_qr_scan"}, "bike_id": "d58fd28b1dda302480b5059273691efe"}, {"name": "04abae59b21c84f06e7bb63d017d3bbb", "type": "electric_scooter", "fusion_lon": 0.0, "lon": -77.04372683333334, "is_disabled": 0, "lat": 38.892222, "fusion_lat": 0.0, "is_reserved": 0, "rental_uris": {"android": "https://dc.lft.to/lastmile_qr_scan", "ios": "https://dc.lft.to/lastmile_qr_scan"}, "bike_id": "04abae59b21c84f06e7bb63d017d3bbb"}, {"name": "6300c0f9e68ecb79183ec4840829af0d", "type": "electric_scooter", "fusion_lon": 0.0, "lon": -77.052009, "is_disabled": 0, "lat": 38.924665833333336, "fusion_lat": 0.0, "is_reserved": 0, "rental_uris": {"android": "https://dc.lft.to/lastmile_qr_scan", "ios": "https://dc.lft.to/lastmile_qr_scan"}, "bike_id": "6300c0f9e68ecb79183ec4840829af0d"}, {"name": "95d797cd14ddc3a4cfbaa2dffed0a080", "type": "electric_scooter", "fusion_lon": 0.0, "lon": -77.01228166666667, "is_disabled": 0, "lat": 38.92605616666667, "fusion_lat": 0.0, "is_reserved": 0, "rental_uris": {"android": "https://dc.lft.to/lastmile_qr_scan", "ios": "https://dc.lft.to/lastmile_qr_scan"}, "bike_id": "95d797cd14ddc3a4cfbaa2dffed0a080"}, {"name": "06b80e679c6bf35e6b5787989b44ce59", "type": "electric_scooter", "fusion_lon": 0.0, "lon": -77.02703183333334, "is_disabled": 0, "lat": 38.881417, "fusion_lat": 0.0, "is_reserved": 0, "rental_uris": {"android": "https://dc.lft.to/lastmile_qr_scan", "ios": "https://dc.lft.to/lastmile_qr_scan"}, "bike_id": "06b80e679c6bf35e6b5787989b44ce59"}, {"name": "ea49529d744365dde33058298d56f0f9", "type": "electric_scooter", "fusion_lon": 0.0, "lon": -77.023105, "is_disabled": 0, "lat": 38.9179455, "fusion_lat": 0.0, "is_reserved": 0, "rental_uris": {"android": "https://dc.lft.to/lastmile_qr_scan", "ios": "https://dc.lft.to/lastmile_qr_scan"}, "bike_id": "ea49529d744365dde33058298d56f0f9"}, {"name": "58873cd7704461f67dd8b27561e280b7", "type": "electric_scooter", "fusion_lon": 0.0, "lon": -77.03838016666667, "is_disabled": 0, "lat": 38.9087285, "fusion_lat": 0.0, "is_reserved": 0, "rental_uris": {"android": "https://dc.lft.to/lastmile_qr_scan", "ios": "https://dc.lft.to/lastmile_qr_scan"}, "bike_id": "58873cd7704461f67dd8b27561e280b7"}, {"name": "717fb6451f11534216098fb20d7cbee4", "type": "electric_scooter", "fusion_lon": 0.0, "lon": -77.00710883333333, "is_disabled": 0, "lat": 38.8848755, "fusion_lat": 0.0, "is_reserved": 0, "rental_uris": {"android": "https://dc.lft.to/lastmile_qr_scan", "ios": "https://dc.lft.to/lastmile_qr_scan"}, "bike_id": "717fb6451f11534216098fb20d7cbee4"}, {"name": "a24ff915fdf6936d70547cb8f699e199", "type": "electric_scooter", "fusion_lon": 0.0, "lon": -77.033089, "is_disabled": 0, "lat": 38.9563295, "fusion_lat": 0.0, "is_reserved": 0, "rental_uris": {"android": "https://dc.lft.to/lastmile_qr_scan", "ios": "https://dc.lft.to/lastmile_qr_scan"}, "bike_id": "a24ff915fdf6936d70547cb8f699e199"}, {"name": "e6478d1c3037d5b9c78878573b26879f", "type": "electric_scooter", "fusion_lon": 0.0, "lon": -77.037652, "is_disabled": 0, "lat": 38.943478166666665, "fusion_lat": 0.0, "is_reserved": 0, "rental_uris": {"android": "https://dc.lft.to/lastmile_qr_scan", "ios": "https://dc.lft.to/lastmile_qr_scan"}, "bike_id": "e6478d1c3037d5b9c78878573b26879f"}, {"name": "784e696e13c228c47dd420991eeea0e7", "type": "electric_scooter", "fusion_lon": 0.0, "lon": -76.98278416666666, "is_disabled": 0, "lat": 38.86761766666667, "fusion_lat": 0.0, "is_reserved": 0, "rental_uris": {"android": "https://dc.lft.to/lastmile_qr_scan", "ios": "https://dc.lft.to/lastmile_qr_scan"}, "bike_id": "784e696e13c228c47dd420991eeea0e7"}, {"name": "9baa12cb9059b117be29d7be8b8972d7", "type": "electric_scooter", "fusion_lon": 0.0, "lon": -77.00326183333334, "is_disabled": 0, "lat": 38.8850075, "fusion_lat": 0.0, "is_reserved": 0, "rental_uris": {"android": "https://dc.lft.to/lastmile_qr_scan", "ios": "https://dc.lft.to/lastmile_qr_scan"}, "bike_id": "9baa12cb9059b117be29d7be8b8972d7"}, {"name": "0102d819a7d832b6fd631fa9cc22446d", "type": "electric_scooter", "fusion_lon": 0.0, "lon": -77.04336933333333, "is_disabled": 0, "lat": 38.90803066666667, "fusion_lat": 0.0, "is_reserved": 0, "rental_uris": {"android": "https://dc.lft.to/lastmile_qr_scan", "ios": "https://dc.lft.to/lastmile_qr_scan"}, "bike_id": "0102d819a7d832b6fd631fa9cc22446d"}, {"name": "88b08c66e181c55df262240a9a846a20", "type": "electric_scooter", "fusion_lon": 0.0, "lon": -77.02719283333333, "is_disabled": 0, "lat": 38.90677683333333, "fusion_lat": 0.0, "is_reserved": 0, "rental_uris": {"android": "https://dc.lft.to/lastmile_qr_scan", "ios": "https://dc.lft.to/lastmile_qr_scan"}, "bike_id": "88b08c66e181c55df262240a9a846a20"}, {"name": "1b139a07c36bcee57a2fd89f6d7f4b3e", "type": "electric_scooter", "fusion_lon": 0.0, "lon": -77.054753, "is_disabled": 0, "lat": 38.908660833333336, "fusion_lat": 0.0, "is_reserved": 0, "rental_uris": {"android": "https://dc.lft.to/lastmile_qr_scan", "ios": "https://dc.lft.to/lastmile_qr_scan"}, "bike_id": "1b139a07c36bcee57a2fd89f6d7f4b3e"}, {"name": "a0125bd07f088714c8cf490741c13ba1", "type": "electric_scooter", "fusion_lon": 0.0, "lon": -76.97973433333334, "is_disabled": 0, "lat": 38.89750633333333, "fusion_lat": 0.0, "is_reserved": 0, "rental_uris": {"android": "https://dc.lft.to/lastmile_qr_scan", "ios": "https://dc.lft.to/lastmile_qr_scan"}, "bike_id": "a0125bd07f088714c8cf490741c13ba1"}, {"name": "4e7eec9c8748eef9137cb931214e1ece", "type": "electric_scooter", "fusion_lon": 0.0, "lon": -77.02985033333333, "is_disabled": 0, "lat": 38.899363, "fusion_lat": 0.0, "is_reserved": 0, "rental_uris": {"android": "https://dc.lft.to/lastmile_qr_scan", "ios": "https://dc.lft.to/lastmile_qr_scan"}, "bike_id": "4e7eec9c8748eef9137cb931214e1ece"}, {"name": "bfa759246f8fe7e58c68aea5cb4967f2", "type": "electric_scooter", "fusion_lon": 0.0, "lon": -77.00420133333333, "is_disabled": 0, "lat": 38.877129333333336, "fusion_lat": 0.0, "is_reserved": 0, "rental_uris": {"android": "https://dc.lft.to/lastmile_qr_scan", "ios": "https://dc.lft.to/lastmile_qr_scan"}, "bike_id": "bfa759246f8fe7e58c68aea5cb4967f2"}, {"name": "c91b223fb3674a43d11c5b6d3b34bed1", "type": "electric_scooter", "fusion_lon": 0.0, "lon": -77.03627933333334, "is_disabled": 0, "lat": 38.936829333333336, "fusion_lat": 0.0, "is_reserved": 0, "rental_uris": {"android": "https://dc.lft.to/lastmile_qr_scan", "ios": "https://dc.lft.to/lastmile_qr_scan"}, "bike_id": "c91b223fb3674a43d11c5b6d3b34bed1"}, {"name": "3eed33dafc1a5cc6a275515fe8764a92", "type": "electric_scooter", "fusion_lon": 0.0, "lon": -77.00914183333333, "is_disabled": 0, "lat": 38.8964695, "fusion_lat": 0.0, "is_reserved": 0, "rental_uris": {"android": "https://dc.lft.to/lastmile_qr_scan", "ios": "https://dc.lft.to/lastmile_qr_scan"}, "bike_id": "3eed33dafc1a5cc6a275515fe8764a92"}, {"name": "b9a4d913624475070469df65acac7fe1", "type": "electric_scooter", "fusion_lon": 0.0, "lon": -77.05148933333334, "is_disabled": 0, "lat": 38.897694, "fusion_lat": 0.0, "is_reserved": 0, "rental_uris": {"android": "https://dc.lft.to/lastmile_qr_scan", "ios": "https://dc.lft.to/lastmile_qr_scan"}, "bike_id": "b9a4d913624475070469df65acac7fe1"}, {"name": "68f5538d93278f236fd30a65e5dbf1d3", "type": "electric_scooter", "fusion_lon": 0.0, "lon": -77.034293, "is_disabled": 0, "lat": 38.90963566666667, "fusion_lat": 0.0, "is_reserved": 0, "rental_uris": {"android": "https://dc.lft.to/lastmile_qr_scan", "ios": "https://dc.lft.to/lastmile_qr_scan"}, "bike_id": "68f5538d93278f236fd30a65e5dbf1d3"}, {"name": "54214a320f6fd1d0438dd790bb5e9326", "type": "electric_scooter", "fusion_lon": 0.0, "lon": -77.0917035, "is_disabled": 0, "lat": 38.93962666666667, "fusion_lat": 0.0, "is_reserved": 0, "rental_uris": {"android": "https://dc.lft.to/lastmile_qr_scan", "ios": "https://dc.lft.to/lastmile_qr_scan"}, "bike_id": "54214a320f6fd1d0438dd790bb5e9326"}, {"name": "8deeadb60379a1db21de43e9271c2fc7", "type": "electric_scooter", "fusion_lon": 0.0, "lon": -76.9857235, "is_disabled": 0, "lat": 38.866858666666666, "fusion_lat": 0.0, "is_reserved": 0, "rental_uris": {"android": "https://dc.lft.to/lastmile_qr_scan", "ios": "https://dc.lft.to/lastmile_qr_scan"}, "bike_id": "8deeadb60379a1db21de43e9271c2fc7"}, {"name": "340bee9f168c50b86bde65449dfc8c4e", "type": "electric_scooter", "fusion_lon": 0.0, "lon": -77.03284466666666, "is_disabled": 0, "lat": 38.940994333333336, "fusion_lat": 0.0, "is_reserved": 0, "rental_uris": {"android": "https://dc.lft.to/lastmile_qr_scan", "ios": "https://dc.lft.to/lastmile_qr_scan"}, "bike_id": "340bee9f168c50b86bde65449dfc8c4e"}, {"name": "4fa34d87e615f5d59576ea0b16b56c51", "type": "electric_scooter", "fusion_lon": 0.0, "lon": -77.0451415, "is_disabled": 0, "lat": 38.89220483333333, "fusion_lat": 0.0, "is_reserved": 0, "rental_uris": {"android": "https://dc.lft.to/lastmile_qr_scan", "ios": "https://dc.lft.to/lastmile_qr_scan"}, "bike_id": "4fa34d87e615f5d59576ea0b16b56c51"}, {"name": "784b0835f8b960d40d466300143a8c1d", "type": "electric_scooter", "fusion_lon": 0.0, "lon": -77.03555283333333, "is_disabled": 0, "lat": 38.901337, "fusion_lat": 0.0, "is_reserved": 0, "rental_uris": {"android": "https://dc.lft.to/lastmile_qr_scan", "ios": "https://dc.lft.to/lastmile_qr_scan"}, "bike_id": "784b0835f8b960d40d466300143a8c1d"}, {"name": "51ca22a3f33d5ad2b96224c453f6cca9", "type": "electric_scooter", "fusion_lon": 0.0, "lon": -77.02086916666667, "is_disabled": 0, "lat": 38.901969333333334, "fusion_lat": 0.0, "is_reserved": 0, "rental_uris": {"android": "https://dc.lft.to/lastmile_qr_scan", "ios": "https://dc.lft.to/lastmile_qr_scan"}, "bike_id": "51ca22a3f33d5ad2b96224c453f6cca9"}, {"name": "d591dcf59a8b52af75700d1e53b764da", "type": "electric_bike", "fusion_lon": 0.0, "lon": -77.1161805, "is_disabled": 0, "lat": 38.8549005, "fusion_lat": 0.0, "is_reserved": 0, "rental_uris": {"android": "https://dc.lft.to/lastmile_qr_scan", "ios": "https://dc.lft.to/lastmile_qr_scan"}, "bike_id": "d591dcf59a8b52af75700d1e53b764da"}, {"name": "0d16664fec6278ff2703014ea91ecf53", "type": "electric_bike", "fusion_lon": 0.0, "lon": -77.06953533333333, "is_disabled": 0, "lat": 38.91681616666666, "fusion_lat": 0.0, "is_reserved": 0, "rental_uris": {"android": "https://dc.lft.to/lastmile_qr_scan", "ios": "https://dc.lft.to/lastmile_qr_scan"}, "bike_id": "0d16664fec6278ff2703014ea91ecf53"}, {"name": "132908eaa4c4db56da4d2f67c4819bc0", "type": "electric_scooter", "fusion_lon": 0.0, "lon": -77.052334, "is_disabled": 0, "lat": 38.924682833333335, "fusion_lat": 0.0, "is_reserved": 0, "rental_uris": {"android": "https://dc.lft.to/lastmile_qr_scan", "ios": "https://dc.lft.to/lastmile_qr_scan"}, "bike_id": "132908eaa4c4db56da4d2f67c4819bc0"}, {"name": "922bccd3f34046f0657c527c45c4336e", "type": "electric_scooter", "fusion_lon": 0.0, "lon": -77.02291333333334, "is_disabled": 0, "lat": 38.899991166666666, "fusion_lat": 0.0, "is_reserved": 0, "rental_uris": {"android": "https://dc.lft.to/lastmile_qr_scan", "ios": "https://dc.lft.to/lastmile_qr_scan"}, "bike_id": "922bccd3f34046f0657c527c45c4336e"}, {"name": "3d5ed69dfa7b477f59189b7a8dbcf6b3", "type": "electric_scooter", "fusion_lon": 0.0, "lon": -77.02593333333333, "is_disabled": 0, "lat": 38.91414116666667, "fusion_lat": 0.0, "is_reserved": 0, "rental_uris": {"android": "https://dc.lft.to/lastmile_qr_scan", "ios": "https://dc.lft.to/lastmile_qr_scan"}, "bike_id": "3d5ed69dfa7b477f59189b7a8dbcf6b3"}, {"name": "dabd4677dd37c90bd65d0a07a37d3e6a", "type": "electric_scooter", "fusion_lon": 0.0, "lon": -77.03341733333333, "is_disabled": 0, "lat": 38.89722916666667, "fusion_lat": 0.0, "is_reserved": 0, "rental_uris": {"android": "https://dc.lft.to/lastmile_qr_scan", "ios": "https://dc.lft.to/lastmile_qr_scan"}, "bike_id": "dabd4677dd37c90bd65d0a07a37d3e6a"}, {"name": "45108805c7ab4e1dc36ea82714f28fee", "type": "electric_scooter", "fusion_lon": 0.0, "lon": -77.044852, "is_disabled": 0, "lat": 38.8994885, "fusion_lat": 0.0, "is_reserved": 0, "rental_uris": {"android": "https://dc.lft.to/lastmile_qr_scan", "ios": "https://dc.lft.to/lastmile_qr_scan"}, "bike_id": "45108805c7ab4e1dc36ea82714f28fee"}, {"name": "20db2f5c110c4759d75cc63c227ed1d1", "type": "electric_bike", "fusion_lon": 0.0, "lon": -77.21126483333333, "is_disabled": 0, "lat": 38.87493466666667, "fusion_lat": 0.0, "is_reserved": 0, "rental_uris": {"android": "https://dc.lft.to/lastmile_qr_scan", "ios": "https://dc.lft.to/lastmile_qr_scan"}, "bike_id": "20db2f5c110c4759d75cc63c227ed1d1"}, {"name": "04dd7a3f271a3c733ea4d3753411448e", "type": "electric_scooter", "fusion_lon": 0.0, "lon": -77.0228635, "is_disabled": 0, "lat": 38.917721, "fusion_lat": 0.0, "is_reserved": 0, "rental_uris": {"android": "https://dc.lft.to/lastmile_qr_scan", "ios": "https://dc.lft.to/lastmile_qr_scan"}, "bike_id": "04dd7a3f271a3c733ea4d3753411448e"}, {"name": "db2bfdd6b4ff1bb91a2f35685a361b33", "type": "electric_scooter", "fusion_lon": 0.0, "lon": -77.05434316666667, "is_disabled": 0, "lat": 38.9286255, "fusion_lat": 0.0, "is_reserved": 0, "rental_uris": {"android": "https://dc.lft.to/lastmile_qr_scan", "ios": "https://dc.lft.to/lastmile_qr_scan"}, "bike_id": "db2bfdd6b4ff1bb91a2f35685a361b33"}, {"name": "65984da497287b3559afbaffd73eefb9", "type": "electric_scooter", "fusion_lon": 0.0, "lon": -77.06120033333333, "is_disabled": 0, "lat": 38.901978666666665, "fusion_lat": 0.0, "is_reserved": 0, "rental_uris": {"android": "https://dc.lft.to/lastmile_qr_scan", "ios": "https://dc.lft.to/lastmile_qr_scan"}, "bike_id": "65984da497287b3559afbaffd73eefb9"}, {"name": "2c2ac32fe1cc044000d5a94ae247ec8a", "type": "electric_bike", "fusion_lon": 0.0, "lon": -76.9073325, "is_disabled": 0, "lat": 38.89614783333333, "fusion_lat": 0.0, "is_reserved": 0, "rental_uris": {"android": "https://dc.lft.to/lastmile_qr_scan", "ios": "https://dc.lft.to/lastmile_qr_scan"}, "bike_id": "2c2ac32fe1cc044000d5a94ae247ec8a"}, {"name": "1bcfba4e0fe419338b6822f2c2c485b3", "type": "electric_scooter", "fusion_lon": 0.0, "lon": -77.049886, "is_disabled": 0, "lat": 38.892274, "fusion_lat": 0.0, "is_reserved": 0, "rental_uris": {"android": "https://dc.lft.to/lastmile_qr_scan", "ios": "https://dc.lft.to/lastmile_qr_scan"}, "bike_id": "1bcfba4e0fe419338b6822f2c2c485b3"}, {"name": "3025819e70a02842a842c1be2840ebd0", "type": "electric_scooter", "fusion_lon": 0.0, "lon": -77.04667316666666, "is_disabled": 0, "lat": 38.899585, "fusion_lat": 0.0, "is_reserved": 0, "rental_uris": {"android": "https://dc.lft.to/lastmile_qr_scan", "ios": "https://dc.lft.to/lastmile_qr_scan"}, "bike_id": "3025819e70a02842a842c1be2840ebd0"}, {"name": "d543c89033cd2d40c58c3c2cfbf3b307", "type": "electric_scooter", "fusion_lon": 0.0, "lon": -77.00119166666667, "is_disabled": 0, "lat": 38.8737805, "fusion_lat": 0.0, "is_reserved": 0, "rental_uris": {"android": "https://dc.lft.to/lastmile_qr_scan", "ios": "https://dc.lft.to/lastmile_qr_scan"}, "bike_id": "d543c89033cd2d40c58c3c2cfbf3b307"}, {"name": "5a62160d20f963931044ab0a0a29a6fd", "type": "electric_scooter", "fusion_lon": 0.0, "lon": -77.0352345, "is_disabled": 0, "lat": 38.925421, "fusion_lat": 0.0, "is_reserved": 0, "rental_uris": {"android": "https://dc.lft.to/lastmile_qr_scan", "ios": "https://dc.lft.to/lastmile_qr_scan"}, "bike_id": "5a62160d20f963931044ab0a0a29a6fd"}, {"name": "7678264bf44dc29ce32b3b151be5f34b", "type": "electric_scooter", "fusion_lon": 0.0, "lon": -77.0765995, "is_disabled": 0, "lat": 38.94337616666667, "fusion_lat": 0.0, "is_reserved": 0, "rental_uris": {"android": "https://dc.lft.to/lastmile_qr_scan", "ios": "https://dc.lft.to/lastmile_qr_scan"}, "bike_id": "7678264bf44dc29ce32b3b151be5f34b"}, {"name": "4a5aedb370d8ddc419e6679c0a7fc3fd", "type": "electric_scooter", "fusion_lon": 0.0, "lon": -77.0423225, "is_disabled": 0, "lat": 38.92309983333333, "fusion_lat": 0.0, "is_reserved": 0, "rental_uris": {"android": "https://dc.lft.to/lastmile_qr_scan", "ios": "https://dc.lft.to/lastmile_qr_scan"}, "bike_id": "4a5aedb370d8ddc419e6679c0a7fc3fd"}, {"name": "7e625492c8d83ddb37899401ac606987", "type": "electric_scooter", "fusion_lon": 0.0, "lon": -77.01958116666667, "is_disabled": 0, "lat": 38.92423333333333, "fusion_lat": 0.0, "is_reserved": 0, "rental_uris": {"android": "https://dc.lft.to/lastmile_qr_scan", "ios": "https://dc.lft.to/lastmile_qr_scan"}, "bike_id": "7e625492c8d83ddb37899401ac606987"}, {"name": "0ad1df2e02a4aa5faebf593bd4403761", "type": "electric_scooter", "fusion_lon": 0.0, "lon": -77.02334, "is_disabled": 0, "lat": 38.91414983333333, "fusion_lat": 0.0, "is_reserved": 0, "rental_uris": {"android": "https://dc.lft.to/lastmile_qr_scan", "ios": "https://dc.lft.to/lastmile_qr_scan"}, "bike_id": "0ad1df2e02a4aa5faebf593bd4403761"}, {"name": "fa5db4d1d29166de393466d540259720", "type": "electric_scooter", "fusion_lon": 0.0, "lon": -77.0297475, "is_disabled": 0, "lat": 38.905104, "fusion_lat": 0.0, "is_reserved": 0, "rental_uris": {"android": "https://dc.lft.to/lastmile_qr_scan", "ios": "https://dc.lft.to/lastmile_qr_scan"}, "bike_id": "fa5db4d1d29166de393466d540259720"}, {"name": "a6f6cf1331268e281c313aa2d4d500cf", "type": "electric_scooter", "fusion_lon": 0.0, "lon": -77.04540366666667, "is_disabled": 0, "lat": 38.911963666666665, "fusion_lat": 0.0, "is_reserved": 0, "rental_uris": {"android": "https://dc.lft.to/lastmile_qr_scan", "ios": "https://dc.lft.to/lastmile_qr_scan"}, "bike_id": "a6f6cf1331268e281c313aa2d4d500cf"}, {"name": "1929b63c62369c267610f8f21d90967d", "type": "electric_scooter", "fusion_lon": 0.0, "lon": -76.97916783333334, "is_disabled": 0, "lat": 38.92455966666667, "fusion_lat": 0.0, "is_reserved": 0, "rental_uris": {"android": "https://dc.lft.to/lastmile_qr_scan", "ios": "https://dc.lft.to/lastmile_qr_scan"}, "bike_id": "1929b63c62369c267610f8f21d90967d"}, {"name": "682248ab4c46b92a00acce0aa1be26b2", "type": "electric_scooter", "fusion_lon": 0.0, "lon": -77.04052083333333, "is_disabled": 0, "lat": 38.92432616666667, "fusion_lat": 0.0, "is_reserved": 0, "rental_uris": {"android": "https://dc.lft.to/lastmile_qr_scan", "ios": "https://dc.lft.to/lastmile_qr_scan"}, "bike_id": "682248ab4c46b92a00acce0aa1be26b2"}, {"name": "1967bd0dcbb1e9a3c6f2174307cf0cc2", "type": "electric_scooter", "fusion_lon": 0.0, "lon": -76.9744385, "is_disabled": 0, "lat": 38.90248716666667, "fusion_lat": 0.0, "is_reserved": 0, "rental_uris": {"android": "https://dc.lft.to/lastmile_qr_scan", "ios": "https://dc.lft.to/lastmile_qr_scan"}, "bike_id": "1967bd0dcbb1e9a3c6f2174307cf0cc2"}, {"name": "aea2a415c75be6e87dd3281e58ea3cd3", "type": "electric_scooter", "fusion_lon": 0.0, "lon": -76.98567016666667, "is_disabled": 0, "lat": 38.8668435, "fusion_lat": 0.0, "is_reserved": 0, "rental_uris": {"android": "https://dc.lft.to/lastmile_qr_scan", "ios": "https://dc.lft.to/lastmile_qr_scan"}, "bike_id": "aea2a415c75be6e87dd3281e58ea3cd3"}, {"name": "a0e8e40b70acd7cd916274a37168dd0b", "type": "electric_scooter", "fusion_lon": 0.0, "lon": -77.02797366666667, "is_disabled": 0, "lat": 38.930628166666665, "fusion_lat": 0.0, "is_reserved": 0, "rental_uris": {"android": "https://dc.lft.to/lastmile_qr_scan", "ios": "https://dc.lft.to/lastmile_qr_scan"}, "bike_id": "a0e8e40b70acd7cd916274a37168dd0b"}, {"name": "9f7a347aaa044f291ff3afe127070b39", "type": "electric_scooter", "fusion_lon": 0.0, "lon": -77.034041, "is_disabled": 0, "lat": 38.92443633333333, "fusion_lat": 0.0, "is_reserved": 0, "rental_uris": {"android": "https://dc.lft.to/lastmile_qr_scan", "ios": "https://dc.lft.to/lastmile_qr_scan"}, "bike_id": "9f7a347aaa044f291ff3afe127070b39"}, {"name": "b42afcfa1c090fa0e4a7c50dc05ebe8f", "type": "electric_scooter", "fusion_lon": 0.0, "lon": -76.99476666666666, "is_disabled": 0, "lat": 38.877802833333334, "fusion_lat": 0.0, "is_reserved": 0, "rental_uris": {"android": "https://dc.lft.to/lastmile_qr_scan", "ios": "https://dc.lft.to/lastmile_qr_scan"}, "bike_id": "b42afcfa1c090fa0e4a7c50dc05ebe8f"}, {"name": "5c3d4e51a656c8bd1b6f98a2c6d57b16", "type": "electric_scooter", "fusion_lon": 0.0, "lon": -77.03661033333333, "is_disabled": 0, "lat": 38.916804666666664, "fusion_lat": 0.0, "is_reserved": 0, "rental_uris": {"android": "https://dc.lft.to/lastmile_qr_scan", "ios": "https://dc.lft.to/lastmile_qr_scan"}, "bike_id": "5c3d4e51a656c8bd1b6f98a2c6d57b16"}, {"name": "2d509e84f95031e30719b738c7ffa677", "type": "electric_scooter", "fusion_lon": 0.0, "lon": -77.01721666666667, "is_disabled": 0, "lat": 38.902515666666666, "fusion_lat": 0.0, "is_reserved": 0, "rental_uris": {"android": "https://dc.lft.to/lastmile_qr_scan", "ios": "https://dc.lft.to/lastmile_qr_scan"}, "bike_id": "2d509e84f95031e30719b738c7ffa677"}, {"name": "0a35b67d2c6677b7e084d16d637b07cf", "type": "electric_scooter", "fusion_lon": 0.0, "lon": -77.007151, "is_disabled": 0, "lat": 38.876573, "fusion_lat": 0.0, "is_reserved": 0, "rental_uris": {"android": "https://dc.lft.to/lastmile_qr_scan", "ios": "https://dc.lft.to/lastmile_qr_scan"}, "bike_id": "0a35b67d2c6677b7e084d16d637b07cf"}, {"name": "a65376287b2464ef51dbebeca167cd4d", "type": "electric_scooter", "fusion_lon": 0.0, "lon": -77.01427983333333, "is_disabled": 0, "lat": 38.90512983333333, "fusion_lat": 0.0, "is_reserved": 0, "rental_uris": {"android": "https://dc.lft.to/lastmile_qr_scan", "ios": "https://dc.lft.to/lastmile_qr_scan"}, "bike_id": "a65376287b2464ef51dbebeca167cd4d"}, {"name": "0a7bc614dc78834a07389b034852cd75", "type": "electric_scooter", "fusion_lon": 0.0, "lon": -77.02603233333333, "is_disabled": 0, "lat": 38.895683, "fusion_lat": 0.0, "is_reserved": 0, "rental_uris": {"android": "https://dc.lft.to/lastmile_qr_scan", "ios": "https://dc.lft.to/lastmile_qr_scan"}, "bike_id": "0a7bc614dc78834a07389b034852cd75"}, {"name": "6c623a864f812eedb6e2db1757c90257", "type": "electric_bike", "fusion_lon": 0.0, "lon": -76.9443885, "is_disabled": 0, "lat": 38.99218066666667, "fusion_lat": 0.0, "is_reserved": 0, "rental_uris": {"android": "https://dc.lft.to/lastmile_qr_scan", "ios": "https://dc.lft.to/lastmile_qr_scan"}, "bike_id": "6c623a864f812eedb6e2db1757c90257"}, {"name": "6e6f8778074fa05cc4aad1c1bfbf149b", "type": "electric_bike", "fusion_lon": 0.0, "lon": -77.12043883333334, "is_disabled": 0, "lat": 38.855200833333335, "fusion_lat": 0.0, "is_reserved": 0, "rental_uris": {"android": "https://dc.lft.to/lastmile_qr_scan", "ios": "https://dc.lft.to/lastmile_qr_scan"}, "bike_id": "6e6f8778074fa05cc4aad1c1bfbf149b"}, {"name": "55146ebb39af9dc408358efc13905d66", "type": "electric_scooter", "fusion_lon": 0.0, "lon": -77.045465, "is_disabled": 0, "lat": 38.919411, "fusion_lat": 0.0, "is_reserved": 0, "rental_uris": {"android": "https://dc.lft.to/lastmile_qr_scan", "ios": "https://dc.lft.to/lastmile_qr_scan"}, "bike_id": "55146ebb39af9dc408358efc13905d66"}, {"name": "e6ebe755363027bcf948c820c28b2b72", "type": "electric_scooter", "fusion_lon": 0.0, "lon": -76.999458, "is_disabled": 0, "lat": 38.940747333333334, "fusion_lat": 0.0, "is_reserved": 0, "rental_uris": {"android": "https://dc.lft.to/lastmile_qr_scan", "ios": "https://dc.lft.to/lastmile_qr_scan"}, "bike_id": "e6ebe755363027bcf948c820c28b2b72"}, {"name": "f3021a3aa3e1a6a334ea81c13304f96e", "type": "electric_scooter", "fusion_lon": 0.0, "lon": -77.03222683333334, "is_disabled": 0, "lat": 38.928695, "fusion_lat": 0.0, "is_reserved": 0, "rental_uris": {"android": "https://dc.lft.to/lastmile_qr_scan", "ios": "https://dc.lft.to/lastmile_qr_scan"}, "bike_id": "f3021a3aa3e1a6a334ea81c13304f96e"}, {"name": "b379ce916bc3bc524bdd9a19c490d61a", "type": "electric_scooter", "fusion_lon": 0.0, "lon": -77.04397733333333, "is_disabled": 0, "lat": 38.91355166666666, "fusion_lat": 0.0, "is_reserved": 0, "rental_uris": {"android": "https://dc.lft.to/lastmile_qr_scan", "ios": "https://dc.lft.to/lastmile_qr_scan"}, "bike_id": "b379ce916bc3bc524bdd9a19c490d61a"}, {"name": "ddf61cd3c0e54bb1aab78f9d238a87fa", "type": "electric_scooter", "fusion_lon": 0.0, "lon": -76.95698766666666, "is_disabled": 0, "lat": 38.89210666666666, "fusion_lat": 0.0, "is_reserved": 0, "rental_uris": {"android": "https://dc.lft.to/lastmile_qr_scan", "ios": "https://dc.lft.to/lastmile_qr_scan"}, "bike_id": "ddf61cd3c0e54bb1aab78f9d238a87fa"}, {"name": "71bc466d90390c732d6e5e5f5791d9b4", "type": "electric_scooter", "fusion_lon": 0.0, "lon": -77.03332166666667, "is_disabled": 0, "lat": 38.898132833333335, "fusion_lat": 0.0, "is_reserved": 0, "rental_uris": {"android": "https://dc.lft.to/lastmile_qr_scan", "ios": "https://dc.lft.to/lastmile_qr_scan"}, "bike_id": "71bc466d90390c732d6e5e5f5791d9b4"}, {"name": "fe208fac23f8c6fab31144483738fd80", "type": "electric_scooter", "fusion_lon": 0.0, "lon": -77.0401825, "is_disabled": 0, "lat": 38.90271216666667, "fusion_lat": 0.0, "is_reserved": 0, "rental_uris": {"android": "https://dc.lft.to/lastmile_qr_scan", "ios": "https://dc.lft.to/lastmile_qr_scan"}, "bike_id": "fe208fac23f8c6fab31144483738fd80"}, {"name": "39ec11f7353295adaea037d110df72a5", "type": "electric_scooter", "fusion_lon": 0.0, "lon": -77.01170433333333, "is_disabled": 0, "lat": 38.921382666666666, "fusion_lat": 0.0, "is_reserved": 0, "rental_uris": {"android": "https://dc.lft.to/lastmile_qr_scan", "ios": "https://dc.lft.to/lastmile_qr_scan"}, "bike_id": "39ec11f7353295adaea037d110df72a5"}, {"name": "1291d980322a2dabaae0d0c420e10d14", "type": "electric_bike", "fusion_lon": 0.0, "lon": -77.12019916666667, "is_disabled": 0, "lat": 38.85786016666667, "fusion_lat": 0.0, "is_reserved": 0, "rental_uris": {"android": "https://dc.lft.to/lastmile_qr_scan", "ios": "https://dc.lft.to/lastmile_qr_scan"}, "bike_id": "1291d980322a2dabaae0d0c420e10d14"}, {"name": "d6390f9ad0711660f3a2ed5a7e95d637", "type": "electric_scooter", "fusion_lon": 0.0, "lon": -77.04064733333334, "is_disabled": 0, "lat": 38.9314635, "fusion_lat": 0.0, "is_reserved": 0, "rental_uris": {"android": "https://dc.lft.to/lastmile_qr_scan", "ios": "https://dc.lft.to/lastmile_qr_scan"}, "bike_id": "d6390f9ad0711660f3a2ed5a7e95d637"}, {"name": "0e4e3182f77f0e527cbf59f55ac071df", "type": "electric_scooter", "fusion_lon": 0.0, "lon": -77.03840833333334, "is_disabled": 0, "lat": 38.9026695, "fusion_lat": 0.0, "is_reserved": 0, "rental_uris": {"android": "https://dc.lft.to/lastmile_qr_scan", "ios": "https://dc.lft.to/lastmile_qr_scan"}, "bike_id": "0e4e3182f77f0e527cbf59f55ac071df"}, {"name": "99a64b511f5d246328619e4835a1e98e", "type": "electric_scooter", "fusion_lon": 0.0, "lon": -77.02961866666666, "is_disabled": 0, "lat": 38.92267316666667, "fusion_lat": 0.0, "is_reserved": 0, "rental_uris": {"android": "https://dc.lft.to/lastmile_qr_scan", "ios": "https://dc.lft.to/lastmile_qr_scan"}, "bike_id": "99a64b511f5d246328619e4835a1e98e"}, {"name": "5729dcb21aea94f9240fd88b3d83d538", "type": "electric_scooter", "fusion_lon": 0.0, "lon": -77.021707, "is_disabled": 0, "lat": 38.942920666666666, "fusion_lat": 0.0, "is_reserved": 0, "rental_uris": {"android": "https://dc.lft.to/lastmile_qr_scan", "ios": "https://dc.lft.to/lastmile_qr_scan"}, "bike_id": "5729dcb21aea94f9240fd88b3d83d538"}, {"name": "b527f32edc8a640871e4847e05c813ce", "type": "electric_scooter", "fusion_lon": 0.0, "lon": -77.03193066666667, "is_disabled": 0, "lat": 38.930694333333335, "fusion_lat": 0.0, "is_reserved": 0, "rental_uris": {"android": "https://dc.lft.to/lastmile_qr_scan", "ios": "https://dc.lft.to/lastmile_qr_scan"}, "bike_id": "b527f32edc8a640871e4847e05c813ce"}, {"name": "b6129a71a1c9696a605400ad4baaae6c", "type": "electric_scooter", "fusion_lon": 0.0, "lon": -77.02239833333333, "is_disabled": 0, "lat": 38.9246725, "fusion_lat": 0.0, "is_reserved": 0, "rental_uris": {"android": "https://dc.lft.to/lastmile_qr_scan", "ios": "https://dc.lft.to/lastmile_qr_scan"}, "bike_id": "b6129a71a1c9696a605400ad4baaae6c"}, {"name": "b21eba9a7a09586e7f0e9701bc2f59e7", "type": "electric_scooter", "fusion_lon": 0.0, "lon": -77.04114733333333, "is_disabled": 0, "lat": 38.933589833333336, "fusion_lat": 0.0, "is_reserved": 0, "rental_uris": {"android": "https://dc.lft.to/lastmile_qr_scan", "ios": "https://dc.lft.to/lastmile_qr_scan"}, "bike_id": "b21eba9a7a09586e7f0e9701bc2f59e7"}, {"name": "48f267f80b8d8ca4901f25f132a750c5", "type": "electric_scooter", "fusion_lon": 0.0, "lon": -77.02639366666666, "is_disabled": 0, "lat": 38.892167, "fusion_lat": 0.0, "is_reserved": 0, "rental_uris": {"android": "https://dc.lft.to/lastmile_qr_scan", "ios": "https://dc.lft.to/lastmile_qr_scan"}, "bike_id": "48f267f80b8d8ca4901f25f132a750c5"}, {"name": "6a2e4cb980736e27cc85c443a3f55a51", "type": "electric_scooter", "fusion_lon": 0.0, "lon": -77.04517466666667, "is_disabled": 0, "lat": 38.8922055, "fusion_lat": 0.0, "is_reserved": 0, "rental_uris": {"android": "https://dc.lft.to/lastmile_qr_scan", "ios": "https://dc.lft.to/lastmile_qr_scan"}, "bike_id": "6a2e4cb980736e27cc85c443a3f55a51"}, {"name": "2a3f878ffa790bd82e55eb624b67c836", "type": "electric_scooter", "fusion_lon": 0.0, "lon": -77.04694783333333, "is_disabled": 0, "lat": 38.900932833333336, "fusion_lat": 0.0, "is_reserved": 0, "rental_uris": {"android": "https://dc.lft.to/lastmile_qr_scan", "ios": "https://dc.lft.to/lastmile_qr_scan"}, "bike_id": "2a3f878ffa790bd82e55eb624b67c836"}, {"name": "fa33932824d6958725197b0f6676f597", "type": "electric_scooter", "fusion_lon": 0.0, "lon": -76.983372, "is_disabled": 0, "lat": 38.86563966666667, "fusion_lat": 0.0, "is_reserved": 0, "rental_uris": {"android": "https://dc.lft.to/lastmile_qr_scan", "ios": "https://dc.lft.to/lastmile_qr_scan"}, "bike_id": "fa33932824d6958725197b0f6676f597"}, {"name": "92bed76ccbc6fad477d0d4dd5f52de6d", "type": "electric_scooter", "fusion_lon": 0.0, "lon": -77.0234725, "is_disabled": 0, "lat": 38.93178866666667, "fusion_lat": 0.0, "is_reserved": 0, "rental_uris": {"android": "https://dc.lft.to/lastmile_qr_scan", "ios": "https://dc.lft.to/lastmile_qr_scan"}, "bike_id": "92bed76ccbc6fad477d0d4dd5f52de6d"}, {"name": "61bc34aa816ce12c957e36e4a398e333", "type": "electric_scooter", "fusion_lon": 0.0, "lon": -77.003314, "is_disabled": 0, "lat": 38.897335166666664, "fusion_lat": 0.0, "is_reserved": 0, "rental_uris": {"android": "https://dc.lft.to/lastmile_qr_scan", "ios": "https://dc.lft.to/lastmile_qr_scan"}, "bike_id": "61bc34aa816ce12c957e36e4a398e333"}, {"name": "c02630c50f3c63f094f31c4134118b04", "type": "electric_scooter", "fusion_lon": 0.0, "lon": -77.02934433333333, "is_disabled": 0, "lat": 38.920807333333336, "fusion_lat": 0.0, "is_reserved": 0, "rental_uris": {"android": "https://dc.lft.to/lastmile_qr_scan", "ios": "https://dc.lft.to/lastmile_qr_scan"}, "bike_id": "c02630c50f3c63f094f31c4134118b04"}, {"name": "bba33bbd25f4c8d6bdcaa9c2af33491f", "type": "electric_scooter", "fusion_lon": 0.0, "lon": -77.02132283333333, "is_disabled": 0, "lat": 38.92417616666667, "fusion_lat": 0.0, "is_reserved": 0, "rental_uris": {"android": "https://dc.lft.to/lastmile_qr_scan", "ios": "https://dc.lft.to/lastmile_qr_scan"}, "bike_id": "bba33bbd25f4c8d6bdcaa9c2af33491f"}, {"name": "342bdc0a61712eb6c0d61bcfd3d1caa6", "type": "electric_scooter", "fusion_lon": 0.0, "lon": -77.02698066666666, "is_disabled": 0, "lat": 38.906632333333334, "fusion_lat": 0.0, "is_reserved": 0, "rental_uris": {"android": "https://dc.lft.to/lastmile_qr_scan", "ios": "https://dc.lft.to/lastmile_qr_scan"}, "bike_id": "342bdc0a61712eb6c0d61bcfd3d1caa6"}, {"name": "939c7f2a9fb8f65dece1d0961fd1ef55", "type": "electric_scooter", "fusion_lon": 0.0, "lon": -77.0141565, "is_disabled": 0, "lat": 38.89225316666667, "fusion_lat": 0.0, "is_reserved": 0, "rental_uris": {"android": "https://dc.lft.to/lastmile_qr_scan", "ios": "https://dc.lft.to/lastmile_qr_scan"}, "bike_id": "939c7f2a9fb8f65dece1d0961fd1ef55"}, {"name": "3717f50573027ad7811bc54dfd5815c9", "type": "electric_scooter", "fusion_lon": 0.0, "lon": -77.063994, "is_disabled": 0, "lat": 38.944185, "fusion_lat": 0.0, "is_reserved": 0, "rental_uris": {"android": "https://dc.lft.to/lastmile_qr_scan", "ios": "https://dc.lft.to/lastmile_qr_scan"}, "bike_id": "3717f50573027ad7811bc54dfd5815c9"}, {"name": "3e7a3925c75214f286f8088071a8b915", "type": "electric_scooter", "fusion_lon": 0.0, "lon": -77.04235266666667, "is_disabled": 0, "lat": 38.92063733333333, "fusion_lat": 0.0, "is_reserved": 0, "rental_uris": {"android": "https://dc.lft.to/lastmile_qr_scan", "ios": "https://dc.lft.to/lastmile_qr_scan"}, "bike_id": "3e7a3925c75214f286f8088071a8b915"}, {"name": "f18ab373bbe10b3e2cef25263d301910", "type": "electric_scooter", "fusion_lon": 0.0, "lon": -77.02897283333333, "is_disabled": 0, "lat": 38.901477, "fusion_lat": 0.0, "is_reserved": 0, "rental_uris": {"android": "https://dc.lft.to/lastmile_qr_scan", "ios": "https://dc.lft.to/lastmile_qr_scan"}, "bike_id": "f18ab373bbe10b3e2cef25263d301910"}, {"name": "e1ab1671f4d6b04d0b9b41661fe1e174", "type": "electric_scooter", "fusion_lon": 0.0, "lon": -77.00617566666666, "is_disabled": 0, "lat": 38.9052235, "fusion_lat": 0.0, "is_reserved": 0, "rental_uris": {"android": "https://dc.lft.to/lastmile_qr_scan", "ios": "https://dc.lft.to/lastmile_qr_scan"}, "bike_id": "e1ab1671f4d6b04d0b9b41661fe1e174"}, {"name": "c30796db00970367e0ed4982942e1913", "type": "electric_scooter", "fusion_lon": 0.0, "lon": -77.04866133333333, "is_disabled": 0, "lat": 38.91332533333333, "fusion_lat": 0.0, "is_reserved": 0, "rental_uris": {"android": "https://dc.lft.to/lastmile_qr_scan", "ios": "https://dc.lft.to/lastmile_qr_scan"}, "bike_id": "c30796db00970367e0ed4982942e1913"}, {"name": "da7c7ef2406cbe5a453b20ec96c5058c", "type": "electric_scooter", "fusion_lon": 0.0, "lon": -77.0723365, "is_disabled": 0, "lat": 38.93196966666667, "fusion_lat": 0.0, "is_reserved": 0, "rental_uris": {"android": "https://dc.lft.to/lastmile_qr_scan", "ios": "https://dc.lft.to/lastmile_qr_scan"}, "bike_id": "da7c7ef2406cbe5a453b20ec96c5058c"}, {"name": "0e554219f2014b02da51cdc0726e472d", "type": "electric_scooter", "fusion_lon": 0.0, "lon": -77.03283716666667, "is_disabled": 0, "lat": 38.91269116666667, "fusion_lat": 0.0, "is_reserved": 0, "rental_uris": {"android": "https://dc.lft.to/lastmile_qr_scan", "ios": "https://dc.lft.to/lastmile_qr_scan"}, "bike_id": "0e554219f2014b02da51cdc0726e472d"}, {"name": "0a7926e2844c439c6640f0eed61feb85", "type": "electric_scooter", "fusion_lon": 0.0, "lon": -77.076571, "is_disabled": 0, "lat": 38.9352685, "fusion_lat": 0.0, "is_reserved": 0, "rental_uris": {"android": "https://dc.lft.to/lastmile_qr_scan", "ios": "https://dc.lft.to/lastmile_qr_scan"}, "bike_id": "0a7926e2844c439c6640f0eed61feb85"}, {"name": "c006a382f9b91e071286a1b517a3fc17", "type": "electric_scooter", "fusion_lon": 0.0, "lon": -76.9347895, "is_disabled": 0, "lat": 38.89504566666667, "fusion_lat": 0.0, "is_reserved": 0, "rental_uris": {"android": "https://dc.lft.to/lastmile_qr_scan", "ios": "https://dc.lft.to/lastmile_qr_scan"}, "bike_id": "c006a382f9b91e071286a1b517a3fc17"}, {"name": "37e3133fe79dc226838c663376f5a38f", "type": "electric_scooter", "fusion_lon": 0.0, "lon": -77.019024, "is_disabled": 0, "lat": 38.913939, "fusion_lat": 0.0, "is_reserved": 0, "rental_uris": {"android": "https://dc.lft.to/lastmile_qr_scan", "ios": "https://dc.lft.to/lastmile_qr_scan"}, "bike_id": "37e3133fe79dc226838c663376f5a38f"}, {"name": "8e18414c16ca67866e96a0f22a1bed2f", "type": "electric_scooter", "fusion_lon": 0.0, "lon": -76.9464765, "is_disabled": 0, "lat": 38.89871566666667, "fusion_lat": 0.0, "is_reserved": 0, "rental_uris": {"android": "https://dc.lft.to/lastmile_qr_scan", "ios": "https://dc.lft.to/lastmile_qr_scan"}, "bike_id": "8e18414c16ca67866e96a0f22a1bed2f"}, {"name": "f50376c6d9d57b81a2aee972fed180e2", "type": "electric_scooter", "fusion_lon": 0.0, "lon": -77.0382705, "is_disabled": 0, "lat": 38.9026765, "fusion_lat": 0.0, "is_reserved": 0, "rental_uris": {"android": "https://dc.lft.to/lastmile_qr_scan", "ios": "https://dc.lft.to/lastmile_qr_scan"}, "bike_id": "f50376c6d9d57b81a2aee972fed180e2"}, {"name": "36a15d53f882b713f23bd10a74882e13", "type": "electric_scooter", "fusion_lon": 0.0, "lon": -77.03180866666666, "is_disabled": 0, "lat": 38.91632533333333, "fusion_lat": 0.0, "is_reserved": 0, "rental_uris": {"android": "https://dc.lft.to/lastmile_qr_scan", "ios": "https://dc.lft.to/lastmile_qr_scan"}, "bike_id": "36a15d53f882b713f23bd10a74882e13"}, {"name": "03efde9144ce23b5deb390cb6a902511", "type": "electric_bike", "fusion_lon": 0.0, "lon": -77.00586683333333, "is_disabled": 0, "lat": 38.871903333333336, "fusion_lat": 0.0, "is_reserved": 0, "rental_uris": {"android": "https://dc.lft.to/lastmile_qr_scan", "ios": "https://dc.lft.to/lastmile_qr_scan"}, "bike_id": "03efde9144ce23b5deb390cb6a902511"}, {"name": "ce60258d4cc85de69c2d7ad139c4d826", "type": "electric_scooter", "fusion_lon": 0.0, "lon": -77.037072, "is_disabled": 0, "lat": 38.9277515, "fusion_lat": 0.0, "is_reserved": 0, "rental_uris": {"android": "https://dc.lft.to/lastmile_qr_scan", "ios": "https://dc.lft.to/lastmile_qr_scan"}, "bike_id": "ce60258d4cc85de69c2d7ad139c4d826"}, {"name": "0330064997d7eafafea6de5e73628579", "type": "electric_scooter", "fusion_lon": 0.0, "lon": -77.030129, "is_disabled": 0, "lat": 38.93113, "fusion_lat": 0.0, "is_reserved": 0, "rental_uris": {"android": "https://dc.lft.to/lastmile_qr_scan", "ios": "https://dc.lft.to/lastmile_qr_scan"}, "bike_id": "0330064997d7eafafea6de5e73628579"}, {"name": "45fea6d99536727c2d0c445d8c513cc1", "type": "electric_scooter", "fusion_lon": 0.0, "lon": -77.03804083333333, "is_disabled": 0, "lat": 38.92077, "fusion_lat": 0.0, "is_reserved": 0, "rental_uris": {"android": "https://dc.lft.to/lastmile_qr_scan", "ios": "https://dc.lft.to/lastmile_qr_scan"}, "bike_id": "45fea6d99536727c2d0c445d8c513cc1"}, {"name": "799d982646ac51183c810eb468bb91a6", "type": "electric_scooter", "fusion_lon": 0.0, "lon": -77.03329883333333, "is_disabled": 0, "lat": 38.91400983333333, "fusion_lat": 0.0, "is_reserved": 0, "rental_uris": {"android": "https://dc.lft.to/lastmile_qr_scan", "ios": "https://dc.lft.to/lastmile_qr_scan"}, "bike_id": "799d982646ac51183c810eb468bb91a6"}, {"name": "bce9c97f26f71a394364c1217515612b", "type": "electric_scooter", "fusion_lon": 0.0, "lon": -77.03220783333333, "is_disabled": 0, "lat": 38.90872666666667, "fusion_lat": 0.0, "is_reserved": 0, "rental_uris": {"android": "https://dc.lft.to/lastmile_qr_scan", "ios": "https://dc.lft.to/lastmile_qr_scan"}, "bike_id": "bce9c97f26f71a394364c1217515612b"}, {"name": "76281a70550ff882c9da9d2695ed90a9", "type": "electric_scooter", "fusion_lon": 0.0, "lon": -76.95247183333333, "is_disabled": 0, "lat": 38.890428666666665, "fusion_lat": 0.0, "is_reserved": 0, "rental_uris": {"android": "https://dc.lft.to/lastmile_qr_scan", "ios": "https://dc.lft.to/lastmile_qr_scan"}, "bike_id": "76281a70550ff882c9da9d2695ed90a9"}, {"name": "ffbafc2319a2939fef2876ff66d6846c", "type": "electric_scooter", "fusion_lon": 0.0, "lon": -76.9265705, "is_disabled": 0, "lat": 38.901725666666664, "fusion_lat": 0.0, "is_reserved": 0, "rental_uris": {"android": "https://dc.lft.to/lastmile_qr_scan", "ios": "https://dc.lft.to/lastmile_qr_scan"}, "bike_id": "ffbafc2319a2939fef2876ff66d6846c"}, {"name": "d63bd6f134f6716ebe96b2eb8f8cfe6a", "type": "electric_scooter", "fusion_lon": 0.0, "lon": -76.981384, "is_disabled": 0, "lat": 38.89990516666667, "fusion_lat": 0.0, "is_reserved": 0, "rental_uris": {"android": "https://dc.lft.to/lastmile_qr_scan", "ios": "https://dc.lft.to/lastmile_qr_scan"}, "bike_id": "d63bd6f134f6716ebe96b2eb8f8cfe6a"}, {"name": "bbaa0c4bd3e499fe50d6ca7b4aba637e", "type": "electric_scooter", "fusion_lon": 0.0, "lon": -77.02402916666666, "is_disabled": 0, "lat": 38.91965233333333, "fusion_lat": 0.0, "is_reserved": 0, "rental_uris": {"android": "https://dc.lft.to/lastmile_qr_scan", "ios": "https://dc.lft.to/lastmile_qr_scan"}, "bike_id": "bbaa0c4bd3e499fe50d6ca7b4aba637e"}, {"name": "f421378e8b1dfac1b53808d76f1922f4", "type": "electric_scooter", "fusion_lon": 0.0, "lon": -77.01359333333333, "is_disabled": 0, "lat": 38.89786433333333, "fusion_lat": 0.0, "is_reserved": 0, "rental_uris": {"android": "https://dc.lft.to/lastmile_qr_scan", "ios": "https://dc.lft.to/lastmile_qr_scan"}, "bike_id": "f421378e8b1dfac1b53808d76f1922f4"}, {"name": "f233a703f22df041fcabed2e49eb6478", "type": "electric_scooter", "fusion_lon": 0.0, "lon": -77.0283865, "is_disabled": 0, "lat": 38.899436333333334, "fusion_lat": 0.0, "is_reserved": 0, "rental_uris": {"android": "https://dc.lft.to/lastmile_qr_scan", "ios": "https://dc.lft.to/lastmile_qr_scan"}, "bike_id": "f233a703f22df041fcabed2e49eb6478"}, {"name": "e8a1bde929cb295f51adcbbcc4e9d022", "type": "electric_scooter", "fusion_lon": 0.0, "lon": -77.02652833333333, "is_disabled": 0, "lat": 38.90414716666667, "fusion_lat": 0.0, "is_reserved": 0, "rental_uris": {"android": "https://dc.lft.to/lastmile_qr_scan", "ios": "https://dc.lft.to/lastmile_qr_scan"}, "bike_id": "e8a1bde929cb295f51adcbbcc4e9d022"}, {"name": "e179636758ce00fb9e1b8250c4674cc1", "type": "electric_scooter", "fusion_lon": 0.0, "lon": -77.04257233333334, "is_disabled": 0, "lat": 38.91039083333333, "fusion_lat": 0.0, "is_reserved": 0, "rental_uris": {"android": "https://dc.lft.to/lastmile_qr_scan", "ios": "https://dc.lft.to/lastmile_qr_scan"}, "bike_id": "e179636758ce00fb9e1b8250c4674cc1"}, {"name": "ee544638b772de7ddf6284c9e680b3fc", "type": "electric_scooter", "fusion_lon": 0.0, "lon": -77.0325945, "is_disabled": 0, "lat": 38.93137483333334, "fusion_lat": 0.0, "is_reserved": 0, "rental_uris": {"android": "https://dc.lft.to/lastmile_qr_scan", "ios": "https://dc.lft.to/lastmile_qr_scan"}, "bike_id": "ee544638b772de7ddf6284c9e680b3fc"}, {"name": "f51176b0a63dfae0e08171394eb87ff0", "type": "electric_scooter", "fusion_lon": 0.0, "lon": -77.01030566666667, "is_disabled": 0, "lat": 38.9203025, "fusion_lat": 0.0, "is_reserved": 0, "rental_uris": {"android": "https://dc.lft.to/lastmile_qr_scan", "ios": "https://dc.lft.to/lastmile_qr_scan"}, "bike_id": "f51176b0a63dfae0e08171394eb87ff0"}, {"name": "bd371a0c44eb3b0dd131954a20ee19d3", "type": "electric_scooter", "fusion_lon": 0.0, "lon": -77.03297616666667, "is_disabled": 0, "lat": 38.899029, "fusion_lat": 0.0, "is_reserved": 0, "rental_uris": {"android": "https://dc.lft.to/lastmile_qr_scan", "ios": "https://dc.lft.to/lastmile_qr_scan"}, "bike_id": "bd371a0c44eb3b0dd131954a20ee19d3"}, {"name": "9d84debf4ecf7e598e0b6e7a7bf9a59e", "type": "electric_scooter", "fusion_lon": 0.0, "lon": -76.9888505, "is_disabled": 0, "lat": 38.86658766666667, "fusion_lat": 0.0, "is_reserved": 0, "rental_uris": {"android": "https://dc.lft.to/lastmile_qr_scan", "ios": "https://dc.lft.to/lastmile_qr_scan"}, "bike_id": "9d84debf4ecf7e598e0b6e7a7bf9a59e"}, {"name": "332b51d1474735f63ac3cd473d234d9a", "type": "electric_scooter", "fusion_lon": 0.0, "lon": -77.025266, "is_disabled": 0, "lat": 38.93751016666667, "fusion_lat": 0.0, "is_reserved": 0, "rental_uris": {"android": "https://dc.lft.to/lastmile_qr_scan", "ios": "https://dc.lft.to/lastmile_qr_scan"}, "bike_id": "332b51d1474735f63ac3cd473d234d9a"}, {"name": "ff1c6c254511c979ad15112c0590fd1d", "type": "electric_scooter", "fusion_lon": 0.0, "lon": -77.0271505, "is_disabled": 0, "lat": 38.907915333333335, "fusion_lat": 0.0, "is_reserved": 0, "rental_uris": {"android": "https://dc.lft.to/lastmile_qr_scan", "ios": "https://dc.lft.to/lastmile_qr_scan"}, "bike_id": "ff1c6c254511c979ad15112c0590fd1d"}, {"name": "4d5dff9734556ec8aa291ca98d2ddc4e", "type": "electric_scooter", "fusion_lon": 0.0, "lon": -77.03636183333333, "is_disabled": 0, "lat": 38.90981266666667, "fusion_lat": 0.0, "is_reserved": 0, "rental_uris": {"android": "https://dc.lft.to/lastmile_qr_scan", "ios": "https://dc.lft.to/lastmile_qr_scan"}, "bike_id": "4d5dff9734556ec8aa291ca98d2ddc4e"}, {"name": "6ec6973fa7480c97506ce31a14dee0bc", "type": "electric_scooter", "fusion_lon": 0.0, "lon": -77.02655483333334, "is_disabled": 0, "lat": 38.916983, "fusion_lat": 0.0, "is_reserved": 0, "rental_uris": {"android": "https://dc.lft.to/lastmile_qr_scan", "ios": "https://dc.lft.to/lastmile_qr_scan"}, "bike_id": "6ec6973fa7480c97506ce31a14dee0bc"}, {"name": "8f35116af8247a6b134e8be76b0e2c90", "type": "electric_scooter", "fusion_lon": 0.0, "lon": -76.96681033333333, "is_disabled": 0, "lat": 38.8560295, "fusion_lat": 0.0, "is_reserved": 0, "rental_uris": {"android": "https://dc.lft.to/lastmile_qr_scan", "ios": "https://dc.lft.to/lastmile_qr_scan"}, "bike_id": "8f35116af8247a6b134e8be76b0e2c90"}, {"name": "3b81442452ab42d017ebf71406993fa6", "type": "electric_bike", "fusion_lon": 0.0, "lon": -76.98349583333334, "is_disabled": 0, "lat": 38.93525016666667, "fusion_lat": 0.0, "is_reserved": 0, "rental_uris": {"android": "https://dc.lft.to/lastmile_qr_scan", "ios": "https://dc.lft.to/lastmile_qr_scan"}, "bike_id": "3b81442452ab42d017ebf71406993fa6"}, {"name": "3a55f39bbc74608e6d0b3e1f4d831a35", "type": "electric_scooter", "fusion_lon": 0.0, "lon": -77.01193666666667, "is_disabled": 0, "lat": 38.896898, "fusion_lat": 0.0, "is_reserved": 0, "rental_uris": {"android": "https://dc.lft.to/lastmile_qr_scan", "ios": "https://dc.lft.to/lastmile_qr_scan"}, "bike_id": "3a55f39bbc74608e6d0b3e1f4d831a35"}, {"name": "e2f2a17fbe89f08d3138977161778e75", "type": "electric_scooter", "fusion_lon": 0.0, "lon": -77.02638716666667, "is_disabled": 0, "lat": 38.90026666666667, "fusion_lat": 0.0, "is_reserved": 0, "rental_uris": {"android": "https://dc.lft.to/lastmile_qr_scan", "ios": "https://dc.lft.to/lastmile_qr_scan"}, "bike_id": "e2f2a17fbe89f08d3138977161778e75"}, {"name": "84f5524e9332a45b49bdd5b439349621", "type": "electric_scooter", "fusion_lon": 0.0, "lon": -77.022926, "is_disabled": 0, "lat": 38.8970775, "fusion_lat": 0.0, "is_reserved": 0, "rental_uris": {"android": "https://dc.lft.to/lastmile_qr_scan", "ios": "https://dc.lft.to/lastmile_qr_scan"}, "bike_id": "84f5524e9332a45b49bdd5b439349621"}, {"name": "b240856643f755e963ab3e7dd94c5c0e", "type": "electric_scooter", "fusion_lon": 0.0, "lon": -77.0034575, "is_disabled": 0, "lat": 38.89464983333333, "fusion_lat": 0.0, "is_reserved": 0, "rental_uris": {"android": "https://dc.lft.to/lastmile_qr_scan", "ios": "https://dc.lft.to/lastmile_qr_scan"}, "bike_id": "b240856643f755e963ab3e7dd94c5c0e"}, {"name": "361eb057c16f96f98f029a76020196c0", "type": "electric_bike", "fusion_lon": 0.0, "lon": -76.97855, "is_disabled": 0, "lat": 38.844792, "fusion_lat": 0.0, "is_reserved": 0, "rental_uris": {"android": "https://dc.lft.to/lastmile_qr_scan", "ios": "https://dc.lft.to/lastmile_qr_scan"}, "bike_id": "361eb057c16f96f98f029a76020196c0"}, {"name": "ac2cfdb6cc6d7b7ad62f1c6938fcdfa2", "type": "electric_scooter", "fusion_lon": 0.0, "lon": -77.00177316666667, "is_disabled": 0, "lat": 38.875016333333335, "fusion_lat": 0.0, "is_reserved": 0, "rental_uris": {"android": "https://dc.lft.to/lastmile_qr_scan", "ios": "https://dc.lft.to/lastmile_qr_scan"}, "bike_id": "ac2cfdb6cc6d7b7ad62f1c6938fcdfa2"}, {"name": "0700c60e096435ad80fc9142f2733168", "type": "electric_scooter", "fusion_lon": 0.0, "lon": -77.03210433333334, "is_disabled": 0, "lat": 38.9071125, "fusion_lat": 0.0, "is_reserved": 0, "rental_uris": {"android": "https://dc.lft.to/lastmile_qr_scan", "ios": "https://dc.lft.to/lastmile_qr_scan"}, "bike_id": "0700c60e096435ad80fc9142f2733168"}, {"name": "aab5cd16c965506c237b911970b98f0b", "type": "electric_scooter", "fusion_lon": 0.0, "lon": -77.03187166666666, "is_disabled": 0, "lat": 38.89851983333333, "fusion_lat": 0.0, "is_reserved": 0, "rental_uris": {"android": "https://dc.lft.to/lastmile_qr_scan", "ios": "https://dc.lft.to/lastmile_qr_scan"}, "bike_id": "aab5cd16c965506c237b911970b98f0b"}, {"name": "54ed1c5544b32cf0d6e16cbad7770c3f", "type": "electric_scooter", "fusion_lon": 0.0, "lon": -77.02470816666667, "is_disabled": 0, "lat": 38.917837, "fusion_lat": 0.0, "is_reserved": 0, "rental_uris": {"android": "https://dc.lft.to/lastmile_qr_scan", "ios": "https://dc.lft.to/lastmile_qr_scan"}, "bike_id": "54ed1c5544b32cf0d6e16cbad7770c3f"}, {"name": "38d08d5bffbf719acf3bce3f110b1667", "type": "electric_scooter", "fusion_lon": 0.0, "lon": -77.0114905, "is_disabled": 0, "lat": 38.9000985, "fusion_lat": 0.0, "is_reserved": 0, "rental_uris": {"android": "https://dc.lft.to/lastmile_qr_scan", "ios": "https://dc.lft.to/lastmile_qr_scan"}, "bike_id": "38d08d5bffbf719acf3bce3f110b1667"}, {"name": "efbfbd5b7556dcb238cbec9d0a5009be", "type": "electric_bike", "fusion_lon": 0.0, "lon": -77.13302133333333, "is_disabled": 0, "lat": 38.8871605, "fusion_lat": 0.0, "is_reserved": 0, "rental_uris": {"android": "https://dc.lft.to/lastmile_qr_scan", "ios": "https://dc.lft.to/lastmile_qr_scan"}, "bike_id": "efbfbd5b7556dcb238cbec9d0a5009be"}, {"name": "b642fdb404b6e368cde35d6784ee01f4", "type": "electric_scooter", "fusion_lon": 0.0, "lon": -77.00046483333334, "is_disabled": 0, "lat": 38.90835116666667, "fusion_lat": 0.0, "is_reserved": 0, "rental_uris": {"android": "https://dc.lft.to/lastmile_qr_scan", "ios": "https://dc.lft.to/lastmile_qr_scan"}, "bike_id": "b642fdb404b6e368cde35d6784ee01f4"}, {"name": "8b75adc469c8e75ab3e9062cd803e4e6", "type": "electric_scooter", "fusion_lon": 0.0, "lon": -77.0683135, "is_disabled": 0, "lat": 38.918086, "fusion_lat": 0.0, "is_reserved": 0, "rental_uris": {"android": "https://dc.lft.to/lastmile_qr_scan", "ios": "https://dc.lft.to/lastmile_qr_scan"}, "bike_id": "8b75adc469c8e75ab3e9062cd803e4e6"}, {"name": "c0d757430ea7aba38b463fbb608d55f4", "type": "electric_scooter", "fusion_lon": 0.0, "lon": -76.94154516666667, "is_disabled": 0, "lat": 38.88366666666667, "fusion_lat": 0.0, "is_reserved": 0, "rental_uris": {"android": "https://dc.lft.to/lastmile_qr_scan", "ios": "https://dc.lft.to/lastmile_qr_scan"}, "bike_id": "c0d757430ea7aba38b463fbb608d55f4"}, {"name": "f71c1d4a2443d2cbcf7bb0a13f40c1ff", "type": "electric_scooter", "fusion_lon": 0.0, "lon": -77.02485333333334, "is_disabled": 0, "lat": 38.94183666666667, "fusion_lat": 0.0, "is_reserved": 0, "rental_uris": {"android": "https://dc.lft.to/lastmile_qr_scan", "ios": "https://dc.lft.to/lastmile_qr_scan"}, "bike_id": "f71c1d4a2443d2cbcf7bb0a13f40c1ff"}, {"name": "aa96e2b34f9378a8f43483fc59e4e27c", "type": "electric_scooter", "fusion_lon": 0.0, "lon": -77.03357116666666, "is_disabled": 0, "lat": 38.928789, "fusion_lat": 0.0, "is_reserved": 0, "rental_uris": {"android": "https://dc.lft.to/lastmile_qr_scan", "ios": "https://dc.lft.to/lastmile_qr_scan"}, "bike_id": "aa96e2b34f9378a8f43483fc59e4e27c"}, {"name": "f2e0847098e4823d8e7adc517c461ce2", "type": "electric_scooter", "fusion_lon": 0.0, "lon": -76.97543566666667, "is_disabled": 0, "lat": 38.903325333333335, "fusion_lat": 0.0, "is_reserved": 0, "rental_uris": {"android": "https://dc.lft.to/lastmile_qr_scan", "ios": "https://dc.lft.to/lastmile_qr_scan"}, "bike_id": "f2e0847098e4823d8e7adc517c461ce2"}, {"name": "744dab9d460caa218a3da85f06c0e9bd", "type": "electric_scooter", "fusion_lon": 0.0, "lon": -76.95079783333334, "is_disabled": 0, "lat": 38.90526366666667, "fusion_lat": 0.0, "is_reserved": 0, "rental_uris": {"android": "https://dc.lft.to/lastmile_qr_scan", "ios": "https://dc.lft.to/lastmile_qr_scan"}, "bike_id": "744dab9d460caa218a3da85f06c0e9bd"}, {"name": "32756c40caaf657fa88a4c1696a72c96", "type": "electric_scooter", "fusion_lon": 0.0, "lon": -77.00122316666666, "is_disabled": 0, "lat": 38.90031666666667, "fusion_lat": 0.0, "is_reserved": 0, "rental_uris": {"android": "https://dc.lft.to/lastmile_qr_scan", "ios": "https://dc.lft.to/lastmile_qr_scan"}, "bike_id": "32756c40caaf657fa88a4c1696a72c96"}, {"name": "76342c41115b80ea92fd6a2d4c4df7d2", "type": "electric_scooter", "fusion_lon": 0.0, "lon": -77.02738066666667, "is_disabled": 0, "lat": 38.927677333333335, "fusion_lat": 0.0, "is_reserved": 0, "rental_uris": {"android": "https://dc.lft.to/lastmile_qr_scan", "ios": "https://dc.lft.to/lastmile_qr_scan"}, "bike_id": "76342c41115b80ea92fd6a2d4c4df7d2"}, {"name": "efd4e9647f7db62fcf9d3dce05c934b4", "type": "electric_bike", "fusion_lon": 0.0, "lon": -77.06402316666667, "is_disabled": 0, "lat": 38.84348133333334, "fusion_lat": 0.0, "is_reserved": 0, "rental_uris": {"android": "https://dc.lft.to/lastmile_qr_scan", "ios": "https://dc.lft.to/lastmile_qr_scan"}, "bike_id": "efd4e9647f7db62fcf9d3dce05c934b4"}, {"name": "d9d488c1be75e4d9ff1bfdcf261c47db", "type": "electric_scooter", "fusion_lon": 0.0, "lon": -77.01419333333334, "is_disabled": 0, "lat": 38.9283785, "fusion_lat": 0.0, "is_reserved": 0, "rental_uris": {"android": "https://dc.lft.to/lastmile_qr_scan", "ios": "https://dc.lft.to/lastmile_qr_scan"}, "bike_id": "d9d488c1be75e4d9ff1bfdcf261c47db"}, {"name": "8d5ef2c7ba2476b2b5f4166e81cad68f", "type": "electric_scooter", "fusion_lon": 0.0, "lon": -77.03127816666667, "is_disabled": 0, "lat": 38.91911016666667, "fusion_lat": 0.0, "is_reserved": 0, "rental_uris": {"android": "https://dc.lft.to/lastmile_qr_scan", "ios": "https://dc.lft.to/lastmile_qr_scan"}, "bike_id": "8d5ef2c7ba2476b2b5f4166e81cad68f"}, {"name": "0b34d2792844a9bf42dff7d256c603bf", "type": "electric_bike", "fusion_lon": 0.0, "lon": -77.05013316666667, "is_disabled": 0, "lat": 38.81712066666667, "fusion_lat": 0.0, "is_reserved": 0, "rental_uris": {"android": "https://dc.lft.to/lastmile_qr_scan", "ios": "https://dc.lft.to/lastmile_qr_scan"}, "bike_id": "0b34d2792844a9bf42dff7d256c603bf"}, {"name": "a4b02f45f7b9a1f0b08ea5bb8f630ffb", "type": "electric_bike", "fusion_lon": 0.0, "lon": -76.99031416666666, "is_disabled": 0, "lat": 38.938847333333335, "fusion_lat": 0.0, "is_reserved": 0, "rental_uris": {"android": "https://dc.lft.to/lastmile_qr_scan", "ios": "https://dc.lft.to/lastmile_qr_scan"}, "bike_id": "a4b02f45f7b9a1f0b08ea5bb8f630ffb"}, {"name": "36227ded2b4a612da3c779cfe8e67bc5", "type": "electric_scooter", "fusion_lon": 0.0, "lon": -77.0265295, "is_disabled": 0, "lat": 38.93865866666667, "fusion_lat": 0.0, "is_reserved": 0, "rental_uris": {"android": "https://dc.lft.to/lastmile_qr_scan", "ios": "https://dc.lft.to/lastmile_qr_scan"}, "bike_id": "36227ded2b4a612da3c779cfe8e67bc5"}, {"name": "2d699a5ef26110406453e967f6d7fa4e", "type": "electric_scooter", "fusion_lon": 0.0, "lon": -77.07422633333333, "is_disabled": 0, "lat": 38.936008, "fusion_lat": 0.0, "is_reserved": 0, "rental_uris": {"android": "https://dc.lft.to/lastmile_qr_scan", "ios": "https://dc.lft.to/lastmile_qr_scan"}, "bike_id": "2d699a5ef26110406453e967f6d7fa4e"}, {"name": "25e58f0a2c0717390a3959ae33f2b066", "type": "electric_scooter", "fusion_lon": 0.0, "lon": -77.05027633333333, "is_disabled": 0, "lat": 38.89700366666667, "fusion_lat": 0.0, "is_reserved": 0, "rental_uris": {"android": "https://dc.lft.to/lastmile_qr_scan", "ios": "https://dc.lft.to/lastmile_qr_scan"}, "bike_id": "25e58f0a2c0717390a3959ae33f2b066"}, {"name": "307488bd65efd85b73519c7967295e1d", "type": "electric_scooter", "fusion_lon": 0.0, "lon": -77.02434466666666, "is_disabled": 0, "lat": 38.929997666666665, "fusion_lat": 0.0, "is_reserved": 0, "rental_uris": {"android": "https://dc.lft.to/lastmile_qr_scan", "ios": "https://dc.lft.to/lastmile_qr_scan"}, "bike_id": "307488bd65efd85b73519c7967295e1d"}, {"name": "78607556faaf029a4ad38bf8329f8f2f", "type": "electric_scooter", "fusion_lon": 0.0, "lon": -77.02271133333333, "is_disabled": 0, "lat": 38.894867166666664, "fusion_lat": 0.0, "is_reserved": 0, "rental_uris": {"android": "https://dc.lft.to/lastmile_qr_scan", "ios": "https://dc.lft.to/lastmile_qr_scan"}, "bike_id": "78607556faaf029a4ad38bf8329f8f2f"}, {"name": "68cc15285dfa7e36463f840a853b7060", "type": "electric_scooter", "fusion_lon": 0.0, "lon": -77.048426, "is_disabled": 0, "lat": 38.9043065, "fusion_lat": 0.0, "is_reserved": 0, "rental_uris": {"android": "https://dc.lft.to/lastmile_qr_scan", "ios": "https://dc.lft.to/lastmile_qr_scan"}, "bike_id": "68cc15285dfa7e36463f840a853b7060"}, {"name": "96c1e82111c62d2d057e290173b0c0fc", "type": "electric_scooter", "fusion_lon": 0.0, "lon": -76.979649, "is_disabled": 0, "lat": 38.89230383333334, "fusion_lat": 0.0, "is_reserved": 0, "rental_uris": {"android": "https://dc.lft.to/lastmile_qr_scan", "ios": "https://dc.lft.to/lastmile_qr_scan"}, "bike_id": "96c1e82111c62d2d057e290173b0c0fc"}, {"name": "1bcd900732bf1e8df4baf35c1cf44296", "type": "electric_bike", "fusion_lon": 0.0, "lon": -77.03999583333334, "is_disabled": 0, "lat": 38.99641333333334, "fusion_lat": 0.0, "is_reserved": 0, "rental_uris": {"android": "https://dc.lft.to/lastmile_qr_scan", "ios": "https://dc.lft.to/lastmile_qr_scan"}, "bike_id": "1bcd900732bf1e8df4baf35c1cf44296"}, {"name": "f942ebd2ac02fc8752d59dd81d325e47", "type": "electric_scooter", "fusion_lon": 0.0, "lon": -76.99609316666667, "is_disabled": 0, "lat": 38.88516416666667, "fusion_lat": 0.0, "is_reserved": 0, "rental_uris": {"android": "https://dc.lft.to/lastmile_qr_scan", "ios": "https://dc.lft.to/lastmile_qr_scan"}, "bike_id": "f942ebd2ac02fc8752d59dd81d325e47"}, {"name": "0d1fae6f14221f028a690a8e9f4f2acb", "type": "electric_scooter", "fusion_lon": 0.0, "lon": -77.04561183333334, "is_disabled": 0, "lat": 38.9183355, "fusion_lat": 0.0, "is_reserved": 0, "rental_uris": {"android": "https://dc.lft.to/lastmile_qr_scan", "ios": "https://dc.lft.to/lastmile_qr_scan"}, "bike_id": "0d1fae6f14221f028a690a8e9f4f2acb"}, {"name": "57db1c3ca3dab8cca9a52ce0e1c42978", "type": "electric_scooter", "fusion_lon": 0.0, "lon": -77.04044333333333, "is_disabled": 0, "lat": 38.917948, "fusion_lat": 0.0, "is_reserved": 0, "rental_uris": {"android": "https://dc.lft.to/lastmile_qr_scan", "ios": "https://dc.lft.to/lastmile_qr_scan"}, "bike_id": "57db1c3ca3dab8cca9a52ce0e1c42978"}, {"name": "4b6e2b47907862c7bd9141c0c492d7ae", "type": "electric_scooter", "fusion_lon": 0.0, "lon": -77.03063666666667, "is_disabled": 0, "lat": 38.93087216666667, "fusion_lat": 0.0, "is_reserved": 0, "rental_uris": {"android": "https://dc.lft.to/lastmile_qr_scan", "ios": "https://dc.lft.to/lastmile_qr_scan"}, "bike_id": "4b6e2b47907862c7bd9141c0c492d7ae"}, {"name": "c872b37fadf2d4a53ffe4850ea9bad12", "type": "electric_scooter", "fusion_lon": 0.0, "lon": -77.04458183333334, "is_disabled": 0, "lat": 38.90563483333333, "fusion_lat": 0.0, "is_reserved": 0, "rental_uris": {"android": "https://dc.lft.to/lastmile_qr_scan", "ios": "https://dc.lft.to/lastmile_qr_scan"}, "bike_id": "c872b37fadf2d4a53ffe4850ea9bad12"}, {"name": "447b629ffa473c176d1aeb2f2911de0a", "type": "electric_scooter", "fusion_lon": 0.0, "lon": -77.0276635, "is_disabled": 0, "lat": 38.91694916666667, "fusion_lat": 0.0, "is_reserved": 0, "rental_uris": {"android": "https://dc.lft.to/lastmile_qr_scan", "ios": "https://dc.lft.to/lastmile_qr_scan"}, "bike_id": "447b629ffa473c176d1aeb2f2911de0a"}, {"name": "736061015ed552b882d761a87e30e511", "type": "electric_scooter", "fusion_lon": 0.0, "lon": -77.030236, "is_disabled": 0, "lat": 38.9311625, "fusion_lat": 0.0, "is_reserved": 0, "rental_uris": {"android": "https://dc.lft.to/lastmile_qr_scan", "ios": "https://dc.lft.to/lastmile_qr_scan"}, "bike_id": "736061015ed552b882d761a87e30e511"}, {"name": "ed4b37d32067897d2548344f056c1adc", "type": "electric_scooter", "fusion_lon": 0.0, "lon": -77.02126466666667, "is_disabled": 0, "lat": 38.9232135, "fusion_lat": 0.0, "is_reserved": 0, "rental_uris": {"android": "https://dc.lft.to/lastmile_qr_scan", "ios": "https://dc.lft.to/lastmile_qr_scan"}, "bike_id": "ed4b37d32067897d2548344f056c1adc"}, {"name": "b79b3e351e08d007fb7fdb03d8186b70", "type": "electric_scooter", "fusion_lon": 0.0, "lon": -77.011917, "is_disabled": 0, "lat": 38.91570933333333, "fusion_lat": 0.0, "is_reserved": 0, "rental_uris": {"android": "https://dc.lft.to/lastmile_qr_scan", "ios": "https://dc.lft.to/lastmile_qr_scan"}, "bike_id": "b79b3e351e08d007fb7fdb03d8186b70"},