{"data": {"bikes": [{"is_reserved": 0, "fusion_lon": 0.0, "fusion_lat": 0.0, "name": "2cdeb80cb0c0fc67d79b674ca58ca128", "type": "electric_scooter", "is_disabled": 0, "lat": 38.93270966666667, "rental_uris": {"android": "https://dc.lft.to/lastmile_qr_scan", "ios": "https://dc.lft.to/lastmile_qr_scan"}, "bike_id": "2cdeb80cb0c0fc67d79b674ca58ca128", "lon": -77.02834266666666}, {"is_reserved": 0, "fusion_lon": 0.0, "fusion_lat": 0.0, "name": "5a985032bcc866c7294bda3726d1b847", "type": "electric_scooter", "is_disabled": 0, "lat": 38.920508833333336, "rental_uris": {"android": "https://dc.lft.to/lastmile_qr_scan", "ios": "https://dc.lft.to/lastmile_qr_scan"}, "bike_id": "5a985032bcc866c7294bda3726d1b847", "lon": -76.96362}, {"is_reserved": 0, "fusion_lon": 0.0, "fusion_lat": 0.0, "name": "4a462b92b6c235118cd048cadd4eb073", "type": "electric_scooter", "is_disabled": 0, "lat": 38.9107005, "rental_uris": {"android": "https://dc.lft.to/lastmile_qr_scan", "ios": "https://dc.lft.to/lastmile_qr_scan"}, "bike_id": "4a462b92b6c235118cd048cadd4eb073", "lon": -77.044839}, {"is_reserved": 0, "fusion_lon": 0.0, "fusion_lat": 0.0, "name": "b57c793f065a440b8b99dedb3042575d", "type": "electric_scooter", "is_disabled": 0, "lat": 38.91930133333334, "rental_uris": {"android": "https://dc.lft.to/lastmile_qr_scan", "ios": "https://dc.lft.to/lastmile_qr_scan"}, "bike_id": "b57c793f065a440b8b99dedb3042575d", "lon": -77.02505883333333}, {"is_reserved": 0, "fusion_lon": 0.0, "fusion_lat": 0.0, "name": "44e4fafd180be5ac1e95ec860bff9c01", "type": "electric_scooter", "is_disabled": 0, "lat": 38.90458, "rental_uris": {"android": "https://dc.lft.to/lastmile_qr_scan", "ios": "https://dc.lft.to/lastmile_qr_scan"}, "bike_id": "44e4fafd180be5ac1e95ec860bff9c01", "lon": -77.03792983333334}, {"is_reserved": 0, "fusion_lon": 0.0, "fusion_lat": 0.0, "name": "8086d5189a74e609306f11e387d9264a", "type": "electric_scooter", "is_disabled": 0, "lat": 38.8665665, "rental_uris": {"android": "https://dc.lft.to/lastmile_qr_scan", "ios": "https://dc.lft.to/lastmile_qr_scan"}, "bike_id": "8086d5189a74e609306f11e387d9264a", "lon": -76.98886166666666}, {"is_reserved": 0, "fusion_lon": 0.0, "fusion_lat": 0.0, "name": "b7791577672e92156c73ea81e6089070", "type": "electric_scooter", "is_disabled": 0, "lat": 38.918563166666665, "rental_uris": {"android": "https://dc.lft.to/lastmile_qr_scan", "ios": "https://dc.lft.to/lastmile_qr_scan"}, "bike_id": "b7791577672e92156c73ea81e6089070", "lon": -76.96548616666666}, {"is_reserved": 0, "fusion_lon": 0.0, "fusion_lat": 0.0, "name": "b4d957afff57593ef85bc705a1ff70be", "type": "electric_scooter", "is_disabled": 0, "lat": 38.871461, "rental_uris": {"android": "https://dc.lft.to/lastmile_qr_scan", "ios": "https://dc.lft.to/lastmile_qr_scan"}, "bike_id": "b4d957afff57593ef85bc705a1ff70be", "lon": -77.00705483333333}, {"is_reserved": 0, "fusion_lon": 0.0, "fusion_lat": 0.0, "name": "ba5b5b4a4cae82a2b960dc4ada36b697", "type": "electric_scooter", "is_disabled": 0, "lat": 38.9288135, "rental_uris": {"android": "https://dc.lft.to/lastmile_qr_scan", "ios": "https://dc.lft.to/lastmile_qr_scan"}, "bike_id": "ba5b5b4a4cae82a2b960dc4ada36b697", "lon": -77.01364616666666}, {"is_reserved": 0, "fusion_lon": 0.0, "fusion_lat": 0.0, "name": "f8bf2e9d67de37c011585c6344b4cdd4", "type": "electric_scooter", "is_disabled": 0, "lat": 38.91921716666667, "rental_uris": {"android": "https://dc.lft.to/lastmile_qr_scan", "ios": "https://dc.lft.to/lastmile_qr_scan"}, "bike_id": "f8bf2e9d67de37c011585c6344b4cdd4", "lon": -77.0321815}, {"is_reserved": 0, "fusion_lon": 0.0, "fusion_lat": 0.0, "name": "1f081cbefef0c0ff0d5a0bde33c3ba99", "type": "electric_scooter", "is_disabled": 0, "lat": 38.911122166666665, "rental_uris": {"android": "https://dc.lft.to/lastmile_qr_scan", "ios": "https://dc.lft.to/lastmile_qr_scan"}, "bike_id": "1f081cbefef0c0ff0d5a0bde33c3ba99", "lon": -77.0432225}, {"is_reserved": 0, "fusion_lon": 0.0, "fusion_lat": 0.0, "name": "e06c22cf949b5eb29532023b62de707f", "type": "electric_scooter", "is_disabled": 0, "lat": 38.90861566666667, "rental_uris": {"android": "https://dc.lft.to/lastmile_qr_scan", "ios": "https://dc.lft.to/lastmile_qr_scan"}, "bike_id": "e06c22cf949b5eb29532023b62de707f", "lon": -77.0709745}, {"is_reserved": 0, "fusion_lon": 0.0, "fusion_lat": 0.0, "name": "a7939db98f4d9833360ec68aabdc0820", "type": "electric_scooter", "is_disabled": 0, "lat": 38.921135166666666, "rental_uris": {"android": "https://dc.lft.to/lastmile_qr_scan", "ios": "https://dc.lft.to/lastmile_qr_scan"}, "bike_id": "a7939db98f4d9833360ec68aabdc0820", "lon": -77.0420505}, {"is_reserved": 0, "fusion_lon": 0.0, "fusion_lat": 0.0, "name": "4a8a7134a0f9a2ecd4a282b03229f267", "type": "electric_scooter", "is_disabled": 0, "lat": 38.88046083333333, "rental_uris": {"android": "https://dc.lft.to/lastmile_qr_scan", "ios": "https://dc.lft.to/lastmile_qr_scan"}, "bike_id": "4a8a7134a0f9a2ecd4a282b03229f267", "lon": -76.93208933333334}, {"is_reserved": 0, "fusion_lon": 0.0, "fusion_lat": 0.0, "name": "8def39676e47ff1aaeb879fe885de8b7", "type": "electric_scooter", "is_disabled": 0, "lat": 38.91057216666667, "rental_uris": {"android": "https://dc.lft.to/lastmile_qr_scan", "ios": "https://dc.lft.to/lastmile_qr_scan"}, "bike_id": "8def39676e47ff1aaeb879fe885de8b7", "lon": -77.04249483333334}, {"is_reserved": 0, "fusion_lon": 0.0, "fusion_lat": 0.0, "name": "f8bd2405c09e0ae7ce3e7fd3c5cd95bc", "type": "electric_scooter", "is_disabled": 0, "lat": 38.901399166666664, "rental_uris": {"android": "https://dc.lft.to/lastmile_qr_scan", "ios": "https://dc.lft.to/lastmile_qr_scan"}, "bike_id": "f8bd2405c09e0ae7ce3e7fd3c5cd95bc", "lon": -77.04365033333333}, {"is_reserved": 0, "fusion_lon": 0.0, "fusion_lat": 0.0, "name": "b82ed4405a94ff62c569dd57ed3a852e", "type": "electric_scooter", "is_disabled": 0, "lat": 38.8947075, "rental_uris": {"android": "https://dc.lft.to/lastmile_qr_scan", "ios": "https://dc.lft.to/lastmile_qr_scan"}, "bike_id": "b82ed4405a94ff62c569dd57ed3a852e", "lon": -77.017274}, {"is_reserved": 0, "fusion_lon": 0.0, "fusion_lat": 0.0, "name": "92dc4b583ac0951f018f3d7b6200488a", "type": "electric_scooter", "is_disabled": 0, "lat": 38.8625845, "rental_uris": {"android": "https://dc.lft.to/lastmile_qr_scan", "ios": "https://dc.lft.to/lastmile_qr_scan"}, "bike_id": "92dc4b583ac0951f018f3d7b6200488a", "lon": -76.99608333333333}, {"is_reserved": 0, "fusion_lon": 0.0, "fusion_lat": 0.0, "name": "6df44be9a8de81c56b770eecc0695e8e", "type": "electric_scooter", "is_disabled": 0, "lat": 38.91551533333333, "rental_uris": {"android": "https://dc.lft.to/lastmile_qr_scan", "ios": "https://dc.lft.to/lastmile_qr_scan"}, "bike_id": "6df44be9a8de81c56b770eecc0695e8e", "lon": -77.02048083333334}, {"is_reserved": 0, "fusion_lon": 0.0, "fusion_lat": 0.0, "name": "859b0d75e10d0db897d98107b2c80921", "type": "electric_scooter", "is_disabled": 0, "lat": 38.887252, "rental_uris": {"android": "https://dc.lft.to/lastmile_qr_scan", "ios": "https://dc.lft.to/lastmile_qr_scan"}, "bike_id": "859b0d75e10d0db897d98107b2c80921", "lon": -77.02819716666667}, {"is_reserved": 0, "fusion_lon": 0.0, "fusion_lat": 0.0, "name": "ca17d0512b8d2352358c27d51e0b644d", "type": "electric_bike", "is_disabled": 0, "lat": 39.05278166666667, "rental_uris": {"android": "https://dc.lft.to/lastmile_qr_scan", "ios": "https://dc.lft.to/lastmile_qr_scan"}, "bike_id": "ca17d0512b8d2352358c27d51e0b644d", "lon": -77.0806835}, {"is_reserved": 0, "fusion_lon": 0.0, "fusion_lat": 0.0, "name": "19e045ae5d4e01ba541763e3aa39b6c3", "type": "electric_scooter", "is_disabled": 0, "lat": 38.8666085, "rental_uris": {"android": "https://dc.lft.to/lastmile_qr_scan", "ios": "https://dc.lft.to/lastmile_qr_scan"}, "bike_id": "19e045ae5d4e01ba541763e3aa39b6c3", "lon": -76.98879633333334}, {"is_reserved": 0, "fusion_lon": 0.0, "fusion_lat": 0.0, "name": "36d77e3f2d8312c77939b84f6217872d", "type": "electric_scooter", "is_disabled": 0, "lat": 38.93044416666667, "rental_uris": {"android": "https://dc.lft.to/lastmile_qr_scan", "ios": "https://dc.lft.to/lastmile_qr_scan"}, "bike_id": "36d77e3f2d8312c77939b84f6217872d", "lon": -77.03227516666666}, {"is_reserved": 0, "fusion_lon": 0.0, "fusion_lat": 0.0, "name": "e7cc52d7a98a8fce7bb51736ea0b2ec6", "type": "electric_scooter", "is_disabled": 0, "lat": 38.8783315, "rental_uris": {"android": "https://dc.lft.to/lastmile_qr_scan", "ios": "https://dc.lft.to/lastmile_qr_scan"}, "bike_id": "e7cc52d7a98a8fce7bb51736ea0b2ec6", "lon": -76.96302733333333}, {"is_reserved": 0, "fusion_lon": 0.0, "fusion_lat": 0.0, "name": "68414a7b64ca2d8a94529ecc90618d9b", "type": "electric_scooter", "is_disabled": 0, "lat": 38.92090116666667, "rental_uris": {"android": "https://dc.lft.to/lastmile_qr_scan", "ios": "https://dc.lft.to/lastmile_qr_scan"}, "bike_id": "68414a7b64ca2d8a94529ecc90618d9b", "lon": -77.0219945}, {"is_reserved": 0, "fusion_lon": 0.0, "fusion_lat": 0.0, "name": "a22ecfff2fef4027560c8ec5f67dce3e", "type": "electric_scooter", "is_disabled": 0, "lat": 38.87000716666667, "rental_uris": {"android": "https://dc.lft.to/lastmile_qr_scan", "ios": "https://dc.lft.to/lastmile_qr_scan"}, "bike_id": "a22ecfff2fef4027560c8ec5f67dce3e", "lon": -76.97587783333333}, {"is_reserved": 0, "fusion_lon": 0.0, "fusion_lat": 0.0, "name": "8ec55a4eb43e3a997844f5cefd13b350", "type": "electric_scooter", "is_disabled": 0, "lat": 38.9322625, "rental_uris": {"android": "https://dc.lft.to/lastmile_qr_scan", "ios": "https://dc.lft.to/lastmile_qr_scan"}, "bike_id": "8ec55a4eb43e3a997844f5cefd13b350", "lon": -77.03872583333333}, {"is_reserved": 0, "fusion_lon": 0.0, "fusion_lat": 0.0, "name": "670b1e107254a7a3e33894ad5d87fd1c", "type": "electric_scooter", "is_disabled": 0, "lat": 38.9025955, "rental_uris": {"android": "https://dc.lft.to/lastmile_qr_scan", "ios": "https://dc.lft.to/lastmile_qr_scan"}, "bike_id": "670b1e107254a7a3e33894ad5d87fd1c", "lon": -76.99557133333333}, {"is_reserved": 0, "fusion_lon": 0.0, "fusion_lat": 0.0, "name": "f3811202550d60c27d262c9cc74f1d24", "type": "electric_scooter", "is_disabled": 0, "lat": 38.98457966666667, "rental_uris": {"android": "https://dc.lft.to/lastmile_qr_scan", "ios": "https://dc.lft.to/lastmile_qr_scan"}, "bike_id": "f3811202550d60c27d262c9cc74f1d24", "lon": -77.02638966666666}, {"is_reserved": 0, "fusion_lon": 0.0, "fusion_lat": 0.0, "name": "d759c4cc84eb7e41c6084678eef9a3ae", "type": "electric_scooter", "is_disabled": 0, "lat": 38.911128166666664, "rental_uris": {"android": "https://dc.lft.to/lastmile_qr_scan", "ios": "https://dc.lft.to/lastmile_qr_scan"}, "bike_id": "d759c4cc84eb7e41c6084678eef9a3ae", "lon": -77.04474133333333}, {"is_reserved": 0, "fusion_lon": 0.0, "fusion_lat": 0.0, "name": "8bcdf51c90f8e45d0db1c112070b80f7", "type": "electric_scooter", "is_disabled": 0, "lat": 38.927229833333335, "rental_uris": {"android": "https://dc.lft.to/lastmile_qr_scan", "ios": "https://dc.lft.to/lastmile_qr_scan"}, "bike_id": "8bcdf51c90f8e45d0db1c112070b80f7", "lon": -77.03660883333333}, {"is_reserved": 0, "fusion_lon": 0.0, "fusion_lat": 0.0, "name": "ab5f4c43b5d0f10610364efd701c6b83", "type": "electric_scooter", "is_disabled": 0, "lat": 38.89604083333333, "rental_uris": {"android": "https://dc.lft.to/lastmile_qr_scan", "ios": "https://dc.lft.to/lastmile_qr_scan"}, "bike_id": "ab5f4c43b5d0f10610364efd701c6b83", "lon": -77.01312966666667}, {"is_reserved": 0, "fusion_lon": 0.0, "fusion_lat": 0.0, "name": "54baadf6ca33037dd5796083cfaa3c5b", "type": "electric_scooter", "is_disabled": 0, "lat": 38.899058333333336, "rental_uris": {"android": "https://dc.lft.to/lastmile_qr_scan", "ios": "https://dc.lft.to/lastmile_qr_scan"}, "bike_id": "54baadf6ca33037dd5796083cfaa3c5b", "lon": -77.01981983333333}, {"is_reserved": 0, "fusion_lon": 0.0, "fusion_lat": 0.0, "name": "210dd00e0a734901f33b9b6a78f9749a", "type": "electric_scooter", "is_disabled": 0, "lat": 38.89623666666667, "rental_uris": {"android": "https://dc.lft.to/lastmile_qr_scan", "ios": "https://dc.lft.to/lastmile_qr_scan"}, "bike_id": "210dd00e0a734901f33b9b6a78f9749a", "lon": -77.032033}, {"is_reserved": 0, "fusion_lon": 0.0, "fusion_lat": 0.0, "name": "96196cfbad25bf22004eb7eee23e08d1", "type": "electric_scooter", "is_disabled": 0, "lat": 38.90205383333333, "rental_uris": {"android": "https://dc.lft.to/lastmile_qr_scan", "ios": "https://dc.lft.to/lastmile_qr_scan"}, "bike_id": "96196cfbad25bf22004eb7eee23e08d1", "lon": -77.04580583333333}, {"is_reserved": 0, "fusion_lon": 0.0, "fusion_lat": 0.0, "name": "4fb26bbd39c9dd1a748e3d91335d7669", "type": "electric_scooter", "is_disabled": 0, "lat": 38.902076, "rental_uris": {"android": "https://dc.lft.to/lastmile_qr_scan", "ios": "https://dc.lft.to/lastmile_qr_scan"}, "bike_id": "4fb26bbd39c9dd1a748e3d91335d7669", "lon": -76.98841466666667}, {"is_reserved": 0, "fusion_lon": 0.0, "fusion_lat": 0.0, "name": "a710338b477114ca6272bed9ad1f9e0c", "type": "electric_scooter", "is_disabled": 0, "lat": 38.91706533333333, "rental_uris": {"android": "https://dc.lft.to/lastmile_qr_scan", "ios": "https://dc.lft.to/lastmile_qr_scan"}, "bike_id": "a710338b477114ca6272bed9ad1f9e0c", "lon": -77.026}, {"is_reserved": 0, "fusion_lon": 0.0, "fusion_lat": 0.0, "name": "656c0d46db5d34e6189cd95a81dd10f1", "type": "electric_scooter", "is_disabled": 0, "lat": 38.9097915, "rental_uris": {"android": "https://dc.lft.to/lastmile_qr_scan", "ios": "https://dc.lft.to/lastmile_qr_scan"}, "bike_id": "656c0d46db5d34e6189cd95a81dd10f1", "lon": -77.03330233333334}, {"is_reserved": 0, "fusion_lon": 0.0, "fusion_lat": 0.0, "name": "d15461eb9b2ac14caca79407b6b1b696", "type": "electric_scooter", "is_disabled": 0, "lat": 38.915623333333336, "rental_uris": {"android": "https://dc.lft.to/lastmile_qr_scan", "ios": "https://dc.lft.to/lastmile_qr_scan"}, "bike_id": "d15461eb9b2ac14caca79407b6b1b696", "lon": -77.03139016666667}, {"is_reserved": 0, "fusion_lon": 0.0, "fusion_lat": 0.0, "name": "fcb8f1d90a02a163f0d9f63aeedbdd9f", "type": "electric_scooter", "is_disabled": 0, "lat": 38.928878, "rental_uris": {"android": "https://dc.lft.to/lastmile_qr_scan", "ios": "https://dc.lft.to/lastmile_qr_scan"}, "bike_id": "fcb8f1d90a02a163f0d9f63aeedbdd9f", "lon": -77.0233115}, {"is_reserved": 0, "fusion_lon": 0.0, "fusion_lat": 0.0, "name": "433aac01b84aa7b41452a7f0a10ae104", "type": "electric_scooter", "is_disabled": 0, "lat": 38.92249266666666, "rental_uris": {"android": "https://dc.lft.to/lastmile_qr_scan", "ios": "https://dc.lft.to/lastmile_qr_scan"}, "bike_id": "433aac01b84aa7b41452a7f0a10ae104", "lon": -77.02955216666666}, {"is_reserved": 0, "fusion_lon": 0.0, "fusion_lat": 0.0, "name": "a982a124dfa3f04f33eb2e749eb539c3", "type": "electric_scooter", "is_disabled": 0, "lat": 38.900024333333334, "rental_uris": {"android": "https://dc.lft.to/lastmile_qr_scan", "ios": "https://dc.lft.to/lastmile_qr_scan"}, "bike_id": "a982a124dfa3f04f33eb2e749eb539c3", "lon": -76.95193866666666}, {"is_reserved": 0, "fusion_lon": 0.0, "fusion_lat": 0.0, "name": "c3eea02152dc2d983b07168a30d97f5b", "type": "electric_scooter", "is_disabled": 0, "lat": 38.92859416666667, "rental_uris": {"android": "https://dc.lft.to/lastmile_qr_scan", "ios": "https://dc.lft.to/lastmile_qr_scan"}, "bike_id": "c3eea02152dc2d983b07168a30d97f5b", "lon": -77.03569016666667}, {"is_reserved": 0, "fusion_lon": 0.0, "fusion_lat": 0.0, "name": "b778da2b0f871a469936e4eb67693b7c", "type": "electric_scooter", "is_disabled": 0, "lat": 38.916928, "rental_uris": {"android": "https://dc.lft.to/lastmile_qr_scan", "ios": "https://dc.lft.to/lastmile_qr_scan"}, "bike_id": "b778da2b0f871a469936e4eb67693b7c", "lon": -77.02593616666667}, {"is_reserved": 0, "fusion_lon": 0.0, "fusion_lat": 0.0, "name": "14c2b759df964269322a65aa10a5d207", "type": "electric_scooter", "is_disabled": 0, "lat": 38.9294835, "rental_uris": {"android": "https://dc.lft.to/lastmile_qr_scan", "ios": "https://dc.lft.to/lastmile_qr_scan"}, "bike_id": "14c2b759df964269322a65aa10a5d207", "lon": -77.016429}, {"is_reserved": 0, "fusion_lon": 0.0, "fusion_lat": 0.0, "name": "96c85037cf3e957ab60ee60b673ca52d", "type": "electric_scooter", "is_disabled": 0, "lat": 38.887220666666664, "rental_uris": {"android": "https://dc.lft.to/lastmile_qr_scan", "ios": "https://dc.lft.to/lastmile_qr_scan"}, "bike_id": "96c85037cf3e957ab60ee60b673ca52d", "lon": -77.02168216666666}, {"is_reserved": 0, "fusion_lon": 0.0, "fusion_lat": 0.0, "name": "cec0f512d546f9ff0244221ce486cf2f", "type": "electric_scooter", "is_disabled": 0, "lat": 38.89250666666667, "rental_uris": {"android": "https://dc.lft.to/lastmile_qr_scan", "ios": "https://dc.lft.to/lastmile_qr_scan"}, "bike_id": "cec0f512d546f9ff0244221ce486cf2f", "lon": -76.9883535}, {"is_reserved": 0, "fusion_lon": 0.0, "fusion_lat": 0.0, "name": "3100f5f0bb92297596b03e0697079ab2", "type": "electric_bike", "is_disabled": 0, "lat": 38.80014966666667, "rental_uris": {"android": "https://dc.lft.to/lastmile_qr_scan", "ios": "https://dc.lft.to/lastmile_qr_scan"}, "bike_id": "3100f5f0bb92297596b03e0697079ab2", "lon": -77.05480733333333}, {"is_reserved": 0, "fusion_lon": 0.0, "fusion_lat": 0.0, "name": "f21cd6994ede11f3359250bc729469e9", "type": "electric_scooter", "is_disabled": 0, "lat": 38.957328, "rental_uris": {"android": "https://dc.lft.to/lastmile_qr_scan", "ios": "https://dc.lft.to/lastmile_qr_scan"}, "bike_id": "f21cd6994ede11f3359250bc729469e9", "lon": -77.023999}, {"is_reserved": 0, "fusion_lon": 0.0, "fusion_lat": 0.0, "name": "daae30d9163b9b67f5d1668dc0553638", "type": "electric_scooter", "is_disabled": 0, "lat": 38.920149, "rental_uris": {"android": "https://dc.lft.to/lastmile_qr_scan", "ios": "https://dc.lft.to/lastmile_qr_scan"}, "bike_id": "daae30d9163b9b67f5d1668dc0553638", "lon": -77.038726}, {"is_reserved": 0, "fusion_lon": 0.0, "fusion_lat": 0.0, "name": "8d5bc7bcd160a85a42358f17b8e58323", "type": "electric_bike", "is_disabled": 0, "lat": 38.87988, "rental_uris": {"android": "https://dc.lft.to/lastmile_qr_scan", "ios": "https://dc.lft.to/lastmile_qr_scan"}, "bike_id": "8d5bc7bcd160a85a42358f17b8e58323", "lon": -76.91593283333333}, {"is_reserved": 0, "fusion_lon": 0.0, "fusion_lat": 0.0, "name": "4de79c3568839930ed9ccfd7b947b715", "type": "electric_scooter", "is_disabled": 0, "lat": 38.928241666666665, "rental_uris": {"android": "https://dc.lft.to/lastmile_qr_scan", "ios": "https://dc.lft.to/lastmile_qr_scan"}, "bike_id": "4de79c3568839930ed9ccfd7b947b715", "lon": -77.0262765}, {"is_reserved": 0, "fusion_lon": 0.0, "fusion_lat": 0.0, "name": "c94a64e2f77217844a68f41be4e5b914", "type": "electric_bike", "is_disabled": 0, "lat": 38.973951666666665, "rental_uris": {"android": "https://dc.lft.to/lastmile_qr_scan", "ios": "https://dc.lft.to/lastmile_qr_scan"}, "bike_id": "c94a64e2f77217844a68f41be4e5b914", "lon": -77.06450116666667}, {"is_reserved": 0, "fusion_lon": 0.0, "fusion_lat": 0.0, "name": "b7df3383e8d6e64019a2a59dd20a1c65", "type": "electric_scooter", "is_disabled": 0, "lat": 38.90807216666666, "rental_uris": {"android": "https://dc.lft.to/lastmile_qr_scan", "ios": "https://dc.lft.to/lastmile_qr_scan"}, "bike_id": "b7df3383e8d6e64019a2a59dd20a1c65", "lon": -76.987395}, {"is_reserved": 0, "fusion_lon": 0.0, "fusion_lat": 0.0, "name": "e9c3e4432b62e6b71fdee025d2a957f0", "type": "electric_scooter", "is_disabled": 0, "lat": 38.92813833333334, "rental_uris": {"android": "https://dc.lft.to/lastmile_qr_scan", "ios": "https://dc.lft.to/lastmile_qr_scan"}, "bike_id": "e9c3e4432b62e6b71fdee025d2a957f0", "lon": -77.01416783333333}, {"is_reserved": 0, "fusion_lon": 0.0, "fusion_lat": 0.0, "name": "6cac6aae8f25688577add0281d203fc9", "type": "electric_scooter", "is_disabled": 0, "lat": 38.903751666666665, "rental_uris": {"android": "https://dc.lft.to/lastmile_qr_scan", "ios": "https://dc.lft.to/lastmile_qr_scan"}, "bike_id": "6cac6aae8f25688577add0281d203fc9", "lon": -77.04669483333333}, {"is_reserved": 0, "fusion_lon": 0.0, "fusion_lat": 0.0, "name": "caf0f34de0ec59e370c0eca0c00c2958", "type": "electric_scooter", "is_disabled": 0, "lat": 38.8988905, "rental_uris": {"android": "https://dc.lft.to/lastmile_qr_scan", "ios": "https://dc.lft.to/lastmile_qr_scan"}, "bike_id": "caf0f34de0ec59e370c0eca0c00c2958", "lon": -77.05297983333334}, {"is_reserved": 0, "fusion_lon": 0.0, "fusion_lat": 0.0, "name": "876a8856dbef2cebc64be0770cecf065", "type": "electric_scooter", "is_disabled": 0, "lat": 38.91550766666667, "rental_uris": {"android": "https://dc.lft.to/lastmile_qr_scan", "ios": "https://dc.lft.to/lastmile_qr_scan"}, "bike_id": "876a8856dbef2cebc64be0770cecf065", "lon": -77.05319833333333}, {"is_reserved": 0, "fusion_lon": 0.0, "fusion_lat": 0.0, "name": "98efb9dac880cd2b08b1636f8de3bd96", "type": "electric_scooter", "is_disabled": 0, "lat": 38.90713383333333, "rental_uris": {"android": "https://dc.lft.to/lastmile_qr_scan", "ios": "https://dc.lft.to/lastmile_qr_scan"}, "bike_id": "98efb9dac880cd2b08b1636f8de3bd96", "lon": -77.03200233333334}, {"is_reserved": 0, "fusion_lon": 0.0, "fusion_lat": 0.0, "name": "87960ab28fd9054de9065c32dc76bfa2", "type": "electric_scooter", "is_disabled": 0, "lat": 38.892245833333334, "rental_uris": {"android": "https://dc.lft.to/lastmile_qr_scan", "ios": "https://dc.lft.to/lastmile_qr_scan"}, "bike_id": "87960ab28fd9054de9065c32dc76bfa2", "lon": -77.0433215}, {"is_reserved": 0, "fusion_lon": 0.0, "fusion_lat": 0.0, "name": "5fa2c5e80da0d1d5210b715e462cfff2", "type": "electric_scooter", "is_disabled": 0, "lat": 38.876693333333336, "rental_uris": {"android": "https://dc.lft.to/lastmile_qr_scan", "ios": "https://dc.lft.to/lastmile_qr_scan"}, "bike_id": "5fa2c5e80da0d1d5210b715e462cfff2", "lon": -77.00550066666666}, {"is_reserved": 0, "fusion_lon": 0.0, "fusion_lat": 0.0, "name": "24946ce4dbd3cfe54008f086b7639f78", "type": "electric_scooter", "is_disabled": 0, "lat": 38.907298, "rental_uris": {"android": "https://dc.lft.to/lastmile_qr_scan", "ios": "https://dc.lft.to/lastmile_qr_scan"}, "bike_id": "24946ce4dbd3cfe54008f086b7639f78", "lon": -76.93228666666667}, {"is_reserved": 0, "fusion_lon": 0.0, "fusion_lat": 0.0, "name": "259885c399b17cae2b97ed35ab696864", "type": "electric_scooter", "is_disabled": 0, "lat": 38.914296, "rental_uris": {"android": "https://dc.lft.to/lastmile_qr_scan", "ios": "https://dc.lft.to/lastmile_qr_scan"}, "bike_id": "259885c399b17cae2b97ed35ab696864", "lon": -77.028133}, {"is_reserved": 0, "fusion_lon": 0.0, "fusion_lat": 0.0, "name": "2a2f6391e667706dc17b1454abacab76", "type": "electric_scooter", "is_disabled": 0, "lat": 38.91476883333333, "rental_uris": {"android": "https://dc.lft.to/lastmile_qr_scan", "ios": "https://dc.lft.to/lastmile_qr_scan"}, "bike_id": "2a2f6391e667706dc17b1454abacab76", "lon": -77.0257825}, {"is_reserved": 0, "fusion_lon": 0.0, "fusion_lat": 0.0, "name": "ee134cb00de29b04c2d34e1af95294b2", "type": "electric_scooter", "is_disabled": 0, "lat": 38.897882833333334, "rental_uris": {"android": "https://dc.lft.to/lastmile_qr_scan", "ios": "https://dc.lft.to/lastmile_qr_scan"}, "bike_id": "ee134cb00de29b04c2d34e1af95294b2", "lon": -77.04497133333334}, {"is_reserved": 0, "fusion_lon": 0.0, "fusion_lat": 0.0, "name": "f1350f36f1bf3a4a33385d5cee65a690", "type": "electric_scooter", "is_disabled": 0, "lat": 38.897862333333336, "rental_uris": {"android": "https://dc.lft.to/lastmile_qr_scan", "ios": "https://dc.lft.to/lastmile_qr_scan"}, "bike_id": "f1350f36f1bf3a4a33385d5cee65a690", "lon": -76.9257655}, {"is_reserved": 0, "fusion_lon": 0.0, "fusion_lat": 0.0, "name": "55038f187ad8d923677383e6048b8bc6", "type": "electric_scooter", "is_disabled": 0, "lat": 38.899188, "rental_uris": {"android": "https://dc.lft.to/lastmile_qr_scan", "ios": "https://dc.lft.to/lastmile_qr_scan"}, "bike_id": "55038f187ad8d923677383e6048b8bc6", "lon": -76.93367066666667}, {"is_reserved": 0, "fusion_lon": 0.0, "fusion_lat": 0.0, "name": "401ccc9bb0d972e7e7afc7daa86b0e14", "type": "electric_bike", "is_disabled": 0, "lat": 38.852054333333335, "rental_uris": {"android": "https://dc.lft.to/lastmile_qr_scan", "ios": "https://dc.lft.to/lastmile_qr_scan"}, "bike_id": "401ccc9bb0d972e7e7afc7daa86b0e14", "lon": -77.1012815}, {"is_reserved": 0, "fusion_lon": 0.0, "fusion_lat": 0.0, "name": "2901f37c203f55406e933e05add9c77f", "type": "electric_scooter", "is_disabled": 0, "lat": 38.9171235, "rental_uris": {"android": "https://dc.lft.to/lastmile_qr_scan", "ios": "https://dc.lft.to/lastmile_qr_scan"}, "bike_id": "2901f37c203f55406e933e05add9c77f", "lon": -77.03857466666666}, {"is_reserved": 0, "fusion_lon": 0.0, "fusion_lat": 0.0, "name": "e32347591126bbca09425be847516275", "type": "electric_scooter", "is_disabled": 0, "lat": 38.91764116666667, "rental_uris": {"android": "https://dc.lft.to/lastmile_qr_scan", "ios": "https://dc.lft.to/lastmile_qr_scan"}, "bike_id": "e32347591126bbca09425be847516275", "lon": -77.02342783333333}, {"is_reserved": 0, "fusion_lon": 0.0, "fusion_lat": 0.0, "name": "8a8a98826653bc02e8d4d29fda1e6eb6", "type": "electric_bike", "is_disabled": 0, "lat": 38.94665766666667, "rental_uris": {"android": "https://dc.lft.to/lastmile_qr_scan", "ios": "https://dc.lft.to/lastmile_qr_scan"}, "bike_id": "8a8a98826653bc02e8d4d29fda1e6eb6", "lon": -76.983059}, {"is_reserved": 0, "fusion_lon": 0.0, "fusion_lat": 0.0, "name": "30eba886f6c205699e57623f05e61b17", "type": "electric_scooter", "is_disabled": 0, "lat": 38.956261166666664, "rental_uris": {"android": "https://dc.lft.to/lastmile_qr_scan", "ios": "https://dc.lft.to/lastmile_qr_scan"}, "bike_id": "30eba886f6c205699e57623f05e61b17", "lon": -77.02459683333333}, {"is_reserved": 0, "fusion_lon": 0.0, "fusion_lat": 0.0, "name": "1682da2e373c3197f89e03639493996a", "type": "electric_scooter", "is_disabled": 0, "lat": 38.917782333333335, "rental_uris": {"android": "https://dc.lft.to/lastmile_qr_scan", "ios": "https://dc.lft.to/lastmile_qr_scan"}, "bike_id": "1682da2e373c3197f89e03639493996a", "lon": -77.042738}, {"is_reserved": 0, "fusion_lon": 0.0, "fusion_lat": 0.0, "name": "dd5440aceaf9b23f127f71dafe800ff2", "type": "electric_scooter", "is_disabled": 0, "lat": 38.935703, "rental_uris": {"android": "https://dc.lft.to/lastmile_qr_scan", "ios": "https://dc.lft.to/lastmile_qr_scan"}, "bike_id": "dd5440aceaf9b23f127f71dafe800ff2", "lon": -77.02120733333334}, {"is_reserved": 0, "fusion_lon": 0.0, "fusion_lat": 0.0, "name": "67189ddd8600c04cbd9478e13fc205ba", "type": "electric_scooter", "is_disabled": 0, "lat": 38.88714383333333, "rental_uris": {"android": "https://dc.lft.to/lastmile_qr_scan", "ios": "https://dc.lft.to/lastmile_qr_scan"}, "bike_id": "67189ddd8600c04cbd9478e13fc205ba", "lon": -77.02193}, {"is_reserved": 0, "fusion_lon": 0.0, "fusion_lat": 0.0, "name": "60220b61d53f2d296a6af49cd21f897e", "type": "electric_scooter", "is_disabled": 0, "lat": 38.924666, "rental_uris": {"android": "https://dc.lft.to/lastmile_qr_scan", "ios": "https://dc.lft.to/lastmile_qr_scan"}, "bike_id": "60220b61d53f2d296a6af49cd21f897e", "lon": -77.03946}, {"is_reserved": 0, "fusion_lon": 0.0, "fusion_lat": 0.0, "name": "640fd265ddb384254bc10c901dba0866", "type": "electric_scooter", "is_disabled": 0, "lat": 38.9236315, "rental_uris": {"android": "https://dc.lft.to/lastmile_qr_scan", "ios": "https://dc.lft.to/lastmile_qr_scan"}, "bike_id": "640fd265ddb384254bc10c901dba0866", "lon": -77.05051216666666}, {"is_reserved": 0, "fusion_lon": 0.0, "fusion_lat": 0.0, "name": "f2f2c2084bb996bdedc562c635f09164", "type": "electric_scooter", "is_disabled": 0, "lat": 38.879808833333335, "rental_uris": {"android": "https://dc.lft.to/lastmile_qr_scan", "ios": "https://dc.lft.to/lastmile_qr_scan"}, "bike_id": "f2f2c2084bb996bdedc562c635f09164", "lon": -77.01535683333333}, {"is_reserved": 0, "fusion_lon": 0.0, "fusion_lat": 0.0, "name": "2f272f92a636f092450a84f7eec8370f", "type": "electric_bike", "is_disabled": 0, "lat": 38.827846, "rental_uris": {"android": "https://dc.lft.to/lastmile_qr_scan", "ios": "https://dc.lft.to/lastmile_qr_scan"}, "bike_id": "2f272f92a636f092450a84f7eec8370f", "lon": -77.00916733333334}, {"is_reserved": 0, "fusion_lon": 0.0, "fusion_lat": 0.0, "name": "1e367a7a833398e8f6120b11f0f9dad2", "type": "electric_scooter", "is_disabled": 0, "lat": 38.903614, "rental_uris": {"android": "https://dc.lft.to/lastmile_qr_scan", "ios": "https://dc.lft.to/lastmile_qr_scan"}, "bike_id": "1e367a7a833398e8f6120b11f0f9dad2", "lon": -77.00982916666666}, {"is_reserved": 0, "fusion_lon": 0.0, "fusion_lat": 0.0, "name": "e35597131a997ca5658a293e829c96c7", "type": "electric_scooter", "is_disabled": 0, "lat": 38.90504116666666, "rental_uris": {"android": "https://dc.lft.to/lastmile_qr_scan", "ios": "https://dc.lft.to/lastmile_qr_scan"}, "bike_id": "e35597131a997ca5658a293e829c96c7", "lon": -77.05803516666667}, {"is_reserved": 0, "fusion_lon": 0.0, "fusion_lat": 0.0, "name": "02fa8e7043385f3e8da840954fb7dd60", "type": "electric_scooter", "is_disabled": 0, "lat": 38.9192175, "rental_uris": {"android": "https://dc.lft.to/lastmile_qr_scan", "ios": "https://dc.lft.to/lastmile_qr_scan"}, "bike_id": "02fa8e7043385f3e8da840954fb7dd60", "lon": -77.04172233333334}, {"is_reserved": 0, "fusion_lon": 0.0, "fusion_lat": 0.0, "name": "a34bf1055c106d0e44bd06209f368add", "type": "electric_scooter", "is_disabled": 0, "lat": 38.905267, "rental_uris": {"android": "https://dc.lft.to/lastmile_qr_scan", "ios": "https://dc.lft.to/lastmile_qr_scan"}, "bike_id": "a34bf1055c106d0e44bd06209f368add", "lon": -77.06439133333333}, {"is_reserved": 0, "fusion_lon": 0.0, "fusion_lat": 0.0, "name": "a4c44b0f305570e6d1621dd6898501fc", "type": "electric_scooter", "is_disabled": 0, "lat": 38.899545833333335, "rental_uris": {"android": "https://dc.lft.to/lastmile_qr_scan", "ios": "https://dc.lft.to/lastmile_qr_scan"}, "bike_id": "a4c44b0f305570e6d1621dd6898501fc", "lon": -77.02111516666666}, {"is_reserved": 0, "fusion_lon": 0.0, "fusion_lat": 0.0, "name": "aa346ee4828f2f9f7fc14a415a92e93c", "type": "electric_scooter", "is_disabled": 0, "lat": 38.9301355, "rental_uris": {"android": "https://dc.lft.to/lastmile_qr_scan", "ios": "https://dc.lft.to/lastmile_qr_scan"}, "bike_id": "aa346ee4828f2f9f7fc14a415a92e93c", "lon": -77.02791166666667}, {"is_reserved": 0, "fusion_lon": 0.0, "fusion_lat": 0.0, "name": "2869706d48f97e81cd331ed1f397b4e2", "type": "electric_scooter", "is_disabled": 0, "lat": 38.905044833333335, "rental_uris": {"android": "https://dc.lft.to/lastmile_qr_scan", "ios": "https://dc.lft.to/lastmile_qr_scan"}, "bike_id": "2869706d48f97e81cd331ed1f397b4e2", "lon": -76.98478883333334}, {"is_reserved": 0, "fusion_lon": 0.0, "fusion_lat": 0.0, "name": "2390dfc6b96316022ed2f62147b7da3b", "type": "electric_scooter", "is_disabled": 0, "lat": 38.904865666666666, "rental_uris": {"android": "https://dc.lft.to/lastmile_qr_scan", "ios": "https://dc.lft.to/lastmile_qr_scan"}, "bike_id": "2390dfc6b96316022ed2f62147b7da3b", "lon": -77.03889783333334}, {"is_reserved": 0, "fusion_lon": 0.0, "fusion_lat": 0.0, "name": "2b51841c3e73be9e3fdac5f2805fd490", "type": "electric_scooter", "is_disabled": 0, "lat": 38.86731483333333, "rental_uris": {"android": "https://dc.lft.to/lastmile_qr_scan", "ios": "https://dc.lft.to/lastmile_qr_scan"}, "bike_id": "2b51841c3e73be9e3fdac5f2805fd490", "lon": -76.9878255}, {"is_reserved": 0, "fusion_lon": 0.0, "fusion_lat": 0.0, "name": "520466085f26118058f4706c75e24a76", "type": "electric_scooter", "is_disabled": 0, "lat": 38.866990333333334, "rental_uris": {"android": "https://dc.lft.to/lastmile_qr_scan", "ios": "https://dc.lft.to/lastmile_qr_scan"}, "bike_id": "520466085f26118058f4706c75e24a76", "lon": -76.9870885}, {"is_reserved": 0, "fusion_lon": 0.0, "fusion_lat": 0.0, "name": "8ef8761689c5d4fd9b16b42aa285a2b1", "type": "electric_bike", "is_disabled": 0, "lat": 38.88046166666667, "rental_uris": {"android": "https://dc.lft.to/lastmile_qr_scan", "ios": "https://dc.lft.to/lastmile_qr_scan"}, "bike_id": "8ef8761689c5d4fd9b16b42aa285a2b1", "lon": -77.0113005}, {"is_reserved": 0, "fusion_lon": 0.0, "fusion_lat": 0.0, "name": "700b9b621de5278fc44b5c8349d366a5", "type": "electric_scooter", "is_disabled": 0, "lat": 38.89367816666667, "rental_uris": {"android": "https://dc.lft.to/lastmile_qr_scan", "ios": "https://dc.lft.to/lastmile_qr_scan"}, "bike_id": "700b9b621de5278fc44b5c8349d366a5", "lon": -77.03183683333333}, {"is_reserved": 0, "fusion_lon": 0.0, "fusion_lat": 0.0, "name": "238626988b542ccb441b302da3db8c47", "type": "electric_scooter", "is_disabled": 0, "lat": 38.823863333333335, "rental_uris": {"android": "https://dc.lft.to/lastmile_qr_scan", "ios": "https://dc.lft.to/lastmile_qr_scan"}, "bike_id": "238626988b542ccb441b302da3db8c47", "lon": -77.0118575}, {"is_reserved": 0, "fusion_lon": 0.0, "fusion_lat": 0.0, "name": "4fa7ad9bd32ffcc63f0bace28ba6da83", "type": "electric_scooter", "is_disabled": 0, "lat": 38.9000905, "rental_uris": {"android": "https://dc.lft.to/lastmile_qr_scan", "ios": "https://dc.lft.to/lastmile_qr_scan"}, "bike_id": "4fa7ad9bd32ffcc63f0bace28ba6da83", "lon": -77.04028283333334}, {"is_reserved": 0, "fusion_lon": 0.0, "fusion_lat": 0.0, "name": "2ef0b97d4adaedae5a5a5c3ad1f18904", "type": "electric_scooter", "is_disabled": 0, "lat": 38.909094333333336, "rental_uris": {"android": "https://dc.lft.to/lastmile_qr_scan", "ios": "https://dc.lft.to/lastmile_qr_scan"}, "bike_id": "2ef0b97d4adaedae5a5a5c3ad1f18904", "lon": -77.07265983333333}, {"is_reserved": 0, "fusion_lon": 0.0, "fusion_lat": 0.0, "name": "bcd7ae36e26856d764c07dc3e97afc86", "type": "electric_scooter", "is_disabled": 0, "lat": 38.909906, "rental_uris": {"android": "https://dc.lft.to/lastmile_qr_scan", "ios": "https://dc.lft.to/lastmile_qr_scan"}, "bike_id": "bcd7ae36e26856d764c07dc3e97afc86", "lon": -77.03378616666667}, {"is_reserved": 0, "fusion_lon": 0.0, "fusion_lat": 0.0, "name": "acce8a353f5770316e819a697bebd015", "type": "electric_scooter", "is_disabled": 0, "lat": 38.89555816666667, "rental_uris": {"android": "https://dc.lft.to/lastmile_qr_scan", "ios": "https://dc.lft.to/lastmile_qr_scan"}, "bike_id": "acce8a353f5770316e819a697bebd015", "lon": -77.0286165}, {"is_reserved": 0, "fusion_lon": 0.0, "fusion_lat": 0.0, "name": "a6361464670246a073b7eea1097f1a8a", "type": "electric_scooter", "is_disabled": 0, "lat": 38.9126665, "rental_uris": {"android": "https://dc.lft.to/lastmile_qr_scan", "ios": "https://dc.lft.to/lastmile_qr_scan"}, "bike_id": "a6361464670246a073b7eea1097f1a8a", "lon": -77.0317675}, {"is_reserved": 0, "fusion_lon": 0.0, "fusion_lat": 0.0, "name": "43198c5c155ed39cddaaa5f31704e386", "type": "electric_scooter", "is_disabled": 0, "lat": 38.8991835, "rental_uris": {"android": "https://dc.lft.to/lastmile_qr_scan", "ios": "https://dc.lft.to/lastmile_qr_scan"}, "bike_id": "43198c5c155ed39cddaaa5f31704e386", "lon": -76.93375866666666}, {"is_reserved": 0, "fusion_lon": 0.0, "fusion_lat": 0.0, "name": "c17437c40adce74ae9c34bf059d10358", "type": "electric_bike", "is_disabled": 0, "lat": 38.893541166666665, "rental_uris": {"android": "https://dc.lft.to/lastmile_qr_scan", "ios": "https://dc.lft.to/lastmile_qr_scan"}, "bike_id": "c17437c40adce74ae9c34bf059d10358", "lon": -77.18739266666667}, {"is_reserved": 0, "fusion_lon": 0.0, "fusion_lat": 0.0, "name": "189516a8f4b5ab16218b322a9fc577a2", "type": "electric_bike", "is_disabled": 0, "lat": 38.854041333333335, "rental_uris": {"android": "https://dc.lft.to/lastmile_qr_scan", "ios": "https://dc.lft.to/lastmile_qr_scan"}, "bike_id": "189516a8f4b5ab16218b322a9fc577a2", "lon": -77.12066566666667}, {"is_reserved": 0, "fusion_lon": 0.0, "fusion_lat": 0.0, "name": "f10666cfb311a0e87244a49298ece65d", "type": "electric_scooter", "is_disabled": 0, "lat": 38.916151, "rental_uris": {"android": "https://dc.lft.to/lastmile_qr_scan", "ios": "https://dc.lft.to/lastmile_qr_scan"}, "bike_id": "f10666cfb311a0e87244a49298ece65d", "lon": -77.02385783333334}, {"is_reserved": 0, "fusion_lon": 0.0, "fusion_lat": 0.0, "name": "318b226f1596c0f69b1b82b7069474fa", "type": "electric_scooter", "is_disabled": 0, "lat": 38.902576, "rental_uris": {"android": "https://dc.lft.to/lastmile_qr_scan", "ios": "https://dc.lft.to/lastmile_qr_scan"}, "bike_id": "318b226f1596c0f69b1b82b7069474fa", "lon": -77.00221}, {"is_reserved": 0, "fusion_lon": 0.0, "fusion_lat": 0.0, "name": "962ac41240a2c0f1c680d6eb380b8136", "type": "electric_scooter", "is_disabled": 0, "lat": 38.89238566666667, "rental_uris": {"android": "https://dc.lft.to/lastmile_qr_scan", "ios": "https://dc.lft.to/lastmile_qr_scan"}, "bike_id": "962ac41240a2c0f1c680d6eb380b8136", "lon": -77.04158866666667}, {"is_reserved": 0, "fusion_lon": 0.0, "fusion_lat": 0.0, "name": "468a0fd3182240d7c846865d6b1ed987", "type": "electric_scooter", "is_disabled": 0, "lat": 38.91715383333333, "rental_uris": {"android": "https://dc.lft.to/lastmile_qr_scan", "ios": "https://dc.lft.to/lastmile_qr_scan"}, "bike_id": "468a0fd3182240d7c846865d6b1ed987", "lon": -77.06829716666667}, {"is_reserved": 0, "fusion_lon": 0.0, "fusion_lat": 0.0, "name": "319219594e5450332d7b365717a064a0", "type": "electric_scooter", "is_disabled": 0, "lat": 38.905076333333334, "rental_uris": {"android": "https://dc.lft.to/lastmile_qr_scan", "ios": "https://dc.lft.to/lastmile_qr_scan"}, "bike_id": "319219594e5450332d7b365717a064a0", "lon": -76.9792675}, {"is_reserved": 0, "fusion_lon": 0.0, "fusion_lat": 0.0, "name": "759734565f5d5eea8909481005971137", "type": "electric_bike", "is_disabled": 0, "lat": 38.966124666666666, "rental_uris": {"android": "https://dc.lft.to/lastmile_qr_scan", "ios": "https://dc.lft.to/lastmile_qr_scan"}, "bike_id": "759734565f5d5eea8909481005971137", "lon": -77.03426866666666}, {"is_reserved": 0, "fusion_lon": 0.0, "fusion_lat": 0.0, "name": "8c5c91b3d6bdd4ac71963f6c3c66f92d", "type": "electric_scooter", "is_disabled": 0, "lat": 38.92071383333333, "rental_uris": {"android": "https://dc.lft.to/lastmile_qr_scan", "ios": "https://dc.lft.to/lastmile_qr_scan"}, "bike_id": "8c5c91b3d6bdd4ac71963f6c3c66f92d", "lon": -77.04198483333333}, {"is_reserved": 0, "fusion_lon": 0.0, "fusion_lat": 0.0, "name": "1d34c5347c2ad9328b6d40ff6ae3cad0", "type": "electric_scooter", "is_disabled": 0, "lat": 38.879762, "rental_uris": {"android": "https://dc.lft.to/lastmile_qr_scan", "ios": "https://dc.lft.to/lastmile_qr_scan"}, "bike_id": "1d34c5347c2ad9328b6d40ff6ae3cad0", "lon": -76.9950615}, {"is_reserved": 0, "fusion_lon": 0.0, "fusion_lat": 0.0, "name": "4d7cfcd6a0c02e652b67049b26a7f761", "type": "electric_scooter", "is_disabled": 0, "lat": 38.921553, "rental_uris": {"android": "https://dc.lft.to/lastmile_qr_scan", "ios": "https://dc.lft.to/lastmile_qr_scan"}, "bike_id": "4d7cfcd6a0c02e652b67049b26a7f761", "lon": -77.04334316666667}, {"is_reserved": 0, "fusion_lon": 0.0, "fusion_lat": 0.0, "name": "899bf1bd8cfceed92578263cb2f72dc9", "type": "electric_scooter", "is_disabled": 0, "lat": 38.895534, "rental_uris": {"android": "https://dc.lft.to/lastmile_qr_scan", "ios": "https://dc.lft.to/lastmile_qr_scan"}, "bike_id": "899bf1bd8cfceed92578263cb2f72dc9", "lon": -76.94874583333333}, {"is_reserved": 0, "fusion_lon": 0.0, "fusion_lat": 0.0, "name": "388aedc1f71110807796bc9ab4c7c167", "type": "electric_scooter", "is_disabled": 0, "lat": 38.9241035, "rental_uris": {"android": "https://dc.lft.to/lastmile_qr_scan", "ios": "https://dc.lft.to/lastmile_qr_scan"}, "bike_id": "388aedc1f71110807796bc9ab4c7c167", "lon": -77.02126066666666}, {"is_reserved": 0, "fusion_lon": 0.0, "fusion_lat": 0.0, "name": "8ca93247147520902df0034b1d2ad419", "type": "electric_scooter", "is_disabled": 0, "lat": 38.892370666666665, "rental_uris": {"android": "https://dc.lft.to/lastmile_qr_scan", "ios": "https://dc.lft.to/lastmile_qr_scan"}, "bike_id": "8ca93247147520902df0034b1d2ad419", "lon": -77.03350266666666}, {"is_reserved": 0, "fusion_lon": 0.0, "fusion_lat": 0.0, "name": "b3ccfef27b78ec706e7e64dd75c19862", "type": "electric_scooter", "is_disabled": 0, "lat": 38.906137666666666, "rental_uris": {"android": "https://dc.lft.to/lastmile_qr_scan", "ios": "https://dc.lft.to/lastmile_qr_scan"}, "bike_id": "b3ccfef27b78ec706e7e64dd75c19862", "lon": -76.98687333333334}, {"is_reserved": 0, "fusion_lon": 0.0, "fusion_lat": 0.0, "name": "ef6e34f80d24cdcad3b7c17d7cb354f4", "type": "electric_scooter", "is_disabled": 0, "lat": 38.933760166666666, "rental_uris": {"android": "https://dc.lft.to/lastmile_qr_scan", "ios": "https://dc.lft.to/lastmile_qr_scan"}, "bike_id": "ef6e34f80d24cdcad3b7c17d7cb354f4", "lon": -77.0572945}, {"is_reserved": 0, "fusion_lon": 0.0, "fusion_lat": 0.0, "name": "0e60a65e80a443eeee724f7047f18976", "type": "electric_scooter", "is_disabled": 0, "lat": 38.90363716666667, "rental_uris": {"android": "https://dc.lft.to/lastmile_qr_scan", "ios": "https://dc.lft.to/lastmile_qr_scan"}, "bike_id": "0e60a65e80a443eeee724f7047f18976", "lon": -77.00339}, {"is_reserved": 0, "fusion_lon": 0.0, "fusion_lat": 0.0, "name": "e916c438f06ec226efb59750b513f617", "type": "electric_scooter", "is_disabled": 0, "lat": 38.880857, "rental_uris": {"android": "https://dc.lft.to/lastmile_qr_scan", "ios": "https://dc.lft.to/lastmile_qr_scan"}, "bike_id": "e916c438f06ec226efb59750b513f617", "lon": -76.998383}, {"is_reserved": 0, "fusion_lon": 0.0, "fusion_lat": 0.0, "name": "5451f16b8e5a529f6270db7851b1cb1e", "type": "electric_scooter", "is_disabled": 0, "lat": 38.87442166666666, "rental_uris": {"android": "https://dc.lft.to/lastmile_qr_scan", "ios": "https://dc.lft.to/lastmile_qr_scan"}, "bike_id": "5451f16b8e5a529f6270db7851b1cb1e", "lon": -77.00030366666667}, {"is_reserved": 0, "fusion_lon": 0.0, "fusion_lat": 0.0, "name": "552e1de7889cd87074811022c7bba184", "type": "electric_bike", "is_disabled": 0, "lat": 38.818395833333334, "rental_uris": {"android": "https://dc.lft.to/lastmile_qr_scan", "ios": "https://dc.lft.to/lastmile_qr_scan"}, "bike_id": "552e1de7889cd87074811022c7bba184", "lon": -77.1056985}, {"is_reserved": 0, "fusion_lon": 0.0, "fusion_lat": 0.0, "name": "38e68e45774ae2279564a5e1c2763d2b", "type": "electric_bike", "is_disabled": 0, "lat": 38.88398383333333, "rental_uris": {"android": "https://dc.lft.to/lastmile_qr_scan", "ios": "https://dc.lft.to/lastmile_qr_scan"}, "bike_id": "38e68e45774ae2279564a5e1c2763d2b", "lon": -77.03029583333333}, {"is_reserved": 0, "fusion_lon": 0.0, "fusion_lat": 0.0, "name": "b69e254e62e8cb9d899c57c66592189a", "type": "electric_scooter", "is_disabled": 0, "lat": 38.91996833333333, "rental_uris": {"android": "https://dc.lft.to/lastmile_qr_scan", "ios": "https://dc.lft.to/lastmile_qr_scan"}, "bike_id": "b69e254e62e8cb9d899c57c66592189a", "lon": -77.02179216666667}, {"is_reserved": 0, "fusion_lon": 0.0, "fusion_lat": 0.0, "name": "89acd75998276110acdb8bc25a86fe91", "type": "electric_scooter", "is_disabled": 0, "lat": 38.876296333333336, "rental_uris": {"android": "https://dc.lft.to/lastmile_qr_scan", "ios": "https://dc.lft.to/lastmile_qr_scan"}, "bike_id": "89acd75998276110acdb8bc25a86fe91", "lon": -77.01254833333333}, {"is_reserved": 0, "fusion_lon": 0.0, "fusion_lat": 0.0, "name": "a34877f5eb6f17abb9e6728bb77b0b7e", "type": "electric_scooter", "is_disabled": 0, "lat": 38.87463183333333, "rental_uris": {"android": "https://dc.lft.to/lastmile_qr_scan", "ios": "https://dc.lft.to/lastmile_qr_scan"}, "bike_id": "a34877f5eb6f17abb9e6728bb77b0b7e", "lon": -77.01891516666667}, {"is_reserved": 0, "fusion_lon": 0.0, "fusion_lat": 0.0, "name": "711506adab82716dab23ea4bce1a98ab", "type": "electric_scooter", "is_disabled": 0, "lat": 38.914151333333336, "rental_uris": {"android": "https://dc.lft.to/lastmile_qr_scan", "ios": "https://dc.lft.to/lastmile_qr_scan"}, "bike_id": "711506adab82716dab23ea4bce1a98ab", "lon": -77.04911166666666}, {"is_reserved": 0, "fusion_lon": 0.0, "fusion_lat": 0.0, "name": "61388b476be9f6bad1d2a68c4038a0d2", "type": "electric_scooter", "is_disabled": 0, "lat": 38.952768666666664, "rental_uris": {"android": "https://dc.lft.to/lastmile_qr_scan", "ios": "https://dc.lft.to/lastmile_qr_scan"}, "bike_id": "61388b476be9f6bad1d2a68c4038a0d2", "lon": -77.06979583333333}, {"is_reserved": 0, "fusion_lon": 0.0, "fusion_lat": 0.0, "name": "a05ca08c4b487035fb2e59bee07578a9", "type": "electric_scooter", "is_disabled": 0, "lat": 38.8600965, "rental_uris": {"android": "https://dc.lft.to/lastmile_qr_scan", "ios": "https://dc.lft.to/lastmile_qr_scan"}, "bike_id": "a05ca08c4b487035fb2e59bee07578a9", "lon": -76.98520683333334}, {"is_reserved": 0, "fusion_lon": 0.0, "fusion_lat": 0.0, "name": "a508bef34e63b46d3dbc970a1a2d4fea", "type": "electric_scooter", "is_disabled": 0, "lat": 38.9147315, "rental_uris": {"android": "https://dc.lft.to/lastmile_qr_scan", "ios": "https://dc.lft.to/lastmile_qr_scan"}, "bike_id": "a508bef34e63b46d3dbc970a1a2d4fea", "lon": -77.03883983333333}, {"is_reserved": 0, "fusion_lon": 0.0, "fusion_lat": 0.0, "name": "a552943cdae30e5b00ac95a1520c138e", "type": "electric_scooter", "is_disabled": 0, "lat": 38.917117166666664, "rental_uris": {"android": "https://dc.lft.to/lastmile_qr_scan", "ios": "https://dc.lft.to/lastmile_qr_scan"}, "bike_id": "a552943cdae30e5b00ac95a1520c138e", "lon": -77.00886183333333}, {"is_reserved": 0, "fusion_lon": 0.0, "fusion_lat": 0.0, "name": "9152690966935c94788c4ec6aabdd7bc", "type": "electric_scooter", "is_disabled": 0, "lat": 38.91531766666667, "rental_uris": {"android": "https://dc.lft.to/lastmile_qr_scan", "ios": "https://dc.lft.to/lastmile_qr_scan"}, "bike_id": "9152690966935c94788c4ec6aabdd7bc", "lon": -77.03186266666667}, {"is_reserved": 0, "fusion_lon": 0.0, "fusion_lat": 0.0, "name": "c7eb4f74b0243ede1cd0f2656e9d11a5", "type": "electric_scooter", "is_disabled": 0, "lat": 38.91789333333333, "rental_uris": {"android": "https://dc.lft.to/lastmile_qr_scan", "ios": "https://dc.lft.to/lastmile_qr_scan"}, "bike_id": "c7eb4f74b0243ede1cd0f2656e9d11a5", "lon": -77.02401}, {"is_reserved": 0, "fusion_lon": 0.0, "fusion_lat": 0.0, "name": "997d41b647a603c17e444f94c3579b8e", "type": "electric_scooter", "is_disabled": 0, "lat": 38.9014085, "rental_uris": {"android": "https://dc.lft.to/lastmile_qr_scan", "ios": "https://dc.lft.to/lastmile_qr_scan"}, "bike_id": "997d41b647a603c17e444f94c3579b8e", "lon": -77.00008466666667}, {"is_reserved": 0, "fusion_lon": 0.0, "fusion_lat": 0.0, "name": "fbc3afc6aedb05ef4fbe6ed5e37b0040", "type": "electric_scooter", "is_disabled": 0, "lat": 38.904998, "rental_uris": {"android": "https://dc.lft.to/lastmile_qr_scan", "ios": "https://dc.lft.to/lastmile_qr_scan"}, "bike_id": "fbc3afc6aedb05ef4fbe6ed5e37b0040", "lon": -76.9806525}, {"is_reserved": 0, "fusion_lon": 0.0, "fusion_lat": 0.0, "name": "a93cdec8b30f5d16503af47ef512e801", "type": "electric_scooter", "is_disabled": 0, "lat": 38.899125, "rental_uris": {"android": "https://dc.lft.to/lastmile_qr_scan", "ios": "https://dc.lft.to/lastmile_qr_scan"}, "bike_id": "a93cdec8b30f5d16503af47ef512e801", "lon": -76.933677}, {"is_reserved": 0, "fusion_lon": 0.0, "fusion_lat": 0.0, "name": "586cc3683021cf942950293508a6c08a", "type": "electric_scooter", "is_disabled": 0, "lat": 38.92485683333334, "rental_uris": {"android": "https://dc.lft.to/lastmile_qr_scan", "ios": "https://dc.lft.to/lastmile_qr_scan"}, "bike_id": "586cc3683021cf942950293508a6c08a", "lon": -77.0255125}, {"is_reserved": 0, "fusion_lon": 0.0, "fusion_lat": 0.0, "name": "d14f24d3bebfe61331d66fab93ce4fa7", "type": "electric_scooter", "is_disabled": 0, "lat": 38.878356833333335, "rental_uris": {"android": "https://dc.lft.to/lastmile_qr_scan", "ios": "https://dc.lft.to/lastmile_qr_scan"}, "bike_id": "d14f24d3bebfe61331d66fab93ce4fa7", "lon": -77.00811733333333}, {"is_reserved": 0, "fusion_lon": 0.0, "fusion_lat": 0.0, "name": "e0b21d0a5d82ab04c8edbf83ba40615a", "type": "electric_scooter", "is_disabled": 0, "lat": 38.92741916666667, "rental_uris": {"android": "https://dc.lft.to/lastmile_qr_scan", "ios": "https://dc.lft.to/lastmile_qr_scan"}, "bike_id": "e0b21d0a5d82ab04c8edbf83ba40615a", "lon": -77.021455}, {"is_reserved": 0, "fusion_lon": 0.0, "fusion_lat": 0.0, "name": "7c26dc8221b49f37bdddeb55f954cffe", "type": "electric_scooter", "is_disabled": 0, "lat": 38.92037783333333, "rental_uris": {"android": "https://dc.lft.to/lastmile_qr_scan", "ios": "https://dc.lft.to/lastmile_qr_scan"}, "bike_id": "7c26dc8221b49f37bdddeb55f954cffe", "lon": -77.02359266666667}, {"is_reserved": 0, "fusion_lon": 0.0, "fusion_lat": 0.0, "name": "c78b96cafa68f4e854440d7c12b81b5f", "type": "electric_scooter", "is_disabled": 0, "lat": 38.906131, "rental_uris": {"android": "https://dc.lft.to/lastmile_qr_scan", "ios": "https://dc.lft.to/lastmile_qr_scan"}, "bike_id": "c78b96cafa68f4e854440d7c12b81b5f", "lon": -77.0160875}, {"is_reserved": 0, "fusion_lon": 0.0, "fusion_lat": 0.0, "name": "8f6bbb1e114029b63a5b6666950bc3db", "type": "electric_scooter", "is_disabled": 0, "lat": 38.9212265, "rental_uris": {"android": "https://dc.lft.to/lastmile_qr_scan", "ios": "https://dc.lft.to/lastmile_qr_scan"}, "bike_id": "8f6bbb1e114029b63a5b6666950bc3db", "lon": -77.043736}, {"is_reserved": 0, "fusion_lon": 0.0, "fusion_lat": 0.0, "name": "1b85f9e56ccb81ec0b52c4f7d4bcb557", "type": "electric_scooter", "is_disabled": 0, "lat": 38.93702316666667, "rental_uris": {"android": "https://dc.lft.to/lastmile_qr_scan", "ios": "https://dc.lft.to/lastmile_qr_scan"}, "bike_id": "1b85f9e56ccb81ec0b52c4f7d4bcb557", "lon": -77.02393583333334}, {"is_reserved": 0, "fusion_lon": 0.0, "fusion_lat": 0.0, "name": "f8cda4592998431ce24c34a7fc17f63b", "type": "electric_scooter", "is_disabled": 0, "lat": 38.920481833333334, "rental_uris": {"android": "https://dc.lft.to/lastmile_qr_scan", "ios": "https://dc.lft.to/lastmile_qr_scan"}, "bike_id": "f8cda4592998431ce24c34a7fc17f63b", "lon": -76.98943583333333}, {"is_reserved": 0, "fusion_lon": 0.0, "fusion_lat": 0.0, "name": "0896712e52e16815a3edaf7f4c6fdbf9", "type": "electric_bike", "is_disabled": 0, "lat": 38.9455935, "rental_uris": {"android": "https://dc.lft.to/lastmile_qr_scan", "ios": "https://dc.lft.to/lastmile_qr_scan"}, "bike_id": "0896712e52e16815a3edaf7f4c6fdbf9", "lon": -76.96679083333333}, {"is_reserved": 0, "fusion_lon": 0.0, "fusion_lat": 0.0, "name": "be5a3f533d54108fc87f8eff7f055ccd", "type": "electric_scooter", "is_disabled": 0, "lat": 38.93612266666667, "rental_uris": {"android": "https://dc.lft.to/lastmile_qr_scan", "ios": "https://dc.lft.to/lastmile_qr_scan"}, "bike_id": "be5a3f533d54108fc87f8eff7f055ccd", "lon": -77.03819483333334}, {"is_reserved": 0, "fusion_lon": 0.0, "fusion_lat": 0.0, "name": "17ad66c5ff4e5de5fd18fedc8a8cb5b5", "type": "electric_scooter", "is_disabled": 0, "lat": 38.92273633333333, "rental_uris": {"android": "https://dc.lft.to/lastmile_qr_scan", "ios": "https://dc.lft.to/lastmile_qr_scan"}, "bike_id": "17ad66c5ff4e5de5fd18fedc8a8cb5b5", "lon": -77.03222666666667}, {"is_reserved": 0, "fusion_lon": 0.0, "fusion_lat": 0.0, "name": "9a5b24f72993290def9a716a21f5c25b", "type": "electric_bike", "is_disabled": 0, "lat": 38.82947566666667, "rental_uris": {"android": "https://dc.lft.to/lastmile_qr_scan", "ios": "https://dc.lft.to/lastmile_qr_scan"}, "bike_id": "9a5b24f72993290def9a716a21f5c25b", "lon": -77.12351333333334}, {"is_reserved": 0, "fusion_lon": 0.0, "fusion_lat": 0.0, "name": "fb0b534ed508703da51c892f1ded7c68", "type": "electric_scooter", "is_disabled": 0, "lat": 38.900172, "rental_uris": {"android": "https://dc.lft.to/lastmile_qr_scan", "ios": "https://dc.lft.to/lastmile_qr_scan"}, "bike_id": "fb0b534ed508703da51c892f1ded7c68", "lon": -77.039513}, {"is_reserved": 0, "fusion_lon": 0.0, "fusion_lat": 0.0, "name": "bfc86d3d469b671812e7cf9a3f0fa44e", "type": "electric_scooter", "is_disabled": 0, "lat": 38.918159, "rental_uris": {"android": "https://dc.lft.to/lastmile_qr_scan", "ios": "https://dc.lft.to/lastmile_qr_scan"}, "bike_id": "bfc86d3d469b671812e7cf9a3f0fa44e", "lon": -77.0345125}, {"is_reserved": 0, "fusion_lon": 0.0, "fusion_lat": 0.0, "name": "ada12fe5f36c9087ae967dcd432e7935", "type": "electric_scooter", "is_disabled": 0, "lat": 38.920558166666666, "rental_uris": {"android": "https://dc.lft.to/lastmile_qr_scan", "ios": "https://dc.lft.to/lastmile_qr_scan"}, "bike_id": "ada12fe5f36c9087ae967dcd432e7935", "lon": -77.022042}, {"is_reserved": 0, "fusion_lon": 0.0, "fusion_lat": 0.0, "name": "4371b95e9ce3f925afa72175c788b323", "type": "electric_scooter", "is_disabled": 0, "lat": 38.92702366666666, "rental_uris": {"android": "https://dc.lft.to/lastmile_qr_scan", "ios": "https://dc.lft.to/lastmile_qr_scan"}, "bike_id": "4371b95e9ce3f925afa72175c788b323", "lon": -77.01491383333334}, {"is_reserved": 0, "fusion_lon": 0.0, "fusion_lat": 0.0, "name": "faab9d5225502aee7e851175a7ad28ad", "type": "electric_scooter", "is_disabled": 0, "lat": 38.885829666666666, "rental_uris": {"android": "https://dc.lft.to/lastmile_qr_scan", "ios": "https://dc.lft.to/lastmile_qr_scan"}, "bike_id": "faab9d5225502aee7e851175a7ad28ad", "lon": -77.0200835}, {"is_reserved": 0, "fusion_lon": 0.0, "fusion_lat": 0.0, "name": "b8de2a1b225891c0e50cfca1a8f26dea", "type": "electric_scooter", "is_disabled": 0, "lat": 38.926131, "rental_uris": {"android": "https://dc.lft.to/lastmile_qr_scan", "ios": "https://dc.lft.to/lastmile_qr_scan"}, "bike_id": "b8de2a1b225891c0e50cfca1a8f26dea", "lon": -77.02159283333333}, {"is_reserved": 0, "fusion_lon": 0.0, "fusion_lat": 0.0, "name": "ba271aafa55918a313eff3522429551d", "type": "electric_scooter", "is_disabled": 0, "lat": 38.900848, "rental_uris": {"android": "https://dc.lft.to/lastmile_qr_scan", "ios": "https://dc.lft.to/lastmile_qr_scan"}, "bike_id": "ba271aafa55918a313eff3522429551d", "lon": -76.99367916666667}, {"is_reserved": 0, "fusion_lon": 0.0, "fusion_lat": 0.0, "name": "3d976678e6fab885ae6c0a180fb00d32", "type": "electric_scooter", "is_disabled": 0, "lat": 38.925099833333334, "rental_uris": {"android": "https://dc.lft.to/lastmile_qr_scan", "ios": "https://dc.lft.to/lastmile_qr_scan"}, "bike_id": "3d976678e6fab885ae6c0a180fb00d32", "lon": -77.0271555}, {"is_reserved": 0, "fusion_lon": 0.0, "fusion_lat": 0.0, "name": "9aa3fd9c3de80cdc079a869281fb14a8", "type": "electric_scooter", "is_disabled": 0, "lat": 38.90573966666667, "rental_uris": {"android": "https://dc.lft.to/lastmile_qr_scan", "ios": "https://dc.lft.to/lastmile_qr_scan"}, "bike_id": "9aa3fd9c3de80cdc079a869281fb14a8", "lon": -77.0593015}, {"is_reserved": 0, "fusion_lon": 0.0, "fusion_lat": 0.0, "name": "aae9d23ad8d862c57594f84c824fc701", "type": "electric_scooter", "is_disabled": 0, "lat": 38.917248, "rental_uris": {"android": "https://dc.lft.to/lastmile_qr_scan", "ios": "https://dc.lft.to/lastmile_qr_scan"}, "bike_id": "aae9d23ad8d862c57594f84c824fc701", "lon": -77.02961733333333}, {"is_reserved": 0, "fusion_lon": 0.0, "fusion_lat": 0.0, "name": "28ca93d91bab578459b5c8abbaaa006c", "type": "electric_scooter", "is_disabled": 0, "lat": 38.94699516666667, "rental_uris": {"android": "https://dc.lft.to/lastmile_qr_scan", "ios": "https://dc.lft.to/lastmile_qr_scan"}, "bike_id": "28ca93d91bab578459b5c8abbaaa006c", "lon": -77.01933783333334}, {"is_reserved": 0, "fusion_lon": 0.0, "fusion_lat": 0.0, "name": "2bb51947c6d77f6cdf4714ac942fb9bb", "type": "electric_scooter", "is_disabled": 0, "lat": 38.914244833333335, "rental_uris": {"android": "https://dc.lft.to/lastmile_qr_scan", "ios": "https://dc.lft.to/lastmile_qr_scan"}, "bike_id": "2bb51947c6d77f6cdf4714ac942fb9bb", "lon": -77.02224333333334}, {"is_reserved": 0, "fusion_lon": 0.0, "fusion_lat": 0.0, "name": "ebe352157acf9ad4500194f25771253f", "type": "electric_scooter", "is_disabled": 0, "lat": 38.900489, "rental_uris": {"android": "https://dc.lft.to/lastmile_qr_scan", "ios": "https://dc.lft.to/lastmile_qr_scan"}, "bike_id": "ebe352157acf9ad4500194f25771253f", "lon": -77.04349133333334}, {"is_reserved": 0, "fusion_lon": 0.0, "fusion_lat": 0.0, "name": "6fcc167abe33c904ae68c78760bdc518", "type": "electric_scooter", "is_disabled": 0, "lat": 38.941766, "rental_uris": {"android": "https://dc.lft.to/lastmile_qr_scan", "ios": "https://dc.lft.to/lastmile_qr_scan"}, "bike_id": "6fcc167abe33c904ae68c78760bdc518", "lon": -77.0255685}, {"is_reserved": 0, "fusion_lon": 0.0, "fusion_lat": 0.0, "name": "e50397b59c341df9ebae673d5c15bc41", "type": "electric_scooter", "is_disabled": 0, "lat": 38.90040483333333, "rental_uris": {"android": "https://dc.lft.to/lastmile_qr_scan", "ios": "https://dc.lft.to/lastmile_qr_scan"}, "bike_id": "e50397b59c341df9ebae673d5c15bc41", "lon": -76.980563}, {"is_reserved": 0, "fusion_lon": 0.0, "fusion_lat": 0.0, "name": "e745eb7ba8602d55e0bfd5f3351e0c75", "type": "electric_bike", "is_disabled": 0, "lat": 38.838121666666666, "rental_uris": {"android": "https://dc.lft.to/lastmile_qr_scan", "ios": "https://dc.lft.to/lastmile_qr_scan"}, "bike_id": "e745eb7ba8602d55e0bfd5f3351e0c75", "lon": -77.09522583333333}, {"is_reserved": 0, "fusion_lon": 0.0, "fusion_lat": 0.0, "name": "0e153e758dcaf84d66f1ceae24122ef9", "type": "electric_scooter", "is_disabled": 0, "lat": 38.94988683333333, "rental_uris": {"android": "https://dc.lft.to/lastmile_qr_scan", "ios": "https://dc.lft.to/lastmile_qr_scan"}, "bike_id": "0e153e758dcaf84d66f1ceae24122ef9", "lon": -77.0270225}, {"is_reserved": 0, "fusion_lon": 0.0, "fusion_lat": 0.0, "name": "a83b9a2acb9a1493a03a9ffde838ffe0", "type": "electric_scooter", "is_disabled": 0, "lat": 38.866695166666666, "rental_uris": {"android": "https://dc.lft.to/lastmile_qr_scan", "ios": "https://dc.lft.to/lastmile_qr_scan"}, "bike_id": "a83b9a2acb9a1493a03a9ffde838ffe0", "lon": -76.98510633333333}, {"is_reserved": 0, "fusion_lon": 0.0, "fusion_lat": 0.0, "name": "c536c0cf81a0e4c1946bb6746b0a41e4", "type": "electric_bike", "is_disabled": 0, "lat": 38.8651855, "rental_uris": {"android": "https://dc.lft.to/lastmile_qr_scan", "ios": "https://dc.lft.to/lastmile_qr_scan"}, "bike_id": "c536c0cf81a0e4c1946bb6746b0a41e4", "lon": -76.97335416666667}, {"is_reserved": 0, "fusion_lon": 0.0, "fusion_lat": 0.0, "name": "fb3408eceb6a4b3e36002d1410f3d327", "type": "electric_scooter", "is_disabled": 0, "lat": 38.93307183333334, "rental_uris": {"android": "https://dc.lft.to/lastmile_qr_scan", "ios": "https://dc.lft.to/lastmile_qr_scan"}, "bike_id": "fb3408eceb6a4b3e36002d1410f3d327", "lon": -77.045284}, {"is_reserved": 0, "fusion_lon": 0.0, "fusion_lat": 0.0, "name": "dd7d4c65ba0b0586b47d0be362a2b3d1", "type": "electric_scooter", "is_disabled": 0, "lat": 38.97515833333333, "rental_uris": {"android": "https://dc.lft.to/lastmile_qr_scan", "ios": "https://dc.lft.to/lastmile_qr_scan"}, "bike_id": "dd7d4c65ba0b0586b47d0be362a2b3d1", "lon": -77.01726683333334}, {"is_reserved": 0, "fusion_lon": 0.0, "fusion_lat": 0.0, "name": "6ff12459d33ddb99221d217d90e8111c", "type": "electric_scooter", "is_disabled": 0, "lat": 38.92851016666667, "rental_uris": {"android": "https://dc.lft.to/lastmile_qr_scan", "ios": "https://dc.lft.to/lastmile_qr_scan"}, "bike_id": "6ff12459d33ddb99221d217d90e8111c", "lon": -77.027314}, {"is_reserved": 0, "fusion_lon": 0.0, "fusion_lat": 0.0, "name": "67cfa419bef41cbdbf99df3d054a7c2c", "type": "electric_scooter", "is_disabled": 0, "lat": 38.9215675, "rental_uris": {"android": "https://dc.lft.to/lastmile_qr_scan", "ios": "https://dc.lft.to/lastmile_qr_scan"}, "bike_id": "67cfa419bef41cbdbf99df3d054a7c2c", "lon": -77.02084916666666}, {"is_reserved": 0, "fusion_lon": 0.0, "fusion_lat": 0.0, "name": "cd550776f7636aa9f0eb34994f3fc3f6", "type": "electric_scooter", "is_disabled": 0, "lat": 38.90252683333333, "rental_uris": {"android": "https://dc.lft.to/lastmile_qr_scan", "ios": "https://dc.lft.to/lastmile_qr_scan"}, "bike_id": "cd550776f7636aa9f0eb34994f3fc3f6", "lon": -77.04502816666667}, {"is_reserved": 0, "fusion_lon": 0.0, "fusion_lat": 0.0, "name": "b4c1ddedea884279dac21d3be2f16543", "type": "electric_scooter", "is_disabled": 0, "lat": 38.922017333333336, "rental_uris": {"android": "https://dc.lft.to/lastmile_qr_scan", "ios": "https://dc.lft.to/lastmile_qr_scan"}, "bike_id": "b4c1ddedea884279dac21d3be2f16543", "lon": -77.02952683333334}, {"is_reserved": 0, "fusion_lon": 0.0, "fusion_lat": 0.0, "name": "2af2c9266b959d8b470663be78dbe5b3", "type": "electric_scooter", "is_disabled": 0, "lat": 38.91789883333333, "rental_uris": {"android": "https://dc.lft.to/lastmile_qr_scan", "ios": "https://dc.lft.to/lastmile_qr_scan"}, "bike_id": "2af2c9266b959d8b470663be78dbe5b3", "lon": -77.04030633333333}, {"is_reserved": 0, "fusion_lon": 0.0, "fusion_lat": 0.0, "name": "84d51f1a577fdacdbacee497edacb925", "type": "electric_scooter", "is_disabled": 0, "lat": 38.91995633333333, "rental_uris": {"android": "https://dc.lft.to/lastmile_qr_scan", "ios": "https://dc.lft.to/lastmile_qr_scan"}, "bike_id": "84d51f1a577fdacdbacee497edacb925", "lon": -77.0214535}, {"is_reserved": 0, "fusion_lon": 0.0, "fusion_lat": 0.0, "name": "f7e180ce94d0d5b11fc3dae06ed88b4f", "type": "electric_scooter", "is_disabled": 0, "lat": 38.905991, "rental_uris": {"android": "https://dc.lft.to/lastmile_qr_scan", "ios": "https://dc.lft.to/lastmile_qr_scan"}, "bike_id": "f7e180ce94d0d5b11fc3dae06ed88b4f", "lon": -77.06419116666666}, {"is_reserved": 0, "fusion_lon": 0.0, "fusion_lat": 0.0, "name": "902f9ea0aba89756bd060c99bf4759a9", "type": "electric_scooter", "is_disabled": 0, "lat": 38.893163333333334, "rental_uris": {"android": "https://dc.lft.to/lastmile_qr_scan", "ios": "https://dc.lft.to/lastmile_qr_scan"}, "bike_id": "902f9ea0aba89756bd060c99bf4759a9", "lon": -76.93964666666666}, {"is_reserved": 0, "fusion_lon": 0.0, "fusion_lat": 0.0, "name": "f15486362a12357f17a8410281963f60", "type": "electric_scooter", "is_disabled": 0, "lat": 38.904336666666666, "rental_uris": {"android": "https://dc.lft.to/lastmile_qr_scan", "ios": "https://dc.lft.to/lastmile_qr_scan"}, "bike_id": "f15486362a12357f17a8410281963f60", "lon": -77.05150083333334}, {"is_reserved": 0, "fusion_lon": 0.0, "fusion_lat": 0.0, "name": "1798f6fa93000bb663b589cf72deb642", "type": "electric_scooter", "is_disabled": 0, "lat": 38.850672833333334, "rental_uris": {"android": "https://dc.lft.to/lastmile_qr_scan", "ios": "https://dc.lft.to/lastmile_qr_scan"}, "bike_id": "1798f6fa93000bb663b589cf72deb642", "lon": -76.97005083333333}, {"is_reserved": 0, "fusion_lon": 0.0, "fusion_lat": 0.0, "name": "e11f57886e46fac9503c14ff1788940c", "type": "electric_bike", "is_disabled": 0, "lat": 38.89800966666667, "rental_uris": {"android": "https://dc.lft.to/lastmile_qr_scan", "ios": "https://dc.lft.to/lastmile_qr_scan"}, "bike_id": "e11f57886e46fac9503c14ff1788940c", "lon": -76.99063833333334}, {"is_reserved": 0, "fusion_lon": 0.0, "fusion_lat": 0.0, "name": "a96643dda9dbdbff1f6a12ed82b72ad7", "type": "electric_scooter", "is_disabled": 0, "lat": 38.91391933333333, "rental_uris": {"android": "https://dc.lft.to/lastmile_qr_scan", "ios": "https://dc.lft.to/lastmile_qr_scan"}, "bike_id": "a96643dda9dbdbff1f6a12ed82b72ad7", "lon": -77.04481433333333}, {"is_reserved": 0, "fusion_lon": 0.0, "fusion_lat": 0.0, "name": "3e9a9e8d9c0756dfd863693d6a2561d2", "type": "electric_scooter", "is_disabled": 0, "lat": 38.901247833333336, "rental_uris": {"android": "https://dc.lft.to/lastmile_qr_scan", "ios": "https://dc.lft.to/lastmile_qr_scan"}, "bike_id": "3e9a9e8d9c0756dfd863693d6a2561d2", "lon": -77.04358266666667}, {"is_reserved": 0, "fusion_lon": 0.0, "fusion_lat": 0.0, "name": "3394aee66201361ed0d2437c2c0d4586", "type": "electric_scooter", "is_disabled": 0, "lat": 38.90832616666667, "rental_uris": {"android": "https://dc.lft.to/lastmile_qr_scan", "ios": "https://dc.lft.to/lastmile_qr_scan"}, "bike_id": "3394aee66201361ed0d2437c2c0d4586", "lon": -77.03955266666667}, {"is_reserved": 0, "fusion_lon": 0.0, "fusion_lat": 0.0, "name": "32d6352ee76719c1b406dc75d942fe67", "type": "electric_scooter", "is_disabled": 0, "lat": 38.919511166666666, "rental_uris": {"android": "https://dc.lft.to/lastmile_qr_scan", "ios": "https://dc.lft.to/lastmile_qr_scan"}, "bike_id": "32d6352ee76719c1b406dc75d942fe67", "lon": -76.98077833333333}, {"is_reserved": 0, "fusion_lon": 0.0, "fusion_lat": 0.0, "name": "0878fda791972cf066ad764c47fc631b", "type": "electric_bike", "is_disabled": 0, "lat": 38.90326533333333, "rental_uris": {"android": "https://dc.lft.to/lastmile_qr_scan", "ios": "https://dc.lft.to/lastmile_qr_scan"}, "bike_id": "0878fda791972cf066ad764c47fc631b", "lon": -76.97531783333334}, {"is_reserved": 0, "fusion_lon": 0.0, "fusion_lat": 0.0, "name": "70878cdf087ebfdd21881ee14c1e3c56", "type": "electric_scooter", "is_disabled": 0, "lat": 38.92948916666667, "rental_uris": {"android": "https://dc.lft.to/lastmile_qr_scan", "ios": "https://dc.lft.to/lastmile_qr_scan"}, "bike_id": "70878cdf087ebfdd21881ee14c1e3c56", "lon": -77.01652983333334}, {"is_reserved": 0, "fusion_lon": 0.0, "fusion_lat": 0.0, "name": "1e1bbd78ab7658709687d6f8fad5b273", "type": "electric_scooter", "is_disabled": 0, "lat": 38.93732716666667, "rental_uris": {"android": "https://dc.lft.to/lastmile_qr_scan", "ios": "https://dc.lft.to/lastmile_qr_scan"}, "bike_id": "1e1bbd78ab7658709687d6f8fad5b273", "lon": -77.03269683333333}, {"is_reserved": 0, "fusion_lon": 0.0, "fusion_lat": 0.0, "name": "409e60bb28442f930d136ba626af84c9", "type": "electric_scooter", "is_disabled": 0, "lat": 38.8860565, "rental_uris": {"android": "https://dc.lft.to/lastmile_qr_scan", "ios": "https://dc.lft.to/lastmile_qr_scan"}, "bike_id": "409e60bb28442f930d136ba626af84c9", "lon": -76.995123}, {"is_reserved": 0, "fusion_lon": 0.0, "fusion_lat": 0.0, "name": "8abd6a937c5d99223437cc5ff3fde543", "type": "electric_scooter", "is_disabled": 0, "lat": 38.933273, "rental_uris": {"android": "https://dc.lft.to/lastmile_qr_scan", "ios": "https://dc.lft.to/lastmile_qr_scan"}, "bike_id": "8abd6a937c5d99223437cc5ff3fde543", "lon": -77.023923}, {"is_reserved": 0, "fusion_lon": 0.0, "fusion_lat": 0.0, "name": "c5fac224d848814e4416fb8288c11121", "type": "electric_scooter", "is_disabled": 0, "lat": 38.920027833333336, "rental_uris": {"android": "https://dc.lft.to/lastmile_qr_scan", "ios": "https://dc.lft.to/lastmile_qr_scan"}, "bike_id": "c5fac224d848814e4416fb8288c11121", "lon": -77.04171616666666}, {"is_reserved": 0, "fusion_lon": 0.0, "fusion_lat": 0.0, "name": "d17a0c2325bec8a0611f6eb08a95bdcc", "type": "electric_bike", "is_disabled": 0, "lat": 38.9674095, "rental_uris": {"android": "https://dc.lft.to/lastmile_qr_scan", "ios": "https://dc.lft.to/lastmile_qr_scan"}, "bike_id": "d17a0c2325bec8a0611f6eb08a95bdcc", "lon": -76.96051016666667}, {"is_reserved": 0, "fusion_lon": 0.0, "fusion_lat": 0.0, "name": "ce77739aa661b4afbe30accb60191b65", "type": "electric_scooter", "is_disabled": 0, "lat": 38.91025616666667, "rental_uris": {"android": "https://dc.lft.to/lastmile_qr_scan", "ios": "https://dc.lft.to/lastmile_qr_scan"}, "bike_id": "ce77739aa661b4afbe30accb60191b65", "lon": -77.04300266666667}, {"is_reserved": 0, "fusion_lon": 0.0, "fusion_lat": 0.0, "name": "54f81103c3c6c564a66cb7dd7db310df", "type": "electric_bike", "is_disabled": 0, "lat": 38.89654216666667, "rental_uris": {"android": "https://dc.lft.to/lastmile_qr_scan", "ios": "https://dc.lft.to/lastmile_qr_scan"}, "bike_id": "54f81103c3c6c564a66cb7dd7db310df", "lon": -76.93006266666667}, {"is_reserved": 0, "fusion_lon": 0.0, "fusion_lat": 0.0, "name": "8e7a4d8c009adc7dbc76fbe7b74a987f", "type": "electric_scooter", "is_disabled": 0, "lat": 38.92437016666667, "rental_uris": {"android": "https://dc.lft.to/lastmile_qr_scan", "ios": "https://dc.lft.to/lastmile_qr_scan"}, "bike_id": "8e7a4d8c009adc7dbc76fbe7b74a987f", "lon": -77.03994566666667}, {"is_reserved": 0, "fusion_lon": 0.0, "fusion_lat": 0.0, "name": "780df8460fb1f6c5b76ccdc90c9dbf52", "type": "electric_scooter", "is_disabled": 0, "lat": 38.897340166666666, "rental_uris": {"android": "https://dc.lft.to/lastmile_qr_scan", "ios": "https://dc.lft.to/lastmile_qr_scan"}, "bike_id": "780df8460fb1f6c5b76ccdc90c9dbf52", "lon": -77.0553}, {"is_reserved": 0, "fusion_lon": 0.0, "fusion_lat": 0.0, "name": "9b5b2d401b5a608bf8074a688969dfa1", "type": "electric_scooter", "is_disabled": 0, "lat": 38.87192133333333, "rental_uris": {"android": "https://dc.lft.to/lastmile_qr_scan", "ios": "https://dc.lft.to/lastmile_qr_scan"}, "bike_id": "9b5b2d401b5a608bf8074a688969dfa1", "lon": -77.00582783333333}, {"is_reserved": 0, "fusion_lon": 0.0, "fusion_lat": 0.0, "name": "5e1237ceea71544b8bad3d92a3bb7e8b", "type": "electric_bike", "is_disabled": 0, "lat": 38.95762716666667, "rental_uris": {"android": "https://dc.lft.to/lastmile_qr_scan", "ios": "https://dc.lft.to/lastmile_qr_scan"}, "bike_id": "5e1237ceea71544b8bad3d92a3bb7e8b", "lon": -77.00711583333333}, {"is_reserved": 0, "fusion_lon": 0.0, "fusion_lat": 0.0, "name": "8f5b8139e56d690f35206f6d19211de4", "type": "electric_scooter", "is_disabled": 0, "lat": 38.865041166666664, "rental_uris": {"android": "https://dc.lft.to/lastmile_qr_scan", "ios": "https://dc.lft.to/lastmile_qr_scan"}, "bike_id": "8f5b8139e56d690f35206f6d19211de4", "lon": -76.98998716666667}, {"is_reserved": 0, "fusion_lon": 0.0, "fusion_lat": 0.0, "name": "c4189c2795cb91d64542c43336224efe", "type": "electric_scooter", "is_disabled": 0, "lat": 38.942018, "rental_uris": {"android": "https://dc.lft.to/lastmile_qr_scan", "ios": "https://dc.lft.to/lastmile_qr_scan"}, "bike_id": "c4189c2795cb91d64542c43336224efe", "lon": -77.02500816666667}, {"is_reserved": 0, "fusion_lon": 0.0, "fusion_lat": 0.0, "name": "cd3dcd411e6cd565c3fc1a95592526c3", "type": "electric_scooter", "is_disabled": 0, "lat": 38.91127566666667, "rental_uris": {"android": "https://dc.lft.to/lastmile_qr_scan", "ios": "https://dc.lft.to/lastmile_qr_scan"}, "bike_id": "cd3dcd411e6cd565c3fc1a95592526c3", "lon": -77.04434083333334}, {"is_reserved": 0, "fusion_lon": 0.0, "fusion_lat": 0.0, "name": "6b22d60ef9fa0f91246569e625ec43e1", "type": "electric_scooter", "is_disabled": 0, "lat": 38.9251125, "rental_uris": {"android": "https://dc.lft.to/lastmile_qr_scan", "ios": "https://dc.lft.to/lastmile_qr_scan"}, "bike_id": "6b22d60ef9fa0f91246569e625ec43e1", "lon": -77.00225416666666}, {"is_reserved": 0, "fusion_lon": 0.0, "fusion_lat": 0.0, "name": "910c56958707ccb1a3c21a153ff26a92", "type": "electric_scooter", "is_disabled": 0, "lat": 38.933394, "rental_uris": {"android": "https://dc.lft.to/lastmile_qr_scan", "ios": "https://dc.lft.to/lastmile_qr_scan"}, "bike_id": "910c56958707ccb1a3c21a153ff26a92", "lon": -77.02624583333333}, {"is_reserved": 0, "fusion_lon": 0.0, "fusion_lat": 0.0, "name": "0c039c6526cdf1f5f4206ff8af802a1c", "type": "electric_scooter", "is_disabled": 0, "lat": 38.90088, "rental_uris": {"android": "https://dc.lft.to/lastmile_qr_scan", "ios": "https://dc.lft.to/lastmile_qr_scan"}, "bike_id": "0c039c6526cdf1f5f4206ff8af802a1c", "lon": -76.930284}, {"is_reserved": 0, "fusion_lon": 0.0, "fusion_lat": 0.0, "name": "16e4a4012e0fa58f8593c8ef85408b95", "type": "electric_scooter", "is_disabled": 0, "lat": 38.89198016666667, "rental_uris": {"android": "https://dc.lft.to/lastmile_qr_scan", "ios": "https://dc.lft.to/lastmile_qr_scan"}, "bike_id": "16e4a4012e0fa58f8593c8ef85408b95", "lon": -76.95691066666667}, {"is_reserved": 0, "fusion_lon": 0.0, "fusion_lat": 0.0, "name": "7f6d6ee0dcc6456670de3b5339d2469f", "type": "electric_scooter", "is_disabled": 0, "lat": 38.88622466666666, "rental_uris": {"android": "https://dc.lft.to/lastmile_qr_scan", "ios": "https://dc.lft.to/lastmile_qr_scan"}, "bike_id": "7f6d6ee0dcc6456670de3b5339d2469f", "lon": -77.02008033333334}, {"is_reserved": 0, "fusion_lon": 0.0, "fusion_lat": 0.0, "name": "31f28d57da29d1d64fc3b472caf8b5a8", "type": "electric_scooter", "is_disabled": 0, "lat": 38.916433833333336, "rental_uris": {"android": "https://dc.lft.to/lastmile_qr_scan", "ios": "https://dc.lft.to/lastmile_qr_scan"}, "bike_id": "31f28d57da29d1d64fc3b472caf8b5a8", "lon": -77.02954516666667}, {"is_reserved": 0, "fusion_lon": 0.0, "fusion_lat": 0.0, "name": "8904f89c75828c8d572769b1d4cdeadc", "type": "electric_scooter", "is_disabled": 0, "lat": 38.898951333333336, "rental_uris": {"android": "https://dc.lft.to/lastmile_qr_scan", "ios": "https://dc.lft.to/lastmile_qr_scan"}, "bike_id": "8904f89c75828c8d572769b1d4cdeadc", "lon": -77.03285933333333}, {"is_reserved": 0, "fusion_lon": 0.0, "fusion_lat": 0.0, "name": "96d12cf2c8792ae0359b9ea4617de2b5", "type": "electric_scooter", "is_disabled": 0, "lat": 38.942551, "rental_uris": {"android": "https://dc.lft.to/lastmile_qr_scan", "ios": "https://dc.lft.to/lastmile_qr_scan"}, "bike_id": "96d12cf2c8792ae0359b9ea4617de2b5", "lon": -77.0413195}, {"is_reserved": 0, "fusion_lon": 0.0, "fusion_lat": 0.0, "name": "b1003328006af22ac7add378fb86e318", "type": "electric_scooter", "is_disabled": 0, "lat": 38.9132845, "rental_uris": {"android": "https://dc.lft.to/lastmile_qr_scan", "ios": "https://dc.lft.to/lastmile_qr_scan"}, "bike_id": "b1003328006af22ac7add378fb86e318", "lon": -77.01030916666667}, {"is_reserved": 0, "fusion_lon": 0.0, "fusion_lat": 0.0, "name": "8569bde1592c2af606f91ebacbd33816", "type": "electric_scooter", "is_disabled": 0, "lat": 38.91864916666667, "rental_uris": {"android": "https://dc.lft.to/lastmile_qr_scan", "ios": "https://dc.lft.to/lastmile_qr_scan"}, "bike_id": "8569bde1592c2af606f91ebacbd33816", "lon": -77.02555783333334}, {"is_reserved": 0, "fusion_lon": 0.0, "fusion_lat": 0.0, "name": "d88eaedf3242a92b7ba518c60d8d4170", "type": "electric_scooter", "is_disabled": 0, "lat": 38.921528, "rental_uris": {"android": "https://dc.lft.to/lastmile_qr_scan", "ios": "https://dc.lft.to/lastmile_qr_scan"}, "bike_id": "d88eaedf3242a92b7ba518c60d8d4170", "lon": -77.02096716666667}, {"is_reserved": 0, "fusion_lon": 0.0, "fusion_lat": 0.0, "name": "82a3de8b07861fbfab4e2c34698b4140", "type": "electric_scooter", "is_disabled": 0, "lat": 38.94261083333333, "rental_uris": {"android": "https://dc.lft.to/lastmile_qr_scan", "ios": "https://dc.lft.to/lastmile_qr_scan"}, "bike_id": "82a3de8b07861fbfab4e2c34698b4140", "lon": -77.02841633333334}, {"is_reserved": 0, "fusion_lon": 0.0, "fusion_lat": 0.0, "name": "fa04ad35ebcd4c7565927b8174f2aadd", "type": "electric_scooter", "is_disabled": 0, "lat": 38.91789983333334, "rental_uris": {"android": "https://dc.lft.to/lastmile_qr_scan", "ios": "https://dc.lft.to/lastmile_qr_scan"}, "bike_id": "fa04ad35ebcd4c7565927b8174f2aadd", "lon": -77.04028}, {"is_reserved": 0, "fusion_lon": 0.0, "fusion_lat": 0.0, "name": "fb5da6f32c77d6a4a6ba631cee02ad1b", "type": "electric_scooter", "is_disabled": 0, "lat": 38.88613866666667, "rental_uris": {"android": "https://dc.lft.to/lastmile_qr_scan", "ios": "https://dc.lft.to/lastmile_qr_scan"}, "bike_id": "fb5da6f32c77d6a4a6ba631cee02ad1b", "lon": -76.99649733333334}, {"is_reserved": 0, "fusion_lon": 0.0, "fusion_lat": 0.0, "name": "d8f4aacf2738d4d605b7a71ffc8a8a1d", "type": "electric_scooter", "is_disabled": 0, "lat": 38.92974383333333, "rental_uris": {"android": "https://dc.lft.to/lastmile_qr_scan", "ios": "https://dc.lft.to/lastmile_qr_scan"}, "bike_id": "d8f4aacf2738d4d605b7a71ffc8a8a1d", "lon": -77.0549955}, {"is_reserved": 0, "fusion_lon": 0.0, "fusion_lat": 0.0, "name": "f5fc2aa8fd8ae7d866e624bda188b01d", "type": "electric_scooter", "is_disabled": 0, "lat": 38.89815733333333, "rental_uris": {"android": "https://dc.lft.to/lastmile_qr_scan", "ios": "https://dc.lft.to/lastmile_qr_scan"}, "bike_id": "f5fc2aa8fd8ae7d866e624bda188b01d", "lon": -77.03990666666667}, {"is_reserved": 0, "fusion_lon": 0.0, "fusion_lat": 0.0, "name": "0257fd007e995e7b5e62e7e2d3e581b0", "type": "electric_bike", "is_disabled": 0, "lat": 38.94551166666667, "rental_uris": {"android": "https://dc.lft.to/lastmile_qr_scan", "ios": "https://dc.lft.to/lastmile_qr_scan"}, "bike_id": "0257fd007e995e7b5e62e7e2d3e581b0", "lon": -76.89537066666666}, {"is_reserved": 0, "fusion_lon": 0.0, "fusion_lat": 0.0, "name": "9ec04540e39e1d2032cd16a21d00f337", "type": "electric_scooter", "is_disabled": 0, "lat": 38.918119, "rental_uris": {"android": "https://dc.lft.to/lastmile_qr_scan", "ios": "https://dc.lft.to/lastmile_qr_scan"}, "bike_id": "9ec04540e39e1d2032cd16a21d00f337", "lon": -77.03565283333333}, {"is_reserved": 0, "fusion_lon": 0.0, "fusion_lat": 0.0, "name": "b023cd90c6654825911605096d4a46e2", "type": "electric_scooter", "is_disabled": 0, "lat": 38.882789333333335, "rental_uris": {"android": "https://dc.lft.to/lastmile_qr_scan", "ios": "https://dc.lft.to/lastmile_qr_scan"}, "bike_id": "b023cd90c6654825911605096d4a46e2", "lon": -76.98775666666667}, {"is_reserved": 0, "fusion_lon": 0.0, "fusion_lat": 0.0, "name": "6d84d845b7c566c6f364d8d8079a1903", "type": "electric_scooter", "is_disabled": 0, "lat": 38.93771233333333, "rental_uris": {"android": "https://dc.lft.to/lastmile_qr_scan", "ios": "https://dc.lft.to/lastmile_qr_scan"}, "bike_id": "6d84d845b7c566c6f364d8d8079a1903", "lon": -77.02459583333334}, {"is_reserved": 0, "fusion_lon": 0.0, "fusion_lat": 0.0, "name": "21eabb04c45e2a06ec562407f5b4950d", "type": "electric_scooter", "is_disabled": 0, "lat": 38.921443333333336, "rental_uris": {"android": "https://dc.lft.to/lastmile_qr_scan", "ios": "https://dc.lft.to/lastmile_qr_scan"}, "bike_id": "21eabb04c45e2a06ec562407f5b4950d", "lon": -77.020751}, {"is_reserved": 0, "fusion_lon": 0.0, "fusion_lat": 0.0, "name": "5e570abec9c391a3aa0e1e36d87ea5e1", "type": "electric_scooter", "is_disabled": 0, "lat": 38.89874, "rental_uris": {"android": "https://dc.lft.to/lastmile_qr_scan", "ios": "https://dc.lft.to/lastmile_qr_scan"}, "bike_id": "5e570abec9c391a3aa0e1e36d87ea5e1", "lon": -77.01401233333333}, {"is_reserved": 0, "fusion_lon": 0.0, "fusion_lat": 0.0, "name": "0b2df1c97eb47b25eed011ca1cface6e", "type": "electric_scooter", "is_disabled": 0, "lat": 38.935852833333335, "rental_uris": {"android": "https://dc.lft.to/lastmile_qr_scan", "ios": "https://dc.lft.to/lastmile_qr_scan"}, "bike_id": "0b2df1c97eb47b25eed011ca1cface6e", "lon": -77.058548}, {"is_reserved": 0, "fusion_lon": 0.0, "fusion_lat": 0.0, "name": "6659f7f3faa1ce3fa78ea37d1264614b", "type": "electric_scooter", "is_disabled": 0, "lat": 38.892280166666666, "rental_uris": {"android": "https://dc.lft.to/lastmile_qr_scan", "ios": "https://dc.lft.to/lastmile_qr_scan"}, "bike_id": "6659f7f3faa1ce3fa78ea37d1264614b", "lon": -77.0233745}, {"is_reserved": 0, "fusion_lon": 0.0, "fusion_lat": 0.0, "name": "ece7f03263f183f2fb209b094c4ad431", "type": "electric_scooter", "is_disabled": 0, "lat": 38.922766333333335, "rental_uris": {"android": "https://dc.lft.to/lastmile_qr_scan", "ios": "https://dc.lft.to/lastmile_qr_scan"}, "bike_id": "ece7f03263f183f2fb209b094c4ad431", "lon": -77.04019866666667}, {"is_reserved": 0, "fusion_lon": 0.0, "fusion_lat": 0.0, "name": "71d7470b89a2fe70e4ce2801ccfbd214", "type": "electric_scooter", "is_disabled": 0, "lat": 38.919530333333334, "rental_uris": {"android": "https://dc.lft.to/lastmile_qr_scan", "ios": "https://dc.lft.to/lastmile_qr_scan"}, "bike_id": "71d7470b89a2fe70e4ce2801ccfbd214", "lon": -77.01381}, {"is_reserved": 0, "fusion_lon": 0.0, "fusion_lat": 0.0, "name": "406971601ced8aec24197a8ec456e730", "type": "electric_scooter", "is_disabled": 0, "lat": 38.91804333333333, "rental_uris": {"android": "https://dc.lft.to/lastmile_qr_scan", "ios": "https://dc.lft.to/lastmile_qr_scan"}, "bike_id": "406971601ced8aec24197a8ec456e730", "lon": -77.03246266666666}, {"is_reserved": 0, "fusion_lon": 0.0, "fusion_lat": 0.0, "name": "26f980593309e91330cf94af790aaba2", "type": "electric_scooter", "is_disabled": 0, "lat": 38.92436883333333, "rental_uris": {"android": "https://dc.lft.to/lastmile_qr_scan", "ios": "https://dc.lft.to/lastmile_qr_scan"}, "bike_id": "26f980593309e91330cf94af790aaba2", "lon": -77.03402466666667}, {"is_reserved": 0, "fusion_lon": 0.0, "fusion_lat": 0.0, "name": "05029841d4eace26436f335a80cfa0cf", "type": "electric_scooter", "is_disabled": 0, "lat": 38.93154716666667, "rental_uris": {"android": "https://dc.lft.to/lastmile_qr_scan", "ios": "https://dc.lft.to/lastmile_qr_scan"}, "bike_id": "05029841d4eace26436f335a80cfa0cf", "lon": -77.04348516666667}, {"is_reserved": 0, "fusion_lon": 0.0, "fusion_lat": 0.0, "name": "084e1eb303bd30d7f3a6b43dbddaedd2", "type": "electric_scooter", "is_disabled": 0, "lat": 38.90234983333333, "rental_uris": {"android": "https://dc.lft.to/lastmile_qr_scan", "ios": "https://dc.lft.to/lastmile_qr_scan"}, "bike_id": "084e1eb303bd30d7f3a6b43dbddaedd2", "lon": -77.0396105}, {"is_reserved": 0, "fusion_lon": 0.0, "fusion_lat": 0.0, "name": "9dec04212359f2de61c6493bd483a4d8", "type": "electric_scooter", "is_disabled": 0, "lat": 38.924429333333336, "rental_uris": {"android": "https://dc.lft.to/lastmile_qr_scan", "ios": "https://dc.lft.to/lastmile_qr_scan"}, "bike_id": "9dec04212359f2de61c6493bd483a4d8", "lon": -77.0214675}, {"is_reserved": 0, "fusion_lon": 0.0, "fusion_lat": 0.0, "name": "6fdcfa79e3c22525243805e1307901e7", "type": "electric_scooter", "is_disabled": 0, "lat": 38.919059833333336, "rental_uris": {"android": "https://dc.lft.to/lastmile_qr_scan", "ios": "https://dc.lft.to/lastmile_qr_scan"}, "bike_id": "6fdcfa79e3c22525243805e1307901e7", "lon": -77.041699}, {"is_reserved": 0, "fusion_lon": 0.0, "fusion_lat": 0.0, "name": "2002385d74faf362a6fc9cedfded3a66", "type": "electric_scooter", "is_disabled": 0, "lat": 38.870800833333334, "rental_uris": {"android": "https://dc.lft.to/lastmile_qr_scan", "ios": "https://dc.lft.to/lastmile_qr_scan"}, "bike_id": "2002385d74faf362a6fc9cedfded3a66", "lon": -76.98906666666667}, {"is_reserved": 0, "fusion_lon": 0.0, "fusion_lat": 0.0, "name": "160d029fcf27c25d3cdae002b1747d8b", "type": "electric_scooter", "is_disabled": 0, "lat": 38.91661716666667, "rental_uris": {"android": "https://dc.lft.to/lastmile_qr_scan", "ios": "https://dc.lft.to/lastmile_qr_scan"}, "bike_id": "160d029fcf27c25d3cdae002b1747d8b", "lon": -77.03197883333333}, {"is_reserved": 0, "fusion_lon": 0.0, "fusion_lat": 0.0, "name": "278d65400ee930b34eae7ad67f10656a", "type": "electric_scooter", "is_disabled": 0, "lat": 38.91484233333333, "rental_uris": {"android": "https://dc.lft.to/lastmile_qr_scan", "ios": "https://dc.lft.to/lastmile_qr_scan"}, "bike_id": "278d65400ee930b34eae7ad67f10656a", "lon": -77.0258195}, {"is_reserved": 0, "fusion_lon": 0.0, "fusion_lat": 0.0, "name": "8fadbd120a3f157adcaa07a050e94778", "type": "electric_scooter", "is_disabled": 0, "lat": 38.92226266666667, "rental_uris": {"android": "https://dc.lft.to/lastmile_qr_scan", "ios": "https://dc.lft.to/lastmile_qr_scan"}, "bike_id": "8fadbd120a3f157adcaa07a050e94778", "lon": -77.04245516666667}, {"is_reserved": 0, "fusion_lon": 0.0, "fusion_lat": 0.0, "name": "edae05c9f34989b9f98f3a979cd1a824", "type": "electric_scooter", "is_disabled": 0, "lat": 38.904361333333334, "rental_uris": {"android": "https://dc.lft.to/lastmile_qr_scan", "ios": "https://dc.lft.to/lastmile_qr_scan"}, "bike_id": "edae05c9f34989b9f98f3a979cd1a824", "lon": -76.9848775}, {"is_reserved": 0, "fusion_lon": 0.0, "fusion_lat": 0.0, "name": "040182bc5ae2cc67c3454a9b79b1d96a", "type": "electric_scooter", "is_disabled": 0, "lat": 38.9238165, "rental_uris": {"android": "https://dc.lft.to/lastmile_qr_scan", "ios": "https://dc.lft.to/lastmile_qr_scan"}, "bike_id": "040182bc5ae2cc67c3454a9b79b1d96a", "lon": -77.03022483333334}, {"is_reserved": 0, "fusion_lon": 0.0, "fusion_lat": 0.0, "name": "b5396ac229c395b5f33837c82f5344cb", "type": "electric_scooter", "is_disabled": 0, "lat": 38.91955316666667, "rental_uris": {"android": "https://dc.lft.to/lastmile_qr_scan", "ios": "https://dc.lft.to/lastmile_qr_scan"}, "bike_id": "b5396ac229c395b5f33837c82f5344cb", "lon": -77.013864}, {"is_reserved": 0, "fusion_lon": 0.0, "fusion_lat": 0.0, "name": "4a091fa3a316787943b3795db9807329", "type": "electric_bike", "is_disabled": 0, "lat": 38.89959483333333, "rental_uris": {"android": "https://dc.lft.to/lastmile_qr_scan", "ios": "https://dc.lft.to/lastmile_qr_scan"}, "bike_id": "4a091fa3a316787943b3795db9807329", "lon": -76.98666983333334}, {"is_reserved": 0, "fusion_lon": 0.0, "fusion_lat": 0.0, "name": "eb2683addc561377e0bfe7975c2e19be", "type": "electric_scooter", "is_disabled": 0, "lat": 38.928619, "rental_uris": {"android": "https://dc.lft.to/lastmile_qr_scan", "ios": "https://dc.lft.to/lastmile_qr_scan"}, "bike_id": "eb2683addc561377e0bfe7975c2e19be", "lon": -77.01348533333334}, {"is_reserved": 0, "fusion_lon": 0.0, "fusion_lat": 0.0, "name": "6a2e216a963a18084fe61cb6a59323da", "type": "electric_bike", "is_disabled": 0, "lat": 38.9681635, "rental_uris": {"android": "https://dc.lft.to/lastmile_qr_scan", "ios": "https://dc.lft.to/lastmile_qr_scan"}, "bike_id": "6a2e216a963a18084fe61cb6a59323da", "lon": -77.07226983333334}, {"is_reserved": 0, "fusion_lon": 0.0, "fusion_lat": 0.0, "name": "8dafe9bc1a3b34ee26fb547df73497db", "type": "electric_scooter", "is_disabled": 0, "lat": 38.91328, "rental_uris": {"android": "https://dc.lft.to/lastmile_qr_scan", "ios": "https://dc.lft.to/lastmile_qr_scan"}, "bike_id": "8dafe9bc1a3b34ee26fb547df73497db", "lon": -77.04534833333334}, {"is_reserved": 0, "fusion_lon": 0.0, "fusion_lat": 0.0, "name": "8f06a675f91196a574c2dc6901945e3d", "type": "electric_scooter", "is_disabled": 0, "lat": 38.90069966666667, "rental_uris": {"android": "https://dc.lft.to/lastmile_qr_scan", "ios": "https://dc.lft.to/lastmile_qr_scan"}, "bike_id": "8f06a675f91196a574c2dc6901945e3d", "lon": -77.03224016666667}, {"is_reserved": 0, "fusion_lon": 0.0, "fusion_lat": 0.0, "name": "5b19e8117b937ea5bf7b7fd74e43dfe7", "type": "electric_scooter", "is_disabled": 0, "lat": 38.931375833333334, "rental_uris": {"android": "https://dc.lft.to/lastmile_qr_scan", "ios": "https://dc.lft.to/lastmile_qr_scan"}, "bike_id": "5b19e8117b937ea5bf7b7fd74e43dfe7", "lon": -77.07866283333334}, {"is_reserved": 0, "fusion_lon": 0.0, "fusion_lat": 0.0, "name": "f0759fde9340ef32c090e4e556f02446", "type": "electric_scooter", "is_disabled": 0, "lat": 38.896167166666665, "rental_uris": {"android": "https://dc.lft.to/lastmile_qr_scan", "ios": "https://dc.lft.to/lastmile_qr_scan"}, "bike_id": "f0759fde9340ef32c090e4e556f02446", "lon": -77.0298305}, {"is_reserved": 0, "fusion_lon": 0.0, "fusion_lat": 0.0, "name": "f0545f48325de916366140c9b868b673", "type": "electric_scooter", "is_disabled": 0, "lat": 38.90629883333333, "rental_uris": {"android": "https://dc.lft.to/lastmile_qr_scan", "ios": "https://dc.lft.to/lastmile_qr_scan"}, "bike_id": "f0545f48325de916366140c9b868b673", "lon": -77.05137466666666}, {"is_reserved": 0, "fusion_lon": 0.0, "fusion_lat": 0.0, "name": "d0f644b07c17cf117450a2d0e0cbb707", "type": "electric_bike", "is_disabled": 0, "lat": 39.0430345, "rental_uris": {"android": "https://dc.lft.to/lastmile_qr_scan", "ios": "https://dc.lft.to/lastmile_qr_scan"}, "bike_id": "d0f644b07c17cf117450a2d0e0cbb707", "lon": -77.051593}, {"is_reserved": 0, "fusion_lon": 0.0, "fusion_lat": 0.0, "name": "6a8bc200e833926740207c68230c6906", "type": "electric_scooter", "is_disabled": 0, "lat": 38.93709833333333, "rental_uris": {"android": "https://dc.lft.to/lastmile_qr_scan", "ios": "https://dc.lft.to/lastmile_qr_scan"}, "bike_id": "6a8bc200e833926740207c68230c6906", "lon": -77.02934433333333}, {"is_reserved": 0, "fusion_lon": 0.0, "fusion_lat": 0.0, "name": "34022f3714a9a620b2e6ecf3aed99967", "type": "electric_scooter", "is_disabled": 0, "lat": 38.86058883333333, "rental_uris": {"android": "https://dc.lft.to/lastmile_qr_scan", "ios": "https://dc.lft.to/lastmile_qr_scan"}, "bike_id": "34022f3714a9a620b2e6ecf3aed99967", "lon": -76.98502966666666}, {"is_reserved": 0, "fusion_lon": 0.0, "fusion_lat": 0.0, "name": "a307a34450851f42edb5ab62ade2645c", "type": "electric_scooter", "is_disabled": 0, "lat": 38.922166833333335, "rental_uris": {"android": "https://dc.lft.to/lastmile_qr_scan", "ios": "https://dc.lft.to/lastmile_qr_scan"}, "bike_id": "a307a34450851f42edb5ab62ade2645c", "lon": -77.04334433333334}, {"is_reserved": 0, "fusion_lon": 0.0, "fusion_lat": 0.0, "name": "3b4a0bf6320ed3fec3facabad42a8f22", "type": "electric_scooter", "is_disabled": 0, "lat": 38.896507666666665, "rental_uris": {"android": "https://dc.lft.to/lastmile_qr_scan", "ios": "https://dc.lft.to/lastmile_qr_scan"}, "bike_id": "3b4a0bf6320ed3fec3facabad42a8f22", "lon": -77.03332983333334}, {"is_reserved": 0, "fusion_lon": 0.0, "fusion_lat": 0.0, "name": "a9acf05a613f96a6c0c21a3f2ed076fb", "type": "electric_scooter", "is_disabled": 0, "lat": 38.892048833333334, "rental_uris": {"android": "https://dc.lft.to/lastmile_qr_scan", "ios": "https://dc.lft.to/lastmile_qr_scan"}, "bike_id": "a9acf05a613f96a6c0c21a3f2ed076fb", "lon": -77.0201065}, {"is_reserved": 0, "fusion_lon": 0.0, "fusion_lat": 0.0, "name": "38ae342d7a4534e83a1296073d775631", "type": "electric_scooter", "is_disabled": 0, "lat": 38.932855833333335, "rental_uris": {"android": "https://dc.lft.to/lastmile_qr_scan", "ios": "https://dc.lft.to/lastmile_qr_scan"}, "bike_id": "38ae342d7a4534e83a1296073d775631", "lon": -77.02308183333334}, {"is_reserved": 0, "fusion_lon": 0.0, "fusion_lat": 0.0, "name": "7bd0f351f38792d071dfd24c90854e33", "type": "electric_scooter", "is_disabled": 0, "lat": 38.90045383333333, "rental_uris": {"android": "https://dc.lft.to/lastmile_qr_scan", "ios": "https://dc.lft.to/lastmile_qr_scan"}, "bike_id": "7bd0f351f38792d071dfd24c90854e33", "lon": -77.012196}, {"is_reserved": 0, "fusion_lon": 0.0, "fusion_lat": 0.0, "name": "690d3599413b259756515036202858c8", "type": "electric_scooter", "is_disabled": 0, "lat": 38.896065166666666, "rental_uris": {"android": "https://dc.lft.to/lastmile_qr_scan", "ios": "https://dc.lft.to/lastmile_qr_scan"}, "bike_id": "690d3599413b259756515036202858c8", "lon": -76.99969833333333}, {"is_reserved": 0, "fusion_lon": 0.0, "fusion_lat": 0.0, "name": "668fad1e03472346309b449f1a5a745c", "type": "electric_bike", "is_disabled": 0, "lat": 38.9383355, "rental_uris": {"android": "https://dc.lft.to/lastmile_qr_scan", "ios": "https://dc.lft.to/lastmile_qr_scan"}, "bike_id": "668fad1e03472346309b449f1a5a745c", "lon": -76.99481883333333}, {"is_reserved": 0, "fusion_lon": 0.0, "fusion_lat": 0.0, "name": "8bb4e87f1d4f09a72005a94463f44f66", "type": "electric_scooter", "is_disabled": 0, "lat": 38.905952166666665, "rental_uris": {"android": "https://dc.lft.to/lastmile_qr_scan", "ios": "https://dc.lft.to/lastmile_qr_scan"}, "bike_id": "8bb4e87f1d4f09a72005a94463f44f66", "lon": -77.06416216666666}, {"is_reserved": 0, "fusion_lon": 0.0, "fusion_lat": 0.0, "name": "64532f95626c1bd61761c4dc26e36222", "type": "electric_scooter", "is_disabled": 0, "lat": 38.923668, "rental_uris": {"android": "https://dc.lft.to/lastmile_qr_scan", "ios": "https://dc.lft.to/lastmile_qr_scan"}, "bike_id": "64532f95626c1bd61761c4dc26e36222", "lon": -77.01917466666667}, {"is_reserved": 0, "fusion_lon": 0.0, "fusion_lat": 0.0, "name": "4a071645c2321c2b2faf48ad92bc23f3", "type": "electric_scooter", "is_disabled": 0, "lat": 38.91185483333334, "rental_uris": {"android": "https://dc.lft.to/lastmile_qr_scan", "ios": "https://dc.lft.to/lastmile_qr_scan"}, "bike_id": "4a071645c2321c2b2faf48ad92bc23f3", "lon": -77.004938}, {"is_reserved": 0, "fusion_lon": 0.0, "fusion_lat": 0.0, "name": "9100cadd436c8dc5b32c2527b876fd1a", "type": "electric_scooter", "is_disabled": 0, "lat": 38.90019483333333, "rental_uris": {"android": "https://dc.lft.to/lastmile_qr_scan", "ios": "https://dc.lft.to/lastmile_qr_scan"}, "bike_id": "9100cadd436c8dc5b32c2527b876fd1a", "lon": -77.03204333333333}, {"is_reserved": 0, "fusion_lon": 0.0, "fusion_lat": 0.0, "name": "e6342dc2a94440384a44cf0f92febb39", "type": "electric_scooter", "is_disabled": 0, "lat": 38.8777965, "rental_uris": {"android": "https://dc.lft.to/lastmile_qr_scan", "ios": "https://dc.lft.to/lastmile_qr_scan"}, "bike_id": "e6342dc2a94440384a44cf0f92febb39", "lon": -76.995093}, {"is_reserved": 0, "fusion_lon": 0.0, "fusion_lat": 0.0, "name": "22638fec0c999582897dafbfb63becb3", "type": "electric_scooter", "is_disabled": 0, "lat": 38.90508783333333, "rental_uris": {"android": "https://dc.lft.to/lastmile_qr_scan", "ios": "https://dc.lft.to/lastmile_qr_scan"}, "bike_id": "22638fec0c999582897dafbfb63becb3", "lon": -76.9960755}, {"is_reserved": 0, "fusion_lon": 0.0, "fusion_lat": 0.0, "name": "a1612a836ef2221293347308fdab9543", "type": "electric_scooter", "is_disabled": 0, "lat": 38.9243675, "rental_uris": {"android": "https://dc.lft.to/lastmile_qr_scan", "ios": "https://dc.lft.to/lastmile_qr_scan"}, "bike_id": "a1612a836ef2221293347308fdab9543", "lon": -77.04031483333333}, {"is_reserved": 0, "fusion_lon": 0.0, "fusion_lat": 0.0, "name": "165652fac349b27ca1aa8b049ab0dc95", "type": "electric_scooter", "is_disabled": 0, "lat": 38.90819316666666, "rental_uris": {"android": "https://dc.lft.to/lastmile_qr_scan", "ios": "https://dc.lft.to/lastmile_qr_scan"}, "bike_id": "165652fac349b27ca1aa8b049ab0dc95", "lon": -77.03914966666666}, {"is_reserved": 0, "fusion_lon": 0.0, "fusion_lat": 0.0, "name": "f7d8d2ea2bc825b717cb52790e0454db", "type": "electric_scooter", "is_disabled": 0, "lat": 38.9169265, "rental_uris": {"android": "https://dc.lft.to/lastmile_qr_scan", "ios": "https://dc.lft.to/lastmile_qr_scan"}, "bike_id": "f7d8d2ea2bc825b717cb52790e0454db", "lon": -77.02892816666666}, {"is_reserved": 0, "fusion_lon": 0.0, "fusion_lat": 0.0, "name": "b3b62369dc3960dbe97955b473b101dc", "type": "electric_scooter", "is_disabled": 0, "lat": 38.89881916666667, "rental_uris": {"android": "https://dc.lft.to/lastmile_qr_scan", "ios": "https://dc.lft.to/lastmile_qr_scan"}, "bike_id": "b3b62369dc3960dbe97955b473b101dc", "lon": -77.032707}, {"is_reserved": 0, "fusion_lon": 0.0, "fusion_lat": 0.0, "name": "fde0c10e1e4d8cf488c767d44aaa3f2b", "type": "electric_scooter", "is_disabled": 0, "lat": 38.907298, "rental_uris": {"android": "https://dc.lft.to/lastmile_qr_scan", "ios": "https://dc.lft.to/lastmile_qr_scan"}, "bike_id": "fde0c10e1e4d8cf488c767d44aaa3f2b", "lon": -76.98695216666667}, {"is_reserved": 0, "fusion_lon": 0.0, "fusion_lat": 0.0, "name": "77a6093c69c0a161cb44c8f508a87563", "type": "electric_scooter", "is_disabled": 0, "lat": 38.90729916666667, "rental_uris": {"android": "https://dc.lft.to/lastmile_qr_scan", "ios": "https://dc.lft.to/lastmile_qr_scan"}, "bike_id": "77a6093c69c0a161cb44c8f508a87563", "lon": -76.98633033333333}, {"is_reserved": 0, "fusion_lon": 0.0, "fusion_lat": 0.0, "name": "da0131fa408ec5235598ced24d82f17e", "type": "electric_scooter", "is_disabled": 0, "lat": 38.957339, "rental_uris": {"android": "https://dc.lft.to/lastmile_qr_scan", "ios": "https://dc.lft.to/lastmile_qr_scan"}, "bike_id": "da0131fa408ec5235598ced24d82f17e", "lon": -77.02408633333333}, {"is_reserved": 0, "fusion_lon": 0.0, "fusion_lat": 0.0, "name": "1f2ff410c43309a67022e0a4134e29f4", "type": "electric_scooter", "is_disabled": 0, "lat": 38.90013916666667, "rental_uris": {"android": "https://dc.lft.to/lastmile_qr_scan", "ios": "https://dc.lft.to/lastmile_qr_scan"}, "bike_id": "1f2ff410c43309a67022e0a4134e29f4", "lon": -76.9870175}, {"is_reserved": 0, "fusion_lon": 0.0, "fusion_lat": 0.0, "name": "3a44b3b85ce8911930c74777850d7dea", "type": "electric_scooter", "is_disabled": 0, "lat": 38.9037485, "rental_uris": {"android": "https://dc.lft.to/lastmile_qr_scan", "ios": "https://dc.lft.to/lastmile_qr_scan"}, "bike_id": "3a44b3b85ce8911930c74777850d7dea", "lon": -77.04265183333334}, {"is_reserved": 0, "fusion_lon": 0.0, "fusion_lat": 0.0, "name": "5b228b20638468608ff62199579c2450", "type": "electric_scooter", "is_disabled": 0, "lat": 38.932450333333335, "rental_uris": {"android": "https://dc.lft.to/lastmile_qr_scan", "ios": "https://dc.lft.to/lastmile_qr_scan"}, "bike_id": "5b228b20638468608ff62199579c2450", "lon": -77.030814}, {"is_reserved": 0, "fusion_lon": 0.0, "fusion_lat": 0.0, "name": "b1bc901272d6cf221939aad43d6f58e7", "type": "electric_scooter", "is_disabled": 0, "lat": 38.90345666666666, "rental_uris": {"android": "https://dc.lft.to/lastmile_qr_scan", "ios": "https://dc.lft.to/lastmile_qr_scan"}, "bike_id": "b1bc901272d6cf221939aad43d6f58e7", "lon": -76.98267683333333}, {"is_reserved": 0, "fusion_lon": 0.0, "fusion_lat": 0.0, "name": "de66fc70e31835c1ef64ba0e50e23823", "type": "electric_scooter", "is_disabled": 0, "lat": 38.91563433333334, "rental_uris": {"android": "https://dc.lft.to/lastmile_qr_scan", "ios": "https://dc.lft.to/lastmile_qr_scan"}, "bike_id": "de66fc70e31835c1ef64ba0e50e23823", "lon": -77.02410233333333}, {"is_reserved": 0, "fusion_lon": 0.0, "fusion_lat": 0.0, "name": "7aefedc2a8c687a3dfc63bbfe94d2e04", "type": "electric_scooter", "is_disabled": 0, "lat": 38.91497066666667, "rental_uris": {"android": "https://dc.lft.to/lastmile_qr_scan", "ios": "https://dc.lft.to/lastmile_qr_scan"}, "bike_id": "7aefedc2a8c687a3dfc63bbfe94d2e04", "lon": -77.01993616666667}, {"is_reserved": 0, "fusion_lon": 0.0, "fusion_lat": 0.0, "name": "4c31fd1cfa20f3d5834920a6263ac71f", "type": "electric_scooter", "is_disabled": 0, "lat": 38.877110333333334, "rental_uris": {"android": "https://dc.lft.to/lastmile_qr_scan", "ios": "https://dc.lft.to/lastmile_qr_scan"}, "bike_id": "4c31fd1cfa20f3d5834920a6263ac71f", "lon": -77.0174185}, {"is_reserved": 0, "fusion_lon": 0.0, "fusion_lat": 0.0, "name": "074bce805c961e3e5ca6d1d8f7d9acd2", "type": "electric_scooter", "is_disabled": 0, "lat": 38.899775166666664, "rental_uris": {"android": "https://dc.lft.to/lastmile_qr_scan", "ios": "https://dc.lft.to/lastmile_qr_scan"}, "bike_id": "074bce805c961e3e5ca6d1d8f7d9acd2", "lon": -76.98371316666666}, {"is_reserved": 0, "fusion_lon": 0.0, "fusion_lat": 0.0, "name": "91951a05981ac6fb333934a99e8a2bc6", "type": "electric_scooter", "is_disabled": 0, "lat": 38.90513333333333, "rental_uris": {"android": "https://dc.lft.to/lastmile_qr_scan", "ios": "https://dc.lft.to/lastmile_qr_scan"}, "bike_id": "91951a05981ac6fb333934a99e8a2bc6", "lon": -77.04777816666666}, {"is_reserved": 0, "fusion_lon": 0.0, "fusion_lat": 0.0, "name": "2affb1b9bf16c9cd1d050b4221d76e33", "type": "electric_bike", "is_disabled": 0, "lat": 38.872771666666665, "rental_uris": {"android": "https://dc.lft.to/lastmile_qr_scan", "ios": "https://dc.lft.to/lastmile_qr_scan"}, "bike_id": "2affb1b9bf16c9cd1d050b4221d76e33", "lon": -77.2332575}, {"is_reserved": 0, "fusion_lon": 0.0, "fusion_lat": 0.0, "name": "98ecd01677f76e4df53f6fe17782ad83", "type": "electric_scooter", "is_disabled": 0, "lat": 38.90748283333333, "rental_uris": {"android": "https://dc.lft.to/lastmile_qr_scan", "ios": "https://dc.lft.to/lastmile_qr_scan"}, "bike_id": "98ecd01677f76e4df53f6fe17782ad83", "lon": -76.98508216666667}, {"is_reserved": 0, "fusion_lon": 0.0, "fusion_lat": 0.0, "name": "33d58f3ab8b2a703ff94c2a447bff3c0", "type": "electric_scooter", "is_disabled": 0, "lat": 38.910715833333335, "rental_uris": {"android": "https://dc.lft.to/lastmile_qr_scan", "ios": "https://dc.lft.to/lastmile_qr_scan"}, "bike_id": "33d58f3ab8b2a703ff94c2a447bff3c0", "lon": -77.02204516666667}, {"is_reserved": 0, "fusion_lon": 0.0, "fusion_lat": 0.0, "name": "5f0640abe7de82b9c6e3761af05756ed", "type": "electric_scooter", "is_disabled": 0, "lat": 38.9167615, "rental_uris": {"android": "https://dc.lft.to/lastmile_qr_scan", "ios": "https://dc.lft.to/lastmile_qr_scan"}, "bike_id": "5f0640abe7de82b9c6e3761af05756ed", "lon": -77.02949066666666}, {"is_reserved": 0, "fusion_lon": 0.0, "fusion_lat": 0.0, "name": "a60b6b95ccf30d41ae2103a92a152bd8", "type": "electric_scooter", "is_disabled": 0, "lat": 38.913719, "rental_uris": {"android": "https://dc.lft.to/lastmile_qr_scan", "ios": "https://dc.lft.to/lastmile_qr_scan"}, "bike_id": "a60b6b95ccf30d41ae2103a92a152bd8", "lon": -77.04159583333333}, {"is_reserved": 0, "fusion_lon": 0.0, "fusion_lat": 0.0, "name": "c135105e3a858f096f34306b2233bdce", "type": "electric_scooter", "is_disabled": 0, "lat": 38.901651333333334, "rental_uris": {"android": "https://dc.lft.to/lastmile_qr_scan", "ios": "https://dc.lft.to/lastmile_qr_scan"}, "bike_id": "c135105e3a858f096f34306b2233bdce", "lon": -77.06015016666667}, {"is_reserved": 0, "fusion_lon": 0.0, "fusion_lat": 0.0, "name": "96332e504febdff37f65535f7fe40368", "type": "electric_scooter", "is_disabled": 0, "lat": 38.9012165, "rental_uris": {"android": "https://dc.lft.to/lastmile_qr_scan", "ios": "https://dc.lft.to/lastmile_qr_scan"}, "bike_id": "96332e504febdff37f65535f7fe40368", "lon": -77.04025633333333},