{"data": {"bikes": [{"is_reserved": 0, "lat": 38.89768383333333, "is_disabled": 0, "type": "electric_scooter", "fusion_lat": 0.0, "bike_id": "269493e9a7ed5d7168045edcfe0ba74a", "rental_uris": {"ios": "https://dc.lft.to/lastmile_qr_scan", "android": "https://dc.lft.to/lastmile_qr_scan"}, "fusion_lon": 0.0, "name": "269493e9a7ed5d7168045edcfe0ba74a", "lon": -77.0122625}, {"is_reserved": 0, "lat": 38.88426066666667, "is_disabled": 0, "type": "electric_scooter", "fusion_lat": 0.0, "bike_id": "d774c6485e8cdeda460863ed656cd691", "rental_uris": {"ios": "https://dc.lft.to/lastmile_qr_scan", "android": "https://dc.lft.to/lastmile_qr_scan"}, "fusion_lon": 0.0, "name": "d774c6485e8cdeda460863ed656cd691", "lon": -76.9575295}, {"is_reserved": 0, "lat": 38.92897116666666, "is_disabled": 0, "type": "electric_bike", "fusion_lat": 0.0, "bike_id": "f0c4efbebef71a21b9b29f0139ec7c69", "rental_uris": {"ios": "https://dc.lft.to/lastmile_qr_scan", "android": "https://dc.lft.to/lastmile_qr_scan"}, "fusion_lon": 0.0, "name": "f0c4efbebef71a21b9b29f0139ec7c69", "lon": -77.10600916666667}, {"is_reserved": 0, "lat": 38.915253166666666, "is_disabled": 0, "type": "electric_scooter", "fusion_lat": 0.0, "bike_id": "5c6d76db6ccead02bf1b172fc4a1fbb2", "rental_uris": {"ios": "https://dc.lft.to/lastmile_qr_scan", "android": "https://dc.lft.to/lastmile_qr_scan"}, "fusion_lon": 0.0, "name": "5c6d76db6ccead02bf1b172fc4a1fbb2", "lon": -77.04864566666667}, {"is_reserved": 0, "lat": 38.90158616666667, "is_disabled": 0, "type": "electric_scooter", "fusion_lat": 0.0, "bike_id": "e873cf37cd7bb61f127fa3e6d57c8a40", "rental_uris": {"ios": "https://dc.lft.to/lastmile_qr_scan", "android": "https://dc.lft.to/lastmile_qr_scan"}, "fusion_lon": 0.0, "name": "e873cf37cd7bb61f127fa3e6d57c8a40", "lon": -76.9807795}, {"is_reserved": 0, "lat": 38.893590333333336, "is_disabled": 0, "type": "electric_scooter", "fusion_lat": 0.0, "bike_id": "e2e3aacfc8c472e6081027223606aa68", "rental_uris": {"ios": "https://dc.lft.to/lastmile_qr_scan", "android": "https://dc.lft.to/lastmile_qr_scan"}, "fusion_lon": 0.0, "name": "e2e3aacfc8c472e6081027223606aa68", "lon": -76.94969466666667}, {"is_reserved": 0, "lat": 38.90863616666667, "is_disabled": 0, "type": "electric_scooter", "fusion_lat": 0.0, "bike_id": "2f80258791b63fd0892de94499a97ab3", "rental_uris": {"ios": "https://dc.lft.to/lastmile_qr_scan", "android": "https://dc.lft.to/lastmile_qr_scan"}, "fusion_lon": 0.0, "name": "2f80258791b63fd0892de94499a97ab3", "lon": -77.043599}, {"is_reserved": 0, "lat": 38.9055295, "is_disabled": 0, "type": "electric_scooter", "fusion_lat": 0.0, "bike_id": "5405e01afbc38349706c7d428f79333d", "rental_uris": {"ios": "https://dc.lft.to/lastmile_qr_scan", "android": "https://dc.lft.to/lastmile_qr_scan"}, "fusion_lon": 0.0, "name": "5405e01afbc38349706c7d428f79333d", "lon": -77.034692}, {"is_reserved": 0, "lat": 38.911615, "is_disabled": 0, "type": "electric_scooter", "fusion_lat": 0.0, "bike_id": "87d2bb0e0da1044f1ec1172a563dac31", "rental_uris": {"ios": "https://dc.lft.to/lastmile_qr_scan", "android": "https://dc.lft.to/lastmile_qr_scan"}, "fusion_lon": 0.0, "name": "87d2bb0e0da1044f1ec1172a563dac31", "lon": -77.04479016666667}, {"is_reserved": 0, "lat": 38.90848183333333, "is_disabled": 0, "type": "electric_scooter", "fusion_lat": 0.0, "bike_id": "7c1dae292eaaedcca62a8eb80bfa3280", "rental_uris": {"ios": "https://dc.lft.to/lastmile_qr_scan", "android": "https://dc.lft.to/lastmile_qr_scan"}, "fusion_lon": 0.0, "name": "7c1dae292eaaedcca62a8eb80bfa3280", "lon": -77.04481883333334}, {"is_reserved": 0, "lat": 38.9072665, "is_disabled": 0, "type": "electric_scooter", "fusion_lat": 0.0, "bike_id": "e25f4466d7dc79d3c2ef064df7558479", "rental_uris": {"ios": "https://dc.lft.to/lastmile_qr_scan", "android": "https://dc.lft.to/lastmile_qr_scan"}, "fusion_lon": 0.0, "name": "e25f4466d7dc79d3c2ef064df7558479", "lon": -77.00707316666667}, {"is_reserved": 0, "lat": 38.844217666666665, "is_disabled": 0, "type": "electric_scooter", "fusion_lat": 0.0, "bike_id": "41a539235e35e58c3415a82cb0122e65", "rental_uris": {"ios": "https://dc.lft.to/lastmile_qr_scan", "android": "https://dc.lft.to/lastmile_qr_scan"}, "fusion_lon": 0.0, "name": "41a539235e35e58c3415a82cb0122e65", "lon": -76.99775066666666}, {"is_reserved": 0, "lat": 38.9156095, "is_disabled": 0, "type": "electric_scooter", "fusion_lat": 0.0, "bike_id": "363a2e71d2ed66a147653645e1bc0cf8", "rental_uris": {"ios": "https://dc.lft.to/lastmile_qr_scan", "android": "https://dc.lft.to/lastmile_qr_scan"}, "fusion_lon": 0.0, "name": "363a2e71d2ed66a147653645e1bc0cf8", "lon": -77.03119183333334}, {"is_reserved": 0, "lat": 38.903093, "is_disabled": 0, "type": "electric_scooter", "fusion_lat": 0.0, "bike_id": "8b9a800842b60d713b0247d3fac29178", "rental_uris": {"ios": "https://dc.lft.to/lastmile_qr_scan", "android": "https://dc.lft.to/lastmile_qr_scan"}, "fusion_lon": 0.0, "name": "8b9a800842b60d713b0247d3fac29178", "lon": -77.01197683333334}, {"is_reserved": 0, "lat": 38.91676966666667, "is_disabled": 0, "type": "electric_scooter", "fusion_lat": 0.0, "bike_id": "1d10f0495e127ef27fe66f6a06a7c960", "rental_uris": {"ios": "https://dc.lft.to/lastmile_qr_scan", "android": "https://dc.lft.to/lastmile_qr_scan"}, "fusion_lon": 0.0, "name": "1d10f0495e127ef27fe66f6a06a7c960", "lon": -77.01574183333334}, {"is_reserved": 0, "lat": 38.92014533333333, "is_disabled": 0, "type": "electric_scooter", "fusion_lat": 0.0, "bike_id": "70a590b4f4d33d38a66c9d4ea0095283", "rental_uris": {"ios": "https://dc.lft.to/lastmile_qr_scan", "android": "https://dc.lft.to/lastmile_qr_scan"}, "fusion_lon": 0.0, "name": "70a590b4f4d33d38a66c9d4ea0095283", "lon": -77.03769833333334}, {"is_reserved": 0, "lat": 38.89848416666667, "is_disabled": 0, "type": "electric_scooter", "fusion_lat": 0.0, "bike_id": "b230f7cbad03911ecf02f6862ecedf68", "rental_uris": {"ios": "https://dc.lft.to/lastmile_qr_scan", "android": "https://dc.lft.to/lastmile_qr_scan"}, "fusion_lon": 0.0, "name": "b230f7cbad03911ecf02f6862ecedf68", "lon": -77.02707316666667}, {"is_reserved": 0, "lat": 38.918211, "is_disabled": 0, "type": "electric_scooter", "fusion_lat": 0.0, "bike_id": "5190afa89ddfe2687559634d3fe764dd", "rental_uris": {"ios": "https://dc.lft.to/lastmile_qr_scan", "android": "https://dc.lft.to/lastmile_qr_scan"}, "fusion_lon": 0.0, "name": "5190afa89ddfe2687559634d3fe764dd", "lon": -77.05878416666667}, {"is_reserved": 0, "lat": 38.888105, "is_disabled": 0, "type": "electric_scooter", "fusion_lat": 0.0, "bike_id": "b54a8c6224ee919aeb4b08a85dd91048", "rental_uris": {"ios": "https://dc.lft.to/lastmile_qr_scan", "android": "https://dc.lft.to/lastmile_qr_scan"}, "fusion_lon": 0.0, "name": "b54a8c6224ee919aeb4b08a85dd91048", "lon": -76.93341916666667}, {"is_reserved": 0, "lat": 38.89222383333333, "is_disabled": 0, "type": "electric_scooter", "fusion_lat": 0.0, "bike_id": "2fec1f42d6147b9edaeb288fbd06c547", "rental_uris": {"ios": "https://dc.lft.to/lastmile_qr_scan", "android": "https://dc.lft.to/lastmile_qr_scan"}, "fusion_lon": 0.0, "name": "2fec1f42d6147b9edaeb288fbd06c547", "lon": -77.02369216666666}, {"is_reserved": 0, "lat": 38.90339216666667, "is_disabled": 0, "type": "electric_bike", "fusion_lat": 0.0, "bike_id": "7085e2fa2de26cdd452cc45a06dcd619", "rental_uris": {"ios": "https://dc.lft.to/lastmile_qr_scan", "android": "https://dc.lft.to/lastmile_qr_scan"}, "fusion_lon": 0.0, "name": "7085e2fa2de26cdd452cc45a06dcd619", "lon": -77.01623833333333}, {"is_reserved": 0, "lat": 38.86696283333333, "is_disabled": 0, "type": "electric_scooter", "fusion_lat": 0.0, "bike_id": "ff3e270c8c8934e4aa9cd482cbcbe1dd", "rental_uris": {"ios": "https://dc.lft.to/lastmile_qr_scan", "android": "https://dc.lft.to/lastmile_qr_scan"}, "fusion_lon": 0.0, "name": "ff3e270c8c8934e4aa9cd482cbcbe1dd", "lon": -76.98396016666666}, {"is_reserved": 0, "lat": 38.89739516666667, "is_disabled": 0, "type": "electric_scooter", "fusion_lat": 0.0, "bike_id": "9e02af85ebdecbe7ea6db220731295da", "rental_uris": {"ios": "https://dc.lft.to/lastmile_qr_scan", "android": "https://dc.lft.to/lastmile_qr_scan"}, "fusion_lon": 0.0, "name": "9e02af85ebdecbe7ea6db220731295da", "lon": -77.02711583333334}, {"is_reserved": 0, "lat": 38.905975, "is_disabled": 0, "type": "electric_scooter", "fusion_lat": 0.0, "bike_id": "60fdfa9cd64811f7de51656352eec2cb", "rental_uris": {"ios": "https://dc.lft.to/lastmile_qr_scan", "android": "https://dc.lft.to/lastmile_qr_scan"}, "fusion_lon": 0.0, "name": "60fdfa9cd64811f7de51656352eec2cb", "lon": -77.04339816666666}, {"is_reserved": 0, "lat": 38.900892166666665, "is_disabled": 0, "type": "electric_scooter", "fusion_lat": 0.0, "bike_id": "b971943804210a7d4d9b724c5907f7ec", "rental_uris": {"ios": "https://dc.lft.to/lastmile_qr_scan", "android": "https://dc.lft.to/lastmile_qr_scan"}, "fusion_lon": 0.0, "name": "b971943804210a7d4d9b724c5907f7ec", "lon": -77.02794916666667}, {"is_reserved": 0, "lat": 38.907565, "is_disabled": 0, "type": "electric_scooter", "fusion_lat": 0.0, "bike_id": "ec6014cf0a18412efe867cd20136e191", "rental_uris": {"ios": "https://dc.lft.to/lastmile_qr_scan", "android": "https://dc.lft.to/lastmile_qr_scan"}, "fusion_lon": 0.0, "name": "ec6014cf0a18412efe867cd20136e191", "lon": -77.03465533333333}, {"is_reserved": 0, "lat": 38.9178295, "is_disabled": 0, "type": "electric_scooter", "fusion_lat": 0.0, "bike_id": "1763f1e6851d627e0265b0330fba62aa", "rental_uris": {"ios": "https://dc.lft.to/lastmile_qr_scan", "android": "https://dc.lft.to/lastmile_qr_scan"}, "fusion_lon": 0.0, "name": "1763f1e6851d627e0265b0330fba62aa", "lon": -76.97323183333333}, {"is_reserved": 0, "lat": 38.886043666666666, "is_disabled": 0, "type": "electric_scooter", "fusion_lat": 0.0, "bike_id": "ad660a17ba3fb9323c5bc0b81c6df890", "rental_uris": {"ios": "https://dc.lft.to/lastmile_qr_scan", "android": "https://dc.lft.to/lastmile_qr_scan"}, "fusion_lon": 0.0, "name": "ad660a17ba3fb9323c5bc0b81c6df890", "lon": -77.00357366666667}, {"is_reserved": 0, "lat": 38.841103833333335, "is_disabled": 0, "type": "electric_bike", "fusion_lat": 0.0, "bike_id": "ca27bdabdfbbeb6f1f09ac81df5638ec", "rental_uris": {"ios": "https://dc.lft.to/lastmile_qr_scan", "android": "https://dc.lft.to/lastmile_qr_scan"}, "fusion_lon": 0.0, "name": "ca27bdabdfbbeb6f1f09ac81df5638ec", "lon": -77.0894635}, {"is_reserved": 0, "lat": 38.91008933333333, "is_disabled": 0, "type": "electric_scooter", "fusion_lat": 0.0, "bike_id": "afe9adb372f96e37d3073d8b67494e15", "rental_uris": {"ios": "https://dc.lft.to/lastmile_qr_scan", "android": "https://dc.lft.to/lastmile_qr_scan"}, "fusion_lon": 0.0, "name": "afe9adb372f96e37d3073d8b67494e15", "lon": -77.02203883333334}, {"is_reserved": 0, "lat": 38.90945133333334, "is_disabled": 0, "type": "electric_scooter", "fusion_lat": 0.0, "bike_id": "ea136b227f94917f103939ccab7094f2", "rental_uris": {"ios": "https://dc.lft.to/lastmile_qr_scan", "android": "https://dc.lft.to/lastmile_qr_scan"}, "fusion_lon": 0.0, "name": "ea136b227f94917f103939ccab7094f2", "lon": -77.03443233333333}, {"is_reserved": 0, "lat": 39.07494033333333, "is_disabled": 0, "type": "electric_bike", "fusion_lat": 0.0, "bike_id": "9fe455ad27d581ad937b69e686cb8f5e", "rental_uris": {"ios": "https://dc.lft.to/lastmile_qr_scan", "android": "https://dc.lft.to/lastmile_qr_scan"}, "fusion_lon": 0.0, "name": "9fe455ad27d581ad937b69e686cb8f5e", "lon": -77.11599233333334}, {"is_reserved": 0, "lat": 38.89942683333334, "is_disabled": 0, "type": "electric_scooter", "fusion_lat": 0.0, "bike_id": "3208dccc58163751d819150dca32080f", "rental_uris": {"ios": "https://dc.lft.to/lastmile_qr_scan", "android": "https://dc.lft.to/lastmile_qr_scan"}, "fusion_lon": 0.0, "name": "3208dccc58163751d819150dca32080f", "lon": -77.0467135}, {"is_reserved": 0, "lat": 38.880934, "is_disabled": 0, "type": "electric_scooter", "fusion_lat": 0.0, "bike_id": "48dd9522f8731d7a9e52f9c218f3691c", "rental_uris": {"ios": "https://dc.lft.to/lastmile_qr_scan", "android": "https://dc.lft.to/lastmile_qr_scan"}, "fusion_lon": 0.0, "name": "48dd9522f8731d7a9e52f9c218f3691c", "lon": -77.01667}, {"is_reserved": 0, "lat": 38.88153716666667, "is_disabled": 0, "type": "electric_scooter", "fusion_lat": 0.0, "bike_id": "42993ab04156563af45cec816ef2d6c9", "rental_uris": {"ios": "https://dc.lft.to/lastmile_qr_scan", "android": "https://dc.lft.to/lastmile_qr_scan"}, "fusion_lon": 0.0, "name": "42993ab04156563af45cec816ef2d6c9", "lon": -77.02705516666667}, {"is_reserved": 0, "lat": 38.8133135, "is_disabled": 0, "type": "electric_bike", "fusion_lat": 0.0, "bike_id": "b7f026b6983bb20b741195340ec27eae", "rental_uris": {"ios": "https://dc.lft.to/lastmile_qr_scan", "android": "https://dc.lft.to/lastmile_qr_scan"}, "fusion_lon": 0.0, "name": "b7f026b6983bb20b741195340ec27eae", "lon": -77.05088933333333}, {"is_reserved": 0, "lat": 38.9090595, "is_disabled": 0, "type": "electric_scooter", "fusion_lat": 0.0, "bike_id": "d2bf96d73070343bd6b911af826672ca", "rental_uris": {"ios": "https://dc.lft.to/lastmile_qr_scan", "android": "https://dc.lft.to/lastmile_qr_scan"}, "fusion_lon": 0.0, "name": "d2bf96d73070343bd6b911af826672ca", "lon": -76.99780083333333}, {"is_reserved": 0, "lat": 38.96929683333333, "is_disabled": 0, "type": "electric_bike", "fusion_lat": 0.0, "bike_id": "c1e34261b71f8ca8ad0913f11e0d35d5", "rental_uris": {"ios": "https://dc.lft.to/lastmile_qr_scan", "android": "https://dc.lft.to/lastmile_qr_scan"}, "fusion_lon": 0.0, "name": "c1e34261b71f8ca8ad0913f11e0d35d5", "lon": -77.02619766666666}, {"is_reserved": 0, "lat": 38.890099166666666, "is_disabled": 0, "type": "electric_scooter", "fusion_lat": 0.0, "bike_id": "b5faf717671ae5d8c1f8307e8cf083f3", "rental_uris": {"ios": "https://dc.lft.to/lastmile_qr_scan", "android": "https://dc.lft.to/lastmile_qr_scan"}, "fusion_lon": 0.0, "name": "b5faf717671ae5d8c1f8307e8cf083f3", "lon": -76.93732883333334}, {"is_reserved": 0, "lat": 38.91007483333333, "is_disabled": 0, "type": "electric_scooter", "fusion_lat": 0.0, "bike_id": "f8e73959c14723fb2720c879be919420", "rental_uris": {"ios": "https://dc.lft.to/lastmile_qr_scan", "android": "https://dc.lft.to/lastmile_qr_scan"}, "fusion_lon": 0.0, "name": "f8e73959c14723fb2720c879be919420", "lon": -77.03841566666667}, {"is_reserved": 0, "lat": 38.92654183333333, "is_disabled": 0, "type": "electric_scooter", "fusion_lat": 0.0, "bike_id": "3479ae72cfee8cd1da13276d91d3e339", "rental_uris": {"ios": "https://dc.lft.to/lastmile_qr_scan", "android": "https://dc.lft.to/lastmile_qr_scan"}, "fusion_lon": 0.0, "name": "3479ae72cfee8cd1da13276d91d3e339", "lon": -77.02422583333333}, {"is_reserved": 0, "lat": 38.871778, "is_disabled": 0, "type": "electric_scooter", "fusion_lat": 0.0, "bike_id": "15e907839b2169e0434d6a19cf30fb21", "rental_uris": {"ios": "https://dc.lft.to/lastmile_qr_scan", "android": "https://dc.lft.to/lastmile_qr_scan"}, "fusion_lon": 0.0, "name": "15e907839b2169e0434d6a19cf30fb21", "lon": -77.00610516666667}, {"is_reserved": 0, "lat": 38.9061315, "is_disabled": 0, "type": "electric_scooter", "fusion_lat": 0.0, "bike_id": "3f15dc52d109d4c9ed20f83b53c1136f", "rental_uris": {"ios": "https://dc.lft.to/lastmile_qr_scan", "android": "https://dc.lft.to/lastmile_qr_scan"}, "fusion_lon": 0.0, "name": "3f15dc52d109d4c9ed20f83b53c1136f", "lon": -77.03643083333333}, {"is_reserved": 0, "lat": 38.9169765, "is_disabled": 0, "type": "electric_scooter", "fusion_lat": 0.0, "bike_id": "e8a8b053916b1d849d4ce9a133c4b781", "rental_uris": {"ios": "https://dc.lft.to/lastmile_qr_scan", "android": "https://dc.lft.to/lastmile_qr_scan"}, "fusion_lon": 0.0, "name": "e8a8b053916b1d849d4ce9a133c4b781", "lon": -77.035293}, {"is_reserved": 0, "lat": 38.966104666666666, "is_disabled": 0, "type": "electric_bike", "fusion_lat": 0.0, "bike_id": "3164d0af3af8a590c2f0081ff126bd65", "rental_uris": {"ios": "https://dc.lft.to/lastmile_qr_scan", "android": "https://dc.lft.to/lastmile_qr_scan"}, "fusion_lon": 0.0, "name": "3164d0af3af8a590c2f0081ff126bd65", "lon": -77.03423533333333}, {"is_reserved": 0, "lat": 38.876275, "is_disabled": 0, "type": "electric_scooter", "fusion_lat": 0.0, "bike_id": "23eaef2e96feac5d9acaf85999c2c981", "rental_uris": {"ios": "https://dc.lft.to/lastmile_qr_scan", "android": "https://dc.lft.to/lastmile_qr_scan"}, "fusion_lon": 0.0, "name": "23eaef2e96feac5d9acaf85999c2c981", "lon": -76.96525483333333}, {"is_reserved": 0, "lat": 38.92139316666667, "is_disabled": 0, "type": "electric_scooter", "fusion_lat": 0.0, "bike_id": "20734a18c1e9ec64eabd8ac6ba62a987", "rental_uris": {"ios": "https://dc.lft.to/lastmile_qr_scan", "android": "https://dc.lft.to/lastmile_qr_scan"}, "fusion_lon": 0.0, "name": "20734a18c1e9ec64eabd8ac6ba62a987", "lon": -77.04119733333333}, {"is_reserved": 0, "lat": 38.91588616666667, "is_disabled": 0, "type": "electric_scooter", "fusion_lat": 0.0, "bike_id": "d5dde4df34a9fc9fe5b871f4c5d6540f", "rental_uris": {"ios": "https://dc.lft.to/lastmile_qr_scan", "android": "https://dc.lft.to/lastmile_qr_scan"}, "fusion_lon": 0.0, "name": "d5dde4df34a9fc9fe5b871f4c5d6540f", "lon": -77.011255}, {"is_reserved": 0, "lat": 38.9037595, "is_disabled": 0, "type": "electric_scooter", "fusion_lat": 0.0, "bike_id": "a318f447311640250f2582a311b4d648", "rental_uris": {"ios": "https://dc.lft.to/lastmile_qr_scan", "android": "https://dc.lft.to/lastmile_qr_scan"}, "fusion_lon": 0.0, "name": "a318f447311640250f2582a311b4d648", "lon": -77.0342665}, {"is_reserved": 0, "lat": 38.8749455, "is_disabled": 0, "type": "electric_scooter", "fusion_lat": 0.0, "bike_id": "2cce20e9df07e6d30b08f67ae6d21517", "rental_uris": {"ios": "https://dc.lft.to/lastmile_qr_scan", "android": "https://dc.lft.to/lastmile_qr_scan"}, "fusion_lon": 0.0, "name": "2cce20e9df07e6d30b08f67ae6d21517", "lon": -76.9979295}, {"is_reserved": 0, "lat": 38.873727333333335, "is_disabled": 0, "type": "electric_bike", "fusion_lat": 0.0, "bike_id": "1d4c683f31791ee97def09180e1b2684", "rental_uris": {"ios": "https://dc.lft.to/lastmile_qr_scan", "android": "https://dc.lft.to/lastmile_qr_scan"}, "fusion_lon": 0.0, "name": "1d4c683f31791ee97def09180e1b2684", "lon": -77.11797183333333}, {"is_reserved": 0, "lat": 38.910972, "is_disabled": 0, "type": "electric_scooter", "fusion_lat": 0.0, "bike_id": "96cf8d450d6fe8f99c3c0b8b1f39b024", "rental_uris": {"ios": "https://dc.lft.to/lastmile_qr_scan", "android": "https://dc.lft.to/lastmile_qr_scan"}, "fusion_lon": 0.0, "name": "96cf8d450d6fe8f99c3c0b8b1f39b024", "lon": -77.02204333333333}, {"is_reserved": 0, "lat": 38.876282833333335, "is_disabled": 0, "type": "electric_scooter", "fusion_lat": 0.0, "bike_id": "4b665acd7751d69d0df14f6755be5c27", "rental_uris": {"ios": "https://dc.lft.to/lastmile_qr_scan", "android": "https://dc.lft.to/lastmile_qr_scan"}, "fusion_lon": 0.0, "name": "4b665acd7751d69d0df14f6755be5c27", "lon": -76.965271}, {"is_reserved": 0, "lat": 38.92063616666667, "is_disabled": 0, "type": "electric_scooter", "fusion_lat": 0.0, "bike_id": "2e714ca2f8721419295e482da60a1737", "rental_uris": {"ios": "https://dc.lft.to/lastmile_qr_scan", "android": "https://dc.lft.to/lastmile_qr_scan"}, "fusion_lon": 0.0, "name": "2e714ca2f8721419295e482da60a1737", "lon": -77.02821466666667}, {"is_reserved": 0, "lat": 38.92475, "is_disabled": 0, "type": "electric_scooter", "fusion_lat": 0.0, "bike_id": "43f258429d941d5a933518c764a16297", "rental_uris": {"ios": "https://dc.lft.to/lastmile_qr_scan", "android": "https://dc.lft.to/lastmile_qr_scan"}, "fusion_lon": 0.0, "name": "43f258429d941d5a933518c764a16297", "lon": -77.03492566666667}, {"is_reserved": 0, "lat": 38.91101316666666, "is_disabled": 0, "type": "electric_scooter", "fusion_lat": 0.0, "bike_id": "cbbe9a106a2657da308d1d71f53683b3", "rental_uris": {"ios": "https://dc.lft.to/lastmile_qr_scan", "android": "https://dc.lft.to/lastmile_qr_scan"}, "fusion_lon": 0.0, "name": "cbbe9a106a2657da308d1d71f53683b3", "lon": -77.04444266666667}, {"is_reserved": 0, "lat": 38.903699, "is_disabled": 0, "type": "electric_scooter", "fusion_lat": 0.0, "bike_id": "e4cb99019980c85d079704a5dbcad20d", "rental_uris": {"ios": "https://dc.lft.to/lastmile_qr_scan", "android": "https://dc.lft.to/lastmile_qr_scan"}, "fusion_lon": 0.0, "name": "e4cb99019980c85d079704a5dbcad20d", "lon": -77.03176916666666}, {"is_reserved": 0, "lat": 38.916905166666666, "is_disabled": 0, "type": "electric_scooter", "fusion_lat": 0.0, "bike_id": "174d73839dcab192f46889cc7b367be3", "rental_uris": {"ios": "https://dc.lft.to/lastmile_qr_scan", "android": "https://dc.lft.to/lastmile_qr_scan"}, "fusion_lon": 0.0, "name": "174d73839dcab192f46889cc7b367be3", "lon": -77.05552233333333}, {"is_reserved": 0, "lat": 38.90372266666667, "is_disabled": 0, "type": "electric_scooter", "fusion_lat": 0.0, "bike_id": "eab0e4a0036b0b108b1937bc97b87ca2", "rental_uris": {"ios": "https://dc.lft.to/lastmile_qr_scan", "android": "https://dc.lft.to/lastmile_qr_scan"}, "fusion_lon": 0.0, "name": "eab0e4a0036b0b108b1937bc97b87ca2", "lon": -77.03177233333334}, {"is_reserved": 0, "lat": 38.87191933333333, "is_disabled": 0, "type": "electric_scooter", "fusion_lat": 0.0, "bike_id": "1c8f3e83d9fa892af23f5a3926ef9d78", "rental_uris": {"ios": "https://dc.lft.to/lastmile_qr_scan", "android": "https://dc.lft.to/lastmile_qr_scan"}, "fusion_lon": 0.0, "name": "1c8f3e83d9fa892af23f5a3926ef9d78", "lon": -77.0061805}, {"is_reserved": 0, "lat": 38.93744983333333, "is_disabled": 0, "type": "electric_bike", "fusion_lat": 0.0, "bike_id": "efc18ec9ee48b1278a17133923fc7cd9", "rental_uris": {"ios": "https://dc.lft.to/lastmile_qr_scan", "android": "https://dc.lft.to/lastmile_qr_scan"}, "fusion_lon": 0.0, "name": "efc18ec9ee48b1278a17133923fc7cd9", "lon": -76.94569683333333}, {"is_reserved": 0, "lat": 38.92489066666667, "is_disabled": 0, "type": "electric_scooter", "fusion_lat": 0.0, "bike_id": "2b1821759cfcf257578e5e4edba22aa0", "rental_uris": {"ios": "https://dc.lft.to/lastmile_qr_scan", "android": "https://dc.lft.to/lastmile_qr_scan"}, "fusion_lon": 0.0, "name": "2b1821759cfcf257578e5e4edba22aa0", "lon": -77.021363}, {"is_reserved": 0, "lat": 38.91812016666667, "is_disabled": 0, "type": "electric_scooter", "fusion_lat": 0.0, "bike_id": "102541913b987da97bdbd9de138f1c85", "rental_uris": {"ios": "https://dc.lft.to/lastmile_qr_scan", "android": "https://dc.lft.to/lastmile_qr_scan"}, "fusion_lon": 0.0, "name": "102541913b987da97bdbd9de138f1c85", "lon": -77.02717783333334}, {"is_reserved": 0, "lat": 38.88485583333333, "is_disabled": 0, "type": "electric_scooter", "fusion_lat": 0.0, "bike_id": "930bec930b17394ab1efd7983225240a", "rental_uris": {"ios": "https://dc.lft.to/lastmile_qr_scan", "android": "https://dc.lft.to/lastmile_qr_scan"}, "fusion_lon": 0.0, "name": "930bec930b17394ab1efd7983225240a", "lon": -77.025052}, {"is_reserved": 0, "lat": 38.90957316666667, "is_disabled": 0, "type": "electric_scooter", "fusion_lat": 0.0, "bike_id": "8f9f55b9fe988fb2ae6f2378e718980f", "rental_uris": {"ios": "https://dc.lft.to/lastmile_qr_scan", "android": "https://dc.lft.to/lastmile_qr_scan"}, "fusion_lon": 0.0, "name": "8f9f55b9fe988fb2ae6f2378e718980f", "lon": -77.031724}, {"is_reserved": 0, "lat": 38.914024, "is_disabled": 0, "type": "electric_scooter", "fusion_lat": 0.0, "bike_id": "b290110c7359bb30a1d54a3e84bd5fe7", "rental_uris": {"ios": "https://dc.lft.to/lastmile_qr_scan", "android": "https://dc.lft.to/lastmile_qr_scan"}, "fusion_lon": 0.0, "name": "b290110c7359bb30a1d54a3e84bd5fe7", "lon": -77.028233}, {"is_reserved": 0, "lat": 38.90817233333333, "is_disabled": 0, "type": "electric_scooter", "fusion_lat": 0.0, "bike_id": "f127ff96410d47b9c08f24cf6c8e245f", "rental_uris": {"ios": "https://dc.lft.to/lastmile_qr_scan", "android": "https://dc.lft.to/lastmile_qr_scan"}, "fusion_lon": 0.0, "name": "f127ff96410d47b9c08f24cf6c8e245f", "lon": -77.02704083333333}, {"is_reserved": 0, "lat": 38.903488, "is_disabled": 0, "type": "electric_scooter", "fusion_lat": 0.0, "bike_id": "80875c3d998a43284a3763bf762fe2f3", "rental_uris": {"ios": "https://dc.lft.to/lastmile_qr_scan", "android": "https://dc.lft.to/lastmile_qr_scan"}, "fusion_lon": 0.0, "name": "80875c3d998a43284a3763bf762fe2f3", "lon": -77.03841533333333}, {"is_reserved": 0, "lat": 38.90038366666667, "is_disabled": 0, "type": "electric_scooter", "fusion_lat": 0.0, "bike_id": "990feff821b92a9da74111c8a817c36b", "rental_uris": {"ios": "https://dc.lft.to/lastmile_qr_scan", "android": "https://dc.lft.to/lastmile_qr_scan"}, "fusion_lon": 0.0, "name": "990feff821b92a9da74111c8a817c36b", "lon": -76.99250566666667}, {"is_reserved": 0, "lat": 38.89587133333333, "is_disabled": 0, "type": "electric_scooter", "fusion_lat": 0.0, "bike_id": "5ab4132a6c521d85408324bcbd63b828", "rental_uris": {"ios": "https://dc.lft.to/lastmile_qr_scan", "android": "https://dc.lft.to/lastmile_qr_scan"}, "fusion_lon": 0.0, "name": "5ab4132a6c521d85408324bcbd63b828", "lon": -76.94837216666667}, {"is_reserved": 0, "lat": 38.83174666666667, "is_disabled": 0, "type": "electric_bike", "fusion_lat": 0.0, "bike_id": "bb7f72dd0d8a1b205b7f24946a9007a4", "rental_uris": {"ios": "https://dc.lft.to/lastmile_qr_scan", "android": "https://dc.lft.to/lastmile_qr_scan"}, "fusion_lon": 0.0, "name": "bb7f72dd0d8a1b205b7f24946a9007a4", "lon": -77.06699166666667}, {"is_reserved": 0, "lat": 38.85319966666667, "is_disabled": 0, "type": "electric_scooter", "fusion_lat": 0.0, "bike_id": "7242ecbc5f4997dbdef82d9750534239", "rental_uris": {"ios": "https://dc.lft.to/lastmile_qr_scan", "android": "https://dc.lft.to/lastmile_qr_scan"}, "fusion_lon": 0.0, "name": "7242ecbc5f4997dbdef82d9750534239", "lon": -76.98007433333333}, {"is_reserved": 0, "lat": 38.915606333333336, "is_disabled": 0, "type": "electric_scooter", "fusion_lat": 0.0, "bike_id": "f4d95ab310c6f85011278874b4b25458", "rental_uris": {"ios": "https://dc.lft.to/lastmile_qr_scan", "android": "https://dc.lft.to/lastmile_qr_scan"}, "fusion_lon": 0.0, "name": "f4d95ab310c6f85011278874b4b25458", "lon": -77.03116916666667}, {"is_reserved": 0, "lat": 38.9169765, "is_disabled": 0, "type": "electric_scooter", "fusion_lat": 0.0, "bike_id": "f5fdd852f1934a59bc6bccf04a22dd28", "rental_uris": {"ios": "https://dc.lft.to/lastmile_qr_scan", "android": "https://dc.lft.to/lastmile_qr_scan"}, "fusion_lon": 0.0, "name": "f5fdd852f1934a59bc6bccf04a22dd28", "lon": -77.02775716666666}, {"is_reserved": 0, "lat": 38.914227833333335, "is_disabled": 0, "type": "electric_scooter", "fusion_lat": 0.0, "bike_id": "3463b9fb56d108ba1ae059eaaf48ffb4", "rental_uris": {"ios": "https://dc.lft.to/lastmile_qr_scan", "android": "https://dc.lft.to/lastmile_qr_scan"}, "fusion_lon": 0.0, "name": "3463b9fb56d108ba1ae059eaaf48ffb4", "lon": -77.02214033333334}, {"is_reserved": 0, "lat": 38.920283, "is_disabled": 0, "type": "electric_bike", "fusion_lat": 0.0, "bike_id": "8dd4b30f227d76d0151e85c79bba6c8e", "rental_uris": {"ios": "https://dc.lft.to/lastmile_qr_scan", "android": "https://dc.lft.to/lastmile_qr_scan"}, "fusion_lon": 0.0, "name": "8dd4b30f227d76d0151e85c79bba6c8e", "lon": -77.06210016666667}, {"is_reserved": 0, "lat": 38.923437166666666, "is_disabled": 0, "type": "electric_scooter", "fusion_lat": 0.0, "bike_id": "2a3e99c20f4e4ffcc1189b898c3c02f0", "rental_uris": {"ios": "https://dc.lft.to/lastmile_qr_scan", "android": "https://dc.lft.to/lastmile_qr_scan"}, "fusion_lon": 0.0, "name": "2a3e99c20f4e4ffcc1189b898c3c02f0", "lon": -77.05050966666667}, {"is_reserved": 0, "lat": 38.9081625, "is_disabled": 0, "type": "electric_scooter", "fusion_lat": 0.0, "bike_id": "6ee5ba6f4fdf8cd9717022b4e012a3c4", "rental_uris": {"ios": "https://dc.lft.to/lastmile_qr_scan", "android": "https://dc.lft.to/lastmile_qr_scan"}, "fusion_lon": 0.0, "name": "6ee5ba6f4fdf8cd9717022b4e012a3c4", "lon": -77.0394285}, {"is_reserved": 0, "lat": 38.87647483333333, "is_disabled": 0, "type": "electric_scooter", "fusion_lat": 0.0, "bike_id": "fbd2b326dd507e69e932cbd6f35c71d9", "rental_uris": {"ios": "https://dc.lft.to/lastmile_qr_scan", "android": "https://dc.lft.to/lastmile_qr_scan"}, "fusion_lon": 0.0, "name": "fbd2b326dd507e69e932cbd6f35c71d9", "lon": -77.00377533333334}, {"is_reserved": 0, "lat": 38.8683285, "is_disabled": 0, "type": "electric_scooter", "fusion_lat": 0.0, "bike_id": "3b73f4a7e5369198422569694339c556", "rental_uris": {"ios": "https://dc.lft.to/lastmile_qr_scan", "android": "https://dc.lft.to/lastmile_qr_scan"}, "fusion_lon": 0.0, "name": "3b73f4a7e5369198422569694339c556", "lon": -76.977394}, {"is_reserved": 0, "lat": 38.90954683333333, "is_disabled": 0, "type": "electric_scooter", "fusion_lat": 0.0, "bike_id": "fe763bbac8ded7cdce3414c484443b0f", "rental_uris": {"ios": "https://dc.lft.to/lastmile_qr_scan", "android": "https://dc.lft.to/lastmile_qr_scan"}, "fusion_lon": 0.0, "name": "fe763bbac8ded7cdce3414c484443b0f", "lon": -77.02716483333333}, {"is_reserved": 0, "lat": 38.91135283333333, "is_disabled": 0, "type": "electric_scooter", "fusion_lat": 0.0, "bike_id": "70e3f7d8c9d13aa4c02455eddc2fc0b7", "rental_uris": {"ios": "https://dc.lft.to/lastmile_qr_scan", "android": "https://dc.lft.to/lastmile_qr_scan"}, "fusion_lon": 0.0, "name": "70e3f7d8c9d13aa4c02455eddc2fc0b7", "lon": -77.02692266666666}, {"is_reserved": 0, "lat": 38.95191966666667, "is_disabled": 0, "type": "electric_scooter", "fusion_lat": 0.0, "bike_id": "391f5411da6ca4722b34405146ed81ad", "rental_uris": {"ios": "https://dc.lft.to/lastmile_qr_scan", "android": "https://dc.lft.to/lastmile_qr_scan"}, "fusion_lon": 0.0, "name": "391f5411da6ca4722b34405146ed81ad", "lon": -77.02979433333333}, {"is_reserved": 0, "lat": 38.91755916666666, "is_disabled": 0, "type": "electric_scooter", "fusion_lat": 0.0, "bike_id": "18ae2f9cc439c2b241ac6795341c7087", "rental_uris": {"ios": "https://dc.lft.to/lastmile_qr_scan", "android": "https://dc.lft.to/lastmile_qr_scan"}, "fusion_lon": 0.0, "name": "18ae2f9cc439c2b241ac6795341c7087", "lon": -77.01600066666667}, {"is_reserved": 0, "lat": 38.88076216666666, "is_disabled": 0, "type": "electric_bike", "fusion_lat": 0.0, "bike_id": "7a62e48395c9d930eed7ebcbfdad1436", "rental_uris": {"ios": "https://dc.lft.to/lastmile_qr_scan", "android": "https://dc.lft.to/lastmile_qr_scan"}, "fusion_lon": 0.0, "name": "7a62e48395c9d930eed7ebcbfdad1436", "lon": -76.985083}, {"is_reserved": 0, "lat": 38.9169675, "is_disabled": 0, "type": "electric_scooter", "fusion_lat": 0.0, "bike_id": "dfa367319660ba6c384f4499921fd83e", "rental_uris": {"ios": "https://dc.lft.to/lastmile_qr_scan", "android": "https://dc.lft.to/lastmile_qr_scan"}, "fusion_lon": 0.0, "name": "dfa367319660ba6c384f4499921fd83e", "lon": -77.03772783333334}, {"is_reserved": 0, "lat": 38.89551983333333, "is_disabled": 0, "type": "electric_scooter", "fusion_lat": 0.0, "bike_id": "e49b37029ff5c7fa9d2dc9387121b66a", "rental_uris": {"ios": "https://dc.lft.to/lastmile_qr_scan", "android": "https://dc.lft.to/lastmile_qr_scan"}, "fusion_lon": 0.0, "name": "e49b37029ff5c7fa9d2dc9387121b66a", "lon": -77.0221015}, {"is_reserved": 0, "lat": 38.90782766666667, "is_disabled": 0, "type": "electric_scooter", "fusion_lat": 0.0, "bike_id": "3f9d8d9bf1fe5092086cfa664a038397", "rental_uris": {"ios": "https://dc.lft.to/lastmile_qr_scan", "android": "https://dc.lft.to/lastmile_qr_scan"}, "fusion_lon": 0.0, "name": "3f9d8d9bf1fe5092086cfa664a038397", "lon": -77.03849416666667}, {"is_reserved": 0, "lat": 38.923304, "is_disabled": 0, "type": "electric_scooter", "fusion_lat": 0.0, "bike_id": "66d7d2dc61d57c7df69a96966b72d3f5", "rental_uris": {"ios": "https://dc.lft.to/lastmile_qr_scan", "android": "https://dc.lft.to/lastmile_qr_scan"}, "fusion_lon": 0.0, "name": "66d7d2dc61d57c7df69a96966b72d3f5", "lon": -77.03570416666666}, {"is_reserved": 0, "lat": 38.9038375, "is_disabled": 0, "type": "electric_bike", "fusion_lat": 0.0, "bike_id": "46d34694cbc61e24108b8050b3fdc93e", "rental_uris": {"ios": "https://dc.lft.to/lastmile_qr_scan", "android": "https://dc.lft.to/lastmile_qr_scan"}, "fusion_lon": 0.0, "name": "46d34694cbc61e24108b8050b3fdc93e", "lon": -77.03854266666667}, {"is_reserved": 0, "lat": 38.91986033333333, "is_disabled": 0, "type": "electric_scooter", "fusion_lat": 0.0, "bike_id": "00c087874c7d2a5e856747d6d0755432", "rental_uris": {"ios": "https://dc.lft.to/lastmile_qr_scan", "android": "https://dc.lft.to/lastmile_qr_scan"}, "fusion_lon": 0.0, "name": "00c087874c7d2a5e856747d6d0755432", "lon": -77.02185816666666}, {"is_reserved": 0, "lat": 38.962, "is_disabled": 0, "type": "electric_bike", "fusion_lat": 0.0, "bike_id": "b40d43ff4fb770a735839009931617f9", "rental_uris": {"ios": "https://dc.lft.to/lastmile_qr_scan", "android": "https://dc.lft.to/lastmile_qr_scan"}, "fusion_lon": 0.0, "name": "b40d43ff4fb770a735839009931617f9", "lon": -77.03508983333333}, {"is_reserved": 0, "lat": 38.93083383333333, "is_disabled": 0, "type": "electric_scooter", "fusion_lat": 0.0, "bike_id": "368e22dc730dbf0c9bc129d3879cbd79", "rental_uris": {"ios": "https://dc.lft.to/lastmile_qr_scan", "android": "https://dc.lft.to/lastmile_qr_scan"}, "fusion_lon": 0.0, "name": "368e22dc730dbf0c9bc129d3879cbd79", "lon": -77.02811583333333}, {"is_reserved": 0, "lat": 38.8873495, "is_disabled": 0, "type": "electric_scooter", "fusion_lat": 0.0, "bike_id": "9d7f10fb14670bad13bf223a15420a14", "rental_uris": {"ios": "https://dc.lft.to/lastmile_qr_scan", "android": "https://dc.lft.to/lastmile_qr_scan"}, "fusion_lon": 0.0, "name": "9d7f10fb14670bad13bf223a15420a14", "lon": -77.01529316666667}, {"is_reserved": 0, "lat": 38.93394983333334, "is_disabled": 0, "type": "electric_scooter", "fusion_lat": 0.0, "bike_id": "cfd6795ab414df796c84e04a7c58a55b", "rental_uris": {"ios": "https://dc.lft.to/lastmile_qr_scan", "android": "https://dc.lft.to/lastmile_qr_scan"}, "fusion_lon": 0.0, "name": "cfd6795ab414df796c84e04a7c58a55b", "lon": -77.04540216666666}, {"is_reserved": 0, "lat": 38.917479666666665, "is_disabled": 0, "type": "electric_scooter", "fusion_lat": 0.0, "bike_id": "fd274209c02ade2bcd2392214d5b7cf1", "rental_uris": {"ios": "https://dc.lft.to/lastmile_qr_scan", "android": "https://dc.lft.to/lastmile_qr_scan"}, "fusion_lon": 0.0, "name": "fd274209c02ade2bcd2392214d5b7cf1", "lon": -77.02369766666666}, {"is_reserved": 0, "lat": 38.91402, "is_disabled": 0, "type": "electric_scooter", "fusion_lat": 0.0, "bike_id": "fb67df15364b7830bc794ed12e7f3d34", "rental_uris": {"ios": "https://dc.lft.to/lastmile_qr_scan", "android": "https://dc.lft.to/lastmile_qr_scan"}, "fusion_lon": 0.0, "name": "fb67df15364b7830bc794ed12e7f3d34", "lon": -77.04565966666667}, {"is_reserved": 0, "lat": 38.9360435, "is_disabled": 0, "type": "electric_scooter", "fusion_lat": 0.0, "bike_id": "1b328f44fc93f30a9d110680559a3b16", "rental_uris": {"ios": "https://dc.lft.to/lastmile_qr_scan", "android": "https://dc.lft.to/lastmile_qr_scan"}, "fusion_lon": 0.0, "name": "1b328f44fc93f30a9d110680559a3b16", "lon": -77.05862183333333}, {"is_reserved": 0, "lat": 38.90560033333333, "is_disabled": 0, "type": "electric_scooter", "fusion_lat": 0.0, "bike_id": "36bd4bd394cb0f8163285a9cd4f951ed", "rental_uris": {"ios": "https://dc.lft.to/lastmile_qr_scan", "android": "https://dc.lft.to/lastmile_qr_scan"}, "fusion_lon": 0.0, "name": "36bd4bd394cb0f8163285a9cd4f951ed", "lon": -77.0415215}, {"is_reserved": 0, "lat": 38.898406, "is_disabled": 0, "type": "electric_scooter", "fusion_lat": 0.0, "bike_id": "5cba2cdd27e6af755582a71678a86fe8", "rental_uris": {"ios": "https://dc.lft.to/lastmile_qr_scan", "android": "https://dc.lft.to/lastmile_qr_scan"}, "fusion_lon": 0.0, "name": "5cba2cdd27e6af755582a71678a86fe8", "lon": -77.02678616666667}, {"is_reserved": 0, "lat": 38.9140245, "is_disabled": 0, "type": "electric_scooter", "fusion_lat": 0.0, "bike_id": "8d01faf48d6c6e8424d607f958f05cc8", "rental_uris": {"ios": "https://dc.lft.to/lastmile_qr_scan", "android": "https://dc.lft.to/lastmile_qr_scan"}, "fusion_lon": 0.0, "name": "8d01faf48d6c6e8424d607f958f05cc8", "lon": -77.01298233333333}, {"is_reserved": 0, "lat": 38.89826983333333, "is_disabled": 0, "type": "electric_scooter", "fusion_lat": 0.0, "bike_id": "48bb93d55ceb3cee5235c93c2a2ed9c9", "rental_uris": {"ios": "https://dc.lft.to/lastmile_qr_scan", "android": "https://dc.lft.to/lastmile_qr_scan"}, "fusion_lon": 0.0, "name": "48bb93d55ceb3cee5235c93c2a2ed9c9", "lon": -77.0294815}, {"is_reserved": 0, "lat": 38.91811233333333, "is_disabled": 0, "type": "electric_scooter", "fusion_lat": 0.0, "bike_id": "74369c903d73fa9853e6ea9e00ec1a23", "rental_uris": {"ios": "https://dc.lft.to/lastmile_qr_scan", "android": "https://dc.lft.to/lastmile_qr_scan"}, "fusion_lon": 0.0, "name": "74369c903d73fa9853e6ea9e00ec1a23", "lon": -77.03859683333333}, {"is_reserved": 0, "lat": 38.911914, "is_disabled": 0, "type": "electric_scooter", "fusion_lat": 0.0, "bike_id": "35a4c8e40e3dcc2b0bccf8ef783bfb92", "rental_uris": {"ios": "https://dc.lft.to/lastmile_qr_scan", "android": "https://dc.lft.to/lastmile_qr_scan"}, "fusion_lon": 0.0, "name": "35a4c8e40e3dcc2b0bccf8ef783bfb92", "lon": -77.00710066666667}, {"is_reserved": 0, "lat": 38.92364533333333, "is_disabled": 0, "type": "electric_scooter", "fusion_lat": 0.0, "bike_id": "c632e5cfcdf85454044cf2f61e9f16b2", "rental_uris": {"ios": "https://dc.lft.to/lastmile_qr_scan", "android": "https://dc.lft.to/lastmile_qr_scan"}, "fusion_lon": 0.0, "name": "c632e5cfcdf85454044cf2f61e9f16b2", "lon": -77.01812516666666}, {"is_reserved": 0, "lat": 38.910542666666665, "is_disabled": 0, "type": "electric_scooter", "fusion_lat": 0.0, "bike_id": "76315d6c1c94ca1bcd77b4a36bdef849", "rental_uris": {"ios": "https://dc.lft.to/lastmile_qr_scan", "android": "https://dc.lft.to/lastmile_qr_scan"}, "fusion_lon": 0.0, "name": "76315d6c1c94ca1bcd77b4a36bdef849", "lon": -77.02178233333333}, {"is_reserved": 0, "lat": 38.92340516666667, "is_disabled": 0, "type": "electric_scooter", "fusion_lat": 0.0, "bike_id": "c5ced8808f9f7a91bc903b26a614a3b7", "rental_uris": {"ios": "https://dc.lft.to/lastmile_qr_scan", "android": "https://dc.lft.to/lastmile_qr_scan"}, "fusion_lon": 0.0, "name": "c5ced8808f9f7a91bc903b26a614a3b7", "lon": -77.05084683333334}, {"is_reserved": 0, "lat": 38.900853166666664, "is_disabled": 0, "type": "electric_scooter", "fusion_lat": 0.0, "bike_id": "05be9c4d5a9b545539bfc9b24d87811b", "rental_uris": {"ios": "https://dc.lft.to/lastmile_qr_scan", "android": "https://dc.lft.to/lastmile_qr_scan"}, "fusion_lon": 0.0, "name": "05be9c4d5a9b545539bfc9b24d87811b", "lon": -77.03512483333333}, {"is_reserved": 0, "lat": 38.90010266666667, "is_disabled": 0, "type": "electric_scooter", "fusion_lat": 0.0, "bike_id": "ecd0469f6f1a54c4570e2bcf72551399", "rental_uris": {"ios": "https://dc.lft.to/lastmile_qr_scan", "android": "https://dc.lft.to/lastmile_qr_scan"}, "fusion_lon": 0.0, "name": "ecd0469f6f1a54c4570e2bcf72551399", "lon": -77.00681266666666}, {"is_reserved": 0, "lat": 38.916871666666665, "is_disabled": 0, "type": "electric_scooter", "fusion_lat": 0.0, "bike_id": "c53331d664a2b85d10658b229a46b39a", "rental_uris": {"ios": "https://dc.lft.to/lastmile_qr_scan", "android": "https://dc.lft.to/lastmile_qr_scan"}, "fusion_lon": 0.0, "name": "c53331d664a2b85d10658b229a46b39a", "lon": -77.02805016666667}, {"is_reserved": 0, "lat": 38.84290683333333, "is_disabled": 0, "type": "electric_scooter", "fusion_lat": 0.0, "bike_id": "a2882a7cb0ed9366f826219d7d65bb88", "rental_uris": {"ios": "https://dc.lft.to/lastmile_qr_scan", "android": "https://dc.lft.to/lastmile_qr_scan"}, "fusion_lon": 0.0, "name": "a2882a7cb0ed9366f826219d7d65bb88", "lon": -76.9994695}, {"is_reserved": 0, "lat": 38.898400333333335, "is_disabled": 0, "type": "electric_scooter", "fusion_lat": 0.0, "bike_id": "7664b5def586450111527e381423d058", "rental_uris": {"ios": "https://dc.lft.to/lastmile_qr_scan", "android": "https://dc.lft.to/lastmile_qr_scan"}, "fusion_lon": 0.0, "name": "7664b5def586450111527e381423d058", "lon": -76.94629066666667}, {"is_reserved": 0, "lat": 38.945569166666665, "is_disabled": 0, "type": "electric_scooter", "fusion_lat": 0.0, "bike_id": "4b66b1681e342b9d72125c02907ac599", "rental_uris": {"ios": "https://dc.lft.to/lastmile_qr_scan", "android": "https://dc.lft.to/lastmile_qr_scan"}, "fusion_lon": 0.0, "name": "4b66b1681e342b9d72125c02907ac599", "lon": -77.07953083333334}, {"is_reserved": 0, "lat": 38.917189, "is_disabled": 0, "type": "electric_scooter", "fusion_lat": 0.0, "bike_id": "9ee8b60a40dedadfc0f9a74f60ebfe3d", "rental_uris": {"ios": "https://dc.lft.to/lastmile_qr_scan", "android": "https://dc.lft.to/lastmile_qr_scan"}, "fusion_lon": 0.0, "name": "9ee8b60a40dedadfc0f9a74f60ebfe3d", "lon": -77.02962666666667}, {"is_reserved": 0, "lat": 38.895104833333335, "is_disabled": 0, "type": "electric_scooter", "fusion_lat": 0.0, "bike_id": "ddc6f3afce1eb3546c3e2db422726583", "rental_uris": {"ios": "https://dc.lft.to/lastmile_qr_scan", "android": "https://dc.lft.to/lastmile_qr_scan"}, "fusion_lon": 0.0, "name": "ddc6f3afce1eb3546c3e2db422726583", "lon": -77.046777}, {"is_reserved": 0, "lat": 38.86692733333334, "is_disabled": 0, "type": "electric_scooter", "fusion_lat": 0.0, "bike_id": "157bd2ad469b23c1228ba8097fda72b7", "rental_uris": {"ios": "https://dc.lft.to/lastmile_qr_scan", "android": "https://dc.lft.to/lastmile_qr_scan"}, "fusion_lon": 0.0, "name": "157bd2ad469b23c1228ba8097fda72b7", "lon": -76.98397066666666}, {"is_reserved": 0, "lat": 38.932136166666666, "is_disabled": 0, "type": "electric_scooter", "fusion_lat": 0.0, "bike_id": "eb73d7773b54e546850c2ef398bbc933", "rental_uris": {"ios": "https://dc.lft.to/lastmile_qr_scan", "android": "https://dc.lft.to/lastmile_qr_scan"}, "fusion_lon": 0.0, "name": "eb73d7773b54e546850c2ef398bbc933", "lon": -77.03785833333333}, {"is_reserved": 0, "lat": 38.930783166666664, "is_disabled": 0, "type": "electric_scooter", "fusion_lat": 0.0, "bike_id": "6de5b12ab31758f33245656424cd8333", "rental_uris": {"ios": "https://dc.lft.to/lastmile_qr_scan", "android": "https://dc.lft.to/lastmile_qr_scan"}, "fusion_lon": 0.0, "name": "6de5b12ab31758f33245656424cd8333", "lon": -77.023427}, {"is_reserved": 0, "lat": 38.924771666666665, "is_disabled": 0, "type": "electric_scooter", "fusion_lat": 0.0, "bike_id": "aca5716e75f00ea6b49f086759eed5e2", "rental_uris": {"ios": "https://dc.lft.to/lastmile_qr_scan", "android": "https://dc.lft.to/lastmile_qr_scan"}, "fusion_lon": 0.0, "name": "aca5716e75f00ea6b49f086759eed5e2", "lon": -77.03475116666667}, {"is_reserved": 0, "lat": 38.903633666666664, "is_disabled": 0, "type": "electric_scooter", "fusion_lat": 0.0, "bike_id": "af6747c68ea4b731da11d0c290165d64", "rental_uris": {"ios": "https://dc.lft.to/lastmile_qr_scan", "android": "https://dc.lft.to/lastmile_qr_scan"}, "fusion_lon": 0.0, "name": "af6747c68ea4b731da11d0c290165d64", "lon": -77.03324566666667}, {"is_reserved": 0, "lat": 38.90358583333333, "is_disabled": 0, "type": "electric_scooter", "fusion_lat": 0.0, "bike_id": "d916854e5bd38d0fbbda72db0d333408", "rental_uris": {"ios": "https://dc.lft.to/lastmile_qr_scan", "android": "https://dc.lft.to/lastmile_qr_scan"}, "fusion_lon": 0.0, "name": "d916854e5bd38d0fbbda72db0d333408", "lon": -77.04012733333333}, {"is_reserved": 0, "lat": 38.875612, "is_disabled": 0, "type": "electric_scooter", "fusion_lat": 0.0, "bike_id": "82144f385f92eb5a5c8dc2d4f0b36711", "rental_uris": {"ios": "https://dc.lft.to/lastmile_qr_scan", "android": "https://dc.lft.to/lastmile_qr_scan"}, "fusion_lon": 0.0, "name": "82144f385f92eb5a5c8dc2d4f0b36711", "lon": -77.00588833333333}, {"is_reserved": 0, "lat": 38.8901215, "is_disabled": 0, "type": "electric_scooter", "fusion_lat": 0.0, "bike_id": "aba4aac8e02c39914c6b0a07a80b6cd8", "rental_uris": {"ios": "https://dc.lft.to/lastmile_qr_scan", "android": "https://dc.lft.to/lastmile_qr_scan"}, "fusion_lon": 0.0, "name": "aba4aac8e02c39914c6b0a07a80b6cd8", "lon": -76.93732233333333}, {"is_reserved": 0, "lat": 38.9288265, "is_disabled": 0, "type": "electric_scooter", "fusion_lat": 0.0, "bike_id": "5d1dadc17f2127de22cd8ba10af220fb", "rental_uris": {"ios": "https://dc.lft.to/lastmile_qr_scan", "android": "https://dc.lft.to/lastmile_qr_scan"}, "fusion_lon": 0.0, "name": "5d1dadc17f2127de22cd8ba10af220fb", "lon": -77.03295466666667}, {"is_reserved": 0, "lat": 38.9242055, "is_disabled": 0, "type": "electric_scooter", "fusion_lat": 0.0, "bike_id": "ab62df5243887700ef0b85d96c06015a", "rental_uris": {"ios": "https://dc.lft.to/lastmile_qr_scan", "android": "https://dc.lft.to/lastmile_qr_scan"}, "fusion_lon": 0.0, "name": "ab62df5243887700ef0b85d96c06015a", "lon": -77.04553483333333}, {"is_reserved": 0, "lat": 38.923311, "is_disabled": 0, "type": "electric_scooter", "fusion_lat": 0.0, "bike_id": "fd7f2e5f9efe8d1c7ee158ffd69dd140", "rental_uris": {"ios": "https://dc.lft.to/lastmile_qr_scan", "android": "https://dc.lft.to/lastmile_qr_scan"}, "fusion_lon": 0.0, "name": "fd7f2e5f9efe8d1c7ee158ffd69dd140", "lon": -77.04306683333333}, {"is_reserved": 0, "lat": 38.87600283333333, "is_disabled": 0, "type": "electric_scooter", "fusion_lat": 0.0, "bike_id": "a64047bb6bdd6b8e13854ba55fbf5bd5", "rental_uris": {"ios": "https://dc.lft.to/lastmile_qr_scan", "android": "https://dc.lft.to/lastmile_qr_scan"}, "fusion_lon": 0.0, "name": "a64047bb6bdd6b8e13854ba55fbf5bd5", "lon": -77.00931433333334}, {"is_reserved": 0, "lat": 38.8960485, "is_disabled": 0, "type": "electric_scooter", "fusion_lat": 0.0, "bike_id": "89dddafb2c749ab390c150e017ae9fdd", "rental_uris": {"ios": "https://dc.lft.to/lastmile_qr_scan", "android": "https://dc.lft.to/lastmile_qr_scan"}, "fusion_lon": 0.0, "name": "89dddafb2c749ab390c150e017ae9fdd", "lon": -77.03020616666667}, {"is_reserved": 0, "lat": 38.900876, "is_disabled": 0, "type": "electric_scooter", "fusion_lat": 0.0, "bike_id": "b3b880c257fdfca45156de0dd3b03b11", "rental_uris": {"ios": "https://dc.lft.to/lastmile_qr_scan", "android": "https://dc.lft.to/lastmile_qr_scan"}, "fusion_lon": 0.0, "name": "b3b880c257fdfca45156de0dd3b03b11", "lon": -77.02221533333334}, {"is_reserved": 0, "lat": 38.832207833333335, "is_disabled": 0, "type": "electric_bike", "fusion_lat": 0.0, "bike_id": "4ac1fde19cbbe7ca4f651d4167e66ebe", "rental_uris": {"ios": "https://dc.lft.to/lastmile_qr_scan", "android": "https://dc.lft.to/lastmile_qr_scan"}, "fusion_lon": 0.0, "name": "4ac1fde19cbbe7ca4f651d4167e66ebe", "lon": -77.04971466666667}, {"is_reserved": 0, "lat": 38.9325345, "is_disabled": 0, "type": "electric_scooter", "fusion_lat": 0.0, "bike_id": "6a00f1233abc706c70721e2fb72f8c90", "rental_uris": {"ios": "https://dc.lft.to/lastmile_qr_scan", "android": "https://dc.lft.to/lastmile_qr_scan"}, "fusion_lon": 0.0, "name": "6a00f1233abc706c70721e2fb72f8c90", "lon": -77.03856116666667}, {"is_reserved": 0, "lat": 38.86250966666667, "is_disabled": 0, "type": "electric_scooter", "fusion_lat": 0.0, "bike_id": "6887aab40db751cedef5799c1f127061", "rental_uris": {"ios": "https://dc.lft.to/lastmile_qr_scan", "android": "https://dc.lft.to/lastmile_qr_scan"}, "fusion_lon": 0.0, "name": "6887aab40db751cedef5799c1f127061", "lon": -76.995141}, {"is_reserved": 0, "lat": 38.928689166666665, "is_disabled": 0, "type": "electric_scooter", "fusion_lat": 0.0, "bike_id": "4d5507579da91d6cff73a4a44a5a3943", "rental_uris": {"ios": "https://dc.lft.to/lastmile_qr_scan", "android": "https://dc.lft.to/lastmile_qr_scan"}, "fusion_lon": 0.0, "name": "4d5507579da91d6cff73a4a44a5a3943", "lon": -77.03310283333333}, {"is_reserved": 0, "lat": 38.909719333333335, "is_disabled": 0, "type": "electric_scooter", "fusion_lat": 0.0, "bike_id": "8bb7817e7072e0479aa7cd22b2f651ac", "rental_uris": {"ios": "https://dc.lft.to/lastmile_qr_scan", "android": "https://dc.lft.to/lastmile_qr_scan"}, "fusion_lon": 0.0, "name": "8bb7817e7072e0479aa7cd22b2f651ac", "lon": -77.03212916666666}, {"is_reserved": 0, "lat": 38.91264266666667, "is_disabled": 0, "type": "electric_scooter", "fusion_lat": 0.0, "bike_id": "d597ab4533345ae21d6e03c8af1f086a", "rental_uris": {"ios": "https://dc.lft.to/lastmile_qr_scan", "android": "https://dc.lft.to/lastmile_qr_scan"}, "fusion_lon": 0.0, "name": "d597ab4533345ae21d6e03c8af1f086a", "lon": -77.02684733333334}, {"is_reserved": 0, "lat": 38.918126, "is_disabled": 0, "type": "electric_scooter", "fusion_lat": 0.0, "bike_id": "f270f1cd7cb3346960972c845b99deb8", "rental_uris": {"ios": "https://dc.lft.to/lastmile_qr_scan", "android": "https://dc.lft.to/lastmile_qr_scan"}, "fusion_lon": 0.0, "name": "f270f1cd7cb3346960972c845b99deb8", "lon": -77.02474}, {"is_reserved": 0, "lat": 38.920308666666664, "is_disabled": 0, "type": "electric_scooter", "fusion_lat": 0.0, "bike_id": "d97222dd5dc88b195a941300401a6099", "rental_uris": {"ios": "https://dc.lft.to/lastmile_qr_scan", "android": "https://dc.lft.to/lastmile_qr_scan"}, "fusion_lon": 0.0, "name": "d97222dd5dc88b195a941300401a6099", "lon": -77.00091166666667}, {"is_reserved": 0, "lat": 38.9519105, "is_disabled": 0, "type": "electric_scooter", "fusion_lat": 0.0, "bike_id": "3a1e1d3b808dba0004b44e7443d84a6e", "rental_uris": {"ios": "https://dc.lft.to/lastmile_qr_scan", "android": "https://dc.lft.to/lastmile_qr_scan"}, "fusion_lon": 0.0, "name": "3a1e1d3b808dba0004b44e7443d84a6e", "lon": -77.06659433333333}, {"is_reserved": 0, "lat": 38.90354266666667, "is_disabled": 0, "type": "electric_scooter", "fusion_lat": 0.0, "bike_id": "ffc65159de2f090713f9f127416998c4", "rental_uris": {"ios": "https://dc.lft.to/lastmile_qr_scan", "android": "https://dc.lft.to/lastmile_qr_scan"}, "fusion_lon": 0.0, "name": "ffc65159de2f090713f9f127416998c4", "lon": -77.03174466666667}, {"is_reserved": 0, "lat": 38.922520666666664, "is_disabled": 0, "type": "electric_scooter", "fusion_lat": 0.0, "bike_id": "b0a67afb5581103a55a6a4dc7051ca9d", "rental_uris": {"ios": "https://dc.lft.to/lastmile_qr_scan", "android": "https://dc.lft.to/lastmile_qr_scan"}, "fusion_lon": 0.0, "name": "b0a67afb5581103a55a6a4dc7051ca9d", "lon": -77.03467666666667}, {"is_reserved": 0, "lat": 38.92781516666667, "is_disabled": 0, "type": "electric_scooter", "fusion_lat": 0.0, "bike_id": "dee9a6fbe65a1e87fca608733b79e209", "rental_uris": {"ios": "https://dc.lft.to/lastmile_qr_scan", "android": "https://dc.lft.to/lastmile_qr_scan"}, "fusion_lon": 0.0, "name": "dee9a6fbe65a1e87fca608733b79e209", "lon": -77.05290266666667}, {"is_reserved": 0, "lat": 38.91418133333333, "is_disabled": 0, "type": "electric_scooter", "fusion_lat": 0.0, "bike_id": "d95b6773487f6205cbb53b25f58cecb8", "rental_uris": {"ios": "https://dc.lft.to/lastmile_qr_scan", "android": "https://dc.lft.to/lastmile_qr_scan"}, "fusion_lon": 0.0, "name": "d95b6773487f6205cbb53b25f58cecb8", "lon": -77.0097025}, {"is_reserved": 0, "lat": 38.89051033333333, "is_disabled": 0, "type": "electric_scooter", "fusion_lat": 0.0, "bike_id": "991b1a3bdb81f2827ab2930b02cf5ebc", "rental_uris": {"ios": "https://dc.lft.to/lastmile_qr_scan", "android": "https://dc.lft.to/lastmile_qr_scan"}, "fusion_lon": 0.0, "name": "991b1a3bdb81f2827ab2930b02cf5ebc", "lon": -76.93752466666666}, {"is_reserved": 0, "lat": 38.887531333333335, "is_disabled": 0, "type": "electric_scooter", "fusion_lat": 0.0, "bike_id": "558db87c140350b40d3f9bc8c6416c20", "rental_uris": {"ios": "https://dc.lft.to/lastmile_qr_scan", "android": "https://dc.lft.to/lastmile_qr_scan"}, "fusion_lon": 0.0, "name": "558db87c140350b40d3f9bc8c6416c20", "lon": -76.99851716666667}, {"is_reserved": 0, "lat": 38.9093355, "is_disabled": 0, "type": "electric_scooter", "fusion_lat": 0.0, "bike_id": "5258404076eefcd7ac082421f5c5ad81", "rental_uris": {"ios": "https://dc.lft.to/lastmile_qr_scan", "android": "https://dc.lft.to/lastmile_qr_scan"}, "fusion_lon": 0.0, "name": "5258404076eefcd7ac082421f5c5ad81", "lon": -77.05518333333333}, {"is_reserved": 0, "lat": 38.9085295, "is_disabled": 0, "type": "electric_scooter", "fusion_lat": 0.0, "bike_id": "6202f1977636acc675053bbdd96eea51", "rental_uris": {"ios": "https://dc.lft.to/lastmile_qr_scan", "android": "https://dc.lft.to/lastmile_qr_scan"}, "fusion_lon": 0.0, "name": "6202f1977636acc675053bbdd96eea51", "lon": -77.03258}, {"is_reserved": 0, "lat": 38.9603055, "is_disabled": 0, "type": "electric_bike", "fusion_lat": 0.0, "bike_id": "2635f5065c4e61ac5d1754fe314d560e", "rental_uris": {"ios": "https://dc.lft.to/lastmile_qr_scan", "android": "https://dc.lft.to/lastmile_qr_scan"}, "fusion_lon": 0.0, "name": "2635f5065c4e61ac5d1754fe314d560e", "lon": -77.03327016666667}, {"is_reserved": 0, "lat": 38.857852, "is_disabled": 0, "type": "electric_bike", "fusion_lat": 0.0, "bike_id": "c896e4578a37914f8184d06fa610ecc3", "rental_uris": {"ios": "https://dc.lft.to/lastmile_qr_scan", "android": "https://dc.lft.to/lastmile_qr_scan"}, "fusion_lon": 0.0, "name": "c896e4578a37914f8184d06fa610ecc3", "lon": -77.0995905}, {"is_reserved": 0, "lat": 38.878773333333335, "is_disabled": 0, "type": "electric_scooter", "fusion_lat": 0.0, "bike_id": "494d0346e804a9f586eea633e228244d", "rental_uris": {"ios": "https://dc.lft.to/lastmile_qr_scan", "android": "https://dc.lft.to/lastmile_qr_scan"}, "fusion_lon": 0.0, "name": "494d0346e804a9f586eea633e228244d", "lon": -77.022188}, {"is_reserved": 0, "lat": 38.84504866666666, "is_disabled": 0, "type": "electric_bike", "fusion_lat": 0.0, "bike_id": "c8547f4924f8cc9f5100dea48625f278", "rental_uris": {"ios": "https://dc.lft.to/lastmile_qr_scan", "android": "https://dc.lft.to/lastmile_qr_scan"}, "fusion_lon": 0.0, "name": "c8547f4924f8cc9f5100dea48625f278", "lon": -76.99351416666667}, {"is_reserved": 0, "lat": 38.90573066666666, "is_disabled": 0, "type": "electric_scooter", "fusion_lat": 0.0, "bike_id": "3fd612024b7bba247e79f02537c216c0", "rental_uris": {"ios": "https://dc.lft.to/lastmile_qr_scan", "android": "https://dc.lft.to/lastmile_qr_scan"}, "fusion_lon": 0.0, "name": "3fd612024b7bba247e79f02537c216c0", "lon": -77.02393816666667}, {"is_reserved": 0, "lat": 38.8758165, "is_disabled": 0, "type": "electric_bike", "fusion_lat": 0.0, "bike_id": "3f5f217725e0ad7ac356163e4c925596", "rental_uris": {"ios": "https://dc.lft.to/lastmile_qr_scan", "android": "https://dc.lft.to/lastmile_qr_scan"}, "fusion_lon": 0.0, "name": "3f5f217725e0ad7ac356163e4c925596", "lon": -77.00759466666666}, {"is_reserved": 0, "lat": 38.92043066666667, "is_disabled": 0, "type": "electric_scooter", "fusion_lat": 0.0, "bike_id": "6ba379aac5feb388de2f903310f60be4", "rental_uris": {"ios": "https://dc.lft.to/lastmile_qr_scan", "android": "https://dc.lft.to/lastmile_qr_scan"}, "fusion_lon": 0.0, "name": "6ba379aac5feb388de2f903310f60be4", "lon": -77.03368616666667}, {"is_reserved": 0, "lat": 38.929801, "is_disabled": 0, "type": "electric_scooter", "fusion_lat": 0.0, "bike_id": "91e5d1dc0f73c3bdb5824001d120737d", "rental_uris": {"ios": "https://dc.lft.to/lastmile_qr_scan", "android": "https://dc.lft.to/lastmile_qr_scan"}, "fusion_lon": 0.0, "name": "91e5d1dc0f73c3bdb5824001d120737d", "lon": -77.05525283333333}, {"is_reserved": 0, "lat": 38.906682833333335, "is_disabled": 0, "type": "electric_scooter", "fusion_lat": 0.0, "bike_id": "9757dfddc003eea4b77710317d128722", "rental_uris": {"ios": "https://dc.lft.to/lastmile_qr_scan", "android": "https://dc.lft.to/lastmile_qr_scan"}, "fusion_lon": 0.0, "name": "9757dfddc003eea4b77710317d128722", "lon": -77.02700916666667}, {"is_reserved": 0, "lat": 38.92327566666667, "is_disabled": 0, "type": "electric_scooter", "fusion_lat": 0.0, "bike_id": "48ee1066336c2108f870726df9cc4508", "rental_uris": {"ios": "https://dc.lft.to/lastmile_qr_scan", "android": "https://dc.lft.to/lastmile_qr_scan"}, "fusion_lon": 0.0, "name": "48ee1066336c2108f870726df9cc4508", "lon": -77.03579416666666}, {"is_reserved": 0, "lat": 38.88488783333333, "is_disabled": 0, "type": "electric_scooter", "fusion_lat": 0.0, "bike_id": "327964c8582ff33a7d0f18242ddf85c6", "rental_uris": {"ios": "https://dc.lft.to/lastmile_qr_scan", "android": "https://dc.lft.to/lastmile_qr_scan"}, "fusion_lon": 0.0, "name": "327964c8582ff33a7d0f18242ddf85c6", "lon": -77.00730683333333}, {"is_reserved": 0, "lat": 38.9169375, "is_disabled": 0, "type": "electric_scooter", "fusion_lat": 0.0, "bike_id": "0650cb9170b1f95e0ca177be990679ec", "rental_uris": {"ios": "https://dc.lft.to/lastmile_qr_scan", "android": "https://dc.lft.to/lastmile_qr_scan"}, "fusion_lon": 0.0, "name": "0650cb9170b1f95e0ca177be990679ec", "lon": -77.03754733333334}, {"is_reserved": 0, "lat": 38.96866966666666, "is_disabled": 0, "type": "electric_bike", "fusion_lat": 0.0, "bike_id": "348b4323acc9edd68e80cabe8b09f816", "rental_uris": {"ios": "https://dc.lft.to/lastmile_qr_scan", "android": "https://dc.lft.to/lastmile_qr_scan"}, "fusion_lon": 0.0, "name": "348b4323acc9edd68e80cabe8b09f816", "lon": -77.06501483333334}, {"is_reserved": 0, "lat": 38.9064335, "is_disabled": 0, "type": "electric_scooter", "fusion_lat": 0.0, "bike_id": "555abcaffe62b9b1dda9abe38639d45f", "rental_uris": {"ios": "https://dc.lft.to/lastmile_qr_scan", "android": "https://dc.lft.to/lastmile_qr_scan"}, "fusion_lon": 0.0, "name": "555abcaffe62b9b1dda9abe38639d45f", "lon": -77.03874916666666}, {"is_reserved": 0, "lat": 38.928623333333334, "is_disabled": 0, "type": "electric_scooter", "fusion_lat": 0.0, "bike_id": "c3a918c9be4c57e4cc0df4045385f979", "rental_uris": {"ios": "https://dc.lft.to/lastmile_qr_scan", "android": "https://dc.lft.to/lastmile_qr_scan"}, "fusion_lon": 0.0, "name": "c3a918c9be4c57e4cc0df4045385f979", "lon": -77.0135695}, {"is_reserved": 0, "lat": 38.89344633333333, "is_disabled": 0, "type": "electric_scooter", "fusion_lat": 0.0, "bike_id": "d3d1fd4ee48b345dc95eee3ef6bacca8", "rental_uris": {"ios": "https://dc.lft.to/lastmile_qr_scan", "android": "https://dc.lft.to/lastmile_qr_scan"}, "fusion_lon": 0.0, "name": "d3d1fd4ee48b345dc95eee3ef6bacca8", "lon": -76.94933666666667}, {"is_reserved": 0, "lat": 38.900126, "is_disabled": 0, "type": "electric_scooter", "fusion_lat": 0.0, "bike_id": "9287f2fa5a48a24bf90371176f86df2d", "rental_uris": {"ios": "https://dc.lft.to/lastmile_qr_scan", "android": "https://dc.lft.to/lastmile_qr_scan"}, "fusion_lon": 0.0, "name": "9287f2fa5a48a24bf90371176f86df2d", "lon": -77.0325155}, {"is_reserved": 0, "lat": 38.89221516666667, "is_disabled": 0, "type": "electric_scooter", "fusion_lat": 0.0, "bike_id": "64893c9b8c6ec5f0abd43480f458a704", "rental_uris": {"ios": "https://dc.lft.to/lastmile_qr_scan", "android": "https://dc.lft.to/lastmile_qr_scan"}, "fusion_lon": 0.0, "name": "64893c9b8c6ec5f0abd43480f458a704", "lon": -77.04688116666667}, {"is_reserved": 0, "lat": 38.924887166666664, "is_disabled": 0, "type": "electric_scooter", "fusion_lat": 0.0, "bike_id": "f4772f2a4bd17198d0a38b5fe64e9b3b", "rental_uris": {"ios": "https://dc.lft.to/lastmile_qr_scan", "android": "https://dc.lft.to/lastmile_qr_scan"}, "fusion_lon": 0.0, "name": "f4772f2a4bd17198d0a38b5fe64e9b3b", "lon": -77.0217385}, {"is_reserved": 0, "lat": 38.89218, "is_disabled": 0, "type": "electric_scooter", "fusion_lat": 0.0, "bike_id": "741e3f8cbec84cf696bfa9814f3d05e1", "rental_uris": {"ios": "https://dc.lft.to/lastmile_qr_scan", "android": "https://dc.lft.to/lastmile_qr_scan"}, "fusion_lon": 0.0, "name": "741e3f8cbec84cf696bfa9814f3d05e1", "lon": -77.0262355}, {"is_reserved": 0, "lat": 38.8460615, "is_disabled": 0, "type": "electric_bike", "fusion_lat": 0.0, "bike_id": "92816e928ad30ddadf6e5a6d023d5cf5", "rental_uris": {"ios": "https://dc.lft.to/lastmile_qr_scan", "android": "https://dc.lft.to/lastmile_qr_scan"}, "fusion_lon": 0.0, "name": "92816e928ad30ddadf6e5a6d023d5cf5", "lon": -76.96905633333333}, {"is_reserved": 0, "lat": 38.842744, "is_disabled": 0, "type": "electric_bike", "fusion_lat": 0.0, "bike_id": "3c9a33aafe14ff8690576f4ffdabb974", "rental_uris": {"ios": "https://dc.lft.to/lastmile_qr_scan", "android": "https://dc.lft.to/lastmile_qr_scan"}, "fusion_lon": 0.0, "name": "3c9a33aafe14ff8690576f4ffdabb974", "lon": -77.0449145}, {"is_reserved": 0, "lat": 38.9230145, "is_disabled": 0, "type": "electric_scooter", "fusion_lat": 0.0, "bike_id": "c93173ba761b54760b6a85a62fcb3c52", "rental_uris": {"ios": "https://dc.lft.to/lastmile_qr_scan", "android": "https://dc.lft.to/lastmile_qr_scan"}, "fusion_lon": 0.0, "name": "c93173ba761b54760b6a85a62fcb3c52", "lon": -77.0426975}, {"is_reserved": 0, "lat": 38.908531833333335, "is_disabled": 0, "type": "electric_scooter", "fusion_lat": 0.0, "bike_id": "38c6f1eb91aa2226a11e16e4de562481", "rental_uris": {"ios": "https://dc.lft.to/lastmile_qr_scan", "android": "https://dc.lft.to/lastmile_qr_scan"}, "fusion_lon": 0.0, "name": "38c6f1eb91aa2226a11e16e4de562481", "lon": -77.04259683333333}, {"is_reserved": 0, "lat": 38.950733, "is_disabled": 0, "type": "electric_scooter", "fusion_lat": 0.0, "bike_id": "6d5b9d0fb0fa71ed08d1494decf6124d", "rental_uris": {"ios": "https://dc.lft.to/lastmile_qr_scan", "android": "https://dc.lft.to/lastmile_qr_scan"}, "fusion_lon": 0.0, "name": "6d5b9d0fb0fa71ed08d1494decf6124d", "lon": -77.03100033333334}, {"is_reserved": 0, "lat": 38.8783435, "is_disabled": 0, "type": "electric_scooter", "fusion_lat": 0.0, "bike_id": "5a2a568eef78c77750b08da5e075dacf", "rental_uris": {"ios": "https://dc.lft.to/lastmile_qr_scan", "android": "https://dc.lft.to/lastmile_qr_scan"}, "fusion_lon": 0.0, "name": "5a2a568eef78c77750b08da5e075dacf", "lon": -76.98606166666667}, {"is_reserved": 0, "lat": 38.9080165, "is_disabled": 0, "type": "electric_scooter", "fusion_lat": 0.0, "bike_id": "5fc8fb3ab6b4bce2968afb61fd1bab0f", "rental_uris": {"ios": "https://dc.lft.to/lastmile_qr_scan", "android": "https://dc.lft.to/lastmile_qr_scan"}, "fusion_lon": 0.0, "name": "5fc8fb3ab6b4bce2968afb61fd1bab0f", "lon": -77.08400116666667}, {"is_reserved": 0, "lat": 38.9007115, "is_disabled": 0, "type": "electric_scooter", "fusion_lat": 0.0, "bike_id": "6a2a4eb25d2fa4ec1376891fb5f48727", "rental_uris": {"ios": "https://dc.lft.to/lastmile_qr_scan", "android": "https://dc.lft.to/lastmile_qr_scan"}, "fusion_lon": 0.0, "name": "6a2a4eb25d2fa4ec1376891fb5f48727", "lon": -76.99837633333334}, {"is_reserved": 0, "lat": 38.90378716666667, "is_disabled": 0, "type": "electric_scooter", "fusion_lat": 0.0, "bike_id": "d3f163453c688762dcafb4a9e28bec89", "rental_uris": {"ios": "https://dc.lft.to/lastmile_qr_scan", "android": "https://dc.lft.to/lastmile_qr_scan"}, "fusion_lon": 0.0, "name": "d3f163453c688762dcafb4a9e28bec89", "lon": -77.05305916666667}, {"is_reserved": 0, "lat": 38.86209733333333, "is_disabled": 0, "type": "electric_bike", "fusion_lat": 0.0, "bike_id": "fec10b3f68d5fb0775d63e82966e4c8d", "rental_uris": {"ios": "https://dc.lft.to/lastmile_qr_scan", "android": "https://dc.lft.to/lastmile_qr_scan"}, "fusion_lon": 0.0, "name": "fec10b3f68d5fb0775d63e82966e4c8d", "lon": -76.99777416666667}, {"is_reserved": 0, "lat": 38.91780883333333, "is_disabled": 0, "type": "electric_scooter", "fusion_lat": 0.0, "bike_id": "2d18225fda821957213315b0985bb3df", "rental_uris": {"ios": "https://dc.lft.to/lastmile_qr_scan", "android": "https://dc.lft.to/lastmile_qr_scan"}, "fusion_lon": 0.0, "name": "2d18225fda821957213315b0985bb3df", "lon": -77.0288005}, {"is_reserved": 0, "lat": 38.8960225, "is_disabled": 0, "type": "electric_scooter", "fusion_lat": 0.0, "bike_id": "6bcd099faf41b0a8dca8f3f615e6ff14", "rental_uris": {"ios": "https://dc.lft.to/lastmile_qr_scan", "android": "https://dc.lft.to/lastmile_qr_scan"}, "fusion_lon": 0.0, "name": "6bcd099faf41b0a8dca8f3f615e6ff14", "lon": -77.05439216666667}, {"is_reserved": 0, "lat": 38.95423366666667, "is_disabled": 0, "type": "electric_scooter", "fusion_lat": 0.0, "bike_id": "10f1abaad224f84f417ca1bbecce3b34", "rental_uris": {"ios": "https://dc.lft.to/lastmile_qr_scan", "android": "https://dc.lft.to/lastmile_qr_scan"}, "fusion_lon": 0.0, "name": "10f1abaad224f84f417ca1bbecce3b34", "lon": -77.02762}, {"is_reserved": 0, "lat": 38.9177345, "is_disabled": 0, "type": "electric_scooter", "fusion_lat": 0.0, "bike_id": "8bde2cdc914f4c7f4ee049e2a29942a2", "rental_uris": {"ios": "https://dc.lft.to/lastmile_qr_scan", "android": "https://dc.lft.to/lastmile_qr_scan"}, "fusion_lon": 0.0, "name": "8bde2cdc914f4c7f4ee049e2a29942a2", "lon": -77.02308516666666}, {"is_reserved": 0, "lat": 38.8542105, "is_disabled": 0, "type": "electric_bike", "fusion_lat": 0.0, "bike_id": "36ecdc98f5f862285e6bb8672420428b", "rental_uris": {"ios": "https://dc.lft.to/lastmile_qr_scan", "android": "https://dc.lft.to/lastmile_qr_scan"}, "fusion_lon": 0.0, "name": "36ecdc98f5f862285e6bb8672420428b", "lon": -76.90975916666666}, {"is_reserved": 0, "lat": 38.881266833333335, "is_disabled": 0, "type": "electric_scooter", "fusion_lat": 0.0, "bike_id": "03e1ebfa20d2c7eeb4f4abdd37da2d1b", "rental_uris": {"ios": "https://dc.lft.to/lastmile_qr_scan", "android": "https://dc.lft.to/lastmile_qr_scan"}, "fusion_lon": 0.0, "name": "03e1ebfa20d2c7eeb4f4abdd37da2d1b", "lon": -77.0269295}, {"is_reserved": 0, "lat": 38.901361333333334, "is_disabled": 0, "type": "electric_scooter", "fusion_lat": 0.0, "bike_id": "9082b973ea4e409065b153b6dd530cd1", "rental_uris": {"ios": "https://dc.lft.to/lastmile_qr_scan", "android": "https://dc.lft.to/lastmile_qr_scan"}, "fusion_lon": 0.0, "name": "9082b973ea4e409065b153b6dd530cd1", "lon": -77.04182333333334}, {"is_reserved": 0, "lat": 38.874719166666665, "is_disabled": 0, "type": "electric_scooter", "fusion_lat": 0.0, "bike_id": "9158bdaed676910a5e61af61d0d575f5", "rental_uris": {"ios": "https://dc.lft.to/lastmile_qr_scan", "android": "https://dc.lft.to/lastmile_qr_scan"}, "fusion_lon": 0.0, "name": "9158bdaed676910a5e61af61d0d575f5", "lon": -77.00483433333333}, {"is_reserved": 0, "lat": 38.9287275, "is_disabled": 0, "type": "electric_scooter", "fusion_lat": 0.0, "bike_id": "7564d23689568d2872d1d2627c9445f0", "rental_uris": {"ios": "https://dc.lft.to/lastmile_qr_scan", "android": "https://dc.lft.to/lastmile_qr_scan"}, "fusion_lon": 0.0, "name": "7564d23689568d2872d1d2627c9445f0", "lon": -77.03335266666667}, {"is_reserved": 0, "lat": 38.917775666666664, "is_disabled": 0, "type": "electric_scooter", "fusion_lat": 0.0, "bike_id": "86bc67f7c7a21878b80e12597b435023", "rental_uris": {"ios": "https://dc.lft.to/lastmile_qr_scan", "android": "https://dc.lft.to/lastmile_qr_scan"}, "fusion_lon": 0.0, "name": "86bc67f7c7a21878b80e12597b435023", "lon": -77.04094766666667}, {"is_reserved": 0, "lat": 38.916878, "is_disabled": 0, "type": "electric_scooter", "fusion_lat": 0.0, "bike_id": "aa572af3815c0e75d7235b83e036da1f", "rental_uris": {"ios": "https://dc.lft.to/lastmile_qr_scan", "android": "https://dc.lft.to/lastmile_qr_scan"}, "fusion_lon": 0.0, "name": "aa572af3815c0e75d7235b83e036da1f", "lon": -77.02812433333334}, {"is_reserved": 0, "lat": 38.892210166666665, "is_disabled": 0, "type": "electric_scooter", "fusion_lat": 0.0, "bike_id": "d776f4f1fffc6c1644b1143ac9f42a00", "rental_uris": {"ios": "https://dc.lft.to/lastmile_qr_scan", "android": "https://dc.lft.to/lastmile_qr_scan"}, "fusion_lon": 0.0, "name": "d776f4f1fffc6c1644b1143ac9f42a00", "lon": -77.043305}, {"is_reserved": 0, "lat": 38.87626516666667, "is_disabled": 0, "type": "electric_scooter", "fusion_lat": 0.0, "bike_id": "fdefd205605703b61aa2886c8dbdffcd", "rental_uris": {"ios": "https://dc.lft.to/lastmile_qr_scan", "android": "https://dc.lft.to/lastmile_qr_scan"}, "fusion_lon": 0.0, "name": "fdefd205605703b61aa2886c8dbdffcd", "lon": -76.96528816666667}, {"is_reserved": 0, "lat": 38.920249166666665, "is_disabled": 0, "type": "electric_scooter", "fusion_lat": 0.0, "bike_id": "80348d7459e153e4e69e5a6d11c3ceb1", "rental_uris": {"ios": "https://dc.lft.to/lastmile_qr_scan", "android": "https://dc.lft.to/lastmile_qr_scan"}, "fusion_lon": 0.0, "name": "80348d7459e153e4e69e5a6d11c3ceb1", "lon": -76.99567716666667}, {"is_reserved": 0, "lat": 38.9049945, "is_disabled": 0, "type": "electric_scooter", "fusion_lat": 0.0, "bike_id": "db698013242837ac65aad7d7ee0c8937", "rental_uris": {"ios": "https://dc.lft.to/lastmile_qr_scan", "android": "https://dc.lft.to/lastmile_qr_scan"}, "fusion_lon": 0.0, "name": "db698013242837ac65aad7d7ee0c8937", "lon": -76.979277}, {"is_reserved": 0, "lat": 38.922420833333334, "is_disabled": 0, "type": "electric_scooter", "fusion_lat": 0.0, "bike_id": "3acc70a59666fd6885947c03e7f3e179", "rental_uris": {"ios": "https://dc.lft.to/lastmile_qr_scan", "android": "https://dc.lft.to/lastmile_qr_scan"}, "fusion_lon": 0.0, "name": "3acc70a59666fd6885947c03e7f3e179", "lon": -77.03413266666666}, {"is_reserved": 0, "lat": 38.89350733333333, "is_disabled": 0, "type": "electric_scooter", "fusion_lat": 0.0, "bike_id": "4f1a8b25e48528508a2793e9e814d42c", "rental_uris": {"ios": "https://dc.lft.to/lastmile_qr_scan", "android": "https://dc.lft.to/lastmile_qr_scan"}, "fusion_lon": 0.0, "name": "4f1a8b25e48528508a2793e9e814d42c", "lon": -77.041828}, {"is_reserved": 0, "lat": 38.91401166666667, "is_disabled": 0, "type": "electric_scooter", "fusion_lat": 0.0, "bike_id": "913e6157b9d1d996da05181fe235017c", "rental_uris": {"ios": "https://dc.lft.to/lastmile_qr_scan", "android": "https://dc.lft.to/lastmile_qr_scan"}, "fusion_lon": 0.0, "name": "913e6157b9d1d996da05181fe235017c", "lon": -77.03223216666666}, {"is_reserved": 0, "lat": 38.9026145, "is_disabled": 0, "type": "electric_scooter", "fusion_lat": 0.0, "bike_id": "778c866ce772611001a652a4e8f0d8b0", "rental_uris": {"ios": "https://dc.lft.to/lastmile_qr_scan", "android": "https://dc.lft.to/lastmile_qr_scan"}, "fusion_lon": 0.0, "name": "778c866ce772611001a652a4e8f0d8b0", "lon": -77.04500766666666}, {"is_reserved": 0, "lat": 38.8975155, "is_disabled": 0, "type": "electric_scooter", "fusion_lat": 0.0, "bike_id": "43454200e3ada8c5ef417dd0deb8dbb2", "rental_uris": {"ios": "https://dc.lft.to/lastmile_qr_scan", "android": "https://dc.lft.to/lastmile_qr_scan"}, "fusion_lon": 0.0, "name": "43454200e3ada8c5ef417dd0deb8dbb2", "lon": -76.94189416666667}, {"is_reserved": 0, "lat": 38.90860283333333, "is_disabled": 0, "type": "electric_scooter", "fusion_lat": 0.0, "bike_id": "5aac78c87adf749ce5c61120411ecef8", "rental_uris": {"ios": "https://dc.lft.to/lastmile_qr_scan", "android": "https://dc.lft.to/lastmile_qr_scan"}, "fusion_lon": 0.0, "name": "5aac78c87adf749ce5c61120411ecef8", "lon": -77.04475583333334}, {"is_reserved": 0, "lat": 38.910176666666665, "is_disabled": 0, "type": "electric_scooter", "fusion_lat": 0.0, "bike_id": "c5585550b86ec15aff80db296688128c", "rental_uris": {"ios": "https://dc.lft.to/lastmile_qr_scan", "android": "https://dc.lft.to/lastmile_qr_scan"}, "fusion_lon": 0.0, "name": "c5585550b86ec15aff80db296688128c", "lon": -77.03843466666666}, {"is_reserved": 0, "lat": 38.900308, "is_disabled": 0, "type": "electric_scooter", "fusion_lat": 0.0, "bike_id": "4e3544d3f7a48bec3a373ef57bc28f66", "rental_uris": {"ios": "https://dc.lft.to/lastmile_qr_scan", "android": "https://dc.lft.to/lastmile_qr_scan"}, "fusion_lon": 0.0, "name": "4e3544d3f7a48bec3a373ef57bc28f66", "lon": -76.9883475}, {"is_reserved": 0, "lat": 38.92217866666667, "is_disabled": 0, "type": "electric_scooter", "fusion_lat": 0.0, "bike_id": "feb40982cc4de065a958474820e97056", "rental_uris": {"ios": "https://dc.lft.to/lastmile_qr_scan", "android": "https://dc.lft.to/lastmile_qr_scan"}, "fusion_lon": 0.0, "name": "feb40982cc4de065a958474820e97056", "lon": -77.0351085}, {"is_reserved": 0, "lat": 38.855109166666665, "is_disabled": 0, "type": "electric_bike", "fusion_lat": 0.0, "bike_id": "8462ea4cda0aff9d4763e3fc10935fac", "rental_uris": {"ios": "https://dc.lft.to/lastmile_qr_scan", "android": "https://dc.lft.to/lastmile_qr_scan"}, "fusion_lon": 0.0, "name": "8462ea4cda0aff9d4763e3fc10935fac", "lon": -77.120404}, {"is_reserved": 0, "lat": 38.893434666666664, "is_disabled": 0, "type": "electric_scooter", "fusion_lat": 0.0, "bike_id": "277b8aab3fd5ff139a1030ed33a54cb3", "rental_uris": {"ios": "https://dc.lft.to/lastmile_qr_scan", "android": "https://dc.lft.to/lastmile_qr_scan"}, "fusion_lon": 0.0, "name": "277b8aab3fd5ff139a1030ed33a54cb3", "lon": -77.0019815}, {"is_reserved": 0, "lat": 38.92809666666667, "is_disabled": 0, "type": "electric_scooter", "fusion_lat": 0.0, "bike_id": "ddf0af084353e284fec5492fbf84ae20", "rental_uris": {"ios": "https://dc.lft.to/lastmile_qr_scan", "android": "https://dc.lft.to/lastmile_qr_scan"}, "fusion_lon": 0.0, "name": "ddf0af084353e284fec5492fbf84ae20", "lon": -77.05395333333334}, {"is_reserved": 0, "lat": 38.88730233333333, "is_disabled": 0, "type": "electric_scooter", "fusion_lat": 0.0, "bike_id": "2a722126e0265d88e18c12bb9bccd79c", "rental_uris": {"ios": "https://dc.lft.to/lastmile_qr_scan", "android": "https://dc.lft.to/lastmile_qr_scan"}, "fusion_lon": 0.0, "name": "2a722126e0265d88e18c12bb9bccd79c", "lon": -77.01386833333333}, {"is_reserved": 0, "lat": 38.92079433333333, "is_disabled": 0, "type": "electric_scooter", "fusion_lat": 0.0, "bike_id": "1f5fec10c93e6e3b4da6887bfc360d3b", "rental_uris": {"ios": "https://dc.lft.to/lastmile_qr_scan", "android": "https://dc.lft.to/lastmile_qr_scan"}, "fusion_lon": 0.0, "name": "1f5fec10c93e6e3b4da6887bfc360d3b", "lon": -76.99513016666667}, {"is_reserved": 0, "lat": 38.89768633333333, "is_disabled": 0, "type": "electric_scooter", "fusion_lat": 0.0, "bike_id": "a1700cf9f5f7fa1e4e69cc08f77b5761", "rental_uris": {"ios": "https://dc.lft.to/lastmile_qr_scan", "android": "https://dc.lft.to/lastmile_qr_scan"}, "fusion_lon": 0.0, "name": "a1700cf9f5f7fa1e4e69cc08f77b5761", "lon": -77.012215}, {"is_reserved": 0, "lat": 38.90455433333333, "is_disabled": 0, "type": "electric_scooter", "fusion_lat": 0.0, "bike_id": "f3e8ac52aa09a1659efcfdf970861e4f", "rental_uris": {"ios": "https://dc.lft.to/lastmile_qr_scan", "android": "https://dc.lft.to/lastmile_qr_scan"}, "fusion_lon": 0.0, "name": "f3e8ac52aa09a1659efcfdf970861e4f", "lon": -76.982603}, {"is_reserved": 0, "lat": 38.923654, "is_disabled": 0, "type": "electric_scooter", "fusion_lat": 0.0, "bike_id": "be6661c17e31376da46386d643a05469", "rental_uris": {"ios": "https://dc.lft.to/lastmile_qr_scan", "android": "https://dc.lft.to/lastmile_qr_scan"}, "fusion_lon": 0.0, "name": "be6661c17e31376da46386d643a05469", "lon": -77.02976733333334}, {"is_reserved": 0, "lat": 38.88989866666667, "is_disabled": 0, "type": "electric_bike", "fusion_lat": 0.0, "bike_id": "ad08ef7ce79dfbf861b91b2baf013f28", "rental_uris": {"ios": "https://dc.lft.to/lastmile_qr_scan", "android": "https://dc.lft.to/lastmile_qr_scan"}, "fusion_lon": 0.0, "name": "ad08ef7ce79dfbf861b91b2baf013f28", "lon": -76.954108}, {"is_reserved": 0, "lat": 38.85412433333333, "is_disabled": 0, "type": "electric_bike", "fusion_lat": 0.0, "bike_id": "9668b72674d5b3f5e4bce94643ec415e", "rental_uris": {"ios": "https://dc.lft.to/lastmile_qr_scan", "android": "https://dc.lft.to/lastmile_qr_scan"}, "fusion_lon": 0.0, "name": "9668b72674d5b3f5e4bce94643ec415e", "lon": -77.120748}, {"is_reserved": 0, "lat": 38.90072766666667, "is_disabled": 0, "type": "electric_scooter", "fusion_lat": 0.0, "bike_id": "71eb0e4de80aa82dea29207164c2fc97", "rental_uris": {"ios": "https://dc.lft.to/lastmile_qr_scan", "android": "https://dc.lft.to/lastmile_qr_scan"}, "fusion_lon": 0.0, "name": "71eb0e4de80aa82dea29207164c2fc97", "lon": -77.023604}, {"is_reserved": 0, "lat": 38.89832633333333, "is_disabled": 0, "type": "electric_scooter", "fusion_lat": 0.0, "bike_id": "cc0dd237b7987c9ab69f9eb44ffd7db5", "rental_uris": {"ios": "https://dc.lft.to/lastmile_qr_scan", "android": "https://dc.lft.to/lastmile_qr_scan"}, "fusion_lon": 0.0, "name": "cc0dd237b7987c9ab69f9eb44ffd7db5", "lon": -77.033296}, {"is_reserved": 0, "lat": 38.904100666666665, "is_disabled": 0, "type": "electric_scooter", "fusion_lat": 0.0, "bike_id": "01d7f9a6c32759684c35581957cfc581", "rental_uris": {"ios": "https://dc.lft.to/lastmile_qr_scan", "android": "https://dc.lft.to/lastmile_qr_scan"}, "fusion_lon": 0.0, "name": "01d7f9a6c32759684c35581957cfc581", "lon": -77.0328155}, {"is_reserved": 0, "lat": 38.93169133333333, "is_disabled": 0, "type": "electric_scooter", "fusion_lat": 0.0, "bike_id": "b0c0eb167d21088d3825c24eaf2fe551", "rental_uris": {"ios": "https://dc.lft.to/lastmile_qr_scan", "android": "https://dc.lft.to/lastmile_qr_scan"}, "fusion_lon": 0.0, "name": "b0c0eb167d21088d3825c24eaf2fe551", "lon": -77.0281585}, {"is_reserved": 0, "lat": 38.91409566666667, "is_disabled": 0, "type": "electric_scooter", "fusion_lat": 0.0, "bike_id": "1a874df8f4d8f99cdd5970386ee8b59c", "rental_uris": {"ios": "https://dc.lft.to/lastmile_qr_scan", "android": "https://dc.lft.to/lastmile_qr_scan"}, "fusion_lon": 0.0, "name": "1a874df8f4d8f99cdd5970386ee8b59c", "lon": -77.04396033333333}, {"is_reserved": 0, "lat": 38.953529333333336, "is_disabled": 0, "type": "electric_bike", "fusion_lat": 0.0, "bike_id": "01dc771a1b5fdb6ff971b94bfd5e8796", "rental_uris": {"ios": "https://dc.lft.to/lastmile_qr_scan", "android": "https://dc.lft.to/lastmile_qr_scan"}, "fusion_lon": 0.0, "name": "01dc771a1b5fdb6ff971b94bfd5e8796", "lon": -76.98097466666667}, {"is_reserved": 0, "lat": 38.8935845, "is_disabled": 0, "type": "electric_scooter", "fusion_lat": 0.0, "bike_id": "7266e0bdf5cd8ee4d51eab3b44704017", "rental_uris": {"ios": "https://dc.lft.to/lastmile_qr_scan", "android": "https://dc.lft.to/lastmile_qr_scan"}, "fusion_lon": 0.0, "name": "7266e0bdf5cd8ee4d51eab3b44704017", "lon": -77.04783416666666}, {"is_reserved": 0, "lat": 38.89566083333333, "is_disabled": 0, "type": "electric_scooter", "fusion_lat": 0.0, "bike_id": "9eecbe68ca3bde713a3a69a8121004e9", "rental_uris": {"ios": "https://dc.lft.to/lastmile_qr_scan", "android": "https://dc.lft.to/lastmile_qr_scan"}, "fusion_lon": 0.0, "name": "9eecbe68ca3bde713a3a69a8121004e9", "lon": -77.02003766666667}, {"is_reserved": 0, "lat": 38.8762725, "is_disabled": 0, "type": "electric_scooter", "fusion_lat": 0.0, "bike_id": "001dfa9b2441fa42a7364670e75f4c7b", "rental_uris": {"ios": "https://dc.lft.to/lastmile_qr_scan", "android": "https://dc.lft.to/lastmile_qr_scan"}, "fusion_lon": 0.0, "name": "001dfa9b2441fa42a7364670e75f4c7b", "lon": -76.96526716666666}, {"is_reserved": 0, "lat": 38.908557, "is_disabled": 0, "type": "electric_scooter", "fusion_lat": 0.0, "bike_id": "7afbe9f8b402ef51283be7413549b2e2", "rental_uris": {"ios": "https://dc.lft.to/lastmile_qr_scan", "android": "https://dc.lft.to/lastmile_qr_scan"}, "fusion_lon": 0.0, "name": "7afbe9f8b402ef51283be7413549b2e2", "lon": -77.04267516666667}, {"is_reserved": 0, "lat": 38.8933905, "is_disabled": 0, "type": "electric_scooter", "fusion_lat": 0.0, "bike_id": "32b1b0f8b1122a9aaf79bbd20d719e3f", "rental_uris": {"ios": "https://dc.lft.to/lastmile_qr_scan", "android": "https://dc.lft.to/lastmile_qr_scan"}, "fusion_lon": 0.0, "name": "32b1b0f8b1122a9aaf79bbd20d719e3f", "lon": -76.93137416666667}, {"is_reserved": 0, "lat": 38.8922225, "is_disabled": 0, "type": "electric_scooter", "fusion_lat": 0.0, "bike_id": "19f15d43659f669cc2fb106019eb9343", "rental_uris": {"ios": "https://dc.lft.to/lastmile_qr_scan", "android": "https://dc.lft.to/lastmile_qr_scan"}, "fusion_lon": 0.0, "name": "19f15d43659f669cc2fb106019eb9343", "lon": -77.02778433333333}, {"is_reserved": 0, "lat": 38.942908833333334, "is_disabled": 0, "type": "electric_scooter", "fusion_lat": 0.0, "bike_id": "32d761fee3b6775f110d75b950f932be", "rental_uris": {"ios": "https://dc.lft.to/lastmile_qr_scan", "android": "https://dc.lft.to/lastmile_qr_scan"}, "fusion_lon": 0.0, "name": "32d761fee3b6775f110d75b950f932be", "lon": -77.02174466666666}, {"is_reserved": 0, "lat": 38.854493833333336, "is_disabled": 0, "type": "electric_scooter", "fusion_lat": 0.0, "bike_id": "0c189a982213df3b01718b3e8a12b450", "rental_uris": {"ios": "https://dc.lft.to/lastmile_qr_scan", "android": "https://dc.lft.to/lastmile_qr_scan"}, "fusion_lon": 0.0, "name": "0c189a982213df3b01718b3e8a12b450", "lon": -76.98578466666666}, {"is_reserved": 0, "lat": 38.96228166666667, "is_disabled": 0, "type": "electric_bike", "fusion_lat": 0.0, "bike_id": "79d998d01efa3356b13c4dd278703cf2", "rental_uris": {"ios": "https://dc.lft.to/lastmile_qr_scan", "android": "https://dc.lft.to/lastmile_qr_scan"}, "fusion_lon": 0.0, "name": "79d998d01efa3356b13c4dd278703cf2", "lon": -77.026262}, {"is_reserved": 0, "lat": 38.954216333333335, "is_disabled": 0, "type": "electric_scooter", "fusion_lat": 0.0, "bike_id": "f834ccb304c88fbf98fe195b3b76779b", "rental_uris": {"ios": "https://dc.lft.to/lastmile_qr_scan", "android": "https://dc.lft.to/lastmile_qr_scan"}, "fusion_lon": 0.0, "name": "f834ccb304c88fbf98fe195b3b76779b", "lon": -77.02758966666667}, {"is_reserved": 0, "lat": 38.887403, "is_disabled": 0, "type": "electric_scooter", "fusion_lat": 0.0, "bike_id": "bc0513d50c91c4cdc487b0df0537ead6", "rental_uris": {"ios": "https://dc.lft.to/lastmile_qr_scan", "android": "https://dc.lft.to/lastmile_qr_scan"}, "fusion_lon": 0.0, "name": "bc0513d50c91c4cdc487b0df0537ead6", "lon": -77.01534233333334}, {"is_reserved": 0, "lat": 38.91648683333333, "is_disabled": 0, "type": "electric_scooter", "fusion_lat": 0.0, "bike_id": "16a64dc4b2564889195bbe0d1c021ecc", "rental_uris": {"ios": "https://dc.lft.to/lastmile_qr_scan", "android": "https://dc.lft.to/lastmile_qr_scan"}, "fusion_lon": 0.0, "name": "16a64dc4b2564889195bbe0d1c021ecc", "lon": -77.021803}, {"is_reserved": 0, "lat": 38.95424833333333, "is_disabled": 0, "type": "electric_scooter", "fusion_lat": 0.0, "bike_id": "d16579435c77852d39b8d2be6ba6e81a", "rental_uris": {"ios": "https://dc.lft.to/lastmile_qr_scan", "android": "https://dc.lft.to/lastmile_qr_scan"}, "fusion_lon": 0.0, "name": "d16579435c77852d39b8d2be6ba6e81a", "lon": -77.027639}, {"is_reserved": 0, "lat": 38.9197755, "is_disabled": 0, "type": "electric_scooter", "fusion_lat": 0.0, "bike_id": "c734511ec9653e4a62837730bbcc25d7", "rental_uris": {"ios": "https://dc.lft.to/lastmile_qr_scan", "android": "https://dc.lft.to/lastmile_qr_scan"}, "fusion_lon": 0.0, "name": "c734511ec9653e4a62837730bbcc25d7", "lon": -77.02177}, {"is_reserved": 0, "lat": 38.882498, "is_disabled": 0, "type": "electric_scooter", "fusion_lat": 0.0, "bike_id": "c3a17ce27121785d6a78a844a4f8894c", "rental_uris": {"ios": "https://dc.lft.to/lastmile_qr_scan", "android": "https://dc.lft.to/lastmile_qr_scan"}, "fusion_lon": 0.0, "name": "c3a17ce27121785d6a78a844a4f8894c", "lon": -76.9950695}, {"is_reserved": 0, "lat": 38.905063, "is_disabled": 0, "type": "electric_scooter", "fusion_lat": 0.0, "bike_id": "be380a7aa68a95c34fc7079f578abd39", "rental_uris": {"ios": "https://dc.lft.to/lastmile_qr_scan", "android": "https://dc.lft.to/lastmile_qr_scan"}, "fusion_lon": 0.0, "name": "be380a7aa68a95c34fc7079f578abd39", "lon": -77.0493745}, {"is_reserved": 0, "lat": 38.923708, "is_disabled": 0, "type": "electric_scooter", "fusion_lat": 0.0, "bike_id": "8729df120eb34d3c0677d684a122cd1c", "rental_uris": {"ios": "https://dc.lft.to/lastmile_qr_scan", "android": "https://dc.lft.to/lastmile_qr_scan"}, "fusion_lon": 0.0, "name": "8729df120eb34d3c0677d684a122cd1c", "lon": -77.0313225}, {"is_reserved": 0, "lat": 38.92348916666667, "is_disabled": 0, "type": "electric_scooter", "fusion_lat": 0.0, "bike_id": "6e82816f147623955da92cecba1e9ad3", "rental_uris": {"ios": "https://dc.lft.to/lastmile_qr_scan", "android": "https://dc.lft.to/lastmile_qr_scan"}, "fusion_lon": 0.0, "name": "6e82816f147623955da92cecba1e9ad3", "lon": -77.0534405}, {"is_reserved": 0, "lat": 38.924277833333335, "is_disabled": 0, "type": "electric_scooter", "fusion_lat": 0.0, "bike_id": "2c44d527062730543ac9ad2b54602a36", "rental_uris": {"ios": "https://dc.lft.to/lastmile_qr_scan", "android": "https://dc.lft.to/lastmile_qr_scan"}, "fusion_lon": 0.0, "name": "2c44d527062730543ac9ad2b54602a36", "lon": -77.0400755}, {"is_reserved": 0, "lat": 38.8925805, "is_disabled": 0, "type": "electric_scooter", "fusion_lat": 0.0, "bike_id": "4c760c19c8959adfeb68ca5075e80b1c", "rental_uris": {"ios": "https://dc.lft.to/lastmile_qr_scan", "android": "https://dc.lft.to/lastmile_qr_scan"}, "fusion_lon": 0.0, "name": "4c760c19c8959adfeb68ca5075e80b1c", "lon": -77.0465635}, {"is_reserved": 0, "lat": 38.90097816666667, "is_disabled": 0, "type": "electric_scooter", "fusion_lat": 0.0, "bike_id": "21eee6b5820d402e5816b0d2f153bd86", "rental_uris": {"ios": "https://dc.lft.to/lastmile_qr_scan", "android": "https://dc.lft.to/lastmile_qr_scan"}, "fusion_lon": 0.0, "name": "21eee6b5820d402e5816b0d2f153bd86", "lon": -77.006412}, {"is_reserved": 0, "lat": 38.92857883333333, "is_disabled": 0, "type": "electric_scooter", "fusion_lat": 0.0, "bike_id": "6398395cd58788a3ff72164cdf069504", "rental_uris": {"ios": "https://dc.lft.to/lastmile_qr_scan", "android": "https://dc.lft.to/lastmile_qr_scan"}, "fusion_lon": 0.0, "name": "6398395cd58788a3ff72164cdf069504", "lon": -77.01363066666667}, {"is_reserved": 0, "lat": 38.86253216666667, "is_disabled": 0, "type": "electric_scooter", "fusion_lat": 0.0, "bike_id": "6f81360bc37e91248d32253b5555b6c7", "rental_uris": {"ios": "https://dc.lft.to/lastmile_qr_scan", "android": "https://dc.lft.to/lastmile_qr_scan"}, "fusion_lon": 0.0, "name": "6f81360bc37e91248d32253b5555b6c7", "lon": -76.9869235}, {"is_reserved": 0, "lat": 38.918041, "is_disabled": 0, "type": "electric_scooter", "fusion_lat": 0.0, "bike_id": "378063c43597bc32406bb2f5313185da", "rental_uris": {"ios": "https://dc.lft.to/lastmile_qr_scan", "android": "https://dc.lft.to/lastmile_qr_scan"}, "fusion_lon": 0.0, "name": "378063c43597bc32406bb2f5313185da", "lon": -77.01605083333334}, {"is_reserved": 0, "lat": 38.909566, "is_disabled": 0, "type": "electric_scooter", "fusion_lat": 0.0, "bike_id": "47e2e36cc8939b7272d1549930820a96", "rental_uris": {"ios": "https://dc.lft.to/lastmile_qr_scan", "android": "https://dc.lft.to/lastmile_qr_scan"}, "fusion_lon": 0.0, "name": "47e2e36cc8939b7272d1549930820a96", "lon": -77.03169466666667}, {"is_reserved": 0, "lat": 38.923711833333336, "is_disabled": 0, "type": "electric_scooter", "fusion_lat": 0.0, "bike_id": "4e41b1defa03266bb6be10a81be29fa8", "rental_uris": {"ios": "https://dc.lft.to/lastmile_qr_scan", "android": "https://dc.lft.to/lastmile_qr_scan"}, "fusion_lon": 0.0, "name": "4e41b1defa03266bb6be10a81be29fa8", "lon": -77.0313455}, {"is_reserved": 0, "lat": 38.892292833333336, "is_disabled": 0, "type": "electric_scooter", "fusion_lat": 0.0, "bike_id": "3b7631a4cab7aeb18de3695b992e2827", "rental_uris": {"ios": "https://dc.lft.to/lastmile_qr_scan", "android": "https://dc.lft.to/lastmile_qr_scan"}, "fusion_lon": 0.0, "name": "3b7631a4cab7aeb18de3695b992e2827", "lon": -77.0500125}, {"is_reserved": 0, "lat": 38.91193083333334, "is_disabled": 0, "type": "electric_scooter", "fusion_lat": 0.0, "bike_id": "98186cd00bd74df7ecfb2fb1a9622bec", "rental_uris": {"ios": "https://dc.lft.to/lastmile_qr_scan", "android": "https://dc.lft.to/lastmile_qr_scan"}, "fusion_lon": 0.0, "name": "98186cd00bd74df7ecfb2fb1a9622bec", "lon": -77.031835}, {"is_reserved": 0, "lat": 38.90606316666667, "is_disabled": 0, "type": "electric_scooter", "fusion_lat": 0.0, "bike_id": "6875dc81d3166ce5f3fd708a62f4f4fd", "rental_uris": {"ios": "https://dc.lft.to/lastmile_qr_scan", "android": "https://dc.lft.to/lastmile_qr_scan"}, "fusion_lon": 0.0, "name": "6875dc81d3166ce5f3fd708a62f4f4fd", "lon": -77.03959866666666}, {"is_reserved": 0, "lat": 38.87731766666667, "is_disabled": 0, "type": "electric_bike", "fusion_lat": 0.0, "bike_id": "0083a2e12020deb9b7295472c5cfbf66", "rental_uris": {"ios": "https://dc.lft.to/lastmile_qr_scan", "android": "https://dc.lft.to/lastmile_qr_scan"}, "fusion_lon": 0.0, "name": "0083a2e12020deb9b7295472c5cfbf66", "lon": -77.118489}, {"is_reserved": 0, "lat": 38.90583633333333, "is_disabled": 0, "type": "electric_scooter", "fusion_lat": 0.0, "bike_id": "9750be59d162347a28df0e578d6b26a7", "rental_uris": {"ios": "https://dc.lft.to/lastmile_qr_scan", "android": "https://dc.lft.to/lastmile_qr_scan"}, "fusion_lon": 0.0, "name": "9750be59d162347a28df0e578d6b26a7", "lon": -77.00597266666666}, {"is_reserved": 0, "lat": 38.887687, "is_disabled": 0, "type": "electric_scooter", "fusion_lat": 0.0, "bike_id": "1545ef4488ef0ec4df0fb894f4cf3595", "rental_uris": {"ios": "https://dc.lft.to/lastmile_qr_scan", "android": "https://dc.lft.to/lastmile_qr_scan"}, "fusion_lon": 0.0, "name": "1545ef4488ef0ec4df0fb894f4cf3595", "lon": -76.9976765}, {"is_reserved": 0, "lat": 38.8848365, "is_disabled": 0, "type": "electric_scooter", "fusion_lat": 0.0, "bike_id": "9d5d09c81df110dd01851533b8bc546f", "rental_uris": {"ios": "https://dc.lft.to/lastmile_qr_scan", "android": "https://dc.lft.to/lastmile_qr_scan"}, "fusion_lon": 0.0, "name": "9d5d09c81df110dd01851533b8bc546f", "lon": -77.02090066666666}, {"is_reserved": 0, "lat": 38.95182483333333, "is_disabled": 0, "type": "electric_bike", "fusion_lat": 0.0, "bike_id": "cc61f8fde89a9420554ccd7eece752c2", "rental_uris": {"ios": "https://dc.lft.to/lastmile_qr_scan", "android": "https://dc.lft.to/lastmile_qr_scan"}, "fusion_lon": 0.0, "name": "cc61f8fde89a9420554ccd7eece752c2", "lon": -76.93541983333333}, {"is_reserved": 0, "lat": 38.90018283333333, "is_disabled": 0, "type": "electric_scooter", "fusion_lat": 0.0, "bike_id": "e69ca7625259c8f35680022cf4b2d49b", "rental_uris": {"ios": "https://dc.lft.to/lastmile_qr_scan", "android": "https://dc.lft.to/lastmile_qr_scan"}, "fusion_lon": 0.0, "name": "e69ca7625259c8f35680022cf4b2d49b", "lon": -76.99866433333334}, {"is_reserved": 0, "lat": 38.923454666666665, "is_disabled": 0, "type": "electric_scooter", "fusion_lat": 0.0, "bike_id": "3ca7309c6d003e7592f1b271af264a54", "rental_uris": {"ios": "https://dc.lft.to/lastmile_qr_scan", "android": "https://dc.lft.to/lastmile_qr_scan"}, "fusion_lon": 0.0, "name": "3ca7309c6d003e7592f1b271af264a54", "lon": -77.03250133333333}, {"is_reserved": 0, "lat": 38.90726183333334, "is_disabled": 0, "type": "electric_scooter", "fusion_lat": 0.0, "bike_id": "349899969f7747adbdb4bf2741b157c7", "rental_uris": {"ios": "https://dc.lft.to/lastmile_qr_scan", "android": "https://dc.lft.to/lastmile_qr_scan"}, "fusion_lon": 0.0, "name": "349899969f7747adbdb4bf2741b157c7", "lon": -77.02753783333333}, {"is_reserved": 0, "lat": 38.89221666666667, "is_disabled": 0, "type": "electric_scooter", "fusion_lat": 0.0, "bike_id": "85bee8a0c2b67af152aa52c350ccc9eb", "rental_uris": {"ios": "https://dc.lft.to/lastmile_qr_scan", "android": "https://dc.lft.to/lastmile_qr_scan"}, "fusion_lon": 0.0, "name": "85bee8a0c2b67af152aa52c350ccc9eb", "lon": -77.04862816666666}, {"is_reserved": 0, "lat": 38.9031045, "is_disabled": 0, "type": "electric_scooter", "fusion_lat": 0.0, "bike_id": "f51e89f2b408db2eb4167c46ff5e4cd3", "rental_uris": {"ios": "https://dc.lft.to/lastmile_qr_scan", "android": "https://dc.lft.to/lastmile_qr_scan"}, "fusion_lon": 0.0, "name": "f51e89f2b408db2eb4167c46ff5e4cd3", "lon": -77.05892566666667}, {"is_reserved": 0, "lat": 38.928607166666666, "is_disabled": 0, "type": "electric_scooter", "fusion_lat": 0.0, "bike_id": "0bf3bd27d3059f6960334aa42685721d", "rental_uris": {"ios": "https://dc.lft.to/lastmile_qr_scan", "android": "https://dc.lft.to/lastmile_qr_scan"}, "fusion_lon": 0.0, "name": "0bf3bd27d3059f6960334aa42685721d", "lon": -77.014014}, {"is_reserved": 0, "lat": 38.91059, "is_disabled": 0, "type": "electric_scooter", "fusion_lat": 0.0, "bike_id": "e23fe248209a94deb4791daf64037466", "rental_uris": {"ios": "https://dc.lft.to/lastmile_qr_scan", "android": "https://dc.lft.to/lastmile_qr_scan"}, "fusion_lon": 0.0, "name": "e23fe248209a94deb4791daf64037466", "lon": -77.021769}, {"is_reserved": 0, "lat": 38.864205, "is_disabled": 0, "type": "electric_scooter", "fusion_lat": 0.0, "bike_id": "d01762e622e0e381171afb12517f626d", "rental_uris": {"ios": "https://dc.lft.to/lastmile_qr_scan", "android": "https://dc.lft.to/lastmile_qr_scan"}, "fusion_lon": 0.0, "name": "d01762e622e0e381171afb12517f626d", "lon": -76.98993483333334}, {"is_reserved": 0, "lat": 38.9246925, "is_disabled": 0, "type": "electric_bike", "fusion_lat": 0.0, "bike_id": "d23102ff84de2c0fddab0a583c8ab67b", "rental_uris": {"ios": "https://dc.lft.to/lastmile_qr_scan", "android": "https://dc.lft.to/lastmile_qr_scan"}, "fusion_lon": 0.0, "name": "d23102ff84de2c0fddab0a583c8ab67b", "lon": -77.208391}, {"is_reserved": 0, "lat": 38.89221416666667, "is_disabled": 0, "type": "electric_scooter", "fusion_lat": 0.0, "bike_id": "a7febff0b0a9dce0c81fc330bf2a8c52", "rental_uris": {"ios": "https://dc.lft.to/lastmile_qr_scan", "android": "https://dc.lft.to/lastmile_qr_scan"}, "fusion_lon": 0.0, "name": "a7febff0b0a9dce0c81fc330bf2a8c52", "lon": -77.02779533333333}, {"is_reserved": 0, "lat": 38.921346666666665, "is_disabled": 0, "type": "electric_scooter", "fusion_lat": 0.0, "bike_id": "93e66d5d3769fa7aaf379ee38e2abb0a", "rental_uris": {"ios": "https://dc.lft.to/lastmile_qr_scan", "android": "https://dc.lft.to/lastmile_qr_scan"}, "fusion_lon": 0.0, "name": "93e66d5d3769fa7aaf379ee38e2abb0a", "lon": -77.00404333333333}, {"is_reserved": 0, "lat": 38.896163333333334, "is_disabled": 0, "type": "electric_scooter", "fusion_lat": 0.0, "bike_id": "00eb27932f5856a267951147de6d386d", "rental_uris": {"ios": "https://dc.lft.to/lastmile_qr_scan", "android": "https://dc.lft.to/lastmile_qr_scan"}, "fusion_lon": 0.0, "name": "00eb27932f5856a267951147de6d386d", "lon": -77.02183216666667}, {"is_reserved": 0, "lat": 38.90555466666667, "is_disabled": 0, "type": "electric_scooter", "fusion_lat": 0.0, "bike_id": "bd05ad870458da984f00ace1cdd7895d", "rental_uris": {"ios": "https://dc.lft.to/lastmile_qr_scan", "android": "https://dc.lft.to/lastmile_qr_scan"}, "fusion_lon": 0.0, "name": "bd05ad870458da984f00ace1cdd7895d", "lon": -77.00584116666667}, {"is_reserved": 0, "lat": 38.935703833333335, "is_disabled": 0, "type": "electric_scooter", "fusion_lat": 0.0, "bike_id": "8e9e44de0ce0b02bb018a515fe78c1d5", "rental_uris": {"ios": "https://dc.lft.to/lastmile_qr_scan", "android": "https://dc.lft.to/lastmile_qr_scan"}, "fusion_lon": 0.0, "name": "8e9e44de0ce0b02bb018a515fe78c1d5", "lon": -77.03727866666667}, {"is_reserved": 0, "lat": 38.831428833333334, "is_disabled": 0, "type": "electric_bike", "fusion_lat": 0.0, "bike_id": "779fde3d112ce035c5f62fa3a5ecfc1a", "rental_uris": {"ios": "https://dc.lft.to/lastmile_qr_scan", "android": "https://dc.lft.to/lastmile_qr_scan"}, "fusion_lon": 0.0, "name": "779fde3d112ce035c5f62fa3a5ecfc1a", "lon": -77.113288}, {"is_reserved": 0, "lat": 38.91052783333333, "is_disabled": 0, "type": "electric_scooter", "fusion_lat": 0.0, "bike_id": "8444d26af5b718e44f4c24ea3f386938", "rental_uris": {"ios": "https://dc.lft.to/lastmile_qr_scan", "android": "https://dc.lft.to/lastmile_qr_scan"}, "fusion_lon": 0.0, "name": "8444d26af5b718e44f4c24ea3f386938", "lon": -77.0584115}, {"is_reserved": 0, "lat": 38.9237705, "is_disabled": 0, "type": "electric_scooter", "fusion_lat": 0.0, "bike_id": "e881a1a75412ef440c97b3c9007be95f", "rental_uris": {"ios": "https://dc.lft.to/lastmile_qr_scan", "android": "https://dc.lft.to/lastmile_qr_scan"}, "fusion_lon": 0.0, "name": "e881a1a75412ef440c97b3c9007be95f", "lon": -77.03138583333333}, {"is_reserved": 0, "lat": 38.9034535, "is_disabled": 0, "type": "electric_scooter", "fusion_lat": 0.0, "bike_id": "d89d7dd9d726f03ade8d5d9e524009e2", "rental_uris": {"ios": "https://dc.lft.to/lastmile_qr_scan", "android": "https://dc.lft.to/lastmile_qr_scan"}, "fusion_lon": 0.0, "name": "d89d7dd9d726f03ade8d5d9e524009e2", "lon": -77.00574783333333}, {"is_reserved": 0, "lat": 38.922609666666666, "is_disabled": 0, "type": "electric_scooter", "fusion_lat": 0.0, "bike_id": "3fd0f9fce0760e58fe1f6de34fa1d455", "rental_uris": {"ios": "https://dc.lft.to/lastmile_qr_scan", "android": "https://dc.lft.to/lastmile_qr_scan"}, "fusion_lon": 0.0, "name": "3fd0f9fce0760e58fe1f6de34fa1d455", "lon": -77.01888983333333}, {"is_reserved": 0, "lat": 38.906513333333336, "is_disabled": 0, "type": "electric_scooter", "fusion_lat": 0.0, "bike_id": "5029cd13512e5c1e16e6a9909e761a9f", "rental_uris": {"ios": "https://dc.lft.to/lastmile_qr_scan", "android": "https://dc.lft.to/lastmile_qr_scan"}, "fusion_lon": 0.0, "name": "5029cd13512e5c1e16e6a9909e761a9f", "lon": -77.048261}, {"is_reserved": 0, "lat": 38.919168666666664, "is_disabled": 0, "type": "electric_scooter", "fusion_lat": 0.0, "bike_id": "4f1e43916acc7c6139ac86287159e05f", "rental_uris": {"ios": "https://dc.lft.to/lastmile_qr_scan", "android": "https://dc.lft.to/lastmile_qr_scan"}, "fusion_lon": 0.0, "name": "4f1e43916acc7c6139ac86287159e05f", "lon": -77.04601766666667}, {"is_reserved": 0, "lat": 38.90187616666667, "is_disabled": 0, "type": "electric_scooter", "fusion_lat": 0.0, "bike_id": "b6ea2b3b9b6d7ea8ae2db0e45b59f776", "rental_uris": {"ios": "https://dc.lft.to/lastmile_qr_scan", "android": "https://dc.lft.to/lastmile_qr_scan"}, "fusion_lon": 0.0, "name": "b6ea2b3b9b6d7ea8ae2db0e45b59f776", "lon": -77.022129}, {"is_reserved": 0, "lat": 38.90357783333333, "is_disabled": 0, "type": "electric_scooter", "fusion_lat": 0.0, "bike_id": "e35d73977b06b3c029b236d1ed676a07", "rental_uris": {"ios": "https://dc.lft.to/lastmile_qr_scan", "android": "https://dc.lft.to/lastmile_qr_scan"}, "fusion_lon": 0.0, "name": "e35d73977b06b3c029b236d1ed676a07", "lon": -77.04329983333334}, {"is_reserved": 0, "lat": 38.87727916666667, "is_disabled": 0, "type": "electric_bike", "fusion_lat": 0.0, "bike_id": "24cf2fcc9e2e047e881b0483741aafcc", "rental_uris": {"ios": "https://dc.lft.to/lastmile_qr_scan", "android": "https://dc.lft.to/lastmile_qr_scan"}, "fusion_lon": 0.0, "name": "24cf2fcc9e2e047e881b0483741aafcc", "lon": -76.98106083333333}, {"is_reserved": 0, "lat": 38.922376666666665, "is_disabled": 0, "type": "electric_scooter", "fusion_lat": 0.0, "bike_id": "391f4f30386699add0bfec4a1c3fe904", "rental_uris": {"ios": "https://dc.lft.to/lastmile_qr_scan", "android": "https://dc.lft.to/lastmile_qr_scan"}, "fusion_lon": 0.0, "name": "391f4f30386699add0bfec4a1c3fe904", "lon": -77.03890666666666}, {"is_reserved": 0, "lat": 38.895839333333335, "is_disabled": 0, "type": "electric_scooter", "fusion_lat": 0.0, "bike_id": "71b20c7cc28e113ff2f57e027c05620b", "rental_uris": {"ios": "https://dc.lft.to/lastmile_qr_scan", "android": "https://dc.lft.to/lastmile_qr_scan"}, "fusion_lon": 0.0, "name": "71b20c7cc28e113ff2f57e027c05620b", "lon": -77.03208416666666}, {"is_reserved": 0, "lat": 38.89976733333334, "is_disabled": 0, "type": "electric_scooter", "fusion_lat": 0.0, "bike_id": "c06483d709ee59707f602b8b6c1882cf", "rental_uris": {"ios": "https://dc.lft.to/lastmile_qr_scan", "android": "https://dc.lft.to/lastmile_qr_scan"}, "fusion_lon": 0.0, "name": "c06483d709ee59707f602b8b6c1882cf", "lon": -77.030052}, {"is_reserved": 0, "lat": 38.91561733333333, "is_disabled": 0, "type": "electric_scooter", "fusion_lat": 0.0, "bike_id": "aeebc18915f162559b7123716754562f", "rental_uris": {"ios": "https://dc.lft.to/lastmile_qr_scan", "android": "https://dc.lft.to/lastmile_qr_scan"}, "fusion_lon": 0.0, "name": "aeebc18915f162559b7123716754562f", "lon": -77.02712966666667}, {"is_reserved": 0, "lat": 38.92298233333333, "is_disabled": 0, "type": "electric_scooter", "fusion_lat": 0.0, "bike_id": "2c06cedbb68c6db4a4a11a630243a886", "rental_uris": {"ios": "https://dc.lft.to/lastmile_qr_scan", "android": "https://dc.lft.to/lastmile_qr_scan"}, "fusion_lon": 0.0, "name": "2c06cedbb68c6db4a4a11a630243a886", "lon": -77.04140683333334}, {"is_reserved": 0, "lat": 38.9054635, "is_disabled": 0, "type": "electric_scooter", "fusion_lat": 0.0, "bike_id": "75d7a1a0d28f4b6ede3bd9a5be19d7b9", "rental_uris": {"ios": "https://dc.lft.to/lastmile_qr_scan", "android": "https://dc.lft.to/lastmile_qr_scan"}, "fusion_lon": 0.0, "name": "75d7a1a0d28f4b6ede3bd9a5be19d7b9", "lon": -77.04482533333334}, {"is_reserved": 0, "lat": 38.917083166666664, "is_disabled": 0, "type": "electric_scooter", "fusion_lat": 0.0, "bike_id": "6d15b2e3a10fe287112e3c6dc549ed1f", "rental_uris": {"ios": "https://dc.lft.to/lastmile_qr_scan", "android": "https://dc.lft.to/lastmile_qr_scan"}, "fusion_lon": 0.0, "name": "6d15b2e3a10fe287112e3c6dc549ed1f", "lon": -77.03470766666666}, {"is_reserved": 0, "lat": 38.91481866666667, "is_disabled": 0, "type": "electric_scooter", "fusion_lat": 0.0, "bike_id": "61c5427fc004ee113e11bd7e5c76a32c", "rental_uris": {"ios": "https://dc.lft.to/lastmile_qr_scan", "android": "https://dc.lft.to/lastmile_qr_scan"}, "fusion_lon": 0.0, "name": "61c5427fc004ee113e11bd7e5c76a32c", "lon": -76.99349050000001},