{"data": {"bikes": [{"rental_uris": {"ios": "https://dc.lft.to/lastmile_qr_scan", "android": "https://dc.lft.to/lastmile_qr_scan"}, "type": "electric_scooter", "name": "9d27d0b587aa023d5871167757796737", "is_reserved": 0, "lon": -77.02487266666667, "is_disabled": 0, "fusion_lat": 0.0, "lat": 38.919396, "bike_id": "9d27d0b587aa023d5871167757796737", "fusion_lon": 0.0}, {"rental_uris": {"ios": "https://dc.lft.to/lastmile_qr_scan", "android": "https://dc.lft.to/lastmile_qr_scan"}, "type": "electric_scooter", "name": "cc84410ac41a6698bf51f80b10954923", "is_reserved": 0, "lon": -77.00771283333333, "is_disabled": 0, "fusion_lat": 0.0, "lat": 38.95245333333333, "bike_id": "cc84410ac41a6698bf51f80b10954923", "fusion_lon": 0.0}, {"rental_uris": {"ios": "https://dc.lft.to/lastmile_qr_scan", "android": "https://dc.lft.to/lastmile_qr_scan"}, "type": "electric_scooter", "name": "5789a3d8359c2f91f2f8055449c6d63a", "is_reserved": 0, "lon": -77.03556166666667, "is_disabled": 0, "fusion_lat": 0.0, "lat": 38.90479083333334, "bike_id": "5789a3d8359c2f91f2f8055449c6d63a", "fusion_lon": 0.0}, {"rental_uris": {"ios": "https://dc.lft.to/lastmile_qr_scan", "android": "https://dc.lft.to/lastmile_qr_scan"}, "type": "electric_bike", "name": "7aed8ded33329437a1d5a0c4fe5f4a1b", "is_reserved": 0, "lon": -77.0251805, "is_disabled": 0, "fusion_lat": 0.0, "lat": 38.880301, "bike_id": "7aed8ded33329437a1d5a0c4fe5f4a1b", "fusion_lon": 0.0}, {"rental_uris": {"ios": "https://dc.lft.to/lastmile_qr_scan", "android": "https://dc.lft.to/lastmile_qr_scan"}, "type": "electric_scooter", "name": "40f18f83e88010eb0963bb776184d58f", "is_reserved": 0, "lon": -77.03920066666667, "is_disabled": 0, "fusion_lat": 0.0, "lat": 38.924661666666665, "bike_id": "40f18f83e88010eb0963bb776184d58f", "fusion_lon": 0.0}, {"rental_uris": {"ios": "https://dc.lft.to/lastmile_qr_scan", "android": "https://dc.lft.to/lastmile_qr_scan"}, "type": "electric_scooter", "name": "8d93f0aacb7cb770662e7249e4f615a9", "is_reserved": 0, "lon": -76.94959866666667, "is_disabled": 0, "fusion_lat": 0.0, "lat": 38.89472716666667, "bike_id": "8d93f0aacb7cb770662e7249e4f615a9", "fusion_lon": 0.0}, {"rental_uris": {"ios": "https://dc.lft.to/lastmile_qr_scan", "android": "https://dc.lft.to/lastmile_qr_scan"}, "type": "electric_scooter", "name": "fc839d929c583c9349d57f2f25d598ea", "is_reserved": 0, "lon": -77.042345, "is_disabled": 0, "fusion_lat": 0.0, "lat": 38.9215245, "bike_id": "fc839d929c583c9349d57f2f25d598ea", "fusion_lon": 0.0}, {"rental_uris": {"ios": "https://dc.lft.to/lastmile_qr_scan", "android": "https://dc.lft.to/lastmile_qr_scan"}, "type": "electric_scooter", "name": "220ea513e0929a8362eef1896cc8b3f6", "is_reserved": 0, "lon": -77.01314716666667, "is_disabled": 0, "fusion_lat": 0.0, "lat": 38.9565335, "bike_id": "220ea513e0929a8362eef1896cc8b3f6", "fusion_lon": 0.0}, {"rental_uris": {"ios": "https://dc.lft.to/lastmile_qr_scan", "android": "https://dc.lft.to/lastmile_qr_scan"}, "type": "electric_scooter", "name": "824358cd1a5c2d8c44b5d5710125ed27", "is_reserved": 0, "lon": -76.93045, "is_disabled": 0, "fusion_lat": 0.0, "lat": 38.883912333333335, "bike_id": "824358cd1a5c2d8c44b5d5710125ed27", "fusion_lon": 0.0}, {"rental_uris": {"ios": "https://dc.lft.to/lastmile_qr_scan", "android": "https://dc.lft.to/lastmile_qr_scan"}, "type": "electric_bike", "name": "46be0a1f1c10f5fd670ad6d85cb88693", "is_reserved": 0, "lon": -76.95158816666667, "is_disabled": 0, "fusion_lat": 0.0, "lat": 39.084341, "bike_id": "46be0a1f1c10f5fd670ad6d85cb88693", "fusion_lon": 0.0}, {"rental_uris": {"ios": "https://dc.lft.to/lastmile_qr_scan", "android": "https://dc.lft.to/lastmile_qr_scan"}, "type": "electric_scooter", "name": "56e9f9318fc03abe0f16dbfb3bbf5576", "is_reserved": 0, "lon": -77.00154916666666, "is_disabled": 0, "fusion_lat": 0.0, "lat": 38.821319, "bike_id": "56e9f9318fc03abe0f16dbfb3bbf5576", "fusion_lon": 0.0}, {"rental_uris": {"ios": "https://dc.lft.to/lastmile_qr_scan", "android": "https://dc.lft.to/lastmile_qr_scan"}, "type": "electric_scooter", "name": "c5935cbaeec6406dfea634de6a9c94b3", "is_reserved": 0, "lon": -77.0456335, "is_disabled": 0, "fusion_lat": 0.0, "lat": 38.918342, "bike_id": "c5935cbaeec6406dfea634de6a9c94b3", "fusion_lon": 0.0}, {"rental_uris": {"ios": "https://dc.lft.to/lastmile_qr_scan", "android": "https://dc.lft.to/lastmile_qr_scan"}, "type": "electric_scooter", "name": "701638a6da1fec0f8711ccc92999ae4a", "is_reserved": 0, "lon": -77.0219875, "is_disabled": 0, "fusion_lat": 0.0, "lat": 38.91123666666667, "bike_id": "701638a6da1fec0f8711ccc92999ae4a", "fusion_lon": 0.0}, {"rental_uris": {"ios": "https://dc.lft.to/lastmile_qr_scan", "android": "https://dc.lft.to/lastmile_qr_scan"}, "type": "electric_scooter", "name": "6a1366006b9a44be79b35f6a562c8e2f", "is_reserved": 0, "lon": -77.02838983333334, "is_disabled": 0, "fusion_lat": 0.0, "lat": 38.91410533333333, "bike_id": "6a1366006b9a44be79b35f6a562c8e2f", "fusion_lon": 0.0}, {"rental_uris": {"ios": "https://dc.lft.to/lastmile_qr_scan", "android": "https://dc.lft.to/lastmile_qr_scan"}, "type": "electric_scooter", "name": "c8d9fe9fead61234b857216a3af8f613", "is_reserved": 0, "lon": -77.01528483333334, "is_disabled": 0, "fusion_lat": 0.0, "lat": 38.884366666666665, "bike_id": "c8d9fe9fead61234b857216a3af8f613", "fusion_lon": 0.0}, {"rental_uris": {"ios": "https://dc.lft.to/lastmile_qr_scan", "android": "https://dc.lft.to/lastmile_qr_scan"}, "type": "electric_bike", "name": "c10723a05724d9c7d7cccba797d99847", "is_reserved": 0, "lon": -77.2282205, "is_disabled": 0, "fusion_lat": 0.0, "lat": 38.88266016666667, "bike_id": "c10723a05724d9c7d7cccba797d99847", "fusion_lon": 0.0}, {"rental_uris": {"ios": "https://dc.lft.to/lastmile_qr_scan", "android": "https://dc.lft.to/lastmile_qr_scan"}, "type": "electric_scooter", "name": "40795a2d25697527faa1281d881c21c1", "is_reserved": 0, "lon": -77.03086983333333, "is_disabled": 0, "fusion_lat": 0.0, "lat": 38.93307983333333, "bike_id": "40795a2d25697527faa1281d881c21c1", "fusion_lon": 0.0}, {"rental_uris": {"ios": "https://dc.lft.to/lastmile_qr_scan", "android": "https://dc.lft.to/lastmile_qr_scan"}, "type": "electric_scooter", "name": "beaf58a43e42583b88f3e3b9677e91c3", "is_reserved": 0, "lon": -77.0433455, "is_disabled": 0, "fusion_lat": 0.0, "lat": 38.8922115, "bike_id": "beaf58a43e42583b88f3e3b9677e91c3", "fusion_lon": 0.0}, {"rental_uris": {"ios": "https://dc.lft.to/lastmile_qr_scan", "android": "https://dc.lft.to/lastmile_qr_scan"}, "type": "electric_scooter", "name": "f5fae7a0074202dca1d026f7b0bffcf8", "is_reserved": 0, "lon": -77.0403925, "is_disabled": 0, "fusion_lat": 0.0, "lat": 38.90481316666666, "bike_id": "f5fae7a0074202dca1d026f7b0bffcf8", "fusion_lon": 0.0}, {"rental_uris": {"ios": "https://dc.lft.to/lastmile_qr_scan", "android": "https://dc.lft.to/lastmile_qr_scan"}, "type": "electric_scooter", "name": "40ea881378af2888d840b0535cbadfb3", "is_reserved": 0, "lon": -77.038246, "is_disabled": 0, "fusion_lat": 0.0, "lat": 38.91272, "bike_id": "40ea881378af2888d840b0535cbadfb3", "fusion_lon": 0.0}, {"rental_uris": {"ios": "https://dc.lft.to/lastmile_qr_scan", "android": "https://dc.lft.to/lastmile_qr_scan"}, "type": "electric_scooter", "name": "29fa739bc42ac1fdebbd93f154e0bfec", "is_reserved": 0, "lon": -77.02209216666667, "is_disabled": 0, "fusion_lat": 0.0, "lat": 38.87956766666667, "bike_id": "29fa739bc42ac1fdebbd93f154e0bfec", "fusion_lon": 0.0}, {"rental_uris": {"ios": "https://dc.lft.to/lastmile_qr_scan", "android": "https://dc.lft.to/lastmile_qr_scan"}, "type": "electric_bike", "name": "d2141158cd451af25bdaf393f9111bdc", "is_reserved": 0, "lon": -76.99275266666666, "is_disabled": 0, "fusion_lat": 0.0, "lat": 38.9725935, "bike_id": "d2141158cd451af25bdaf393f9111bdc", "fusion_lon": 0.0}, {"rental_uris": {"ios": "https://dc.lft.to/lastmile_qr_scan", "android": "https://dc.lft.to/lastmile_qr_scan"}, "type": "electric_scooter", "name": "8aec2ae9677b510d803cdf8b93148b41", "is_reserved": 0, "lon": -77.03962766666666, "is_disabled": 0, "fusion_lat": 0.0, "lat": 38.9026615, "bike_id": "8aec2ae9677b510d803cdf8b93148b41", "fusion_lon": 0.0}, {"rental_uris": {"ios": "https://dc.lft.to/lastmile_qr_scan", "android": "https://dc.lft.to/lastmile_qr_scan"}, "type": "electric_scooter", "name": "f4e067151d4e2d34c5280f85f95db434", "is_reserved": 0, "lon": -77.02777866666666, "is_disabled": 0, "fusion_lat": 0.0, "lat": 38.89217683333333, "bike_id": "f4e067151d4e2d34c5280f85f95db434", "fusion_lon": 0.0}, {"rental_uris": {"ios": "https://dc.lft.to/lastmile_qr_scan", "android": "https://dc.lft.to/lastmile_qr_scan"}, "type": "electric_bike", "name": "ce68f7c9f34c1ee79388dcecc9f27718", "is_reserved": 0, "lon": -76.995508, "is_disabled": 0, "fusion_lat": 0.0, "lat": 38.90820516666667, "bike_id": "ce68f7c9f34c1ee79388dcecc9f27718", "fusion_lon": 0.0}, {"rental_uris": {"ios": "https://dc.lft.to/lastmile_qr_scan", "android": "https://dc.lft.to/lastmile_qr_scan"}, "type": "electric_bike", "name": "b7755acca777ba96ca59d47a2c5c5df4", "is_reserved": 0, "lon": -76.99701083333333, "is_disabled": 0, "fusion_lat": 0.0, "lat": 38.838669333333335, "bike_id": "b7755acca777ba96ca59d47a2c5c5df4", "fusion_lon": 0.0}, {"rental_uris": {"ios": "https://dc.lft.to/lastmile_qr_scan", "android": "https://dc.lft.to/lastmile_qr_scan"}, "type": "electric_bike", "name": "086815fbdf0504058ab32d82710114dc", "is_reserved": 0, "lon": -76.986865, "is_disabled": 0, "fusion_lat": 0.0, "lat": 38.94475633333333, "bike_id": "086815fbdf0504058ab32d82710114dc", "fusion_lon": 0.0}, {"rental_uris": {"ios": "https://dc.lft.to/lastmile_qr_scan", "android": "https://dc.lft.to/lastmile_qr_scan"}, "type": "electric_scooter", "name": "d1681389743c7e8e4bd1432ee29a4988", "is_reserved": 0, "lon": -77.03218983333333, "is_disabled": 0, "fusion_lat": 0.0, "lat": 38.89626416666667, "bike_id": "d1681389743c7e8e4bd1432ee29a4988", "fusion_lon": 0.0}, {"rental_uris": {"ios": "https://dc.lft.to/lastmile_qr_scan", "android": "https://dc.lft.to/lastmile_qr_scan"}, "type": "electric_scooter", "name": "7dc09f6d33d68585c1c129fc7784a4ef", "is_reserved": 0, "lon": -77.03642533333333, "is_disabled": 0, "fusion_lat": 0.0, "lat": 38.9120055, "bike_id": "7dc09f6d33d68585c1c129fc7784a4ef", "fusion_lon": 0.0}, {"rental_uris": {"ios": "https://dc.lft.to/lastmile_qr_scan", "android": "https://dc.lft.to/lastmile_qr_scan"}, "type": "electric_scooter", "name": "56d0416e1e82a242d3198f10ccaf430f", "is_reserved": 0, "lon": -77.02073633333333, "is_disabled": 0, "fusion_lat": 0.0, "lat": 38.9210475, "bike_id": "56d0416e1e82a242d3198f10ccaf430f", "fusion_lon": 0.0}, {"rental_uris": {"ios": "https://dc.lft.to/lastmile_qr_scan", "android": "https://dc.lft.to/lastmile_qr_scan"}, "type": "electric_scooter", "name": "0d21b530bc9f1cb9504d47a49cdfe6cc", "is_reserved": 0, "lon": -77.01956783333333, "is_disabled": 0, "fusion_lat": 0.0, "lat": 38.92393416666667, "bike_id": "0d21b530bc9f1cb9504d47a49cdfe6cc", "fusion_lon": 0.0}, {"rental_uris": {"ios": "https://dc.lft.to/lastmile_qr_scan", "android": "https://dc.lft.to/lastmile_qr_scan"}, "type": "electric_scooter", "name": "d6c56353aa1ddde25adde4a618bd066d", "is_reserved": 0, "lon": -77.02355883333334, "is_disabled": 0, "fusion_lat": 0.0, "lat": 38.930501166666666, "bike_id": "d6c56353aa1ddde25adde4a618bd066d", "fusion_lon": 0.0}, {"rental_uris": {"ios": "https://dc.lft.to/lastmile_qr_scan", "android": "https://dc.lft.to/lastmile_qr_scan"}, "type": "electric_scooter", "name": "065776497f1a8a2d1cabd44390ad6aae", "is_reserved": 0, "lon": -77.00746933333333, "is_disabled": 0, "fusion_lat": 0.0, "lat": 38.90356166666667, "bike_id": "065776497f1a8a2d1cabd44390ad6aae", "fusion_lon": 0.0}, {"rental_uris": {"ios": "https://dc.lft.to/lastmile_qr_scan", "android": "https://dc.lft.to/lastmile_qr_scan"}, "type": "electric_scooter", "name": "8647d974f69ba17db723fc11b1cb14e2", "is_reserved": 0, "lon": -77.033806, "is_disabled": 0, "fusion_lat": 0.0, "lat": 38.909690499999996, "bike_id": "8647d974f69ba17db723fc11b1cb14e2", "fusion_lon": 0.0}, {"rental_uris": {"ios": "https://dc.lft.to/lastmile_qr_scan", "android": "https://dc.lft.to/lastmile_qr_scan"}, "type": "electric_scooter", "name": "6cb382b13e258a9f3dfc28f70443362c", "is_reserved": 0, "lon": -77.05475166666666, "is_disabled": 0, "fusion_lat": 0.0, "lat": 38.89732, "bike_id": "6cb382b13e258a9f3dfc28f70443362c", "fusion_lon": 0.0}, {"rental_uris": {"ios": "https://dc.lft.to/lastmile_qr_scan", "android": "https://dc.lft.to/lastmile_qr_scan"}, "type": "electric_scooter", "name": "5e118b234d9f037820ad1b68f8a5c24c", "is_reserved": 0, "lon": -77.0094825, "is_disabled": 0, "fusion_lat": 0.0, "lat": 38.89497166666666, "bike_id": "5e118b234d9f037820ad1b68f8a5c24c", "fusion_lon": 0.0}, {"rental_uris": {"ios": "https://dc.lft.to/lastmile_qr_scan", "android": "https://dc.lft.to/lastmile_qr_scan"}, "type": "electric_scooter", "name": "c07953a8e0f9aa0346ca39ace7574d59", "is_reserved": 0, "lon": -77.02688183333333, "is_disabled": 0, "fusion_lat": 0.0, "lat": 38.90579433333333, "bike_id": "c07953a8e0f9aa0346ca39ace7574d59", "fusion_lon": 0.0}, {"rental_uris": {"ios": "https://dc.lft.to/lastmile_qr_scan", "android": "https://dc.lft.to/lastmile_qr_scan"}, "type": "electric_scooter", "name": "58681571900701668643cf2412c0e445", "is_reserved": 0, "lon": -77.03261933333333, "is_disabled": 0, "fusion_lat": 0.0, "lat": 38.9310335, "bike_id": "58681571900701668643cf2412c0e445", "fusion_lon": 0.0}, {"rental_uris": {"ios": "https://dc.lft.to/lastmile_qr_scan", "android": "https://dc.lft.to/lastmile_qr_scan"}, "type": "electric_scooter", "name": "8c22bb15fb4d3d9023dac9f8ead5fe2e", "is_reserved": 0, "lon": -77.03222766666667, "is_disabled": 0, "fusion_lat": 0.0, "lat": 38.9140585, "bike_id": "8c22bb15fb4d3d9023dac9f8ead5fe2e", "fusion_lon": 0.0}, {"rental_uris": {"ios": "https://dc.lft.to/lastmile_qr_scan", "android": "https://dc.lft.to/lastmile_qr_scan"}, "type": "electric_scooter", "name": "35b0b622257a68d6d0a31a785dac0b32", "is_reserved": 0, "lon": -77.0214465, "is_disabled": 0, "fusion_lat": 0.0, "lat": 38.92741, "bike_id": "35b0b622257a68d6d0a31a785dac0b32", "fusion_lon": 0.0}, {"rental_uris": {"ios": "https://dc.lft.to/lastmile_qr_scan", "android": "https://dc.lft.to/lastmile_qr_scan"}, "type": "electric_scooter", "name": "346d00a6567bd8d29d39092187e4dac8", "is_reserved": 0, "lon": -77.03212966666666, "is_disabled": 0, "fusion_lat": 0.0, "lat": 38.91111016666667, "bike_id": "346d00a6567bd8d29d39092187e4dac8", "fusion_lon": 0.0}, {"rental_uris": {"ios": "https://dc.lft.to/lastmile_qr_scan", "android": "https://dc.lft.to/lastmile_qr_scan"}, "type": "electric_scooter", "name": "7331d2a02ca0edce3eefce1f6133c115", "is_reserved": 0, "lon": -77.04565433333333, "is_disabled": 0, "fusion_lat": 0.0, "lat": 38.91405483333333, "bike_id": "7331d2a02ca0edce3eefce1f6133c115", "fusion_lon": 0.0}, {"rental_uris": {"ios": "https://dc.lft.to/lastmile_qr_scan", "android": "https://dc.lft.to/lastmile_qr_scan"}, "type": "electric_scooter", "name": "4cb242fc333165fbdae9d94d8630a24c", "is_reserved": 0, "lon": -77.01779116666667, "is_disabled": 0, "fusion_lat": 0.0, "lat": 38.87727683333333, "bike_id": "4cb242fc333165fbdae9d94d8630a24c", "fusion_lon": 0.0}, {"rental_uris": {"ios": "https://dc.lft.to/lastmile_qr_scan", "android": "https://dc.lft.to/lastmile_qr_scan"}, "type": "electric_scooter", "name": "95855de338c6551a9901e2e8fe6dbbf3", "is_reserved": 0, "lon": -77.00064416666666, "is_disabled": 0, "fusion_lat": 0.0, "lat": 38.8766405, "bike_id": "95855de338c6551a9901e2e8fe6dbbf3", "fusion_lon": 0.0}, {"rental_uris": {"ios": "https://dc.lft.to/lastmile_qr_scan", "android": "https://dc.lft.to/lastmile_qr_scan"}, "type": "electric_scooter", "name": "550e6542c5957ffb02ca0978f639393a", "is_reserved": 0, "lon": -77.01918483333333, "is_disabled": 0, "fusion_lat": 0.0, "lat": 38.92369516666667, "bike_id": "550e6542c5957ffb02ca0978f639393a", "fusion_lon": 0.0}, {"rental_uris": {"ios": "https://dc.lft.to/lastmile_qr_scan", "android": "https://dc.lft.to/lastmile_qr_scan"}, "type": "electric_scooter", "name": "fa24844ad9daeca077329df1e7a43756", "is_reserved": 0, "lon": -77.0313475, "is_disabled": 0, "fusion_lat": 0.0, "lat": 38.916960333333336, "bike_id": "fa24844ad9daeca077329df1e7a43756", "fusion_lon": 0.0}, {"rental_uris": {"ios": "https://dc.lft.to/lastmile_qr_scan", "android": "https://dc.lft.to/lastmile_qr_scan"}, "type": "electric_scooter", "name": "f67fe2ba828c5bfe48e45ae2c6c5cb50", "is_reserved": 0, "lon": -76.9258555, "is_disabled": 0, "fusion_lat": 0.0, "lat": 38.8976285, "bike_id": "f67fe2ba828c5bfe48e45ae2c6c5cb50", "fusion_lon": 0.0}, {"rental_uris": {"ios": "https://dc.lft.to/lastmile_qr_scan", "android": "https://dc.lft.to/lastmile_qr_scan"}, "type": "electric_scooter", "name": "f0634533551e1fddedc818b1045fb999", "is_reserved": 0, "lon": -77.03665016666666, "is_disabled": 0, "fusion_lat": 0.0, "lat": 38.93639966666667, "bike_id": "f0634533551e1fddedc818b1045fb999", "fusion_lon": 0.0}, {"rental_uris": {"ios": "https://dc.lft.to/lastmile_qr_scan", "android": "https://dc.lft.to/lastmile_qr_scan"}, "type": "electric_scooter", "name": "7c992f7ea7bcc316e3a3656b06006d77", "is_reserved": 0, "lon": -77.03183016666667, "is_disabled": 0, "fusion_lat": 0.0, "lat": 38.91776566666667, "bike_id": "7c992f7ea7bcc316e3a3656b06006d77", "fusion_lon": 0.0}, {"rental_uris": {"ios": "https://dc.lft.to/lastmile_qr_scan", "android": "https://dc.lft.to/lastmile_qr_scan"}, "type": "electric_scooter", "name": "b49972341c2ae5604f5669e33a443b4b", "is_reserved": 0, "lon": -76.9960505, "is_disabled": 0, "fusion_lat": 0.0, "lat": 38.931719333333334, "bike_id": "b49972341c2ae5604f5669e33a443b4b", "fusion_lon": 0.0}, {"rental_uris": {"ios": "https://dc.lft.to/lastmile_qr_scan", "android": "https://dc.lft.to/lastmile_qr_scan"}, "type": "electric_scooter", "name": "44097bbae62f752795010057cbd0ae0f", "is_reserved": 0, "lon": -77.0435095, "is_disabled": 0, "fusion_lat": 0.0, "lat": 38.905516, "bike_id": "44097bbae62f752795010057cbd0ae0f", "fusion_lon": 0.0}, {"rental_uris": {"ios": "https://dc.lft.to/lastmile_qr_scan", "android": "https://dc.lft.to/lastmile_qr_scan"}, "type": "electric_scooter", "name": "96b2ea4188050ce2efbf5ca672305a15", "is_reserved": 0, "lon": -77.04877166666667, "is_disabled": 0, "fusion_lat": 0.0, "lat": 38.8923405, "bike_id": "96b2ea4188050ce2efbf5ca672305a15", "fusion_lon": 0.0}, {"rental_uris": {"ios": "https://dc.lft.to/lastmile_qr_scan", "android": "https://dc.lft.to/lastmile_qr_scan"}, "type": "electric_scooter", "name": "cf7871e5a8b19523a479547da5cd8eb7", "is_reserved": 0, "lon": -77.042766, "is_disabled": 0, "fusion_lat": 0.0, "lat": 38.91780633333333, "bike_id": "cf7871e5a8b19523a479547da5cd8eb7", "fusion_lon": 0.0}, {"rental_uris": {"ios": "https://dc.lft.to/lastmile_qr_scan", "android": "https://dc.lft.to/lastmile_qr_scan"}, "type": "electric_scooter", "name": "5d673ca754fe3b8ed63b9e64fbb1d96e", "is_reserved": 0, "lon": -77.03209016666666, "is_disabled": 0, "fusion_lat": 0.0, "lat": 38.91428766666667, "bike_id": "5d673ca754fe3b8ed63b9e64fbb1d96e", "fusion_lon": 0.0}, {"rental_uris": {"ios": "https://dc.lft.to/lastmile_qr_scan", "android": "https://dc.lft.to/lastmile_qr_scan"}, "type": "electric_scooter", "name": "7404068b6c1fafd594c1fc9b00eb59f2", "is_reserved": 0, "lon": -77.03393716666666, "is_disabled": 0, "fusion_lat": 0.0, "lat": 38.9384745, "bike_id": "7404068b6c1fafd594c1fc9b00eb59f2", "fusion_lon": 0.0}, {"rental_uris": {"ios": "https://dc.lft.to/lastmile_qr_scan", "android": "https://dc.lft.to/lastmile_qr_scan"}, "type": "electric_scooter", "name": "783648c08040f5f5cc0a56689d4e2809", "is_reserved": 0, "lon": -77.03829966666666, "is_disabled": 0, "fusion_lat": 0.0, "lat": 38.91709, "bike_id": "783648c08040f5f5cc0a56689d4e2809", "fusion_lon": 0.0}, {"rental_uris": {"ios": "https://dc.lft.to/lastmile_qr_scan", "android": "https://dc.lft.to/lastmile_qr_scan"}, "type": "electric_scooter", "name": "14c5dc9ce6a56717fe5a0ca844ba038e", "is_reserved": 0, "lon": -77.02320116666667, "is_disabled": 0, "fusion_lat": 0.0, "lat": 38.92299233333333, "bike_id": "14c5dc9ce6a56717fe5a0ca844ba038e", "fusion_lon": 0.0}, {"rental_uris": {"ios": "https://dc.lft.to/lastmile_qr_scan", "android": "https://dc.lft.to/lastmile_qr_scan"}, "type": "electric_scooter", "name": "2291405ea906264c8cd8a6c1539be1a4", "is_reserved": 0, "lon": -77.045823, "is_disabled": 0, "fusion_lat": 0.0, "lat": 38.91421416666667, "bike_id": "2291405ea906264c8cd8a6c1539be1a4", "fusion_lon": 0.0}, {"rental_uris": {"ios": "https://dc.lft.to/lastmile_qr_scan", "android": "https://dc.lft.to/lastmile_qr_scan"}, "type": "electric_scooter", "name": "5bf425ee5475551e73cd3bc7ed0a89dc", "is_reserved": 0, "lon": -76.99103116666667, "is_disabled": 0, "fusion_lat": 0.0, "lat": 38.857230333333334, "bike_id": "5bf425ee5475551e73cd3bc7ed0a89dc", "fusion_lon": 0.0}, {"rental_uris": {"ios": "https://dc.lft.to/lastmile_qr_scan", "android": "https://dc.lft.to/lastmile_qr_scan"}, "type": "electric_scooter", "name": "14982532c12cd8c271d4dd5dbccc0d62", "is_reserved": 0, "lon": -77.03961216666667, "is_disabled": 0, "fusion_lat": 0.0, "lat": 38.924565666666666, "bike_id": "14982532c12cd8c271d4dd5dbccc0d62", "fusion_lon": 0.0}, {"rental_uris": {"ios": "https://dc.lft.to/lastmile_qr_scan", "android": "https://dc.lft.to/lastmile_qr_scan"}, "type": "electric_scooter", "name": "9c43de7c37d11fcca8804385fd42a09a", "is_reserved": 0, "lon": -77.02915533333334, "is_disabled": 0, "fusion_lat": 0.0, "lat": 38.933316, "bike_id": "9c43de7c37d11fcca8804385fd42a09a", "fusion_lon": 0.0}, {"rental_uris": {"ios": "https://dc.lft.to/lastmile_qr_scan", "android": "https://dc.lft.to/lastmile_qr_scan"}, "type": "electric_scooter", "name": "25e76fb7c5981e647001a7517a6cdef9", "is_reserved": 0, "lon": -77.04714866666667, "is_disabled": 0, "fusion_lat": 0.0, "lat": 38.913191833333336, "bike_id": "25e76fb7c5981e647001a7517a6cdef9", "fusion_lon": 0.0}, {"rental_uris": {"ios": "https://dc.lft.to/lastmile_qr_scan", "android": "https://dc.lft.to/lastmile_qr_scan"}, "type": "electric_scooter", "name": "fe76996aa65109924505a4817d4940be", "is_reserved": 0, "lon": -77.031941, "is_disabled": 0, "fusion_lat": 0.0, "lat": 38.912188666666665, "bike_id": "fe76996aa65109924505a4817d4940be", "fusion_lon": 0.0}, {"rental_uris": {"ios": "https://dc.lft.to/lastmile_qr_scan", "android": "https://dc.lft.to/lastmile_qr_scan"}, "type": "electric_scooter", "name": "4c27fb4b24bef3a4ee29a34c58ce6caf", "is_reserved": 0, "lon": -77.01893, "is_disabled": 0, "fusion_lat": 0.0, "lat": 38.92332316666667, "bike_id": "4c27fb4b24bef3a4ee29a34c58ce6caf", "fusion_lon": 0.0}, {"rental_uris": {"ios": "https://dc.lft.to/lastmile_qr_scan", "android": "https://dc.lft.to/lastmile_qr_scan"}, "type": "electric_scooter", "name": "c117f46b3ff48a88895277eea950f4d7", "is_reserved": 0, "lon": -76.99502433333333, "is_disabled": 0, "fusion_lat": 0.0, "lat": 38.90466766666667, "bike_id": "c117f46b3ff48a88895277eea950f4d7", "fusion_lon": 0.0}, {"rental_uris": {"ios": "https://dc.lft.to/lastmile_qr_scan", "android": "https://dc.lft.to/lastmile_qr_scan"}, "type": "electric_scooter", "name": "047a45a5491aa37936699b16ba08413c", "is_reserved": 0, "lon": -77.02006733333333, "is_disabled": 0, "fusion_lat": 0.0, "lat": 38.922559, "bike_id": "047a45a5491aa37936699b16ba08413c", "fusion_lon": 0.0}, {"rental_uris": {"ios": "https://dc.lft.to/lastmile_qr_scan", "android": "https://dc.lft.to/lastmile_qr_scan"}, "type": "electric_scooter", "name": "ea7e7fb098371f2a57bde17f90f70273", "is_reserved": 0, "lon": -77.07939816666666, "is_disabled": 0, "fusion_lat": 0.0, "lat": 38.919232666666666, "bike_id": "ea7e7fb098371f2a57bde17f90f70273", "fusion_lon": 0.0}, {"rental_uris": {"ios": "https://dc.lft.to/lastmile_qr_scan", "android": "https://dc.lft.to/lastmile_qr_scan"}, "type": "electric_scooter", "name": "869d5444cb35bfc33b05d16ddfd72799", "is_reserved": 0, "lon": -77.0205515, "is_disabled": 0, "fusion_lat": 0.0, "lat": 38.87575133333333, "bike_id": "869d5444cb35bfc33b05d16ddfd72799", "fusion_lon": 0.0}, {"rental_uris": {"ios": "https://dc.lft.to/lastmile_qr_scan", "android": "https://dc.lft.to/lastmile_qr_scan"}, "type": "electric_scooter", "name": "75e041563b9d675ef8d71dc9e0ac3646", "is_reserved": 0, "lon": -77.03489433333333, "is_disabled": 0, "fusion_lat": 0.0, "lat": 38.91691516666667, "bike_id": "75e041563b9d675ef8d71dc9e0ac3646", "fusion_lon": 0.0}, {"rental_uris": {"ios": "https://dc.lft.to/lastmile_qr_scan", "android": "https://dc.lft.to/lastmile_qr_scan"}, "type": "electric_bike", "name": "32cbca16e2e517ef93cf8f3df66a0e81", "is_reserved": 0, "lon": -76.91719916666666, "is_disabled": 0, "fusion_lat": 0.0, "lat": 38.880287333333335, "bike_id": "32cbca16e2e517ef93cf8f3df66a0e81", "fusion_lon": 0.0}, {"rental_uris": {"ios": "https://dc.lft.to/lastmile_qr_scan", "android": "https://dc.lft.to/lastmile_qr_scan"}, "type": "electric_scooter", "name": "dc24c821e8d10a02e0bd691f0a0467d6", "is_reserved": 0, "lon": -77.03864183333333, "is_disabled": 0, "fusion_lat": 0.0, "lat": 38.91109933333333, "bike_id": "dc24c821e8d10a02e0bd691f0a0467d6", "fusion_lon": 0.0}, {"rental_uris": {"ios": "https://dc.lft.to/lastmile_qr_scan", "android": "https://dc.lft.to/lastmile_qr_scan"}, "type": "electric_scooter", "name": "63dfb81cc934c8caeb0bc1c411e0f1d0", "is_reserved": 0, "lon": -77.06335816666666, "is_disabled": 0, "fusion_lat": 0.0, "lat": 38.905081333333335, "bike_id": "63dfb81cc934c8caeb0bc1c411e0f1d0", "fusion_lon": 0.0}, {"rental_uris": {"ios": "https://dc.lft.to/lastmile_qr_scan", "android": "https://dc.lft.to/lastmile_qr_scan"}, "type": "electric_scooter", "name": "c9fd926a561f58b0efc03f59a90a06e6", "is_reserved": 0, "lon": -77.02429333333333, "is_disabled": 0, "fusion_lat": 0.0, "lat": 38.9240145, "bike_id": "c9fd926a561f58b0efc03f59a90a06e6", "fusion_lon": 0.0}, {"rental_uris": {"ios": "https://dc.lft.to/lastmile_qr_scan", "android": "https://dc.lft.to/lastmile_qr_scan"}, "type": "electric_scooter", "name": "19ae837d83526120ab40a68c58d2c62a", "is_reserved": 0, "lon": -77.03454833333333, "is_disabled": 0, "fusion_lat": 0.0, "lat": 38.917882, "bike_id": "19ae837d83526120ab40a68c58d2c62a", "fusion_lon": 0.0}, {"rental_uris": {"ios": "https://dc.lft.to/lastmile_qr_scan", "android": "https://dc.lft.to/lastmile_qr_scan"}, "type": "electric_scooter", "name": "e0b05fa1d4876f7886f1585ed0c983db", "is_reserved": 0, "lon": -77.0224355, "is_disabled": 0, "fusion_lat": 0.0, "lat": 38.92288466666667, "bike_id": "e0b05fa1d4876f7886f1585ed0c983db", "fusion_lon": 0.0}, {"rental_uris": {"ios": "https://dc.lft.to/lastmile_qr_scan", "android": "https://dc.lft.to/lastmile_qr_scan"}, "type": "electric_scooter", "name": "348594babcda3809c5d342e96aad1f9e", "is_reserved": 0, "lon": -77.03679016666666, "is_disabled": 0, "fusion_lat": 0.0, "lat": 38.92268833333333, "bike_id": "348594babcda3809c5d342e96aad1f9e", "fusion_lon": 0.0}, {"rental_uris": {"ios": "https://dc.lft.to/lastmile_qr_scan", "android": "https://dc.lft.to/lastmile_qr_scan"}, "type": "electric_scooter", "name": "5b67b9f970049115e7aa922f2331ebde", "is_reserved": 0, "lon": -77.02969216666666, "is_disabled": 0, "fusion_lat": 0.0, "lat": 38.917215166666665, "bike_id": "5b67b9f970049115e7aa922f2331ebde", "fusion_lon": 0.0}, {"rental_uris": {"ios": "https://dc.lft.to/lastmile_qr_scan", "android": "https://dc.lft.to/lastmile_qr_scan"}, "type": "electric_scooter", "name": "778ae8b62ca1b45204ca27255d05086c", "is_reserved": 0, "lon": -77.02022133333334, "is_disabled": 0, "fusion_lat": 0.0, "lat": 38.9243585, "bike_id": "778ae8b62ca1b45204ca27255d05086c", "fusion_lon": 0.0}, {"rental_uris": {"ios": "https://dc.lft.to/lastmile_qr_scan", "android": "https://dc.lft.to/lastmile_qr_scan"}, "type": "electric_bike", "name": "9162d219cb434bb47e87e87a3a77a4d6", "is_reserved": 0, "lon": -77.03131183333333, "is_disabled": 0, "fusion_lat": 0.0, "lat": 38.923716166666665, "bike_id": "9162d219cb434bb47e87e87a3a77a4d6", "fusion_lon": 0.0}, {"rental_uris": {"ios": "https://dc.lft.to/lastmile_qr_scan", "android": "https://dc.lft.to/lastmile_qr_scan"}, "type": "electric_scooter", "name": "bae2da980c20a262550b0908139145ee", "is_reserved": 0, "lon": -77.0469955, "is_disabled": 0, "fusion_lat": 0.0, "lat": 38.905783666666665, "bike_id": "bae2da980c20a262550b0908139145ee", "fusion_lon": 0.0}, {"rental_uris": {"ios": "https://dc.lft.to/lastmile_qr_scan", "android": "https://dc.lft.to/lastmile_qr_scan"}, "type": "electric_scooter", "name": "83ee39fc39f28fd7119239006595b3e2", "is_reserved": 0, "lon": -77.03208516666666, "is_disabled": 0, "fusion_lat": 0.0, "lat": 38.909400166666664, "bike_id": "83ee39fc39f28fd7119239006595b3e2", "fusion_lon": 0.0}, {"rental_uris": {"ios": "https://dc.lft.to/lastmile_qr_scan", "android": "https://dc.lft.to/lastmile_qr_scan"}, "type": "electric_scooter", "name": "f921a2efbe9ccf651e5de54c4d2a8fe8", "is_reserved": 0, "lon": -77.01789716666667, "is_disabled": 0, "fusion_lat": 0.0, "lat": 38.876766, "bike_id": "f921a2efbe9ccf651e5de54c4d2a8fe8", "fusion_lon": 0.0}, {"rental_uris": {"ios": "https://dc.lft.to/lastmile_qr_scan", "android": "https://dc.lft.to/lastmile_qr_scan"}, "type": "electric_bike", "name": "db9b5b63bb15f962955e166d73bb9edf", "is_reserved": 0, "lon": -77.129793, "is_disabled": 0, "fusion_lat": 0.0, "lat": 38.79984416666667, "bike_id": "db9b5b63bb15f962955e166d73bb9edf", "fusion_lon": 0.0}, {"rental_uris": {"ios": "https://dc.lft.to/lastmile_qr_scan", "android": "https://dc.lft.to/lastmile_qr_scan"}, "type": "electric_scooter", "name": "1d9eaa3d6496aa77753d3072d40bc07c", "is_reserved": 0, "lon": -77.0339585, "is_disabled": 0, "fusion_lat": 0.0, "lat": 38.909794833333336, "bike_id": "1d9eaa3d6496aa77753d3072d40bc07c", "fusion_lon": 0.0}, {"rental_uris": {"ios": "https://dc.lft.to/lastmile_qr_scan", "android": "https://dc.lft.to/lastmile_qr_scan"}, "type": "electric_scooter", "name": "1821256c15a27c75f646ffb06fa2dc17", "is_reserved": 0, "lon": -77.03262216666667, "is_disabled": 0, "fusion_lat": 0.0, "lat": 38.93733266666667, "bike_id": "1821256c15a27c75f646ffb06fa2dc17", "fusion_lon": 0.0}, {"rental_uris": {"ios": "https://dc.lft.to/lastmile_qr_scan", "android": "https://dc.lft.to/lastmile_qr_scan"}, "type": "electric_scooter", "name": "e596c23486cb9a04a787147608488730", "is_reserved": 0, "lon": -77.03044166666666, "is_disabled": 0, "fusion_lat": 0.0, "lat": 38.924760666666664, "bike_id": "e596c23486cb9a04a787147608488730", "fusion_lon": 0.0}, {"rental_uris": {"ios": "https://dc.lft.to/lastmile_qr_scan", "android": "https://dc.lft.to/lastmile_qr_scan"}, "type": "electric_scooter", "name": "a9f950ef38f2fe4942eb80ef3447e37b", "is_reserved": 0, "lon": -77.02808583333334, "is_disabled": 0, "fusion_lat": 0.0, "lat": 38.917428, "bike_id": "a9f950ef38f2fe4942eb80ef3447e37b", "fusion_lon": 0.0}, {"rental_uris": {"ios": "https://dc.lft.to/lastmile_qr_scan", "android": "https://dc.lft.to/lastmile_qr_scan"}, "type": "electric_bike", "name": "a5d6e08d0fe107fe5b933d8753094eec", "is_reserved": 0, "lon": -76.98839916666667, "is_disabled": 0, "fusion_lat": 0.0, "lat": 38.8427605, "bike_id": "a5d6e08d0fe107fe5b933d8753094eec", "fusion_lon": 0.0}, {"rental_uris": {"ios": "https://dc.lft.to/lastmile_qr_scan", "android": "https://dc.lft.to/lastmile_qr_scan"}, "type": "electric_scooter", "name": "15e34e0af7f13cba83218562ba387d84", "is_reserved": 0, "lon": -77.0421685, "is_disabled": 0, "fusion_lat": 0.0, "lat": 38.92294533333333, "bike_id": "15e34e0af7f13cba83218562ba387d84", "fusion_lon": 0.0}, {"rental_uris": {"ios": "https://dc.lft.to/lastmile_qr_scan", "android": "https://dc.lft.to/lastmile_qr_scan"}, "type": "electric_scooter", "name": "96b47b5635c2a78d75f29fe919bb8ab5", "is_reserved": 0, "lon": -77.03117633333333, "is_disabled": 0, "fusion_lat": 0.0, "lat": 38.921054166666664, "bike_id": "96b47b5635c2a78d75f29fe919bb8ab5", "fusion_lon": 0.0}, {"rental_uris": {"ios": "https://dc.lft.to/lastmile_qr_scan", "android": "https://dc.lft.to/lastmile_qr_scan"}, "type": "electric_scooter", "name": "6c15ea41f7da299050e10804a6ec4b3d", "is_reserved": 0, "lon": -77.067791, "is_disabled": 0, "fusion_lat": 0.0, "lat": 38.904086, "bike_id": "6c15ea41f7da299050e10804a6ec4b3d", "fusion_lon": 0.0}, {"rental_uris": {"ios": "https://dc.lft.to/lastmile_qr_scan", "android": "https://dc.lft.to/lastmile_qr_scan"}, "type": "electric_scooter", "name": "306032248618ba96fa495ea3bd2158d8", "is_reserved": 0, "lon": -77.03901633333334, "is_disabled": 0, "fusion_lat": 0.0, "lat": 38.924404, "bike_id": "306032248618ba96fa495ea3bd2158d8", "fusion_lon": 0.0}, {"rental_uris": {"ios": "https://dc.lft.to/lastmile_qr_scan", "android": "https://dc.lft.to/lastmile_qr_scan"}, "type": "electric_scooter", "name": "79d5e2613e93ee70f7b6ada9b68a6625", "is_reserved": 0, "lon": -76.9952265, "is_disabled": 0, "fusion_lat": 0.0, "lat": 38.88373216666667, "bike_id": "79d5e2613e93ee70f7b6ada9b68a6625", "fusion_lon": 0.0}, {"rental_uris": {"ios": "https://dc.lft.to/lastmile_qr_scan", "android": "https://dc.lft.to/lastmile_qr_scan"}, "type": "electric_scooter", "name": "f9d18e5e602ebaca1de1d8313221b773", "is_reserved": 0, "lon": -77.01840566666667, "is_disabled": 0, "fusion_lat": 0.0, "lat": 38.915305333333336, "bike_id": "f9d18e5e602ebaca1de1d8313221b773", "fusion_lon": 0.0}, {"rental_uris": {"ios": "https://dc.lft.to/lastmile_qr_scan", "android": "https://dc.lft.to/lastmile_qr_scan"}, "type": "electric_scooter", "name": "89ee9d29064f8153c2c3da47e8c2dc33", "is_reserved": 0, "lon": -76.93706033333333, "is_disabled": 0, "fusion_lat": 0.0, "lat": 38.890190833333335, "bike_id": "89ee9d29064f8153c2c3da47e8c2dc33", "fusion_lon": 0.0}, {"rental_uris": {"ios": "https://dc.lft.to/lastmile_qr_scan", "android": "https://dc.lft.to/lastmile_qr_scan"}, "type": "electric_scooter", "name": "f96e5f40c0e016cd0148118a64e3604c", "is_reserved": 0, "lon": -77.022483, "is_disabled": 0, "fusion_lat": 0.0, "lat": 38.956513, "bike_id": "f96e5f40c0e016cd0148118a64e3604c", "fusion_lon": 0.0}, {"rental_uris": {"ios": "https://dc.lft.to/lastmile_qr_scan", "android": "https://dc.lft.to/lastmile_qr_scan"}, "type": "electric_scooter", "name": "05c06cbc5bb7e678b5292944dad16a13", "is_reserved": 0, "lon": -76.9950065, "is_disabled": 0, "fusion_lat": 0.0, "lat": 38.92605066666667, "bike_id": "05c06cbc5bb7e678b5292944dad16a13", "fusion_lon": 0.0}, {"rental_uris": {"ios": "https://dc.lft.to/lastmile_qr_scan", "android": "https://dc.lft.to/lastmile_qr_scan"}, "type": "electric_scooter", "name": "c18bbbfb0119c389ae4902430cbb38ec", "is_reserved": 0, "lon": -77.0249215, "is_disabled": 0, "fusion_lat": 0.0, "lat": 38.901734166666664, "bike_id": "c18bbbfb0119c389ae4902430cbb38ec", "fusion_lon": 0.0}, {"rental_uris": {"ios": "https://dc.lft.to/lastmile_qr_scan", "android": "https://dc.lft.to/lastmile_qr_scan"}, "type": "electric_scooter", "name": "fb2ff6079c87a04abdf1f308c817905a", "is_reserved": 0, "lon": -77.041914, "is_disabled": 0, "fusion_lat": 0.0, "lat": 38.9220915, "bike_id": "fb2ff6079c87a04abdf1f308c817905a", "fusion_lon": 0.0}, {"rental_uris": {"ios": "https://dc.lft.to/lastmile_qr_scan", "android": "https://dc.lft.to/lastmile_qr_scan"}, "type": "electric_scooter", "name": "e644c2d3698c81ca7b77c1c9cac50be2", "is_reserved": 0, "lon": -76.996098, "is_disabled": 0, "fusion_lat": 0.0, "lat": 38.877628666666666, "bike_id": "e644c2d3698c81ca7b77c1c9cac50be2", "fusion_lon": 0.0}, {"rental_uris": {"ios": "https://dc.lft.to/lastmile_qr_scan", "android": "https://dc.lft.to/lastmile_qr_scan"}, "type": "electric_scooter", "name": "615e4a32507a569110370881bad155a3", "is_reserved": 0, "lon": -77.024332, "is_disabled": 0, "fusion_lat": 0.0, "lat": 38.92656316666667, "bike_id": "615e4a32507a569110370881bad155a3", "fusion_lon": 0.0}, {"rental_uris": {"ios": "https://dc.lft.to/lastmile_qr_scan", "android": "https://dc.lft.to/lastmile_qr_scan"}, "type": "electric_scooter", "name": "8cc3d6a5effbfb07be7f7ab3576cce19", "is_reserved": 0, "lon": -77.058724, "is_disabled": 0, "fusion_lat": 0.0, "lat": 38.9424295, "bike_id": "8cc3d6a5effbfb07be7f7ab3576cce19", "fusion_lon": 0.0}, {"rental_uris": {"ios": "https://dc.lft.to/lastmile_qr_scan", "android": "https://dc.lft.to/lastmile_qr_scan"}, "type": "electric_scooter", "name": "707be94f9deb0cecbc5f12cdb6be968d", "is_reserved": 0, "lon": -77.03866083333334, "is_disabled": 0, "fusion_lat": 0.0, "lat": 38.911104333333334, "bike_id": "707be94f9deb0cecbc5f12cdb6be968d", "fusion_lon": 0.0}, {"rental_uris": {"ios": "https://dc.lft.to/lastmile_qr_scan", "android": "https://dc.lft.to/lastmile_qr_scan"}, "type": "electric_scooter", "name": "4f9dc5190a51752edd75e86f93a44d6b", "is_reserved": 0, "lon": -76.965067, "is_disabled": 0, "fusion_lat": 0.0, "lat": 38.876497, "bike_id": "4f9dc5190a51752edd75e86f93a44d6b", "fusion_lon": 0.0}, {"rental_uris": {"ios": "https://dc.lft.to/lastmile_qr_scan", "android": "https://dc.lft.to/lastmile_qr_scan"}, "type": "electric_scooter", "name": "30956115c1576d1e9bfa9713d0f45826", "is_reserved": 0, "lon": -77.04562616666666, "is_disabled": 0, "fusion_lat": 0.0, "lat": 38.91777183333333, "bike_id": "30956115c1576d1e9bfa9713d0f45826", "fusion_lon": 0.0}, {"rental_uris": {"ios": "https://dc.lft.to/lastmile_qr_scan", "android": "https://dc.lft.to/lastmile_qr_scan"}, "type": "electric_scooter", "name": "ca5321974f61a7f29cf4e994516902dc", "is_reserved": 0, "lon": -76.93382, "is_disabled": 0, "fusion_lat": 0.0, "lat": 38.899169666666666, "bike_id": "ca5321974f61a7f29cf4e994516902dc", "fusion_lon": 0.0}, {"rental_uris": {"ios": "https://dc.lft.to/lastmile_qr_scan", "android": "https://dc.lft.to/lastmile_qr_scan"}, "type": "electric_scooter", "name": "76707329a2a235ed78ab523f4761f331", "is_reserved": 0, "lon": -77.040845, "is_disabled": 0, "fusion_lat": 0.0, "lat": 38.932809, "bike_id": "76707329a2a235ed78ab523f4761f331", "fusion_lon": 0.0}, {"rental_uris": {"ios": "https://dc.lft.to/lastmile_qr_scan", "android": "https://dc.lft.to/lastmile_qr_scan"}, "type": "electric_scooter", "name": "fd9fb69399c5dd4af3f7cce881fd49e6", "is_reserved": 0, "lon": -76.9861985, "is_disabled": 0, "fusion_lat": 0.0, "lat": 38.907226666666666, "bike_id": "fd9fb69399c5dd4af3f7cce881fd49e6", "fusion_lon": 0.0}, {"rental_uris": {"ios": "https://dc.lft.to/lastmile_qr_scan", "android": "https://dc.lft.to/lastmile_qr_scan"}, "type": "electric_scooter", "name": "eea893d0716b25e39b79b65292e0ad8c", "is_reserved": 0, "lon": -77.04142783333333, "is_disabled": 0, "fusion_lat": 0.0, "lat": 38.903777833333336, "bike_id": "eea893d0716b25e39b79b65292e0ad8c", "fusion_lon": 0.0}, {"rental_uris": {"ios": "https://dc.lft.to/lastmile_qr_scan", "android": "https://dc.lft.to/lastmile_qr_scan"}, "type": "electric_scooter", "name": "1b63a6099984465b257cb18536fc9679", "is_reserved": 0, "lon": -77.00049583333333, "is_disabled": 0, "fusion_lat": 0.0, "lat": 38.8899815, "bike_id": "1b63a6099984465b257cb18536fc9679", "fusion_lon": 0.0}, {"rental_uris": {"ios": "https://dc.lft.to/lastmile_qr_scan", "android": "https://dc.lft.to/lastmile_qr_scan"}, "type": "electric_scooter", "name": "f47e2da15b1e55ad63307f2c1a877aa4", "is_reserved": 0, "lon": -77.04334533333333, "is_disabled": 0, "fusion_lat": 0.0, "lat": 38.90727033333334, "bike_id": "f47e2da15b1e55ad63307f2c1a877aa4", "fusion_lon": 0.0}, {"rental_uris": {"ios": "https://dc.lft.to/lastmile_qr_scan", "android": "https://dc.lft.to/lastmile_qr_scan"}, "type": "electric_scooter", "name": "bc6bb4d390987d2210d63972335b7dba", "is_reserved": 0, "lon": -77.04245516666667, "is_disabled": 0, "fusion_lat": 0.0, "lat": 38.906451, "bike_id": "bc6bb4d390987d2210d63972335b7dba", "fusion_lon": 0.0}, {"rental_uris": {"ios": "https://dc.lft.to/lastmile_qr_scan", "android": "https://dc.lft.to/lastmile_qr_scan"}, "type": "electric_scooter", "name": "b7913fbbbaea2abbf2111ef9080e60d5", "is_reserved": 0, "lon": -77.03997366666667, "is_disabled": 0, "fusion_lat": 0.0, "lat": 38.924337666666666, "bike_id": "b7913fbbbaea2abbf2111ef9080e60d5", "fusion_lon": 0.0}, {"rental_uris": {"ios": "https://dc.lft.to/lastmile_qr_scan", "android": "https://dc.lft.to/lastmile_qr_scan"}, "type": "electric_bike", "name": "ffd8f1f1deb158a61e0a048aebcf1f88", "is_reserved": 0, "lon": -77.16233166666666, "is_disabled": 0, "fusion_lat": 0.0, "lat": 38.886645, "bike_id": "ffd8f1f1deb158a61e0a048aebcf1f88", "fusion_lon": 0.0}, {"rental_uris": {"ios": "https://dc.lft.to/lastmile_qr_scan", "android": "https://dc.lft.to/lastmile_qr_scan"}, "type": "electric_scooter", "name": "2d036ae9b8d259424122971d00bbc2c7", "is_reserved": 0, "lon": -77.06776816666667, "is_disabled": 0, "fusion_lat": 0.0, "lat": 38.904627, "bike_id": "2d036ae9b8d259424122971d00bbc2c7", "fusion_lon": 0.0}, {"rental_uris": {"ios": "https://dc.lft.to/lastmile_qr_scan", "android": "https://dc.lft.to/lastmile_qr_scan"}, "type": "electric_bike", "name": "a1382769c92f97a22b1bc2dd668253f3", "is_reserved": 0, "lon": -76.973272, "is_disabled": 0, "fusion_lat": 0.0, "lat": 38.865192666666665, "bike_id": "a1382769c92f97a22b1bc2dd668253f3", "fusion_lon": 0.0}, {"rental_uris": {"ios": "https://dc.lft.to/lastmile_qr_scan", "android": "https://dc.lft.to/lastmile_qr_scan"}, "type": "electric_scooter", "name": "11e5aff64e0e55f7d243527593335af6", "is_reserved": 0, "lon": -77.02445133333333, "is_disabled": 0, "fusion_lat": 0.0, "lat": 38.9205285, "bike_id": "11e5aff64e0e55f7d243527593335af6", "fusion_lon": 0.0}, {"rental_uris": {"ios": "https://dc.lft.to/lastmile_qr_scan", "android": "https://dc.lft.to/lastmile_qr_scan"}, "type": "electric_scooter", "name": "98c236aaa96dd43adf76560cd027e931", "is_reserved": 0, "lon": -77.00922683333333, "is_disabled": 0, "fusion_lat": 0.0, "lat": 38.90764883333333, "bike_id": "98c236aaa96dd43adf76560cd027e931", "fusion_lon": 0.0}, {"rental_uris": {"ios": "https://dc.lft.to/lastmile_qr_scan", "android": "https://dc.lft.to/lastmile_qr_scan"}, "type": "electric_scooter", "name": "03595026ded59ec8e66c70cf1196718f", "is_reserved": 0, "lon": -77.0417545, "is_disabled": 0, "fusion_lat": 0.0, "lat": 38.917216833333335, "bike_id": "03595026ded59ec8e66c70cf1196718f", "fusion_lon": 0.0}, {"rental_uris": {"ios": "https://dc.lft.to/lastmile_qr_scan", "android": "https://dc.lft.to/lastmile_qr_scan"}, "type": "electric_scooter", "name": "587197aeaf438f6274f583f3feca508c", "is_reserved": 0, "lon": -77.0022355, "is_disabled": 0, "fusion_lat": 0.0, "lat": 38.89452416666666, "bike_id": "587197aeaf438f6274f583f3feca508c", "fusion_lon": 0.0}, {"rental_uris": {"ios": "https://dc.lft.to/lastmile_qr_scan", "android": "https://dc.lft.to/lastmile_qr_scan"}, "type": "electric_scooter", "name": "ddc640e6ddcbccb06b91f8b36d070698", "is_reserved": 0, "lon": -77.00371066666666, "is_disabled": 0, "fusion_lat": 0.0, "lat": 38.89914133333333, "bike_id": "ddc640e6ddcbccb06b91f8b36d070698", "fusion_lon": 0.0}, {"rental_uris": {"ios": "https://dc.lft.to/lastmile_qr_scan", "android": "https://dc.lft.to/lastmile_qr_scan"}, "type": "electric_scooter", "name": "082c3b985256ad7902d217c58e7de20f", "is_reserved": 0, "lon": -77.028225, "is_disabled": 0, "fusion_lat": 0.0, "lat": 38.885167333333335, "bike_id": "082c3b985256ad7902d217c58e7de20f", "fusion_lon": 0.0}, {"rental_uris": {"ios": "https://dc.lft.to/lastmile_qr_scan", "android": "https://dc.lft.to/lastmile_qr_scan"}, "type": "electric_scooter", "name": "6f55a3e15c0509342c9baef9171f9a09", "is_reserved": 0, "lon": -76.99741816666666, "is_disabled": 0, "fusion_lat": 0.0, "lat": 38.92073716666667, "bike_id": "6f55a3e15c0509342c9baef9171f9a09", "fusion_lon": 0.0}, {"rental_uris": {"ios": "https://dc.lft.to/lastmile_qr_scan", "android": "https://dc.lft.to/lastmile_qr_scan"}, "type": "electric_scooter", "name": "d37122dbb40828a1112b803ed5f33ea3", "is_reserved": 0, "lon": -77.0195825, "is_disabled": 0, "fusion_lat": 0.0, "lat": 38.92323733333333, "bike_id": "d37122dbb40828a1112b803ed5f33ea3", "fusion_lon": 0.0}, {"rental_uris": {"ios": "https://dc.lft.to/lastmile_qr_scan", "android": "https://dc.lft.to/lastmile_qr_scan"}, "type": "electric_scooter", "name": "f811ec62a0f29885a09962f7c5222405", "is_reserved": 0, "lon": -77.03854233333334, "is_disabled": 0, "fusion_lat": 0.0, "lat": 38.912768166666666, "bike_id": "f811ec62a0f29885a09962f7c5222405", "fusion_lon": 0.0}, {"rental_uris": {"ios": "https://dc.lft.to/lastmile_qr_scan", "android": "https://dc.lft.to/lastmile_qr_scan"}, "type": "electric_scooter", "name": "3e9b96f87e719c3e76f926ebcc3a15cc", "is_reserved": 0, "lon": -77.0340465, "is_disabled": 0, "fusion_lat": 0.0, "lat": 38.9095875, "bike_id": "3e9b96f87e719c3e76f926ebcc3a15cc", "fusion_lon": 0.0}, {"rental_uris": {"ios": "https://dc.lft.to/lastmile_qr_scan", "android": "https://dc.lft.to/lastmile_qr_scan"}, "type": "electric_scooter", "name": "18c97948e8d87c1f90de7380d61eeadb", "is_reserved": 0, "lon": -76.98212416666667, "is_disabled": 0, "fusion_lat": 0.0, "lat": 38.88661616666667, "bike_id": "18c97948e8d87c1f90de7380d61eeadb", "fusion_lon": 0.0}, {"rental_uris": {"ios": "https://dc.lft.to/lastmile_qr_scan", "android": "https://dc.lft.to/lastmile_qr_scan"}, "type": "electric_scooter", "name": "9d6f37ef39addbeb18bbd62c6614950a", "is_reserved": 0, "lon": -77.044144, "is_disabled": 0, "fusion_lat": 0.0, "lat": 38.90123333333333, "bike_id": "9d6f37ef39addbeb18bbd62c6614950a", "fusion_lon": 0.0}, {"rental_uris": {"ios": "https://dc.lft.to/lastmile_qr_scan", "android": "https://dc.lft.to/lastmile_qr_scan"}, "type": "electric_scooter", "name": "6c42352d6501be2c71106d38e82147c8", "is_reserved": 0, "lon": -77.03873233333333, "is_disabled": 0, "fusion_lat": 0.0, "lat": 38.92019116666667, "bike_id": "6c42352d6501be2c71106d38e82147c8", "fusion_lon": 0.0}, {"rental_uris": {"ios": "https://dc.lft.to/lastmile_qr_scan", "android": "https://dc.lft.to/lastmile_qr_scan"}, "type": "electric_scooter", "name": "1cb177f3e962f15e5f342271cb21a296", "is_reserved": 0, "lon": -77.03179666666666, "is_disabled": 0, "fusion_lat": 0.0, "lat": 38.90841133333333, "bike_id": "1cb177f3e962f15e5f342271cb21a296", "fusion_lon": 0.0}, {"rental_uris": {"ios": "https://dc.lft.to/lastmile_qr_scan", "android": "https://dc.lft.to/lastmile_qr_scan"}, "type": "electric_scooter", "name": "3fb1e3a6fc151606b5a134316c577976", "is_reserved": 0, "lon": -77.01361183333333, "is_disabled": 0, "fusion_lat": 0.0, "lat": 38.91928216666667, "bike_id": "3fb1e3a6fc151606b5a134316c577976", "fusion_lon": 0.0}, {"rental_uris": {"ios": "https://dc.lft.to/lastmile_qr_scan", "android": "https://dc.lft.to/lastmile_qr_scan"}, "type": "electric_scooter", "name": "d82e81d0afe2fe96cd60107a31fca6b3", "is_reserved": 0, "lon": -77.04144533333333, "is_disabled": 0, "fusion_lat": 0.0, "lat": 38.9229935, "bike_id": "d82e81d0afe2fe96cd60107a31fca6b3", "fusion_lon": 0.0}, {"rental_uris": {"ios": "https://dc.lft.to/lastmile_qr_scan", "android": "https://dc.lft.to/lastmile_qr_scan"}, "type": "electric_scooter", "name": "974e2183fa8d0dcccd2cb4f360106307", "is_reserved": 0, "lon": -77.02750416666667, "is_disabled": 0, "fusion_lat": 0.0, "lat": 38.966087, "bike_id": "974e2183fa8d0dcccd2cb4f360106307", "fusion_lon": 0.0}, {"rental_uris": {"ios": "https://dc.lft.to/lastmile_qr_scan", "android": "https://dc.lft.to/lastmile_qr_scan"}, "type": "electric_scooter", "name": "a7500de5421088363bf137601b48c20e", "is_reserved": 0, "lon": -77.02242083333333, "is_disabled": 0, "fusion_lat": 0.0, "lat": 38.878565, "bike_id": "a7500de5421088363bf137601b48c20e", "fusion_lon": 0.0}, {"rental_uris": {"ios": "https://dc.lft.to/lastmile_qr_scan", "android": "https://dc.lft.to/lastmile_qr_scan"}, "type": "electric_scooter", "name": "04fb2e50d879f154cb89dd4c224c1468", "is_reserved": 0, "lon": -77.04365766666666, "is_disabled": 0, "fusion_lat": 0.0, "lat": 38.89224316666667, "bike_id": "04fb2e50d879f154cb89dd4c224c1468", "fusion_lon": 0.0}, {"rental_uris": {"ios": "https://dc.lft.to/lastmile_qr_scan", "android": "https://dc.lft.to/lastmile_qr_scan"}, "type": "electric_scooter", "name": "3157e829ac63c9c0ea8201776e112a8e", "is_reserved": 0, "lon": -77.00450933333333, "is_disabled": 0, "fusion_lat": 0.0, "lat": 38.83793633333333, "bike_id": "3157e829ac63c9c0ea8201776e112a8e", "fusion_lon": 0.0}, {"rental_uris": {"ios": "https://dc.lft.to/lastmile_qr_scan", "android": "https://dc.lft.to/lastmile_qr_scan"}, "type": "electric_scooter", "name": "b57650b776e853270b7392cb5100b1b8", "is_reserved": 0, "lon": -77.0385705, "is_disabled": 0, "fusion_lat": 0.0, "lat": 38.90980283333333, "bike_id": "b57650b776e853270b7392cb5100b1b8", "fusion_lon": 0.0}, {"rental_uris": {"ios": "https://dc.lft.to/lastmile_qr_scan", "android": "https://dc.lft.to/lastmile_qr_scan"}, "type": "electric_scooter", "name": "7fca68f816363d724600d5d6f7e3a602", "is_reserved": 0, "lon": -77.03913133333333, "is_disabled": 0, "fusion_lat": 0.0, "lat": 38.9247505, "bike_id": "7fca68f816363d724600d5d6f7e3a602", "fusion_lon": 0.0}, {"rental_uris": {"ios": "https://dc.lft.to/lastmile_qr_scan", "android": "https://dc.lft.to/lastmile_qr_scan"}, "type": "electric_scooter", "name": "b2a05a4c312494902e5eed54b8fbf09c", "is_reserved": 0, "lon": -77.02979083333334, "is_disabled": 0, "fusion_lat": 0.0, "lat": 38.923158, "bike_id": "b2a05a4c312494902e5eed54b8fbf09c", "fusion_lon": 0.0}, {"rental_uris": {"ios": "https://dc.lft.to/lastmile_qr_scan", "android": "https://dc.lft.to/lastmile_qr_scan"}, "type": "electric_scooter", "name": "51db84f760c820eae29b0a20f5690f65", "is_reserved": 0, "lon": -76.93707033333334, "is_disabled": 0, "fusion_lat": 0.0, "lat": 38.89016383333333, "bike_id": "51db84f760c820eae29b0a20f5690f65", "fusion_lon": 0.0}, {"rental_uris": {"ios": "https://dc.lft.to/lastmile_qr_scan", "android": "https://dc.lft.to/lastmile_qr_scan"}, "type": "electric_scooter", "name": "ba99060cb42e7bd39e26d136261dde3b", "is_reserved": 0, "lon": -77.04403883333333, "is_disabled": 0, "fusion_lat": 0.0, "lat": 38.92951333333333, "bike_id": "ba99060cb42e7bd39e26d136261dde3b", "fusion_lon": 0.0}, {"rental_uris": {"ios": "https://dc.lft.to/lastmile_qr_scan", "android": "https://dc.lft.to/lastmile_qr_scan"}, "type": "electric_scooter", "name": "93ea0fd2e433a067f72c52b7c38ee2ff", "is_reserved": 0, "lon": -76.96987433333334, "is_disabled": 0, "fusion_lat": 0.0, "lat": 38.873861833333336, "bike_id": "93ea0fd2e433a067f72c52b7c38ee2ff", "fusion_lon": 0.0}, {"rental_uris": {"ios": "https://dc.lft.to/lastmile_qr_scan", "android": "https://dc.lft.to/lastmile_qr_scan"}, "type": "electric_scooter", "name": "a8ab108d98e301c2a07aea9c0233bc09", "is_reserved": 0, "lon": -77.0385505, "is_disabled": 0, "fusion_lat": 0.0, "lat": 38.90376583333333, "bike_id": "a8ab108d98e301c2a07aea9c0233bc09", "fusion_lon": 0.0}, {"rental_uris": {"ios": "https://dc.lft.to/lastmile_qr_scan", "android": "https://dc.lft.to/lastmile_qr_scan"}, "type": "electric_scooter", "name": "296155eeb2eee7681d33d08b7a758930", "is_reserved": 0, "lon": -76.96506833333333, "is_disabled": 0, "fusion_lat": 0.0, "lat": 38.87643683333334, "bike_id": "296155eeb2eee7681d33d08b7a758930", "fusion_lon": 0.0}, {"rental_uris": {"ios": "https://dc.lft.to/lastmile_qr_scan", "android": "https://dc.lft.to/lastmile_qr_scan"}, "type": "electric_bike", "name": "203e378587ea7edb4fd1a69d2c42889c", "is_reserved": 0, "lon": -77.07017333333333, "is_disabled": 0, "fusion_lat": 0.0, "lat": 38.841083, "bike_id": "203e378587ea7edb4fd1a69d2c42889c", "fusion_lon": 0.0}, {"rental_uris": {"ios": "https://dc.lft.to/lastmile_qr_scan", "android": "https://dc.lft.to/lastmile_qr_scan"}, "type": "electric_scooter", "name": "286115fa8075ad31d9f9d37f2846c3b9", "is_reserved": 0, "lon": -77.04898233333333, "is_disabled": 0, "fusion_lat": 0.0, "lat": 38.898958, "bike_id": "286115fa8075ad31d9f9d37f2846c3b9", "fusion_lon": 0.0}, {"rental_uris": {"ios": "https://dc.lft.to/lastmile_qr_scan", "android": "https://dc.lft.to/lastmile_qr_scan"}, "type": "electric_scooter", "name": "8b1e16e2609f001170b0600b2fbf370e", "is_reserved": 0, "lon": -77.0450405, "is_disabled": 0, "fusion_lat": 0.0, "lat": 38.89226583333333, "bike_id": "8b1e16e2609f001170b0600b2fbf370e", "fusion_lon": 0.0}, {"rental_uris": {"ios": "https://dc.lft.to/lastmile_qr_scan", "android": "https://dc.lft.to/lastmile_qr_scan"}, "type": "electric_scooter", "name": "ac3adabba9dcf811bdd6fb8cf7a60329", "is_reserved": 0, "lon": -77.04688983333334, "is_disabled": 0, "fusion_lat": 0.0, "lat": 38.892245833333334, "bike_id": "ac3adabba9dcf811bdd6fb8cf7a60329", "fusion_lon": 0.0}, {"rental_uris": {"ios": "https://dc.lft.to/lastmile_qr_scan", "android": "https://dc.lft.to/lastmile_qr_scan"}, "type": "electric_scooter", "name": "93969f404d23b07470d99edc94282f27", "is_reserved": 0, "lon": -77.03956366666667, "is_disabled": 0, "fusion_lat": 0.0, "lat": 38.892464833333335, "bike_id": "93969f404d23b07470d99edc94282f27", "fusion_lon": 0.0}, {"rental_uris": {"ios": "https://dc.lft.to/lastmile_qr_scan", "android": "https://dc.lft.to/lastmile_qr_scan"}, "type": "electric_scooter", "name": "401902a4ef11fab2ae1ce47d08ac2b73", "is_reserved": 0, "lon": -77.05813, "is_disabled": 0, "fusion_lat": 0.0, "lat": 38.9050215, "bike_id": "401902a4ef11fab2ae1ce47d08ac2b73", "fusion_lon": 0.0}, {"rental_uris": {"ios": "https://dc.lft.to/lastmile_qr_scan", "android": "https://dc.lft.to/lastmile_qr_scan"}, "type": "electric_scooter", "name": "1a32536df7fbd4bcbf38aca7a0f39f55", "is_reserved": 0, "lon": -77.00529733333333, "is_disabled": 0, "fusion_lat": 0.0, "lat": 38.87938066666667, "bike_id": "1a32536df7fbd4bcbf38aca7a0f39f55", "fusion_lon": 0.0}, {"rental_uris": {"ios": "https://dc.lft.to/lastmile_qr_scan", "android": "https://dc.lft.to/lastmile_qr_scan"}, "type": "electric_scooter", "name": "38faf51b0c5baa3a2584a1d0afe32f31", "is_reserved": 0, "lon": -76.98505083333333, "is_disabled": 0, "fusion_lat": 0.0, "lat": 38.880844333333336, "bike_id": "38faf51b0c5baa3a2584a1d0afe32f31", "fusion_lon": 0.0}, {"rental_uris": {"ios": "https://dc.lft.to/lastmile_qr_scan", "android": "https://dc.lft.to/lastmile_qr_scan"}, "type": "electric_scooter", "name": "0fe3e6ec890c6b07f501a6aaa4aaf63f", "is_reserved": 0, "lon": -77.03561233333333, "is_disabled": 0, "fusion_lat": 0.0, "lat": 38.9242225, "bike_id": "0fe3e6ec890c6b07f501a6aaa4aaf63f", "fusion_lon": 0.0}, {"rental_uris": {"ios": "https://dc.lft.to/lastmile_qr_scan", "android": "https://dc.lft.to/lastmile_qr_scan"}, "type": "electric_scooter", "name": "4fd7b4f4597a09f99f4990356dc36675", "is_reserved": 0, "lon": -76.9865235, "is_disabled": 0, "fusion_lat": 0.0, "lat": 38.9053885, "bike_id": "4fd7b4f4597a09f99f4990356dc36675", "fusion_lon": 0.0}, {"rental_uris": {"ios": "https://dc.lft.to/lastmile_qr_scan", "android": "https://dc.lft.to/lastmile_qr_scan"}, "type": "electric_scooter", "name": "b6c349cf05e138f99e035f2c0b36ab43", "is_reserved": 0, "lon": -77.0313975, "is_disabled": 0, "fusion_lat": 0.0, "lat": 38.91552866666667, "bike_id": "b6c349cf05e138f99e035f2c0b36ab43", "fusion_lon": 0.0}, {"rental_uris": {"ios": "https://dc.lft.to/lastmile_qr_scan", "android": "https://dc.lft.to/lastmile_qr_scan"}, "type": "electric_scooter", "name": "97e35576bda0f37af8d83d422c946fca", "is_reserved": 0, "lon": -77.00346133333333, "is_disabled": 0, "fusion_lat": 0.0, "lat": 38.890007, "bike_id": "97e35576bda0f37af8d83d422c946fca", "fusion_lon": 0.0}, {"rental_uris": {"ios": "https://dc.lft.to/lastmile_qr_scan", "android": "https://dc.lft.to/lastmile_qr_scan"}, "type": "electric_scooter", "name": "e278fb27cd23a7374fdd804cf87d2300", "is_reserved": 0, "lon": -77.024668, "is_disabled": 0, "fusion_lat": 0.0, "lat": 38.957841, "bike_id": "e278fb27cd23a7374fdd804cf87d2300", "fusion_lon": 0.0}, {"rental_uris": {"ios": "https://dc.lft.to/lastmile_qr_scan", "android": "https://dc.lft.to/lastmile_qr_scan"}, "type": "electric_bike", "name": "717cd1f2961891e87b2e95c9e99c8fd2", "is_reserved": 0, "lon": -77.0657615, "is_disabled": 0, "fusion_lat": 0.0, "lat": 38.9113315, "bike_id": "717cd1f2961891e87b2e95c9e99c8fd2", "fusion_lon": 0.0}, {"rental_uris": {"ios": "https://dc.lft.to/lastmile_qr_scan", "android": "https://dc.lft.to/lastmile_qr_scan"}, "type": "electric_scooter", "name": "1f1afb05f464a0fcd7bffbbe4e375188", "is_reserved": 0, "lon": -77.01508916666667, "is_disabled": 0, "fusion_lat": 0.0, "lat": 38.91290166666667, "bike_id": "1f1afb05f464a0fcd7bffbbe4e375188", "fusion_lon": 0.0}, {"rental_uris": {"ios": "https://dc.lft.to/lastmile_qr_scan", "android": "https://dc.lft.to/lastmile_qr_scan"}, "type": "electric_scooter", "name": "81097e2cf53e736d6b200a98d105a002", "is_reserved": 0, "lon": -77.0234265, "is_disabled": 0, "fusion_lat": 0.0, "lat": 38.917693666666665, "bike_id": "81097e2cf53e736d6b200a98d105a002", "fusion_lon": 0.0}, {"rental_uris": {"ios": "https://dc.lft.to/lastmile_qr_scan", "android": "https://dc.lft.to/lastmile_qr_scan"}, "type": "electric_scooter", "name": "9d1c0d3c4d861a8e87af10454091bd32", "is_reserved": 0, "lon": -77.02660316666666, "is_disabled": 0, "fusion_lat": 0.0, "lat": 38.93860733333333, "bike_id": "9d1c0d3c4d861a8e87af10454091bd32", "fusion_lon": 0.0}, {"rental_uris": {"ios": "https://dc.lft.to/lastmile_qr_scan", "android": "https://dc.lft.to/lastmile_qr_scan"}, "type": "electric_scooter", "name": "c51f9b2d6b5525d600c25b8e8c3df5ad", "is_reserved": 0, "lon": -77.03286916666667, "is_disabled": 0, "fusion_lat": 0.0, "lat": 38.9288015, "bike_id": "c51f9b2d6b5525d600c25b8e8c3df5ad", "fusion_lon": 0.0}, {"rental_uris": {"ios": "https://dc.lft.to/lastmile_qr_scan", "android": "https://dc.lft.to/lastmile_qr_scan"}, "type": "electric_scooter", "name": "c4d457811011f0f6e988133b87b44738", "is_reserved": 0, "lon": -77.023369, "is_disabled": 0, "fusion_lat": 0.0, "lat": 38.927072, "bike_id": "c4d457811011f0f6e988133b87b44738", "fusion_lon": 0.0}, {"rental_uris": {"ios": "https://dc.lft.to/lastmile_qr_scan", "android": "https://dc.lft.to/lastmile_qr_scan"}, "type": "electric_bike", "name": "9a88df75a577d3d6b54883b60d6f3f0e", "is_reserved": 0, "lon": -77.106219, "is_disabled": 0, "fusion_lat": 0.0, "lat": 38.87322, "bike_id": "9a88df75a577d3d6b54883b60d6f3f0e", "fusion_lon": 0.0}, {"rental_uris": {"ios": "https://dc.lft.to/lastmile_qr_scan", "android": "https://dc.lft.to/lastmile_qr_scan"}, "type": "electric_scooter", "name": "908bb62e02d3f8fd371117775ca6de43", "is_reserved": 0, "lon": -77.07056283333333, "is_disabled": 0, "fusion_lat": 0.0, "lat": 38.89909766666667, "bike_id": "908bb62e02d3f8fd371117775ca6de43", "fusion_lon": 0.0}, {"rental_uris": {"ios": "https://dc.lft.to/lastmile_qr_scan", "android": "https://dc.lft.to/lastmile_qr_scan"}, "type": "electric_scooter", "name": "f774084a056190b82e2277a122935a95", "is_reserved": 0, "lon": -76.9230355, "is_disabled": 0, "fusion_lat": 0.0, "lat": 38.893852833333334, "bike_id": "f774084a056190b82e2277a122935a95", "fusion_lon": 0.0}, {"rental_uris": {"ios": "https://dc.lft.to/lastmile_qr_scan", "android": "https://dc.lft.to/lastmile_qr_scan"}, "type": "electric_scooter", "name": "508ef2b374710dd4d22da774b73fe31f", "is_reserved": 0, "lon": -77.00748583333333, "is_disabled": 0, "fusion_lat": 0.0, "lat": 38.903654333333336, "bike_id": "508ef2b374710dd4d22da774b73fe31f", "fusion_lon": 0.0}, {"rental_uris": {"ios": "https://dc.lft.to/lastmile_qr_scan", "android": "https://dc.lft.to/lastmile_qr_scan"}, "type": "electric_scooter", "name": "b4ce93578f26293205c55d859c5b9276", "is_reserved": 0, "lon": -77.0638155, "is_disabled": 0, "fusion_lat": 0.0, "lat": 38.90523666666667, "bike_id": "b4ce93578f26293205c55d859c5b9276", "fusion_lon": 0.0}, {"rental_uris": {"ios": "https://dc.lft.to/lastmile_qr_scan", "android": "https://dc.lft.to/lastmile_qr_scan"}, "type": "electric_scooter", "name": "668d7bd761e22becd4a0101dd5ecfef2", "is_reserved": 0, "lon": -77.07255316666667, "is_disabled": 0, "fusion_lat": 0.0, "lat": 38.907833833333335, "bike_id": "668d7bd761e22becd4a0101dd5ecfef2", "fusion_lon": 0.0}, {"rental_uris": {"ios": "https://dc.lft.to/lastmile_qr_scan", "android": "https://dc.lft.to/lastmile_qr_scan"}, "type": "electric_scooter", "name": "0429c461abd99f20f4166a0b4ce8caf7", "is_reserved": 0, "lon": -77.02029966666667, "is_disabled": 0, "fusion_lat": 0.0, "lat": 38.92436333333333, "bike_id": "0429c461abd99f20f4166a0b4ce8caf7", "fusion_lon": 0.0}, {"rental_uris": {"ios": "https://dc.lft.to/lastmile_qr_scan", "android": "https://dc.lft.to/lastmile_qr_scan"}, "type": "electric_scooter", "name": "0006e5e9004851cbce196b39bec1c451", "is_reserved": 0, "lon": -77.00333283333333, "is_disabled": 0, "fusion_lat": 0.0, "lat": 38.89506983333333, "bike_id": "0006e5e9004851cbce196b39bec1c451", "fusion_lon": 0.0}, {"rental_uris": {"ios": "https://dc.lft.to/lastmile_qr_scan", "android": "https://dc.lft.to/lastmile_qr_scan"}, "type": "electric_scooter", "name": "6da505047715cb4d8747fe8e753d94ad", "is_reserved": 0, "lon": -77.03036166666666, "is_disabled": 0, "fusion_lat": 0.0, "lat": 38.897075666666666, "bike_id": "6da505047715cb4d8747fe8e753d94ad", "fusion_lon": 0.0}, {"rental_uris": {"ios": "https://dc.lft.to/lastmile_qr_scan", "android": "https://dc.lft.to/lastmile_qr_scan"}, "type": "electric_scooter", "name": "5105f24f89910f774b8e2e521db3c118", "is_reserved": 0, "lon": -77.03845533333333, "is_disabled": 0, "fusion_lat": 0.0, "lat": 38.908542833333335, "bike_id": "5105f24f89910f774b8e2e521db3c118", "fusion_lon": 0.0}, {"rental_uris": {"ios": "https://dc.lft.to/lastmile_qr_scan", "android": "https://dc.lft.to/lastmile_qr_scan"}, "type": "electric_scooter", "name": "d37c95ae4ad378fad974e44e7c99680b", "is_reserved": 0, "lon": -77.03220466666667, "is_disabled": 0, "fusion_lat": 0.0, "lat": 38.90867683333333, "bike_id": "d37c95ae4ad378fad974e44e7c99680b", "fusion_lon": 0.0}, {"rental_uris": {"ios": "https://dc.lft.to/lastmile_qr_scan", "android": "https://dc.lft.to/lastmile_qr_scan"}, "type": "electric_bike", "name": "341a10a036b8fcb14a823d6863611a59", "is_reserved": 0, "lon": -77.0124755, "is_disabled": 0, "fusion_lat": 0.0, "lat": 38.950801, "bike_id": "341a10a036b8fcb14a823d6863611a59", "fusion_lon": 0.0}, {"rental_uris": {"ios": "https://dc.lft.to/lastmile_qr_scan", "android": "https://dc.lft.to/lastmile_qr_scan"}, "type": "electric_scooter", "name": "c451031c1f1f7932e167b9e668c4de44", "is_reserved": 0, "lon": -77.00784466666667, "is_disabled": 0, "fusion_lat": 0.0, "lat": 38.90568716666667, "bike_id": "c451031c1f1f7932e167b9e668c4de44", "fusion_lon": 0.0}, {"rental_uris": {"ios": "https://dc.lft.to/lastmile_qr_scan", "android": "https://dc.lft.to/lastmile_qr_scan"}, "type": "electric_bike", "name": "a6aa4bdebdd53f04ea14d14b2a394b2c", "is_reserved": 0, "lon": -77.156443, "is_disabled": 0, "fusion_lat": 0.0, "lat": 38.88552716666667, "bike_id": "a6aa4bdebdd53f04ea14d14b2a394b2c", "fusion_lon": 0.0}, {"rental_uris": {"ios": "https://dc.lft.to/lastmile_qr_scan", "android": "https://dc.lft.to/lastmile_qr_scan"}, "type": "electric_scooter", "name": "1b0fccd276802731766468cba9a16296", "is_reserved": 0, "lon": -76.93475666666667, "is_disabled": 0, "fusion_lat": 0.0, "lat": 38.89502816666667, "bike_id": "1b0fccd276802731766468cba9a16296", "fusion_lon": 0.0}, {"rental_uris": {"ios": "https://dc.lft.to/lastmile_qr_scan", "android": "https://dc.lft.to/lastmile_qr_scan"}, "type": "electric_scooter", "name": "5fcd5b706576b0758133102ce91f689e", "is_reserved": 0, "lon": -77.03662716666666, "is_disabled": 0, "fusion_lat": 0.0, "lat": 38.93948266666666, "bike_id": "5fcd5b706576b0758133102ce91f689e", "fusion_lon": 0.0}, {"rental_uris": {"ios": "https://dc.lft.to/lastmile_qr_scan", "android": "https://dc.lft.to/lastmile_qr_scan"}, "type": "electric_scooter", "name": "ea0615d89230eac29ea25114ce93b133", "is_reserved": 0, "lon": -77.04162483333333, "is_disabled": 0, "fusion_lat": 0.0, "lat": 38.9165125, "bike_id": "ea0615d89230eac29ea25114ce93b133", "fusion_lon": 0.0}, {"rental_uris": {"ios": "https://dc.lft.to/lastmile_qr_scan", "android": "https://dc.lft.to/lastmile_qr_scan"}, "type": "electric_scooter", "name": "d0b1b88ca377a5f233c31849b978ee0e", "is_reserved": 0, "lon": -77.00661116666667, "is_disabled": 0, "fusion_lat": 0.0, "lat": 38.87688633333333, "bike_id": "d0b1b88ca377a5f233c31849b978ee0e", "fusion_lon": 0.0}, {"rental_uris": {"ios": "https://dc.lft.to/lastmile_qr_scan", "android": "https://dc.lft.to/lastmile_qr_scan"}, "type": "electric_scooter", "name": "8542119a92c191ce611e420b4a48bf0d", "is_reserved": 0, "lon": -77.02776666666666, "is_disabled": 0, "fusion_lat": 0.0, "lat": 38.892200833333334, "bike_id": "8542119a92c191ce611e420b4a48bf0d", "fusion_lon": 0.0}, {"rental_uris": {"ios": "https://dc.lft.to/lastmile_qr_scan", "android": "https://dc.lft.to/lastmile_qr_scan"}, "type": "electric_scooter", "name": "330a93bf59d159407316ce15a64b7932", "is_reserved": 0, "lon": -77.02325333333333, "is_disabled": 0, "fusion_lat": 0.0, "lat": 38.930627666666666, "bike_id": "330a93bf59d159407316ce15a64b7932", "fusion_lon": 0.0}, {"rental_uris": {"ios": "https://dc.lft.to/lastmile_qr_scan", "android": "https://dc.lft.to/lastmile_qr_scan"}, "type": "electric_scooter", "name": "7e9bbd527ef25b0f86bc3e2ecd8b79f5", "is_reserved": 0, "lon": -77.04641566666666, "is_disabled": 0, "fusion_lat": 0.0, "lat": 38.92230933333333, "bike_id": "7e9bbd527ef25b0f86bc3e2ecd8b79f5", "fusion_lon": 0.0}, {"rental_uris": {"ios": "https://dc.lft.to/lastmile_qr_scan", "android": "https://dc.lft.to/lastmile_qr_scan"}, "type": "electric_scooter", "name": "7381ceee108137372067451213f64eae", "is_reserved": 0, "lon": -77.02758733333333, "is_disabled": 0, "fusion_lat": 0.0, "lat": 38.90238133333333, "bike_id": "7381ceee108137372067451213f64eae", "fusion_lon": 0.0}, {"rental_uris": {"ios": "https://dc.lft.to/lastmile_qr_scan", "android": "https://dc.lft.to/lastmile_qr_scan"}, "type": "electric_scooter", "name": "097f246ad44fbd740a44b3f59cceeb4b", "is_reserved": 0, "lon": -77.02299583333334, "is_disabled": 0, "fusion_lat": 0.0, "lat": 38.878671833333335, "bike_id": "097f246ad44fbd740a44b3f59cceeb4b", "fusion_lon": 0.0}, {"rental_uris": {"ios": "https://dc.lft.to/lastmile_qr_scan", "android": "https://dc.lft.to/lastmile_qr_scan"}, "type": "electric_scooter", "name": "78c40b03ca5cb05c9de59a75899a9577", "is_reserved": 0, "lon": -77.0335215, "is_disabled": 0, "fusion_lat": 0.0, "lat": 38.92241216666667, "bike_id": "78c40b03ca5cb05c9de59a75899a9577", "fusion_lon": 0.0}, {"rental_uris": {"ios": "https://dc.lft.to/lastmile_qr_scan", "android": "https://dc.lft.to/lastmile_qr_scan"}, "type": "electric_scooter", "name": "636bc9582ec1d8671ec03d2c69805d77", "is_reserved": 0, "lon": -77.038354, "is_disabled": 0, "fusion_lat": 0.0, "lat": 38.91191716666667, "bike_id": "636bc9582ec1d8671ec03d2c69805d77", "fusion_lon": 0.0}, {"rental_uris": {"ios": "https://dc.lft.to/lastmile_qr_scan", "android": "https://dc.lft.to/lastmile_qr_scan"}, "type": "electric_bike", "name": "956375d273d6721da0557c06c3d523c2", "is_reserved": 0, "lon": -76.98763216666667, "is_disabled": 0, "fusion_lat": 0.0, "lat": 38.857624, "bike_id": "956375d273d6721da0557c06c3d523c2", "fusion_lon": 0.0}, {"rental_uris": {"ios": "https://dc.lft.to/lastmile_qr_scan", "android": "https://dc.lft.to/lastmile_qr_scan"}, "type": "electric_scooter", "name": "faa6d5a04161e501b0361d096021cef3", "is_reserved": 0, "lon": -76.9882585, "is_disabled": 0, "fusion_lat": 0.0, "lat": 38.894931166666666, "bike_id": "faa6d5a04161e501b0361d096021cef3", "fusion_lon": 0.0}, {"rental_uris": {"ios": "https://dc.lft.to/lastmile_qr_scan", "android": "https://dc.lft.to/lastmile_qr_scan"}, "type": "electric_scooter", "name": "8e7629d16a672dbb96ec4e887122343b", "is_reserved": 0, "lon": -77.024043, "is_disabled": 0, "fusion_lat": 0.0, "lat": 38.89902416666666, "bike_id": "8e7629d16a672dbb96ec4e887122343b", "fusion_lon": 0.0}, {"rental_uris": {"ios": "https://dc.lft.to/lastmile_qr_scan", "android": "https://dc.lft.to/lastmile_qr_scan"}, "type": "electric_scooter", "name": "7ce916596e7ff66eab514c2d36e7cb11", "is_reserved": 0, "lon": -77.04018383333333, "is_disabled": 0, "fusion_lat": 0.0, "lat": 38.90022483333333, "bike_id": "7ce916596e7ff66eab514c2d36e7cb11", "fusion_lon": 0.0}, {"rental_uris": {"ios": "https://dc.lft.to/lastmile_qr_scan", "android": "https://dc.lft.to/lastmile_qr_scan"}, "type": "electric_scooter", "name": "b3767aeb12fcf253d08d93fd8f3efdc3", "is_reserved": 0, "lon": -77.02031716666667, "is_disabled": 0, "fusion_lat": 0.0, "lat": 38.924197166666666, "bike_id": "b3767aeb12fcf253d08d93fd8f3efdc3", "fusion_lon": 0.0}, {"rental_uris": {"ios": "https://dc.lft.to/lastmile_qr_scan", "android": "https://dc.lft.to/lastmile_qr_scan"}, "type": "electric_scooter", "name": "7a518200e683f9152b12d6db0e2d1bc3", "is_reserved": 0, "lon": -77.00202383333334, "is_disabled": 0, "fusion_lat": 0.0, "lat": 38.902420166666666, "bike_id": "7a518200e683f9152b12d6db0e2d1bc3", "fusion_lon": 0.0}, {"rental_uris": {"ios": "https://dc.lft.to/lastmile_qr_scan", "android": "https://dc.lft.to/lastmile_qr_scan"}, "type": "electric_scooter", "name": "76617f2be79f690a88a2af15a7056400", "is_reserved": 0, "lon": -77.04300666666667, "is_disabled": 0, "fusion_lat": 0.0, "lat": 38.923020333333334, "bike_id": "76617f2be79f690a88a2af15a7056400", "fusion_lon": 0.0}, {"rental_uris": {"ios": "https://dc.lft.to/lastmile_qr_scan", "android": "https://dc.lft.to/lastmile_qr_scan"}, "type": "electric_scooter", "name": "c64a023d7be19b0673176581067351f6", "is_reserved": 0, "lon": -77.03181833333333, "is_disabled": 0, "fusion_lat": 0.0, "lat": 38.91497583333334, "bike_id": "c64a023d7be19b0673176581067351f6", "fusion_lon": 0.0}, {"rental_uris": {"ios": "https://dc.lft.to/lastmile_qr_scan", "android": "https://dc.lft.to/lastmile_qr_scan"}, "type": "electric_scooter", "name": "126e375192b3866982e4169632d9a270", "is_reserved": 0, "lon": -77.041743, "is_disabled": 0, "fusion_lat": 0.0, "lat": 38.91566566666667, "bike_id": "126e375192b3866982e4169632d9a270", "fusion_lon": 0.0}, {"rental_uris": {"ios": "https://dc.lft.to/lastmile_qr_scan", "android": "https://dc.lft.to/lastmile_qr_scan"}, "type": "electric_scooter", "name": "723b037dc2b81de32bc0903b7bde1f11", "is_reserved": 0, "lon": -77.02978533333334, "is_disabled": 0, "fusion_lat": 0.0, "lat": 38.92449366666666, "bike_id": "723b037dc2b81de32bc0903b7bde1f11", "fusion_lon": 0.0}, {"rental_uris": {"ios": "https://dc.lft.to/lastmile_qr_scan", "android": "https://dc.lft.to/lastmile_qr_scan"}, "type": "electric_scooter", "name": "b6684b24c44d462553ca334eccea694f", "is_reserved": 0, "lon": -76.9943885, "is_disabled": 0, "fusion_lat": 0.0, "lat": 38.941774833333334, "bike_id": "b6684b24c44d462553ca334eccea694f", "fusion_lon": 0.0}, {"rental_uris": {"ios": "https://dc.lft.to/lastmile_qr_scan", "android": "https://dc.lft.to/lastmile_qr_scan"}, "type": "electric_scooter", "name": "d8dd6785bc2997677ca0bdda2f2e01fe", "is_reserved": 0, "lon": -77.03967666666667, "is_disabled": 0, "fusion_lat": 0.0, "lat": 38.902736, "bike_id": "d8dd6785bc2997677ca0bdda2f2e01fe", "fusion_lon": 0.0}, {"rental_uris": {"ios": "https://dc.lft.to/lastmile_qr_scan", "android": "https://dc.lft.to/lastmile_qr_scan"}, "type": "electric_scooter", "name": "7ea4665811dfe11de36f704cf3308603", "is_reserved": 0, "lon": -77.02291366666667, "is_disabled": 0, "fusion_lat": 0.0, "lat": 38.89489183333333, "bike_id": "7ea4665811dfe11de36f704cf3308603", "fusion_lon": 0.0}, {"rental_uris": {"ios": "https://dc.lft.to/lastmile_qr_scan", "android": "https://dc.lft.to/lastmile_qr_scan"}, "type": "electric_scooter", "name": "a0d904bf5876f01d7bc8641ef5133209", "is_reserved": 0, "lon": -77.03199983333333, "is_disabled": 0, "fusion_lat": 0.0, "lat": 38.903720166666666, "bike_id": "a0d904bf5876f01d7bc8641ef5133209", "fusion_lon": 0.0}, {"rental_uris": {"ios": "https://dc.lft.to/lastmile_qr_scan", "android": "https://dc.lft.to/lastmile_qr_scan"}, "type": "electric_scooter", "name": "93579b1874256f25b666cf11fd0f9214", "is_reserved": 0, "lon": -77.04116416666666, "is_disabled": 0, "fusion_lat": 0.0, "lat": 38.90238216666667, "bike_id": "93579b1874256f25b666cf11fd0f9214", "fusion_lon": 0.0}, {"rental_uris": {"ios": "https://dc.lft.to/lastmile_qr_scan", "android": "https://dc.lft.to/lastmile_qr_scan"}, "type": "electric_scooter", "name": "9c7b6b04d57be1ea4588859a9afd2289", "is_reserved": 0, "lon": -77.02522966666666, "is_disabled": 0, "fusion_lat": 0.0, "lat": 38.91416266666667, "bike_id": "9c7b6b04d57be1ea4588859a9afd2289", "fusion_lon": 0.0}, {"rental_uris": {"ios": "https://dc.lft.to/lastmile_qr_scan", "android": "https://dc.lft.to/lastmile_qr_scan"}, "type": "electric_bike", "name": "7bd67b6896da4bb507a2097c5165237e", "is_reserved": 0, "lon": -77.03900866666666, "is_disabled": 0, "fusion_lat": 0.0, "lat": 38.92331333333333, "bike_id": "7bd67b6896da4bb507a2097c5165237e", "fusion_lon": 0.0}, {"rental_uris": {"ios": "https://dc.lft.to/lastmile_qr_scan", "android": "https://dc.lft.to/lastmile_qr_scan"}, "type": "electric_scooter", "name": "9b2dd853631c4543c3a69abff0e3db03", "is_reserved": 0, "lon": -76.9872655, "is_disabled": 0, "fusion_lat": 0.0, "lat": 38.91192783333334, "bike_id": "9b2dd853631c4543c3a69abff0e3db03", "fusion_lon": 0.0}, {"rental_uris": {"ios": "https://dc.lft.to/lastmile_qr_scan", "android": "https://dc.lft.to/lastmile_qr_scan"}, "type": "electric_scooter", "name": "fbbc95dd5050c9dbaa7341ba30e5c93b", "is_reserved": 0, "lon": -77.02950566666667, "is_disabled": 0, "fusion_lat": 0.0, "lat": 38.91671983333333, "bike_id": "fbbc95dd5050c9dbaa7341ba30e5c93b", "fusion_lon": 0.0}, {"rental_uris": {"ios": "https://dc.lft.to/lastmile_qr_scan", "android": "https://dc.lft.to/lastmile_qr_scan"}, "type": "electric_bike", "name": "526fa19bfeb19da0d86fe76e0c628b4c", "is_reserved": 0, "lon": -76.98457233333333, "is_disabled": 0, "fusion_lat": 0.0, "lat": 38.87909916666667, "bike_id": "526fa19bfeb19da0d86fe76e0c628b4c", "fusion_lon": 0.0}, {"rental_uris": {"ios": "https://dc.lft.to/lastmile_qr_scan", "android": "https://dc.lft.to/lastmile_qr_scan"}, "type": "electric_scooter", "name": "db7878eef1a4b282cf8cc2e95f7a8222", "is_reserved": 0, "lon": -76.9898595, "is_disabled": 0, "fusion_lat": 0.0, "lat": 38.864994833333334, "bike_id": "db7878eef1a4b282cf8cc2e95f7a8222", "fusion_lon": 0.0}, {"rental_uris": {"ios": "https://dc.lft.to/lastmile_qr_scan", "android": "https://dc.lft.to/lastmile_qr_scan"}, "type": "electric_scooter", "name": "fde25caa92377d9dfcb6c86fc4675c09", "is_reserved": 0, "lon": -77.01216933333333, "is_disabled": 0, "fusion_lat": 0.0, "lat": 38.920327666666665, "bike_id": "fde25caa92377d9dfcb6c86fc4675c09", "fusion_lon": 0.0}, {"rental_uris": {"ios": "https://dc.lft.to/lastmile_qr_scan", "android": "https://dc.lft.to/lastmile_qr_scan"}, "type": "electric_scooter", "name": "88bd6a7a71b05784a7747bfdaa60c98b", "is_reserved": 0, "lon": -77.06147433333334, "is_disabled": 0, "fusion_lat": 0.0, "lat": 38.912982166666666, "bike_id": "88bd6a7a71b05784a7747bfdaa60c98b", "fusion_lon": 0.0}, {"rental_uris": {"ios": "https://dc.lft.to/lastmile_qr_scan", "android": "https://dc.lft.to/lastmile_qr_scan"}, "type": "electric_scooter", "name": "349e41a2ed9b3dd4ee333c4ee8fe629f", "is_reserved": 0, "lon": -77.02530633333333, "is_disabled": 0, "fusion_lat": 0.0, "lat": 38.90094216666667, "bike_id": "349e41a2ed9b3dd4ee333c4ee8fe629f", "fusion_lon": 0.0}, {"rental_uris": {"ios": "https://dc.lft.to/lastmile_qr_scan", "android": "https://dc.lft.to/lastmile_qr_scan"}, "type": "electric_scooter", "name": "afb4eb13e15b2c1c3e90de7b009b7ba3", "is_reserved": 0, "lon": -77.02093066666667, "is_disabled": 0, "fusion_lat": 0.0, "lat": 38.9215635, "bike_id": "afb4eb13e15b2c1c3e90de7b009b7ba3", "fusion_lon": 0.0}, {"rental_uris": {"ios": "https://dc.lft.to/lastmile_qr_scan", "android": "https://dc.lft.to/lastmile_qr_scan"}, "type": "electric_scooter", "name": "6f4f295798a65f89ce2cdf8e3d65e18d", "is_reserved": 0, "lon": -77.068688, "is_disabled": 0, "fusion_lat": 0.0, "lat": 38.93743533333333, "bike_id": "6f4f295798a65f89ce2cdf8e3d65e18d", "fusion_lon": 0.0}, {"rental_uris": {"ios": "https://dc.lft.to/lastmile_qr_scan", "android": "https://dc.lft.to/lastmile_qr_scan"}, "type": "electric_scooter", "name": "0831f50832d18e7d162003263c0e8dec", "is_reserved": 0, "lon": -77.05595833333334, "is_disabled": 0, "fusion_lat": 0.0, "lat": 38.936983, "bike_id": "0831f50832d18e7d162003263c0e8dec", "fusion_lon": 0.0}, {"rental_uris": {"ios": "https://dc.lft.to/lastmile_qr_scan", "android": "https://dc.lft.to/lastmile_qr_scan"}, "type": "electric_scooter", "name": "83728c76a1cd8537195a55475d870f30", "is_reserved": 0, "lon": -77.03717383333333, "is_disabled": 0, "fusion_lat": 0.0, "lat": 38.900345333333334, "bike_id": "83728c76a1cd8537195a55475d870f30", "fusion_lon": 0.0}, {"rental_uris": {"ios": "https://dc.lft.to/lastmile_qr_scan", "android": "https://dc.lft.to/lastmile_qr_scan"}, "type": "electric_scooter", "name": "271a16dcf04ca7ab8790cd0c5b0797cb", "is_reserved": 0, "lon": -77.03196033333333, "is_disabled": 0, "fusion_lat": 0.0, "lat": 38.91577633333333, "bike_id": "271a16dcf04ca7ab8790cd0c5b0797cb", "fusion_lon": 0.0}, {"rental_uris": {"ios": "https://dc.lft.to/lastmile_qr_scan", "android": "https://dc.lft.to/lastmile_qr_scan"}, "type": "electric_scooter", "name": "2a9bc3e1f89b6a59548ad5d3a8f9aa7b", "is_reserved": 0, "lon": -76.99156016666667, "is_disabled": 0, "fusion_lat": 0.0, "lat": 38.89340516666667, "bike_id": "2a9bc3e1f89b6a59548ad5d3a8f9aa7b", "fusion_lon": 0.0}, {"rental_uris": {"ios": "https://dc.lft.to/lastmile_qr_scan", "android": "https://dc.lft.to/lastmile_qr_scan"}, "type": "electric_scooter", "name": "2aea60f2b43ce1d7cd7ed2b618dd7d51", "is_reserved": 0, "lon": -77.039621, "is_disabled": 0, "fusion_lat": 0.0, "lat": 38.92480583333333, "bike_id": "2aea60f2b43ce1d7cd7ed2b618dd7d51", "fusion_lon": 0.0}, {"rental_uris": {"ios": "https://dc.lft.to/lastmile_qr_scan", "android": "https://dc.lft.to/lastmile_qr_scan"}, "type": "electric_scooter", "name": "13eeb77da8999db8ebb2eea6c8ca502d", "is_reserved": 0, "lon": -77.0267155, "is_disabled": 0, "fusion_lat": 0.0, "lat": 38.9843065, "bike_id": "13eeb77da8999db8ebb2eea6c8ca502d", "fusion_lon": 0.0}, {"rental_uris": {"ios": "https://dc.lft.to/lastmile_qr_scan", "android": "https://dc.lft.to/lastmile_qr_scan"}, "type": "electric_scooter", "name": "26863d0aeacbf8b993e68aaf41a7d790", "is_reserved": 0, "lon": -77.02829183333333, "is_disabled": 0, "fusion_lat": 0.0, "lat": 38.9025685, "bike_id": "26863d0aeacbf8b993e68aaf41a7d790", "fusion_lon": 0.0}, {"rental_uris": {"ios": "https://dc.lft.to/lastmile_qr_scan", "android": "https://dc.lft.to/lastmile_qr_scan"}, "type": "electric_scooter", "name": "1eed12ba4a2381e37524614135410c15", "is_reserved": 0, "lon": -77.03672733333333, "is_disabled": 0, "fusion_lat": 0.0, "lat": 38.922675, "bike_id": "1eed12ba4a2381e37524614135410c15", "fusion_lon": 0.0}, {"rental_uris": {"ios": "https://dc.lft.to/lastmile_qr_scan", "android": "https://dc.lft.to/lastmile_qr_scan"}, "type": "electric_scooter", "name": "7a0b1ad441f2a72a7f1c7073acc54ebc", "is_reserved": 0, "lon": -77.023197, "is_disabled": 0, "fusion_lat": 0.0, "lat": 38.87877, "bike_id": "7a0b1ad441f2a72a7f1c7073acc54ebc", "fusion_lon": 0.0}, {"rental_uris": {"ios": "https://dc.lft.to/lastmile_qr_scan", "android": "https://dc.lft.to/lastmile_qr_scan"}, "type": "electric_scooter", "name": "41dc71aa46a9844cad623b5b86569678", "is_reserved": 0, "lon": -76.983707, "is_disabled": 0, "fusion_lat": 0.0, "lat": 38.866660833333334, "bike_id": "41dc71aa46a9844cad623b5b86569678", "fusion_lon": 0.0}, {"rental_uris": {"ios": "https://dc.lft.to/lastmile_qr_scan", "android": "https://dc.lft.to/lastmile_qr_scan"}, "type": "electric_scooter", "name": "72dfd8ff3a170748b9ac8b44363623de", "is_reserved": 0, "lon": -77.04189016666666, "is_disabled": 0, "fusion_lat": 0.0, "lat": 38.9186965, "bike_id": "72dfd8ff3a170748b9ac8b44363623de", "fusion_lon": 0.0}, {"rental_uris": {"ios": "https://dc.lft.to/lastmile_qr_scan", "android": "https://dc.lft.to/lastmile_qr_scan"}, "type": "electric_scooter", "name": "33ba5e79479a98fba20fbc6b5bd5a307", "is_reserved": 0, "lon": -77.0296295, "is_disabled": 0, "fusion_lat": 0.0, "lat": 38.93191516666667, "bike_id": "33ba5e79479a98fba20fbc6b5bd5a307", "fusion_lon": 0.0}, {"rental_uris": {"ios": "https://dc.lft.to/lastmile_qr_scan", "android": "https://dc.lft.to/lastmile_qr_scan"}, "type": "electric_scooter", "name": "ab9ba6e689d090c11d857cbb86aef24f", "is_reserved": 0, "lon": -76.995428, "is_disabled": 0, "fusion_lat": 0.0, "lat": 38.879227, "bike_id": "ab9ba6e689d090c11d857cbb86aef24f", "fusion_lon": 0.0}, {"rental_uris": {"ios": "https://dc.lft.to/lastmile_qr_scan", "android": "https://dc.lft.to/lastmile_qr_scan"}, "type": "electric_bike", "name": "cd79f6c963c76efc8291001460719983", "is_reserved": 0, "lon": -77.0272115, "is_disabled": 0, "fusion_lat": 0.0, "lat": 38.97192833333333, "bike_id": "cd79f6c963c76efc8291001460719983", "fusion_lon": 0.0}, {"rental_uris": {"ios": "https://dc.lft.to/lastmile_qr_scan", "android": "https://dc.lft.to/lastmile_qr_scan"}, "type": "electric_scooter", "name": "ba22a652a4f81dba625db1c700673424", "is_reserved": 0, "lon": -76.9831325, "is_disabled": 0, "fusion_lat": 0.0, "lat": 38.92553733333333, "bike_id": "ba22a652a4f81dba625db1c700673424", "fusion_lon": 0.0}, {"rental_uris": {"ios": "https://dc.lft.to/lastmile_qr_scan", "android": "https://dc.lft.to/lastmile_qr_scan"}, "type": "electric_scooter", "name": "a4c3d27d764c70c1655626e1dd742623", "is_reserved": 0, "lon": -77.00697766666667, "is_disabled": 0, "fusion_lat": 0.0, "lat": 38.871703333333336, "bike_id": "a4c3d27d764c70c1655626e1dd742623", "fusion_lon": 0.0}, {"rental_uris": {"ios": "https://dc.lft.to/lastmile_qr_scan", "android": "https://dc.lft.to/lastmile_qr_scan"}, "type": "electric_scooter", "name": "2ffd16f6dbd2eaceb0fe6f5bed77862a", "is_reserved": 0, "lon": -77.041519, "is_disabled": 0, "fusion_lat": 0.0, "lat": 38.911162833333336, "bike_id": "2ffd16f6dbd2eaceb0fe6f5bed77862a", "fusion_lon": 0.0}, {"rental_uris": {"ios": "https://dc.lft.to/lastmile_qr_scan", "android": "https://dc.lft.to/lastmile_qr_scan"}, "type": "electric_scooter", "name": "c0e97db064dcf6ce579d5c7bba3c217c", "is_reserved": 0, "lon": -76.98531783333334, "is_disabled": 0, "fusion_lat": 0.0, "lat": 38.88079116666667, "bike_id": "c0e97db064dcf6ce579d5c7bba3c217c", "fusion_lon": 0.0}, {"rental_uris": {"ios": "https://dc.lft.to/lastmile_qr_scan", "android": "https://dc.lft.to/lastmile_qr_scan"}, "type": "electric_scooter", "name": "09e957bdd704d013a80dae65455cb88a", "is_reserved": 0, "lon": -77.01965883333334, "is_disabled": 0, "fusion_lat": 0.0, "lat": 38.95651183333333, "bike_id": "09e957bdd704d013a80dae65455cb88a", "fusion_lon": 0.0}, {"rental_uris": {"ios": "https://dc.lft.to/lastmile_qr_scan", "android": "https://dc.lft.to/lastmile_qr_scan"}, "type": "electric_scooter", "name": "f63529dc713a05ec32935d51d40ea437", "is_reserved": 0, "lon": -77.01726516666666, "is_disabled": 0, "fusion_lat": 0.0, "lat": 38.892216166666664, "bike_id": "f63529dc713a05ec32935d51d40ea437", "fusion_lon": 0.0}, {"rental_uris": {"ios": "https://dc.lft.to/lastmile_qr_scan", "android": "https://dc.lft.to/lastmile_qr_scan"}, "type": "electric_scooter", "name": "f8dedf3c4f841527f2eebb2da8c1b732", "is_reserved": 0, "lon": -77.02698316666667, "is_disabled": 0, "fusion_lat": 0.0, "lat": 38.917157, "bike_id": "f8dedf3c4f841527f2eebb2da8c1b732", "fusion_lon": 0.0}, {"rental_uris": {"ios": "https://dc.lft.to/lastmile_qr_scan", "android": "https://dc.lft.to/lastmile_qr_scan"}, "type": "electric_scooter", "name": "d606e488e4e5ab40b126acad678455d2", "is_reserved": 0, "lon": -77.0407345, "is_disabled": 0, "fusion_lat": 0.0, "lat": 38.94776483333333, "bike_id": "d606e488e4e5ab40b126acad678455d2", "fusion_lon": 0.0}, {"rental_uris": {"ios": "https://dc.lft.to/lastmile_qr_scan", "android": "https://dc.lft.to/lastmile_qr_scan"}, "type": "electric_scooter", "name": "a58d09ac234a9b95486f5ed20d09802e", "is_reserved": 0, "lon": -77.03202083333333, "is_disabled": 0, "fusion_lat": 0.0, "lat": 38.915395833333335, "bike_id": "a58d09ac234a9b95486f5ed20d09802e", "fusion_lon": 0.0}, {"rental_uris": {"ios": "https://dc.lft.to/lastmile_qr_scan", "android": "https://dc.lft.to/lastmile_qr_scan"}, "type": "electric_scooter", "name": "bf45dc8b890b2ac7308c0d50024a7f7a", "is_reserved": 0, "lon": -77.05688283333333, "is_disabled": 0, "fusion_lat": 0.0, "lat": 38.933873166666665, "bike_id": "bf45dc8b890b2ac7308c0d50024a7f7a", "fusion_lon": 0.0}, {"rental_uris": {"ios": "https://dc.lft.to/lastmile_qr_scan", "android": "https://dc.lft.to/lastmile_qr_scan"}, "type": "electric_scooter", "name": "9bbbb9337c17656a56927ab1b8101db5", "is_reserved": 0, "lon": -77.02628366666667, "is_disabled": 0, "fusion_lat": 0.0, "lat": 38.8922, "bike_id": "9bbbb9337c17656a56927ab1b8101db5", "fusion_lon": 0.0}, {"rental_uris": {"ios": "https://dc.lft.to/lastmile_qr_scan", "android": "https://dc.lft.to/lastmile_qr_scan"}, "type": "electric_scooter", "name": "dbab24b4fcd544e154532f57340ec0c0", "is_reserved": 0, "lon": -77.03848883333333, "is_disabled": 0, "fusion_lat": 0.0, "lat": 38.9166135, "bike_id": "dbab24b4fcd544e154532f57340ec0c0", "fusion_lon": 0.0}, {"rental_uris": {"ios": "https://dc.lft.to/lastmile_qr_scan", "android": "https://dc.lft.to/lastmile_qr_scan"}, "type": "electric_scooter", "name": "8976926d9e17d09e67e585829d0ad8c3", "is_reserved": 0, "lon": -77.02420333333333, "is_disabled": 0, "fusion_lat": 0.0, "lat": 38.90153766666667, "bike_id": "8976926d9e17d09e67e585829d0ad8c3", "fusion_lon": 0.0}, {"rental_uris": {"ios": "https://dc.lft.to/lastmile_qr_scan", "android": "https://dc.lft.to/lastmile_qr_scan"}, "type": "electric_scooter", "name": "5c37d1ac42eae32b38eed7551dd709f9", "is_reserved": 0, "lon": -76.9938725, "is_disabled": 0, "fusion_lat": 0.0, "lat": 38.910111, "bike_id": "5c37d1ac42eae32b38eed7551dd709f9", "fusion_lon": 0.0}, {"rental_uris": {"ios": "https://dc.lft.to/lastmile_qr_scan", "android": "https://dc.lft.to/lastmile_qr_scan"}, "type": "electric_scooter", "name": "ed352ebb1a22663ee96eb8b2be26c5cd", "is_reserved": 0, "lon": -77.022098, "is_disabled": 0, "fusion_lat": 0.0, "lat": 38.88737, "bike_id": "ed352ebb1a22663ee96eb8b2be26c5cd", "fusion_lon": 0.0}, {"rental_uris": {"ios": "https://dc.lft.to/lastmile_qr_scan", "android": "https://dc.lft.to/lastmile_qr_scan"}, "type": "electric_scooter", "name": "d93446a09b8e4987b6ffd37c4e7db962", "is_reserved": 0, "lon": -77.022949, "is_disabled": 0, "fusion_lat": 0.0, "lat": 38.9088125, "bike_id": "d93446a09b8e4987b6ffd37c4e7db962", "fusion_lon": 0.0}, {"rental_uris": {"ios": "https://dc.lft.to/lastmile_qr_scan", "android": "https://dc.lft.to/lastmile_qr_scan"}, "type": "electric_scooter", "name": "e1b177d4a8b3680f75bbc4fa28116226", "is_reserved": 0, "lon": -77.04892166666667, "is_disabled": 0, "fusion_lat": 0.0, "lat": 38.89902816666667, "bike_id": "e1b177d4a8b3680f75bbc4fa28116226", "fusion_lon": 0.0}, {"rental_uris": {"ios": "https://dc.lft.to/lastmile_qr_scan", "android": "https://dc.lft.to/lastmile_qr_scan"}, "type": "electric_scooter", "name": "19369605b756539cfdfa264f33b858f0", "is_reserved": 0, "lon": -77.00193366666667, "is_disabled": 0, "fusion_lat": 0.0, "lat": 38.90023433333333, "bike_id": "19369605b756539cfdfa264f33b858f0", "fusion_lon": 0.0}, {"rental_uris": {"ios": "https://dc.lft.to/lastmile_qr_scan", "android": "https://dc.lft.to/lastmile_qr_scan"}, "type": "electric_scooter", "name": "f059a17afd56a01d619f046e27dbc03a", "is_reserved": 0, "lon": -77.03901183333333, "is_disabled": 0, "fusion_lat": 0.0, "lat": 38.91265, "bike_id": "f059a17afd56a01d619f046e27dbc03a", "fusion_lon": 0.0}, {"rental_uris": {"ios": "https://dc.lft.to/lastmile_qr_scan", "android": "https://dc.lft.to/lastmile_qr_scan"}, "type": "electric_bike", "name": "30bdf5008b4ef3fc47909bab65099063", "is_reserved": 0, "lon": -77.08135866666667, "is_disabled": 0, "fusion_lat": 0.0, "lat": 38.8229385, "bike_id": "30bdf5008b4ef3fc47909bab65099063", "fusion_lon": 0.0}, {"rental_uris": {"ios": "https://dc.lft.to/lastmile_qr_scan", "android": "https://dc.lft.to/lastmile_qr_scan"}, "type": "electric_scooter", "name": "0f7119e085e5a7146ff598b9578110f1", "is_reserved": 0, "lon": -77.03188066666667, "is_disabled": 0, "fusion_lat": 0.0, "lat": 38.924936, "bike_id": "0f7119e085e5a7146ff598b9578110f1", "fusion_lon": 0.0}, {"rental_uris": {"ios": "https://dc.lft.to/lastmile_qr_scan", "android": "https://dc.lft.to/lastmile_qr_scan"}, "type": "electric_bike", "name": "4264bb667cbb3e6d423c9d8db3638c1c", "is_reserved": 0, "lon": -76.98842183333333, "is_disabled": 0, "fusion_lat": 0.0, "lat": 38.844331, "bike_id": "4264bb667cbb3e6d423c9d8db3638c1c", "fusion_lon": 0.0}, {"rental_uris": {"ios": "https://dc.lft.to/lastmile_qr_scan", "android": "https://dc.lft.to/lastmile_qr_scan"}, "type": "electric_scooter", "name": "2456504fdbe6fc890e8401d4678c02b0", "is_reserved": 0, "lon": -77.02387766666666, "is_disabled": 0, "fusion_lat": 0.0, "lat": 38.898207, "bike_id": "2456504fdbe6fc890e8401d4678c02b0", "fusion_lon": 0.0}, {"rental_uris": {"ios": "https://dc.lft.to/lastmile_qr_scan", "android": "https://dc.lft.to/lastmile_qr_scan"}, "type": "electric_scooter", "name": "2febec1cb1c6501c092eb3375c9415e2", "is_reserved": 0, "lon": -77.03879016666667, "is_disabled": 0, "fusion_lat": 0.0, "lat": 38.92503033333333, "bike_id": "2febec1cb1c6501c092eb3375c9415e2", "fusion_lon": 0.0}, {"rental_uris": {"ios": "https://dc.lft.to/lastmile_qr_scan", "android": "https://dc.lft.to/lastmile_qr_scan"}, "type": "electric_scooter", "name": "490e82ebb8ab84b80e61cf4f710f51b0", "is_reserved": 0, "lon": -77.07855816666667, "is_disabled": 0, "fusion_lat": 0.0, "lat": 38.931427666666664, "bike_id": "490e82ebb8ab84b80e61cf4f710f51b0", "fusion_lon": 0.0}, {"rental_uris": {"ios": "https://dc.lft.to/lastmile_qr_scan", "android": "https://dc.lft.to/lastmile_qr_scan"}, "type": "electric_scooter", "name": "1ab21df75542e9f837ebfed34afaed6a", "is_reserved": 0, "lon": -77.04249133333333, "is_disabled": 0, "fusion_lat": 0.0, "lat": 38.92059833333333, "bike_id": "1ab21df75542e9f837ebfed34afaed6a", "fusion_lon": 0.0}, {"rental_uris": {"ios": "https://dc.lft.to/lastmile_qr_scan", "android": "https://dc.lft.to/lastmile_qr_scan"}, "type": "electric_scooter", "name": "e3e90027143a41610fe338bb2d0ca6d2", "is_reserved": 0, "lon": -77.0095885, "is_disabled": 0, "fusion_lat": 0.0, "lat": 38.8977095, "bike_id": "e3e90027143a41610fe338bb2d0ca6d2", "fusion_lon": 0.0}, {"rental_uris": {"ios": "https://dc.lft.to/lastmile_qr_scan", "android": "https://dc.lft.to/lastmile_qr_scan"}, "type": "electric_bike", "name": "b2026420b6adcf545f8a619ecf172a2e", "is_reserved": 0, "lon": -77.05979016666667, "is_disabled": 0, "fusion_lat": 0.0, "lat": 38.929094166666665, "bike_id": "b2026420b6adcf545f8a619ecf172a2e", "fusion_lon": 0.0}, {"rental_uris": {"ios": "https://dc.lft.to/lastmile_qr_scan", "android": "https://dc.lft.to/lastmile_qr_scan"}, "type": "electric_bike", "name": "9973384f30fddb684bfb51b246fa23eb", "is_reserved": 0, "lon": -76.9700985, "is_disabled": 0, "fusion_lat": 0.0, "lat": 38.863696166666664, "bike_id": "9973384f30fddb684bfb51b246fa23eb", "fusion_lon": 0.0}, {"rental_uris": {"ios": "https://dc.lft.to/lastmile_qr_scan", "android": "https://dc.lft.to/lastmile_qr_scan"}, "type": "electric_bike", "name": "73ec54a7efca7a1833d4684d6b63e7b5", "is_reserved": 0, "lon": -76.96323066666666, "is_disabled": 0, "fusion_lat": 0.0, "lat": 38.93895116666667, "bike_id": "73ec54a7efca7a1833d4684d6b63e7b5", "fusion_lon": 0.0}, {"rental_uris": {"ios": "https://dc.lft.to/lastmile_qr_scan", "android": "https://dc.lft.to/lastmile_qr_scan"}, "type": "electric_scooter", "name": "4e14a2c4957e38df795e749ae3d8d01a", "is_reserved": 0, "lon": -77.03676983333334, "is_disabled": 0, "fusion_lat": 0.0, "lat": 38.922676833333334, "bike_id": "4e14a2c4957e38df795e749ae3d8d01a", "fusion_lon": 0.0}, {"rental_uris": {"ios": "https://dc.lft.to/lastmile_qr_scan", "android": "https://dc.lft.to/lastmile_qr_scan"}, "type": "electric_scooter", "name": "5db2f126aa10fc4702a94b67b57f4f56", "is_reserved": 0, "lon": -77.04204533333333, "is_disabled": 0, "fusion_lat": 0.0, "lat": 38.911246166666665, "bike_id": "5db2f126aa10fc4702a94b67b57f4f56", "fusion_lon": 0.0}, {"rental_uris": {"ios": "https://dc.lft.to/lastmile_qr_scan", "android": "https://dc.lft.to/lastmile_qr_scan"}, "type": "electric_scooter", "name": "078d76cfffe4375446bd85e3e0020099", "is_reserved": 0, "lon": -77.02034133333333, "is_disabled": 0, "fusion_lat": 0.0, "lat": 38.92437833333334, "bike_id": "078d76cfffe4375446bd85e3e0020099", "fusion_lon": 0.0}, {"rental_uris": {"ios": "https://dc.lft.to/lastmile_qr_scan", "android": "https://dc.lft.to/lastmile_qr_scan"}, "type": "electric_scooter", "name": "16808b6d296ac3941f4ef39f61dcd80d", "is_reserved": 0, "lon": -77.02285, "is_disabled": 0, "fusion_lat": 0.0, "lat": 38.89030983333333, "bike_id": "16808b6d296ac3941f4ef39f61dcd80d", "fusion_lon": 0.0}, {"rental_uris": {"ios": "https://dc.lft.to/lastmile_qr_scan", "android": "https://dc.lft.to/lastmile_qr_scan"}, "type": "electric_scooter", "name": "6e98d80c0a9eb6971283f77d2fb56196", "is_reserved": 0, "lon": -77.0121515, "is_disabled": 0, "fusion_lat": 0.0, "lat": 38.91759, "bike_id": "6e98d80c0a9eb6971283f77d2fb56196", "fusion_lon": 0.0}, {"rental_uris": {"ios": "https://dc.lft.to/lastmile_qr_scan", "android": "https://dc.lft.to/lastmile_qr_scan"}, "type": "electric_scooter", "name": "27e5f0219af25d088eabb32a32e7be29", "is_reserved": 0, "lon": -77.02085483333333, "is_disabled": 0, "fusion_lat": 0.0, "lat": 38.924063333333336, "bike_id": "27e5f0219af25d088eabb32a32e7be29", "fusion_lon": 0.0}, {"rental_uris": {"ios": "https://dc.lft.to/lastmile_qr_scan", "android": "https://dc.lft.to/lastmile_qr_scan"}, "type": "electric_scooter", "name": "68c3f954fcef4b310e4f5688396fe997", "is_reserved": 0, "lon": -77.02573366666667, "is_disabled": 0, "fusion_lat": 0.0, "lat": 38.89449483333333, "bike_id": "68c3f954fcef4b310e4f5688396fe997", "fusion_lon": 0.0}, {"rental_uris": {"ios": "https://dc.lft.to/lastmile_qr_scan", "android": "https://dc.lft.to/lastmile_qr_scan"}, "type": "electric_scooter", "name": "068fd383f96acb85f4d9d7da1b7bbaac", "is_reserved": 0, "lon": -77.04148683333334, "is_disabled": 0, "fusion_lat": 0.0, "lat": 38.916785, "bike_id": "068fd383f96acb85f4d9d7da1b7bbaac", "fusion_lon": 0.0}, {"rental_uris": {"ios": "https://dc.lft.to/lastmile_qr_scan", "android": "https://dc.lft.to/lastmile_qr_scan"}, "type": "electric_scooter", "name": "a173e75ff7f353075a0b32c25ae13162", "is_reserved": 0, "lon": -77.017583, "is_disabled": 0, "fusion_lat": 0.0, "lat": 38.876681833333336, "bike_id": "a173e75ff7f353075a0b32c25ae13162", "fusion_lon": 0.0}, {"rental_uris": {"ios": "https://dc.lft.to/lastmile_qr_scan", "android": "https://dc.lft.to/lastmile_qr_scan"}, "type": "electric_scooter", "name": "79ee2c59a4a9ab4a63e399eb04fbcf29", "is_reserved": 0, "lon": -77.0271455, "is_disabled": 0, "fusion_lat": 0.0, "lat": 38.904711166666665, "bike_id": "79ee2c59a4a9ab4a63e399eb04fbcf29", "fusion_lon": 0.0}, {"rental_uris": {"ios": "https://dc.lft.to/lastmile_qr_scan", "android": "https://dc.lft.to/lastmile_qr_scan"}, "type": "electric_scooter", "name": "40211f6ee0377f4881163907f28db8ca", "is_reserved": 0, "lon": -77.04174083333334, "is_disabled": 0, "fusion_lat": 0.0, "lat": 38.9052805, "bike_id": "40211f6ee0377f4881163907f28db8ca", "fusion_lon": 0.0}, {"rental_uris": {"ios": "https://dc.lft.to/lastmile_qr_scan", "android": "https://dc.lft.to/lastmile_qr_scan"}, "type": "electric_scooter", "name": "7f621cd1f39988b58cd3375b3f6f1eb7", "is_reserved": 0, "lon": -76.92948033333333, "is_disabled": 0, "fusion_lat": 0.0, "lat": 38.903374166666666, "bike_id": "7f621cd1f39988b58cd3375b3f6f1eb7", "fusion_lon": 0.0}, {"rental_uris": {"ios": "https://dc.lft.to/lastmile_qr_scan", "android": "https://dc.lft.to/lastmile_qr_scan"}, "type": "electric_scooter", "name": "86920ba6263eca86e4246b1a04ad78ce", "is_reserved": 0, "lon": -76.983202, "is_disabled": 0, "fusion_lat": 0.0, "lat": 38.889692333333336, "bike_id": "86920ba6263eca86e4246b1a04ad78ce", "fusion_lon": 0.0}, {"rental_uris": {"ios": "https://dc.lft.to/lastmile_qr_scan", "android": "https://dc.lft.to/lastmile_qr_scan"}, "type": "electric_scooter", "name": "28feee0ee6237abf75009095ab151158", "is_reserved": 0, "lon": -77.03208583333333, "is_disabled": 0, "fusion_lat": 0.0, "lat": 38.914201, "bike_id": "28feee0ee6237abf75009095ab151158", "fusion_lon": 0.0}, {"rental_uris": {"ios": "https://dc.lft.to/lastmile_qr_scan", "android": "https://dc.lft.to/lastmile_qr_scan"}, "type": "electric_scooter", "name": "c21f48f3bdb7fe983bf3a644c9c6ac0d", "is_reserved": 0, "lon": -77.0259385, "is_disabled": 0, "fusion_lat": 0.0, "lat": 38.91948883333333, "bike_id": "c21f48f3bdb7fe983bf3a644c9c6ac0d", "fusion_lon": 0.0}, {"rental_uris": {"ios": "https://dc.lft.to/lastmile_qr_scan", "android": "https://dc.lft.to/lastmile_qr_scan"}, "type": "electric_scooter", "name": "822b57a82c561e0bd5e60f8a286c21fc", "is_reserved": 0, "lon": -77.0290345, "is_disabled": 0, "fusion_lat": 0.0, "lat": 38.93151266666667, "bike_id": "822b57a82c561e0bd5e60f8a286c21fc", "fusion_lon": 0.0}, {"rental_uris": {"ios": "https://dc.lft.to/lastmile_qr_scan", "android": "https://dc.lft.to/lastmile_qr_scan"}, "type": "electric_scooter", "name": "a2e235f2f64a44b171dcf2ffbb4dbe64", "is_reserved": 0, "lon": -77.04035166666667, "is_disabled": 0, "fusion_lat": 0.0, "lat": 38.904869166666664, "bike_id": "a2e235f2f64a44b171dcf2ffbb4dbe64", "fusion_lon": 0.0}, {"rental_uris": {"ios": "https://dc.lft.to/lastmile_qr_scan", "android": "https://dc.lft.to/lastmile_qr_scan"}, "type": "electric_scooter", "name": "a6b64177ff98483febfe6a458d0889fc", "is_reserved": 0, "lon": -77.04383833333333, "is_disabled": 0, "fusion_lat": 0.0, "lat": 38.91696366666667, "bike_id": "a6b64177ff98483febfe6a458d0889fc", "fusion_lon": 0.0}, {"rental_uris": {"ios": "https://dc.lft.to/lastmile_qr_scan", "android": "https://dc.lft.to/lastmile_qr_scan"}, "type": "electric_scooter", "name": "29b9a126f62ca1d7f64ad88ce9c43e67", "is_reserved": 0, "lon": -76.9471665, "is_disabled": 0, "fusion_lat": 0.0, "lat": 38.8908325, "bike_id": "29b9a126f62ca1d7f64ad88ce9c43e67", "fusion_lon": 0.0}, {"rental_uris": {"ios": "https://dc.lft.to/lastmile_qr_scan", "android": "https://dc.lft.to/lastmile_qr_scan"}, "type": "electric_scooter", "name": "8dcca660777b6406ff4def9d1110807a", "is_reserved": 0, "lon": -77.04559283333333, "is_disabled": 0, "fusion_lat": 0.0, "lat": 38.909667166666665, "bike_id": "8dcca660777b6406ff4def9d1110807a", "fusion_lon": 0.0}, {"rental_uris": {"ios": "https://dc.lft.to/lastmile_qr_scan", "android": "https://dc.lft.to/lastmile_qr_scan"}, "type": "electric_scooter", "name": "d7af1b5101491babca2938c02e90935e", "is_reserved": 0, "lon": -77.03639616666666, "is_disabled": 0, "fusion_lat": 0.0, "lat": 38.9012965, "bike_id": "d7af1b5101491babca2938c02e90935e", "fusion_lon": 0.0}, {"rental_uris": {"ios": "https://dc.lft.to/lastmile_qr_scan", "android": "https://dc.lft.to/lastmile_qr_scan"}, "type": "electric_scooter", "name": "b881e70ec15441146de44f12055fea56", "is_reserved": 0, "lon": -77.04556233333334, "is_disabled": 0, "fusion_lat": 0.0, "lat": 38.914633, "bike_id": "b881e70ec15441146de44f12055fea56", "fusion_lon": 0.0}, {"rental_uris": {"ios": "https://dc.lft.to/lastmile_qr_scan", "android": "https://dc.lft.to/lastmile_qr_scan"}, "type": "electric_bike", "name": "34a53dd19719b83f2965958309027875", "is_reserved": 0, "lon": -76.99793133333333, "is_disabled": 0, "fusion_lat": 0.0, "lat": 38.9086805, "bike_id": "34a53dd19719b83f2965958309027875", "fusion_lon": 0.0}, {"rental_uris": {"ios": "https://dc.lft.to/lastmile_qr_scan", "android": "https://dc.lft.to/lastmile_qr_scan"}, "type": "electric_scooter", "name": "442fa76e6bf8b219446e723742b73add", "is_reserved": 0, "lon": -77.0336905, "is_disabled": 0, "fusion_lat": 0.0, "lat": 38.90118, "bike_id": "442fa76e6bf8b219446e723742b73add", "fusion_lon": 0.0}, {"rental_uris": {"ios": "https://dc.lft.to/lastmile_qr_scan", "android": "https://dc.lft.to/lastmile_qr_scan"},