{"data": {"bikes": [{"bike_id": "0c71acc8f0af47ca5f4c61929c1823ac", "is_reserved": 0, "fusion_lon": 0.0, "lat": 38.9058945, "is_disabled": 0, "name": "0c71acc8f0af47ca5f4c61929c1823ac", "fusion_lat": 0.0, "rental_uris": {"ios": "https://dc.lft.to/lastmile_qr_scan", "android": "https://dc.lft.to/lastmile_qr_scan"}, "lon": -77.0161615, "type": "electric_scooter"}, {"bike_id": "d46a5259d2ab1f5e85584b34e4ab1ce0", "is_reserved": 0, "fusion_lon": 0.0, "lat": 38.90026666666667, "is_disabled": 0, "name": "d46a5259d2ab1f5e85584b34e4ab1ce0", "fusion_lat": 0.0, "rental_uris": {"ios": "https://dc.lft.to/lastmile_qr_scan", "android": "https://dc.lft.to/lastmile_qr_scan"}, "lon": -77.011567, "type": "electric_scooter"}, {"bike_id": "0ef2ec182504d404bdbd2e39d929dc6d", "is_reserved": 0, "fusion_lon": 0.0, "lat": 38.9159855, "is_disabled": 0, "name": "0ef2ec182504d404bdbd2e39d929dc6d", "fusion_lat": 0.0, "rental_uris": {"ios": "https://dc.lft.to/lastmile_qr_scan", "android": "https://dc.lft.to/lastmile_qr_scan"}, "lon": -77.03200083333333, "type": "electric_scooter"}, {"bike_id": "e09a946d02d84c3d54c68bf251f432c8", "is_reserved": 0, "fusion_lon": 0.0, "lat": 38.88490066666667, "is_disabled": 0, "name": "e09a946d02d84c3d54c68bf251f432c8", "fusion_lat": 0.0, "rental_uris": {"ios": "https://dc.lft.to/lastmile_qr_scan", "android": "https://dc.lft.to/lastmile_qr_scan"}, "lon": -77.00726566666667, "type": "electric_scooter"}, {"bike_id": "f1d544287a50d1d5392d89db45b5fc26", "is_reserved": 0, "fusion_lon": 0.0, "lat": 38.903081, "is_disabled": 0, "name": "f1d544287a50d1d5392d89db45b5fc26", "fusion_lat": 0.0, "rental_uris": {"ios": "https://dc.lft.to/lastmile_qr_scan", "android": "https://dc.lft.to/lastmile_qr_scan"}, "lon": -77.0334025, "type": "electric_scooter"}, {"bike_id": "6ec74780b79001ab7f007bc7e630337c", "is_reserved": 0, "fusion_lon": 0.0, "lat": 38.91418816666667, "is_disabled": 0, "name": "6ec74780b79001ab7f007bc7e630337c", "fusion_lat": 0.0, "rental_uris": {"ios": "https://dc.lft.to/lastmile_qr_scan", "android": "https://dc.lft.to/lastmile_qr_scan"}, "lon": -77.02082716666666, "type": "electric_scooter"}, {"bike_id": "6dd61b81f2018b4dd8a47433a6876bf2", "is_reserved": 0, "fusion_lon": 0.0, "lat": 38.880422833333334, "is_disabled": 0, "name": "6dd61b81f2018b4dd8a47433a6876bf2", "fusion_lat": 0.0, "rental_uris": {"ios": "https://dc.lft.to/lastmile_qr_scan", "android": "https://dc.lft.to/lastmile_qr_scan"}, "lon": -77.0132715, "type": "electric_bike"}, {"bike_id": "45374990eae5109bfba2e2a6a6db9c66", "is_reserved": 0, "fusion_lon": 0.0, "lat": 38.839343166666666, "is_disabled": 0, "name": "45374990eae5109bfba2e2a6a6db9c66", "fusion_lat": 0.0, "rental_uris": {"ios": "https://dc.lft.to/lastmile_qr_scan", "android": "https://dc.lft.to/lastmile_qr_scan"}, "lon": -77.07903316666666, "type": "electric_bike"}, {"bike_id": "faa7b3fdfbed2a22715f91abd3c5fc4d", "is_reserved": 0, "fusion_lon": 0.0, "lat": 38.898162, "is_disabled": 0, "name": "faa7b3fdfbed2a22715f91abd3c5fc4d", "fusion_lat": 0.0, "rental_uris": {"ios": "https://dc.lft.to/lastmile_qr_scan", "android": "https://dc.lft.to/lastmile_qr_scan"}, "lon": -77.03296866666666, "type": "electric_scooter"}, {"bike_id": "8249e72bd28e6bfb1d707df1d97cb2f4", "is_reserved": 0, "fusion_lon": 0.0, "lat": 38.8427435, "is_disabled": 0, "name": "8249e72bd28e6bfb1d707df1d97cb2f4", "fusion_lat": 0.0, "rental_uris": {"ios": "https://dc.lft.to/lastmile_qr_scan", "android": "https://dc.lft.to/lastmile_qr_scan"}, "lon": -76.9884025, "type": "electric_bike"}, {"bike_id": "9a744c1c62f8e5bf1946216965554486", "is_reserved": 0, "fusion_lon": 0.0, "lat": 38.904089, "is_disabled": 0, "name": "9a744c1c62f8e5bf1946216965554486", "fusion_lat": 0.0, "rental_uris": {"ios": "https://dc.lft.to/lastmile_qr_scan", "android": "https://dc.lft.to/lastmile_qr_scan"}, "lon": -76.973308, "type": "electric_scooter"}, {"bike_id": "f5b5bd6346aa2d489d970a8dc1487b61", "is_reserved": 0, "fusion_lon": 0.0, "lat": 38.90691833333333, "is_disabled": 0, "name": "f5b5bd6346aa2d489d970a8dc1487b61", "fusion_lat": 0.0, "rental_uris": {"ios": "https://dc.lft.to/lastmile_qr_scan", "android": "https://dc.lft.to/lastmile_qr_scan"}, "lon": -77.0352115, "type": "electric_scooter"}, {"bike_id": "e36974a09a5071ba3ab7c59b6e1e8860", "is_reserved": 0, "fusion_lon": 0.0, "lat": 38.92470133333333, "is_disabled": 0, "name": "e36974a09a5071ba3ab7c59b6e1e8860", "fusion_lat": 0.0, "rental_uris": {"ios": "https://dc.lft.to/lastmile_qr_scan", "android": "https://dc.lft.to/lastmile_qr_scan"}, "lon": -77.02832883333333, "type": "electric_scooter"}, {"bike_id": "a4c1214ebe287bda07e480387d3f3652", "is_reserved": 0, "fusion_lon": 0.0, "lat": 38.91922783333333, "is_disabled": 0, "name": "a4c1214ebe287bda07e480387d3f3652", "fusion_lat": 0.0, "rental_uris": {"ios": "https://dc.lft.to/lastmile_qr_scan", "android": "https://dc.lft.to/lastmile_qr_scan"}, "lon": -77.00974083333334, "type": "electric_scooter"}, {"bike_id": "80b04ba89f2d97cf7d52b932d37e652e", "is_reserved": 0, "fusion_lon": 0.0, "lat": 38.899069833333336, "is_disabled": 0, "name": "80b04ba89f2d97cf7d52b932d37e652e", "fusion_lat": 0.0, "rental_uris": {"ios": "https://dc.lft.to/lastmile_qr_scan", "android": "https://dc.lft.to/lastmile_qr_scan"}, "lon": -77.003602, "type": "electric_scooter"}, {"bike_id": "1997d5d6134abf519daee883929d1ef9", "is_reserved": 0, "fusion_lon": 0.0, "lat": 38.9038755, "is_disabled": 0, "name": "1997d5d6134abf519daee883929d1ef9", "fusion_lat": 0.0, "rental_uris": {"ios": "https://dc.lft.to/lastmile_qr_scan", "android": "https://dc.lft.to/lastmile_qr_scan"}, "lon": -77.042046, "type": "electric_scooter"}, {"bike_id": "c6a49e0ba1a351dfa4120a8dded49dc8", "is_reserved": 0, "fusion_lon": 0.0, "lat": 38.920144666666666, "is_disabled": 0, "name": "c6a49e0ba1a351dfa4120a8dded49dc8", "fusion_lat": 0.0, "rental_uris": {"ios": "https://dc.lft.to/lastmile_qr_scan", "android": "https://dc.lft.to/lastmile_qr_scan"}, "lon": -77.03869816666666, "type": "electric_scooter"}, {"bike_id": "89ccdd04e56cf810de045ff53134eeed", "is_reserved": 0, "fusion_lon": 0.0, "lat": 38.88543966666667, "is_disabled": 0, "name": "89ccdd04e56cf810de045ff53134eeed", "fusion_lat": 0.0, "rental_uris": {"ios": "https://dc.lft.to/lastmile_qr_scan", "android": "https://dc.lft.to/lastmile_qr_scan"}, "lon": -77.02954783333334, "type": "electric_scooter"}, {"bike_id": "86c2dc52008ab6ed2db3834b98fa533d", "is_reserved": 0, "fusion_lon": 0.0, "lat": 38.940151, "is_disabled": 0, "name": "86c2dc52008ab6ed2db3834b98fa533d", "fusion_lat": 0.0, "rental_uris": {"ios": "https://dc.lft.to/lastmile_qr_scan", "android": "https://dc.lft.to/lastmile_qr_scan"}, "lon": -77.07169866666666, "type": "electric_scooter"}, {"bike_id": "3c171e35ec6c41ed8bfe67524f569113", "is_reserved": 0, "fusion_lon": 0.0, "lat": 38.903612833333334, "is_disabled": 0, "name": "3c171e35ec6c41ed8bfe67524f569113", "fusion_lat": 0.0, "rental_uris": {"ios": "https://dc.lft.to/lastmile_qr_scan", "android": "https://dc.lft.to/lastmile_qr_scan"}, "lon": -77.01758983333333, "type": "electric_scooter"}, {"bike_id": "c767f850114756a68357badd741d8203", "is_reserved": 0, "fusion_lon": 0.0, "lat": 38.90443416666667, "is_disabled": 0, "name": "c767f850114756a68357badd741d8203", "fusion_lat": 0.0, "rental_uris": {"ios": "https://dc.lft.to/lastmile_qr_scan", "android": "https://dc.lft.to/lastmile_qr_scan"}, "lon": -76.98482716666666, "type": "electric_scooter"}, {"bike_id": "a9df711c1ac152520aaf87c6d1842a77", "is_reserved": 0, "fusion_lon": 0.0, "lat": 38.945507166666665, "is_disabled": 0, "name": "a9df711c1ac152520aaf87c6d1842a77", "fusion_lat": 0.0, "rental_uris": {"ios": "https://dc.lft.to/lastmile_qr_scan", "android": "https://dc.lft.to/lastmile_qr_scan"}, "lon": -76.89532, "type": "electric_bike"}, {"bike_id": "9f409281442f3ba95a95a683074f04cf", "is_reserved": 0, "fusion_lon": 0.0, "lat": 38.93337066666667, "is_disabled": 0, "name": "9f409281442f3ba95a95a683074f04cf", "fusion_lat": 0.0, "rental_uris": {"ios": "https://dc.lft.to/lastmile_qr_scan", "android": "https://dc.lft.to/lastmile_qr_scan"}, "lon": -77.03282916666667, "type": "electric_scooter"}, {"bike_id": "c893358e425134443baa7cfb4b3fb7c9", "is_reserved": 0, "fusion_lon": 0.0, "lat": 38.8442075, "is_disabled": 0, "name": "c893358e425134443baa7cfb4b3fb7c9", "fusion_lat": 0.0, "rental_uris": {"ios": "https://dc.lft.to/lastmile_qr_scan", "android": "https://dc.lft.to/lastmile_qr_scan"}, "lon": -76.99777066666667, "type": "electric_scooter"}, {"bike_id": "2d746c78201c0a4bddaf493dff988db8", "is_reserved": 0, "fusion_lon": 0.0, "lat": 38.87360916666667, "is_disabled": 0, "name": "2d746c78201c0a4bddaf493dff988db8", "fusion_lat": 0.0, "rental_uris": {"ios": "https://dc.lft.to/lastmile_qr_scan", "android": "https://dc.lft.to/lastmile_qr_scan"}, "lon": -76.97165566666666, "type": "electric_scooter"}, {"bike_id": "4e8a5c230a7a080a0c685a3d6d0e9712", "is_reserved": 0, "fusion_lon": 0.0, "lat": 38.88395883333333, "is_disabled": 0, "name": "4e8a5c230a7a080a0c685a3d6d0e9712", "fusion_lat": 0.0, "rental_uris": {"ios": "https://dc.lft.to/lastmile_qr_scan", "android": "https://dc.lft.to/lastmile_qr_scan"}, "lon": -76.930445, "type": "electric_scooter"}, {"bike_id": "e99dea8cf5ee631f251340e1e8bfa6e5", "is_reserved": 0, "fusion_lon": 0.0, "lat": 38.89482133333333, "is_disabled": 0, "name": "e99dea8cf5ee631f251340e1e8bfa6e5", "fusion_lat": 0.0, "rental_uris": {"ios": "https://dc.lft.to/lastmile_qr_scan", "android": "https://dc.lft.to/lastmile_qr_scan"}, "lon": -77.01206516666667, "type": "electric_scooter"}, {"bike_id": "7bb86946619bb137b06b1fb9f6bc5ee1", "is_reserved": 0, "fusion_lon": 0.0, "lat": 38.917014333333334, "is_disabled": 0, "name": "7bb86946619bb137b06b1fb9f6bc5ee1", "fusion_lat": 0.0, "rental_uris": {"ios": "https://dc.lft.to/lastmile_qr_scan", "android": "https://dc.lft.to/lastmile_qr_scan"}, "lon": -77.02265883333334, "type": "electric_scooter"}, {"bike_id": "78c1eb65f59bc4ceed9bc86604e12865", "is_reserved": 0, "fusion_lon": 0.0, "lat": 38.9074225, "is_disabled": 0, "name": "78c1eb65f59bc4ceed9bc86604e12865", "fusion_lat": 0.0, "rental_uris": {"ios": "https://dc.lft.to/lastmile_qr_scan", "android": "https://dc.lft.to/lastmile_qr_scan"}, "lon": -77.03476916666666, "type": "electric_scooter"}, {"bike_id": "4bbf098f1ba2a5809c497a532671cca9", "is_reserved": 0, "fusion_lon": 0.0, "lat": 38.89834116666667, "is_disabled": 0, "name": "4bbf098f1ba2a5809c497a532671cca9", "fusion_lat": 0.0, "rental_uris": {"ios": "https://dc.lft.to/lastmile_qr_scan", "android": "https://dc.lft.to/lastmile_qr_scan"}, "lon": -76.94636033333333, "type": "electric_scooter"}, {"bike_id": "fcabb6ad8120b7ca2c2f7aa55b500961", "is_reserved": 0, "fusion_lon": 0.0, "lat": 38.86176733333333, "is_disabled": 0, "name": "fcabb6ad8120b7ca2c2f7aa55b500961", "fusion_lat": 0.0, "rental_uris": {"ios": "https://dc.lft.to/lastmile_qr_scan", "android": "https://dc.lft.to/lastmile_qr_scan"}, "lon": -76.9691325, "type": "electric_scooter"}, {"bike_id": "9d2cd63bfde6feaaf0e642f51defd0c6", "is_reserved": 0, "fusion_lon": 0.0, "lat": 38.9012675, "is_disabled": 0, "name": "9d2cd63bfde6feaaf0e642f51defd0c6", "fusion_lat": 0.0, "rental_uris": {"ios": "https://dc.lft.to/lastmile_qr_scan", "android": "https://dc.lft.to/lastmile_qr_scan"}, "lon": -77.01970866666667, "type": "electric_scooter"}, {"bike_id": "a861154dd140a66204c4145d187dab95", "is_reserved": 0, "fusion_lon": 0.0, "lat": 38.90739766666667, "is_disabled": 0, "name": "a861154dd140a66204c4145d187dab95", "fusion_lat": 0.0, "rental_uris": {"ios": "https://dc.lft.to/lastmile_qr_scan", "android": "https://dc.lft.to/lastmile_qr_scan"}, "lon": -77.02407466666666, "type": "electric_scooter"}, {"bike_id": "817985f85f4c58a71a4f8807bb58ab81", "is_reserved": 0, "fusion_lon": 0.0, "lat": 38.9155155, "is_disabled": 0, "name": "817985f85f4c58a71a4f8807bb58ab81", "fusion_lat": 0.0, "rental_uris": {"ios": "https://dc.lft.to/lastmile_qr_scan", "android": "https://dc.lft.to/lastmile_qr_scan"}, "lon": -77.0317445, "type": "electric_scooter"}, {"bike_id": "f64d2c065607826a45c1ea9649b42b10", "is_reserved": 0, "fusion_lon": 0.0, "lat": 38.9105365, "is_disabled": 0, "name": "f64d2c065607826a45c1ea9649b42b10", "fusion_lat": 0.0, "rental_uris": {"ios": "https://dc.lft.to/lastmile_qr_scan", "android": "https://dc.lft.to/lastmile_qr_scan"}, "lon": -77.029741, "type": "electric_scooter"}, {"bike_id": "5396ab62ce981e7981eee251417b7d1e", "is_reserved": 0, "fusion_lon": 0.0, "lat": 38.97327, "is_disabled": 0, "name": "5396ab62ce981e7981eee251417b7d1e", "fusion_lat": 0.0, "rental_uris": {"ios": "https://dc.lft.to/lastmile_qr_scan", "android": "https://dc.lft.to/lastmile_qr_scan"}, "lon": -77.02151383333333, "type": "electric_bike"}, {"bike_id": "f8055bd9ec787f8bf388347983a930bf", "is_reserved": 0, "fusion_lon": 0.0, "lat": 38.90014683333333, "is_disabled": 0, "name": "f8055bd9ec787f8bf388347983a930bf", "fusion_lat": 0.0, "rental_uris": {"ios": "https://dc.lft.to/lastmile_qr_scan", "android": "https://dc.lft.to/lastmile_qr_scan"}, "lon": -77.04664516666666, "type": "electric_scooter"}, {"bike_id": "4822d20c8d8b71c5a7f45594c8e9a519", "is_reserved": 0, "fusion_lon": 0.0, "lat": 38.933328, "is_disabled": 0, "name": "4822d20c8d8b71c5a7f45594c8e9a519", "fusion_lat": 0.0, "rental_uris": {"ios": "https://dc.lft.to/lastmile_qr_scan", "android": "https://dc.lft.to/lastmile_qr_scan"}, "lon": -77.03263633333333, "type": "electric_scooter"}, {"bike_id": "c6b005708954865aa3c1e234753228c3", "is_reserved": 0, "fusion_lon": 0.0, "lat": 38.928068833333334, "is_disabled": 0, "name": "c6b005708954865aa3c1e234753228c3", "fusion_lat": 0.0, "rental_uris": {"ios": "https://dc.lft.to/lastmile_qr_scan", "android": "https://dc.lft.to/lastmile_qr_scan"}, "lon": -77.01422866666667, "type": "electric_scooter"}, {"bike_id": "4932ec90fd37fa0b3f6dc1ce31498f78", "is_reserved": 0, "fusion_lon": 0.0, "lat": 38.901216166666664, "is_disabled": 0, "name": "4932ec90fd37fa0b3f6dc1ce31498f78", "fusion_lat": 0.0, "rental_uris": {"ios": "https://dc.lft.to/lastmile_qr_scan", "android": "https://dc.lft.to/lastmile_qr_scan"}, "lon": -77.04996066666666, "type": "electric_scooter"}, {"bike_id": "39c13a8300e2719a77a8f67239b31b1e", "is_reserved": 0, "fusion_lon": 0.0, "lat": 38.910100166666666, "is_disabled": 0, "name": "39c13a8300e2719a77a8f67239b31b1e", "fusion_lat": 0.0, "rental_uris": {"ios": "https://dc.lft.to/lastmile_qr_scan", "android": "https://dc.lft.to/lastmile_qr_scan"}, "lon": -76.99387366666667, "type": "electric_scooter"}, {"bike_id": "3b41f440b4b34e83c2931a2d7bec39cf", "is_reserved": 0, "fusion_lon": 0.0, "lat": 38.903782666666665, "is_disabled": 0, "name": "3b41f440b4b34e83c2931a2d7bec39cf", "fusion_lat": 0.0, "rental_uris": {"ios": "https://dc.lft.to/lastmile_qr_scan", "android": "https://dc.lft.to/lastmile_qr_scan"}, "lon": -77.04350033333333, "type": "electric_scooter"}, {"bike_id": "685724f16c72f96ad5f808a0996dfcba", "is_reserved": 0, "fusion_lon": 0.0, "lat": 38.908461, "is_disabled": 0, "name": "685724f16c72f96ad5f808a0996dfcba", "fusion_lat": 0.0, "rental_uris": {"ios": "https://dc.lft.to/lastmile_qr_scan", "android": "https://dc.lft.to/lastmile_qr_scan"}, "lon": -77.08535316666666, "type": "electric_scooter"}, {"bike_id": "15627b4d3b67b8f74e5dfbd6a4f4c2c9", "is_reserved": 0, "fusion_lon": 0.0, "lat": 38.90983933333333, "is_disabled": 0, "name": "15627b4d3b67b8f74e5dfbd6a4f4c2c9", "fusion_lat": 0.0, "rental_uris": {"ios": "https://dc.lft.to/lastmile_qr_scan", "android": "https://dc.lft.to/lastmile_qr_scan"}, "lon": -77.023898, "type": "electric_scooter"}, {"bike_id": "3d15b79159d3d90019339bc56d4e9bae", "is_reserved": 0, "fusion_lon": 0.0, "lat": 38.917039833333334, "is_disabled": 0, "name": "3d15b79159d3d90019339bc56d4e9bae", "fusion_lat": 0.0, "rental_uris": {"ios": "https://dc.lft.to/lastmile_qr_scan", "android": "https://dc.lft.to/lastmile_qr_scan"}, "lon": -77.04174066666667, "type": "electric_scooter"}, {"bike_id": "e70c120f04200b88e9faddad6084042a", "is_reserved": 0, "fusion_lon": 0.0, "lat": 38.928870833333335, "is_disabled": 0, "name": "e70c120f04200b88e9faddad6084042a", "fusion_lat": 0.0, "rental_uris": {"ios": "https://dc.lft.to/lastmile_qr_scan", "android": "https://dc.lft.to/lastmile_qr_scan"}, "lon": -77.0545345, "type": "electric_scooter"}, {"bike_id": "7439c6dc7e1cf776e84cefcf318975c9", "is_reserved": 0, "fusion_lon": 0.0, "lat": 38.900136, "is_disabled": 0, "name": "7439c6dc7e1cf776e84cefcf318975c9", "fusion_lat": 0.0, "rental_uris": {"ios": "https://dc.lft.to/lastmile_qr_scan", "android": "https://dc.lft.to/lastmile_qr_scan"}, "lon": -76.973124, "type": "electric_scooter"}, {"bike_id": "a990c2fbc0db17ff2d0806b47809fdb2", "is_reserved": 0, "fusion_lon": 0.0, "lat": 38.899454, "is_disabled": 0, "name": "a990c2fbc0db17ff2d0806b47809fdb2", "fusion_lat": 0.0, "rental_uris": {"ios": "https://dc.lft.to/lastmile_qr_scan", "android": "https://dc.lft.to/lastmile_qr_scan"}, "lon": -77.0035335, "type": "electric_scooter"}, {"bike_id": "e3f4119b65fa74a66f8c8c2df78b91ed", "is_reserved": 0, "fusion_lon": 0.0, "lat": 38.90580766666667, "is_disabled": 0, "name": "e3f4119b65fa74a66f8c8c2df78b91ed", "fusion_lat": 0.0, "rental_uris": {"ios": "https://dc.lft.to/lastmile_qr_scan", "android": "https://dc.lft.to/lastmile_qr_scan"}, "lon": -77.0094515, "type": "electric_scooter"}, {"bike_id": "d56364ec8241d7bea2fd972ee66fd519", "is_reserved": 0, "fusion_lon": 0.0, "lat": 38.902223, "is_disabled": 0, "name": "d56364ec8241d7bea2fd972ee66fd519", "fusion_lat": 0.0, "rental_uris": {"ios": "https://dc.lft.to/lastmile_qr_scan", "android": "https://dc.lft.to/lastmile_qr_scan"}, "lon": -77.06057233333334, "type": "electric_scooter"}, {"bike_id": "385d7ef435a3070917312824d12721d2", "is_reserved": 0, "fusion_lon": 0.0, "lat": 38.9143595, "is_disabled": 0, "name": "385d7ef435a3070917312824d12721d2", "fusion_lat": 0.0, "rental_uris": {"ios": "https://dc.lft.to/lastmile_qr_scan", "android": "https://dc.lft.to/lastmile_qr_scan"}, "lon": -77.00347133333334, "type": "electric_scooter"}, {"bike_id": "6bffb65a4339a77ed9694ed64a20406a", "is_reserved": 0, "fusion_lon": 0.0, "lat": 38.880041166666665, "is_disabled": 0, "name": "6bffb65a4339a77ed9694ed64a20406a", "fusion_lat": 0.0, "rental_uris": {"ios": "https://dc.lft.to/lastmile_qr_scan", "android": "https://dc.lft.to/lastmile_qr_scan"}, "lon": -76.99502616666666, "type": "electric_scooter"}, {"bike_id": "d69d72a0813e59f84baa1b1ddc8e6c48", "is_reserved": 0, "fusion_lon": 0.0, "lat": 38.91796333333333, "is_disabled": 0, "name": "d69d72a0813e59f84baa1b1ddc8e6c48", "fusion_lat": 0.0, "rental_uris": {"ios": "https://dc.lft.to/lastmile_qr_scan", "android": "https://dc.lft.to/lastmile_qr_scan"}, "lon": -77.03457883333333, "type": "electric_scooter"}, {"bike_id": "c2bd9cef574dca93b1026638679f1a6b", "is_reserved": 0, "fusion_lon": 0.0, "lat": 38.900146166666666, "is_disabled": 0, "name": "c2bd9cef574dca93b1026638679f1a6b", "fusion_lat": 0.0, "rental_uris": {"ios": "https://dc.lft.to/lastmile_qr_scan", "android": "https://dc.lft.to/lastmile_qr_scan"}, "lon": -77.013617, "type": "electric_scooter"}, {"bike_id": "9283868cd807c9c21767a16b126a8d24", "is_reserved": 0, "fusion_lon": 0.0, "lat": 38.936059666666665, "is_disabled": 0, "name": "9283868cd807c9c21767a16b126a8d24", "fusion_lat": 0.0, "rental_uris": {"ios": "https://dc.lft.to/lastmile_qr_scan", "android": "https://dc.lft.to/lastmile_qr_scan"}, "lon": -77.05860616666666, "type": "electric_scooter"}, {"bike_id": "aa2d5de65f3b75eea2ccd4b0d31cfc3e", "is_reserved": 0, "fusion_lon": 0.0, "lat": 38.878348833333334, "is_disabled": 0, "name": "aa2d5de65f3b75eea2ccd4b0d31cfc3e", "fusion_lat": 0.0, "rental_uris": {"ios": "https://dc.lft.to/lastmile_qr_scan", "android": "https://dc.lft.to/lastmile_qr_scan"}, "lon": -77.02280083333333, "type": "electric_scooter"}, {"bike_id": "56b495470b436c819caa85725951621c", "is_reserved": 0, "fusion_lon": 0.0, "lat": 38.99088533333333, "is_disabled": 0, "name": "56b495470b436c819caa85725951621c", "fusion_lat": 0.0, "rental_uris": {"ios": "https://dc.lft.to/lastmile_qr_scan", "android": "https://dc.lft.to/lastmile_qr_scan"}, "lon": -76.87494583333333, "type": "electric_bike"}, {"bike_id": "d458b881ec82580a383fb38406d8b27c", "is_reserved": 0, "fusion_lon": 0.0, "lat": 38.884071, "is_disabled": 0, "name": "d458b881ec82580a383fb38406d8b27c", "fusion_lat": 0.0, "rental_uris": {"ios": "https://dc.lft.to/lastmile_qr_scan", "android": "https://dc.lft.to/lastmile_qr_scan"}, "lon": -77.0152705, "type": "electric_scooter"}, {"bike_id": "21003247d1867582fab5f342bff7afb0", "is_reserved": 0, "fusion_lon": 0.0, "lat": 38.90008616666667, "is_disabled": 0, "name": "21003247d1867582fab5f342bff7afb0", "fusion_lat": 0.0, "rental_uris": {"ios": "https://dc.lft.to/lastmile_qr_scan", "android": "https://dc.lft.to/lastmile_qr_scan"}, "lon": -77.03999883333333, "type": "electric_scooter"}, {"bike_id": "dd973ed8af63f7bfa046537c031c2b01", "is_reserved": 0, "fusion_lon": 0.0, "lat": 38.910930666666665, "is_disabled": 0, "name": "dd973ed8af63f7bfa046537c031c2b01", "fusion_lat": 0.0, "rental_uris": {"ios": "https://dc.lft.to/lastmile_qr_scan", "android": "https://dc.lft.to/lastmile_qr_scan"}, "lon": -77.03451033333333, "type": "electric_scooter"}, {"bike_id": "a4607e1c4f558144da1283afe7ba38d8", "is_reserved": 0, "fusion_lon": 0.0, "lat": 38.905265, "is_disabled": 0, "name": "a4607e1c4f558144da1283afe7ba38d8", "fusion_lat": 0.0, "rental_uris": {"ios": "https://dc.lft.to/lastmile_qr_scan", "android": "https://dc.lft.to/lastmile_qr_scan"}, "lon": -77.06160866666667, "type": "electric_scooter"}, {"bike_id": "9b64697b0f68921738716da3ab4a3bef", "is_reserved": 0, "fusion_lon": 0.0, "lat": 38.91669433333333, "is_disabled": 0, "name": "9b64697b0f68921738716da3ab4a3bef", "fusion_lat": 0.0, "rental_uris": {"ios": "https://dc.lft.to/lastmile_qr_scan", "android": "https://dc.lft.to/lastmile_qr_scan"}, "lon": -77.03633766666667, "type": "electric_scooter"}, {"bike_id": "958f96f712f047d4e4de1a5462d180c9", "is_reserved": 0, "fusion_lon": 0.0, "lat": 38.919760333333336, "is_disabled": 0, "name": "958f96f712f047d4e4de1a5462d180c9", "fusion_lat": 0.0, "rental_uris": {"ios": "https://dc.lft.to/lastmile_qr_scan", "android": "https://dc.lft.to/lastmile_qr_scan"}, "lon": -77.02394066666666, "type": "electric_scooter"}, {"bike_id": "c1008694def516a0eb34ea1c0d84eb37", "is_reserved": 0, "fusion_lon": 0.0, "lat": 38.82869383333333, "is_disabled": 0, "name": "c1008694def516a0eb34ea1c0d84eb37", "fusion_lat": 0.0, "rental_uris": {"ios": "https://dc.lft.to/lastmile_qr_scan", "android": "https://dc.lft.to/lastmile_qr_scan"}, "lon": -77.11215016666667, "type": "electric_bike"}, {"bike_id": "66760682d1d36d039312538c3c520fcf", "is_reserved": 0, "fusion_lon": 0.0, "lat": 38.898978166666666, "is_disabled": 0, "name": "66760682d1d36d039312538c3c520fcf", "fusion_lat": 0.0, "rental_uris": {"ios": "https://dc.lft.to/lastmile_qr_scan", "android": "https://dc.lft.to/lastmile_qr_scan"}, "lon": -77.04483, "type": "electric_scooter"}, {"bike_id": "eb1b881d10eeb0cea2a9002d5824fa9f", "is_reserved": 0, "fusion_lon": 0.0, "lat": 38.934864, "is_disabled": 0, "name": "eb1b881d10eeb0cea2a9002d5824fa9f", "fusion_lat": 0.0, "rental_uris": {"ios": "https://dc.lft.to/lastmile_qr_scan", "android": "https://dc.lft.to/lastmile_qr_scan"}, "lon": -77.03517733333334, "type": "electric_scooter"}, {"bike_id": "55f049de8a3215bcd6894ef694e0442c", "is_reserved": 0, "fusion_lon": 0.0, "lat": 38.90570066666667, "is_disabled": 0, "name": "55f049de8a3215bcd6894ef694e0442c", "fusion_lat": 0.0, "rental_uris": {"ios": "https://dc.lft.to/lastmile_qr_scan", "android": "https://dc.lft.to/lastmile_qr_scan"}, "lon": -77.02182766666667, "type": "electric_scooter"}, {"bike_id": "7ab562c6f997b65155e4f2546013948f", "is_reserved": 0, "fusion_lon": 0.0, "lat": 38.91560833333333, "is_disabled": 0, "name": "7ab562c6f997b65155e4f2546013948f", "fusion_lat": 0.0, "rental_uris": {"ios": "https://dc.lft.to/lastmile_qr_scan", "android": "https://dc.lft.to/lastmile_qr_scan"}, "lon": -77.03909266666666, "type": "electric_scooter"}, {"bike_id": "ea6e0690418254b43a0efb14d3957005", "is_reserved": 0, "fusion_lon": 0.0, "lat": 38.950883166666664, "is_disabled": 0, "name": "ea6e0690418254b43a0efb14d3957005", "fusion_lat": 0.0, "rental_uris": {"ios": "https://dc.lft.to/lastmile_qr_scan", "android": "https://dc.lft.to/lastmile_qr_scan"}, "lon": -77.02831633333334, "type": "electric_scooter"}, {"bike_id": "94245ca0f8e1ee9012bcf2c86f8f9edf", "is_reserved": 0, "fusion_lon": 0.0, "lat": 38.93064183333333, "is_disabled": 0, "name": "94245ca0f8e1ee9012bcf2c86f8f9edf", "fusion_lat": 0.0, "rental_uris": {"ios": "https://dc.lft.to/lastmile_qr_scan", "android": "https://dc.lft.to/lastmile_qr_scan"}, "lon": -77.02983466666667, "type": "electric_scooter"}, {"bike_id": "3f5df637fdd3c3a1e5cc270e8e11cad9", "is_reserved": 0, "fusion_lon": 0.0, "lat": 38.909522833333334, "is_disabled": 0, "name": "3f5df637fdd3c3a1e5cc270e8e11cad9", "fusion_lat": 0.0, "rental_uris": {"ios": "https://dc.lft.to/lastmile_qr_scan", "android": "https://dc.lft.to/lastmile_qr_scan"}, "lon": -77.02006483333334, "type": "electric_scooter"}, {"bike_id": "72a4a0602f68ae0b081b9d11cd1dfd2e", "is_reserved": 0, "fusion_lon": 0.0, "lat": 38.92191183333333, "is_disabled": 0, "name": "72a4a0602f68ae0b081b9d11cd1dfd2e", "fusion_lat": 0.0, "rental_uris": {"ios": "https://dc.lft.to/lastmile_qr_scan", "android": "https://dc.lft.to/lastmile_qr_scan"}, "lon": -77.04252333333334, "type": "electric_scooter"}, {"bike_id": "eca2a813b9f6fa7d751fb27abbfaee46", "is_reserved": 0, "fusion_lon": 0.0, "lat": 38.907189333333335, "is_disabled": 0, "name": "eca2a813b9f6fa7d751fb27abbfaee46", "fusion_lat": 0.0, "rental_uris": {"ios": "https://dc.lft.to/lastmile_qr_scan", "android": "https://dc.lft.to/lastmile_qr_scan"}, "lon": -77.02653333333333, "type": "electric_scooter"}, {"bike_id": "2901282076a0186b219e2cf26aa48a77", "is_reserved": 0, "fusion_lon": 0.0, "lat": 38.921865, "is_disabled": 0, "name": "2901282076a0186b219e2cf26aa48a77", "fusion_lat": 0.0, "rental_uris": {"ios": "https://dc.lft.to/lastmile_qr_scan", "android": "https://dc.lft.to/lastmile_qr_scan"}, "lon": -77.043022, "type": "electric_scooter"}, {"bike_id": "87702b716afcb516b1d2e1deef784e96", "is_reserved": 0, "fusion_lon": 0.0, "lat": 38.91042916666667, "is_disabled": 0, "name": "87702b716afcb516b1d2e1deef784e96", "fusion_lat": 0.0, "rental_uris": {"ios": "https://dc.lft.to/lastmile_qr_scan", "android": "https://dc.lft.to/lastmile_qr_scan"}, "lon": -77.028192, "type": "electric_scooter"}, {"bike_id": "0aafe2864368a8c859860765b5973d6a", "is_reserved": 0, "fusion_lon": 0.0, "lat": 38.904093333333336, "is_disabled": 0, "name": "0aafe2864368a8c859860765b5973d6a", "fusion_lat": 0.0, "rental_uris": {"ios": "https://dc.lft.to/lastmile_qr_scan", "android": "https://dc.lft.to/lastmile_qr_scan"}, "lon": -77.048603, "type": "electric_scooter"}, {"bike_id": "445af5e21008e8b91150f57004ea80e3", "is_reserved": 0, "fusion_lon": 0.0, "lat": 38.876329166666665, "is_disabled": 0, "name": "445af5e21008e8b91150f57004ea80e3", "fusion_lat": 0.0, "rental_uris": {"ios": "https://dc.lft.to/lastmile_qr_scan", "android": "https://dc.lft.to/lastmile_qr_scan"}, "lon": -77.004544, "type": "electric_scooter"}, {"bike_id": "cc4e247521e0c2d31cd04f80071a390b", "is_reserved": 0, "fusion_lon": 0.0, "lat": 38.8991165, "is_disabled": 0, "name": "cc4e247521e0c2d31cd04f80071a390b", "fusion_lat": 0.0, "rental_uris": {"ios": "https://dc.lft.to/lastmile_qr_scan", "android": "https://dc.lft.to/lastmile_qr_scan"}, "lon": -77.03282066666667, "type": "electric_scooter"}, {"bike_id": "adb6d5112859d1cba6ddd201fd715488", "is_reserved": 0, "fusion_lon": 0.0, "lat": 38.893423, "is_disabled": 0, "name": "adb6d5112859d1cba6ddd201fd715488", "fusion_lat": 0.0, "rental_uris": {"ios": "https://dc.lft.to/lastmile_qr_scan", "android": "https://dc.lft.to/lastmile_qr_scan"}, "lon": -76.984598, "type": "electric_scooter"}, {"bike_id": "0aa05a8a6cfc95e2f75aaaeefd38a89d", "is_reserved": 0, "fusion_lon": 0.0, "lat": 38.88505966666666, "is_disabled": 0, "name": "0aa05a8a6cfc95e2f75aaaeefd38a89d", "fusion_lat": 0.0, "rental_uris": {"ios": "https://dc.lft.to/lastmile_qr_scan", "android": "https://dc.lft.to/lastmile_qr_scan"}, "lon": -77.01548766666667, "type": "electric_scooter"}, {"bike_id": "7f9a36562dcd2449e0a219b896a50396", "is_reserved": 0, "fusion_lon": 0.0, "lat": 38.8903055, "is_disabled": 0, "name": "7f9a36562dcd2449e0a219b896a50396", "fusion_lat": 0.0, "rental_uris": {"ios": "https://dc.lft.to/lastmile_qr_scan", "android": "https://dc.lft.to/lastmile_qr_scan"}, "lon": -76.9363075, "type": "electric_scooter"}, {"bike_id": "4aad7fe0297bdbd12fd848c3e73bd9c7", "is_reserved": 0, "fusion_lon": 0.0, "lat": 38.935866833333336, "is_disabled": 0, "name": "4aad7fe0297bdbd12fd848c3e73bd9c7", "fusion_lat": 0.0, "rental_uris": {"ios": "https://dc.lft.to/lastmile_qr_scan", "android": "https://dc.lft.to/lastmile_qr_scan"}, "lon": -77.02768333333333, "type": "electric_scooter"}, {"bike_id": "920bfa2ba211fa17526d3f11a423ded5", "is_reserved": 0, "fusion_lon": 0.0, "lat": 38.92621783333333, "is_disabled": 0, "name": "920bfa2ba211fa17526d3f11a423ded5", "fusion_lat": 0.0, "rental_uris": {"ios": "https://dc.lft.to/lastmile_qr_scan", "android": "https://dc.lft.to/lastmile_qr_scan"}, "lon": -77.03783116666666, "type": "electric_scooter"}, {"bike_id": "bd18eb445aa1325da449e6a59ccde85a", "is_reserved": 0, "fusion_lon": 0.0, "lat": 38.92654916666667, "is_disabled": 0, "name": "bd18eb445aa1325da449e6a59ccde85a", "fusion_lat": 0.0, "rental_uris": {"ios": "https://dc.lft.to/lastmile_qr_scan", "android": "https://dc.lft.to/lastmile_qr_scan"}, "lon": -77.03711083333333, "type": "electric_scooter"}, {"bike_id": "80e180adfdf8d39c890b3d4a20ffabbc", "is_reserved": 0, "fusion_lon": 0.0, "lat": 38.900119833333335, "is_disabled": 0, "name": "80e180adfdf8d39c890b3d4a20ffabbc", "fusion_lat": 0.0, "rental_uris": {"ios": "https://dc.lft.to/lastmile_qr_scan", "android": "https://dc.lft.to/lastmile_qr_scan"}, "lon": -76.99119733333333, "type": "electric_scooter"}, {"bike_id": "93c9426ead25e0998e36c29ead060ed2", "is_reserved": 0, "fusion_lon": 0.0, "lat": 38.85313766666667, "is_disabled": 0, "name": "93c9426ead25e0998e36c29ead060ed2", "fusion_lat": 0.0, "rental_uris": {"ios": "https://dc.lft.to/lastmile_qr_scan", "android": "https://dc.lft.to/lastmile_qr_scan"}, "lon": -76.98027933333333, "type": "electric_bike"}, {"bike_id": "8f6d168a12c58d05a282fd8effce59b2", "is_reserved": 0, "fusion_lon": 0.0, "lat": 38.923731833333335, "is_disabled": 0, "name": "8f6d168a12c58d05a282fd8effce59b2", "fusion_lat": 0.0, "rental_uris": {"ios": "https://dc.lft.to/lastmile_qr_scan", "android": "https://dc.lft.to/lastmile_qr_scan"}, "lon": -77.22334333333333, "type": "electric_bike"}, {"bike_id": "83923cf2095954b218ab8755e3c91553", "is_reserved": 0, "fusion_lon": 0.0, "lat": 38.9708985, "is_disabled": 0, "name": "83923cf2095954b218ab8755e3c91553", "fusion_lat": 0.0, "rental_uris": {"ios": "https://dc.lft.to/lastmile_qr_scan", "android": "https://dc.lft.to/lastmile_qr_scan"}, "lon": -77.06969333333333, "type": "electric_bike"}, {"bike_id": "79668a9769653dee1035f3775a3de350", "is_reserved": 0, "fusion_lon": 0.0, "lat": 38.924051, "is_disabled": 0, "name": "79668a9769653dee1035f3775a3de350", "fusion_lat": 0.0, "rental_uris": {"ios": "https://dc.lft.to/lastmile_qr_scan", "android": "https://dc.lft.to/lastmile_qr_scan"}, "lon": -77.029571, "type": "electric_scooter"}, {"bike_id": "035cba106aaf1e6d6f29be095e2c1bd8", "is_reserved": 0, "fusion_lon": 0.0, "lat": 38.9170785, "is_disabled": 0, "name": "035cba106aaf1e6d6f29be095e2c1bd8", "fusion_lat": 0.0, "rental_uris": {"ios": "https://dc.lft.to/lastmile_qr_scan", "android": "https://dc.lft.to/lastmile_qr_scan"}, "lon": -77.03459016666666, "type": "electric_scooter"}, {"bike_id": "b4c9c64e458c7a06db3fe2685f239e89", "is_reserved": 0, "fusion_lon": 0.0, "lat": 38.92578733333333, "is_disabled": 0, "name": "b4c9c64e458c7a06db3fe2685f239e89", "fusion_lat": 0.0, "rental_uris": {"ios": "https://dc.lft.to/lastmile_qr_scan", "android": "https://dc.lft.to/lastmile_qr_scan"}, "lon": -77.00470666666666, "type": "electric_scooter"}, {"bike_id": "e25f2a0f4e625257e672554d60c515ed", "is_reserved": 0, "fusion_lon": 0.0, "lat": 38.92876583333333, "is_disabled": 0, "name": "e25f2a0f4e625257e672554d60c515ed", "fusion_lat": 0.0, "rental_uris": {"ios": "https://dc.lft.to/lastmile_qr_scan", "android": "https://dc.lft.to/lastmile_qr_scan"}, "lon": -77.04049483333333, "type": "electric_scooter"}, {"bike_id": "9db41e684812bba34046027eafdcd64f", "is_reserved": 0, "fusion_lon": 0.0, "lat": 38.91116666666667, "is_disabled": 0, "name": "9db41e684812bba34046027eafdcd64f", "fusion_lat": 0.0, "rental_uris": {"ios": "https://dc.lft.to/lastmile_qr_scan", "android": "https://dc.lft.to/lastmile_qr_scan"}, "lon": -77.044655, "type": "electric_scooter"}, {"bike_id": "71c6a2eb7fb7bd4028a7c69d957e9ed9", "is_reserved": 0, "fusion_lon": 0.0, "lat": 38.88517983333333, "is_disabled": 0, "name": "71c6a2eb7fb7bd4028a7c69d957e9ed9", "fusion_lat": 0.0, "rental_uris": {"ios": "https://dc.lft.to/lastmile_qr_scan", "android": "https://dc.lft.to/lastmile_qr_scan"}, "lon": -77.0171605, "type": "electric_scooter"}, {"bike_id": "4aea5e30bc56f3bbf3e0b41b3b7039eb", "is_reserved": 0, "fusion_lon": 0.0, "lat": 38.88407216666667, "is_disabled": 0, "name": "4aea5e30bc56f3bbf3e0b41b3b7039eb", "fusion_lat": 0.0, "rental_uris": {"ios": "https://dc.lft.to/lastmile_qr_scan", "android": "https://dc.lft.to/lastmile_qr_scan"}, "lon": -76.960586, "type": "electric_bike"}, {"bike_id": "5247fa64d850917e7b45bc9c5abc27a3", "is_reserved": 0, "fusion_lon": 0.0, "lat": 38.93676583333333, "is_disabled": 0, "name": "5247fa64d850917e7b45bc9c5abc27a3", "fusion_lat": 0.0, "rental_uris": {"ios": "https://dc.lft.to/lastmile_qr_scan", "android": "https://dc.lft.to/lastmile_qr_scan"}, "lon": -76.95199366666667, "type": "electric_bike"}, {"bike_id": "dac47f03957c1a3a912aab2ccb301068", "is_reserved": 0, "fusion_lon": 0.0, "lat": 38.88504916666667, "is_disabled": 0, "name": "dac47f03957c1a3a912aab2ccb301068", "fusion_lat": 0.0, "rental_uris": {"ios": "https://dc.lft.to/lastmile_qr_scan", "android": "https://dc.lft.to/lastmile_qr_scan"}, "lon": -77.02090416666667, "type": "electric_scooter"}, {"bike_id": "6244d69a32e824fac5acd8678d03c810", "is_reserved": 0, "fusion_lon": 0.0, "lat": 38.9194885, "is_disabled": 0, "name": "6244d69a32e824fac5acd8678d03c810", "fusion_lat": 0.0, "rental_uris": {"ios": "https://dc.lft.to/lastmile_qr_scan", "android": "https://dc.lft.to/lastmile_qr_scan"}, "lon": -76.979129, "type": "electric_bike"}, {"bike_id": "0ba2484460565370045ec30cc298ac8b", "is_reserved": 0, "fusion_lon": 0.0, "lat": 38.90971866666667, "is_disabled": 0, "name": "0ba2484460565370045ec30cc298ac8b", "fusion_lat": 0.0, "rental_uris": {"ios": "https://dc.lft.to/lastmile_qr_scan", "android": "https://dc.lft.to/lastmile_qr_scan"}, "lon": -77.0386635, "type": "electric_scooter"}, {"bike_id": "81af6e4e4088bf78b344eb267e265deb", "is_reserved": 0, "fusion_lon": 0.0, "lat": 38.937197, "is_disabled": 0, "name": "81af6e4e4088bf78b344eb267e265deb", "fusion_lat": 0.0, "rental_uris": {"ios": "https://dc.lft.to/lastmile_qr_scan", "android": "https://dc.lft.to/lastmile_qr_scan"}, "lon": -77.03261083333334, "type": "electric_scooter"}, {"bike_id": "58633101df0c957e7e04d8178ff8eb1f", "is_reserved": 0, "fusion_lon": 0.0, "lat": 38.914031666666666, "is_disabled": 0, "name": "58633101df0c957e7e04d8178ff8eb1f", "fusion_lat": 0.0, "rental_uris": {"ios": "https://dc.lft.to/lastmile_qr_scan", "android": "https://dc.lft.to/lastmile_qr_scan"}, "lon": -77.021529, "type": "electric_bike"}, {"bike_id": "e207011cbab95aca62466e98a10d4e62", "is_reserved": 0, "fusion_lon": 0.0, "lat": 38.9076865, "is_disabled": 0, "name": "e207011cbab95aca62466e98a10d4e62", "fusion_lat": 0.0, "rental_uris": {"ios": "https://dc.lft.to/lastmile_qr_scan", "android": "https://dc.lft.to/lastmile_qr_scan"}, "lon": -77.06913216666666, "type": "electric_scooter"}, {"bike_id": "84daba6294ea63458a5c460090cd621f", "is_reserved": 0, "fusion_lon": 0.0, "lat": 38.866989333333336, "is_disabled": 0, "name": "84daba6294ea63458a5c460090cd621f", "fusion_lat": 0.0, "rental_uris": {"ios": "https://dc.lft.to/lastmile_qr_scan", "android": "https://dc.lft.to/lastmile_qr_scan"}, "lon": -76.98710383333334, "type": "electric_scooter"}, {"bike_id": "dba138d8a7ff0d5aa9092cabb5c9e02f", "is_reserved": 0, "fusion_lon": 0.0, "lat": 38.930614, "is_disabled": 0, "name": "dba138d8a7ff0d5aa9092cabb5c9e02f", "fusion_lat": 0.0, "rental_uris": {"ios": "https://dc.lft.to/lastmile_qr_scan", "android": "https://dc.lft.to/lastmile_qr_scan"}, "lon": -77.03816133333333, "type": "electric_scooter"}, {"bike_id": "a32bc69f3b41c523e83774265dbd5c58", "is_reserved": 0, "fusion_lon": 0.0, "lat": 38.96620633333333, "is_disabled": 0, "name": "a32bc69f3b41c523e83774265dbd5c58", "fusion_lat": 0.0, "rental_uris": {"ios": "https://dc.lft.to/lastmile_qr_scan", "android": "https://dc.lft.to/lastmile_qr_scan"}, "lon": -76.97667933333334, "type": "electric_bike"}, {"bike_id": "73d9cca401601163286d1b69d61248cc", "is_reserved": 0, "fusion_lon": 0.0, "lat": 38.92051133333333, "is_disabled": 0, "name": "73d9cca401601163286d1b69d61248cc", "fusion_lat": 0.0, "rental_uris": {"ios": "https://dc.lft.to/lastmile_qr_scan", "android": "https://dc.lft.to/lastmile_qr_scan"}, "lon": -77.03390033333334, "type": "electric_scooter"}, {"bike_id": "44a5de10ea6b474ccf926a21a03fdeb1", "is_reserved": 0, "fusion_lon": 0.0, "lat": 38.9095925, "is_disabled": 0, "name": "44a5de10ea6b474ccf926a21a03fdeb1", "fusion_lat": 0.0, "rental_uris": {"ios": "https://dc.lft.to/lastmile_qr_scan", "android": "https://dc.lft.to/lastmile_qr_scan"}, "lon": -77.03273316666667, "type": "electric_scooter"}, {"bike_id": "56d8d1ab9d5871691a5f8afe9798936a", "is_reserved": 0, "fusion_lon": 0.0, "lat": 38.939780999999996, "is_disabled": 0, "name": "56d8d1ab9d5871691a5f8afe9798936a", "fusion_lat": 0.0, "rental_uris": {"ios": "https://dc.lft.to/lastmile_qr_scan", "android": "https://dc.lft.to/lastmile_qr_scan"}, "lon": -77.02894016666667, "type": "electric_scooter"}, {"bike_id": "0c4fe64932b2b874081f540e845db103", "is_reserved": 0, "fusion_lon": 0.0, "lat": 38.91663066666667, "is_disabled": 0, "name": "0c4fe64932b2b874081f540e845db103", "fusion_lat": 0.0, "rental_uris": {"ios": "https://dc.lft.to/lastmile_qr_scan", "android": "https://dc.lft.to/lastmile_qr_scan"}, "lon": -77.02308233333333, "type": "electric_scooter"}, {"bike_id": "17297926e28107507d7ac42ad57801c5", "is_reserved": 0, "fusion_lon": 0.0, "lat": 38.999376833333336, "is_disabled": 0, "name": "17297926e28107507d7ac42ad57801c5", "fusion_lat": 0.0, "rental_uris": {"ios": "https://dc.lft.to/lastmile_qr_scan", "android": "https://dc.lft.to/lastmile_qr_scan"}, "lon": -77.01770466666666, "type": "electric_bike"}, {"bike_id": "f4ee0e07ffadbaf64ef23c3d9ea54bd6", "is_reserved": 0, "fusion_lon": 0.0, "lat": 38.899525, "is_disabled": 0, "name": "f4ee0e07ffadbaf64ef23c3d9ea54bd6", "fusion_lat": 0.0, "rental_uris": {"ios": "https://dc.lft.to/lastmile_qr_scan", "android": "https://dc.lft.to/lastmile_qr_scan"}, "lon": -77.03178016666666, "type": "electric_scooter"}, {"bike_id": "6134dacaf6bd609f729537dfe882fc27", "is_reserved": 0, "fusion_lon": 0.0, "lat": 38.9041185, "is_disabled": 0, "name": "6134dacaf6bd609f729537dfe882fc27", "fusion_lat": 0.0, "rental_uris": {"ios": "https://dc.lft.to/lastmile_qr_scan", "android": "https://dc.lft.to/lastmile_qr_scan"}, "lon": -77.03631866666667, "type": "electric_scooter"}, {"bike_id": "6487543a2c24d241fd060490e7e03568", "is_reserved": 0, "fusion_lon": 0.0, "lat": 38.91580833333333, "is_disabled": 0, "name": "6487543a2c24d241fd060490e7e03568", "fusion_lat": 0.0, "rental_uris": {"ios": "https://dc.lft.to/lastmile_qr_scan", "android": "https://dc.lft.to/lastmile_qr_scan"}, "lon": -76.98397983333334, "type": "electric_scooter"}, {"bike_id": "395294209f9e8486c7805d02089f4918", "is_reserved": 0, "fusion_lon": 0.0, "lat": 38.892999, "is_disabled": 0, "name": "395294209f9e8486c7805d02089f4918", "fusion_lat": 0.0, "rental_uris": {"ios": "https://dc.lft.to/lastmile_qr_scan", "android": "https://dc.lft.to/lastmile_qr_scan"}, "lon": -77.012447, "type": "electric_scooter"}, {"bike_id": "8d9492f0032198824c83c7f152a6d269", "is_reserved": 0, "fusion_lon": 0.0, "lat": 38.9155885, "is_disabled": 0, "name": "8d9492f0032198824c83c7f152a6d269", "fusion_lat": 0.0, "rental_uris": {"ios": "https://dc.lft.to/lastmile_qr_scan", "android": "https://dc.lft.to/lastmile_qr_scan"}, "lon": -77.01414516666667, "type": "electric_scooter"}, {"bike_id": "73c33aafaf1c0283d6ecd6361e95baf6", "is_reserved": 0, "fusion_lon": 0.0, "lat": 38.869257, "is_disabled": 0, "name": "73c33aafaf1c0283d6ecd6361e95baf6", "fusion_lat": 0.0, "rental_uris": {"ios": "https://dc.lft.to/lastmile_qr_scan", "android": "https://dc.lft.to/lastmile_qr_scan"}, "lon": -76.98307966666667, "type": "electric_scooter"}, {"bike_id": "d24626456883f0756f328ada79a94cff", "is_reserved": 0, "fusion_lon": 0.0, "lat": 38.844228333333334, "is_disabled": 0, "name": "d24626456883f0756f328ada79a94cff", "fusion_lat": 0.0, "rental_uris": {"ios": "https://dc.lft.to/lastmile_qr_scan", "android": "https://dc.lft.to/lastmile_qr_scan"}, "lon": -76.9977625, "type": "electric_scooter"}, {"bike_id": "2ebd0ff8c124c278e48d04ca46323f9c", "is_reserved": 0, "fusion_lon": 0.0, "lat": 38.88867783333333, "is_disabled": 0, "name": "2ebd0ff8c124c278e48d04ca46323f9c", "fusion_lat": 0.0, "rental_uris": {"ios": "https://dc.lft.to/lastmile_qr_scan", "android": "https://dc.lft.to/lastmile_qr_scan"}, "lon": -76.990341, "type": "electric_scooter"}, {"bike_id": "a727e49ee9882161e782aff55ebfdf11", "is_reserved": 0, "fusion_lon": 0.0, "lat": 38.915515166666665, "is_disabled": 0, "name": "a727e49ee9882161e782aff55ebfdf11", "fusion_lat": 0.0, "rental_uris": {"ios": "https://dc.lft.to/lastmile_qr_scan", "android": "https://dc.lft.to/lastmile_qr_scan"}, "lon": -77.03176733333333, "type": "electric_scooter"}, {"bike_id": "4f13bc2ee04b68eb0e62d0e3dcb700a1", "is_reserved": 0, "fusion_lon": 0.0, "lat": 38.898822333333335, "is_disabled": 0, "name": "4f13bc2ee04b68eb0e62d0e3dcb700a1", "fusion_lat": 0.0, "rental_uris": {"ios": "https://dc.lft.to/lastmile_qr_scan", "android": "https://dc.lft.to/lastmile_qr_scan"}, "lon": -76.931769, "type": "electric_scooter"}, {"bike_id": "75a61d6047e969e57241e79fa12c6725", "is_reserved": 0, "fusion_lon": 0.0, "lat": 38.87214433333333, "is_disabled": 0, "name": "75a61d6047e969e57241e79fa12c6725", "fusion_lat": 0.0, "rental_uris": {"ios": "https://dc.lft.to/lastmile_qr_scan", "android": "https://dc.lft.to/lastmile_qr_scan"}, "lon": -77.00574116666667, "type": "electric_scooter"}, {"bike_id": "d873dca6686c95933ef1295a3646f73d", "is_reserved": 0, "fusion_lon": 0.0, "lat": 38.902396, "is_disabled": 0, "name": "d873dca6686c95933ef1295a3646f73d", "fusion_lat": 0.0, "rental_uris": {"ios": "https://dc.lft.to/lastmile_qr_scan", "android": "https://dc.lft.to/lastmile_qr_scan"}, "lon": -77.00199816666667, "type": "electric_scooter"}, {"bike_id": "320a192d1178dac4e351ae7cff0be6ce", "is_reserved": 0, "fusion_lon": 0.0, "lat": 38.91335333333333, "is_disabled": 0, "name": "320a192d1178dac4e351ae7cff0be6ce", "fusion_lat": 0.0, "rental_uris": {"ios": "https://dc.lft.to/lastmile_qr_scan", "android": "https://dc.lft.to/lastmile_qr_scan"}, "lon": -77.04808, "type": "electric_scooter"}, {"bike_id": "57ef9406c84f9f862657681ce82bcf61", "is_reserved": 0, "fusion_lon": 0.0, "lat": 38.888582166666666, "is_disabled": 0, "name": "57ef9406c84f9f862657681ce82bcf61", "fusion_lat": 0.0, "rental_uris": {"ios": "https://dc.lft.to/lastmile_qr_scan", "android": "https://dc.lft.to/lastmile_qr_scan"}, "lon": -77.0325095, "type": "electric_bike"}, {"bike_id": "8937dd7ef1b3c8b2f64b87b42f692d08", "is_reserved": 0, "fusion_lon": 0.0, "lat": 38.941767666666664, "is_disabled": 0, "name": "8937dd7ef1b3c8b2f64b87b42f692d08", "fusion_lat": 0.0, "rental_uris": {"ios": "https://dc.lft.to/lastmile_qr_scan", "android": "https://dc.lft.to/lastmile_qr_scan"}, "lon": -77.03655666666667, "type": "electric_scooter"}, {"bike_id": "2359a538d417cf8ebf5465372990ed2b", "is_reserved": 0, "fusion_lon": 0.0, "lat": 38.903859833333335, "is_disabled": 0, "name": "2359a538d417cf8ebf5465372990ed2b", "fusion_lat": 0.0, "rental_uris": {"ios": "https://dc.lft.to/lastmile_qr_scan", "android": "https://dc.lft.to/lastmile_qr_scan"}, "lon": -77.04439033333334, "type": "electric_scooter"}, {"bike_id": "4ccb170df1b172ee320006498e382074", "is_reserved": 0, "fusion_lon": 0.0, "lat": 38.89999533333334, "is_disabled": 0, "name": "4ccb170df1b172ee320006498e382074", "fusion_lat": 0.0, "rental_uris": {"ios": "https://dc.lft.to/lastmile_qr_scan", "android": "https://dc.lft.to/lastmile_qr_scan"}, "lon": -77.032976, "type": "electric_scooter"}, {"bike_id": "881968424d4d4bfd9cd5bfe52420b68e", "is_reserved": 0, "fusion_lon": 0.0, "lat": 38.9369985, "is_disabled": 0, "name": "881968424d4d4bfd9cd5bfe52420b68e", "fusion_lat": 0.0, "rental_uris": {"ios": "https://dc.lft.to/lastmile_qr_scan", "android": "https://dc.lft.to/lastmile_qr_scan"}, "lon": -77.02979566666667, "type": "electric_bike"}, {"bike_id": "734a0b12370ba0c408b7dc04caed4617", "is_reserved": 0, "fusion_lon": 0.0, "lat": 38.91745066666667, "is_disabled": 0, "name": "734a0b12370ba0c408b7dc04caed4617", "fusion_lat": 0.0, "rental_uris": {"ios": "https://dc.lft.to/lastmile_qr_scan", "android": "https://dc.lft.to/lastmile_qr_scan"}, "lon": -77.04408516666666, "type": "electric_scooter"}, {"bike_id": "882e74df7e814b63247c68034679437f", "is_reserved": 0, "fusion_lon": 0.0, "lat": 38.919735333333335, "is_disabled": 0, "name": "882e74df7e814b63247c68034679437f", "fusion_lat": 0.0, "rental_uris": {"ios": "https://dc.lft.to/lastmile_qr_scan", "android": "https://dc.lft.to/lastmile_qr_scan"}, "lon": -77.04443833333333, "type": "electric_scooter"}, {"bike_id": "588023ac258d74c8ef4c9650944b7368", "is_reserved": 0, "fusion_lon": 0.0, "lat": 38.89844466666667, "is_disabled": 0, "name": "588023ac258d74c8ef4c9650944b7368", "fusion_lat": 0.0, "rental_uris": {"ios": "https://dc.lft.to/lastmile_qr_scan", "android": "https://dc.lft.to/lastmile_qr_scan"}, "lon": -77.03209833333334, "type": "electric_scooter"}, {"bike_id": "59d94b0536c15d86e4e5bded42ec0871", "is_reserved": 0, "fusion_lon": 0.0, "lat": 38.882770666666666, "is_disabled": 0, "name": "59d94b0536c15d86e4e5bded42ec0871", "fusion_lat": 0.0, "rental_uris": {"ios": "https://dc.lft.to/lastmile_qr_scan", "android": "https://dc.lft.to/lastmile_qr_scan"}, "lon": -76.9861395, "type": "electric_scooter"}, {"bike_id": "21709843409d4fc3e31cf41b98c266ae", "is_reserved": 0, "fusion_lon": 0.0, "lat": 38.91982383333333, "is_disabled": 0, "name": "21709843409d4fc3e31cf41b98c266ae", "fusion_lat": 0.0, "rental_uris": {"ios": "https://dc.lft.to/lastmile_qr_scan", "android": "https://dc.lft.to/lastmile_qr_scan"}, "lon": -77.02402866666667, "type": "electric_scooter"}, {"bike_id": "d344aab3be257e0d48640cc6791602ee", "is_reserved": 0, "fusion_lon": 0.0, "lat": 38.93092583333333, "is_disabled": 0, "name": "d344aab3be257e0d48640cc6791602ee", "fusion_lat": 0.0, "rental_uris": {"ios": "https://dc.lft.to/lastmile_qr_scan", "android": "https://dc.lft.to/lastmile_qr_scan"}, "lon": -77.036195, "type": "electric_scooter"}, {"bike_id": "3cea3c1482208d641f50ee553a4cef5b", "is_reserved": 0, "fusion_lon": 0.0, "lat": 38.936737, "is_disabled": 0, "name": "3cea3c1482208d641f50ee553a4cef5b", "fusion_lat": 0.0, "rental_uris": {"ios": "https://dc.lft.to/lastmile_qr_scan", "android": "https://dc.lft.to/lastmile_qr_scan"}, "lon": -77.03595166666666, "type": "electric_scooter"}, {"bike_id": "130c9893e0a96145ab5eb5e1bb11b26c", "is_reserved": 0, "fusion_lon": 0.0, "lat": 38.92612616666667, "is_disabled": 0, "name": "130c9893e0a96145ab5eb5e1bb11b26c", "fusion_lat": 0.0, "rental_uris": {"ios": "https://dc.lft.to/lastmile_qr_scan", "android": "https://dc.lft.to/lastmile_qr_scan"}, "lon": -77.03667, "type": "electric_bike"}, {"bike_id": "c0e5f9ffb5c22f46bc2ae928e22f1dae", "is_reserved": 0, "fusion_lon": 0.0, "lat": 38.924838333333334, "is_disabled": 0, "name": "c0e5f9ffb5c22f46bc2ae928e22f1dae", "fusion_lat": 0.0, "rental_uris": {"ios": "https://dc.lft.to/lastmile_qr_scan", "android": "https://dc.lft.to/lastmile_qr_scan"}, "lon": -77.027114, "type": "electric_scooter"}, {"bike_id": "788958bfe74f24a1911a17c5de32ac98", "is_reserved": 0, "fusion_lon": 0.0, "lat": 38.91880666666667, "is_disabled": 0, "name": "788958bfe74f24a1911a17c5de32ac98", "fusion_lat": 0.0, "rental_uris": {"ios": "https://dc.lft.to/lastmile_qr_scan", "android": "https://dc.lft.to/lastmile_qr_scan"}, "lon": -77.04464016666667, "type": "electric_scooter"}, {"bike_id": "20f6d777a1974b829a79afe6787fd8d4", "is_reserved": 0, "fusion_lon": 0.0, "lat": 38.89820266666667, "is_disabled": 0, "name": "20f6d777a1974b829a79afe6787fd8d4", "fusion_lat": 0.0, "rental_uris": {"ios": "https://dc.lft.to/lastmile_qr_scan", "android": "https://dc.lft.to/lastmile_qr_scan"}, "lon": -77.03273083333333, "type": "electric_scooter"}, {"bike_id": "7eb7674e6a7d1ad98d14bbfe45a160bc", "is_reserved": 0, "fusion_lon": 0.0, "lat": 38.92365, "is_disabled": 0, "name": "7eb7674e6a7d1ad98d14bbfe45a160bc", "fusion_lat": 0.0, "rental_uris": {"ios": "https://dc.lft.to/lastmile_qr_scan", "android": "https://dc.lft.to/lastmile_qr_scan"}, "lon": -77.01949133333333, "type": "electric_scooter"}, {"bike_id": "eff4420e2d8299ae7fcaf06378c7cfe5", "is_reserved": 0, "fusion_lon": 0.0, "lat": 38.901197, "is_disabled": 0, "name": "eff4420e2d8299ae7fcaf06378c7cfe5", "fusion_lat": 0.0, "rental_uris": {"ios": "https://dc.lft.to/lastmile_qr_scan", "android": "https://dc.lft.to/lastmile_qr_scan"}, "lon": -77.04366066666667, "type": "electric_scooter"}, {"bike_id": "97159662843f45b610a4e14d7d84066d", "is_reserved": 0, "fusion_lon": 0.0, "lat": 38.871338333333334, "is_disabled": 0, "name": "97159662843f45b610a4e14d7d84066d", "fusion_lat": 0.0, "rental_uris": {"ios": "https://dc.lft.to/lastmile_qr_scan", "android": "https://dc.lft.to/lastmile_qr_scan"}, "lon": -76.93731883333334, "type": "electric_bike"}, {"bike_id": "25457349dcd94151667a955bb125dd51", "is_reserved": 0, "fusion_lon": 0.0, "lat": 38.929901666666666, "is_disabled": 0, "name": "25457349dcd94151667a955bb125dd51", "fusion_lat": 0.0, "rental_uris": {"ios": "https://dc.lft.to/lastmile_qr_scan", "android": "https://dc.lft.to/lastmile_qr_scan"}, "lon": -77.079472, "type": "electric_scooter"}, {"bike_id": "cebeb9a6b82f7a5f0d2a6801a0fec0a3", "is_reserved": 0, "fusion_lon": 0.0, "lat": 38.917837166666665, "is_disabled": 0, "name": "cebeb9a6b82f7a5f0d2a6801a0fec0a3", "fusion_lat": 0.0, "rental_uris": {"ios": "https://dc.lft.to/lastmile_qr_scan", "android": "https://dc.lft.to/lastmile_qr_scan"}, "lon": -77.02315583333333, "type": "electric_scooter"}, {"bike_id": "f5ef3be22d1c1fbf9226cf2f5afcb197", "is_reserved": 0, "fusion_lon": 0.0, "lat": 38.90096233333333, "is_disabled": 0, "name": "f5ef3be22d1c1fbf9226cf2f5afcb197", "fusion_lat": 0.0, "rental_uris": {"ios": "https://dc.lft.to/lastmile_qr_scan", "android": "https://dc.lft.to/lastmile_qr_scan"}, "lon": -77.0437215, "type": "electric_scooter"}, {"bike_id": "c4052e7ec6278cc408d0038656936d8e", "is_reserved": 0, "fusion_lon": 0.0, "lat": 38.924451833333336, "is_disabled": 0, "name": "c4052e7ec6278cc408d0038656936d8e", "fusion_lat": 0.0, "rental_uris": {"ios": "https://dc.lft.to/lastmile_qr_scan", "android": "https://dc.lft.to/lastmile_qr_scan"}, "lon": -76.99333833333333, "type": "electric_scooter"}, {"bike_id": "ea530f01628cde6eca71ce00fa3f7a5e", "is_reserved": 0, "fusion_lon": 0.0, "lat": 38.914031666666666, "is_disabled": 0, "name": "ea530f01628cde6eca71ce00fa3f7a5e", "fusion_lat": 0.0, "rental_uris": {"ios": "https://dc.lft.to/lastmile_qr_scan", "android": "https://dc.lft.to/lastmile_qr_scan"}, "lon": -77.001589, "type": "electric_scooter"}, {"bike_id": "7fbf128c37af15aea3deb5249a220f0b", "is_reserved": 0, "fusion_lon": 0.0, "lat": 38.91733766666667, "is_disabled": 0, "name": "7fbf128c37af15aea3deb5249a220f0b", "fusion_lat": 0.0, "rental_uris": {"ios": "https://dc.lft.to/lastmile_qr_scan", "android": "https://dc.lft.to/lastmile_qr_scan"}, "lon": -77.01025583333333, "type": "electric_scooter"}, {"bike_id": "7a557a1ba6fd84a2b80630b53151a737", "is_reserved": 0, "fusion_lon": 0.0, "lat": 38.915651833333335, "is_disabled": 0, "name": "7a557a1ba6fd84a2b80630b53151a737", "fusion_lat": 0.0, "rental_uris": {"ios": "https://dc.lft.to/lastmile_qr_scan", "android": "https://dc.lft.to/lastmile_qr_scan"}, "lon": -77.0229275, "type": "electric_scooter"}, {"bike_id": "2c947148eb4c75ad5e0851ced9513b25", "is_reserved": 0, "fusion_lon": 0.0, "lat": 38.92077916666667, "is_disabled": 0, "name": "2c947148eb4c75ad5e0851ced9513b25", "fusion_lat": 0.0, "rental_uris": {"ios": "https://dc.lft.to/lastmile_qr_scan", "android": "https://dc.lft.to/lastmile_qr_scan"}, "lon": -77.024275, "type": "electric_scooter"}, {"bike_id": "8cb5b1f6a22775b26b3ddc8dba12380f", "is_reserved": 0, "fusion_lon": 0.0, "lat": 38.92570633333333, "is_disabled": 0, "name": "8cb5b1f6a22775b26b3ddc8dba12380f", "fusion_lat": 0.0, "rental_uris": {"ios": "https://dc.lft.to/lastmile_qr_scan", "android": "https://dc.lft.to/lastmile_qr_scan"}, "lon": -77.02571266666666, "type": "electric_scooter"}, {"bike_id": "e055e67d63461e2f078e282371eea0ee", "is_reserved": 0, "fusion_lon": 0.0, "lat": 38.91718783333334, "is_disabled": 0, "name": "e055e67d63461e2f078e282371eea0ee", "fusion_lat": 0.0, "rental_uris": {"ios": "https://dc.lft.to/lastmile_qr_scan", "android": "https://dc.lft.to/lastmile_qr_scan"}, "lon": -77.038391, "type": "electric_scooter"}, {"bike_id": "4be1714c467a06dcf16edb54bb3b83bc", "is_reserved": 0, "fusion_lon": 0.0, "lat": 38.94391233333333, "is_disabled": 0, "name": "4be1714c467a06dcf16edb54bb3b83bc", "fusion_lat": 0.0, "rental_uris": {"ios": "https://dc.lft.to/lastmile_qr_scan", "android": "https://dc.lft.to/lastmile_qr_scan"}, "lon": -77.03894983333333, "type": "electric_scooter"}, {"bike_id": "3322ffdc5654345f1c04dbef4c37c2d5", "is_reserved": 0, "fusion_lon": 0.0, "lat": 38.89876566666667, "is_disabled": 0, "name": "3322ffdc5654345f1c04dbef4c37c2d5", "fusion_lat": 0.0, "rental_uris": {"ios": "https://dc.lft.to/lastmile_qr_scan", "android": "https://dc.lft.to/lastmile_qr_scan"}, "lon": -76.9315925, "type": "electric_scooter"}, {"bike_id": "df65f618d2bd3e6d8f2a696c752fe642", "is_reserved": 0, "fusion_lon": 0.0, "lat": 38.90974333333333, "is_disabled": 0, "name": "df65f618d2bd3e6d8f2a696c752fe642", "fusion_lat": 0.0, "rental_uris": {"ios": "https://dc.lft.to/lastmile_qr_scan", "android": "https://dc.lft.to/lastmile_qr_scan"}, "lon": -77.02724133333334, "type": "electric_scooter"}, {"bike_id": "f183b0b404a9cf55d7251de149b8fd90", "is_reserved": 0, "fusion_lon": 0.0, "lat": 38.91417333333333, "is_disabled": 0, "name": "f183b0b404a9cf55d7251de149b8fd90", "fusion_lat": 0.0, "rental_uris": {"ios": "https://dc.lft.to/lastmile_qr_scan", "android": "https://dc.lft.to/lastmile_qr_scan"}, "lon": -77.03909533333334, "type": "electric_scooter"}, {"bike_id": "edd58373255b096c2ad3e2fa680a44eb", "is_reserved": 0, "fusion_lon": 0.0, "lat": 38.912582, "is_disabled": 0, "name": "edd58373255b096c2ad3e2fa680a44eb", "fusion_lat": 0.0, "rental_uris": {"ios": "https://dc.lft.to/lastmile_qr_scan", "android": "https://dc.lft.to/lastmile_qr_scan"}, "lon": -77.04444, "type": "electric_scooter"}, {"bike_id": "c53ba1a0655946bf76ca4013b6b1f9e1", "is_reserved": 0, "fusion_lon": 0.0, "lat": 38.90367833333333, "is_disabled": 0, "name": "c53ba1a0655946bf76ca4013b6b1f9e1", "fusion_lat": 0.0, "rental_uris": {"ios": "https://dc.lft.to/lastmile_qr_scan", "android": "https://dc.lft.to/lastmile_qr_scan"}, "lon": -77.0299625, "type": "electric_scooter"}, {"bike_id": "52a8facce0f968fb3cce9f79a5d57565", "is_reserved": 0, "fusion_lon": 0.0, "lat": 38.91562, "is_disabled": 0, "name": "52a8facce0f968fb3cce9f79a5d57565", "fusion_lat": 0.0, "rental_uris": {"ios": "https://dc.lft.to/lastmile_qr_scan", "android": "https://dc.lft.to/lastmile_qr_scan"}, "lon": -77.03934883333334, "type": "electric_scooter"}, {"bike_id": "4e2af024119b8a4ffc6998d17f631670", "is_reserved": 0, "fusion_lon": 0.0, "lat": 38.9096865, "is_disabled": 0, "name": "4e2af024119b8a4ffc6998d17f631670", "fusion_lat": 0.0, "rental_uris": {"ios": "https://dc.lft.to/lastmile_qr_scan", "android": "https://dc.lft.to/lastmile_qr_scan"}, "lon": -77.03457716666666, "type": "electric_scooter"}, {"bike_id": "c66efecb8cffc6c96eddd9388f4359f3", "is_reserved": 0, "fusion_lon": 0.0, "lat": 38.91638116666667, "is_disabled": 0, "name": "c66efecb8cffc6c96eddd9388f4359f3", "fusion_lat": 0.0, "rental_uris": {"ios": "https://dc.lft.to/lastmile_qr_scan", "android": "https://dc.lft.to/lastmile_qr_scan"}, "lon": -77.03202916666666, "type": "electric_scooter"}, {"bike_id": "66e27d434fcbfaec200854a9cf7411d3", "is_reserved": 0, "fusion_lon": 0.0, "lat": 38.916665, "is_disabled": 0, "name": "66e27d434fcbfaec200854a9cf7411d3", "fusion_lat": 0.0, "rental_uris": {"ios": "https://dc.lft.to/lastmile_qr_scan", "android": "https://dc.lft.to/lastmile_qr_scan"}, "lon": -77.00512616666667, "type": "electric_scooter"}, {"bike_id": "0912eeca0efa9406f3624564d8924977", "is_reserved": 0, "fusion_lon": 0.0, "lat": 38.8955925, "is_disabled": 0, "name": "0912eeca0efa9406f3624564d8924977", "fusion_lat": 0.0, "rental_uris": {"ios": "https://dc.lft.to/lastmile_qr_scan", "android": "https://dc.lft.to/lastmile_qr_scan"}, "lon": -77.0258405, "type": "electric_scooter"}, {"bike_id": "f739ecb5a95175baac056ca95497008f", "is_reserved": 0, "fusion_lon": 0.0, "lat": 38.88000483333333, "is_disabled": 0, "name": "f739ecb5a95175baac056ca95497008f", "fusion_lat": 0.0, "rental_uris": {"ios": "https://dc.lft.to/lastmile_qr_scan", "android": "https://dc.lft.to/lastmile_qr_scan"}, "lon": -76.98546583333334, "type": "electric_scooter"}, {"bike_id": "98aba81122eeff1925089c1188b91a4e", "is_reserved": 0, "fusion_lon": 0.0, "lat": 38.931717, "is_disabled": 0, "name": "98aba81122eeff1925089c1188b91a4e", "fusion_lat": 0.0, "rental_uris": {"ios": "https://dc.lft.to/lastmile_qr_scan", "android": "https://dc.lft.to/lastmile_qr_scan"}, "lon": -76.996156, "type": "electric_scooter"}, {"bike_id": "3a87c93e1aa5faac3a5f5a814de1744f", "is_reserved": 0, "fusion_lon": 0.0, "lat": 38.902767833333336, "is_disabled": 0, "name": "3a87c93e1aa5faac3a5f5a814de1744f", "fusion_lat": 0.0, "rental_uris": {"ios": "https://dc.lft.to/lastmile_qr_scan", "android": "https://dc.lft.to/lastmile_qr_scan"}, "lon": -77.03331683333333, "type": "electric_scooter"}, {"bike_id": "9c618cacd8654d3ebbf89b57a7597ccb", "is_reserved": 0, "fusion_lon": 0.0, "lat": 38.933440166666664, "is_disabled": 0, "name": "9c618cacd8654d3ebbf89b57a7597ccb", "fusion_lat": 0.0, "rental_uris": {"ios": "https://dc.lft.to/lastmile_qr_scan", "android": "https://dc.lft.to/lastmile_qr_scan"}, "lon": -77.057123, "type": "electric_scooter"}, {"bike_id": "0a2a0cb8c4ef7edbc100648b7fd63c5d", "is_reserved": 0, "fusion_lon": 0.0, "lat": 38.908290666666666, "is_disabled": 0, "name": "0a2a0cb8c4ef7edbc100648b7fd63c5d", "fusion_lat": 0.0, "rental_uris": {"ios": "https://dc.lft.to/lastmile_qr_scan", "android": "https://dc.lft.to/lastmile_qr_scan"}, "lon": -76.99700666666666, "type": "electric_scooter"}, {"bike_id": "756c4212d8f79601ef189f29d9e51c97", "is_reserved": 0, "fusion_lon": 0.0, "lat": 38.89831733333333, "is_disabled": 0, "name": "756c4212d8f79601ef189f29d9e51c97", "fusion_lat": 0.0, "rental_uris": {"ios": "https://dc.lft.to/lastmile_qr_scan", "android": "https://dc.lft.to/lastmile_qr_scan"}, "lon": -76.98024583333333, "type": "electric_scooter"}, {"bike_id": "63cf92de5672af8da69c13a0bdd86639", "is_reserved": 0, "fusion_lon": 0.0, "lat": 38.91873416666667, "is_disabled": 0, "name": "63cf92de5672af8da69c13a0bdd86639", "fusion_lat": 0.0, "rental_uris": {"ios": "https://dc.lft.to/lastmile_qr_scan", "android": "https://dc.lft.to/lastmile_qr_scan"}, "lon": -77.04471683333334, "type": "electric_scooter"}, {"bike_id": "70493c306d649ffdde894fb7b93d5d10", "is_reserved": 0, "fusion_lon": 0.0, "lat": 38.89709083333333, "is_disabled": 0, "name": "70493c306d649ffdde894fb7b93d5d10", "fusion_lat": 0.0, "rental_uris": {"ios": "https://dc.lft.to/lastmile_qr_scan", "android": "https://dc.lft.to/lastmile_qr_scan"}, "lon": -77.0272515, "type": "electric_scooter"}, {"bike_id": "61968a7e42ce2ae6facfd839112741a3", "is_reserved": 0, "fusion_lon": 0.0, "lat": 38.884248666666664, "is_disabled": 0, "name": "61968a7e42ce2ae6facfd839112741a3", "fusion_lat": 0.0, "rental_uris": {"ios": "https://dc.lft.to/lastmile_qr_scan", "android": "https://dc.lft.to/lastmile_qr_scan"}, "lon": -76.99597633333333, "type": "electric_scooter"}, {"bike_id": "d02f9992ec0ee13deca18ff11e604a99", "is_reserved": 0, "fusion_lon": 0.0, "lat": 38.91923233333333, "is_disabled": 0, "name": "d02f9992ec0ee13deca18ff11e604a99", "fusion_lat": 0.0, "rental_uris": {"ios": "https://dc.lft.to/lastmile_qr_scan", "android": "https://dc.lft.to/lastmile_qr_scan"}, "lon": -77.00068266666666, "type": "electric_scooter"}, {"bike_id": "6bad33f14865ad74161ec33185b6c57a", "is_reserved": 0, "fusion_lon": 0.0, "lat": 38.92049516666667, "is_disabled": 0, "name": "6bad33f14865ad74161ec33185b6c57a", "fusion_lat": 0.0, "rental_uris": {"ios": "https://dc.lft.to/lastmile_qr_scan", "android": "https://dc.lft.to/lastmile_qr_scan"}, "lon": -77.04183933333333, "type": "electric_scooter"}, {"bike_id": "18b7973016d22b06d47d0b4d34651b7b", "is_reserved": 0, "fusion_lon": 0.0, "lat": 38.9076325, "is_disabled": 0, "name": "18b7973016d22b06d47d0b4d34651b7b", "fusion_lat": 0.0, "rental_uris": {"ios": "https://dc.lft.to/lastmile_qr_scan", "android": "https://dc.lft.to/lastmile_qr_scan"}, "lon": -77.0320325, "type": "electric_scooter"}, {"bike_id": "ba416583bad32b155d65410fdbc08127", "is_reserved": 0, "fusion_lon": 0.0, "lat": 38.8919515, "is_disabled": 0, "name": "ba416583bad32b155d65410fdbc08127", "fusion_lat": 0.0, "rental_uris": {"ios": "https://dc.lft.to/lastmile_qr_scan", "android": "https://dc.lft.to/lastmile_qr_scan"}, "lon": -77.015507, "type": "electric_scooter"}, {"bike_id": "cea7db4c6ddca142ac87bc8d718cb0e7", "is_reserved": 0, "fusion_lon": 0.0, "lat": 39.03048733333333, "is_disabled": 0, "name": "cea7db4c6ddca142ac87bc8d718cb0e7", "fusion_lat": 0.0, "rental_uris": {"ios": "https://dc.lft.to/lastmile_qr_scan", "android": "https://dc.lft.to/lastmile_qr_scan"}, "lon": -77.09480283333333, "type": "electric_bike"}, {"bike_id": "0464d7aee482caeca4dec10611d9c41a", "is_reserved": 0, "fusion_lon": 0.0, "lat": 38.88705216666666, "is_disabled": 0, "name": "0464d7aee482caeca4dec10611d9c41a", "fusion_lat": 0.0, "rental_uris": {"ios": "https://dc.lft.to/lastmile_qr_scan", "android": "https://dc.lft.to/lastmile_qr_scan"}, "lon": -77.00149, "type": "electric_scooter"}, {"bike_id": "1b8263e30a92ad0ad4f322557edfbf9b", "is_reserved": 0, "fusion_lon": 0.0, "lat": 38.87880766666667, "is_disabled": 0, "name": "1b8263e30a92ad0ad4f322557edfbf9b", "fusion_lat": 0.0, "rental_uris": {"ios": "https://dc.lft.to/lastmile_qr_scan", "android": "https://dc.lft.to/lastmile_qr_scan"}, "lon": -76.991638, "type": "electric_scooter"}, {"bike_id": "ecc1ad089719f60497f5f9597574e7b9", "is_reserved": 0, "fusion_lon": 0.0, "lat": 38.91185433333333, "is_disabled": 0, "name": "ecc1ad089719f60497f5f9597574e7b9", "fusion_lat": 0.0, "rental_uris": {"ios": "https://dc.lft.to/lastmile_qr_scan", "android": "https://dc.lft.to/lastmile_qr_scan"}, "lon": -77.00732, "type": "electric_scooter"}, {"bike_id": "504fc186741121fe2b44823a0500eb74", "is_reserved": 0, "fusion_lon": 0.0, "lat": 38.916773666666664, "is_disabled": 0, "name": "504fc186741121fe2b44823a0500eb74", "fusion_lat": 0.0, "rental_uris": {"ios": "https://dc.lft.to/lastmile_qr_scan", "android": "https://dc.lft.to/lastmile_qr_scan"}, "lon": -77.0460535, "type": "electric_scooter"}, {"bike_id": "f13f3c409faf0145134a6bc0280d3347", "is_reserved": 0, "fusion_lon": 0.0, "lat": 38.902685, "is_disabled": 0, "name": "f13f3c409faf0145134a6bc0280d3347", "fusion_lat": 0.0, "rental_uris": {"ios": "https://dc.lft.to/lastmile_qr_scan", "android": "https://dc.lft.to/lastmile_qr_scan"}, "lon": -77.03666, "type": "electric_scooter"}, {"bike_id": "4e6ffcf377ed55fe9aacf1011b4e4acc", "is_reserved": 0, "fusion_lon": 0.0, "lat": 38.88220283333333, "is_disabled": 0, "name": "4e6ffcf377ed55fe9aacf1011b4e4acc", "fusion_lat": 0.0, "rental_uris": {"ios": "https://dc.lft.to/lastmile_qr_scan", "android": "https://dc.lft.to/lastmile_qr_scan"}, "lon": -76.94181583333334, "type": "electric_scooter"}, {"bike_id": "788527e6649b9f36cb6a6652afbfb96b", "is_reserved": 0, "fusion_lon": 0.0, "lat": 38.903140666666665, "is_disabled": 0, "name": "788527e6649b9f36cb6a6652afbfb96b", "fusion_lat": 0.0, "rental_uris": {"ios": "https://dc.lft.to/lastmile_qr_scan", "android": "https://dc.lft.to/lastmile_qr_scan"}, "lon": -77.03446716666667, "type": "electric_scooter"}, {"bike_id": "747e377fe289f6f232a7d82295d3311a", "is_reserved": 0, "fusion_lon": 0.0, "lat": 38.93121083333333, "is_disabled": 0, "name": "747e377fe289f6f232a7d82295d3311a", "fusion_lat": 0.0, "rental_uris": {"ios": "https://dc.lft.to/lastmile_qr_scan", "android": "https://dc.lft.to/lastmile_qr_scan"}, "lon": -77.03825733333333, "type": "electric_scooter"}, {"bike_id": "4440738d706d81c216876ae1ef73de4c", "is_reserved": 0, "fusion_lon": 0.0, "lat": 38.903311333333335, "is_disabled": 0, "name": "4440738d706d81c216876ae1ef73de4c", "fusion_lat": 0.0, "rental_uris": {"ios": "https://dc.lft.to/lastmile_qr_scan", "android": "https://dc.lft.to/lastmile_qr_scan"}, "lon": -76.98968716666667, "type": "electric_scooter"}, {"bike_id": "c53132915353f3f1a2d2a2b4a068c0b0", "is_reserved": 0, "fusion_lon": 0.0, "lat": 38.898076833333334, "is_disabled": 0, "name": "c53132915353f3f1a2d2a2b4a068c0b0", "fusion_lat": 0.0, "rental_uris": {"ios": "https://dc.lft.to/lastmile_qr_scan", "android": "https://dc.lft.to/lastmile_qr_scan"}, "lon": -77.0329545, "type": "electric_scooter"}, {"bike_id": "97c41e70d33b464911ac9cc2e493bc7b", "is_reserved": 0, "fusion_lon": 0.0, "lat": 38.87636283333333, "is_disabled": 0, "name": "97c41e70d33b464911ac9cc2e493bc7b", "fusion_lat": 0.0, "rental_uris": {"ios": "https://dc.lft.to/lastmile_qr_scan", "android": "https://dc.lft.to/lastmile_qr_scan"}, "lon": -76.99590483333333, "type": "electric_scooter"}, {"bike_id": "e52df69cd670d5cb3bf65f4415460975", "is_reserved": 0, "fusion_lon": 0.0, "lat": 38.902657166666664, "is_disabled": 0, "name": "e52df69cd670d5cb3bf65f4415460975", "fusion_lat": 0.0, "rental_uris": {"ios": "https://dc.lft.to/lastmile_qr_scan", "android": "https://dc.lft.to/lastmile_qr_scan"}, "lon": -77.03847683333333, "type": "electric_scooter"}, {"bike_id": "e3d6de5c8a7e8feb8d8f54cfe2cb070b", "is_reserved": 0, "fusion_lon": 0.0, "lat": 38.914800666666665, "is_disabled": 0, "name": "e3d6de5c8a7e8feb8d8f54cfe2cb070b", "fusion_lat": 0.0, "rental_uris": {"ios": "https://dc.lft.to/lastmile_qr_scan", "android": "https://dc.lft.to/lastmile_qr_scan"}, "lon": -77.02195933333333, "type": "electric_scooter"}, {"bike_id": "2dc24d199924f6e3d00a9fdf574088e5", "is_reserved": 0, "fusion_lon": 0.0, "lat": 38.899895666666666, "is_disabled": 0, "name": "2dc24d199924f6e3d00a9fdf574088e5", "fusion_lat": 0.0, "rental_uris": {"ios": "https://dc.lft.to/lastmile_qr_scan", "android": "https://dc.lft.to/lastmile_qr_scan"}, "lon": -77.01091216666667, "type": "electric_scooter"}, {"bike_id": "74712bf9e71b6a64a387cbab08ff6d90", "is_reserved": 0, "fusion_lon": 0.0, "lat": 38.91997683333334, "is_disabled": 0, "name": "74712bf9e71b6a64a387cbab08ff6d90", "fusion_lat": 0.0, "rental_uris": {"ios": "https://dc.lft.to/lastmile_qr_scan", "android": "https://dc.lft.to/lastmile_qr_scan"}, "lon": -77.03142783333334, "type": "electric_bike"}, {"bike_id": "fe0a3db6c43ed2e525ac3070fe54579e", "is_reserved": 0, "fusion_lon": 0.0, "lat": 38.91596716666667, "is_disabled": 0, "name": "fe0a3db6c43ed2e525ac3070fe54579e", "fusion_lat": 0.0, "rental_uris": {"ios": "https://dc.lft.to/lastmile_qr_scan", "android": "https://dc.lft.to/lastmile_qr_scan"}, "lon": -77.01211933333333, "type": "electric_scooter"}, {"bike_id": "d8133722c8524779c3fd0c245b90a128", "is_reserved": 0, "fusion_lon": 0.0, "lat": 38.8981805, "is_disabled": 0, "name": "d8133722c8524779c3fd0c245b90a128", "fusion_lat": 0.0, "rental_uris": {"ios": "https://dc.lft.to/lastmile_qr_scan", "android": "https://dc.lft.to/lastmile_qr_scan"}, "lon": -77.0330125, "type": "electric_scooter"}, {"bike_id": "b41a6ed49441901b60d16882080b35fd", "is_reserved": 0, "fusion_lon": 0.0, "lat": 38.891665833333334, "is_disabled": 0, "name": "b41a6ed49441901b60d16882080b35fd", "fusion_lat": 0.0, "rental_uris": {"ios": "https://dc.lft.to/lastmile_qr_scan", "android": "https://dc.lft.to/lastmile_qr_scan"}, "lon": -77.01547633333334, "type": "electric_scooter"}, {"bike_id": "60f0d47ab53ac4c93cd50b98fefc53e7", "is_reserved": 0, "fusion_lon": 0.0, "lat": 38.88489283333333, "is_disabled": 0, "name": "60f0d47ab53ac4c93cd50b98fefc53e7", "fusion_lat": 0.0, "rental_uris": {"ios": "https://dc.lft.to/lastmile_qr_scan", "android": "https://dc.lft.to/lastmile_qr_scan"}, "lon": -77.00715566666666, "type": "electric_scooter"}, {"bike_id": "bd0703789b779e21bf044800164a01b6", "is_reserved": 0, "fusion_lon": 0.0, "lat": 38.927311, "is_disabled": 0, "name": "bd0703789b779e21bf044800164a01b6", "fusion_lat": 0.0, "rental_uris": {"ios": "https://dc.lft.to/lastmile_qr_scan", "android": "https://dc.lft.to/lastmile_qr_scan"}, "lon": -77.033567, "type": "electric_scooter"}, {"bike_id": "1badddcfc754a510d147b35616572ce8", "is_reserved": 0, "fusion_lon": 0.0, "lat": 38.91886316666667, "is_disabled": 0, "name": "1badddcfc754a510d147b35616572ce8", "fusion_lat": 0.0, "rental_uris": {"ios": "https://dc.lft.to/lastmile_qr_scan", "android": "https://dc.lft.to/lastmile_qr_scan"}, "lon": -77.01963033333334, "type": "electric_scooter"}, {"bike_id": "2868f25309ea1080f017f2784030fdd7", "is_reserved": 0, "fusion_lon": 0.0, "lat": 38.91842033333333, "is_disabled": 0, "name": "2868f25309ea1080f017f2784030fdd7", "fusion_lat": 0.0, "rental_uris": {"ios": "https://dc.lft.to/lastmile_qr_scan", "android": "https://dc.lft.to/lastmile_qr_scan"}, "lon": -77.0389875, "type": "electric_scooter"}, {"bike_id": "c9ab0f3263bf9431c764135c44aded96", "is_reserved": 0, "fusion_lon": 0.0, "lat": 38.9002805, "is_disabled": 0, "name": "c9ab0f3263bf9431c764135c44aded96", "fusion_lat": 0.0, "rental_uris": {"ios": "https://dc.lft.to/lastmile_qr_scan", "android": "https://dc.lft.to/lastmile_qr_scan"}, "lon": -77.00206583333333, "type": "electric_scooter"}, {"bike_id": "7e4e13eb6e7ba364eabd3c1542377255", "is_reserved": 0, "fusion_lon": 0.0, "lat": 38.918024833333334, "is_disabled": 0, "name": "7e4e13eb6e7ba364eabd3c1542377255", "fusion_lat": 0.0, "rental_uris": {"ios": "https://dc.lft.to/lastmile_qr_scan", "android": "https://dc.lft.to/lastmile_qr_scan"}, "lon": -77.0356595, "type": "electric_scooter"}, {"bike_id": "589b8c706726e4a183d31e6b1db8059a", "is_reserved": 0, "fusion_lon": 0.0, "lat": 38.93165716666667, "is_disabled": 0, "name": "589b8c706726e4a183d31e6b1db8059a", "fusion_lat": 0.0, "rental_uris": {"ios": "https://dc.lft.to/lastmile_qr_scan", "android": "https://dc.lft.to/lastmile_qr_scan"}, "lon": -77.05634, "type": "electric_scooter"}, {"bike_id": "16033818ad57c353edf4ca31b26429f5", "is_reserved": 0, "fusion_lon": 0.0, "lat": 38.90226033333333, "is_disabled": 0, "name": "16033818ad57c353edf4ca31b26429f5", "fusion_lat": 0.0, "rental_uris": {"ios": "https://dc.lft.to/lastmile_qr_scan", "android": "https://dc.lft.to/lastmile_qr_scan"}, "lon": -77.06062116666666, "type": "electric_scooter"}, {"bike_id": "09c5b0e3985ecc98e6cc730003f16892", "is_reserved": 0, "fusion_lon": 0.0, "lat": 38.923935166666666, "is_disabled": 0, "name": "09c5b0e3985ecc98e6cc730003f16892", "fusion_lat": 0.0, "rental_uris": {"ios": "https://dc.lft.to/lastmile_qr_scan", "android": "https://dc.lft.to/lastmile_qr_scan"}, "lon": -77.0428675, "type": "electric_scooter"}, {"bike_id": "ee6d665626aee2e77fab96b72a338cfd", "is_reserved": 0, "fusion_lon": 0.0, "lat": 38.92964283333333, "is_disabled": 0, "name": "ee6d665626aee2e77fab96b72a338cfd", "fusion_lat": 0.0, "rental_uris": {"ios": "https://dc.lft.to/lastmile_qr_scan", "android": "https://dc.lft.to/lastmile_qr_scan"}, "lon": -77.00534, "type": "electric_scooter"}, {"bike_id": "dc65359c0121324cd4cb5455b3343886", "is_reserved": 0, "fusion_lon": 0.0, "lat": 38.88770133333333, "is_disabled": 0, "name": "dc65359c0121324cd4cb5455b3343886", "fusion_lat": 0.0, "rental_uris": {"ios": "https://dc.lft.to/lastmile_qr_scan", "android": "https://dc.lft.to/lastmile_qr_scan"}, "lon": -76.93264433333333, "type": "electric_scooter"}, {"bike_id": "3359cdb1335a26d40cec65ab6e56e375", "is_reserved": 0, "fusion_lon": 0.0, "lat": 38.90739466666667, "is_disabled": 0, "name": "3359cdb1335a26d40cec65ab6e56e375", "fusion_lat": 0.0, "rental_uris": {"ios": "https://dc.lft.to/lastmile_qr_scan", "android": "https://dc.lft.to/lastmile_qr_scan"}, "lon": -77.024093, "type": "electric_scooter"}, {"bike_id": "90a792286b9a3994f760a817ef6e30f9", "is_reserved": 0, "fusion_lon": 0.0, "lat": 38.9027375, "is_disabled": 0, "name": "90a792286b9a3994f760a817ef6e30f9", "fusion_lat": 0.0, "rental_uris": {"ios": "https://dc.lft.to/lastmile_qr_scan", "android": "https://dc.lft.to/lastmile_qr_scan"}, "lon": -77.03853766666667, "type": "electric_scooter"}, {"bike_id": "217e749d22774d4acf7767d6d191eecf", "is_reserved": 0, "fusion_lon": 0.0, "lat": 38.89780983333333, "is_disabled": 0, "name": "217e749d22774d4acf7767d6d191eecf", "fusion_lat": 0.0, "rental_uris": {"ios": "https://dc.lft.to/lastmile_qr_scan", "android": "https://dc.lft.to/lastmile_qr_scan"}, "lon": -77.05474266666667, "type": "electric_scooter"}, {"bike_id": "ea68bd24089b63e84ee3c3f72a7519be", "is_reserved": 0, "fusion_lon": 0.0, "lat": 38.890953333333336, "is_disabled": 0, "name": "ea68bd24089b63e84ee3c3f72a7519be", "fusion_lat": 0.0, "rental_uris": {"ios": "https://dc.lft.to/lastmile_qr_scan", "android": "https://dc.lft.to/lastmile_qr_scan"}, "lon": -76.94388116666667, "type": "electric_scooter"}, {"bike_id": "cc54a9ccb54fb5b64f879fe2baff702e", "is_reserved": 0, "fusion_lon": 0.0, "lat": 38.8967195, "is_disabled": 0, "name": "cc54a9ccb54fb5b64f879fe2baff702e", "fusion_lat": 0.0, "rental_uris": {"ios": "https://dc.lft.to/lastmile_qr_scan", "android": "https://dc.lft.to/lastmile_qr_scan"}, "lon": -77.02618, "type": "electric_scooter"}, {"bike_id": "ce553503eedac76136c0835d15df5ef5", "is_reserved": 0, "fusion_lon": 0.0, "lat": 38.89829483333333, "is_disabled": 0, "name": "ce553503eedac76136c0835d15df5ef5", "fusion_lat": 0.0, "rental_uris": {"ios": "https://dc.lft.to/lastmile_qr_scan", "android": "https://dc.lft.to/lastmile_qr_scan"}, "lon": -76.9465135, "type": "electric_scooter"}, {"bike_id": "2f737de8b387a7d5ca689578ae54b4a4", "is_reserved": 0, "fusion_lon": 0.0, "lat": 38.8982285, "is_disabled": 0, "name": "2f737de8b387a7d5ca689578ae54b4a4", "fusion_lat": 0.0, "rental_uris": {"ios": "https://dc.lft.to/lastmile_qr_scan", "android": "https://dc.lft.to/lastmile_qr_scan"}, "lon": -76.94655683333333, "type": "electric_scooter"}, {"bike_id": "1b388f5e51d6c7ed57152362a4c96034", "is_reserved": 0, "fusion_lon": 0.0, "lat": 38.92366716666667, "is_disabled": 0, "name": "1b388f5e51d6c7ed57152362a4c96034", "fusion_lat": 0.0, "rental_uris": {"ios": "https://dc.lft.to/lastmile_qr_scan", "android": "https://dc.lft.to/lastmile_qr_scan"}, "lon": -77.0191605, "type": "electric_scooter"}, {"bike_id": "025c9dbac65ff4fae546c4d08a869fc5", "is_reserved": 0, "fusion_lon": 0.0, "lat": 38.838097166666664, "is_disabled": 0, "name": "025c9dbac65ff4fae546c4d08a869fc5", "fusion_lat": 0.0, "rental_uris": {"ios": "https://dc.lft.to/lastmile_qr_scan", "android": "https://dc.lft.to/lastmile_qr_scan"}, "lon": -77.09521833333334, "type": "electric_bike"}, {"bike_id": "f98a2854b302756b8f49fa227c3b9286", "is_reserved": 0, "fusion_lon": 0.0, "lat": 38.838268166666666, "is_disabled": 0, "name": "f98a2854b302756b8f49fa227c3b9286", "fusion_lat": 0.0, "rental_uris": {"ios": "https://dc.lft.to/lastmile_qr_scan", "android": "https://dc.lft.to/lastmile_qr_scan"}, "lon": -76.99687083333333, "type": "electric_bike"}, {"bike_id": "62242339f8a034486e0c24aee971169d", "is_reserved": 0, "fusion_lon": 0.0, "lat": 38.93294916666667, "is_disabled": 0, "name": "62242339f8a034486e0c24aee971169d", "fusion_lat": 0.0, "rental_uris": {"ios": "https://dc.lft.to/lastmile_qr_scan", "android": "https://dc.lft.to/lastmile_qr_scan"}, "lon": -77.03980733333333, "type": "electric_scooter"}, {"bike_id": "8a1ca3abd74119cecb36d4ce1f3a7a6e", "is_reserved": 0, "fusion_lon": 0.0, "lat": 38.876276, "is_disabled": 0, "name": "8a1ca3abd74119cecb36d4ce1f3a7a6e", "fusion_lat": 0.0, "rental_uris": {"ios": "https://dc.lft.to/lastmile_qr_scan", "android": "https://dc.lft.to/lastmile_qr_scan"}, "lon": -76.96526433333334, "type": "electric_scooter"}, {"bike_id": "0d7d15a47b08089162c3b5365ce5b83d", "is_reserved": 0, "fusion_lon": 0.0, "lat": 38.8652, "is_disabled": 0, "name": "0d7d15a47b08089162c3b5365ce5b83d", "fusion_lat": 0.0, "rental_uris": {"ios": "https://dc.lft.to/lastmile_qr_scan", "android": "https://dc.lft.to/lastmile_qr_scan"}, "lon": -76.990304, "type": "electric_scooter"}, {"bike_id": "2d14113a5a391c656823d3f644c04fea", "is_reserved": 0, "fusion_lon": 0.0, "lat": 38.93333666666667, "is_disabled": 0, "name": "2d14113a5a391c656823d3f644c04fea", "fusion_lat": 0.0, "rental_uris": {"ios": "https://dc.lft.to/lastmile_qr_scan", "android": "https://dc.lft.to/lastmile_qr_scan"}, "lon": -77.03286933333334, "type": "electric_scooter"}, {"bike_id": "d174a0bbd159b039cb701439e622e2f8", "is_reserved": 0, "fusion_lon": 0.0, "lat": 38.9287365, "is_disabled": 0, "name": "d174a0bbd159b039cb701439e622e2f8", "fusion_lat": 0.0, "rental_uris": {"ios": "https://dc.lft.to/lastmile_qr_scan", "android": "https://dc.lft.to/lastmile_qr_scan"}, "lon": -77.01359133333334, "type": "electric_scooter"}, {"bike_id": "f9fdce8b60395a51d6296d3d92cbdbf5", "is_reserved": 0, "fusion_lon": 0.0, "lat": 38.92765833333333, "is_disabled": 0, "name": "f9fdce8b60395a51d6296d3d92cbdbf5", "fusion_lat": 0.0, "rental_uris": {"ios": "https://dc.lft.to/lastmile_qr_scan", "android": "https://dc.lft.to/lastmile_qr_scan"}, "lon": -77.07309566666666, "type": "electric_scooter"}, {"bike_id": "af6aaf5a5449977c70a47531119528b7", "is_reserved": 0, "fusion_lon": 0.0, "lat": 38.938780333333334, "is_disabled": 0, "name": "af6aaf5a5449977c70a47531119528b7", "fusion_lat": 0.0, "rental_uris": {"ios": "https://dc.lft.to/lastmile_qr_scan", "android": "https://dc.lft.to/lastmile_qr_scan"}, "lon": -77.02482683333334, "type": "electric_scooter"}, {"bike_id": "b2c46882144a381e526a2c534b467d1c", "is_reserved": 0, "fusion_lon": 0.0, "lat": 38.896122166666665, "is_disabled": 0, "name": "b2c46882144a381e526a2c534b467d1c", "fusion_lat": 0.0, "rental_uris": {"ios": "https://dc.lft.to/lastmile_qr_scan", "android": "https://dc.lft.to/lastmile_qr_scan"}, "lon": -77.04460083333333, "type": "electric_scooter"}, {"bike_id": "08584f17698c37aad8c46aaf8bfad47d", "is_reserved": 0, "fusion_lon": 0.0, "lat": 38.8869045, "is_disabled": 0, "name": "08584f17698c37aad8c46aaf8bfad47d", "fusion_lat": 0.0, "rental_uris": {"ios": "https://dc.lft.to/lastmile_qr_scan", "android": "https://dc.lft.to/lastmile_qr_scan"}, "lon": -76.957603, "type": "electric_scooter"}, {"bike_id": "84f764298633aa76bc89da82e560a7c7", "is_reserved": 0, "fusion_lon": 0.0, "lat": 38.89612483333333, "is_disabled": 0, "name": "84f764298633aa76bc89da82e560a7c7", "fusion_lat": 0.0, "rental_uris": {"ios": "https://dc.lft.to/lastmile_qr_scan", "android": "https://dc.lft.to/lastmile_qr_scan"}, "lon": -77.02307083333334, "type": "electric_scooter"}, {"bike_id": "f583a3602cd4ea66e1ce97e65842948a", "is_reserved": 0, "fusion_lon": 0.0, "lat": 38.897387, "is_disabled": 0, "name": "f583a3602cd4ea66e1ce97e65842948a", "fusion_lat": 0.0, "rental_uris": {"ios": "https://dc.lft.to/lastmile_qr_scan", "android": "https://dc.lft.to/lastmile_qr_scan"}, "lon": -76.93846666666667, "type": "electric_scooter"}, {"bike_id": "3b2b63f55572981b8abfc6fa8b5abb3c", "is_reserved": 0, "fusion_lon": 0.0, "lat": 38.89523066666667, "is_disabled": 0, "name": "3b2b63f55572981b8abfc6fa8b5abb3c", "fusion_lat": 0.0, "rental_uris": {"ios": "https://dc.lft.to/lastmile_qr_scan", "android": "https://dc.lft.to/lastmile_qr_scan"}, "lon": -77.003457, "type": "electric_scooter"}, {"bike_id": "5f123d0fdaae31764aa795024424b89a", "is_reserved": 0, "fusion_lon": 0.0, "lat": 38.9049495, "is_disabled": 0, "name": "5f123d0fdaae31764aa795024424b89a", "fusion_lat": 0.0, "rental_uris": {"ios": "https://dc.lft.to/lastmile_qr_scan", "android": "https://dc.lft.to/lastmile_qr_scan"}, "lon": -77.028222, "type": "electric_scooter"}, {"bike_id": "c20be68742187579a4ca7e886daa3f46", "is_reserved": 0, "fusion_lon": 0.0, "lat": 38.90087616666667, "is_disabled": 0, "name": "c20be68742187579a4ca7e886daa3f46", "fusion_lat": 0.0, "rental_uris": {"ios": "https://dc.lft.to/lastmile_qr_scan", "android": "https://dc.lft.to/lastmile_qr_scan"}, "lon": -77.01922616666667, "type": "electric_scooter"}, {"bike_id": "ca7f481b585164d6a55ae7c4729cc25a", "is_reserved": 0, "fusion_lon": 0.0, "lat": 38.90126383333333, "is_disabled": 0, "name": "ca7f481b585164d6a55ae7c4729cc25a", "fusion_lat": 0.0, "rental_uris": {"ios": "https://dc.lft.to/lastmile_qr_scan", "android": "https://dc.lft.to/lastmile_qr_scan"}, "lon": -77.03321466666667, "type": "electric_scooter"}, {"bike_id": "e8b67fa04fc4a3e2e529d706587d065d", "is_reserved": 0, "fusion_lon": 0.0, "lat": 38.924792833333335, "is_disabled": 0, "name": "e8b67fa04fc4a3e2e529d706587d065d", "fusion_lat": 0.0, "rental_uris": {"ios": "https://dc.lft.to/lastmile_qr_scan", "android": "https://dc.lft.to/lastmile_qr_scan"}, "lon": -77.02645583333333, "type": "electric_scooter"}, {"bike_id": "10333790e115b373fd373f6e9b1050c7", "is_reserved": 0, "fusion_lon": 0.0, "lat": 38.8372775, "is_disabled": 0, "name": "10333790e115b373fd373f6e9b1050c7", "fusion_lat": 0.0, "rental_uris": {"ios": "https://dc.lft.to/lastmile_qr_scan", "android": "https://dc.lft.to/lastmile_qr_scan"}, "lon": -76.99748316666667, "type": "electric_bike"}, {"bike_id": "161124efb41e2d233f5504da49bae569", "is_reserved": 0, "fusion_lon": 0.0, "lat": 38.885146166666665, "is_disabled": 0, "name": "161124efb41e2d233f5504da49bae569", "fusion_lat": 0.0, "rental_uris": {"ios": "https://dc.lft.to/lastmile_qr_scan", "android": "https://dc.lft.to/lastmile_qr_scan"}, "lon": -77.00573033333333, "type": "electric_scooter"}, {"bike_id": "65469917b8082d563c751fd49907bad4", "is_reserved": 0, "fusion_lon": 0.0, "lat": 38.89478583333333, "is_disabled": 0, "name": "65469917b8082d563c751fd49907bad4", "fusion_lat": 0.0, "rental_uris": {"ios": "https://dc.lft.to/lastmile_qr_scan", "android": "https://dc.lft.to/lastmile_qr_scan"}, "lon": -76.94872716666667, "type": "electric_scooter"}, {"bike_id": "36c1e5685c42a66a430c7b72ff52276e", "is_reserved": 0, "fusion_lon": 0.0, "lat": 38.9396885, "is_disabled": 0, "name": "36c1e5685c42a66a430c7b72ff52276e", "fusion_lat": 0.0, "rental_uris": {"ios": "https://dc.lft.to/lastmile_qr_scan", "android": "https://dc.lft.to/lastmile_qr_scan"}, "lon": -77.03263866666667, "type": "electric_scooter"}, {"bike_id": "25d5088b7ba7e30e296535dc49b103e0", "is_reserved": 0, "fusion_lon": 0.0, "lat": 38.950697166666664, "is_disabled": 0, "name": "25d5088b7ba7e30e296535dc49b103e0", "fusion_lat": 0.0, "rental_uris": {"ios": "https://dc.lft.to/lastmile_qr_scan", "android": "https://dc.lft.to/lastmile_qr_scan"}, "lon": -77.012055, "type": "electric_bike"}, {"bike_id": "2e4cc8ba26d52c5e949b701bd5251921", "is_reserved": 0, "fusion_lon": 0.0, "lat": 38.90033583333334, "is_disabled": 0, "name": "2e4cc8ba26d52c5e949b701bd5251921", "fusion_lat": 0.0, "rental_uris": {"ios": "https://dc.lft.to/lastmile_qr_scan", "android": "https://dc.lft.to/lastmile_qr_scan"}, "lon": -77.00202333333333, "type": "electric_scooter"}, {"bike_id": "c00935cea64dde74655f4439d575190a", "is_reserved": 0, "fusion_lon": 0.0, "lat": 38.9286215, "is_disabled": 0, "name": "c00935cea64dde74655f4439d575190a", "fusion_lat": 0.0, "rental_uris": {"ios": "https://dc.lft.to/lastmile_qr_scan", "android": "https://dc.lft.to/lastmile_qr_scan"}, "lon": -77.01394933333333, "type": "electric_scooter"}, {"bike_id": "7e37d7d4b892cd86847885daa5406eed", "is_reserved": 0, "fusion_lon": 0.0, "lat": 38.8313905, "is_disabled": 0, "name": "7e37d7d4b892cd86847885daa5406eed", "fusion_lat": 0.0, "rental_uris": {"ios": "https://dc.lft.to/lastmile_qr_scan", "android": "https://dc.lft.to/lastmile_qr_scan"}, "lon": -77.113218, "type": "electric_bike"}, {"bike_id": "8738618ef0ad8401b460745b92c5d549", "is_reserved": 0, "fusion_lon": 0.0, "lat": 38.907397, "is_disabled": 0, "name": "8738618ef0ad8401b460745b92c5d549", "fusion_lat": 0.0, "rental_uris": {"ios": "https://dc.lft.to/lastmile_qr_scan", "android": "https://dc.lft.to/lastmile_qr_scan"}, "lon": -77.02417083333333, "type": "electric_scooter"}, {"bike_id": "8d93033f32ace339eab17a613c5ddf97", "is_reserved": 0, "fusion_lon": 0.0, "lat": 38.93720833333333, "is_disabled": 0, "name": "8d93033f32ace339eab17a613c5ddf97", "fusion_lat": 0.0, "rental_uris": {"ios": "https://dc.lft.to/lastmile_qr_scan", "android": "https://dc.lft.to/lastmile_qr_scan"}, "lon": -77.02938783333333, "type": "electric_scooter"}, {"bike_id": "c602ed21bf112fc9aeeb9bf85d97ee81", "is_reserved": 0, "fusion_lon": 0.0, "lat": 38.906014, "is_disabled": 0, "name": "c602ed21bf112fc9aeeb9bf85d97ee81", "fusion_lat": 0.0, "rental_uris": {"ios": "https://dc.lft.to/lastmile_qr_scan", "android": "https://dc.lft.to/lastmile_qr_scan"}, "lon": -77.05104466666667, "type": "electric_scooter"}, {"bike_id": "e21763cff283d1538ab3a6d8540ca6b8", "is_reserved": 0, "fusion_lon": 0.0, "lat": 38.916928, "is_disabled": 0, "name": "e21763cff283d1538ab3a6d8540ca6b8", "fusion_lat": 0.0, "rental_uris": {"ios": "https://dc.lft.to/lastmile_qr_scan", "android": "https://dc.lft.to/lastmile_qr_scan"}, "lon": -77.03119716666667, "type": "electric_scooter"}, {"bike_id": "53f2de64b5f8b3d86eb486df6cb9c875", "is_reserved": 0, "fusion_lon": 0.0, "lat": 38.89830116666667, "is_disabled": 0, "name": "53f2de64b5f8b3d86eb486df6cb9c875", "fusion_lat": 0.0, "rental_uris": {"ios": "https://dc.lft.to/lastmile_qr_scan", "android": "https://dc.lft.to/lastmile_qr_scan"}, "lon": -77.00743716666666, "type": "electric_scooter"}, {"bike_id": "63fbc5e972782c9e250a517d648adc04", "is_reserved": 0, "fusion_lon": 0.0, "lat": 38.923587166666664, "is_disabled": 0, "name": "63fbc5e972782c9e250a517d648adc04", "fusion_lat": 0.0, "rental_uris": {"ios": "https://dc.lft.to/lastmile_qr_scan", "android": "https://dc.lft.to/lastmile_qr_scan"}, "lon": -77.052428, "type": "electric_scooter"}, {"bike_id": "fd10ac55b34255e3e947dd6b1df31af6", "is_reserved": 0, "fusion_lon": 0.0, "lat": 38.90475333333333, "is_disabled": 0, "name": "fd10ac55b34255e3e947dd6b1df31af6", "fusion_lat": 0.0, "rental_uris": {"ios": "https://dc.lft.to/lastmile_qr_scan", "android": "https://dc.lft.to/lastmile_qr_scan"}, "lon": -77.040332, "type": "electric_scooter"}, {"bike_id": "249724357547e4799720e52664373c87", "is_reserved": 0, "fusion_lon": 0.0, "lat": 38.93430733333334, "is_disabled": 0, "name": "249724357547e4799720e52664373c87", "fusion_lat": 0.0, "rental_uris": {"ios": "https://dc.lft.to/lastmile_qr_scan", "android": "https://dc.lft.to/lastmile_qr_scan"}, "lon": -77.03996683333334, "type": "electric_scooter"}, {"bike_id": "184200300c8edc75a1fecc464db2e729", "is_reserved": 0, "fusion_lon": 0.0, "lat": 38.89810383333333, "is_disabled": 0, "name": "184200300c8edc75a1fecc464db2e729", "fusion_lat": 0.0, "rental_uris": {"ios": "https://dc.lft.to/lastmile_qr_scan", "android": "https://dc.lft.to/lastmile_qr_scan"}, "lon": -77.010748, "type": "electric_scooter"}, {"bike_id": "4b0cca05f48c5e0b1c57b3dcf7f52fb9", "is_reserved": 0, "fusion_lon": 0.0, "lat": 38.929617666666665, "is_disabled": 0, "name": "4b0cca05f48c5e0b1c57b3dcf7f52fb9", "fusion_lat": 0.0, "rental_uris": {"ios": "https://dc.lft.to/lastmile_qr_scan", "android": "https://dc.lft.to/lastmile_qr_scan"}, "lon": -77.01148433333333, "type": "electric_scooter"}, {"bike_id": "f6f5f41917b29c954febb75d5c7075a6", "is_reserved": 0, "fusion_lon": 0.0, "lat": 38.905254666666664, "is_disabled": 0, "name": "f6f5f41917b29c954febb75d5c7075a6", "fusion_lat": 0.0, "rental_uris": {"ios": "https://dc.lft.to/lastmile_qr_scan", "android": "https://dc.lft.to/lastmile_qr_scan"}, "lon": -77.05767783333333, "type": "electric_scooter"}, {"bike_id": "ec2f5d9ca8afadcf24e8228128e737db", "is_reserved": 0, "fusion_lon": 0.0, "lat": 38.863693166666664, "is_disabled": 0, "name": "ec2f5d9ca8afadcf24e8228128e737db", "fusion_lat": 0.0, "rental_uris": {"ios": "https://dc.lft.to/lastmile_qr_scan", "android": "https://dc.lft.to/lastmile_qr_scan"}, "lon": -77.01357016666667, "type": "electric_scooter"}, {"bike_id": "28f9c84a3079b852ab0b5a74e3ca6776", "is_reserved": 0, "fusion_lon": 0.0, "lat": 38.91796983333333, "is_disabled": 0, "name": "28f9c84a3079b852ab0b5a74e3ca6776", "fusion_lat": 0.0, "rental_uris": {"ios": "https://dc.lft.to/lastmile_qr_scan", "android": "https://dc.lft.to/lastmile_qr_scan"}, "lon": -77.03449166666667, "type": "electric_scooter"}, {"bike_id": "da114db473d828a761e63d2fa7a616a8", "is_reserved": 0, "fusion_lon": 0.0, "lat": 38.90868866666667, "is_disabled": 0, "name": "da114db473d828a761e63d2fa7a616a8", "fusion_lat": 0.0, "rental_uris": {"ios": "https://dc.lft.to/lastmile_qr_scan", "android": "https://dc.lft.to/lastmile_qr_scan"}, "lon": -77.03280383333333, "type": "electric_scooter"}, {"bike_id": "5030ac02dd975c26c7e93ac17bf39be5", "is_reserved": 0, "fusion_lon": 0.0, "lat": 38.921584833333334, "is_disabled": 0, "name": "5030ac02dd975c26c7e93ac17bf39be5", "fusion_lat": 0.0, "rental_uris": {"ios": "https://dc.lft.to/lastmile_qr_scan", "android": "https://dc.lft.to/lastmile_qr_scan"}, "lon": -77.04694266666667, "type": "electric_scooter"}, {"bike_id": "bde3d9dab4fab12111cd2a24eb9d0405", "is_reserved": 0, "fusion_lon": 0.0, "lat": 38.92342333333333, "is_disabled": 0, "name": "bde3d9dab4fab12111cd2a24eb9d0405", "fusion_lat": 0.0, "rental_uris": {"ios": "https://dc.lft.to/lastmile_qr_scan", "android": "https://dc.lft.to/lastmile_qr_scan"}, "lon": -77.03513183333334, "type": "electric_scooter"}, {"bike_id": "17ccf497a0c7ef144ee883c963b1b19c", "is_reserved": 0, "fusion_lon": 0.0, "lat": 38.95624733333333, "is_disabled": 0, "name": "17ccf497a0c7ef144ee883c963b1b19c", "fusion_lat": 0.0, "rental_uris": {"ios": "https://dc.lft.to/lastmile_qr_scan", "android": "https://dc.lft.to/lastmile_qr_scan"}, "lon": -77.02782816666667, "type": "electric_scooter"}, {"bike_id": "e8705cd019d8b59761e9b79f5c35b632", "is_reserved": 0, "fusion_lon": 0.0, "lat": 38.845747333333335, "is_disabled": 0, "name": "e8705cd019d8b59761e9b79f5c35b632", "fusion_lat": 0.0, "rental_uris": {"ios": "https://dc.lft.to/lastmile_qr_scan", "android": "https://dc.lft.to/lastmile_qr_scan"}, "lon": -77.0962185, "type": "electric_bike"}, {"bike_id": "7625d91ce729fc20cacd683c16b2ddb1", "is_reserved": 0, "fusion_lon": 0.0, "lat": 38.93671416666667, "is_disabled": 0, "name": "7625d91ce729fc20cacd683c16b2ddb1", "fusion_lat": 0.0, "rental_uris": {"ios": "https://dc.lft.to/lastmile_qr_scan", "android": "https://dc.lft.to/lastmile_qr_scan"}, "lon": -77.035987, "type": "electric_scooter"}, {"bike_id": "9ad51f5cbdc0cdb3e03254c56192e135", "is_reserved": 0, "fusion_lon": 0.0, "lat": 38.9179905, "is_disabled": 0, "name": "9ad51f5cbdc0cdb3e03254c56192e135", "fusion_lat": 0.0, "rental_uris": {"ios": "https://dc.lft.to/lastmile_qr_scan", "android": "https://dc.lft.to/lastmile_qr_scan"}, "lon": -77.03435116666667, "type": "electric_scooter"}, {"bike_id": "b10c34f4f78e8cb77459436ff35495c5", "is_reserved": 0, "fusion_lon": 0.0, "lat": 38.902742333333336, "is_disabled": 0, "name": "b10c34f4f78e8cb77459436ff35495c5", "fusion_lat": 0.0, "rental_uris": {"ios": "https://dc.lft.to/lastmile_qr_scan", "android": "https://dc.lft.to/lastmile_qr_scan"}, "lon": -77.0611435, "type": "electric_scooter"}, {"bike_id": "538e913f766c80182da99f986a856ddb", "is_reserved": 0, "fusion_lon": 0.0, "lat": 38.90866716666667, "is_disabled": 0, "name": "538e913f766c80182da99f986a856ddb", "fusion_lat": 0.0, "rental_uris": {"ios": "https://dc.lft.to/lastmile_qr_scan", "android": "https://dc.lft.to/lastmile_qr_scan"}, "lon": -77.00633683333334, "type": "electric_scooter"}, {"bike_id": "4b6e49ba49b7d279fbfe5aacfafc04df", "is_reserved": 0, "fusion_lon": 0.0, "lat": 38.913987166666665, "is_disabled": 0, "name": "4b6e49ba49b7d279fbfe5aacfafc04df", "fusion_lat": 0.0, "rental_uris": {"ios": "https://dc.lft.to/lastmile_qr_scan", "android": "https://dc.lft.to/lastmile_qr_scan"}, "lon": -77.04143716666667, "type": "electric_scooter"}, {"bike_id": "49ad8e856cb74a50c46ecba490e40610", "is_reserved": 0, "fusion_lon": 0.0, "lat": 38.924034166666665, "is_disabled": 0, "name": "49ad8e856cb74a50c46ecba490e40610", "fusion_lat": 0.0, "rental_uris": {"ios": "https://dc.lft.to/lastmile_qr_scan", "android": "https://dc.lft.to/lastmile_qr_scan"}, "lon": -76.99747416666666, "type": "electric_bike"}, {"bike_id": "6918d24993c1328d6e7368ce4e9f239c", "is_reserved": 0, "fusion_lon": 0.0, "lat": 38.842907333333336, "is_disabled": 0, "name": "6918d24993c1328d6e7368ce4e9f239c", "fusion_lat": 0.0, "rental_uris": {"ios": "https://dc.lft.to/lastmile_qr_scan", "android": "https://dc.lft.to/lastmile_qr_scan"}, "lon": -76.99950333333334, "type": "electric_scooter"}, {"bike_id": "6990f065da74ef369e24a966931e33f5", "is_reserved": 0, "fusion_lon": 0.0, "lat": 38.89823833333333, "is_disabled": 0, "name": "6990f065da74ef369e24a966931e33f5", "fusion_lat": 0.0, "rental_uris": {"ios": "https://dc.lft.to/lastmile_qr_scan", "android": "https://dc.lft.to/lastmile_qr_scan"}, "lon": -77.00756683333333, "type": "electric_scooter"}, {"bike_id": "adb3747e93d3867c3580c593d3bccc91", "is_reserved": 0, "fusion_lon": 0.0, "lat": 38.9138355, "is_disabled": 0, "name": "adb3747e93d3867c3580c593d3bccc91", "fusion_lat": 0.0, "rental_uris": {"ios": "https://dc.lft.to/lastmile_qr_scan", "android": "https://dc.lft.to/lastmile_qr_scan"}, "lon": -77.01796583333334, "type": "electric_scooter"}, {"bike_id": "a6ed695c49a328c54ee83cb951340eba", "is_reserved": 0, "fusion_lon": 0.0, "lat": 38.923212, "is_disabled": 0, "name": "a6ed695c49a328c54ee83cb951340eba", "fusion_lat": 0.0, "rental_uris": {"ios": "https://dc.lft.to/lastmile_qr_scan", "android": "https://dc.lft.to/lastmile_qr_scan"}, "lon": -77.044778, "type": "electric_scooter"}, {"bike_id": "ad1635be8b6ad995293055c5453803d0", "is_reserved": 0, "fusion_lon": 0.0, "lat": 38.900923166666665, "is_disabled": 0, "name": "ad1635be8b6ad995293055c5453803d0", "fusion_lat": 0.0, "rental_uris": {"ios": "https://dc.lft.to/lastmile_qr_scan", "android": "https://dc.lft.to/lastmile_qr_scan"}, "lon": -77.049043, "type": "electric_scooter"}, {"bike_id": "93e9ca9e47efd151819a6319d69518c3", "is_reserved": 0, "fusion_lon": 0.0, "lat": 38.9232975, "is_disabled": 0, "name": "93e9ca9e47efd151819a6319d69518c3", "fusion_lat": 0.0, "rental_uris": {"ios": "https://dc.lft.to/lastmile_qr_scan", "android": "https://dc.lft.to/lastmile_qr_scan"}, "lon": -77.03894966666667, "type": "electric_scooter"}, {"bike_id": "61732541c659ed29263b4600875a444f", "is_reserved": 0, "fusion_lon": 0.0, "lat": 38.9218655, "is_disabled": 0, "name": "61732541c659ed29263b4600875a444f", "fusion_lat": 0.0, "rental_uris": {"ios": "https://dc.lft.to/lastmile_qr_scan", "android": "https://dc.lft.to/lastmile_qr_scan"}, "lon": -77.04133516666667, "type": "electric_scooter"}, {"bike_id": "95c0ab6f0e28d2a44ed60f16053150a2", "is_reserved": 0, "fusion_lon": 0.0, "lat": 38.90308866666667, "is_disabled": 0, "name": "95c0ab6f0e28d2a44ed60f16053150a2", "fusion_lat": 0.0, "rental_uris": {"ios": "https://dc.lft.to/lastmile_qr_scan", "android": "https://dc.lft.to/lastmile_qr_scan"}, "lon": -77.04350583333333, "type": "electric_scooter"}, {"bike_id": "360c472bbfad07154a172690e71ee87e", "is_reserved": 0, "fusion_lon": 0.0, "lat": 38.90521066666667, "is_disabled": 0, "name": "360c472bbfad07154a172690e71ee87e", "fusion_lat": 0.0, "rental_uris": {"ios": "https://dc.lft.to/lastmile_qr_scan", "android": "https://dc.lft.to/lastmile_qr_scan"}, "lon": -77.06867466666667, "type": "electric_scooter"}, {"bike_id": "016d9071d303a2fec8c336b443ae9a4f", "is_reserved": 0, "fusion_lon": 0.0, "lat": 38.92492433333334, "is_disabled": 0, "name": "016d9071d303a2fec8c336b443ae9a4f", "fusion_lat": 0.0, "rental_uris": {"ios": "https://dc.lft.to/lastmile_qr_scan", "android": "https://dc.lft.to/lastmile_qr_scan"}, "lon": -77.0271545, "type": "electric_scooter"}, {"bike_id": "f919763d6bb7d5a6a700326efe8e104a", "is_reserved": 0, "fusion_lon": 0.0, "lat": 38.90125583333333, "is_disabled": 0, "name": "f919763d6bb7d5a6a700326efe8e104a", "fusion_lat": 0.0, "rental_uris": {"ios": "https://dc.lft.to/lastmile_qr_scan", "android": "https://dc.lft.to/lastmile_qr_scan"}, "lon": -77.04466666666667, "type": "electric_scooter"}, {"bike_id": "13aa802101b833d0dd68b30416285ba1", "is_reserved": 0, "fusion_lon": 0.0, "lat": 38.898071333333334, "is_disabled": 0, "name": "13aa802101b833d0dd68b30416285ba1", "fusion_lat": 0.0, "rental_uris": {"ios": "https://dc.lft.to/lastmile_qr_scan", "android": "https://dc.lft.to/lastmile_qr_scan"}, "lon": -77.032997, "type": "electric_scooter"}, {"bike_id": "ecf8260e0e97e1877cf2201ad0242ad7", "is_reserved": 0, "fusion_lon": 0.0, "lat": 38.89388783333333, "is_disabled": 0, "name": "ecf8260e0e97e1877cf2201ad0242ad7", "fusion_lat": 0.0, "rental_uris": {"ios": "https://dc.lft.to/lastmile_qr_scan", "android": "https://dc.lft.to/lastmile_qr_scan"}, "lon": -77.02254566666667, "type": "electric_bike"}, {"bike_id": "6698d615a47205dedadc1bb44eac4cd4", "is_reserved": 0, "fusion_lon": 0.0, "lat": 38.93254783333333, "is_disabled": 0, "name": "6698d615a47205dedadc1bb44eac4cd4", "fusion_lat": 0.0, "rental_uris": {"ios": "https://dc.lft.to/lastmile_qr_scan", "android": "https://dc.lft.to/lastmile_qr_scan"}, "lon": -77.03271016666666, "type": "electric_scooter"}, {"bike_id": "6a3ed28469ef716797035d9b104763a2", "is_reserved": 0, "fusion_lon": 0.0, "lat": 38.9224145, "is_disabled": 0, "name": "6a3ed28469ef716797035d9b104763a2", "fusion_lat": 0.0, "rental_uris": {"ios": "https://dc.lft.to/lastmile_qr_scan", "android": "https://dc.lft.to/lastmile_qr_scan"}, "lon": -77.01008216666666, "type": "electric_scooter"}, {"bike_id": "1f268b280123b60a952fc20a2066fc58", "is_reserved": 0, "fusion_lon": 0.0, "lat": 38.91194016666667, "is_disabled": 0, "name": "1f268b280123b60a952fc20a2066fc58", "fusion_lat": 0.0, "rental_uris": {"ios": "https://dc.lft.to/lastmile_qr_scan", "android": "https://dc.lft.to/lastmile_qr_scan"}, "lon": -77.00217416666666, "type": "electric_scooter"}, {"bike_id": "117c52c9609a73f8fa6edce91e5af4b1", "is_reserved": 0, "fusion_lon": 0.0, "lat": 38.902732666666665, "is_disabled": 0, "name": "117c52c9609a73f8fa6edce91e5af4b1", "fusion_lat": 0.0, "rental_uris": {"ios": "https://dc.lft.to/lastmile_qr_scan", "android": "https://dc.lft.to/lastmile_qr_scan"}, "lon": -77.059107, "type": "electric_scooter"}, {"bike_id": "cbba36b0c5a2c359a755a46017bdb3af", "is_reserved": 0, "fusion_lon": 0.0, "lat": 38.9068505, "is_disabled": 0, "name": "cbba36b0c5a2c359a755a46017bdb3af", "fusion_lat": 0.0, "rental_uris": {"ios": "https://dc.lft.to/lastmile_qr_scan", "android": "https://dc.lft.to/lastmile_qr_scan"}, "lon": -77.01347016666666, "type": "electric_scooter"},