{"data": {"bikes": [{"is_reserved": 0, "lat": 38.92818716666667, "rental_uris": {"android": "https://dc.lft.to/lastmile_qr_scan", "ios": "https://dc.lft.to/lastmile_qr_scan"}, "bike_id": "a9aa8ce0cf899925ff5fded444dbd2ce", "fusion_lon": 0.0, "fusion_lat": 0.0, "is_disabled": 0, "name": "a9aa8ce0cf899925ff5fded444dbd2ce", "type": "electric_scooter", "lon": -77.02871933333333}, {"is_reserved": 0, "lat": 38.93073616666667, "rental_uris": {"android": "https://dc.lft.to/lastmile_qr_scan", "ios": "https://dc.lft.to/lastmile_qr_scan"}, "bike_id": "60a2985757ff5125d96bbdfcc8ef9ef7", "fusion_lon": 0.0, "fusion_lat": 0.0, "is_disabled": 0, "name": "60a2985757ff5125d96bbdfcc8ef9ef7", "type": "electric_scooter", "lon": -77.02169033333334}, {"is_reserved": 0, "lat": 38.91544183333333, "rental_uris": {"android": "https://dc.lft.to/lastmile_qr_scan", "ios": "https://dc.lft.to/lastmile_qr_scan"}, "bike_id": "4b50295e3a1fc02aa700f7208328ab79", "fusion_lon": 0.0, "fusion_lat": 0.0, "is_disabled": 0, "name": "4b50295e3a1fc02aa700f7208328ab79", "type": "electric_scooter", "lon": -77.03845016666666}, {"is_reserved": 0, "lat": 38.900104166666665, "rental_uris": {"android": "https://dc.lft.to/lastmile_qr_scan", "ios": "https://dc.lft.to/lastmile_qr_scan"}, "bike_id": "4d237a1961d60a7a154cf1cdf1d93994", "fusion_lon": 0.0, "fusion_lat": 0.0, "is_disabled": 0, "name": "4d237a1961d60a7a154cf1cdf1d93994", "type": "electric_scooter", "lon": -77.04042733333333}, {"is_reserved": 0, "lat": 38.8706275, "rental_uris": {"android": "https://dc.lft.to/lastmile_qr_scan", "ios": "https://dc.lft.to/lastmile_qr_scan"}, "bike_id": "d6f7d83344566141d5eb37cd06742692", "fusion_lon": 0.0, "fusion_lat": 0.0, "is_disabled": 0, "name": "d6f7d83344566141d5eb37cd06742692", "type": "electric_scooter", "lon": -77.00837766666666}, {"is_reserved": 0, "lat": 38.890505, "rental_uris": {"android": "https://dc.lft.to/lastmile_qr_scan", "ios": "https://dc.lft.to/lastmile_qr_scan"}, "bike_id": "f0d32bcef740909d6d63dbe9943b1ec8", "fusion_lon": 0.0, "fusion_lat": 0.0, "is_disabled": 0, "name": "f0d32bcef740909d6d63dbe9943b1ec8", "type": "electric_scooter", "lon": -77.04495633333333}, {"is_reserved": 0, "lat": 38.8621155, "rental_uris": {"android": "https://dc.lft.to/lastmile_qr_scan", "ios": "https://dc.lft.to/lastmile_qr_scan"}, "bike_id": "1f4baf5b9735cb85606f451fcbc5e004", "fusion_lon": 0.0, "fusion_lat": 0.0, "is_disabled": 0, "name": "1f4baf5b9735cb85606f451fcbc5e004", "type": "electric_bike", "lon": -76.99774316666667}, {"is_reserved": 0, "lat": 38.922227, "rental_uris": {"android": "https://dc.lft.to/lastmile_qr_scan", "ios": "https://dc.lft.to/lastmile_qr_scan"}, "bike_id": "44211f30d8fac895d5436bb8dd052d9d", "fusion_lon": 0.0, "fusion_lat": 0.0, "is_disabled": 0, "name": "44211f30d8fac895d5436bb8dd052d9d", "type": "electric_scooter", "lon": -77.04243883333334}, {"is_reserved": 0, "lat": 38.907463666666665, "rental_uris": {"android": "https://dc.lft.to/lastmile_qr_scan", "ios": "https://dc.lft.to/lastmile_qr_scan"}, "bike_id": "d2cf4274a1ec2340a0d2ecb936936d2a", "fusion_lon": 0.0, "fusion_lat": 0.0, "is_disabled": 0, "name": "d2cf4274a1ec2340a0d2ecb936936d2a", "type": "electric_scooter", "lon": -76.99892633333333}, {"is_reserved": 0, "lat": 38.942989833333336, "rental_uris": {"android": "https://dc.lft.to/lastmile_qr_scan", "ios": "https://dc.lft.to/lastmile_qr_scan"}, "bike_id": "1b036b9065be5de7a14f693260ef6fe4", "fusion_lon": 0.0, "fusion_lat": 0.0, "is_disabled": 0, "name": "1b036b9065be5de7a14f693260ef6fe4", "type": "electric_scooter", "lon": -77.05932416666667}, {"is_reserved": 0, "lat": 38.89220266666667, "rental_uris": {"android": "https://dc.lft.to/lastmile_qr_scan", "ios": "https://dc.lft.to/lastmile_qr_scan"}, "bike_id": "14813989d29a612a75ca46e5a4ac093b", "fusion_lon": 0.0, "fusion_lat": 0.0, "is_disabled": 0, "name": "14813989d29a612a75ca46e5a4ac093b", "type": "electric_scooter", "lon": -77.03108616666667}, {"is_reserved": 0, "lat": 38.86677016666667, "rental_uris": {"android": "https://dc.lft.to/lastmile_qr_scan", "ios": "https://dc.lft.to/lastmile_qr_scan"}, "bike_id": "002d93e7e749ed904ba092962d086135", "fusion_lon": 0.0, "fusion_lat": 0.0, "is_disabled": 0, "name": "002d93e7e749ed904ba092962d086135", "type": "electric_scooter", "lon": -76.98535716666666}, {"is_reserved": 0, "lat": 38.89884466666667, "rental_uris": {"android": "https://dc.lft.to/lastmile_qr_scan", "ios": "https://dc.lft.to/lastmile_qr_scan"}, "bike_id": "2a3781a9cccd2a852c56a005840cc8aa", "fusion_lon": 0.0, "fusion_lat": 0.0, "is_disabled": 0, "name": "2a3781a9cccd2a852c56a005840cc8aa", "type": "electric_scooter", "lon": -76.93171716666667}, {"is_reserved": 0, "lat": 38.8887735, "rental_uris": {"android": "https://dc.lft.to/lastmile_qr_scan", "ios": "https://dc.lft.to/lastmile_qr_scan"}, "bike_id": "2b31fd8493d7d48de13d7202f7e54e19", "fusion_lon": 0.0, "fusion_lat": 0.0, "is_disabled": 0, "name": "2b31fd8493d7d48de13d7202f7e54e19", "type": "electric_scooter", "lon": -77.01273466666666}, {"is_reserved": 0, "lat": 38.8699675, "rental_uris": {"android": "https://dc.lft.to/lastmile_qr_scan", "ios": "https://dc.lft.to/lastmile_qr_scan"}, "bike_id": "41757a0ead151b815554dbe58bae19f7", "fusion_lon": 0.0, "fusion_lat": 0.0, "is_disabled": 0, "name": "41757a0ead151b815554dbe58bae19f7", "type": "electric_bike", "lon": -77.06566966666666}, {"is_reserved": 0, "lat": 38.91263, "rental_uris": {"android": "https://dc.lft.to/lastmile_qr_scan", "ios": "https://dc.lft.to/lastmile_qr_scan"}, "bike_id": "76089b7231c73a348340f816ae91825e", "fusion_lon": 0.0, "fusion_lat": 0.0, "is_disabled": 0, "name": "76089b7231c73a348340f816ae91825e", "type": "electric_scooter", "lon": -77.02533316666667}, {"is_reserved": 0, "lat": 38.904724333333334, "rental_uris": {"android": "https://dc.lft.to/lastmile_qr_scan", "ios": "https://dc.lft.to/lastmile_qr_scan"}, "bike_id": "394081b755009e31aebe069254cce5d1", "fusion_lon": 0.0, "fusion_lat": 0.0, "is_disabled": 0, "name": "394081b755009e31aebe069254cce5d1", "type": "electric_scooter", "lon": -77.002056}, {"is_reserved": 0, "lat": 38.92962933333333, "rental_uris": {"android": "https://dc.lft.to/lastmile_qr_scan", "ios": "https://dc.lft.to/lastmile_qr_scan"}, "bike_id": "18cfbcf44d6475365bbf1afb5c0afa6c", "fusion_lon": 0.0, "fusion_lat": 0.0, "is_disabled": 0, "name": "18cfbcf44d6475365bbf1afb5c0afa6c", "type": "electric_scooter", "lon": -77.02773}, {"is_reserved": 0, "lat": 38.9244515, "rental_uris": {"android": "https://dc.lft.to/lastmile_qr_scan", "ios": "https://dc.lft.to/lastmile_qr_scan"}, "bike_id": "5638c899c610e95df526d658234b8875", "fusion_lon": 0.0, "fusion_lat": 0.0, "is_disabled": 0, "name": "5638c899c610e95df526d658234b8875", "type": "electric_scooter", "lon": -77.04024333333334}, {"is_reserved": 0, "lat": 38.9491855, "rental_uris": {"android": "https://dc.lft.to/lastmile_qr_scan", "ios": "https://dc.lft.to/lastmile_qr_scan"}, "bike_id": "fd063ff1742dd434a433a92d1898dfd2", "fusion_lon": 0.0, "fusion_lat": 0.0, "is_disabled": 0, "name": "fd063ff1742dd434a433a92d1898dfd2", "type": "electric_bike", "lon": -77.00799616666667}, {"is_reserved": 0, "lat": 38.924058, "rental_uris": {"android": "https://dc.lft.to/lastmile_qr_scan", "ios": "https://dc.lft.to/lastmile_qr_scan"}, "bike_id": "8d87d0ecf06115bcab3ea3a568f45a13", "fusion_lon": 0.0, "fusion_lat": 0.0, "is_disabled": 0, "name": "8d87d0ecf06115bcab3ea3a568f45a13", "type": "electric_scooter", "lon": -77.02747083333334}, {"is_reserved": 0, "lat": 38.90373433333333, "rental_uris": {"android": "https://dc.lft.to/lastmile_qr_scan", "ios": "https://dc.lft.to/lastmile_qr_scan"}, "bike_id": "02f7c4d419443599e14ebd5837ec8a4d", "fusion_lon": 0.0, "fusion_lat": 0.0, "is_disabled": 0, "name": "02f7c4d419443599e14ebd5837ec8a4d", "type": "electric_scooter", "lon": -77.04264}, {"is_reserved": 0, "lat": 38.88293016666667, "rental_uris": {"android": "https://dc.lft.to/lastmile_qr_scan", "ios": "https://dc.lft.to/lastmile_qr_scan"}, "bike_id": "38ff3d971c35411468d1d94c10777f0c", "fusion_lon": 0.0, "fusion_lat": 0.0, "is_disabled": 0, "name": "38ff3d971c35411468d1d94c10777f0c", "type": "electric_bike", "lon": -77.10076983333333}, {"is_reserved": 0, "lat": 38.911944166666665, "rental_uris": {"android": "https://dc.lft.to/lastmile_qr_scan", "ios": "https://dc.lft.to/lastmile_qr_scan"}, "bike_id": "4bca2edab99d5488024667607463e240", "fusion_lon": 0.0, "fusion_lat": 0.0, "is_disabled": 0, "name": "4bca2edab99d5488024667607463e240", "type": "electric_scooter", "lon": -77.03187933333334}, {"is_reserved": 0, "lat": 38.91413083333333, "rental_uris": {"android": "https://dc.lft.to/lastmile_qr_scan", "ios": "https://dc.lft.to/lastmile_qr_scan"}, "bike_id": "a2b8792400ebd23055e652f49d7f9a2a", "fusion_lon": 0.0, "fusion_lat": 0.0, "is_disabled": 0, "name": "a2b8792400ebd23055e652f49d7f9a2a", "type": "electric_scooter", "lon": -77.03192016666667}, {"is_reserved": 0, "lat": 38.901567, "rental_uris": {"android": "https://dc.lft.to/lastmile_qr_scan", "ios": "https://dc.lft.to/lastmile_qr_scan"}, "bike_id": "866acf51673bda71df12e287bcd45633", "fusion_lon": 0.0, "fusion_lat": 0.0, "is_disabled": 0, "name": "866acf51673bda71df12e287bcd45633", "type": "electric_scooter", "lon": -77.04345616666667}, {"is_reserved": 0, "lat": 38.909049333333336, "rental_uris": {"android": "https://dc.lft.to/lastmile_qr_scan", "ios": "https://dc.lft.to/lastmile_qr_scan"}, "bike_id": "0f0485cb24519168b25481338e845f3f", "fusion_lon": 0.0, "fusion_lat": 0.0, "is_disabled": 0, "name": "0f0485cb24519168b25481338e845f3f", "type": "electric_scooter", "lon": -77.043769}, {"is_reserved": 0, "lat": 38.917750833333336, "rental_uris": {"android": "https://dc.lft.to/lastmile_qr_scan", "ios": "https://dc.lft.to/lastmile_qr_scan"}, "bike_id": "65f7162c5bdb236d614f5e416973569d", "fusion_lon": 0.0, "fusion_lat": 0.0, "is_disabled": 0, "name": "65f7162c5bdb236d614f5e416973569d", "type": "electric_scooter", "lon": -77.03642633333334}, {"is_reserved": 0, "lat": 38.88397966666667, "rental_uris": {"android": "https://dc.lft.to/lastmile_qr_scan", "ios": "https://dc.lft.to/lastmile_qr_scan"}, "bike_id": "7b6da5e98f675cf38e0f49f61b873465", "fusion_lon": 0.0, "fusion_lat": 0.0, "is_disabled": 0, "name": "7b6da5e98f675cf38e0f49f61b873465", "type": "electric_scooter", "lon": -77.01523133333333}, {"is_reserved": 0, "lat": 38.921036666666666, "rental_uris": {"android": "https://dc.lft.to/lastmile_qr_scan", "ios": "https://dc.lft.to/lastmile_qr_scan"}, "bike_id": "8a1ee99944fe44e539acb0f68541b82d", "fusion_lon": 0.0, "fusion_lat": 0.0, "is_disabled": 0, "name": "8a1ee99944fe44e539acb0f68541b82d", "type": "electric_scooter", "lon": -77.04376633333334}, {"is_reserved": 0, "lat": 38.925828, "rental_uris": {"android": "https://dc.lft.to/lastmile_qr_scan", "ios": "https://dc.lft.to/lastmile_qr_scan"}, "bike_id": "692f9e500fb6824a7cca068c8e24db85", "fusion_lon": 0.0, "fusion_lat": 0.0, "is_disabled": 0, "name": "692f9e500fb6824a7cca068c8e24db85", "type": "electric_scooter", "lon": -77.00457416666667}, {"is_reserved": 0, "lat": 38.90575616666667, "rental_uris": {"android": "https://dc.lft.to/lastmile_qr_scan", "ios": "https://dc.lft.to/lastmile_qr_scan"}, "bike_id": "a200695f419ab5b2bfa6842c0457edf7", "fusion_lon": 0.0, "fusion_lat": 0.0, "is_disabled": 0, "name": "a200695f419ab5b2bfa6842c0457edf7", "type": "electric_scooter", "lon": -77.00891683333333}, {"is_reserved": 0, "lat": 38.919517166666665, "rental_uris": {"android": "https://dc.lft.to/lastmile_qr_scan", "ios": "https://dc.lft.to/lastmile_qr_scan"}, "bike_id": "672fc49163b301eff2a290087bce52ca", "fusion_lon": 0.0, "fusion_lat": 0.0, "is_disabled": 0, "name": "672fc49163b301eff2a290087bce52ca", "type": "electric_scooter", "lon": -77.07973716666666}, {"is_reserved": 0, "lat": 38.898964666666664, "rental_uris": {"android": "https://dc.lft.to/lastmile_qr_scan", "ios": "https://dc.lft.to/lastmile_qr_scan"}, "bike_id": "6d467bd70ae72ac8d3de6ab924352f99", "fusion_lon": 0.0, "fusion_lat": 0.0, "is_disabled": 0, "name": "6d467bd70ae72ac8d3de6ab924352f99", "type": "electric_scooter", "lon": -76.9972565}, {"is_reserved": 0, "lat": 38.90977566666667, "rental_uris": {"android": "https://dc.lft.to/lastmile_qr_scan", "ios": "https://dc.lft.to/lastmile_qr_scan"}, "bike_id": "f60882eedc5b1b3a869a16aa93f0eb78", "fusion_lon": 0.0, "fusion_lat": 0.0, "is_disabled": 0, "name": "f60882eedc5b1b3a869a16aa93f0eb78", "type": "electric_scooter", "lon": -77.021747}, {"is_reserved": 0, "lat": 38.89881716666667, "rental_uris": {"android": "https://dc.lft.to/lastmile_qr_scan", "ios": "https://dc.lft.to/lastmile_qr_scan"}, "bike_id": "c7cd191514117f48e259a38a651e799d", "fusion_lon": 0.0, "fusion_lat": 0.0, "is_disabled": 0, "name": "c7cd191514117f48e259a38a651e799d", "type": "electric_scooter", "lon": -76.931722}, {"is_reserved": 0, "lat": 38.92041716666667, "rental_uris": {"android": "https://dc.lft.to/lastmile_qr_scan", "ios": "https://dc.lft.to/lastmile_qr_scan"}, "bike_id": "e15595812b21ed9073052380592f7d46", "fusion_lon": 0.0, "fusion_lat": 0.0, "is_disabled": 0, "name": "e15595812b21ed9073052380592f7d46", "type": "electric_scooter", "lon": -77.02990133333333}, {"is_reserved": 0, "lat": 38.956139666666665, "rental_uris": {"android": "https://dc.lft.to/lastmile_qr_scan", "ios": "https://dc.lft.to/lastmile_qr_scan"}, "bike_id": "4c8634ac61ab5a99bba99bdaf0140dae", "fusion_lon": 0.0, "fusion_lat": 0.0, "is_disabled": 0, "name": "4c8634ac61ab5a99bba99bdaf0140dae", "type": "electric_scooter", "lon": -77.02758733333333}, {"is_reserved": 0, "lat": 38.899387, "rental_uris": {"android": "https://dc.lft.to/lastmile_qr_scan", "ios": "https://dc.lft.to/lastmile_qr_scan"}, "bike_id": "c551ab0387046a7a831c9947ddeeb612", "fusion_lon": 0.0, "fusion_lat": 0.0, "is_disabled": 0, "name": "c551ab0387046a7a831c9947ddeeb612", "type": "electric_scooter", "lon": -77.02809466666666}, {"is_reserved": 0, "lat": 38.907520166666664, "rental_uris": {"android": "https://dc.lft.to/lastmile_qr_scan", "ios": "https://dc.lft.to/lastmile_qr_scan"}, "bike_id": "80b4aa762484f287b934c771d371c98d", "fusion_lon": 0.0, "fusion_lat": 0.0, "is_disabled": 0, "name": "80b4aa762484f287b934c771d371c98d", "type": "electric_scooter", "lon": -76.99972}, {"is_reserved": 0, "lat": 38.8814255, "rental_uris": {"android": "https://dc.lft.to/lastmile_qr_scan", "ios": "https://dc.lft.to/lastmile_qr_scan"}, "bike_id": "7a21be7f235147fd4ef127986623c09e", "fusion_lon": 0.0, "fusion_lat": 0.0, "is_disabled": 0, "name": "7a21be7f235147fd4ef127986623c09e", "type": "electric_scooter", "lon": -76.99515683333334}, {"is_reserved": 0, "lat": 38.91767266666667, "rental_uris": {"android": "https://dc.lft.to/lastmile_qr_scan", "ios": "https://dc.lft.to/lastmile_qr_scan"}, "bike_id": "f10a2574d6bbd8b245abd62478ce9235", "fusion_lon": 0.0, "fusion_lat": 0.0, "is_disabled": 0, "name": "f10a2574d6bbd8b245abd62478ce9235", "type": "electric_bike", "lon": -77.0107055}, {"is_reserved": 0, "lat": 38.9126845, "rental_uris": {"android": "https://dc.lft.to/lastmile_qr_scan", "ios": "https://dc.lft.to/lastmile_qr_scan"}, "bike_id": "9970f52ecdb79bedefd05934c68af709", "fusion_lon": 0.0, "fusion_lat": 0.0, "is_disabled": 0, "name": "9970f52ecdb79bedefd05934c68af709", "type": "electric_scooter", "lon": -77.04402616666667}, {"is_reserved": 0, "lat": 38.868886333333336, "rental_uris": {"android": "https://dc.lft.to/lastmile_qr_scan", "ios": "https://dc.lft.to/lastmile_qr_scan"}, "bike_id": "c61832a304d4711eaf0643a1e0221ad4", "fusion_lon": 0.0, "fusion_lat": 0.0, "is_disabled": 0, "name": "c61832a304d4711eaf0643a1e0221ad4", "type": "electric_scooter", "lon": -76.9831215}, {"is_reserved": 0, "lat": 38.90208616666666, "rental_uris": {"android": "https://dc.lft.to/lastmile_qr_scan", "ios": "https://dc.lft.to/lastmile_qr_scan"}, "bike_id": "b81cc991e24faf46fd377063b96fe674", "fusion_lon": 0.0, "fusion_lat": 0.0, "is_disabled": 0, "name": "b81cc991e24faf46fd377063b96fe674", "type": "electric_scooter", "lon": -76.992672}, {"is_reserved": 0, "lat": 38.87661166666667, "rental_uris": {"android": "https://dc.lft.to/lastmile_qr_scan", "ios": "https://dc.lft.to/lastmile_qr_scan"}, "bike_id": "70df0e9a74ae89442c92c3dd21542354", "fusion_lon": 0.0, "fusion_lat": 0.0, "is_disabled": 0, "name": "70df0e9a74ae89442c92c3dd21542354", "type": "electric_scooter", "lon": -77.00406866666667}, {"is_reserved": 0, "lat": 38.918265166666664, "rental_uris": {"android": "https://dc.lft.to/lastmile_qr_scan", "ios": "https://dc.lft.to/lastmile_qr_scan"}, "bike_id": "75fbe123cf9516c28bb1c42ce870139b", "fusion_lon": 0.0, "fusion_lat": 0.0, "is_disabled": 0, "name": "75fbe123cf9516c28bb1c42ce870139b", "type": "electric_scooter", "lon": -77.03189383333333}, {"is_reserved": 0, "lat": 38.913979166666664, "rental_uris": {"android": "https://dc.lft.to/lastmile_qr_scan", "ios": "https://dc.lft.to/lastmile_qr_scan"}, "bike_id": "dc24f92567e1ae2ba0f74aa116fcd7cf", "fusion_lon": 0.0, "fusion_lat": 0.0, "is_disabled": 0, "name": "dc24f92567e1ae2ba0f74aa116fcd7cf", "type": "electric_scooter", "lon": -77.01403416666666}, {"is_reserved": 0, "lat": 38.923135333333335, "rental_uris": {"android": "https://dc.lft.to/lastmile_qr_scan", "ios": "https://dc.lft.to/lastmile_qr_scan"}, "bike_id": "ee6b58114c65f116e945ea21bdbae2e6", "fusion_lon": 0.0, "fusion_lat": 0.0, "is_disabled": 0, "name": "ee6b58114c65f116e945ea21bdbae2e6", "type": "electric_scooter", "lon": -77.03657616666666}, {"is_reserved": 0, "lat": 38.902441333333336, "rental_uris": {"android": "https://dc.lft.to/lastmile_qr_scan", "ios": "https://dc.lft.to/lastmile_qr_scan"}, "bike_id": "c9212afa2fd48d8d05928dfe01059177", "fusion_lon": 0.0, "fusion_lat": 0.0, "is_disabled": 0, "name": "c9212afa2fd48d8d05928dfe01059177", "type": "electric_scooter", "lon": -77.00572266666667}, {"is_reserved": 0, "lat": 38.9319025, "rental_uris": {"android": "https://dc.lft.to/lastmile_qr_scan", "ios": "https://dc.lft.to/lastmile_qr_scan"}, "bike_id": "b2e79406fec4292aed19f60c612d2c7d", "fusion_lon": 0.0, "fusion_lat": 0.0, "is_disabled": 0, "name": "b2e79406fec4292aed19f60c612d2c7d", "type": "electric_scooter", "lon": -77.02829666666666}, {"is_reserved": 0, "lat": 38.91820766666667, "rental_uris": {"android": "https://dc.lft.to/lastmile_qr_scan", "ios": "https://dc.lft.to/lastmile_qr_scan"}, "bike_id": "990d10f01c82cbed6909b0eb763b63fa", "fusion_lon": 0.0, "fusion_lat": 0.0, "is_disabled": 0, "name": "990d10f01c82cbed6909b0eb763b63fa", "type": "electric_scooter", "lon": -77.0417045}, {"is_reserved": 0, "lat": 38.922836833333335, "rental_uris": {"android": "https://dc.lft.to/lastmile_qr_scan", "ios": "https://dc.lft.to/lastmile_qr_scan"}, "bike_id": "d0cb6f57121be79fce63f163788c15b0", "fusion_lon": 0.0, "fusion_lat": 0.0, "is_disabled": 0, "name": "d0cb6f57121be79fce63f163788c15b0", "type": "electric_scooter", "lon": -77.03657833333334}, {"is_reserved": 0, "lat": 38.919233166666665, "rental_uris": {"android": "https://dc.lft.to/lastmile_qr_scan", "ios": "https://dc.lft.to/lastmile_qr_scan"}, "bike_id": "68248828f1bf090b187580bfc1e8be04", "fusion_lon": 0.0, "fusion_lat": 0.0, "is_disabled": 0, "name": "68248828f1bf090b187580bfc1e8be04", "type": "electric_scooter", "lon": -77.03122716666667}, {"is_reserved": 0, "lat": 38.892221666666664, "rental_uris": {"android": "https://dc.lft.to/lastmile_qr_scan", "ios": "https://dc.lft.to/lastmile_qr_scan"}, "bike_id": "c0ed57780646a6d7026eca928ab804bf", "fusion_lon": 0.0, "fusion_lat": 0.0, "is_disabled": 0, "name": "c0ed57780646a6d7026eca928ab804bf", "type": "electric_scooter", "lon": -77.04324866666667}, {"is_reserved": 0, "lat": 38.920281333333335, "rental_uris": {"android": "https://dc.lft.to/lastmile_qr_scan", "ios": "https://dc.lft.to/lastmile_qr_scan"}, "bike_id": "6e2acf2af265cd1ab00375f36e6bcac1", "fusion_lon": 0.0, "fusion_lat": 0.0, "is_disabled": 0, "name": "6e2acf2af265cd1ab00375f36e6bcac1", "type": "electric_scooter", "lon": -77.011176}, {"is_reserved": 0, "lat": 38.91798933333333, "rental_uris": {"android": "https://dc.lft.to/lastmile_qr_scan", "ios": "https://dc.lft.to/lastmile_qr_scan"}, "bike_id": "37c01736b83e8948d671c99790feb810", "fusion_lon": 0.0, "fusion_lat": 0.0, "is_disabled": 0, "name": "37c01736b83e8948d671c99790feb810", "type": "electric_bike", "lon": -77.2234905}, {"is_reserved": 0, "lat": 38.884189, "rental_uris": {"android": "https://dc.lft.to/lastmile_qr_scan", "ios": "https://dc.lft.to/lastmile_qr_scan"}, "bike_id": "88cbf8b940eb97ba1e712835f2d667b1", "fusion_lon": 0.0, "fusion_lat": 0.0, "is_disabled": 0, "name": "88cbf8b940eb97ba1e712835f2d667b1", "type": "electric_scooter", "lon": -76.94209233333333}, {"is_reserved": 0, "lat": 38.9112475, "rental_uris": {"android": "https://dc.lft.to/lastmile_qr_scan", "ios": "https://dc.lft.to/lastmile_qr_scan"}, "bike_id": "14ef5e63ced92c816b412fe6a973d0c3", "fusion_lon": 0.0, "fusion_lat": 0.0, "is_disabled": 0, "name": "14ef5e63ced92c816b412fe6a973d0c3", "type": "electric_scooter", "lon": -77.02693833333333}, {"is_reserved": 0, "lat": 38.902344666666664, "rental_uris": {"android": "https://dc.lft.to/lastmile_qr_scan", "ios": "https://dc.lft.to/lastmile_qr_scan"}, "bike_id": "e68476b6b129bf03a7982b2037ff117a", "fusion_lon": 0.0, "fusion_lat": 0.0, "is_disabled": 0, "name": "e68476b6b129bf03a7982b2037ff117a", "type": "electric_scooter", "lon": -77.06007516666666}, {"is_reserved": 0, "lat": 38.918516, "rental_uris": {"android": "https://dc.lft.to/lastmile_qr_scan", "ios": "https://dc.lft.to/lastmile_qr_scan"}, "bike_id": "4860f3e1c40b91f585f9d06617483ca8", "fusion_lon": 0.0, "fusion_lat": 0.0, "is_disabled": 0, "name": "4860f3e1c40b91f585f9d06617483ca8", "type": "electric_scooter", "lon": -77.0242875}, {"is_reserved": 0, "lat": 38.98501366666667, "rental_uris": {"android": "https://dc.lft.to/lastmile_qr_scan", "ios": "https://dc.lft.to/lastmile_qr_scan"}, "bike_id": "661d89063a70ba0f1680bfd6b70e8026", "fusion_lon": 0.0, "fusion_lat": 0.0, "is_disabled": 0, "name": "661d89063a70ba0f1680bfd6b70e8026", "type": "electric_bike", "lon": -76.982003}, {"is_reserved": 0, "lat": 38.91674016666666, "rental_uris": {"android": "https://dc.lft.to/lastmile_qr_scan", "ios": "https://dc.lft.to/lastmile_qr_scan"}, "bike_id": "f6ff0e0354db18c9cfa1b474a490ed96", "fusion_lon": 0.0, "fusion_lat": 0.0, "is_disabled": 0, "name": "f6ff0e0354db18c9cfa1b474a490ed96", "type": "electric_scooter", "lon": -77.02294966666666}, {"is_reserved": 0, "lat": 38.839312666666665, "rental_uris": {"android": "https://dc.lft.to/lastmile_qr_scan", "ios": "https://dc.lft.to/lastmile_qr_scan"}, "bike_id": "d97ee8924e570dc1f9eedc6d3ff1a782", "fusion_lon": 0.0, "fusion_lat": 0.0, "is_disabled": 0, "name": "d97ee8924e570dc1f9eedc6d3ff1a782", "type": "electric_bike", "lon": -77.07902483333334}, {"is_reserved": 0, "lat": 38.98274283333333, "rental_uris": {"android": "https://dc.lft.to/lastmile_qr_scan", "ios": "https://dc.lft.to/lastmile_qr_scan"}, "bike_id": "4584ff2e630a48039195c81642e82d0a", "fusion_lon": 0.0, "fusion_lat": 0.0, "is_disabled": 0, "name": "4584ff2e630a48039195c81642e82d0a", "type": "electric_bike", "lon": -77.017694}, {"is_reserved": 0, "lat": 38.90266466666667, "rental_uris": {"android": "https://dc.lft.to/lastmile_qr_scan", "ios": "https://dc.lft.to/lastmile_qr_scan"}, "bike_id": "d2a3ecafdce324e3532e98ce667f347b", "fusion_lon": 0.0, "fusion_lat": 0.0, "is_disabled": 0, "name": "d2a3ecafdce324e3532e98ce667f347b", "type": "electric_scooter", "lon": -77.03070016666666}, {"is_reserved": 0, "lat": 38.928389, "rental_uris": {"android": "https://dc.lft.to/lastmile_qr_scan", "ios": "https://dc.lft.to/lastmile_qr_scan"}, "bike_id": "ca00e4bbc4f87c61f5b1a4afdff13962", "fusion_lon": 0.0, "fusion_lat": 0.0, "is_disabled": 0, "name": "ca00e4bbc4f87c61f5b1a4afdff13962", "type": "electric_scooter", "lon": -77.01382866666667}, {"is_reserved": 0, "lat": 38.958819166666665, "rental_uris": {"android": "https://dc.lft.to/lastmile_qr_scan", "ios": "https://dc.lft.to/lastmile_qr_scan"}, "bike_id": "472289fe5c30ab790d9a8d0988a5c52c", "fusion_lon": 0.0, "fusion_lat": 0.0, "is_disabled": 0, "name": "472289fe5c30ab790d9a8d0988a5c52c", "type": "electric_bike", "lon": -77.01032583333334}, {"is_reserved": 0, "lat": 38.90978283333333, "rental_uris": {"android": "https://dc.lft.to/lastmile_qr_scan", "ios": "https://dc.lft.to/lastmile_qr_scan"}, "bike_id": "ded6a91347b5e5bb79093cbb269dbbc1", "fusion_lon": 0.0, "fusion_lat": 0.0, "is_disabled": 0, "name": "ded6a91347b5e5bb79093cbb269dbbc1", "type": "electric_scooter", "lon": -77.02174316666667}, {"is_reserved": 0, "lat": 38.9593185, "rental_uris": {"android": "https://dc.lft.to/lastmile_qr_scan", "ios": "https://dc.lft.to/lastmile_qr_scan"}, "bike_id": "c664a40544765cb96450783666d3d17d", "fusion_lon": 0.0, "fusion_lat": 0.0, "is_disabled": 0, "name": "c664a40544765cb96450783666d3d17d", "type": "electric_scooter", "lon": -77.03120816666667}, {"is_reserved": 0, "lat": 38.894517666666665, "rental_uris": {"android": "https://dc.lft.to/lastmile_qr_scan", "ios": "https://dc.lft.to/lastmile_qr_scan"}, "bike_id": "09ef3c5fd620f93ecc24a340c665225e", "fusion_lon": 0.0, "fusion_lat": 0.0, "is_disabled": 0, "name": "09ef3c5fd620f93ecc24a340c665225e", "type": "electric_scooter", "lon": -76.97805}, {"is_reserved": 0, "lat": 38.805755, "rental_uris": {"android": "https://dc.lft.to/lastmile_qr_scan", "ios": "https://dc.lft.to/lastmile_qr_scan"}, "bike_id": "c6b669328a9bf2451c8963c49c16e322", "fusion_lon": 0.0, "fusion_lat": 0.0, "is_disabled": 0, "name": "c6b669328a9bf2451c8963c49c16e322", "type": "electric_bike", "lon": -77.068588}, {"is_reserved": 0, "lat": 38.892234, "rental_uris": {"android": "https://dc.lft.to/lastmile_qr_scan", "ios": "https://dc.lft.to/lastmile_qr_scan"}, "bike_id": "76af99287985c6dec7be04bcd6e24824", "fusion_lon": 0.0, "fusion_lat": 0.0, "is_disabled": 0, "name": "76af99287985c6dec7be04bcd6e24824", "type": "electric_scooter", "lon": -77.022101}, {"is_reserved": 0, "lat": 38.92217383333333, "rental_uris": {"android": "https://dc.lft.to/lastmile_qr_scan", "ios": "https://dc.lft.to/lastmile_qr_scan"}, "bike_id": "d0a22d242e5e2869aa9b2c977b027264", "fusion_lon": 0.0, "fusion_lat": 0.0, "is_disabled": 0, "name": "d0a22d242e5e2869aa9b2c977b027264", "type": "electric_scooter", "lon": -77.04255166666667}, {"is_reserved": 0, "lat": 38.90732833333333, "rental_uris": {"android": "https://dc.lft.to/lastmile_qr_scan", "ios": "https://dc.lft.to/lastmile_qr_scan"}, "bike_id": "666a1696f392c85a64d3ba8887f8478c", "fusion_lon": 0.0, "fusion_lat": 0.0, "is_disabled": 0, "name": "666a1696f392c85a64d3ba8887f8478c", "type": "electric_scooter", "lon": -77.0271345}, {"is_reserved": 0, "lat": 38.8922765, "rental_uris": {"android": "https://dc.lft.to/lastmile_qr_scan", "ios": "https://dc.lft.to/lastmile_qr_scan"}, "bike_id": "994d0d0366358d65d040f2e81ae03838", "fusion_lon": 0.0, "fusion_lat": 0.0, "is_disabled": 0, "name": "994d0d0366358d65d040f2e81ae03838", "type": "electric_scooter", "lon": -77.04503933333334}, {"is_reserved": 0, "lat": 38.907856, "rental_uris": {"android": "https://dc.lft.to/lastmile_qr_scan", "ios": "https://dc.lft.to/lastmile_qr_scan"}, "bike_id": "650a5d7192d14add8fca95d87c474f0d", "fusion_lon": 0.0, "fusion_lat": 0.0, "is_disabled": 0, "name": "650a5d7192d14add8fca95d87c474f0d", "type": "electric_scooter", "lon": -77.07246866666667}, {"is_reserved": 0, "lat": 38.928774833333335, "rental_uris": {"android": "https://dc.lft.to/lastmile_qr_scan", "ios": "https://dc.lft.to/lastmile_qr_scan"}, "bike_id": "e4fdf4b81aba3026ebbfe9c39953bd29", "fusion_lon": 0.0, "fusion_lat": 0.0, "is_disabled": 0, "name": "e4fdf4b81aba3026ebbfe9c39953bd29", "type": "electric_scooter", "lon": -77.02709016666667}, {"is_reserved": 0, "lat": 38.8407755, "rental_uris": {"android": "https://dc.lft.to/lastmile_qr_scan", "ios": "https://dc.lft.to/lastmile_qr_scan"}, "bike_id": "f0ce934394efedbfc3587f2f3f11f13b", "fusion_lon": 0.0, "fusion_lat": 0.0, "is_disabled": 0, "name": "f0ce934394efedbfc3587f2f3f11f13b", "type": "electric_scooter", "lon": -76.98923366666666}, {"is_reserved": 0, "lat": 38.89737916666667, "rental_uris": {"android": "https://dc.lft.to/lastmile_qr_scan", "ios": "https://dc.lft.to/lastmile_qr_scan"}, "bike_id": "5c25b523dbeb0474bc6e5f5502c199f6", "fusion_lon": 0.0, "fusion_lat": 0.0, "is_disabled": 0, "name": "5c25b523dbeb0474bc6e5f5502c199f6", "type": "electric_scooter", "lon": -77.02757766666667}, {"is_reserved": 0, "lat": 38.9126945, "rental_uris": {"android": "https://dc.lft.to/lastmile_qr_scan", "ios": "https://dc.lft.to/lastmile_qr_scan"}, "bike_id": "8ce6fdf54a73e76e7a5d1bea9083ce2f", "fusion_lon": 0.0, "fusion_lat": 0.0, "is_disabled": 0, "name": "8ce6fdf54a73e76e7a5d1bea9083ce2f", "type": "electric_scooter", "lon": -77.02227233333333}, {"is_reserved": 0, "lat": 38.93745083333334, "rental_uris": {"android": "https://dc.lft.to/lastmile_qr_scan", "ios": "https://dc.lft.to/lastmile_qr_scan"}, "bike_id": "82996be1bc424804f07ba1bb220777a0", "fusion_lon": 0.0, "fusion_lat": 0.0, "is_disabled": 0, "name": "82996be1bc424804f07ba1bb220777a0", "type": "electric_scooter", "lon": -77.0327785}, {"is_reserved": 0, "lat": 38.900941, "rental_uris": {"android": "https://dc.lft.to/lastmile_qr_scan", "ios": "https://dc.lft.to/lastmile_qr_scan"}, "bike_id": "c8877d43a61eb5610decb9f1c09593ac", "fusion_lon": 0.0, "fusion_lat": 0.0, "is_disabled": 0, "name": "c8877d43a61eb5610decb9f1c09593ac", "type": "electric_scooter", "lon": -77.026636}, {"is_reserved": 0, "lat": 38.91695283333333, "rental_uris": {"android": "https://dc.lft.to/lastmile_qr_scan", "ios": "https://dc.lft.to/lastmile_qr_scan"}, "bike_id": "150b6200dc8042bb7cc70204f699f529", "fusion_lon": 0.0, "fusion_lat": 0.0, "is_disabled": 0, "name": "150b6200dc8042bb7cc70204f699f529", "type": "electric_scooter", "lon": -76.97946333333333}, {"is_reserved": 0, "lat": 38.88676683333333, "rental_uris": {"android": "https://dc.lft.to/lastmile_qr_scan", "ios": "https://dc.lft.to/lastmile_qr_scan"}, "bike_id": "0e3f1d472a9e54e2752eb1b776187460", "fusion_lon": 0.0, "fusion_lat": 0.0, "is_disabled": 0, "name": "0e3f1d472a9e54e2752eb1b776187460", "type": "electric_bike", "lon": -77.16244433333334}, {"is_reserved": 0, "lat": 38.956649, "rental_uris": {"android": "https://dc.lft.to/lastmile_qr_scan", "ios": "https://dc.lft.to/lastmile_qr_scan"}, "bike_id": "3076906e08cca00475598fc4541842b1", "fusion_lon": 0.0, "fusion_lat": 0.0, "is_disabled": 0, "name": "3076906e08cca00475598fc4541842b1", "type": "electric_bike", "lon": -77.01282083333334}, {"is_reserved": 0, "lat": 38.904273333333336, "rental_uris": {"android": "https://dc.lft.to/lastmile_qr_scan", "ios": "https://dc.lft.to/lastmile_qr_scan"}, "bike_id": "f91e59575ae262f365d396f3ff6f3711", "fusion_lon": 0.0, "fusion_lat": 0.0, "is_disabled": 0, "name": "f91e59575ae262f365d396f3ff6f3711", "type": "electric_scooter", "lon": -77.0507185}, {"is_reserved": 0, "lat": 38.90040666666667, "rental_uris": {"android": "https://dc.lft.to/lastmile_qr_scan", "ios": "https://dc.lft.to/lastmile_qr_scan"}, "bike_id": "6f29a27868a734621fafb7ed0ebf96a3", "fusion_lon": 0.0, "fusion_lat": 0.0, "is_disabled": 0, "name": "6f29a27868a734621fafb7ed0ebf96a3", "type": "electric_scooter", "lon": -76.99028316666667}, {"is_reserved": 0, "lat": 38.885942, "rental_uris": {"android": "https://dc.lft.to/lastmile_qr_scan", "ios": "https://dc.lft.to/lastmile_qr_scan"}, "bike_id": "04358693e512af272e0cc0196587e0c8", "fusion_lon": 0.0, "fusion_lat": 0.0, "is_disabled": 0, "name": "04358693e512af272e0cc0196587e0c8", "type": "electric_scooter", "lon": -77.01886016666667}, {"is_reserved": 0, "lat": 38.907286, "rental_uris": {"android": "https://dc.lft.to/lastmile_qr_scan", "ios": "https://dc.lft.to/lastmile_qr_scan"}, "bike_id": "55f1450c8af6bd21dcce3c7424655a8d", "fusion_lon": 0.0, "fusion_lat": 0.0, "is_disabled": 0, "name": "55f1450c8af6bd21dcce3c7424655a8d", "type": "electric_scooter", "lon": -77.02410866666666}, {"is_reserved": 0, "lat": 38.90823833333334, "rental_uris": {"android": "https://dc.lft.to/lastmile_qr_scan", "ios": "https://dc.lft.to/lastmile_qr_scan"}, "bike_id": "f3e1c9c1a486fdbd27cbb28c7ea024cd", "fusion_lon": 0.0, "fusion_lat": 0.0, "is_disabled": 0, "name": "f3e1c9c1a486fdbd27cbb28c7ea024cd", "type": "electric_scooter", "lon": -77.0200565}, {"is_reserved": 0, "lat": 38.90720783333333, "rental_uris": {"android": "https://dc.lft.to/lastmile_qr_scan", "ios": "https://dc.lft.to/lastmile_qr_scan"}, "bike_id": "e3cd5966ab36f95153d0e13dafd34479", "fusion_lon": 0.0, "fusion_lat": 0.0, "is_disabled": 0, "name": "e3cd5966ab36f95153d0e13dafd34479", "type": "electric_scooter", "lon": -77.02544183333333}, {"is_reserved": 0, "lat": 38.8398375, "rental_uris": {"android": "https://dc.lft.to/lastmile_qr_scan", "ios": "https://dc.lft.to/lastmile_qr_scan"}, "bike_id": "6d8e753a8704c6cf6c95c11851eac5fe", "fusion_lon": 0.0, "fusion_lat": 0.0, "is_disabled": 0, "name": "6d8e753a8704c6cf6c95c11851eac5fe", "type": "electric_bike", "lon": -77.00572116666666}, {"is_reserved": 0, "lat": 38.867420833333334, "rental_uris": {"android": "https://dc.lft.to/lastmile_qr_scan", "ios": "https://dc.lft.to/lastmile_qr_scan"}, "bike_id": "df46954f6a714e5038068e1d3306eef7", "fusion_lon": 0.0, "fusion_lat": 0.0, "is_disabled": 0, "name": "df46954f6a714e5038068e1d3306eef7", "type": "electric_bike", "lon": -76.98945466666666}, {"is_reserved": 0, "lat": 38.906717, "rental_uris": {"android": "https://dc.lft.to/lastmile_qr_scan", "ios": "https://dc.lft.to/lastmile_qr_scan"}, "bike_id": "16dab60fe1526c8fbfe448c591b7065d", "fusion_lon": 0.0, "fusion_lat": 0.0, "is_disabled": 0, "name": "16dab60fe1526c8fbfe448c591b7065d", "type": "electric_scooter", "lon": -77.0382625}, {"is_reserved": 0, "lat": 38.93179466666667, "rental_uris": {"android": "https://dc.lft.to/lastmile_qr_scan", "ios": "https://dc.lft.to/lastmile_qr_scan"}, "bike_id": "40b8f141fdf154b38cc1da4a0253c395", "fusion_lon": 0.0, "fusion_lat": 0.0, "is_disabled": 0, "name": "40b8f141fdf154b38cc1da4a0253c395", "type": "electric_scooter", "lon": -77.07058083333334}, {"is_reserved": 0, "lat": 38.9415345, "rental_uris": {"android": "https://dc.lft.to/lastmile_qr_scan", "ios": "https://dc.lft.to/lastmile_qr_scan"}, "bike_id": "9f3a0ccdd0ed2a7606857ed2c777fa78", "fusion_lon": 0.0, "fusion_lat": 0.0, "is_disabled": 0, "name": "9f3a0ccdd0ed2a7606857ed2c777fa78", "type": "electric_bike", "lon": -77.00191533333333}, {"is_reserved": 0, "lat": 38.918048166666665, "rental_uris": {"android": "https://dc.lft.to/lastmile_qr_scan", "ios": "https://dc.lft.to/lastmile_qr_scan"}, "bike_id": "634b5d786b0094e24f4db0b2bd6f3655", "fusion_lon": 0.0, "fusion_lat": 0.0, "is_disabled": 0, "name": "634b5d786b0094e24f4db0b2bd6f3655", "type": "electric_scooter", "lon": -77.02488166666667}, {"is_reserved": 0, "lat": 38.9203955, "rental_uris": {"android": "https://dc.lft.to/lastmile_qr_scan", "ios": "https://dc.lft.to/lastmile_qr_scan"}, "bike_id": "f0998c687f50c1e482ef194e6c2e7ac2", "fusion_lon": 0.0, "fusion_lat": 0.0, "is_disabled": 0, "name": "f0998c687f50c1e482ef194e6c2e7ac2", "type": "electric_scooter", "lon": -77.03409}, {"is_reserved": 0, "lat": 38.8881215, "rental_uris": {"android": "https://dc.lft.to/lastmile_qr_scan", "ios": "https://dc.lft.to/lastmile_qr_scan"}, "bike_id": "4a705014f16c68349b0ff84d6285533a", "fusion_lon": 0.0, "fusion_lat": 0.0, "is_disabled": 0, "name": "4a705014f16c68349b0ff84d6285533a", "type": "electric_scooter", "lon": -76.93347466666667}, {"is_reserved": 0, "lat": 38.91116683333333, "rental_uris": {"android": "https://dc.lft.to/lastmile_qr_scan", "ios": "https://dc.lft.to/lastmile_qr_scan"}, "bike_id": "d3de3fb89440a5e8a6ed437e976f26c3", "fusion_lon": 0.0, "fusion_lat": 0.0, "is_disabled": 0, "name": "d3de3fb89440a5e8a6ed437e976f26c3", "type": "electric_scooter", "lon": -77.04234416666667}, {"is_reserved": 0, "lat": 38.915266, "rental_uris": {"android": "https://dc.lft.to/lastmile_qr_scan", "ios": "https://dc.lft.to/lastmile_qr_scan"}, "bike_id": "aceb641e2afd330ef996da910a069a25", "fusion_lon": 0.0, "fusion_lat": 0.0, "is_disabled": 0, "name": "aceb641e2afd330ef996da910a069a25", "type": "electric_scooter", "lon": -77.04160583333334}, {"is_reserved": 0, "lat": 38.935111166666665, "rental_uris": {"android": "https://dc.lft.to/lastmile_qr_scan", "ios": "https://dc.lft.to/lastmile_qr_scan"}, "bike_id": "285a0e03c1d313d9b9a0e30816cacc29", "fusion_lon": 0.0, "fusion_lat": 0.0, "is_disabled": 0, "name": "285a0e03c1d313d9b9a0e30816cacc29", "type": "electric_scooter", "lon": -77.032638}, {"is_reserved": 0, "lat": 38.93638466666667, "rental_uris": {"android": "https://dc.lft.to/lastmile_qr_scan", "ios": "https://dc.lft.to/lastmile_qr_scan"}, "bike_id": "607b5c3d4eca39931a24389b3f54d9d7", "fusion_lon": 0.0, "fusion_lat": 0.0, "is_disabled": 0, "name": "607b5c3d4eca39931a24389b3f54d9d7", "type": "electric_scooter", "lon": -77.02488766666667}, {"is_reserved": 0, "lat": 38.918072, "rental_uris": {"android": "https://dc.lft.to/lastmile_qr_scan", "ios": "https://dc.lft.to/lastmile_qr_scan"}, "bike_id": "0d6199ecf38dc2d4936155cb001bb888", "fusion_lon": 0.0, "fusion_lat": 0.0, "is_disabled": 0, "name": "0d6199ecf38dc2d4936155cb001bb888", "type": "electric_scooter", "lon": -77.0249305}, {"is_reserved": 0, "lat": 38.92535566666667, "rental_uris": {"android": "https://dc.lft.to/lastmile_qr_scan", "ios": "https://dc.lft.to/lastmile_qr_scan"}, "bike_id": "ff9954f7850a80c27a000c9f5104a026", "fusion_lon": 0.0, "fusion_lat": 0.0, "is_disabled": 0, "name": "ff9954f7850a80c27a000c9f5104a026", "type": "electric_scooter", "lon": -77.04420283333333}, {"is_reserved": 0, "lat": 38.877252666666664, "rental_uris": {"android": "https://dc.lft.to/lastmile_qr_scan", "ios": "https://dc.lft.to/lastmile_qr_scan"}, "bike_id": "b7f570f9e8edfefd933b22f17323b795", "fusion_lon": 0.0, "fusion_lat": 0.0, "is_disabled": 0, "name": "b7f570f9e8edfefd933b22f17323b795", "type": "electric_scooter", "lon": -77.01750183333333}, {"is_reserved": 0, "lat": 38.91127133333333, "rental_uris": {"android": "https://dc.lft.to/lastmile_qr_scan", "ios": "https://dc.lft.to/lastmile_qr_scan"}, "bike_id": "301064878548518f26603c19e5e3fdae", "fusion_lon": 0.0, "fusion_lat": 0.0, "is_disabled": 0, "name": "301064878548518f26603c19e5e3fdae", "type": "electric_scooter", "lon": -77.0384195}, {"is_reserved": 0, "lat": 38.918199333333334, "rental_uris": {"android": "https://dc.lft.to/lastmile_qr_scan", "ios": "https://dc.lft.to/lastmile_qr_scan"}, "bike_id": "190c79a4331a2959e6b519ccf54102a3", "fusion_lon": 0.0, "fusion_lat": 0.0, "is_disabled": 0, "name": "190c79a4331a2959e6b519ccf54102a3", "type": "electric_scooter", "lon": -77.03162883333333}, {"is_reserved": 0, "lat": 38.9164565, "rental_uris": {"android": "https://dc.lft.to/lastmile_qr_scan", "ios": "https://dc.lft.to/lastmile_qr_scan"}, "bike_id": "82d2aae8521eaefadf565bcd08a2772e", "fusion_lon": 0.0, "fusion_lat": 0.0, "is_disabled": 0, "name": "82d2aae8521eaefadf565bcd08a2772e", "type": "electric_scooter", "lon": -77.04778}, {"is_reserved": 0, "lat": 38.93248833333333, "rental_uris": {"android": "https://dc.lft.to/lastmile_qr_scan", "ios": "https://dc.lft.to/lastmile_qr_scan"}, "bike_id": "a6e146d5ead3ac9c55a3b92e2b4e3eba", "fusion_lon": 0.0, "fusion_lat": 0.0, "is_disabled": 0, "name": "a6e146d5ead3ac9c55a3b92e2b4e3eba", "type": "electric_scooter", "lon": -77.03259366666667}, {"is_reserved": 0, "lat": 38.89350683333333, "rental_uris": {"android": "https://dc.lft.to/lastmile_qr_scan", "ios": "https://dc.lft.to/lastmile_qr_scan"}, "bike_id": "e42791001006d25601ce9f909638f52e", "fusion_lon": 0.0, "fusion_lat": 0.0, "is_disabled": 0, "name": "e42791001006d25601ce9f909638f52e", "type": "electric_scooter", "lon": -77.0413805}, {"is_reserved": 0, "lat": 38.917930166666665, "rental_uris": {"android": "https://dc.lft.to/lastmile_qr_scan", "ios": "https://dc.lft.to/lastmile_qr_scan"}, "bike_id": "d4a86e279d86ce79aeab48056bd57d93", "fusion_lon": 0.0, "fusion_lat": 0.0, "is_disabled": 0, "name": "d4a86e279d86ce79aeab48056bd57d93", "type": "electric_scooter", "lon": -77.0404045}, {"is_reserved": 0, "lat": 38.930944833333335, "rental_uris": {"android": "https://dc.lft.to/lastmile_qr_scan", "ios": "https://dc.lft.to/lastmile_qr_scan"}, "bike_id": "ea6a571b1dcd1559ea2a99b60c82de81", "fusion_lon": 0.0, "fusion_lat": 0.0, "is_disabled": 0, "name": "ea6a571b1dcd1559ea2a99b60c82de81", "type": "electric_scooter", "lon": -77.03746116666667}, {"is_reserved": 0, "lat": 38.93711066666667, "rental_uris": {"android": "https://dc.lft.to/lastmile_qr_scan", "ios": "https://dc.lft.to/lastmile_qr_scan"}, "bike_id": "b6fa876fbc68e5831ce0bd9d9afe9053", "fusion_lon": 0.0, "fusion_lat": 0.0, "is_disabled": 0, "name": "b6fa876fbc68e5831ce0bd9d9afe9053", "type": "electric_scooter", "lon": -77.036418}, {"is_reserved": 0, "lat": 38.900403833333336, "rental_uris": {"android": "https://dc.lft.to/lastmile_qr_scan", "ios": "https://dc.lft.to/lastmile_qr_scan"}, "bike_id": "c1cf83c35e49397ace767733e9d5fe83", "fusion_lon": 0.0, "fusion_lat": 0.0, "is_disabled": 0, "name": "c1cf83c35e49397ace767733e9d5fe83", "type": "electric_scooter", "lon": -76.99371316666667}, {"is_reserved": 0, "lat": 38.91417083333333, "rental_uris": {"android": "https://dc.lft.to/lastmile_qr_scan", "ios": "https://dc.lft.to/lastmile_qr_scan"}, "bike_id": "9f8ca84bae1c6c04aaceed2881de23df", "fusion_lon": 0.0, "fusion_lat": 0.0, "is_disabled": 0, "name": "9f8ca84bae1c6c04aaceed2881de23df", "type": "electric_scooter", "lon": -77.03175216666666}, {"is_reserved": 0, "lat": 38.91781783333333, "rental_uris": {"android": "https://dc.lft.to/lastmile_qr_scan", "ios": "https://dc.lft.to/lastmile_qr_scan"}, "bike_id": "75a599d2de8d27e155495a2adae3ae33", "fusion_lon": 0.0, "fusion_lat": 0.0, "is_disabled": 0, "name": "75a599d2de8d27e155495a2adae3ae33", "type": "electric_scooter", "lon": -77.02310116666666}, {"is_reserved": 0, "lat": 38.9342465, "rental_uris": {"android": "https://dc.lft.to/lastmile_qr_scan", "ios": "https://dc.lft.to/lastmile_qr_scan"}, "bike_id": "1b1d59596785990607dce50a7a87f2ea", "fusion_lon": 0.0, "fusion_lat": 0.0, "is_disabled": 0, "name": "1b1d59596785990607dce50a7a87f2ea", "type": "electric_scooter", "lon": -77.040007}, {"is_reserved": 0, "lat": 38.899064833333334, "rental_uris": {"android": "https://dc.lft.to/lastmile_qr_scan", "ios": "https://dc.lft.to/lastmile_qr_scan"}, "bike_id": "002a78662f447de6016bf24127f00ac0", "fusion_lon": 0.0, "fusion_lat": 0.0, "is_disabled": 0, "name": "002a78662f447de6016bf24127f00ac0", "type": "electric_scooter", "lon": -77.01517416666667}, {"is_reserved": 0, "lat": 38.89354633333333, "rental_uris": {"android": "https://dc.lft.to/lastmile_qr_scan", "ios": "https://dc.lft.to/lastmile_qr_scan"}, "bike_id": "a9128a5c842a54f0bc547feb05b46a79", "fusion_lon": 0.0, "fusion_lat": 0.0, "is_disabled": 0, "name": "a9128a5c842a54f0bc547feb05b46a79", "type": "electric_scooter", "lon": -77.04138133333333}, {"is_reserved": 0, "lat": 38.85192383333333, "rental_uris": {"android": "https://dc.lft.to/lastmile_qr_scan", "ios": "https://dc.lft.to/lastmile_qr_scan"}, "bike_id": "f3a8e84c9f899a73077e32be9202a45e", "fusion_lon": 0.0, "fusion_lat": 0.0, "is_disabled": 0, "name": "f3a8e84c9f899a73077e32be9202a45e", "type": "electric_scooter", "lon": -76.9763305}, {"is_reserved": 0, "lat": 38.917795, "rental_uris": {"android": "https://dc.lft.to/lastmile_qr_scan", "ios": "https://dc.lft.to/lastmile_qr_scan"}, "bike_id": "e7c63e4569e9a0a73bf0f737214c3284", "fusion_lon": 0.0, "fusion_lat": 0.0, "is_disabled": 0, "name": "e7c63e4569e9a0a73bf0f737214c3284", "type": "electric_scooter", "lon": -77.02309316666667}, {"is_reserved": 0, "lat": 38.94550516666666, "rental_uris": {"android": "https://dc.lft.to/lastmile_qr_scan", "ios": "https://dc.lft.to/lastmile_qr_scan"}, "bike_id": "1d930d580fa9a4a80f97947ea2ce1c34", "fusion_lon": 0.0, "fusion_lat": 0.0, "is_disabled": 0, "name": "1d930d580fa9a4a80f97947ea2ce1c34", "type": "electric_bike", "lon": -76.895336}, {"is_reserved": 0, "lat": 38.90009166666667, "rental_uris": {"android": "https://dc.lft.to/lastmile_qr_scan", "ios": "https://dc.lft.to/lastmile_qr_scan"}, "bike_id": "26115e96ef1c0194f467e552f9366477", "fusion_lon": 0.0, "fusion_lat": 0.0, "is_disabled": 0, "name": "26115e96ef1c0194f467e552f9366477", "type": "electric_scooter", "lon": -77.04668366666667}, {"is_reserved": 0, "lat": 38.89074216666667, "rental_uris": {"android": "https://dc.lft.to/lastmile_qr_scan", "ios": "https://dc.lft.to/lastmile_qr_scan"}, "bike_id": "15671666e493041e412ad943be3d36fb", "fusion_lon": 0.0, "fusion_lat": 0.0, "is_disabled": 0, "name": "15671666e493041e412ad943be3d36fb", "type": "electric_scooter", "lon": -76.9883235}, {"is_reserved": 0, "lat": 38.92585733333333, "rental_uris": {"android": "https://dc.lft.to/lastmile_qr_scan", "ios": "https://dc.lft.to/lastmile_qr_scan"}, "bike_id": "bccad6ce7396485034d4ed9ab88f6e60", "fusion_lon": 0.0, "fusion_lat": 0.0, "is_disabled": 0, "name": "bccad6ce7396485034d4ed9ab88f6e60", "type": "electric_scooter", "lon": -77.0441545}, {"is_reserved": 0, "lat": 38.916032666666666, "rental_uris": {"android": "https://dc.lft.to/lastmile_qr_scan", "ios": "https://dc.lft.to/lastmile_qr_scan"}, "bike_id": "406ca6457abd530733e3f80dfd242756", "fusion_lon": 0.0, "fusion_lat": 0.0, "is_disabled": 0, "name": "406ca6457abd530733e3f80dfd242756", "type": "electric_scooter", "lon": -77.04173083333333}, {"is_reserved": 0, "lat": 38.86506466666667, "rental_uris": {"android": "https://dc.lft.to/lastmile_qr_scan", "ios": "https://dc.lft.to/lastmile_qr_scan"}, "bike_id": "dcb0b138464e4f1ca7995b021a2b094a", "fusion_lon": 0.0, "fusion_lat": 0.0, "is_disabled": 0, "name": "dcb0b138464e4f1ca7995b021a2b094a", "type": "electric_scooter", "lon": -76.98977833333333}, {"is_reserved": 0, "lat": 38.932538666666666, "rental_uris": {"android": "https://dc.lft.to/lastmile_qr_scan", "ios": "https://dc.lft.to/lastmile_qr_scan"}, "bike_id": "ef408bd4f1ba4ef370c57b7a4ed402f4", "fusion_lon": 0.0, "fusion_lat": 0.0, "is_disabled": 0, "name": "ef408bd4f1ba4ef370c57b7a4ed402f4", "type": "electric_scooter", "lon": -77.03274483333334}, {"is_reserved": 0, "lat": 38.91685533333333, "rental_uris": {"android": "https://dc.lft.to/lastmile_qr_scan", "ios": "https://dc.lft.to/lastmile_qr_scan"}, "bike_id": "315b64dd652e80b467b17faaeb70622c", "fusion_lon": 0.0, "fusion_lat": 0.0, "is_disabled": 0, "name": "315b64dd652e80b467b17faaeb70622c", "type": "electric_scooter", "lon": -77.022874}, {"is_reserved": 0, "lat": 38.89973783333333, "rental_uris": {"android": "https://dc.lft.to/lastmile_qr_scan", "ios": "https://dc.lft.to/lastmile_qr_scan"}, "bike_id": "4972b7e71a587223c7c3978e213555b8", "fusion_lon": 0.0, "fusion_lat": 0.0, "is_disabled": 0, "name": "4972b7e71a587223c7c3978e213555b8", "type": "electric_scooter", "lon": -77.03069983333333}, {"is_reserved": 0, "lat": 38.91811833333333, "rental_uris": {"android": "https://dc.lft.to/lastmile_qr_scan", "ios": "https://dc.lft.to/lastmile_qr_scan"}, "bike_id": "2bd7db5be0211b1939ebb486e6c872b5", "fusion_lon": 0.0, "fusion_lat": 0.0, "is_disabled": 0, "name": "2bd7db5be0211b1939ebb486e6c872b5", "type": "electric_scooter", "lon": -77.034522}, {"is_reserved": 0, "lat": 38.89219, "rental_uris": {"android": "https://dc.lft.to/lastmile_qr_scan", "ios": "https://dc.lft.to/lastmile_qr_scan"}, "bike_id": "ee9dd40496e1cefa41635c3da448caa7", "fusion_lon": 0.0, "fusion_lat": 0.0, "is_disabled": 0, "name": "ee9dd40496e1cefa41635c3da448caa7", "type": "electric_scooter", "lon": -77.0277875}, {"is_reserved": 0, "lat": 38.90516616666667, "rental_uris": {"android": "https://dc.lft.to/lastmile_qr_scan", "ios": "https://dc.lft.to/lastmile_qr_scan"}, "bike_id": "ec3d4881660a378fd9791e6fad518bf4", "fusion_lon": 0.0, "fusion_lat": 0.0, "is_disabled": 0, "name": "ec3d4881660a378fd9791e6fad518bf4", "type": "electric_scooter", "lon": -77.06191116666666}, {"is_reserved": 0, "lat": 38.90871083333333, "rental_uris": {"android": "https://dc.lft.to/lastmile_qr_scan", "ios": "https://dc.lft.to/lastmile_qr_scan"}, "bike_id": "2adb8364e7e4af16b141c6593f378939", "fusion_lon": 0.0, "fusion_lat": 0.0, "is_disabled": 0, "name": "2adb8364e7e4af16b141c6593f378939", "type": "electric_scooter", "lon": -77.043462}, {"is_reserved": 0, "lat": 38.931876833333334, "rental_uris": {"android": "https://dc.lft.to/lastmile_qr_scan", "ios": "https://dc.lft.to/lastmile_qr_scan"}, "bike_id": "f755e83dd5eada0fdaf0922f995973ba", "fusion_lon": 0.0, "fusion_lat": 0.0, "is_disabled": 0, "name": "f755e83dd5eada0fdaf0922f995973ba", "type": "electric_bike", "lon": -77.02826033333334}, {"is_reserved": 0, "lat": 39.0342715, "rental_uris": {"android": "https://dc.lft.to/lastmile_qr_scan", "ios": "https://dc.lft.to/lastmile_qr_scan"}, "bike_id": "a4488c0e0006ebbb6e6baf8a091cc6d6", "fusion_lon": 0.0, "fusion_lat": 0.0, "is_disabled": 0, "name": "a4488c0e0006ebbb6e6baf8a091cc6d6", "type": "electric_bike", "lon": -77.04250166666667}, {"is_reserved": 0, "lat": 38.958793666666665, "rental_uris": {"android": "https://dc.lft.to/lastmile_qr_scan", "ios": "https://dc.lft.to/lastmile_qr_scan"}, "bike_id": "8421886810b8bcf9fe3cac15c475e459", "fusion_lon": 0.0, "fusion_lat": 0.0, "is_disabled": 0, "name": "8421886810b8bcf9fe3cac15c475e459", "type": "electric_bike", "lon": -76.9248085}, {"is_reserved": 0, "lat": 38.925370666666666, "rental_uris": {"android": "https://dc.lft.to/lastmile_qr_scan", "ios": "https://dc.lft.to/lastmile_qr_scan"}, "bike_id": "229d91ce2682af70fac9e94a60f94b0d", "fusion_lon": 0.0, "fusion_lat": 0.0, "is_disabled": 0, "name": "229d91ce2682af70fac9e94a60f94b0d", "type": "electric_scooter", "lon": -77.0263635}, {"is_reserved": 0, "lat": 38.9341475, "rental_uris": {"android": "https://dc.lft.to/lastmile_qr_scan", "ios": "https://dc.lft.to/lastmile_qr_scan"}, "bike_id": "17009cff2c0e5875d7a546f6952157e7", "fusion_lon": 0.0, "fusion_lat": 0.0, "is_disabled": 0, "name": "17009cff2c0e5875d7a546f6952157e7", "type": "electric_scooter", "lon": -77.03291633333333}, {"is_reserved": 0, "lat": 38.8836615, "rental_uris": {"android": "https://dc.lft.to/lastmile_qr_scan", "ios": "https://dc.lft.to/lastmile_qr_scan"}, "bike_id": "e74a8e4ee9397f3fb2631d4adb9cde87", "fusion_lon": 0.0, "fusion_lat": 0.0, "is_disabled": 0, "name": "e74a8e4ee9397f3fb2631d4adb9cde87", "type": "electric_scooter", "lon": -76.995103}, {"is_reserved": 0, "lat": 38.87629183333333, "rental_uris": {"android": "https://dc.lft.to/lastmile_qr_scan", "ios": "https://dc.lft.to/lastmile_qr_scan"}, "bike_id": "1a559428446c4e9b47652b3fc49872ab", "fusion_lon": 0.0, "fusion_lat": 0.0, "is_disabled": 0, "name": "1a559428446c4e9b47652b3fc49872ab", "type": "electric_scooter", "lon": -76.96525666666666}, {"is_reserved": 0, "lat": 38.88362566666667, "rental_uris": {"android": "https://dc.lft.to/lastmile_qr_scan", "ios": "https://dc.lft.to/lastmile_qr_scan"}, "bike_id": "0922f3be831e3c0e7c2f7a75c95571c2", "fusion_lon": 0.0, "fusion_lat": 0.0, "is_disabled": 0, "name": "0922f3be831e3c0e7c2f7a75c95571c2", "type": "electric_scooter", "lon": -76.94155016666667}, {"is_reserved": 0, "lat": 38.92064666666667, "rental_uris": {"android": "https://dc.lft.to/lastmile_qr_scan", "ios": "https://dc.lft.to/lastmile_qr_scan"}, "bike_id": "522ba11234fd804c01d32b86b9d1d081", "fusion_lon": 0.0, "fusion_lat": 0.0, "is_disabled": 0, "name": "522ba11234fd804c01d32b86b9d1d081", "type": "electric_scooter", "lon": -77.07884633333333}, {"is_reserved": 0, "lat": 38.936013833333334, "rental_uris": {"android": "https://dc.lft.to/lastmile_qr_scan", "ios": "https://dc.lft.to/lastmile_qr_scan"}, "bike_id": "fa011f70c088a1463d3fbd9afb8f5fca", "fusion_lon": 0.0, "fusion_lat": 0.0, "is_disabled": 0, "name": "fa011f70c088a1463d3fbd9afb8f5fca", "type": "electric_scooter", "lon": -77.058558}, {"is_reserved": 0, "lat": 38.910345666666664, "rental_uris": {"android": "https://dc.lft.to/lastmile_qr_scan", "ios": "https://dc.lft.to/lastmile_qr_scan"}, "bike_id": "422a05cf5030687a7fa426d6779c1b54", "fusion_lon": 0.0, "fusion_lat": 0.0, "is_disabled": 0, "name": "422a05cf5030687a7fa426d6779c1b54", "type": "electric_scooter", "lon": -76.99341433333333}, {"is_reserved": 0, "lat": 38.938612166666665, "rental_uris": {"android": "https://dc.lft.to/lastmile_qr_scan", "ios": "https://dc.lft.to/lastmile_qr_scan"}, "bike_id": "fbf32b9a63f2169327e132714ecd267d", "fusion_lon": 0.0, "fusion_lat": 0.0, "is_disabled": 0, "name": "fbf32b9a63f2169327e132714ecd267d", "type": "electric_scooter", "lon": -77.0309235}, {"is_reserved": 0, "lat": 39.03045616666667, "rental_uris": {"android": "https://dc.lft.to/lastmile_qr_scan", "ios": "https://dc.lft.to/lastmile_qr_scan"}, "bike_id": "364b8a5be431a4610ff5dc10c2465cea", "fusion_lon": 0.0, "fusion_lat": 0.0, "is_disabled": 0, "name": "364b8a5be431a4610ff5dc10c2465cea", "type": "electric_bike", "lon": -77.09473266666667}, {"is_reserved": 0, "lat": 38.908594666666666, "rental_uris": {"android": "https://dc.lft.to/lastmile_qr_scan", "ios": "https://dc.lft.to/lastmile_qr_scan"}, "bike_id": "e3f31f5eaa9f80397ffb3499e79ad087", "fusion_lon": 0.0, "fusion_lat": 0.0, "is_disabled": 0, "name": "e3f31f5eaa9f80397ffb3499e79ad087", "type": "electric_scooter", "lon": -77.0346475}, {"is_reserved": 0, "lat": 38.87666383333333, "rental_uris": {"android": "https://dc.lft.to/lastmile_qr_scan", "ios": "https://dc.lft.to/lastmile_qr_scan"}, "bike_id": "9b58fbc8649ba3ae7ddd8f2a305b6497", "fusion_lon": 0.0, "fusion_lat": 0.0, "is_disabled": 0, "name": "9b58fbc8649ba3ae7ddd8f2a305b6497", "type": "electric_scooter", "lon": -77.00413633333334}, {"is_reserved": 0, "lat": 38.90725783333333, "rental_uris": {"android": "https://dc.lft.to/lastmile_qr_scan", "ios": "https://dc.lft.to/lastmile_qr_scan"}, "bike_id": "464c632f388879ec6b962865e707f1db", "fusion_lon": 0.0, "fusion_lat": 0.0, "is_disabled": 0, "name": "464c632f388879ec6b962865e707f1db", "type": "electric_scooter", "lon": -77.01132083333333}, {"is_reserved": 0, "lat": 38.93948, "rental_uris": {"android": "https://dc.lft.to/lastmile_qr_scan", "ios": "https://dc.lft.to/lastmile_qr_scan"}, "bike_id": "b93580245a026a2c45bae5922dfdad18", "fusion_lon": 0.0, "fusion_lat": 0.0, "is_disabled": 0, "name": "b93580245a026a2c45bae5922dfdad18", "type": "electric_scooter", "lon": -77.07248733333333}, {"is_reserved": 0, "lat": 38.89527433333333, "rental_uris": {"android": "https://dc.lft.to/lastmile_qr_scan", "ios": "https://dc.lft.to/lastmile_qr_scan"}, "bike_id": "162627966cd6d5e448945a2ccf416e07", "fusion_lon": 0.0, "fusion_lat": 0.0, "is_disabled": 0, "name": "162627966cd6d5e448945a2ccf416e07", "type": "electric_scooter", "lon": -76.94889766666667}, {"is_reserved": 0, "lat": 39.024302166666665, "rental_uris": {"android": "https://dc.lft.to/lastmile_qr_scan", "ios": "https://dc.lft.to/lastmile_qr_scan"}, "bike_id": "7b18e528d36408d30c40c76fabe03b03", "fusion_lon": 0.0, "fusion_lat": 0.0, "is_disabled": 0, "name": "7b18e528d36408d30c40c76fabe03b03", "type": "electric_bike", "lon": -77.1309645}, {"is_reserved": 0, "lat": 38.900098, "rental_uris": {"android": "https://dc.lft.to/lastmile_qr_scan", "ios": "https://dc.lft.to/lastmile_qr_scan"}, "bike_id": "b8174385aab16c2dc257d2e1e0f16b3e", "fusion_lon": 0.0, "fusion_lat": 0.0, "is_disabled": 0, "name": "b8174385aab16c2dc257d2e1e0f16b3e", "type": "electric_scooter", "lon": -76.92230566666667}, {"is_reserved": 0, "lat": 38.89349466666667, "rental_uris": {"android": "https://dc.lft.to/lastmile_qr_scan", "ios": "https://dc.lft.to/lastmile_qr_scan"}, "bike_id": "0282bbd5f73247182b1dfc9a5e9a6ed2", "fusion_lon": 0.0, "fusion_lat": 0.0, "is_disabled": 0, "name": "0282bbd5f73247182b1dfc9a5e9a6ed2", "type": "electric_bike", "lon": -77.1873955}, {"is_reserved": 0, "lat": 38.916909833333335, "rental_uris": {"android": "https://dc.lft.to/lastmile_qr_scan", "ios": "https://dc.lft.to/lastmile_qr_scan"}, "bike_id": "807a5416633262e09613020802df4a2a", "fusion_lon": 0.0, "fusion_lat": 0.0, "is_disabled": 0, "name": "807a5416633262e09613020802df4a2a", "type": "electric_scooter", "lon": -77.03767916666666}, {"is_reserved": 0, "lat": 38.905465166666666, "rental_uris": {"android": "https://dc.lft.to/lastmile_qr_scan", "ios": "https://dc.lft.to/lastmile_qr_scan"}, "bike_id": "d57a633a5ac4777999f9c2e7d9abacdf", "fusion_lon": 0.0, "fusion_lat": 0.0, "is_disabled": 0, "name": "d57a633a5ac4777999f9c2e7d9abacdf", "type": "electric_scooter", "lon": -77.02199616666667}, {"is_reserved": 0, "lat": 38.90975916666667, "rental_uris": {"android": "https://dc.lft.to/lastmile_qr_scan", "ios": "https://dc.lft.to/lastmile_qr_scan"}, "bike_id": "77ab85f9785e2f214dee1b4d496d31a5", "fusion_lon": 0.0, "fusion_lat": 0.0, "is_disabled": 0, "name": "77ab85f9785e2f214dee1b4d496d31a5", "type": "electric_scooter", "lon": -77.02177683333333}, {"is_reserved": 0, "lat": 38.919929, "rental_uris": {"android": "https://dc.lft.to/lastmile_qr_scan", "ios": "https://dc.lft.to/lastmile_qr_scan"}, "bike_id": "ca6b5263ee47ab898d0dd1185569df09", "fusion_lon": 0.0, "fusion_lat": 0.0, "is_disabled": 0, "name": "ca6b5263ee47ab898d0dd1185569df09", "type": "electric_scooter", "lon": -77.03219116666666}, {"is_reserved": 0, "lat": 38.905250833333334, "rental_uris": {"android": "https://dc.lft.to/lastmile_qr_scan", "ios": "https://dc.lft.to/lastmile_qr_scan"}, "bike_id": "2d61936894602d006531d17c9c456f08", "fusion_lon": 0.0, "fusion_lat": 0.0, "is_disabled": 0, "name": "2d61936894602d006531d17c9c456f08", "type": "electric_scooter", "lon": -77.041859}, {"is_reserved": 0, "lat": 38.917079666666666, "rental_uris": {"android": "https://dc.lft.to/lastmile_qr_scan", "ios": "https://dc.lft.to/lastmile_qr_scan"}, "bike_id": "d35961a80dcdf5ccab6edab2091e54da", "fusion_lon": 0.0, "fusion_lat": 0.0, "is_disabled": 0, "name": "d35961a80dcdf5ccab6edab2091e54da", "type": "electric_scooter", "lon": -77.02281983333333}, {"is_reserved": 0, "lat": 38.9073485, "rental_uris": {"android": "https://dc.lft.to/lastmile_qr_scan", "ios": "https://dc.lft.to/lastmile_qr_scan"}, "bike_id": "37bd58187afda2a54e90bd377f6a88d8", "fusion_lon": 0.0, "fusion_lat": 0.0, "is_disabled": 0, "name": "37bd58187afda2a54e90bd377f6a88d8", "type": "electric_scooter", "lon": -77.0279555}, {"is_reserved": 0, "lat": 38.862573833333336, "rental_uris": {"android": "https://dc.lft.to/lastmile_qr_scan", "ios": "https://dc.lft.to/lastmile_qr_scan"}, "bike_id": "0e1af28a0899d808105aa068400c6843", "fusion_lon": 0.0, "fusion_lat": 0.0, "is_disabled": 0, "name": "0e1af28a0899d808105aa068400c6843", "type": "electric_scooter", "lon": -76.9951545}, {"is_reserved": 0, "lat": 38.91685433333333, "rental_uris": {"android": "https://dc.lft.to/lastmile_qr_scan", "ios": "https://dc.lft.to/lastmile_qr_scan"}, "bike_id": "876be33ea9a9b56c4234f3ff91850e45", "fusion_lon": 0.0, "fusion_lat": 0.0, "is_disabled": 0, "name": "876be33ea9a9b56c4234f3ff91850e45", "type": "electric_scooter", "lon": -77.02972216666667}, {"is_reserved": 0, "lat": 38.923602333333335, "rental_uris": {"android": "https://dc.lft.to/lastmile_qr_scan", "ios": "https://dc.lft.to/lastmile_qr_scan"}, "bike_id": "70982ccc7e2fa7bc8f8d552c471aef42", "fusion_lon": 0.0, "fusion_lat": 0.0, "is_disabled": 0, "name": "70982ccc7e2fa7bc8f8d552c471aef42", "type": "electric_scooter", "lon": -77.0512985}, {"is_reserved": 0, "lat": 38.911131833333336, "rental_uris": {"android": "https://dc.lft.to/lastmile_qr_scan", "ios": "https://dc.lft.to/lastmile_qr_scan"}, "bike_id": "51c1d86392eae60c1497cc0c6ecf6d66", "fusion_lon": 0.0, "fusion_lat": 0.0, "is_disabled": 0, "name": "51c1d86392eae60c1497cc0c6ecf6d66", "type": "electric_scooter", "lon": -77.037961}, {"is_reserved": 0, "lat": 38.917989, "rental_uris": {"android": "https://dc.lft.to/lastmile_qr_scan", "ios": "https://dc.lft.to/lastmile_qr_scan"}, "bike_id": "4a694b44e8ae0f9884c344a75aaf4fdc", "fusion_lon": 0.0, "fusion_lat": 0.0, "is_disabled": 0, "name": "4a694b44e8ae0f9884c344a75aaf4fdc", "type": "electric_scooter", "lon": -77.034414}, {"is_reserved": 0, "lat": 38.890417, "rental_uris": {"android": "https://dc.lft.to/lastmile_qr_scan", "ios": "https://dc.lft.to/lastmile_qr_scan"}, "bike_id": "22c80934beb6945df68821f34c17bef1", "fusion_lon": 0.0, "fusion_lat": 0.0, "is_disabled": 0, "name": "22c80934beb6945df68821f34c17bef1", "type": "electric_scooter", "lon": -76.95246283333333}, {"is_reserved": 0, "lat": 38.90289666666666, "rental_uris": {"android": "https://dc.lft.to/lastmile_qr_scan", "ios": "https://dc.lft.to/lastmile_qr_scan"}, "bike_id": "b36f97d496b1345aafb903d1f96564d1", "fusion_lon": 0.0, "fusion_lat": 0.0, "is_disabled": 0, "name": "b36f97d496b1345aafb903d1f96564d1", "type": "electric_scooter", "lon": -77.04394266666667}, {"is_reserved": 0, "lat": 38.8873785, "rental_uris": {"android": "https://dc.lft.to/lastmile_qr_scan", "ios": "https://dc.lft.to/lastmile_qr_scan"}, "bike_id": "671a01470a8638ff95db5c3e87eca6bd", "fusion_lon": 0.0, "fusion_lat": 0.0, "is_disabled": 0, "name": "671a01470a8638ff95db5c3e87eca6bd", "type": "electric_scooter", "lon": -77.01530483333333}, {"is_reserved": 0, "lat": 39.056345, "rental_uris": {"android": "https://dc.lft.to/lastmile_qr_scan", "ios": "https://dc.lft.to/lastmile_qr_scan"}, "bike_id": "fe5031a9dbad7f75f50f13bdb3e4e211", "fusion_lon": 0.0, "fusion_lat": 0.0, "is_disabled": 0, "name": "fe5031a9dbad7f75f50f13bdb3e4e211", "type": "electric_bike", "lon": -77.12525466666666}, {"is_reserved": 0, "lat": 38.91759783333333, "rental_uris": {"android": "https://dc.lft.to/lastmile_qr_scan", "ios": "https://dc.lft.to/lastmile_qr_scan"}, "bike_id": "7638e8bb2ee28386c722de80ecb30d7e", "fusion_lon": 0.0, "fusion_lat": 0.0, "is_disabled": 0, "name": "7638e8bb2ee28386c722de80ecb30d7e", "type": "electric_scooter", "lon": -77.036464}, {"is_reserved": 0, "lat": 38.89823916666667, "rental_uris": {"android": "https://dc.lft.to/lastmile_qr_scan", "ios": "https://dc.lft.to/lastmile_qr_scan"}, "bike_id": "2132c3f16d82c2d359c5375c19700517", "fusion_lon": 0.0, "fusion_lat": 0.0, "is_disabled": 0, "name": "2132c3f16d82c2d359c5375c19700517", "type": "electric_scooter", "lon": -76.94652783333333}, {"is_reserved": 0, "lat": 38.918822166666665, "rental_uris": {"android": "https://dc.lft.to/lastmile_qr_scan", "ios": "https://dc.lft.to/lastmile_qr_scan"}, "bike_id": "86e178a172c3eb907ea57a108fd03dd6", "fusion_lon": 0.0, "fusion_lat": 0.0, "is_disabled": 0, "name": "86e178a172c3eb907ea57a108fd03dd6", "type": "electric_scooter", "lon": -77.03180116666667}, {"is_reserved": 0, "lat": 38.898143833333336, "rental_uris": {"android": "https://dc.lft.to/lastmile_qr_scan", "ios": "https://dc.lft.to/lastmile_qr_scan"}, "bike_id": "52881c953d7d4fd22b7ee52236f3f858", "fusion_lon": 0.0, "fusion_lat": 0.0, "is_disabled": 0, "name": "52881c953d7d4fd22b7ee52236f3f858", "type": "electric_scooter", "lon": -77.03108333333333}, {"is_reserved": 0, "lat": 38.90728333333333, "rental_uris": {"android": "https://dc.lft.to/lastmile_qr_scan", "ios": "https://dc.lft.to/lastmile_qr_scan"}, "bike_id": "056adb376710b73e09115453192e5282", "fusion_lon": 0.0, "fusion_lat": 0.0, "is_disabled": 0, "name": "056adb376710b73e09115453192e5282", "type": "electric_scooter", "lon": -77.02415616666667}, {"is_reserved": 0, "lat": 38.9243775, "rental_uris": {"android": "https://dc.lft.to/lastmile_qr_scan", "ios": "https://dc.lft.to/lastmile_qr_scan"}, "bike_id": "71e5795d6ac01181de3657072cfe7f5d", "fusion_lon": 0.0, "fusion_lat": 0.0, "is_disabled": 0, "name": "71e5795d6ac01181de3657072cfe7f5d", "type": "electric_scooter", "lon": -77.052012}, {"is_reserved": 0, "lat": 38.87668033333333, "rental_uris": {"android": "https://dc.lft.to/lastmile_qr_scan", "ios": "https://dc.lft.to/lastmile_qr_scan"}, "bike_id": "a1def3e615a45926537439c5b89eca0c", "fusion_lon": 0.0, "fusion_lat": 0.0, "is_disabled": 0, "name": "a1def3e615a45926537439c5b89eca0c", "type": "electric_scooter", "lon": -77.00411633333333}, {"is_reserved": 0, "lat": 38.94069616666667, "rental_uris": {"android": "https://dc.lft.to/lastmile_qr_scan", "ios": "https://dc.lft.to/lastmile_qr_scan"}, "bike_id": "3c664e0ff8a552bfd3cd85529838734b", "fusion_lon": 0.0, "fusion_lat": 0.0, "is_disabled": 0, "name": "3c664e0ff8a552bfd3cd85529838734b", "type": "electric_scooter", "lon": -77.01146983333334}, {"is_reserved": 0, "lat": 38.8567545, "rental_uris": {"android": "https://dc.lft.to/lastmile_qr_scan", "ios": "https://dc.lft.to/lastmile_qr_scan"}, "bike_id": "64f47893df03f0edee0fdf9a8d3839f9", "fusion_lon": 0.0, "fusion_lat": 0.0, "is_disabled": 0, "name": "64f47893df03f0edee0fdf9a8d3839f9", "type": "electric_scooter", "lon": -76.98176366666667}, {"is_reserved": 0, "lat": 38.837397333333335, "rental_uris": {"android": "https://dc.lft.to/lastmile_qr_scan", "ios": "https://dc.lft.to/lastmile_qr_scan"}, "bike_id": "0f9201563745672b7dc243bc925f3c84", "fusion_lon": 0.0, "fusion_lat": 0.0, "is_disabled": 0, "name": "0f9201563745672b7dc243bc925f3c84", "type": "electric_bike", "lon": -76.99768533333334}, {"is_reserved": 0, "lat": 38.84272983333334, "rental_uris": {"android": "https://dc.lft.to/lastmile_qr_scan", "ios": "https://dc.lft.to/lastmile_qr_scan"}, "bike_id": "4d09f0dda84a6ba2f40b69d84ab34e90", "fusion_lon": 0.0, "fusion_lat": 0.0, "is_disabled": 0, "name": "4d09f0dda84a6ba2f40b69d84ab34e90", "type": "electric_bike", "lon": -76.9884035}, {"is_reserved": 0, "lat": 38.90339516666667, "rental_uris": {"android": "https://dc.lft.to/lastmile_qr_scan", "ios": "https://dc.lft.to/lastmile_qr_scan"}, "bike_id": "fb06d5ba0042c7f82ff5eebb76920908", "fusion_lon": 0.0, "fusion_lat": 0.0, "is_disabled": 0, "name": "fb06d5ba0042c7f82ff5eebb76920908", "type": "electric_scooter", "lon": -77.050326}, {"is_reserved": 0, "lat": 38.917324, "rental_uris": {"android": "https://dc.lft.to/lastmile_qr_scan", "ios": "https://dc.lft.to/lastmile_qr_scan"}, "bike_id": "e1dc88c524c180bbb144714f3cfd61ab", "fusion_lon": 0.0, "fusion_lat": 0.0, "is_disabled": 0, "name": "e1dc88c524c180bbb144714f3cfd61ab", "type": "electric_scooter", "lon": -77.03656083333334}, {"is_reserved": 0, "lat": 38.92402283333333, "rental_uris": {"android": "https://dc.lft.to/lastmile_qr_scan", "ios": "https://dc.lft.to/lastmile_qr_scan"}, "bike_id": "09bdb9d4b18fa716d8cf16233b18a499", "fusion_lon": 0.0, "fusion_lat": 0.0, "is_disabled": 0, "name": "09bdb9d4b18fa716d8cf16233b18a499", "type": "electric_scooter", "lon": -77.02702366666666}, {"is_reserved": 0, "lat": 38.86507983333333, "rental_uris": {"android": "https://dc.lft.to/lastmile_qr_scan", "ios": "https://dc.lft.to/lastmile_qr_scan"}, "bike_id": "57fdb69d0693e00194b9d2b3095a64cb", "fusion_lon": 0.0, "fusion_lat": 0.0, "is_disabled": 0, "name": "57fdb69d0693e00194b9d2b3095a64cb", "type": "electric_scooter", "lon": -76.99005416666667}, {"is_reserved": 0, "lat": 38.90116283333333, "rental_uris": {"android": "https://dc.lft.to/lastmile_qr_scan", "ios": "https://dc.lft.to/lastmile_qr_scan"}, "bike_id": "3958ab88a69ee8f22576c6a2ec489f7a", "fusion_lon": 0.0, "fusion_lat": 0.0, "is_disabled": 0, "name": "3958ab88a69ee8f22576c6a2ec489f7a", "type": "electric_scooter", "lon": -77.04313883333333}, {"is_reserved": 0, "lat": 38.91810916666667, "rental_uris": {"android": "https://dc.lft.to/lastmile_qr_scan", "ios": "https://dc.lft.to/lastmile_qr_scan"}, "bike_id": "2d76ac982d980c5a0326d0c892a7fde3", "fusion_lon": 0.0, "fusion_lat": 0.0, "is_disabled": 0, "name": "2d76ac982d980c5a0326d0c892a7fde3", "type": "electric_scooter", "lon": -77.04161633333334}, {"is_reserved": 0, "lat": 38.93484316666667, "rental_uris": {"android": "https://dc.lft.to/lastmile_qr_scan", "ios": "https://dc.lft.to/lastmile_qr_scan"}, "bike_id": "52a27e1cf15fc7b74b24b266bbacde0a", "fusion_lon": 0.0, "fusion_lat": 0.0, "is_disabled": 0, "name": "52a27e1cf15fc7b74b24b266bbacde0a", "type": "electric_scooter", "lon": -77.07272866666666}, {"is_reserved": 0, "lat": 38.902717333333335, "rental_uris": {"android": "https://dc.lft.to/lastmile_qr_scan", "ios": "https://dc.lft.to/lastmile_qr_scan"}, "bike_id": "893245797c93758370fbc3554daf0e6e", "fusion_lon": 0.0, "fusion_lat": 0.0, "is_disabled": 0, "name": "893245797c93758370fbc3554daf0e6e", "type": "electric_scooter", "lon": -77.029449}, {"is_reserved": 0, "lat": 38.93689283333333, "rental_uris": {"android": "https://dc.lft.to/lastmile_qr_scan", "ios": "https://dc.lft.to/lastmile_qr_scan"}, "bike_id": "014b70a3e4c866a708802cdcd742b20a", "fusion_lon": 0.0, "fusion_lat": 0.0, "is_disabled": 0, "name": "014b70a3e4c866a708802cdcd742b20a", "type": "electric_bike", "lon": -77.05644866666667}, {"is_reserved": 0, "lat": 38.89212533333333, "rental_uris": {"android": "https://dc.lft.to/lastmile_qr_scan", "ios": "https://dc.lft.to/lastmile_qr_scan"}, "bike_id": "846adf997891446f2fc2a03e2f8d46be", "fusion_lon": 0.0, "fusion_lat": 0.0, "is_disabled": 0, "name": "846adf997891446f2fc2a03e2f8d46be", "type": "electric_scooter", "lon": -76.99566133333333}, {"is_reserved": 0, "lat": 38.92932583333333, "rental_uris": {"android": "https://dc.lft.to/lastmile_qr_scan", "ios": "https://dc.lft.to/lastmile_qr_scan"}, "bike_id": "3f9e0c732d28431bbce86b7ac89a7940", "fusion_lon": 0.0, "fusion_lat": 0.0, "is_disabled": 0, "name": "3f9e0c732d28431bbce86b7ac89a7940", "type": "electric_scooter", "lon": -77.03766966666667}, {"is_reserved": 0, "lat": 38.90630783333334, "rental_uris": {"android": "https://dc.lft.to/lastmile_qr_scan", "ios": "https://dc.lft.to/lastmile_qr_scan"}, "bike_id": "44c6d3d7da9bfc42a1381d4d2d37a09a", "fusion_lon": 0.0, "fusion_lat": 0.0, "is_disabled": 0, "name": "44c6d3d7da9bfc42a1381d4d2d37a09a", "type": "electric_scooter", "lon": -77.00596716666666}, {"is_reserved": 0, "lat": 38.90379133333333, "rental_uris": {"android": "https://dc.lft.to/lastmile_qr_scan", "ios": "https://dc.lft.to/lastmile_qr_scan"}, "bike_id": "be55c189138c5373f47e4f976fb77c4c", "fusion_lon": 0.0, "fusion_lat": 0.0, "is_disabled": 0, "name": "be55c189138c5373f47e4f976fb77c4c", "type": "electric_scooter", "lon": -77.04492866666666}, {"is_reserved": 0, "lat": 38.926685166666665, "rental_uris": {"android": "https://dc.lft.to/lastmile_qr_scan", "ios": "https://dc.lft.to/lastmile_qr_scan"}, "bike_id": "abc7f965e3532ef973aae73775ff2ac4", "fusion_lon": 0.0, "fusion_lat": 0.0, "is_disabled": 0, "name": "abc7f965e3532ef973aae73775ff2ac4", "type": "electric_scooter", "lon": -76.9954355}, {"is_reserved": 0, "lat": 38.9111105, "rental_uris": {"android": "https://dc.lft.to/lastmile_qr_scan", "ios": "https://dc.lft.to/lastmile_qr_scan"}, "bike_id": "9798ee6d6ce72c6a41ae7c941586de0e", "fusion_lon": 0.0, "fusion_lat": 0.0, "is_disabled": 0, "name": "9798ee6d6ce72c6a41ae7c941586de0e", "type": "electric_scooter", "lon": -77.04309316666667}, {"is_reserved": 0, "lat": 38.9029015, "rental_uris": {"android": "https://dc.lft.to/lastmile_qr_scan", "ios": "https://dc.lft.to/lastmile_qr_scan"}, "bike_id": "ca656fda07543067e26d625c2847a061", "fusion_lon": 0.0, "fusion_lat": 0.0, "is_disabled": 0, "name": "ca656fda07543067e26d625c2847a061", "type": "electric_scooter", "lon": -77.04614416666666}, {"is_reserved": 0, "lat": 38.88673633333333, "rental_uris": {"android": "https://dc.lft.to/lastmile_qr_scan", "ios": "https://dc.lft.to/lastmile_qr_scan"}, "bike_id": "403884da69dc5fb463f7d80a90a53910", "fusion_lon": 0.0, "fusion_lat": 0.0, "is_disabled": 0, "name": "403884da69dc5fb463f7d80a90a53910", "type": "electric_scooter", "lon": -76.98560316666666}, {"is_reserved": 0, "lat": 38.896937666666666, "rental_uris": {"android": "https://dc.lft.to/lastmile_qr_scan", "ios": "https://dc.lft.to/lastmile_qr_scan"}, "bike_id": "28ddef683f79751f68574141e88a8933", "fusion_lon": 0.0, "fusion_lat": 0.0, "is_disabled": 0, "name": "28ddef683f79751f68574141e88a8933", "type": "electric_scooter", "lon": -77.00491466666666}, {"is_reserved": 0, "lat": 38.919441166666665, "rental_uris": {"android": "https://dc.lft.to/lastmile_qr_scan", "ios": "https://dc.lft.to/lastmile_qr_scan"}, "bike_id": "4e75fa8faf0d5cae7c552c5af94c2a6b", "fusion_lon": 0.0, "fusion_lat": 0.0, "is_disabled": 0, "name": "4e75fa8faf0d5cae7c552c5af94c2a6b", "type": "electric_scooter", "lon": -77.02494683333333}, {"is_reserved": 0, "lat": 38.92844783333334, "rental_uris": {"android": "https://dc.lft.to/lastmile_qr_scan", "ios": "https://dc.lft.to/lastmile_qr_scan"}, "bike_id": "b606020f2fcd0a17cf55ca4cabce90f7", "fusion_lon": 0.0, "fusion_lat": 0.0, "is_disabled": 0, "name": "b606020f2fcd0a17cf55ca4cabce90f7", "type": "electric_scooter", "lon": -77.0159285}, {"is_reserved": 0, "lat": 38.87665766666667, "rental_uris": {"android": "https://dc.lft.to/lastmile_qr_scan", "ios": "https://dc.lft.to/lastmile_qr_scan"}, "bike_id": "0f5e75d4f2e6d73a489387343cdb49a9", "fusion_lon": 0.0, "fusion_lat": 0.0, "is_disabled": 0, "name": "0f5e75d4f2e6d73a489387343cdb49a9", "type": "electric_scooter", "lon": -77.00406483333333}, {"is_reserved": 0, "lat": 38.904079333333335, "rental_uris": {"android": "https://dc.lft.to/lastmile_qr_scan", "ios": "https://dc.lft.to/lastmile_qr_scan"}, "bike_id": "4aae6c09c65235be83ccc5ace50d087c", "fusion_lon": 0.0, "fusion_lat": 0.0, "is_disabled": 0, "name": "4aae6c09c65235be83ccc5ace50d087c", "type": "electric_scooter", "lon": -77.025809}, {"is_reserved": 0, "lat": 38.852053, "rental_uris": {"android": "https://dc.lft.to/lastmile_qr_scan", "ios": "https://dc.lft.to/lastmile_qr_scan"}, "bike_id": "d0783c5ac692e40f0c0b8337ccebd71f", "fusion_lon": 0.0, "fusion_lat": 0.0, "is_disabled": 0, "name": "d0783c5ac692e40f0c0b8337ccebd71f", "type": "electric_bike", "lon": -76.98551066666667}, {"is_reserved": 0, "lat": 38.9183595, "rental_uris": {"android": "https://dc.lft.to/lastmile_qr_scan", "ios": "https://dc.lft.to/lastmile_qr_scan"}, "bike_id": "82ad94c128b22e83cc8ec9604e4c4bff", "fusion_lon": 0.0, "fusion_lat": 0.0, "is_disabled": 0, "name": "82ad94c128b22e83cc8ec9604e4c4bff", "type": "electric_scooter", "lon": -77.041714}, {"is_reserved": 0, "lat": 38.90368933333333, "rental_uris": {"android": "https://dc.lft.to/lastmile_qr_scan", "ios": "https://dc.lft.to/lastmile_qr_scan"}, "bike_id": "e2d5d23273b809ad6bf1e02cb2cd1e2d", "fusion_lon": 0.0, "fusion_lat": 0.0, "is_disabled": 0, "name": "e2d5d23273b809ad6bf1e02cb2cd1e2d", "type": "electric_scooter", "lon": -77.01847566666666}, {"is_reserved": 0, "lat": 38.925703166666665, "rental_uris": {"android": "https://dc.lft.to/lastmile_qr_scan", "ios": "https://dc.lft.to/lastmile_qr_scan"}, "bike_id": "cf8d1da8f2625a4d927f4caa233e70cc", "fusion_lon": 0.0, "fusion_lat": 0.0, "is_disabled": 0, "name": "cf8d1da8f2625a4d927f4caa233e70cc", "type": "electric_scooter", "lon": -77.05757716666666}, {"is_reserved": 0, "lat": 38.917092833333335, "rental_uris": {"android": "https://dc.lft.to/lastmile_qr_scan", "ios": "https://dc.lft.to/lastmile_qr_scan"}, "bike_id": "2114c6e98a2d43ec855203170672486d", "fusion_lon": 0.0, "fusion_lat": 0.0, "is_disabled": 0, "name": "2114c6e98a2d43ec855203170672486d", "type": "electric_scooter", "lon": -77.02573533333333}, {"is_reserved": 0, "lat": 38.932534833333335, "rental_uris": {"android": "https://dc.lft.to/lastmile_qr_scan", "ios": "https://dc.lft.to/lastmile_qr_scan"}, "bike_id": "e98b6b325fc603c2656c8e761585cbb6", "fusion_lon": 0.0, "fusion_lat": 0.0, "is_disabled": 0, "name": "e98b6b325fc603c2656c8e761585cbb6", "type": "electric_scooter", "lon": -77.0326905}, {"is_reserved": 0, "lat": 38.91925716666667, "rental_uris": {"android": "https://dc.lft.to/lastmile_qr_scan", "ios": "https://dc.lft.to/lastmile_qr_scan"}, "bike_id": "edd23b3499036f4935272d2a93e6c305", "fusion_lon": 0.0, "fusion_lat": 0.0, "is_disabled": 0, "name": "edd23b3499036f4935272d2a93e6c305", "type": "electric_scooter", "lon": -77.04791316666666}, {"is_reserved": 0, "lat": 38.956342, "rental_uris": {"android": "https://dc.lft.to/lastmile_qr_scan", "ios": "https://dc.lft.to/lastmile_qr_scan"}, "bike_id": "eacbb8f7d0ca42685d26fa1bdd5f96e7", "fusion_lon": 0.0, "fusion_lat": 0.0, "is_disabled": 0, "name": "eacbb8f7d0ca42685d26fa1bdd5f96e7", "type": "electric_bike", "lon": -76.938841}, {"is_reserved": 0, "lat": 38.897739, "rental_uris": {"android": "https://dc.lft.to/lastmile_qr_scan", "ios": "https://dc.lft.to/lastmile_qr_scan"}, "bike_id": "ff158c017e17fc1c6d258a4b10246bc8", "fusion_lon": 0.0, "fusion_lat": 0.0, "is_disabled": 0, "name": "ff158c017e17fc1c6d258a4b10246bc8", "type": "electric_bike", "lon": -76.90440833333334}, {"is_reserved": 0, "lat": 38.9352055, "rental_uris": {"android": "https://dc.lft.to/lastmile_qr_scan", "ios": "https://dc.lft.to/lastmile_qr_scan"}, "bike_id": "60d014f18f3d1e843145a07007a86449", "fusion_lon": 0.0, "fusion_lat": 0.0, "is_disabled": 0, "name": "60d014f18f3d1e843145a07007a86449", "type": "electric_scooter", "lon": -77.03261083333334}, {"is_reserved": 0, "lat": 38.91499666666667, "rental_uris": {"android": "https://dc.lft.to/lastmile_qr_scan", "ios": "https://dc.lft.to/lastmile_qr_scan"}, "bike_id": "3049e28538230e0e299d3b7247dc5c8d", "fusion_lon": 0.0, "fusion_lat": 0.0, "is_disabled": 0, "name": "3049e28538230e0e299d3b7247dc5c8d", "type": "electric_scooter", "lon": -77.01220916666666}, {"is_reserved": 0, "lat": 38.90133683333333, "rental_uris": {"android": "https://dc.lft.to/lastmile_qr_scan", "ios": "https://dc.lft.to/lastmile_qr_scan"}, "bike_id": "c430929e41342a799d7c8742cd95119d", "fusion_lon": 0.0, "fusion_lat": 0.0, "is_disabled": 0, "name": "c430929e41342a799d7c8742cd95119d", "type": "electric_scooter", "lon": -77.02002483333334}, {"is_reserved": 0, "lat": 38.9078995, "rental_uris": {"android": "https://dc.lft.to/lastmile_qr_scan", "ios": "https://dc.lft.to/lastmile_qr_scan"}, "bike_id": "8861e98f43824a1205c8f5ebae057d8e", "fusion_lon": 0.0, "fusion_lat": 0.0, "is_disabled": 0, "name": "8861e98f43824a1205c8f5ebae057d8e", "type": "electric_scooter", "lon": -77.0095715}, {"is_reserved": 0, "lat": 38.872480333333336, "rental_uris": {"android": "https://dc.lft.to/lastmile_qr_scan", "ios": "https://dc.lft.to/lastmile_qr_scan"}, "bike_id": "5410d4d6301a240c3f393eecf267cb5a", "fusion_lon": 0.0, "fusion_lat": 0.0, "is_disabled": 0, "name": "5410d4d6301a240c3f393eecf267cb5a", "type": "electric_scooter", "lon": -76.97728783333334}, {"is_reserved": 0, "lat": 38.90556616666667, "rental_uris": {"android": "https://dc.lft.to/lastmile_qr_scan", "ios": "https://dc.lft.to/lastmile_qr_scan"}, "bike_id": "41bd5878196a508a99340fcf1e8b7594", "fusion_lon": 0.0, "fusion_lat": 0.0, "is_disabled": 0, "name": "41bd5878196a508a99340fcf1e8b7594", "type": "electric_scooter", "lon": -77.029132}, {"is_reserved": 0, "lat": 38.90848666666667, "rental_uris": {"android": "https://dc.lft.to/lastmile_qr_scan", "ios": "https://dc.lft.to/lastmile_qr_scan"}, "bike_id": "4ebebef241c3165eed7b47b01ea24c1c", "fusion_lon": 0.0, "fusion_lat": 0.0, "is_disabled": 0, "name": "4ebebef241c3165eed7b47b01ea24c1c", "type": "electric_scooter", "lon": -77.0476825}, {"is_reserved": 0, "lat": 38.90233, "rental_uris": {"android": "https://dc.lft.to/lastmile_qr_scan", "ios": "https://dc.lft.to/lastmile_qr_scan"}, "bike_id": "8beb54dd82a0aed61af8bb23bb8c0798", "fusion_lon": 0.0, "fusion_lat": 0.0, "is_disabled": 0, "name": "8beb54dd82a0aed61af8bb23bb8c0798", "type": "electric_scooter", "lon": -77.042632}, {"is_reserved": 0, "lat": 38.917014, "rental_uris": {"android": "https://dc.lft.to/lastmile_qr_scan", "ios": "https://dc.lft.to/lastmile_qr_scan"}, "bike_id": "88109962ecb25fe66a4560c16b75f129", "fusion_lon": 0.0, "fusion_lat": 0.0, "is_disabled": 0, "name": "88109962ecb25fe66a4560c16b75f129", "type": "electric_scooter", "lon": -77.03349883333334}, {"is_reserved": 0, "lat": 38.924829333333335, "rental_uris": {"android": "https://dc.lft.to/lastmile_qr_scan", "ios": "https://dc.lft.to/lastmile_qr_scan"}, "bike_id": "dbbede587f32c00c98bfbe64e413fe44", "fusion_lon": 0.0, "fusion_lat": 0.0, "is_disabled": 0, "name": "dbbede587f32c00c98bfbe64e413fe44", "type": "electric_scooter", "lon": -77.02721316666667}, {"is_reserved": 0, "lat": 38.944063166666666, "rental_uris": {"android": "https://dc.lft.to/lastmile_qr_scan", "ios": "https://dc.lft.to/lastmile_qr_scan"}, "bike_id": "ba8d4b4e2c75a306a41bce90aefdd5f0", "fusion_lon": 0.0, "fusion_lat": 0.0, "is_disabled": 0, "name": "ba8d4b4e2c75a306a41bce90aefdd5f0", "type": "electric_scooter", "lon": -77.02643583333334}, {"is_reserved": 0, "lat": 38.9007025, "rental_uris": {"android": "https://dc.lft.to/lastmile_qr_scan", "ios": "https://dc.lft.to/lastmile_qr_scan"}, "bike_id": "08f71eca011090385f815761a3016f52", "fusion_lon": 0.0, "fusion_lat": 0.0, "is_disabled": 0, "name": "08f71eca011090385f815761a3016f52", "type": "electric_scooter", "lon": -77.00206816666666}, {"is_reserved": 0, "lat": 38.876721, "rental_uris": {"android": "https://dc.lft.to/lastmile_qr_scan", "ios": "https://dc.lft.to/lastmile_qr_scan"}, "bike_id": "ed0cdadfa39323bc08dc90e414103227", "fusion_lon": 0.0, "fusion_lat": 0.0, "is_disabled": 0, "name": "ed0cdadfa39323bc08dc90e414103227", "type": "electric_bike", "lon": -76.9993965}, {"is_reserved": 0, "lat": 38.870682333333335, "rental_uris": {"android": "https://dc.lft.to/lastmile_qr_scan", "ios": "https://dc.lft.to/lastmile_qr_scan"}, "bike_id": "429e61805fbb79088e4f34e83e26523e", "fusion_lon": 0.0, "fusion_lat": 0.0, "is_disabled": 0, "name": "429e61805fbb79088e4f34e83e26523e", "type": "electric_scooter", "lon": -76.96859416666666}, {"is_reserved": 0, "lat": 38.915535166666665, "rental_uris": {"android": "https://dc.lft.to/lastmile_qr_scan", "ios": "https://dc.lft.to/lastmile_qr_scan"}, "bike_id": "9ad877e20f7f5d884a30858326ec8db4", "fusion_lon": 0.0, "fusion_lat": 0.0, "is_disabled": 0, "name": "9ad877e20f7f5d884a30858326ec8db4", "type": "electric_scooter", "lon": -77.03161616666667}, {"is_reserved": 0, "lat": 38.91703033333334, "rental_uris": {"android": "https://dc.lft.to/lastmile_qr_scan", "ios": "https://dc.lft.to/lastmile_qr_scan"}, "bike_id": "29d67d95c44be656b45b9fcde1cb49d9", "fusion_lon": 0.0, "fusion_lat": 0.0, "is_disabled": 0, "name": "29d67d95c44be656b45b9fcde1cb49d9", "type": "electric_scooter", "lon": -77.03927383333334}, {"is_reserved": 0, "lat": 38.910507333333335, "rental_uris": {"android": "https://dc.lft.to/lastmile_qr_scan", "ios": "https://dc.lft.to/lastmile_qr_scan"}, "bike_id": "9e1bfb03baed9b8c689a03ab30f6c50a", "fusion_lon": 0.0, "fusion_lat": 0.0, "is_disabled": 0, "name": "9e1bfb03baed9b8c689a03ab30f6c50a", "type": "electric_scooter", "lon": -77.04342466666667}, {"is_reserved": 0, "lat": 38.89485166666667, "rental_uris": {"android": "https://dc.lft.to/lastmile_qr_scan", "ios": "https://dc.lft.to/lastmile_qr_scan"}, "bike_id": "24b0c776690dd43e5e5398e351d33fa0", "fusion_lon": 0.0, "fusion_lat": 0.0, "is_disabled": 0, "name": "24b0c776690dd43e5e5398e351d33fa0", "type": "electric_scooter", "lon": -77.00223866666667}, {"is_reserved": 0, "lat": 38.90685083333334, "rental_uris": {"android": "https://dc.lft.to/lastmile_qr_scan", "ios": "https://dc.lft.to/lastmile_qr_scan"}, "bike_id": "e1420f2e1154393d9af598cfcbba7a7d", "fusion_lon": 0.0, "fusion_lat": 0.0, "is_disabled": 0, "name": "e1420f2e1154393d9af598cfcbba7a7d", "type": "electric_scooter", "lon": -77.03839716666667}, {"is_reserved": 0, "lat": 38.91070216666667, "rental_uris": {"android": "https://dc.lft.to/lastmile_qr_scan", "ios": "https://dc.lft.to/lastmile_qr_scan"}, "bike_id": "864cd554593ec696e49b46b1b206726f", "fusion_lon": 0.0, "fusion_lat": 0.0, "is_disabled": 0, "name": "864cd554593ec696e49b46b1b206726f", "type": "electric_scooter", "lon": -77.02707283333334}, {"is_reserved": 0, "lat": 38.914132333333335, "rental_uris": {"android": "https://dc.lft.to/lastmile_qr_scan", "ios": "https://dc.lft.to/lastmile_qr_scan"}, "bike_id": "6ca2d3559a45a2031f7d4a32c56cddc0", "fusion_lon": 0.0, "fusion_lat": 0.0, "is_disabled": 0, "name": "6ca2d3559a45a2031f7d4a32c56cddc0", "type": "electric_scooter", "lon": -77.02115433333333}, {"is_reserved": 0, "lat": 38.924817166666664, "rental_uris": {"android": "https://dc.lft.to/lastmile_qr_scan", "ios": "https://dc.lft.to/lastmile_qr_scan"}, "bike_id": "49aff41b7d3b199a8bfd5d56a4ee4f06", "fusion_lon": 0.0, "fusion_lat": 0.0, "is_disabled": 0, "name": "49aff41b7d3b199a8bfd5d56a4ee4f06", "type": "electric_scooter", "lon": -77.03481316666667}, {"is_reserved": 0, "lat": 38.91850483333333, "rental_uris": {"android": "https://dc.lft.to/lastmile_qr_scan", "ios": "https://dc.lft.to/lastmile_qr_scan"}, "bike_id": "0a48a8a7b29393a01d34856b30f9eada", "fusion_lon": 0.0, "fusion_lat": 0.0, "is_disabled": 0, "name": "0a48a8a7b29393a01d34856b30f9eada", "type": "electric_scooter", "lon": -77.02430316666667}, {"is_reserved": 0, "lat": 38.917302, "rental_uris": {"android": "https://dc.lft.to/lastmile_qr_scan", "ios": "https://dc.lft.to/lastmile_qr_scan"}, "bike_id": "cb5e8b7c1337c51e59beb1ce7f22601b", "fusion_lon": 0.0, "fusion_lat": 0.0, "is_disabled": 0, "name": "cb5e8b7c1337c51e59beb1ce7f22601b", "type": "electric_scooter", "lon": -77.03645766666666}, {"is_reserved": 0, "lat": 38.90236066666667, "rental_uris": {"android": "https://dc.lft.to/lastmile_qr_scan", "ios": "https://dc.lft.to/lastmile_qr_scan"}, "bike_id": "fc3ef0eb9606c6adebdd0208c18370a3", "fusion_lon": 0.0, "fusion_lat": 0.0, "is_disabled": 0, "name": "fc3ef0eb9606c6adebdd0208c18370a3", "type": "electric_scooter", "lon": -77.00198533333334}, {"is_reserved": 0, "lat": 38.91744083333333, "rental_uris": {"android": "https://dc.lft.to/lastmile_qr_scan", "ios": "https://dc.lft.to/lastmile_qr_scan"}, "bike_id": "682f355074e17cde7fc2703afd0180b6", "fusion_lon": 0.0, "fusion_lat": 0.0, "is_disabled": 0, "name": "682f355074e17cde7fc2703afd0180b6", "type": "electric_scooter", "lon": -77.02178816666667}, {"is_reserved": 0, "lat": 38.91182966666667, "rental_uris": {"android": "https://dc.lft.to/lastmile_qr_scan", "ios": "https://dc.lft.to/lastmile_qr_scan"}, "bike_id": "fda3cd3baf80b3c006d99c2107a21338", "fusion_lon": 0.0, "fusion_lat": 0.0, "is_disabled": 0, "name": "fda3cd3baf80b3c006d99c2107a21338", "type": "electric_scooter", "lon": -77.01074283333334}, {"is_reserved": 0, "lat": 38.8990505, "rental_uris": {"android": "https://dc.lft.to/lastmile_qr_scan", "ios": "https://dc.lft.to/lastmile_qr_scan"}, "bike_id": "6d0083f8e6163dfa60acbb4bdccc2218", "fusion_lon": 0.0, "fusion_lat": 0.0, "is_disabled": 0, "name": "6d0083f8e6163dfa60acbb4bdccc2218", "type": "electric_scooter", "lon": -76.93369066666666}, {"is_reserved": 0, "lat": 38.91402716666666, "rental_uris": {"android": "https://dc.lft.to/lastmile_qr_scan", "ios": "https://dc.lft.to/lastmile_qr_scan"}, "bike_id": "88d912b419f8b92b92dfa54823fbf872", "fusion_lon": 0.0, "fusion_lat": 0.0, "is_disabled": 0, "name": "88d912b419f8b92b92dfa54823fbf872", "type": "electric_scooter", "lon": -77.0315685}, {"is_reserved": 0, "lat": 38.910352, "rental_uris": {"android": "https://dc.lft.to/lastmile_qr_scan", "ios": "https://dc.lft.to/lastmile_qr_scan"}, "bike_id": "f1552c00a654f6d1adce04f961ec918b", "fusion_lon": 0.0, "fusion_lat": 0.0, "is_disabled": 0, "name": "f1552c00a654f6d1adce04f961ec918b", "type": "electric_scooter", "lon": -77.04272183333333}, {"is_reserved": 0, "lat": 38.930142333333336, "rental_uris": {"android": "https://dc.lft.to/lastmile_qr_scan", "ios": "https://dc.lft.to/lastmile_qr_scan"}, "bike_id": "cb8835ddc72d3b5d957e32b769ce218e", "fusion_lon": 0.0, "fusion_lat": 0.0, "is_disabled": 0, "name": "cb8835ddc72d3b5d957e32b769ce218e", "type": "electric_scooter", "lon": -77.04458933333333}, {"is_reserved": 0, "lat": 38.897026833333335, "rental_uris": {"android": "https://dc.lft.to/lastmile_qr_scan", "ios": "https://dc.lft.to/lastmile_qr_scan"}, "bike_id": "9e106d2ef40d65548802c754c9d32d00", "fusion_lon": 0.0, "fusion_lat": 0.0, "is_disabled": 0, "name": "9e106d2ef40d65548802c754c9d32d00", "type": "electric_scooter", "lon": -77.04876366666667}, {"is_reserved": 0, "lat": 38.89551516666667, "rental_uris": {"android": "https://dc.lft.to/lastmile_qr_scan", "ios": "https://dc.lft.to/lastmile_qr_scan"}, "bike_id": "d165c2b5d57c5c8a2c9806d4f68b1e84", "fusion_lon": 0.0, "fusion_lat": 0.0, "is_disabled": 0, "name": "d165c2b5d57c5c8a2c9806d4f68b1e84", "type": "electric_scooter", "lon": -77.0091855}, {"is_reserved": 0, "lat": 38.866877833333334, "rental_uris": {"android": "https://dc.lft.to/lastmile_qr_scan", "ios": "https://dc.lft.to/lastmile_qr_scan"}, "bike_id": "80ba5a834be678986cd1384175f34d07", "fusion_lon": 0.0, "fusion_lat": 0.0, "is_disabled": 0, "name": "80ba5a834be678986cd1384175f34d07", "type": "electric_scooter", "lon": -76.9854225}, {"is_reserved": 0, "lat": 38.93107833333333, "rental_uris": {"android": "https://dc.lft.to/lastmile_qr_scan", "ios": "https://dc.lft.to/lastmile_qr_scan"}, "bike_id": "f29485271210c25d20ab7c2a3bb42419", "fusion_lon": 0.0, "fusion_lat": 0.0, "is_disabled": 0, "name": "f29485271210c25d20ab7c2a3bb42419", "type": "electric_scooter", "lon": -77.02644283333333}, {"is_reserved": 0, "lat": 38.93589166666667, "rental_uris": {"android": "https://dc.lft.to/lastmile_qr_scan", "ios": "https://dc.lft.to/lastmile_qr_scan"}, "bike_id": "4bf4021a8dda2dad30f9956074251cd6", "fusion_lon": 0.0, "fusion_lat": 0.0, "is_disabled": 0, "name": "4bf4021a8dda2dad30f9956074251cd6", "type": "electric_scooter", "lon": -77.0374605}, {"is_reserved": 0, "lat": 38.911737333333335, "rental_uris": {"android": "https://dc.lft.to/lastmile_qr_scan", "ios": "https://dc.lft.to/lastmile_qr_scan"}, "bike_id": "406c6106278a91658a1b88d8667c3495", "fusion_lon": 0.0, "fusion_lat": 0.0, "is_disabled": 0, "name": "406c6106278a91658a1b88d8667c3495", "type": "electric_bike", "lon": -77.0027115}, {"is_reserved": 0, "lat": 38.913798666666665, "rental_uris": {"android": "https://dc.lft.to/lastmile_qr_scan", "ios": "https://dc.lft.to/lastmile_qr_scan"}, "bike_id": "e56e62cc8bb1449bee1c6234d03a6877", "fusion_lon": 0.0, "fusion_lat": 0.0, "is_disabled": 0, "name": "e56e62cc8bb1449bee1c6234d03a6877", "type": "electric_scooter", "lon": -77.031973}, {"is_reserved": 0, "lat": 38.884917333333334, "rental_uris": {"android": "https://dc.lft.to/lastmile_qr_scan", "ios": "https://dc.lft.to/lastmile_qr_scan"}, "bike_id": "a48e764c1cd8abfd638eebe882fbc4e0", "fusion_lon": 0.0, "fusion_lat": 0.0, "is_disabled": 0, "name": "a48e764c1cd8abfd638eebe882fbc4e0", "type": "electric_scooter", "lon": -77.007134}, {"is_reserved": 0, "lat": 38.90291916666666, "rental_uris": {"android": "https://dc.lft.to/lastmile_qr_scan", "ios": "https://dc.lft.to/lastmile_qr_scan"}, "bike_id": "e10a9350f9692c27311c6a5d9ea28cf4", "fusion_lon": 0.0, "fusion_lat": 0.0, "is_disabled": 0, "name": "e10a9350f9692c27311c6a5d9ea28cf4", "type": "electric_scooter", "lon": -77.04625166666666}, {"is_reserved": 0, "lat": 38.9134485, "rental_uris": {"android": "https://dc.lft.to/lastmile_qr_scan", "ios": "https://dc.lft.to/lastmile_qr_scan"}, "bike_id": "7f4159fb325947510cdfc98d03b5bd5f", "fusion_lon": 0.0, "fusion_lat": 0.0, "is_disabled": 0, "name": "7f4159fb325947510cdfc98d03b5bd5f", "type": "electric_scooter", "lon": -77.0434215}, {"is_reserved": 0, "lat": 38.9154995, "rental_uris": {"android": "https://dc.lft.to/lastmile_qr_scan", "ios": "https://dc.lft.to/lastmile_qr_scan"}, "bike_id": "337200c39bd97c51ea5c4191e3116d57", "fusion_lon": 0.0, "fusion_lat": 0.0, "is_disabled": 0, "name": "337200c39bd97c51ea5c4191e3116d57", "type": "electric_scooter", "lon": -77.0418645}, {"is_reserved": 0, "lat": 39.029345666666664, "rental_uris": {"android": "https://dc.lft.to/lastmile_qr_scan", "ios": "https://dc.lft.to/lastmile_qr_scan"}, "bike_id": "6cf97ab15594ac734442440774cffac6", "fusion_lon": 0.0, "fusion_lat": 0.0, "is_disabled": 0, "name": "6cf97ab15594ac734442440774cffac6", "type": "electric_bike", "lon": -77.04922266666667}, {"is_reserved": 0, "lat": 38.93110333333333, "rental_uris": {"android": "https://dc.lft.to/lastmile_qr_scan", "ios": "https://dc.lft.to/lastmile_qr_scan"}, "bike_id": "a43003198ce6216181ab0eab976a89ce", "fusion_lon": 0.0, "fusion_lat": 0.0, "is_disabled": 0, "name": "a43003198ce6216181ab0eab976a89ce", "type": "electric_scooter", "lon": -77.038392}, {"is_reserved": 0, "lat": 38.911842666666665, "rental_uris": {"android": "https://dc.lft.to/lastmile_qr_scan", "ios": "https://dc.lft.to/lastmile_qr_scan"}, "bike_id": "c77416083cb6e7f8e19e0c958fd14226", "fusion_lon": 0.0, "fusion_lat": 0.0, "is_disabled": 0, "name": "c77416083cb6e7f8e19e0c958fd14226", "type": "electric_scooter", "lon": -77.04851933333333}, {"is_reserved": 0, "lat": 38.915681666666664, "rental_uris": {"android": "https://dc.lft.to/lastmile_qr_scan", "ios": "https://dc.lft.to/lastmile_qr_scan"}, "bike_id": "ec091cfeb3eddb196283ae73bf477838", "fusion_lon": 0.0, "fusion_lat": 0.0, "is_disabled": 0, "name": "ec091cfeb3eddb196283ae73bf477838", "type": "electric_scooter", "lon": -77.03157583333333}, {"is_reserved": 0, "lat": 38.9148285, "rental_uris": {"android": "https://dc.lft.to/lastmile_qr_scan", "ios": "https://dc.lft.to/lastmile_qr_scan"}, "bike_id": "1a4ae5c38eab77090cd282b83f497705", "fusion_lon": 0.0, "fusion_lat": 0.0, "is_disabled": 0, "name": "1a4ae5c38eab77090cd282b83f497705", "type": "electric_scooter", "lon": -77.03225316666666}, {"is_reserved": 0, "lat": 38.905602, "rental_uris": {"android": "https://dc.lft.to/lastmile_qr_scan", "ios": "https://dc.lft.to/lastmile_qr_scan"}, "bike_id": "0e4cb5c2ab784db0d45bd8ebcc30cdf4", "fusion_lon": 0.0, "fusion_lat": 0.0, "is_disabled": 0, "name": "0e4cb5c2ab784db0d45bd8ebcc30cdf4", "type": "electric_scooter", "lon": -77.02460016666667}, {"is_reserved": 0, "lat": 38.92897116666666, "rental_uris": {"android": "https://dc.lft.to/lastmile_qr_scan", "ios": "https://dc.lft.to/lastmile_qr_scan"}, "bike_id": "89705180947ea54bf7d6c123d5a872f4", "fusion_lon": 0.0, "fusion_lat": 0.0, "is_disabled": 0, "name": "89705180947ea54bf7d6c123d5a872f4", "type": "electric_scooter", "lon": -77.02400683333333}, {"is_reserved": 0, "lat": 38.902824333333335, "rental_uris": {"android": "https://dc.lft.to/lastmile_qr_scan", "ios": "https://dc.lft.to/lastmile_qr_scan"}, "bike_id": "156c0b47acd10d3cd5c6cb07b29804f2", "fusion_lon": 0.0, "fusion_lat": 0.0, "is_disabled": 0, "name": "156c0b47acd10d3cd5c6cb07b29804f2", "type": "electric_scooter", "lon": -77.03648216666667}, {"is_reserved": 0, "lat": 38.91421716666667, "rental_uris": {"android": "https://dc.lft.to/lastmile_qr_scan", "ios": "https://dc.lft.to/lastmile_qr_scan"}, "bike_id": "80256f13e1fad1fd3f9641111b16b26b", "fusion_lon": 0.0, "fusion_lat": 0.0, "is_disabled": 0, "name": "80256f13e1fad1fd3f9641111b16b26b", "type": "electric_scooter", "lon": -77.03184333333333}, {"is_reserved": 0, "lat": 38.91265933333333, "rental_uris": {"android": "https://dc.lft.to/lastmile_qr_scan", "ios": "https://dc.lft.to/lastmile_qr_scan"}, "bike_id": "8cc282e7a62d142f8fe00c65d11d2ae6", "fusion_lon": 0.0, "fusion_lat": 0.0, "is_disabled": 0, "name": "8cc282e7a62d142f8fe00c65d11d2ae6", "type": "electric_scooter", "lon": -77.03803266666667}, {"is_reserved": 0, "lat": 38.933538166666665, "rental_uris": {"android": "https://dc.lft.to/lastmile_qr_scan", "ios": "https://dc.lft.to/lastmile_qr_scan"}, "bike_id": "19bcc7798099e8b5e8bbe23b055cd8d0", "fusion_lon": 0.0, "fusion_lat": 0.0, "is_disabled": 0, "name": "19bcc7798099e8b5e8bbe23b055cd8d0", "type": "electric_bike", "lon": -77.099575}, {"is_reserved": 0, "lat": 38.93193083333333, "rental_uris": {"android": "https://dc.lft.to/lastmile_qr_scan", "ios": "https://dc.lft.to/lastmile_qr_scan"}, "bike_id": "f7c2aed26adc9edd4062391a299868e9", "fusion_lon": 0.0, "fusion_lat": 0.0, "is_disabled": 0, "name": "f7c2aed26adc9edd4062391a299868e9", "type": "electric_scooter", "lon": -77.02822183333333}, {"is_reserved": 0, "lat": 38.908089833333335, "rental_uris": {"android": "https://dc.lft.to/lastmile_qr_scan", "ios": "https://dc.lft.to/lastmile_qr_scan"}, "bike_id": "0f19459cc6e0f4dd86b7ee304e96295a", "fusion_lon": 0.0, "fusion_lat": 0.0, "is_disabled": 0, "name": "0f19459cc6e0f4dd86b7ee304e96295a", "type": "electric_scooter", "lon": -77.04346166666667}, {"is_reserved": 0, "lat": 38.923217, "rental_uris": {"android": "https://dc.lft.to/lastmile_qr_scan", "ios": "https://dc.lft.to/lastmile_qr_scan"}, "bike_id": "8512017e1c4ea63f595e3049ddbfe977", "fusion_lon": 0.0, "fusion_lat": 0.0, "is_disabled": 0, "name": "8512017e1c4ea63f595e3049ddbfe977", "type": "electric_scooter", "lon": -77.0420625}, {"is_reserved": 0, "lat": 38.91224866666667, "rental_uris": {"android": "https://dc.lft.to/lastmile_qr_scan", "ios": "https://dc.lft.to/lastmile_qr_scan"}, "bike_id": "6d7ef01068e812e23e9dc6ee64b28f46", "fusion_lon": 0.0, "fusion_lat": 0.0, "is_disabled": 0, "name": "6d7ef01068e812e23e9dc6ee64b28f46", "type": "electric_scooter", "lon": -77.044825}, {"is_reserved": 0, "lat": 38.920573833333336, "rental_uris": {"android": "https://dc.lft.to/lastmile_qr_scan", "ios": "https://dc.lft.to/lastmile_qr_scan"}, "bike_id": "4e7482e3dd7aa27c657f24a652765097", "fusion_lon": 0.0, "fusion_lat": 0.0, "is_disabled": 0, "name": "4e7482e3dd7aa27c657f24a652765097", "type": "electric_scooter", "lon": -77.03801833333333}, {"is_reserved": 0, "lat": 38.9026415, "rental_uris": {"android": "https://dc.lft.to/lastmile_qr_scan", "ios": "https://dc.lft.to/lastmile_qr_scan"}, "bike_id": "47d3b49deb72f000e9d4b5d3cf3767f6", "fusion_lon": 0.0, "fusion_lat": 0.0, "is_disabled": 0, "name": "47d3b49deb72f000e9d4b5d3cf3767f6", "type": "electric_scooter", "lon": -77.03340233333333}, {"is_reserved": 0, "lat": 38.895807833333336, "rental_uris": {"android": "https://dc.lft.to/lastmile_qr_scan", "ios": "https://dc.lft.to/lastmile_qr_scan"}, "bike_id": "0362deb5ab4627912931c0cd5b98d2cf", "fusion_lon": 0.0, "fusion_lat": 0.0, "is_disabled": 0, "name": "0362deb5ab4627912931c0cd5b98d2cf", "type": "electric_bike", "lon": -77.12693233333333}, {"is_reserved": 0, "lat": 38.89554283333333, "rental_uris": {"android": "https://dc.lft.to/lastmile_qr_scan", "ios": "https://dc.lft.to/lastmile_qr_scan"}, "bike_id": "0a857986288f2929ee8bb0bb093887f7", "fusion_lon": 0.0, "fusion_lat": 0.0, "is_disabled": 0, "name": "0a857986288f2929ee8bb0bb093887f7", "type": "electric_scooter", "lon": -77.00916483333333}, {"is_reserved": 0, "lat": 38.918422166666666, "rental_uris": {"android": "https://dc.lft.to/lastmile_qr_scan", "ios": "https://dc.lft.to/lastmile_qr_scan"}, "bike_id": "a6b7bea698f0359cbc0f4db6ecaac8f4", "fusion_lon": 0.0, "fusion_lat": 0.0, "is_disabled": 0, "name": "a6b7bea698f0359cbc0f4db6ecaac8f4", "type": "electric_scooter", "lon": -77.021918}, {"is_reserved": 0, "lat": 38.92421133333333, "rental_uris": {"android": "https://dc.lft.to/lastmile_qr_scan", "ios": "https://dc.lft.to/lastmile_qr_scan"}, "bike_id": "b1073e2cb6249f0043a05e8f043f11a3", "fusion_lon": 0.0, "fusion_lat": 0.0, "is_disabled": 0, "name": "b1073e2cb6249f0043a05e8f043f11a3", "type": "electric_scooter", "lon": -77.04447866666666}, {"is_reserved": 0, "lat": 38.8885905, "rental_uris": {"android": "https://dc.lft.to/lastmile_qr_scan", "ios": "https://dc.lft.to/lastmile_qr_scan"}, "bike_id": "264d0b7433d2f2df5b63ce0265bd3415", "fusion_lon": 0.0, "fusion_lat": 0.0, "is_disabled": 0, "name": "264d0b7433d2f2df5b63ce0265bd3415", "type": "electric_bike", "lon": -77.03233233333333}, {"is_reserved": 0, "lat": 38.935285, "rental_uris": {"android": "https://dc.lft.to/lastmile_qr_scan", "ios": "https://dc.lft.to/lastmile_qr_scan"}, "bike_id": "e431ed5b63693d9b7b0081a4db7bad76", "fusion_lon": 0.0, "fusion_lat": 0.0, "is_disabled": 0, "name": "e431ed5b63693d9b7b0081a4db7bad76", "type": "electric_scooter", "lon": -77.072898}, {"is_reserved": 0, "lat": 38.9036895, "rental_uris": {"android": "https://dc.lft.to/lastmile_qr_scan", "ios": "https://dc.lft.to/lastmile_qr_scan"}, "bike_id": "faeb7ed8bf7d7ffeaff2ec47f911dc0d", "fusion_lon": 0.0, "fusion_lat": 0.0, "is_disabled": 0, "name": "faeb7ed8bf7d7ffeaff2ec47f911dc0d", "type": "electric_scooter", "lon": -76.99234783333333}, {"is_reserved": 0, "lat": 38.935392666666665, "rental_uris": {"android": "https://dc.lft.to/lastmile_qr_scan", "ios": "https://dc.lft.to/lastmile_qr_scan"}, "bike_id": "12a701dc55e0a0c17a9e267f2bb136a1", "fusion_lon": 0.0, "fusion_lat": 0.0, "is_disabled": 0, "name": "12a701dc55e0a0c17a9e267f2bb136a1", "type": "electric_scooter", "lon": -77.03264433333334},