{"data": {"bikes": [{"fusion_lat": 0.0, "bike_id": "dc7feab3007c5005e832cce4d90f4cdc", "fusion_lon": 0.0, "lon": -77.03911316666667, "lat": 38.92573066666667, "is_reserved": 0, "is_disabled": 0, "rental_uris": {"android": "https://dc.lft.to/lastmile_qr_scan", "ios": "https://dc.lft.to/lastmile_qr_scan"}, "name": "dc7feab3007c5005e832cce4d90f4cdc", "type": "electric_scooter"}, {"fusion_lat": 0.0, "bike_id": "551e0d8e67bc16cee8609af78ffc16b6", "fusion_lon": 0.0, "lon": -77.035208, "lat": 38.92194516666667, "is_reserved": 0, "is_disabled": 0, "rental_uris": {"android": "https://dc.lft.to/lastmile_qr_scan", "ios": "https://dc.lft.to/lastmile_qr_scan"}, "name": "551e0d8e67bc16cee8609af78ffc16b6", "type": "electric_scooter"}, {"fusion_lat": 0.0, "bike_id": "ad387d965331a2e2a1fa48cc9320b644", "fusion_lon": 0.0, "lon": -77.048876, "lat": 38.90532283333334, "is_reserved": 0, "is_disabled": 0, "rental_uris": {"android": "https://dc.lft.to/lastmile_qr_scan", "ios": "https://dc.lft.to/lastmile_qr_scan"}, "name": "ad387d965331a2e2a1fa48cc9320b644", "type": "electric_scooter"}, {"fusion_lat": 0.0, "bike_id": "71c2eb311fed34c77344e5f7fa85b6b5", "fusion_lon": 0.0, "lon": -77.02423566666667, "lat": 38.92653583333333, "is_reserved": 0, "is_disabled": 0, "rental_uris": {"android": "https://dc.lft.to/lastmile_qr_scan", "ios": "https://dc.lft.to/lastmile_qr_scan"}, "name": "71c2eb311fed34c77344e5f7fa85b6b5", "type": "electric_scooter"}, {"fusion_lat": 0.0, "bike_id": "34a651510488c799adec2524be62ae7d", "fusion_lon": 0.0, "lon": -77.04887866666667, "lat": 38.906605666666664, "is_reserved": 0, "is_disabled": 0, "rental_uris": {"android": "https://dc.lft.to/lastmile_qr_scan", "ios": "https://dc.lft.to/lastmile_qr_scan"}, "name": "34a651510488c799adec2524be62ae7d", "type": "electric_scooter"}, {"fusion_lat": 0.0, "bike_id": "32b4fc593baa4b190fb55d919546aa58", "fusion_lon": 0.0, "lon": -77.0276545, "lat": 38.934645, "is_reserved": 0, "is_disabled": 0, "rental_uris": {"android": "https://dc.lft.to/lastmile_qr_scan", "ios": "https://dc.lft.to/lastmile_qr_scan"}, "name": "32b4fc593baa4b190fb55d919546aa58", "type": "electric_scooter"}, {"fusion_lat": 0.0, "bike_id": "669294e8faca1b4eec7ef029e9a659d7", "fusion_lon": 0.0, "lon": -77.03205666666666, "lat": 38.91417116666667, "is_reserved": 0, "is_disabled": 0, "rental_uris": {"android": "https://dc.lft.to/lastmile_qr_scan", "ios": "https://dc.lft.to/lastmile_qr_scan"}, "name": "669294e8faca1b4eec7ef029e9a659d7", "type": "electric_scooter"}, {"fusion_lat": 0.0, "bike_id": "6338dee0c9326547622cada12bff6f32", "fusion_lon": 0.0, "lon": -76.98529416666666, "lat": 38.866851833333335, "is_reserved": 0, "is_disabled": 0, "rental_uris": {"android": "https://dc.lft.to/lastmile_qr_scan", "ios": "https://dc.lft.to/lastmile_qr_scan"}, "name": "6338dee0c9326547622cada12bff6f32", "type": "electric_scooter"}, {"fusion_lat": 0.0, "bike_id": "001b339c96966d941a2641c41ba9c357", "fusion_lon": 0.0, "lon": -77.02716683333334, "lat": 38.91679366666666, "is_reserved": 0, "is_disabled": 0, "rental_uris": {"android": "https://dc.lft.to/lastmile_qr_scan", "ios": "https://dc.lft.to/lastmile_qr_scan"}, "name": "001b339c96966d941a2641c41ba9c357", "type": "electric_scooter"}, {"fusion_lat": 0.0, "bike_id": "5cb5f6c3732678418782a147a8db5972", "fusion_lon": 0.0, "lon": -77.026114, "lat": 38.892598, "is_reserved": 0, "is_disabled": 0, "rental_uris": {"android": "https://dc.lft.to/lastmile_qr_scan", "ios": "https://dc.lft.to/lastmile_qr_scan"}, "name": "5cb5f6c3732678418782a147a8db5972", "type": "electric_scooter"}, {"fusion_lat": 0.0, "bike_id": "edaf7416e2cdd6e97ec054d2eb54059e", "fusion_lon": 0.0, "lon": -77.0996345, "lat": 38.85793816666666, "is_reserved": 0, "is_disabled": 0, "rental_uris": {"android": "https://dc.lft.to/lastmile_qr_scan", "ios": "https://dc.lft.to/lastmile_qr_scan"}, "name": "edaf7416e2cdd6e97ec054d2eb54059e", "type": "electric_bike"}, {"fusion_lat": 0.0, "bike_id": "1fd55fd28efa1bded6c24409f582ad4d", "fusion_lon": 0.0, "lon": -77.03193233333333, "lat": 38.9044415, "is_reserved": 0, "is_disabled": 0, "rental_uris": {"android": "https://dc.lft.to/lastmile_qr_scan", "ios": "https://dc.lft.to/lastmile_qr_scan"}, "name": "1fd55fd28efa1bded6c24409f582ad4d", "type": "electric_scooter"}, {"fusion_lat": 0.0, "bike_id": "1a42d4c4711fa5c73c82ba5ea28ce171", "fusion_lon": 0.0, "lon": -77.007283, "lat": 38.88493233333333, "is_reserved": 0, "is_disabled": 0, "rental_uris": {"android": "https://dc.lft.to/lastmile_qr_scan", "ios": "https://dc.lft.to/lastmile_qr_scan"}, "name": "1a42d4c4711fa5c73c82ba5ea28ce171", "type": "electric_scooter"}, {"fusion_lat": 0.0, "bike_id": "fb58d383eaac1ebfaa6359e7555dd853", "fusion_lon": 0.0, "lon": -77.032121, "lat": 38.89872116666667, "is_reserved": 0, "is_disabled": 0, "rental_uris": {"android": "https://dc.lft.to/lastmile_qr_scan", "ios": "https://dc.lft.to/lastmile_qr_scan"}, "name": "fb58d383eaac1ebfaa6359e7555dd853", "type": "electric_scooter"}, {"fusion_lat": 0.0, "bike_id": "efcbf81d966857667270841b7ac1bb31", "fusion_lon": 0.0, "lon": -76.97769866666667, "lat": 38.951517, "is_reserved": 0, "is_disabled": 0, "rental_uris": {"android": "https://dc.lft.to/lastmile_qr_scan", "ios": "https://dc.lft.to/lastmile_qr_scan"}, "name": "efcbf81d966857667270841b7ac1bb31", "type": "electric_bike"}, {"fusion_lat": 0.0, "bike_id": "db8df98ba74f854401de6506345d2a2c", "fusion_lon": 0.0, "lon": -76.99948616666667, "lat": 38.921009833333336, "is_reserved": 0, "is_disabled": 0, "rental_uris": {"android": "https://dc.lft.to/lastmile_qr_scan", "ios": "https://dc.lft.to/lastmile_qr_scan"}, "name": "db8df98ba74f854401de6506345d2a2c", "type": "electric_scooter"}, {"fusion_lat": 0.0, "bike_id": "ee537a80a3b70d8a26e9f1a713f016db", "fusion_lon": 0.0, "lon": -77.03331833333333, "lat": 38.909716, "is_reserved": 0, "is_disabled": 0, "rental_uris": {"android": "https://dc.lft.to/lastmile_qr_scan", "ios": "https://dc.lft.to/lastmile_qr_scan"}, "name": "ee537a80a3b70d8a26e9f1a713f016db", "type": "electric_scooter"}, {"fusion_lat": 0.0, "bike_id": "60b8004b25b507adbe94b7eea9390b73", "fusion_lon": 0.0, "lon": -77.0563615, "lat": 38.929641, "is_reserved": 0, "is_disabled": 0, "rental_uris": {"android": "https://dc.lft.to/lastmile_qr_scan", "ios": "https://dc.lft.to/lastmile_qr_scan"}, "name": "60b8004b25b507adbe94b7eea9390b73", "type": "electric_bike"}, {"fusion_lat": 0.0, "bike_id": "415c85dab87da15730fefcfa6db42127", "fusion_lon": 0.0, "lon": -77.03808083333334, "lat": 38.920793333333336, "is_reserved": 0, "is_disabled": 0, "rental_uris": {"android": "https://dc.lft.to/lastmile_qr_scan", "ios": "https://dc.lft.to/lastmile_qr_scan"}, "name": "415c85dab87da15730fefcfa6db42127", "type": "electric_scooter"}, {"fusion_lat": 0.0, "bike_id": "2afcb9c173b65071b47e0833dcdfb68a", "fusion_lon": 0.0, "lon": -77.02592433333334, "lat": 38.941967, "is_reserved": 0, "is_disabled": 0, "rental_uris": {"android": "https://dc.lft.to/lastmile_qr_scan", "ios": "https://dc.lft.to/lastmile_qr_scan"}, "name": "2afcb9c173b65071b47e0833dcdfb68a", "type": "electric_scooter"}, {"fusion_lat": 0.0, "bike_id": "afef572338e500bd782e2d09ab6ac6da", "fusion_lon": 0.0, "lon": -77.04383833333333, "lat": 38.920930166666665, "is_reserved": 0, "is_disabled": 0, "rental_uris": {"android": "https://dc.lft.to/lastmile_qr_scan", "ios": "https://dc.lft.to/lastmile_qr_scan"}, "name": "afef572338e500bd782e2d09ab6ac6da", "type": "electric_scooter"}, {"fusion_lat": 0.0, "bike_id": "1eb8e14f46b294ae7fc4819a2205123e", "fusion_lon": 0.0, "lon": -76.97751933333333, "lat": 38.864906166666664, "is_reserved": 0, "is_disabled": 0, "rental_uris": {"android": "https://dc.lft.to/lastmile_qr_scan", "ios": "https://dc.lft.to/lastmile_qr_scan"}, "name": "1eb8e14f46b294ae7fc4819a2205123e", "type": "electric_bike"}, {"fusion_lat": 0.0, "bike_id": "49da0035c96807d5dd304661f461ca3c", "fusion_lon": 0.0, "lon": -77.01958216666667, "lat": 38.923709333333335, "is_reserved": 0, "is_disabled": 0, "rental_uris": {"android": "https://dc.lft.to/lastmile_qr_scan", "ios": "https://dc.lft.to/lastmile_qr_scan"}, "name": "49da0035c96807d5dd304661f461ca3c", "type": "electric_scooter"}, {"fusion_lat": 0.0, "bike_id": "5835282146ec086ff37a6634aba63655", "fusion_lon": 0.0, "lon": -77.02929416666667, "lat": 38.89917066666667, "is_reserved": 0, "is_disabled": 0, "rental_uris": {"android": "https://dc.lft.to/lastmile_qr_scan", "ios": "https://dc.lft.to/lastmile_qr_scan"}, "name": "5835282146ec086ff37a6634aba63655", "type": "electric_scooter"}, {"fusion_lat": 0.0, "bike_id": "a227b466a3f96f096fe07740adcf03ef", "fusion_lon": 0.0, "lon": -76.99930983333333, "lat": 38.843137666666664, "is_reserved": 0, "is_disabled": 0, "rental_uris": {"android": "https://dc.lft.to/lastmile_qr_scan", "ios": "https://dc.lft.to/lastmile_qr_scan"}, "name": "a227b466a3f96f096fe07740adcf03ef", "type": "electric_scooter"}, {"fusion_lat": 0.0, "bike_id": "e57112e8f92237b83b0f4aa71423d61b", "fusion_lon": 0.0, "lon": -77.05708266666667, "lat": 38.926090333333335, "is_reserved": 0, "is_disabled": 0, "rental_uris": {"android": "https://dc.lft.to/lastmile_qr_scan", "ios": "https://dc.lft.to/lastmile_qr_scan"}, "name": "e57112e8f92237b83b0f4aa71423d61b", "type": "electric_bike"}, {"fusion_lat": 0.0, "bike_id": "1f92ef00dc62d4a2ac5f8a64b87e6483", "fusion_lon": 0.0, "lon": -77.03539583333334, "lat": 38.925844166666664, "is_reserved": 0, "is_disabled": 0, "rental_uris": {"android": "https://dc.lft.to/lastmile_qr_scan", "ios": "https://dc.lft.to/lastmile_qr_scan"}, "name": "1f92ef00dc62d4a2ac5f8a64b87e6483", "type": "electric_scooter"}, {"fusion_lat": 0.0, "bike_id": "33568c324872e1aeafa8118b411a9bdc", "fusion_lon": 0.0, "lon": -77.0413365, "lat": 38.92718816666667, "is_reserved": 0, "is_disabled": 0, "rental_uris": {"android": "https://dc.lft.to/lastmile_qr_scan", "ios": "https://dc.lft.to/lastmile_qr_scan"}, "name": "33568c324872e1aeafa8118b411a9bdc", "type": "electric_scooter"}, {"fusion_lat": 0.0, "bike_id": "a6b6081c66b4fc63cf81219e3701ebff", "fusion_lon": 0.0, "lon": -77.02796566666666, "lat": 38.954044, "is_reserved": 0, "is_disabled": 0, "rental_uris": {"android": "https://dc.lft.to/lastmile_qr_scan", "ios": "https://dc.lft.to/lastmile_qr_scan"}, "name": "a6b6081c66b4fc63cf81219e3701ebff", "type": "electric_scooter"}, {"fusion_lat": 0.0, "bike_id": "b656e7c25ebc2496bf04af62e0107f02", "fusion_lon": 0.0, "lon": -77.0341705, "lat": 38.919228, "is_reserved": 0, "is_disabled": 0, "rental_uris": {"android": "https://dc.lft.to/lastmile_qr_scan", "ios": "https://dc.lft.to/lastmile_qr_scan"}, "name": "b656e7c25ebc2496bf04af62e0107f02", "type": "electric_scooter"}, {"fusion_lat": 0.0, "bike_id": "2effb0c3c4cd668d3105c49c93e6ace7", "fusion_lon": 0.0, "lon": -77.02231833333333, "lat": 38.89218666666667, "is_reserved": 0, "is_disabled": 0, "rental_uris": {"android": "https://dc.lft.to/lastmile_qr_scan", "ios": "https://dc.lft.to/lastmile_qr_scan"}, "name": "2effb0c3c4cd668d3105c49c93e6ace7", "type": "electric_scooter"}, {"fusion_lat": 0.0, "bike_id": "cd3db6d5e09030cf604b9b7826fd6bec", "fusion_lon": 0.0, "lon": -76.95970483333333, "lat": 38.94803683333333, "is_reserved": 0, "is_disabled": 0, "rental_uris": {"android": "https://dc.lft.to/lastmile_qr_scan", "ios": "https://dc.lft.to/lastmile_qr_scan"}, "name": "cd3db6d5e09030cf604b9b7826fd6bec", "type": "electric_bike"}, {"fusion_lat": 0.0, "bike_id": "04edd08cd656c782d4d383bced760168", "fusion_lon": 0.0, "lon": -77.01966016666667, "lat": 38.919278, "is_reserved": 0, "is_disabled": 0, "rental_uris": {"android": "https://dc.lft.to/lastmile_qr_scan", "ios": "https://dc.lft.to/lastmile_qr_scan"}, "name": "04edd08cd656c782d4d383bced760168", "type": "electric_scooter"}, {"fusion_lat": 0.0, "bike_id": "35e384528d9c9d45813b836867c9e822", "fusion_lon": 0.0, "lon": -77.03205766666666, "lat": 38.90999266666667, "is_reserved": 0, "is_disabled": 0, "rental_uris": {"android": "https://dc.lft.to/lastmile_qr_scan", "ios": "https://dc.lft.to/lastmile_qr_scan"}, "name": "35e384528d9c9d45813b836867c9e822", "type": "electric_scooter"}, {"fusion_lat": 0.0, "bike_id": "f24e32ac2893f64922eb8de2b70fe880", "fusion_lon": 0.0, "lon": -77.0270835, "lat": 38.90665716666667, "is_reserved": 0, "is_disabled": 0, "rental_uris": {"android": "https://dc.lft.to/lastmile_qr_scan", "ios": "https://dc.lft.to/lastmile_qr_scan"}, "name": "f24e32ac2893f64922eb8de2b70fe880", "type": "electric_scooter"}, {"fusion_lat": 0.0, "bike_id": "43b4559176b4bb827b60fe6d82b39d38", "fusion_lon": 0.0, "lon": -76.99038516666667, "lat": 38.90282883333333, "is_reserved": 0, "is_disabled": 0, "rental_uris": {"android": "https://dc.lft.to/lastmile_qr_scan", "ios": "https://dc.lft.to/lastmile_qr_scan"}, "name": "43b4559176b4bb827b60fe6d82b39d38", "type": "electric_scooter"}, {"fusion_lat": 0.0, "bike_id": "ca97b8d6d77d41dd6fb9bee1a84106ac", "fusion_lon": 0.0, "lon": -77.00741233333333, "lat": 38.92528866666667, "is_reserved": 0, "is_disabled": 0, "rental_uris": {"android": "https://dc.lft.to/lastmile_qr_scan", "ios": "https://dc.lft.to/lastmile_qr_scan"}, "name": "ca97b8d6d77d41dd6fb9bee1a84106ac", "type": "electric_scooter"}, {"fusion_lat": 0.0, "bike_id": "77f136488f63371d2155e8968fd96bea", "fusion_lon": 0.0, "lon": -77.04192783333333, "lat": 38.920615, "is_reserved": 0, "is_disabled": 0, "rental_uris": {"android": "https://dc.lft.to/lastmile_qr_scan", "ios": "https://dc.lft.to/lastmile_qr_scan"}, "name": "77f136488f63371d2155e8968fd96bea", "type": "electric_scooter"}, {"fusion_lat": 0.0, "bike_id": "854e5d6393f038b5c82fe2764f55b964", "fusion_lon": 0.0, "lon": -77.04147, "lat": 38.9229265, "is_reserved": 0, "is_disabled": 0, "rental_uris": {"android": "https://dc.lft.to/lastmile_qr_scan", "ios": "https://dc.lft.to/lastmile_qr_scan"}, "name": "854e5d6393f038b5c82fe2764f55b964", "type": "electric_scooter"}, {"fusion_lat": 0.0, "bike_id": "87bda1d869e6307b08d958602087fa51", "fusion_lon": 0.0, "lon": -77.0280315, "lat": 38.91220116666667, "is_reserved": 0, "is_disabled": 0, "rental_uris": {"android": "https://dc.lft.to/lastmile_qr_scan", "ios": "https://dc.lft.to/lastmile_qr_scan"}, "name": "87bda1d869e6307b08d958602087fa51", "type": "electric_scooter"}, {"fusion_lat": 0.0, "bike_id": "1848a64d94b583e8631e309257b7f962", "fusion_lon": 0.0, "lon": -77.02728783333333, "lat": 38.8973485, "is_reserved": 0, "is_disabled": 0, "rental_uris": {"android": "https://dc.lft.to/lastmile_qr_scan", "ios": "https://dc.lft.to/lastmile_qr_scan"}, "name": "1848a64d94b583e8631e309257b7f962", "type": "electric_scooter"}, {"fusion_lat": 0.0, "bike_id": "49afb192c71b5e7900862477aceefa13", "fusion_lon": 0.0, "lon": -77.22802116666666, "lat": 38.91015766666666, "is_reserved": 0, "is_disabled": 0, "rental_uris": {"android": "https://dc.lft.to/lastmile_qr_scan", "ios": "https://dc.lft.to/lastmile_qr_scan"}, "name": "49afb192c71b5e7900862477aceefa13", "type": "electric_bike"}, {"fusion_lat": 0.0, "bike_id": "135f2d4a18c8ff14ed117974d3e0eea0", "fusion_lon": 0.0, "lon": -77.02961166666667, "lat": 38.923134833333336, "is_reserved": 0, "is_disabled": 0, "rental_uris": {"android": "https://dc.lft.to/lastmile_qr_scan", "ios": "https://dc.lft.to/lastmile_qr_scan"}, "name": "135f2d4a18c8ff14ed117974d3e0eea0", "type": "electric_scooter"}, {"fusion_lat": 0.0, "bike_id": "7fe78d02393d7eb48ca451ee2f00b010", "fusion_lon": 0.0, "lon": -77.03179383333334, "lat": 38.8873755, "is_reserved": 0, "is_disabled": 0, "rental_uris": {"android": "https://dc.lft.to/lastmile_qr_scan", "ios": "https://dc.lft.to/lastmile_qr_scan"}, "name": "7fe78d02393d7eb48ca451ee2f00b010", "type": "electric_scooter"}, {"fusion_lat": 0.0, "bike_id": "a399a02c48ce38179da9f0c5fc8220f2", "fusion_lon": 0.0, "lon": -77.0386055, "lat": 38.93247216666666, "is_reserved": 0, "is_disabled": 0, "rental_uris": {"android": "https://dc.lft.to/lastmile_qr_scan", "ios": "https://dc.lft.to/lastmile_qr_scan"}, "name": "a399a02c48ce38179da9f0c5fc8220f2", "type": "electric_scooter"}, {"fusion_lat": 0.0, "bike_id": "487f7fa52701e7db43aff4fec65f91dd", "fusion_lon": 0.0, "lon": -76.93303383333334, "lat": 38.891957166666664, "is_reserved": 0, "is_disabled": 0, "rental_uris": {"android": "https://dc.lft.to/lastmile_qr_scan", "ios": "https://dc.lft.to/lastmile_qr_scan"}, "name": "487f7fa52701e7db43aff4fec65f91dd", "type": "electric_scooter"}, {"fusion_lat": 0.0, "bike_id": "28f1eecd1342d2059ae93692ad861ae0", "fusion_lon": 0.0, "lon": -77.04338583333333, "lat": 38.922178833333334, "is_reserved": 0, "is_disabled": 0, "rental_uris": {"android": "https://dc.lft.to/lastmile_qr_scan", "ios": "https://dc.lft.to/lastmile_qr_scan"}, "name": "28f1eecd1342d2059ae93692ad861ae0", "type": "electric_scooter"}, {"fusion_lat": 0.0, "bike_id": "807a3a2a0aa6b6fb687399e7f35d54aa", "fusion_lon": 0.0, "lon": -77.05159066666667, "lat": 39.04308483333333, "is_reserved": 0, "is_disabled": 0, "rental_uris": {"android": "https://dc.lft.to/lastmile_qr_scan", "ios": "https://dc.lft.to/lastmile_qr_scan"}, "name": "807a3a2a0aa6b6fb687399e7f35d54aa", "type": "electric_bike"}, {"fusion_lat": 0.0, "bike_id": "82c64eadedd51d02193589b4c678ea09", "fusion_lon": 0.0, "lon": -77.0169745, "lat": 38.92052983333333, "is_reserved": 0, "is_disabled": 0, "rental_uris": {"android": "https://dc.lft.to/lastmile_qr_scan", "ios": "https://dc.lft.to/lastmile_qr_scan"}, "name": "82c64eadedd51d02193589b4c678ea09", "type": "electric_scooter"}, {"fusion_lat": 0.0, "bike_id": "92e7b0de7b252418eb97045ce288a782", "fusion_lon": 0.0, "lon": -76.93756383333333, "lat": 38.890319166666664, "is_reserved": 0, "is_disabled": 0, "rental_uris": {"android": "https://dc.lft.to/lastmile_qr_scan", "ios": "https://dc.lft.to/lastmile_qr_scan"}, "name": "92e7b0de7b252418eb97045ce288a782", "type": "electric_scooter"}, {"fusion_lat": 0.0, "bike_id": "a676d9ce7236ee88f091ba305829eab0", "fusion_lon": 0.0, "lon": -77.00060883333333, "lat": 38.894957833333336, "is_reserved": 0, "is_disabled": 0, "rental_uris": {"android": "https://dc.lft.to/lastmile_qr_scan", "ios": "https://dc.lft.to/lastmile_qr_scan"}, "name": "a676d9ce7236ee88f091ba305829eab0", "type": "electric_scooter"}, {"fusion_lat": 0.0, "bike_id": "d102222d4bc20a0e4d64b95af26897c3", "fusion_lon": 0.0, "lon": -77.04535933333334, "lat": 38.89195016666667, "is_reserved": 0, "is_disabled": 0, "rental_uris": {"android": "https://dc.lft.to/lastmile_qr_scan", "ios": "https://dc.lft.to/lastmile_qr_scan"}, "name": "d102222d4bc20a0e4d64b95af26897c3", "type": "electric_scooter"}, {"fusion_lat": 0.0, "bike_id": "2e1d197d071e33aecb7a4194c8584268", "fusion_lon": 0.0, "lon": -76.98217683333333, "lat": 38.86653883333334, "is_reserved": 0, "is_disabled": 0, "rental_uris": {"android": "https://dc.lft.to/lastmile_qr_scan", "ios": "https://dc.lft.to/lastmile_qr_scan"}, "name": "2e1d197d071e33aecb7a4194c8584268", "type": "electric_scooter"}, {"fusion_lat": 0.0, "bike_id": "4947a956f23b46d22c1295485cc78d0a", "fusion_lon": 0.0, "lon": -77.0404315, "lat": 38.918578833333335, "is_reserved": 0, "is_disabled": 0, "rental_uris": {"android": "https://dc.lft.to/lastmile_qr_scan", "ios": "https://dc.lft.to/lastmile_qr_scan"}, "name": "4947a956f23b46d22c1295485cc78d0a", "type": "electric_scooter"}, {"fusion_lat": 0.0, "bike_id": "a269008b44ae044213d6241501f98a7f", "fusion_lon": 0.0, "lon": -77.01494383333333, "lat": 38.89222133333333, "is_reserved": 0, "is_disabled": 0, "rental_uris": {"android": "https://dc.lft.to/lastmile_qr_scan", "ios": "https://dc.lft.to/lastmile_qr_scan"}, "name": "a269008b44ae044213d6241501f98a7f", "type": "electric_scooter"}, {"fusion_lat": 0.0, "bike_id": "5ab3a01fed455a1c74abe06fc95d31bb", "fusion_lon": 0.0, "lon": -77.0258925, "lat": 38.920328166666664, "is_reserved": 0, "is_disabled": 0, "rental_uris": {"android": "https://dc.lft.to/lastmile_qr_scan", "ios": "https://dc.lft.to/lastmile_qr_scan"}, "name": "5ab3a01fed455a1c74abe06fc95d31bb", "type": "electric_scooter"}, {"fusion_lat": 0.0, "bike_id": "b7d2df09deeb48d88ef5150ec083ed74", "fusion_lon": 0.0, "lon": -77.1049025, "lat": 38.8560715, "is_reserved": 0, "is_disabled": 0, "rental_uris": {"android": "https://dc.lft.to/lastmile_qr_scan", "ios": "https://dc.lft.to/lastmile_qr_scan"}, "name": "b7d2df09deeb48d88ef5150ec083ed74", "type": "electric_bike"}, {"fusion_lat": 0.0, "bike_id": "f7a767b9e8b0eb4220ca8a35452894ab", "fusion_lon": 0.0, "lon": -77.03866316666667, "lat": 38.93241416666667, "is_reserved": 0, "is_disabled": 0, "rental_uris": {"android": "https://dc.lft.to/lastmile_qr_scan", "ios": "https://dc.lft.to/lastmile_qr_scan"}, "name": "f7a767b9e8b0eb4220ca8a35452894ab", "type": "electric_scooter"}, {"fusion_lat": 0.0, "bike_id": "ce8ee58bb98bdf22ab42d47377bac1ef", "fusion_lon": 0.0, "lon": -77.05695766666666, "lat": 38.93715233333333, "is_reserved": 0, "is_disabled": 0, "rental_uris": {"android": "https://dc.lft.to/lastmile_qr_scan", "ios": "https://dc.lft.to/lastmile_qr_scan"}, "name": "ce8ee58bb98bdf22ab42d47377bac1ef", "type": "electric_scooter"}, {"fusion_lat": 0.0, "bike_id": "1cf569f6d015a92530a4ecb7b1d7a2a2", "fusion_lon": 0.0, "lon": -77.02777283333333, "lat": 38.89220683333333, "is_reserved": 0, "is_disabled": 0, "rental_uris": {"android": "https://dc.lft.to/lastmile_qr_scan", "ios": "https://dc.lft.to/lastmile_qr_scan"}, "name": "1cf569f6d015a92530a4ecb7b1d7a2a2", "type": "electric_scooter"}, {"fusion_lat": 0.0, "bike_id": "7706b4a3815112a51718ae7e95505e98", "fusion_lon": 0.0, "lon": -77.024025, "lat": 38.891907, "is_reserved": 0, "is_disabled": 0, "rental_uris": {"android": "https://dc.lft.to/lastmile_qr_scan", "ios": "https://dc.lft.to/lastmile_qr_scan"}, "name": "7706b4a3815112a51718ae7e95505e98", "type": "electric_scooter"}, {"fusion_lat": 0.0, "bike_id": "a615adbf1c894bff75be2d77db93d105", "fusion_lon": 0.0, "lon": -76.99505383333333, "lat": 38.89918866666667, "is_reserved": 0, "is_disabled": 0, "rental_uris": {"android": "https://dc.lft.to/lastmile_qr_scan", "ios": "https://dc.lft.to/lastmile_qr_scan"}, "name": "a615adbf1c894bff75be2d77db93d105", "type": "electric_scooter"}, {"fusion_lat": 0.0, "bike_id": "f049dab1b75632f01338a3d62f75a2d4", "fusion_lon": 0.0, "lon": -77.06174816666666, "lat": 38.90507216666666, "is_reserved": 0, "is_disabled": 0, "rental_uris": {"android": "https://dc.lft.to/lastmile_qr_scan", "ios": "https://dc.lft.to/lastmile_qr_scan"}, "name": "f049dab1b75632f01338a3d62f75a2d4", "type": "electric_scooter"}, {"fusion_lat": 0.0, "bike_id": "dbfc4146384535d6509a61fb146570c4", "fusion_lon": 0.0, "lon": -76.98580166666666, "lat": 38.908093666666666, "is_reserved": 0, "is_disabled": 0, "rental_uris": {"android": "https://dc.lft.to/lastmile_qr_scan", "ios": "https://dc.lft.to/lastmile_qr_scan"}, "name": "dbfc4146384535d6509a61fb146570c4", "type": "electric_scooter"}, {"fusion_lat": 0.0, "bike_id": "a1c08ef403f8673429e35bc6a0ee6b87", "fusion_lon": 0.0, "lon": -77.0320105, "lat": 38.91647916666667, "is_reserved": 0, "is_disabled": 0, "rental_uris": {"android": "https://dc.lft.to/lastmile_qr_scan", "ios": "https://dc.lft.to/lastmile_qr_scan"}, "name": "a1c08ef403f8673429e35bc6a0ee6b87", "type": "electric_scooter"}, {"fusion_lat": 0.0, "bike_id": "80ddd9f1f6f0e17af86d1f31e0bdeae8", "fusion_lon": 0.0, "lon": -77.043631, "lat": 38.901317166666665, "is_reserved": 0, "is_disabled": 0, "rental_uris": {"android": "https://dc.lft.to/lastmile_qr_scan", "ios": "https://dc.lft.to/lastmile_qr_scan"}, "name": "80ddd9f1f6f0e17af86d1f31e0bdeae8", "type": "electric_scooter"}, {"fusion_lat": 0.0, "bike_id": "23a6040a77e7f0137bb6030592540e84", "fusion_lon": 0.0, "lon": -77.03416383333334, "lat": 38.919259333333336, "is_reserved": 0, "is_disabled": 0, "rental_uris": {"android": "https://dc.lft.to/lastmile_qr_scan", "ios": "https://dc.lft.to/lastmile_qr_scan"}, "name": "23a6040a77e7f0137bb6030592540e84", "type": "electric_scooter"}, {"fusion_lat": 0.0, "bike_id": "bd3c10bf57749cdd85e5d2e816e39e08", "fusion_lon": 0.0, "lon": -77.04620816666667, "lat": 38.90262083333333, "is_reserved": 0, "is_disabled": 0, "rental_uris": {"android": "https://dc.lft.to/lastmile_qr_scan", "ios": "https://dc.lft.to/lastmile_qr_scan"}, "name": "bd3c10bf57749cdd85e5d2e816e39e08", "type": "electric_scooter"}, {"fusion_lat": 0.0, "bike_id": "12ebad9351e0e5b075264f53aaacd158", "fusion_lon": 0.0, "lon": -77.02102283333333, "lat": 38.921769, "is_reserved": 0, "is_disabled": 0, "rental_uris": {"android": "https://dc.lft.to/lastmile_qr_scan", "ios": "https://dc.lft.to/lastmile_qr_scan"}, "name": "12ebad9351e0e5b075264f53aaacd158", "type": "electric_scooter"}, {"fusion_lat": 0.0, "bike_id": "99794ed71ce12fe96738a865cb5e6e6c", "fusion_lon": 0.0, "lon": -77.01495583333333, "lat": 38.892203333333335, "is_reserved": 0, "is_disabled": 0, "rental_uris": {"android": "https://dc.lft.to/lastmile_qr_scan", "ios": "https://dc.lft.to/lastmile_qr_scan"}, "name": "99794ed71ce12fe96738a865cb5e6e6c", "type": "electric_scooter"}, {"fusion_lat": 0.0, "bike_id": "d2c3a0c3379d2de20d3af5bdba317599", "fusion_lon": 0.0, "lon": -77.044674, "lat": 38.905337333333335, "is_reserved": 0, "is_disabled": 0, "rental_uris": {"android": "https://dc.lft.to/lastmile_qr_scan", "ios": "https://dc.lft.to/lastmile_qr_scan"}, "name": "d2c3a0c3379d2de20d3af5bdba317599", "type": "electric_scooter"}, {"fusion_lat": 0.0, "bike_id": "c63784e763d340eff511912a3124cddb", "fusion_lon": 0.0, "lon": -77.0350935, "lat": 38.92148516666666, "is_reserved": 0, "is_disabled": 0, "rental_uris": {"android": "https://dc.lft.to/lastmile_qr_scan", "ios": "https://dc.lft.to/lastmile_qr_scan"}, "name": "c63784e763d340eff511912a3124cddb", "type": "electric_scooter"}, {"fusion_lat": 0.0, "bike_id": "24af5dbe4eb6a07d63098f5e35955c5d", "fusion_lon": 0.0, "lon": -77.03219633333333, "lat": 38.89221, "is_reserved": 0, "is_disabled": 0, "rental_uris": {"android": "https://dc.lft.to/lastmile_qr_scan", "ios": "https://dc.lft.to/lastmile_qr_scan"}, "name": "24af5dbe4eb6a07d63098f5e35955c5d", "type": "electric_scooter"}, {"fusion_lat": 0.0, "bike_id": "7b12f6fd1d739d216f6745f68ddfe011", "fusion_lon": 0.0, "lon": -76.9302985, "lat": 38.90011883333333, "is_reserved": 0, "is_disabled": 0, "rental_uris": {"android": "https://dc.lft.to/lastmile_qr_scan", "ios": "https://dc.lft.to/lastmile_qr_scan"}, "name": "7b12f6fd1d739d216f6745f68ddfe011", "type": "electric_scooter"}, {"fusion_lat": 0.0, "bike_id": "36a859bed3cd818d8d6745203a0374f6", "fusion_lon": 0.0, "lon": -77.0488955, "lat": 38.90654416666667, "is_reserved": 0, "is_disabled": 0, "rental_uris": {"android": "https://dc.lft.to/lastmile_qr_scan", "ios": "https://dc.lft.to/lastmile_qr_scan"}, "name": "36a859bed3cd818d8d6745203a0374f6", "type": "electric_scooter"}, {"fusion_lat": 0.0, "bike_id": "da446a6c771896f35dcb6a55a253debe", "fusion_lon": 0.0, "lon": -77.025876, "lat": 38.90347033333333, "is_reserved": 0, "is_disabled": 0, "rental_uris": {"android": "https://dc.lft.to/lastmile_qr_scan", "ios": "https://dc.lft.to/lastmile_qr_scan"}, "name": "da446a6c771896f35dcb6a55a253debe", "type": "electric_scooter"}, {"fusion_lat": 0.0, "bike_id": "8dfeebdceead5ff1c0472177b02c8a6a", "fusion_lon": 0.0, "lon": -77.02421633333333, "lat": 38.918239666666665, "is_reserved": 0, "is_disabled": 0, "rental_uris": {"android": "https://dc.lft.to/lastmile_qr_scan", "ios": "https://dc.lft.to/lastmile_qr_scan"}, "name": "8dfeebdceead5ff1c0472177b02c8a6a", "type": "electric_scooter"}, {"fusion_lat": 0.0, "bike_id": "1408dc711ef9c18f4cbc133fd6919cf7", "fusion_lon": 0.0, "lon": -77.02817316666666, "lat": 38.9317335, "is_reserved": 0, "is_disabled": 0, "rental_uris": {"android": "https://dc.lft.to/lastmile_qr_scan", "ios": "https://dc.lft.to/lastmile_qr_scan"}, "name": "1408dc711ef9c18f4cbc133fd6919cf7", "type": "electric_scooter"}, {"fusion_lat": 0.0, "bike_id": "577c9bc16bf76204ae48307cb17a78b5", "fusion_lon": 0.0, "lon": -77.03506016666667, "lat": 38.921482166666664, "is_reserved": 0, "is_disabled": 0, "rental_uris": {"android": "https://dc.lft.to/lastmile_qr_scan", "ios": "https://dc.lft.to/lastmile_qr_scan"}, "name": "577c9bc16bf76204ae48307cb17a78b5", "type": "electric_scooter"}, {"fusion_lat": 0.0, "bike_id": "1a733faa444cde859c5569fc4df3a4b1", "fusion_lon": 0.0, "lon": -76.900843, "lat": 38.887593333333335, "is_reserved": 0, "is_disabled": 0, "rental_uris": {"android": "https://dc.lft.to/lastmile_qr_scan", "ios": "https://dc.lft.to/lastmile_qr_scan"}, "name": "1a733faa444cde859c5569fc4df3a4b1", "type": "electric_bike"}, {"fusion_lat": 0.0, "bike_id": "2093047dac90b04074f2a972ee4bb4f8", "fusion_lon": 0.0, "lon": -77.02226666666667, "lat": 38.89320766666667, "is_reserved": 0, "is_disabled": 0, "rental_uris": {"android": "https://dc.lft.to/lastmile_qr_scan", "ios": "https://dc.lft.to/lastmile_qr_scan"}, "name": "2093047dac90b04074f2a972ee4bb4f8", "type": "electric_scooter"}, {"fusion_lat": 0.0, "bike_id": "591e67b1d3884664eaea1c7b7aeae0bf", "fusion_lon": 0.0, "lon": -76.9948075, "lat": 38.88607416666667, "is_reserved": 0, "is_disabled": 0, "rental_uris": {"android": "https://dc.lft.to/lastmile_qr_scan", "ios": "https://dc.lft.to/lastmile_qr_scan"}, "name": "591e67b1d3884664eaea1c7b7aeae0bf", "type": "electric_scooter"}, {"fusion_lat": 0.0, "bike_id": "355f04ace08efc034a47291e7483fae4", "fusion_lon": 0.0, "lon": -77.0365665, "lat": 38.931331, "is_reserved": 0, "is_disabled": 0, "rental_uris": {"android": "https://dc.lft.to/lastmile_qr_scan", "ios": "https://dc.lft.to/lastmile_qr_scan"}, "name": "355f04ace08efc034a47291e7483fae4", "type": "electric_scooter"}, {"fusion_lat": 0.0, "bike_id": "4dccb24c942b491f22ebbee223123f7c", "fusion_lon": 0.0, "lon": -76.90743116666667, "lat": 38.89613883333333, "is_reserved": 0, "is_disabled": 0, "rental_uris": {"android": "https://dc.lft.to/lastmile_qr_scan", "ios": "https://dc.lft.to/lastmile_qr_scan"}, "name": "4dccb24c942b491f22ebbee223123f7c", "type": "electric_bike"}, {"fusion_lat": 0.0, "bike_id": "cce793b9c5417d400dbbb3bb56b7c034", "fusion_lon": 0.0, "lon": -77.007118, "lat": 38.905533166666665, "is_reserved": 0, "is_disabled": 0, "rental_uris": {"android": "https://dc.lft.to/lastmile_qr_scan", "ios": "https://dc.lft.to/lastmile_qr_scan"}, "name": "cce793b9c5417d400dbbb3bb56b7c034", "type": "electric_scooter"}, {"fusion_lat": 0.0, "bike_id": "a3b6bfe920e67713ae6bdc5605ea56b3", "fusion_lon": 0.0, "lon": -77.02205866666667, "lat": 38.924739833333334, "is_reserved": 0, "is_disabled": 0, "rental_uris": {"android": "https://dc.lft.to/lastmile_qr_scan", "ios": "https://dc.lft.to/lastmile_qr_scan"}, "name": "a3b6bfe920e67713ae6bdc5605ea56b3", "type": "electric_scooter"}, {"fusion_lat": 0.0, "bike_id": "55f9a490942e59b79206c90bb98771c6", "fusion_lon": 0.0, "lon": -77.014988, "lat": 38.926688666666664, "is_reserved": 0, "is_disabled": 0, "rental_uris": {"android": "https://dc.lft.to/lastmile_qr_scan", "ios": "https://dc.lft.to/lastmile_qr_scan"}, "name": "55f9a490942e59b79206c90bb98771c6", "type": "electric_scooter"}, {"fusion_lat": 0.0, "bike_id": "eb8cf4bfbc0d87291555241d866a03d6", "fusion_lon": 0.0, "lon": -77.059992, "lat": 38.8043835, "is_reserved": 0, "is_disabled": 0, "rental_uris": {"android": "https://dc.lft.to/lastmile_qr_scan", "ios": "https://dc.lft.to/lastmile_qr_scan"}, "name": "eb8cf4bfbc0d87291555241d866a03d6", "type": "electric_bike"}, {"fusion_lat": 0.0, "bike_id": "a2e473830e00fc817d975174d22393f6", "fusion_lon": 0.0, "lon": -77.04673433333333, "lat": 38.895590166666665, "is_reserved": 0, "is_disabled": 0, "rental_uris": {"android": "https://dc.lft.to/lastmile_qr_scan", "ios": "https://dc.lft.to/lastmile_qr_scan"}, "name": "a2e473830e00fc817d975174d22393f6", "type": "electric_scooter"}, {"fusion_lat": 0.0, "bike_id": "d3c3959e1c572cd8fd528c3a25a7e34e", "fusion_lon": 0.0, "lon": -77.00964016666667, "lat": 38.91704266666667, "is_reserved": 0, "is_disabled": 0, "rental_uris": {"android": "https://dc.lft.to/lastmile_qr_scan", "ios": "https://dc.lft.to/lastmile_qr_scan"}, "name": "d3c3959e1c572cd8fd528c3a25a7e34e", "type": "electric_scooter"}, {"fusion_lat": 0.0, "bike_id": "1a29f1d94fafdc13632b875b267f5640", "fusion_lon": 0.0, "lon": -77.0176645, "lat": 38.874810833333335, "is_reserved": 0, "is_disabled": 0, "rental_uris": {"android": "https://dc.lft.to/lastmile_qr_scan", "ios": "https://dc.lft.to/lastmile_qr_scan"}, "name": "1a29f1d94fafdc13632b875b267f5640", "type": "electric_scooter"}, {"fusion_lat": 0.0, "bike_id": "996a8b52431e2d7373795659ad7a18f8", "fusion_lon": 0.0, "lon": -77.05470133333333, "lat": 38.89780416666667, "is_reserved": 0, "is_disabled": 0, "rental_uris": {"android": "https://dc.lft.to/lastmile_qr_scan", "ios": "https://dc.lft.to/lastmile_qr_scan"}, "name": "996a8b52431e2d7373795659ad7a18f8", "type": "electric_scooter"}, {"fusion_lat": 0.0, "bike_id": "c8a870a513cf94e8737f38ee4dd54c6f", "fusion_lon": 0.0, "lon": -76.98532683333333, "lat": 38.8668445, "is_reserved": 0, "is_disabled": 0, "rental_uris": {"android": "https://dc.lft.to/lastmile_qr_scan", "ios": "https://dc.lft.to/lastmile_qr_scan"}, "name": "c8a870a513cf94e8737f38ee4dd54c6f", "type": "electric_scooter"}, {"fusion_lat": 0.0, "bike_id": "f31f50747f4c06fc1192ddcf672db1e9", "fusion_lon": 0.0, "lon": -77.03379533333333, "lat": 38.921630666666665, "is_reserved": 0, "is_disabled": 0, "rental_uris": {"android": "https://dc.lft.to/lastmile_qr_scan", "ios": "https://dc.lft.to/lastmile_qr_scan"}, "name": "f31f50747f4c06fc1192ddcf672db1e9", "type": "electric_scooter"}, {"fusion_lat": 0.0, "bike_id": "a5c219d03deebb3c0928be583e487eab", "fusion_lon": 0.0, "lon": -77.0297735, "lat": 38.92310233333333, "is_reserved": 0, "is_disabled": 0, "rental_uris": {"android": "https://dc.lft.to/lastmile_qr_scan", "ios": "https://dc.lft.to/lastmile_qr_scan"}, "name": "a5c219d03deebb3c0928be583e487eab", "type": "electric_scooter"}, {"fusion_lat": 0.0, "bike_id": "e4872765dff3e7e117fb92e3d71d80e7", "fusion_lon": 0.0, "lon": -76.97733283333334, "lat": 38.86473733333333, "is_reserved": 0, "is_disabled": 0, "rental_uris": {"android": "https://dc.lft.to/lastmile_qr_scan", "ios": "https://dc.lft.to/lastmile_qr_scan"}, "name": "e4872765dff3e7e117fb92e3d71d80e7", "type": "electric_scooter"}, {"fusion_lat": 0.0, "bike_id": "5c83b530c4a99b7edc2fe937d1da4cc9", "fusion_lon": 0.0, "lon": -77.00956833333333, "lat": 38.95344516666667, "is_reserved": 0, "is_disabled": 0, "rental_uris": {"android": "https://dc.lft.to/lastmile_qr_scan", "ios": "https://dc.lft.to/lastmile_qr_scan"}, "name": "5c83b530c4a99b7edc2fe937d1da4cc9", "type": "electric_bike"}, {"fusion_lat": 0.0, "bike_id": "7a2f37c1cfe160d52005046c2575aef4", "fusion_lon": 0.0, "lon": -76.985255, "lat": 38.866860833333334, "is_reserved": 0, "is_disabled": 0, "rental_uris": {"android": "https://dc.lft.to/lastmile_qr_scan", "ios": "https://dc.lft.to/lastmile_qr_scan"}, "name": "7a2f37c1cfe160d52005046c2575aef4", "type": "electric_scooter"}, {"fusion_lat": 0.0, "bike_id": "ad7e1d4961467b5ce821286762d08ae0", "fusion_lon": 0.0, "lon": -77.07479533333333, "lat": 38.96374566666667, "is_reserved": 0, "is_disabled": 0, "rental_uris": {"android": "https://dc.lft.to/lastmile_qr_scan", "ios": "https://dc.lft.to/lastmile_qr_scan"}, "name": "ad7e1d4961467b5ce821286762d08ae0", "type": "electric_scooter"}, {"fusion_lat": 0.0, "bike_id": "1a39a55075b41a4fed395a05876a8b31", "fusion_lon": 0.0, "lon": -77.03718483333333, "lat": 38.926445666666666, "is_reserved": 0, "is_disabled": 0, "rental_uris": {"android": "https://dc.lft.to/lastmile_qr_scan", "ios": "https://dc.lft.to/lastmile_qr_scan"}, "name": "1a39a55075b41a4fed395a05876a8b31", "type": "electric_scooter"}, {"fusion_lat": 0.0, "bike_id": "024a0e504c0dd7d7c7073f340c53ba9a", "fusion_lon": 0.0, "lon": -77.05389466666666, "lat": 38.927923666666665, "is_reserved": 0, "is_disabled": 0, "rental_uris": {"android": "https://dc.lft.to/lastmile_qr_scan", "ios": "https://dc.lft.to/lastmile_qr_scan"}, "name": "024a0e504c0dd7d7c7073f340c53ba9a", "type": "electric_scooter"}, {"fusion_lat": 0.0, "bike_id": "861c3a6402d654cff31fb6513c670d8c", "fusion_lon": 0.0, "lon": -77.02402616666667, "lat": 38.891891, "is_reserved": 0, "is_disabled": 0, "rental_uris": {"android": "https://dc.lft.to/lastmile_qr_scan", "ios": "https://dc.lft.to/lastmile_qr_scan"}, "name": "861c3a6402d654cff31fb6513c670d8c", "type": "electric_scooter"}, {"fusion_lat": 0.0, "bike_id": "55d819b5f85bf79088b900dc0ed9e476", "fusion_lon": 0.0, "lon": -77.021908, "lat": 38.909706666666665, "is_reserved": 0, "is_disabled": 0, "rental_uris": {"android": "https://dc.lft.to/lastmile_qr_scan", "ios": "https://dc.lft.to/lastmile_qr_scan"}, "name": "55d819b5f85bf79088b900dc0ed9e476", "type": "electric_scooter"}, {"fusion_lat": 0.0, "bike_id": "9531980275ec5431ba2f6887da12a2ef", "fusion_lon": 0.0, "lon": -77.02558883333333, "lat": 38.90962566666666, "is_reserved": 0, "is_disabled": 0, "rental_uris": {"android": "https://dc.lft.to/lastmile_qr_scan", "ios": "https://dc.lft.to/lastmile_qr_scan"}, "name": "9531980275ec5431ba2f6887da12a2ef", "type": "electric_scooter"}, {"fusion_lat": 0.0, "bike_id": "70dc757f4e03fdebae91a268375bae99", "fusion_lon": 0.0, "lon": -77.11571716666667, "lat": 38.993445333333334, "is_reserved": 0, "is_disabled": 0, "rental_uris": {"android": "https://dc.lft.to/lastmile_qr_scan", "ios": "https://dc.lft.to/lastmile_qr_scan"}, "name": "70dc757f4e03fdebae91a268375bae99", "type": "electric_bike"}, {"fusion_lat": 0.0, "bike_id": "318473e5aa09a80e298d3453c0595d43", "fusion_lon": 0.0, "lon": -77.0279815, "lat": 38.941781, "is_reserved": 0, "is_disabled": 0, "rental_uris": {"android": "https://dc.lft.to/lastmile_qr_scan", "ios": "https://dc.lft.to/lastmile_qr_scan"}, "name": "318473e5aa09a80e298d3453c0595d43", "type": "electric_scooter"}, {"fusion_lat": 0.0, "bike_id": "e3be8ab4286b7a9dd49c4b5746ed86b7", "fusion_lon": 0.0, "lon": -77.03196483333333, "lat": 38.91094533333333, "is_reserved": 0, "is_disabled": 0, "rental_uris": {"android": "https://dc.lft.to/lastmile_qr_scan", "ios": "https://dc.lft.to/lastmile_qr_scan"}, "name": "e3be8ab4286b7a9dd49c4b5746ed86b7", "type": "electric_scooter"}, {"fusion_lat": 0.0, "bike_id": "9589c342ccf0cac1869ab1bd33a2615d", "fusion_lon": 0.0, "lon": -77.0393125, "lat": 38.9249295, "is_reserved": 0, "is_disabled": 0, "rental_uris": {"android": "https://dc.lft.to/lastmile_qr_scan", "ios": "https://dc.lft.to/lastmile_qr_scan"}, "name": "9589c342ccf0cac1869ab1bd33a2615d", "type": "electric_scooter"}, {"fusion_lat": 0.0, "bike_id": "0eb0941fc14dda343d71e2a8488b049b", "fusion_lon": 0.0, "lon": -76.96818716666667, "lat": 38.8472245, "is_reserved": 0, "is_disabled": 0, "rental_uris": {"android": "https://dc.lft.to/lastmile_qr_scan", "ios": "https://dc.lft.to/lastmile_qr_scan"}, "name": "0eb0941fc14dda343d71e2a8488b049b", "type": "electric_scooter"}, {"fusion_lat": 0.0, "bike_id": "1cdf28fee3d7faf2a2b5b116bfe517ae", "fusion_lon": 0.0, "lon": -77.02387916666666, "lat": 38.919546, "is_reserved": 0, "is_disabled": 0, "rental_uris": {"android": "https://dc.lft.to/lastmile_qr_scan", "ios": "https://dc.lft.to/lastmile_qr_scan"}, "name": "1cdf28fee3d7faf2a2b5b116bfe517ae", "type": "electric_scooter"}, {"fusion_lat": 0.0, "bike_id": "bcf6957853f69757052f0b2b1c5495cf", "fusion_lon": 0.0, "lon": -77.047857, "lat": 38.9049145, "is_reserved": 0, "is_disabled": 0, "rental_uris": {"android": "https://dc.lft.to/lastmile_qr_scan", "ios": "https://dc.lft.to/lastmile_qr_scan"}, "name": "bcf6957853f69757052f0b2b1c5495cf", "type": "electric_scooter"}, {"fusion_lat": 0.0, "bike_id": "2dd227b510ffc92ed6d8254aa88e6c74", "fusion_lon": 0.0, "lon": -77.02319, "lat": 38.9278445, "is_reserved": 0, "is_disabled": 0, "rental_uris": {"android": "https://dc.lft.to/lastmile_qr_scan", "ios": "https://dc.lft.to/lastmile_qr_scan"}, "name": "2dd227b510ffc92ed6d8254aa88e6c74", "type": "electric_scooter"}, {"fusion_lat": 0.0, "bike_id": "530ce0eca53ae0d5b119ac9435b53376", "fusion_lon": 0.0, "lon": -77.03694266666666, "lat": 38.918182, "is_reserved": 0, "is_disabled": 0, "rental_uris": {"android": "https://dc.lft.to/lastmile_qr_scan", "ios": "https://dc.lft.to/lastmile_qr_scan"}, "name": "530ce0eca53ae0d5b119ac9435b53376", "type": "electric_scooter"}, {"fusion_lat": 0.0, "bike_id": "57f0eeb2e350753e6df5a52fdbf6e7ac", "fusion_lon": 0.0, "lon": -76.9652715, "lat": 38.87474666666667, "is_reserved": 0, "is_disabled": 0, "rental_uris": {"android": "https://dc.lft.to/lastmile_qr_scan", "ios": "https://dc.lft.to/lastmile_qr_scan"}, "name": "57f0eeb2e350753e6df5a52fdbf6e7ac", "type": "electric_scooter"}, {"fusion_lat": 0.0, "bike_id": "7122cb9ee16c20db6d15096f3e5d9880", "fusion_lon": 0.0, "lon": -77.05952483333333, "lat": 38.91837833333334, "is_reserved": 0, "is_disabled": 0, "rental_uris": {"android": "https://dc.lft.to/lastmile_qr_scan", "ios": "https://dc.lft.to/lastmile_qr_scan"}, "name": "7122cb9ee16c20db6d15096f3e5d9880", "type": "electric_scooter"}, {"fusion_lat": 0.0, "bike_id": "11eb24fa55e32e1ea0a9e91513a5a1e7", "fusion_lon": 0.0, "lon": -77.0352045, "lat": 38.922572833333334, "is_reserved": 0, "is_disabled": 0, "rental_uris": {"android": "https://dc.lft.to/lastmile_qr_scan", "ios": "https://dc.lft.to/lastmile_qr_scan"}, "name": "11eb24fa55e32e1ea0a9e91513a5a1e7", "type": "electric_scooter"}, {"fusion_lat": 0.0, "bike_id": "4d2ed7460350002750a6f680283a86fd", "fusion_lon": 0.0, "lon": -77.03916583333333, "lat": 38.899589666666664, "is_reserved": 0, "is_disabled": 0, "rental_uris": {"android": "https://dc.lft.to/lastmile_qr_scan", "ios": "https://dc.lft.to/lastmile_qr_scan"}, "name": "4d2ed7460350002750a6f680283a86fd", "type": "electric_scooter"}, {"fusion_lat": 0.0, "bike_id": "ccf472be6b9b57075156198572ea9c77", "fusion_lon": 0.0, "lon": -76.94631066666666, "lat": 38.89832583333333, "is_reserved": 0, "is_disabled": 0, "rental_uris": {"android": "https://dc.lft.to/lastmile_qr_scan", "ios": "https://dc.lft.to/lastmile_qr_scan"}, "name": "ccf472be6b9b57075156198572ea9c77", "type": "electric_scooter"}, {"fusion_lat": 0.0, "bike_id": "6767c5855245b83ddd041b8868a88848", "fusion_lon": 0.0, "lon": -77.02905266666667, "lat": 38.916998, "is_reserved": 0, "is_disabled": 0, "rental_uris": {"android": "https://dc.lft.to/lastmile_qr_scan", "ios": "https://dc.lft.to/lastmile_qr_scan"}, "name": "6767c5855245b83ddd041b8868a88848", "type": "electric_scooter"}, {"fusion_lat": 0.0, "bike_id": "3326028fa3918e550b21cde7d2d9057a", "fusion_lon": 0.0, "lon": -77.021538, "lat": 38.89485583333333, "is_reserved": 0, "is_disabled": 0, "rental_uris": {"android": "https://dc.lft.to/lastmile_qr_scan", "ios": "https://dc.lft.to/lastmile_qr_scan"}, "name": "3326028fa3918e550b21cde7d2d9057a", "type": "electric_scooter"}, {"fusion_lat": 0.0, "bike_id": "864aa882b36f5478334e534c03ed417a", "fusion_lon": 0.0, "lon": -77.0256185, "lat": 38.93353116666667, "is_reserved": 0, "is_disabled": 0, "rental_uris": {"android": "https://dc.lft.to/lastmile_qr_scan", "ios": "https://dc.lft.to/lastmile_qr_scan"}, "name": "864aa882b36f5478334e534c03ed417a", "type": "electric_scooter"}, {"fusion_lat": 0.0, "bike_id": "f34a38b3cb1109ebfa92612c3d885a7a", "fusion_lon": 0.0, "lon": -77.04668083333334, "lat": 38.899474833333336, "is_reserved": 0, "is_disabled": 0, "rental_uris": {"android": "https://dc.lft.to/lastmile_qr_scan", "ios": "https://dc.lft.to/lastmile_qr_scan"}, "name": "f34a38b3cb1109ebfa92612c3d885a7a", "type": "electric_scooter"}, {"fusion_lat": 0.0, "bike_id": "c86982b5ea4db2f5cbcb181e994058ee", "fusion_lon": 0.0, "lon": -77.1812425, "lat": 38.93229, "is_reserved": 0, "is_disabled": 0, "rental_uris": {"android": "https://dc.lft.to/lastmile_qr_scan", "ios": "https://dc.lft.to/lastmile_qr_scan"}, "name": "c86982b5ea4db2f5cbcb181e994058ee", "type": "electric_bike"}, {"fusion_lat": 0.0, "bike_id": "bee7959143496e12a2338079ec3fc60d", "fusion_lon": 0.0, "lon": -77.03265383333333, "lat": 38.932165833333336, "is_reserved": 0, "is_disabled": 0, "rental_uris": {"android": "https://dc.lft.to/lastmile_qr_scan", "ios": "https://dc.lft.to/lastmile_qr_scan"}, "name": "bee7959143496e12a2338079ec3fc60d", "type": "electric_scooter"}, {"fusion_lat": 0.0, "bike_id": "1d58471dcb91f2943b2ce046354b242f", "fusion_lon": 0.0, "lon": -77.016919, "lat": 38.904506, "is_reserved": 0, "is_disabled": 0, "rental_uris": {"android": "https://dc.lft.to/lastmile_qr_scan", "ios": "https://dc.lft.to/lastmile_qr_scan"}, "name": "1d58471dcb91f2943b2ce046354b242f", "type": "electric_scooter"}, {"fusion_lat": 0.0, "bike_id": "b12c688b2f79459e3267212efac8100a", "fusion_lon": 0.0, "lon": -77.0183395, "lat": 38.909591666666664, "is_reserved": 0, "is_disabled": 0, "rental_uris": {"android": "https://dc.lft.to/lastmile_qr_scan", "ios": "https://dc.lft.to/lastmile_qr_scan"}, "name": "b12c688b2f79459e3267212efac8100a", "type": "electric_scooter"}, {"fusion_lat": 0.0, "bike_id": "eb5ee7f14c9d92e260372494d299a935", "fusion_lon": 0.0, "lon": -77.041903, "lat": 38.8984995, "is_reserved": 0, "is_disabled": 0, "rental_uris": {"android": "https://dc.lft.to/lastmile_qr_scan", "ios": "https://dc.lft.to/lastmile_qr_scan"}, "name": "eb5ee7f14c9d92e260372494d299a935", "type": "electric_scooter"}, {"fusion_lat": 0.0, "bike_id": "b5f4ab5eadc4bf5b08112666f173ae48", "fusion_lon": 0.0, "lon": -77.03423016666666, "lat": 38.9274755, "is_reserved": 0, "is_disabled": 0, "rental_uris": {"android": "https://dc.lft.to/lastmile_qr_scan", "ios": "https://dc.lft.to/lastmile_qr_scan"}, "name": "b5f4ab5eadc4bf5b08112666f173ae48", "type": "electric_scooter"}, {"fusion_lat": 0.0, "bike_id": "9fb13609efa0abbf2da640543f2364f7", "fusion_lon": 0.0, "lon": -77.05174766666667, "lat": 38.923845, "is_reserved": 0, "is_disabled": 0, "rental_uris": {"android": "https://dc.lft.to/lastmile_qr_scan", "ios": "https://dc.lft.to/lastmile_qr_scan"}, "name": "9fb13609efa0abbf2da640543f2364f7", "type": "electric_scooter"}, {"fusion_lat": 0.0, "bike_id": "2e6660d40bc6ef99426bcfe677abdacb", "fusion_lon": 0.0, "lon": -77.03686483333334, "lat": 38.926404166666664, "is_reserved": 0, "is_disabled": 0, "rental_uris": {"android": "https://dc.lft.to/lastmile_qr_scan", "ios": "https://dc.lft.to/lastmile_qr_scan"}, "name": "2e6660d40bc6ef99426bcfe677abdacb", "type": "electric_scooter"}, {"fusion_lat": 0.0, "bike_id": "9981106f8bdc4af68adec5641845578a", "fusion_lon": 0.0, "lon": -77.03445966666666, "lat": 38.9073385, "is_reserved": 0, "is_disabled": 0, "rental_uris": {"android": "https://dc.lft.to/lastmile_qr_scan", "ios": "https://dc.lft.to/lastmile_qr_scan"}, "name": "9981106f8bdc4af68adec5641845578a", "type": "electric_scooter"}, {"fusion_lat": 0.0, "bike_id": "856f02c2227d5c2b8731d05d75fa0d63", "fusion_lon": 0.0, "lon": -77.0300875, "lat": 38.93981266666667, "is_reserved": 0, "is_disabled": 0, "rental_uris": {"android": "https://dc.lft.to/lastmile_qr_scan", "ios": "https://dc.lft.to/lastmile_qr_scan"}, "name": "856f02c2227d5c2b8731d05d75fa0d63", "type": "electric_scooter"}, {"fusion_lat": 0.0, "bike_id": "5320ea134d5f23e2b1068db2af01ba7c", "fusion_lon": 0.0, "lon": -77.0281845, "lat": 38.916281166666664, "is_reserved": 0, "is_disabled": 0, "rental_uris": {"android": "https://dc.lft.to/lastmile_qr_scan", "ios": "https://dc.lft.to/lastmile_qr_scan"}, "name": "5320ea134d5f23e2b1068db2af01ba7c", "type": "electric_scooter"}, {"fusion_lat": 0.0, "bike_id": "4456acf78b25451366dadfee9119bf2f", "fusion_lon": 0.0, "lon": -77.01357416666667, "lat": 38.89816016666666, "is_reserved": 0, "is_disabled": 0, "rental_uris": {"android": "https://dc.lft.to/lastmile_qr_scan", "ios": "https://dc.lft.to/lastmile_qr_scan"}, "name": "4456acf78b25451366dadfee9119bf2f", "type": "electric_scooter"}, {"fusion_lat": 0.0, "bike_id": "5fec21ab75b9179e117ece22da6c4eff", "fusion_lon": 0.0, "lon": -77.014073, "lat": 38.9285125, "is_reserved": 0, "is_disabled": 0, "rental_uris": {"android": "https://dc.lft.to/lastmile_qr_scan", "ios": "https://dc.lft.to/lastmile_qr_scan"}, "name": "5fec21ab75b9179e117ece22da6c4eff", "type": "electric_scooter"}, {"fusion_lat": 0.0, "bike_id": "ceba714b8e43273c5ab27083766a117b", "fusion_lon": 0.0, "lon": -77.02639883333333, "lat": 38.916913, "is_reserved": 0, "is_disabled": 0, "rental_uris": {"android": "https://dc.lft.to/lastmile_qr_scan", "ios": "https://dc.lft.to/lastmile_qr_scan"}, "name": "ceba714b8e43273c5ab27083766a117b", "type": "electric_scooter"}, {"fusion_lat": 0.0, "bike_id": "3b7c445b750dca8eb24b8bf53b11d4e3", "fusion_lon": 0.0, "lon": -76.990705, "lat": 38.898148166666665, "is_reserved": 0, "is_disabled": 0, "rental_uris": {"android": "https://dc.lft.to/lastmile_qr_scan", "ios": "https://dc.lft.to/lastmile_qr_scan"}, "name": "3b7c445b750dca8eb24b8bf53b11d4e3", "type": "electric_bike"}, {"fusion_lat": 0.0, "bike_id": "50b8d37406f275a2e987beab448fa040", "fusion_lon": 0.0, "lon": -77.05890233333334, "lat": 38.93607, "is_reserved": 0, "is_disabled": 0, "rental_uris": {"android": "https://dc.lft.to/lastmile_qr_scan", "ios": "https://dc.lft.to/lastmile_qr_scan"}, "name": "50b8d37406f275a2e987beab448fa040", "type": "electric_scooter"}, {"fusion_lat": 0.0, "bike_id": "81893a9fc076421f4ef36a1b281bddc4", "fusion_lon": 0.0, "lon": -77.00125033333333, "lat": 38.87371533333334, "is_reserved": 0, "is_disabled": 0, "rental_uris": {"android": "https://dc.lft.to/lastmile_qr_scan", "ios": "https://dc.lft.to/lastmile_qr_scan"}, "name": "81893a9fc076421f4ef36a1b281bddc4", "type": "electric_scooter"}, {"fusion_lat": 0.0, "bike_id": "01d70dd6b9b7ba3d7ddec19a59448f72", "fusion_lon": 0.0, "lon": -77.03243583333334, "lat": 38.929918666666666, "is_reserved": 0, "is_disabled": 0, "rental_uris": {"android": "https://dc.lft.to/lastmile_qr_scan", "ios": "https://dc.lft.to/lastmile_qr_scan"}, "name": "01d70dd6b9b7ba3d7ddec19a59448f72", "type": "electric_scooter"}, {"fusion_lat": 0.0, "bike_id": "ab1a628caceeacb529b4c33d9e3cba05", "fusion_lon": 0.0, "lon": -77.03289966666667, "lat": 38.89893566666667, "is_reserved": 0, "is_disabled": 0, "rental_uris": {"android": "https://dc.lft.to/lastmile_qr_scan", "ios": "https://dc.lft.to/lastmile_qr_scan"}, "name": "ab1a628caceeacb529b4c33d9e3cba05", "type": "electric_scooter"}, {"fusion_lat": 0.0, "bike_id": "fd66daf9a8a4b327f55c2959232d89ae", "fusion_lon": 0.0, "lon": -77.03192716666666, "lat": 38.91300533333333, "is_reserved": 0, "is_disabled": 0, "rental_uris": {"android": "https://dc.lft.to/lastmile_qr_scan", "ios": "https://dc.lft.to/lastmile_qr_scan"}, "name": "fd66daf9a8a4b327f55c2959232d89ae", "type": "electric_scooter"}, {"fusion_lat": 0.0, "bike_id": "d7d033462e52935d6e879aaa4f21e331", "fusion_lon": 0.0, "lon": -77.031783, "lat": 38.89629683333333, "is_reserved": 0, "is_disabled": 0, "rental_uris": {"android": "https://dc.lft.to/lastmile_qr_scan", "ios": "https://dc.lft.to/lastmile_qr_scan"}, "name": "d7d033462e52935d6e879aaa4f21e331", "type": "electric_scooter"}, {"fusion_lat": 0.0, "bike_id": "8408230610e7359fe754a0c47b5fa0d9", "fusion_lon": 0.0, "lon": -77.02238583333333, "lat": 38.92239766666667, "is_reserved": 0, "is_disabled": 0, "rental_uris": {"android": "https://dc.lft.to/lastmile_qr_scan", "ios": "https://dc.lft.to/lastmile_qr_scan"}, "name": "8408230610e7359fe754a0c47b5fa0d9", "type": "electric_scooter"}, {"fusion_lat": 0.0, "bike_id": "c3d56a01fb82ec66474f88ed2b63518f", "fusion_lon": 0.0, "lon": -77.04112633333334, "lat": 38.915541833333336, "is_reserved": 0, "is_disabled": 0, "rental_uris": {"android": "https://dc.lft.to/lastmile_qr_scan", "ios": "https://dc.lft.to/lastmile_qr_scan"}, "name": "c3d56a01fb82ec66474f88ed2b63518f", "type": "electric_scooter"}, {"fusion_lat": 0.0, "bike_id": "252b239513efd15993626914b1280052", "fusion_lon": 0.0, "lon": -77.02432366666666, "lat": 38.9056185, "is_reserved": 0, "is_disabled": 0, "rental_uris": {"android": "https://dc.lft.to/lastmile_qr_scan", "ios": "https://dc.lft.to/lastmile_qr_scan"}, "name": "252b239513efd15993626914b1280052", "type": "electric_scooter"}, {"fusion_lat": 0.0, "bike_id": "19736efaca4d3435458a2793af9b2f32", "fusion_lon": 0.0, "lon": -77.02604383333333, "lat": 38.89240616666667, "is_reserved": 0, "is_disabled": 0, "rental_uris": {"android": "https://dc.lft.to/lastmile_qr_scan", "ios": "https://dc.lft.to/lastmile_qr_scan"}, "name": "19736efaca4d3435458a2793af9b2f32", "type": "electric_scooter"}, {"fusion_lat": 0.0, "bike_id": "a074f765d17927164e385a62509b72ba", "fusion_lon": 0.0, "lon": -77.0946845, "lat": 38.869393333333335, "is_reserved": 0, "is_disabled": 0, "rental_uris": {"android": "https://dc.lft.to/lastmile_qr_scan", "ios": "https://dc.lft.to/lastmile_qr_scan"}, "name": "a074f765d17927164e385a62509b72ba", "type": "electric_bike"}, {"fusion_lat": 0.0, "bike_id": "4378fdb69f00ec651e95eff40836ff62", "fusion_lon": 0.0, "lon": -77.00648666666666, "lat": 38.871657, "is_reserved": 0, "is_disabled": 0, "rental_uris": {"android": "https://dc.lft.to/lastmile_qr_scan", "ios": "https://dc.lft.to/lastmile_qr_scan"}, "name": "4378fdb69f00ec651e95eff40836ff62", "type": "electric_scooter"}, {"fusion_lat": 0.0, "bike_id": "85c2d4f97844871725c487cc56bad816", "fusion_lon": 0.0, "lon": -77.03602766666667, "lat": 38.9075795, "is_reserved": 0, "is_disabled": 0, "rental_uris": {"android": "https://dc.lft.to/lastmile_qr_scan", "ios": "https://dc.lft.to/lastmile_qr_scan"}, "name": "85c2d4f97844871725c487cc56bad816", "type": "electric_scooter"}, {"fusion_lat": 0.0, "bike_id": "3eaaa10b116dddae7c6e9dedc8073f27", "fusion_lon": 0.0, "lon": -77.01856033333334, "lat": 38.91495783333333, "is_reserved": 0, "is_disabled": 0, "rental_uris": {"android": "https://dc.lft.to/lastmile_qr_scan", "ios": "https://dc.lft.to/lastmile_qr_scan"}, "name": "3eaaa10b116dddae7c6e9dedc8073f27", "type": "electric_scooter"}, {"fusion_lat": 0.0, "bike_id": "79223c807017669e34492d9e0c0d6cb3", "fusion_lon": 0.0, "lon": -77.07745316666667, "lat": 38.943743, "is_reserved": 0, "is_disabled": 0, "rental_uris": {"android": "https://dc.lft.to/lastmile_qr_scan", "ios": "https://dc.lft.to/lastmile_qr_scan"}, "name": "79223c807017669e34492d9e0c0d6cb3", "type": "electric_scooter"}, {"fusion_lat": 0.0, "bike_id": "3f53416e3a24fb22d71cd6f0bfe85c27", "fusion_lon": 0.0, "lon": -77.03552116666667, "lat": 38.908317833333335, "is_reserved": 0, "is_disabled": 0, "rental_uris": {"android": "https://dc.lft.to/lastmile_qr_scan", "ios": "https://dc.lft.to/lastmile_qr_scan"}, "name": "3f53416e3a24fb22d71cd6f0bfe85c27", "type": "electric_scooter"}, {"fusion_lat": 0.0, "bike_id": "7c6523e6caaffa41c40d435805d37033", "fusion_lon": 0.0, "lon": -77.04869316666667, "lat": 38.90722783333333, "is_reserved": 0, "is_disabled": 0, "rental_uris": {"android": "https://dc.lft.to/lastmile_qr_scan", "ios": "https://dc.lft.to/lastmile_qr_scan"}, "name": "7c6523e6caaffa41c40d435805d37033", "type": "electric_scooter"}, {"fusion_lat": 0.0, "bike_id": "618fe04a5c94f2f2e9eb0e99a09430ac", "fusion_lon": 0.0, "lon": -77.04867083333333, "lat": 38.91332216666667, "is_reserved": 0, "is_disabled": 0, "rental_uris": {"android": "https://dc.lft.to/lastmile_qr_scan", "ios": "https://dc.lft.to/lastmile_qr_scan"}, "name": "618fe04a5c94f2f2e9eb0e99a09430ac", "type": "electric_scooter"}, {"fusion_lat": 0.0, "bike_id": "b8d57ebc204c8a3b519716c6ced1de58", "fusion_lon": 0.0, "lon": -76.9879905, "lat": 38.89240683333333, "is_reserved": 0, "is_disabled": 0, "rental_uris": {"android": "https://dc.lft.to/lastmile_qr_scan", "ios": "https://dc.lft.to/lastmile_qr_scan"}, "name": "b8d57ebc204c8a3b519716c6ced1de58", "type": "electric_scooter"}, {"fusion_lat": 0.0, "bike_id": "f5384945681f83e9098727642f95dbe7", "fusion_lon": 0.0, "lon": -77.0426685, "lat": 38.900287, "is_reserved": 0, "is_disabled": 0, "rental_uris": {"android": "https://dc.lft.to/lastmile_qr_scan", "ios": "https://dc.lft.to/lastmile_qr_scan"}, "name": "f5384945681f83e9098727642f95dbe7", "type": "electric_scooter"}, {"fusion_lat": 0.0, "bike_id": "22d0d8c798b5a37a0183bfbbb6dcdb07", "fusion_lon": 0.0, "lon": -77.0106875, "lat": 38.896228, "is_reserved": 0, "is_disabled": 0, "rental_uris": {"android": "https://dc.lft.to/lastmile_qr_scan", "ios": "https://dc.lft.to/lastmile_qr_scan"}, "name": "22d0d8c798b5a37a0183bfbbb6dcdb07", "type": "electric_scooter"}, {"fusion_lat": 0.0, "bike_id": "824a78cf5f08daf74a81fd908e0900bd", "fusion_lon": 0.0, "lon": -77.03178816666667, "lat": 38.924861, "is_reserved": 0, "is_disabled": 0, "rental_uris": {"android": "https://dc.lft.to/lastmile_qr_scan", "ios": "https://dc.lft.to/lastmile_qr_scan"}, "name": "824a78cf5f08daf74a81fd908e0900bd", "type": "electric_scooter"}, {"fusion_lat": 0.0, "bike_id": "539d577a82c02166348bdd3a6284113a", "fusion_lon": 0.0, "lon": -77.01740066666666, "lat": 38.887418833333335, "is_reserved": 0, "is_disabled": 0, "rental_uris": {"android": "https://dc.lft.to/lastmile_qr_scan", "ios": "https://dc.lft.to/lastmile_qr_scan"}, "name": "539d577a82c02166348bdd3a6284113a", "type": "electric_scooter"}, {"fusion_lat": 0.0, "bike_id": "5e535d2841a083679d64df3d2ae2336e", "fusion_lon": 0.0, "lon": -76.99406616666667, "lat": 38.90007216666667, "is_reserved": 0, "is_disabled": 0, "rental_uris": {"android": "https://dc.lft.to/lastmile_qr_scan", "ios": "https://dc.lft.to/lastmile_qr_scan"}, "name": "5e535d2841a083679d64df3d2ae2336e", "type": "electric_bike"}, {"fusion_lat": 0.0, "bike_id": "c8902c36402625f0ff7be49521a3481d", "fusion_lon": 0.0, "lon": -77.03220016666667, "lat": 38.90729783333333, "is_reserved": 0, "is_disabled": 0, "rental_uris": {"android": "https://dc.lft.to/lastmile_qr_scan", "ios": "https://dc.lft.to/lastmile_qr_scan"}, "name": "c8902c36402625f0ff7be49521a3481d", "type": "electric_scooter"}, {"fusion_lat": 0.0, "bike_id": "26af4b0634eedbee5cdeebc5249c3970", "fusion_lon": 0.0, "lon": -77.038524, "lat": 38.9217075, "is_reserved": 0, "is_disabled": 0, "rental_uris": {"android": "https://dc.lft.to/lastmile_qr_scan", "ios": "https://dc.lft.to/lastmile_qr_scan"}, "name": "26af4b0634eedbee5cdeebc5249c3970", "type": "electric_scooter"}, {"fusion_lat": 0.0, "bike_id": "47be48763127761e980cf82b0a1c61fb", "fusion_lon": 0.0, "lon": -77.032593, "lat": 38.948462666666664, "is_reserved": 0, "is_disabled": 0, "rental_uris": {"android": "https://dc.lft.to/lastmile_qr_scan", "ios": "https://dc.lft.to/lastmile_qr_scan"}, "name": "47be48763127761e980cf82b0a1c61fb", "type": "electric_scooter"}, {"fusion_lat": 0.0, "bike_id": "f7ba5712bfff87bc071a0ed799ccbdc6", "fusion_lon": 0.0, "lon": -77.03199333333333, "lat": 38.9168335, "is_reserved": 0, "is_disabled": 0, "rental_uris": {"android": "https://dc.lft.to/lastmile_qr_scan", "ios": "https://dc.lft.to/lastmile_qr_scan"}, "name": "f7ba5712bfff87bc071a0ed799ccbdc6", "type": "electric_scooter"}, {"fusion_lat": 0.0, "bike_id": "76d84ad52a149a48da71d9a8e0a19067", "fusion_lon": 0.0, "lon": -77.04275116666666, "lat": 38.90441033333333, "is_reserved": 0, "is_disabled": 0, "rental_uris": {"android": "https://dc.lft.to/lastmile_qr_scan", "ios": "https://dc.lft.to/lastmile_qr_scan"}, "name": "76d84ad52a149a48da71d9a8e0a19067", "type": "electric_scooter"}, {"fusion_lat": 0.0, "bike_id": "f2dab37ada612faae697329bd021f7ee", "fusion_lon": 0.0, "lon": -77.0399735, "lat": 38.93272916666667, "is_reserved": 0, "is_disabled": 0, "rental_uris": {"android": "https://dc.lft.to/lastmile_qr_scan", "ios": "https://dc.lft.to/lastmile_qr_scan"}, "name": "f2dab37ada612faae697329bd021f7ee", "type": "electric_scooter"}, {"fusion_lat": 0.0, "bike_id": "140f6c7795204b21a2ac73e340a5cee1", "fusion_lon": 0.0, "lon": -77.02530883333333, "lat": 38.940947333333334, "is_reserved": 0, "is_disabled": 0, "rental_uris": {"android": "https://dc.lft.to/lastmile_qr_scan", "ios": "https://dc.lft.to/lastmile_qr_scan"}, "name": "140f6c7795204b21a2ac73e340a5cee1", "type": "electric_scooter"}, {"fusion_lat": 0.0, "bike_id": "7f659f6890e6c8b122baf04e7f26a3ed", "fusion_lon": 0.0, "lon": -76.9929035, "lat": 38.85757783333333, "is_reserved": 0, "is_disabled": 0, "rental_uris": {"android": "https://dc.lft.to/lastmile_qr_scan", "ios": "https://dc.lft.to/lastmile_qr_scan"}, "name": "7f659f6890e6c8b122baf04e7f26a3ed", "type": "electric_scooter"}, {"fusion_lat": 0.0, "bike_id": "453431b2c0d0807552b8fbec0adb0c41", "fusion_lon": 0.0, "lon": -77.16625166666667, "lat": 38.888363, "is_reserved": 0, "is_disabled": 0, "rental_uris": {"android": "https://dc.lft.to/lastmile_qr_scan", "ios": "https://dc.lft.to/lastmile_qr_scan"}, "name": "453431b2c0d0807552b8fbec0adb0c41", "type": "electric_bike"}, {"fusion_lat": 0.0, "bike_id": "4a8513274513f427049b051320348534", "fusion_lon": 0.0, "lon": -77.02456033333333, "lat": 38.938478833333335, "is_reserved": 0, "is_disabled": 0, "rental_uris": {"android": "https://dc.lft.to/lastmile_qr_scan", "ios": "https://dc.lft.to/lastmile_qr_scan"}, "name": "4a8513274513f427049b051320348534", "type": "electric_scooter"}, {"fusion_lat": 0.0, "bike_id": "10ae67fa591d47acd437dbb456a91ea6", "fusion_lon": 0.0, "lon": -76.99522566666667, "lat": 38.891727333333336, "is_reserved": 0, "is_disabled": 0, "rental_uris": {"android": "https://dc.lft.to/lastmile_qr_scan", "ios": "https://dc.lft.to/lastmile_qr_scan"}, "name": "10ae67fa591d47acd437dbb456a91ea6", "type": "electric_scooter"}, {"fusion_lat": 0.0, "bike_id": "18c5b6ee8bee4c3154061ac8054253b3", "fusion_lon": 0.0, "lon": -77.070254, "lat": 38.91864916666667, "is_reserved": 0, "is_disabled": 0, "rental_uris": {"android": "https://dc.lft.to/lastmile_qr_scan", "ios": "https://dc.lft.to/lastmile_qr_scan"}, "name": "18c5b6ee8bee4c3154061ac8054253b3", "type": "electric_scooter"}, {"fusion_lat": 0.0, "bike_id": "a9ff959bb5a4e6b18252ddcec11938e6", "fusion_lon": 0.0, "lon": -77.0168025, "lat": 38.8770445, "is_reserved": 0, "is_disabled": 0, "rental_uris": {"android": "https://dc.lft.to/lastmile_qr_scan", "ios": "https://dc.lft.to/lastmile_qr_scan"}, "name": "a9ff959bb5a4e6b18252ddcec11938e6", "type": "electric_scooter"}, {"fusion_lat": 0.0, "bike_id": "c1c434edcfdcd0df5d9a58041b02854c", "fusion_lon": 0.0, "lon": -77.02868666666667, "lat": 38.895346, "is_reserved": 0, "is_disabled": 0, "rental_uris": {"android": "https://dc.lft.to/lastmile_qr_scan", "ios": "https://dc.lft.to/lastmile_qr_scan"}, "name": "c1c434edcfdcd0df5d9a58041b02854c", "type": "electric_scooter"}, {"fusion_lat": 0.0, "bike_id": "c54283063be282e08d8e40c2b94ca47b", "fusion_lon": 0.0, "lon": -77.01838833333333, "lat": 38.9223835, "is_reserved": 0, "is_disabled": 0, "rental_uris": {"android": "https://dc.lft.to/lastmile_qr_scan", "ios": "https://dc.lft.to/lastmile_qr_scan"}, "name": "c54283063be282e08d8e40c2b94ca47b", "type": "electric_scooter"}, {"fusion_lat": 0.0, "bike_id": "b1889712307291f5dd998b88451d43f6", "fusion_lon": 0.0, "lon": -77.02704683333333, "lat": 38.9278125, "is_reserved": 0, "is_disabled": 0, "rental_uris": {"android": "https://dc.lft.to/lastmile_qr_scan", "ios": "https://dc.lft.to/lastmile_qr_scan"}, "name": "b1889712307291f5dd998b88451d43f6", "type": "electric_scooter"}, {"fusion_lat": 0.0, "bike_id": "9668960fe58a8a5e31bbc06b09423513", "fusion_lon": 0.0, "lon": -77.03277, "lat": 38.941523, "is_reserved": 0, "is_disabled": 0, "rental_uris": {"android": "https://dc.lft.to/lastmile_qr_scan", "ios": "https://dc.lft.to/lastmile_qr_scan"}, "name": "9668960fe58a8a5e31bbc06b09423513", "type": "electric_scooter"}, {"fusion_lat": 0.0, "bike_id": "c8ff67210e7de7ddfb2f4716d3fecd64", "fusion_lon": 0.0, "lon": -77.04159066666666, "lat": 38.91986433333334, "is_reserved": 0, "is_disabled": 0, "rental_uris": {"android": "https://dc.lft.to/lastmile_qr_scan", "ios": "https://dc.lft.to/lastmile_qr_scan"}, "name": "c8ff67210e7de7ddfb2f4716d3fecd64", "type": "electric_scooter"}, {"fusion_lat": 0.0, "bike_id": "f2c10432a5f0bb8e69763dee5abd59af", "fusion_lon": 0.0, "lon": -77.0426675, "lat": 38.92234783333333, "is_reserved": 0, "is_disabled": 0, "rental_uris": {"android": "https://dc.lft.to/lastmile_qr_scan", "ios": "https://dc.lft.to/lastmile_qr_scan"}, "name": "f2c10432a5f0bb8e69763dee5abd59af", "type": "electric_scooter"}, {"fusion_lat": 0.0, "bike_id": "87ce7d189fc16e456c8dc7aefb064494", "fusion_lon": 0.0, "lon": -76.975346, "lat": 38.903306, "is_reserved": 0, "is_disabled": 0, "rental_uris": {"android": "https://dc.lft.to/lastmile_qr_scan", "ios": "https://dc.lft.to/lastmile_qr_scan"}, "name": "87ce7d189fc16e456c8dc7aefb064494", "type": "electric_bike"}, {"fusion_lat": 0.0, "bike_id": "a4fbb0218df08efa0485d6fc083aab90", "fusion_lon": 0.0, "lon": -77.11780716666667, "lat": 39.054900333333336, "is_reserved": 0, "is_disabled": 0, "rental_uris": {"android": "https://dc.lft.to/lastmile_qr_scan", "ios": "https://dc.lft.to/lastmile_qr_scan"}, "name": "a4fbb0218df08efa0485d6fc083aab90", "type": "electric_bike"}, {"fusion_lat": 0.0, "bike_id": "f4de0ec1cc847b69a739ad31c1bc7f3d", "fusion_lon": 0.0, "lon": -77.0396795, "lat": 38.916285333333335, "is_reserved": 0, "is_disabled": 0, "rental_uris": {"android": "https://dc.lft.to/lastmile_qr_scan", "ios": "https://dc.lft.to/lastmile_qr_scan"}, "name": "f4de0ec1cc847b69a739ad31c1bc7f3d", "type": "electric_scooter"}, {"fusion_lat": 0.0, "bike_id": "9565aded5cdc7d641dbb7b06cd72ebde", "fusion_lon": 0.0, "lon": -77.032103, "lat": 38.916784666666665, "is_reserved": 0, "is_disabled": 0, "rental_uris": {"android": "https://dc.lft.to/lastmile_qr_scan", "ios": "https://dc.lft.to/lastmile_qr_scan"}, "name": "9565aded5cdc7d641dbb7b06cd72ebde", "type": "electric_scooter"}, {"fusion_lat": 0.0, "bike_id": "a1e4938b83b494a25cf5b819dd8e38e7", "fusion_lon": 0.0, "lon": -76.99038283333333, "lat": 38.8987595, "is_reserved": 0, "is_disabled": 0, "rental_uris": {"android": "https://dc.lft.to/lastmile_qr_scan", "ios": "https://dc.lft.to/lastmile_qr_scan"}, "name": "a1e4938b83b494a25cf5b819dd8e38e7", "type": "electric_scooter"}, {"fusion_lat": 0.0, "bike_id": "51c8135b311956813a3e8ecf62f53a26", "fusion_lon": 0.0, "lon": -77.0504405, "lat": 38.92522983333333, "is_reserved": 0, "is_disabled": 0, "rental_uris": {"android": "https://dc.lft.to/lastmile_qr_scan", "ios": "https://dc.lft.to/lastmile_qr_scan"}, "name": "51c8135b311956813a3e8ecf62f53a26", "type": "electric_scooter"}, {"fusion_lat": 0.0, "bike_id": "57bce7a73b8285a7f9c3ba072520be33", "fusion_lon": 0.0, "lon": -77.05181533333334, "lat": 38.9238185, "is_reserved": 0, "is_disabled": 0, "rental_uris": {"android": "https://dc.lft.to/lastmile_qr_scan", "ios": "https://dc.lft.to/lastmile_qr_scan"}, "name": "57bce7a73b8285a7f9c3ba072520be33", "type": "electric_scooter"}, {"fusion_lat": 0.0, "bike_id": "d69ea0daa13883fd7ac36e1e59f6562e", "fusion_lon": 0.0, "lon": -77.01625616666666, "lat": 38.906826, "is_reserved": 0, "is_disabled": 0, "rental_uris": {"android": "https://dc.lft.to/lastmile_qr_scan", "ios": "https://dc.lft.to/lastmile_qr_scan"}, "name": "d69ea0daa13883fd7ac36e1e59f6562e", "type": "electric_scooter"}, {"fusion_lat": 0.0, "bike_id": "45832e4d272722440e4ed26f3d637d1b", "fusion_lon": 0.0, "lon": -76.98408216666667, "lat": 38.906281666666665, "is_reserved": 0, "is_disabled": 0, "rental_uris": {"android": "https://dc.lft.to/lastmile_qr_scan", "ios": "https://dc.lft.to/lastmile_qr_scan"}, "name": "45832e4d272722440e4ed26f3d637d1b", "type": "electric_scooter"}, {"fusion_lat": 0.0, "bike_id": "9c847a3fee0b8104d63a8d1d0ce229ef", "fusion_lon": 0.0, "lon": -77.0000785, "lat": 38.957210833333335, "is_reserved": 0, "is_disabled": 0, "rental_uris": {"android": "https://dc.lft.to/lastmile_qr_scan", "ios": "https://dc.lft.to/lastmile_qr_scan"}, "name": "9c847a3fee0b8104d63a8d1d0ce229ef", "type": "electric_scooter"}, {"fusion_lat": 0.0, "bike_id": "5519cc5b7ad907b3aa4f8241acac8a10", "fusion_lon": 0.0, "lon": -77.02798433333334, "lat": 38.94284433333333, "is_reserved": 0, "is_disabled": 0, "rental_uris": {"android": "https://dc.lft.to/lastmile_qr_scan", "ios": "https://dc.lft.to/lastmile_qr_scan"}, "name": "5519cc5b7ad907b3aa4f8241acac8a10", "type": "electric_scooter"}, {"fusion_lat": 0.0, "bike_id": "e063d7d1822f518d842e8b8c9058be93", "fusion_lon": 0.0, "lon": -77.0363005, "lat": 38.936784833333334, "is_reserved": 0, "is_disabled": 0, "rental_uris": {"android": "https://dc.lft.to/lastmile_qr_scan", "ios": "https://dc.lft.to/lastmile_qr_scan"}, "name": "e063d7d1822f518d842e8b8c9058be93", "type": "electric_scooter"}, {"fusion_lat": 0.0, "bike_id": "d1d4b4f10fc7fb5f41064df98d04a3f2", "fusion_lon": 0.0, "lon": -77.03922016666667, "lat": 38.9184115, "is_reserved": 0, "is_disabled": 0, "rental_uris": {"android": "https://dc.lft.to/lastmile_qr_scan", "ios": "https://dc.lft.to/lastmile_qr_scan"}, "name": "d1d4b4f10fc7fb5f41064df98d04a3f2", "type": "electric_scooter"}, {"fusion_lat": 0.0, "bike_id": "773fb486fd15f2aa8a24052aa37dc595", "fusion_lon": 0.0, "lon": -77.0021785, "lat": 38.90040833333333, "is_reserved": 0, "is_disabled": 0, "rental_uris": {"android": "https://dc.lft.to/lastmile_qr_scan", "ios": "https://dc.lft.to/lastmile_qr_scan"}, "name": "773fb486fd15f2aa8a24052aa37dc595", "type": "electric_scooter"}, {"fusion_lat": 0.0, "bike_id": "9203154dd2f896f54bda864a955d19bb", "fusion_lon": 0.0, "lon": -77.10343533333334, "lat": 38.88555066666667, "is_reserved": 0, "is_disabled": 0, "rental_uris": {"android": "https://dc.lft.to/lastmile_qr_scan", "ios": "https://dc.lft.to/lastmile_qr_scan"}, "name": "9203154dd2f896f54bda864a955d19bb", "type": "electric_bike"}, {"fusion_lat": 0.0, "bike_id": "aca2b820b11b282391b770175ac62ba4", "fusion_lon": 0.0, "lon": -77.0417395, "lat": 38.915485833333335, "is_reserved": 0, "is_disabled": 0, "rental_uris": {"android": "https://dc.lft.to/lastmile_qr_scan", "ios": "https://dc.lft.to/lastmile_qr_scan"}, "name": "aca2b820b11b282391b770175ac62ba4", "type": "electric_scooter"}, {"fusion_lat": 0.0, "bike_id": "cdc63bbf1fe222bd4116a86c185eaeae", "fusion_lon": 0.0, "lon": -77.07849166666666, "lat": 38.91956033333334, "is_reserved": 0, "is_disabled": 0, "rental_uris": {"android": "https://dc.lft.to/lastmile_qr_scan", "ios": "https://dc.lft.to/lastmile_qr_scan"}, "name": "cdc63bbf1fe222bd4116a86c185eaeae", "type": "electric_bike"}, {"fusion_lat": 0.0, "bike_id": "f58b1f265cd6d40cb8a935d8c7e688bc", "fusion_lon": 0.0, "lon": -77.044627, "lat": 38.89609816666667, "is_reserved": 0, "is_disabled": 0, "rental_uris": {"android": "https://dc.lft.to/lastmile_qr_scan", "ios": "https://dc.lft.to/lastmile_qr_scan"}, "name": "f58b1f265cd6d40cb8a935d8c7e688bc", "type": "electric_scooter"}, {"fusion_lat": 0.0, "bike_id": "969893324b81d8735b2a4a004dba41ee", "fusion_lon": 0.0, "lon": -77.0239945, "lat": 38.891903666666664, "is_reserved": 0, "is_disabled": 0, "rental_uris": {"android": "https://dc.lft.to/lastmile_qr_scan", "ios": "https://dc.lft.to/lastmile_qr_scan"}, "name": "969893324b81d8735b2a4a004dba41ee", "type": "electric_scooter"}, {"fusion_lat": 0.0, "bike_id": "d77deb62b0af3ee2fd57a51a8608aca7", "fusion_lon": 0.0, "lon": -77.0556215, "lat": 38.900002666666666, "is_reserved": 0, "is_disabled": 0, "rental_uris": {"android": "https://dc.lft.to/lastmile_qr_scan", "ios": "https://dc.lft.to/lastmile_qr_scan"}, "name": "d77deb62b0af3ee2fd57a51a8608aca7", "type": "electric_scooter"}, {"fusion_lat": 0.0, "bike_id": "149373dfe49c61ba1436be8901338036", "fusion_lon": 0.0, "lon": -77.00202266666666, "lat": 38.9022695, "is_reserved": 0, "is_disabled": 0, "rental_uris": {"android": "https://dc.lft.to/lastmile_qr_scan", "ios": "https://dc.lft.to/lastmile_qr_scan"}, "name": "149373dfe49c61ba1436be8901338036", "type": "electric_scooter"}, {"fusion_lat": 0.0, "bike_id": "78566afec27d26c2a0fcf24d34f73dc8", "fusion_lon": 0.0, "lon": -77.00448, "lat": 38.8765835, "is_reserved": 0, "is_disabled": 0, "rental_uris": {"android": "https://dc.lft.to/lastmile_qr_scan", "ios": "https://dc.lft.to/lastmile_qr_scan"}, "name": "78566afec27d26c2a0fcf24d34f73dc8", "type": "electric_scooter"}, {"fusion_lat": 0.0, "bike_id": "569da104e85c19636a7406201c865c47", "fusion_lon": 0.0, "lon": -77.0270805, "lat": 38.9166575, "is_reserved": 0, "is_disabled": 0, "rental_uris": {"android": "https://dc.lft.to/lastmile_qr_scan", "ios": "https://dc.lft.to/lastmile_qr_scan"}, "name": "569da104e85c19636a7406201c865c47", "type": "electric_scooter"}, {"fusion_lat": 0.0, "bike_id": "5add6fb4bd8f8e086e11f67cbe8fc6b1", "fusion_lon": 0.0, "lon": -77.02322833333334, "lat": 38.927848833333336, "is_reserved": 0, "is_disabled": 0, "rental_uris": {"android": "https://dc.lft.to/lastmile_qr_scan", "ios": "https://dc.lft.to/lastmile_qr_scan"}, "name": "5add6fb4bd8f8e086e11f67cbe8fc6b1", "type": "electric_scooter"}, {"fusion_lat": 0.0, "bike_id": "e9e3745bf6d59a341706e36faf14fa59", "fusion_lon": 0.0, "lon": -77.04163866666667, "lat": 38.905563666666666, "is_reserved": 0, "is_disabled": 0, "rental_uris": {"android": "https://dc.lft.to/lastmile_qr_scan", "ios": "https://dc.lft.to/lastmile_qr_scan"}, "name": "e9e3745bf6d59a341706e36faf14fa59", "type": "electric_scooter"}, {"fusion_lat": 0.0, "bike_id": "5f5f516ce9d071ddbac58f3364109f3f", "fusion_lon": 0.0, "lon": -77.01766333333333, "lat": 38.88410566666667, "is_reserved": 0, "is_disabled": 0, "rental_uris": {"android": "https://dc.lft.to/lastmile_qr_scan", "ios": "https://dc.lft.to/lastmile_qr_scan"}, "name": "5f5f516ce9d071ddbac58f3364109f3f", "type": "electric_scooter"}, {"fusion_lat": 0.0, "bike_id": "5c70039f65fcbd35e4d6591f6db8bd99", "fusion_lon": 0.0, "lon": -77.026834, "lat": 38.9432775, "is_reserved": 0, "is_disabled": 0, "rental_uris": {"android": "https://dc.lft.to/lastmile_qr_scan", "ios": "https://dc.lft.to/lastmile_qr_scan"}, "name": "5c70039f65fcbd35e4d6591f6db8bd99", "type": "electric_scooter"}, {"fusion_lat": 0.0, "bike_id": "f169f744398928629e25492e01aef088", "fusion_lon": 0.0, "lon": -76.93376083333334, "lat": 38.9103195, "is_reserved": 0, "is_disabled": 0, "rental_uris": {"android": "https://dc.lft.to/lastmile_qr_scan", "ios": "https://dc.lft.to/lastmile_qr_scan"}, "name": "f169f744398928629e25492e01aef088", "type": "electric_scooter"}, {"fusion_lat": 0.0, "bike_id": "02b6ef75adeef7bd306590ab98b6e18f", "fusion_lon": 0.0, "lon": -76.98499816666667, "lat": 38.8667185, "is_reserved": 0, "is_disabled": 0, "rental_uris": {"android": "https://dc.lft.to/lastmile_qr_scan", "ios": "https://dc.lft.to/lastmile_qr_scan"}, "name": "02b6ef75adeef7bd306590ab98b6e18f", "type": "electric_scooter"}, {"fusion_lat": 0.0, "bike_id": "ffcc9c98072384bee7a68e3cdbe11e8a", "fusion_lon": 0.0, "lon": -77.04476516666666, "lat": 38.910312166666664, "is_reserved": 0, "is_disabled": 0, "rental_uris": {"android": "https://dc.lft.to/lastmile_qr_scan", "ios": "https://dc.lft.to/lastmile_qr_scan"}, "name": "ffcc9c98072384bee7a68e3cdbe11e8a", "type": "electric_scooter"}, {"fusion_lat": 0.0, "bike_id": "b74ccba90b1b2a74bb29885a39ef690a", "fusion_lon": 0.0, "lon": -76.9335285, "lat": 38.89903133333333, "is_reserved": 0, "is_disabled": 0, "rental_uris": {"android": "https://dc.lft.to/lastmile_qr_scan", "ios": "https://dc.lft.to/lastmile_qr_scan"}, "name": "b74ccba90b1b2a74bb29885a39ef690a", "type": "electric_scooter"}, {"fusion_lat": 0.0, "bike_id": "ed55626c7b7752699bba09a7c6951f18", "fusion_lon": 0.0, "lon": -76.99107933333333, "lat": 38.90318216666667, "is_reserved": 0, "is_disabled": 0, "rental_uris": {"android": "https://dc.lft.to/lastmile_qr_scan", "ios": "https://dc.lft.to/lastmile_qr_scan"}, "name": "ed55626c7b7752699bba09a7c6951f18", "type": "electric_scooter"}, {"fusion_lat": 0.0, "bike_id": "d58ea74ff1f44fb0a3d70fcbe23a27fb", "fusion_lon": 0.0, "lon": -77.01751083333333, "lat": 38.877115833333335, "is_reserved": 0, "is_disabled": 0, "rental_uris": {"android": "https://dc.lft.to/lastmile_qr_scan", "ios": "https://dc.lft.to/lastmile_qr_scan"}, "name": "d58ea74ff1f44fb0a3d70fcbe23a27fb", "type": "electric_scooter"}, {"fusion_lat": 0.0, "bike_id": "45496cd1cc30ca16448b1f7b524c6eee", "fusion_lon": 0.0, "lon": -77.03304383333334, "lat": 38.90961883333333, "is_reserved": 0, "is_disabled": 0, "rental_uris": {"android": "https://dc.lft.to/lastmile_qr_scan", "ios": "https://dc.lft.to/lastmile_qr_scan"}, "name": "45496cd1cc30ca16448b1f7b524c6eee", "type": "electric_scooter"}, {"fusion_lat": 0.0, "bike_id": "31ace50ff37da8c664bdc8d233a36019", "fusion_lon": 0.0, "lon": -76.98351616666666, "lat": 38.887672333333335, "is_reserved": 0, "is_disabled": 0, "rental_uris": {"android": "https://dc.lft.to/lastmile_qr_scan", "ios": "https://dc.lft.to/lastmile_qr_scan"}, "name": "31ace50ff37da8c664bdc8d233a36019", "type": "electric_scooter"}, {"fusion_lat": 0.0, "bike_id": "d1490da23d7f091edb8bd61b391c5638", "fusion_lon": 0.0, "lon": -77.10537133333334, "lat": 38.85510683333333, "is_reserved": 0, "is_disabled": 0, "rental_uris": {"android": "https://dc.lft.to/lastmile_qr_scan", "ios": "https://dc.lft.to/lastmile_qr_scan"}, "name": "d1490da23d7f091edb8bd61b391c5638", "type": "electric_bike"}, {"fusion_lat": 0.0, "bike_id": "c3186f4020001d1a033bf6b93572dcf1", "fusion_lon": 0.0, "lon": -77.02210533333333, "lat": 38.90031233333333, "is_reserved": 0, "is_disabled": 0, "rental_uris": {"android": "https://dc.lft.to/lastmile_qr_scan", "ios": "https://dc.lft.to/lastmile_qr_scan"}, "name": "c3186f4020001d1a033bf6b93572dcf1", "type": "electric_scooter"}, {"fusion_lat": 0.0, "bike_id": "3bddc673225dd61baba5932ab20deee1", "fusion_lon": 0.0, "lon": -77.06338233333334, "lat": 38.90683966666667, "is_reserved": 0, "is_disabled": 0, "rental_uris": {"android": "https://dc.lft.to/lastmile_qr_scan", "ios": "https://dc.lft.to/lastmile_qr_scan"}, "name": "3bddc673225dd61baba5932ab20deee1", "type": "electric_scooter"}, {"fusion_lat": 0.0, "bike_id": "e43605d48c69901f6a7eef8d3ed83884", "fusion_lon": 0.0, "lon": -77.03500616666666, "lat": 38.937492666666664, "is_reserved": 0, "is_disabled": 0, "rental_uris": {"android": "https://dc.lft.to/lastmile_qr_scan", "ios": "https://dc.lft.to/lastmile_qr_scan"}, "name": "e43605d48c69901f6a7eef8d3ed83884", "type": "electric_scooter"}, {"fusion_lat": 0.0, "bike_id": "b88080717dd3f1fb522a5829aefb265f", "fusion_lon": 0.0, "lon": -77.00443183333333, "lat": 38.876579, "is_reserved": 0, "is_disabled": 0, "rental_uris": {"android": "https://dc.lft.to/lastmile_qr_scan", "ios": "https://dc.lft.to/lastmile_qr_scan"}, "name": "b88080717dd3f1fb522a5829aefb265f", "type": "electric_scooter"}, {"fusion_lat": 0.0, "bike_id": "e038421f1a0fb9ef5eb474b02d681b1e", "fusion_lon": 0.0, "lon": -76.9739295, "lat": 38.9055585, "is_reserved": 0, "is_disabled": 0, "rental_uris": {"android": "https://dc.lft.to/lastmile_qr_scan", "ios": "https://dc.lft.to/lastmile_qr_scan"}, "name": "e038421f1a0fb9ef5eb474b02d681b1e", "type": "electric_scooter"}, {"fusion_lat": 0.0, "bike_id": "03cae5b1e5bc0fb806d144d8d42bb088", "fusion_lon": 0.0, "lon": -77.03264116666666, "lat": 38.915636166666665, "is_reserved": 0, "is_disabled": 0, "rental_uris": {"android": "https://dc.lft.to/lastmile_qr_scan", "ios": "https://dc.lft.to/lastmile_qr_scan"}, "name": "03cae5b1e5bc0fb806d144d8d42bb088", "type": "electric_scooter"}, {"fusion_lat": 0.0, "bike_id": "3d509dd19af5387cc60ab822cea2778b", "fusion_lon": 0.0, "lon": -77.03190283333333, "lat": 38.92063383333333, "is_reserved": 0, "is_disabled": 0, "rental_uris": {"android": "https://dc.lft.to/lastmile_qr_scan", "ios": "https://dc.lft.to/lastmile_qr_scan"}, "name": "3d509dd19af5387cc60ab822cea2778b", "type": "electric_scooter"}, {"fusion_lat": 0.0, "bike_id": "9db31e8d1ef8ce43f29b100764f8f516", "fusion_lon": 0.0, "lon": -77.04271483333333, "lat": 38.92244933333333, "is_reserved": 0, "is_disabled": 0, "rental_uris": {"android": "https://dc.lft.to/lastmile_qr_scan", "ios": "https://dc.lft.to/lastmile_qr_scan"}, "name": "9db31e8d1ef8ce43f29b100764f8f516", "type": "electric_scooter"}, {"fusion_lat": 0.0, "bike_id": "424986b9f9094474f6e1f3ed5c33471c", "fusion_lon": 0.0, "lon": -77.03419383333333, "lat": 38.922360833333336, "is_reserved": 0, "is_disabled": 0, "rental_uris": {"android": "https://dc.lft.to/lastmile_qr_scan", "ios": "https://dc.lft.to/lastmile_qr_scan"}, "name": "424986b9f9094474f6e1f3ed5c33471c", "type": "electric_scooter"}, {"fusion_lat": 0.0, "bike_id": "5942fdcea374f43ee3d5c88b42cd1643", "fusion_lon": 0.0, "lon": -76.94636633333333, "lat": 38.89829983333333, "is_reserved": 0, "is_disabled": 0, "rental_uris": {"android": "https://dc.lft.to/lastmile_qr_scan", "ios": "https://dc.lft.to/lastmile_qr_scan"}, "name": "5942fdcea374f43ee3d5c88b42cd1643", "type": "electric_scooter"}, {"fusion_lat": 0.0, "bike_id": "eac8210f29356bad5e8ae039803ffe7d", "fusion_lon": 0.0, "lon": -77.02825183333333, "lat": 38.88733283333333, "is_reserved": 0, "is_disabled": 0, "rental_uris": {"android": "https://dc.lft.to/lastmile_qr_scan", "ios": "https://dc.lft.to/lastmile_qr_scan"}, "name": "eac8210f29356bad5e8ae039803ffe7d", "type": "electric_scooter"}, {"fusion_lat": 0.0, "bike_id": "50303d983fe1692b60399830a7181d5d", "fusion_lon": 0.0, "lon": -77.02304016666666, "lat": 38.94092366666667, "is_reserved": 0, "is_disabled": 0, "rental_uris": {"android": "https://dc.lft.to/lastmile_qr_scan", "ios": "https://dc.lft.to/lastmile_qr_scan"}, "name": "50303d983fe1692b60399830a7181d5d", "type": "electric_scooter"}, {"fusion_lat": 0.0, "bike_id": "fb06eea0ebba3dc1be03d173cc6b461c", "fusion_lon": 0.0, "lon": -76.97547516666667, "lat": 38.903241333333334, "is_reserved": 0, "is_disabled": 0, "rental_uris": {"android": "https://dc.lft.to/lastmile_qr_scan", "ios": "https://dc.lft.to/lastmile_qr_scan"}, "name": "fb06eea0ebba3dc1be03d173cc6b461c", "type": "electric_scooter"}, {"fusion_lat": 0.0, "bike_id": "5a51c2e50ef105b88548ffaea4836437", "fusion_lon": 0.0, "lon": -77.1207655, "lat": 38.85416383333333, "is_reserved": 0, "is_disabled": 0, "rental_uris": {"android": "https://dc.lft.to/lastmile_qr_scan", "ios": "https://dc.lft.to/lastmile_qr_scan"}, "name": "5a51c2e50ef105b88548ffaea4836437", "type": "electric_bike"}, {"fusion_lat": 0.0, "bike_id": "c2ea0d48a09aca7bb363abd62e6bf802", "fusion_lon": 0.0, "lon": -77.0456365, "lat": 38.913142666666666, "is_reserved": 0, "is_disabled": 0, "rental_uris": {"android": "https://dc.lft.to/lastmile_qr_scan", "ios": "https://dc.lft.to/lastmile_qr_scan"}, "name": "c2ea0d48a09aca7bb363abd62e6bf802", "type": "electric_scooter"}, {"fusion_lat": 0.0, "bike_id": "41822e83c71f14023665f5e2e7fb6189", "fusion_lon": 0.0, "lon": -77.03797716666666, "lat": 38.930217, "is_reserved": 0, "is_disabled": 0, "rental_uris": {"android": "https://dc.lft.to/lastmile_qr_scan", "ios": "https://dc.lft.to/lastmile_qr_scan"}, "name": "41822e83c71f14023665f5e2e7fb6189", "type": "electric_scooter"}, {"fusion_lat": 0.0, "bike_id": "dc28a886030cf8e95aecc736cf16b6dd", "fusion_lon": 0.0, "lon": -77.01985183333333, "lat": 38.925448333333335, "is_reserved": 0, "is_disabled": 0, "rental_uris": {"android": "https://dc.lft.to/lastmile_qr_scan", "ios": "https://dc.lft.to/lastmile_qr_scan"}, "name": "dc28a886030cf8e95aecc736cf16b6dd", "type": "electric_bike"}, {"fusion_lat": 0.0, "bike_id": "4ede2949e1adb5c910837b018d510020", "fusion_lon": 0.0, "lon": -77.030769, "lat": 38.900812, "is_reserved": 0, "is_disabled": 0, "rental_uris": {"android": "https://dc.lft.to/lastmile_qr_scan", "ios": "https://dc.lft.to/lastmile_qr_scan"}, "name": "4ede2949e1adb5c910837b018d510020", "type": "electric_scooter"}, {"fusion_lat": 0.0, "bike_id": "1d67d5bc32526ddfb588d6a8de8d62b7", "fusion_lon": 0.0, "lon": -77.027683, "lat": 38.89219166666667, "is_reserved": 0, "is_disabled": 0, "rental_uris": {"android": "https://dc.lft.to/lastmile_qr_scan", "ios": "https://dc.lft.to/lastmile_qr_scan"}, "name": "1d67d5bc32526ddfb588d6a8de8d62b7", "type": "electric_scooter"}, {"fusion_lat": 0.0, "bike_id": "fb50294a52d0c720de760ca5d031eca0", "fusion_lon": 0.0, "lon": -77.04368616666666, "lat": 38.901454666666666, "is_reserved": 0, "is_disabled": 0, "rental_uris": {"android": "https://dc.lft.to/lastmile_qr_scan", "ios": "https://dc.lft.to/lastmile_qr_scan"}, "name": "fb50294a52d0c720de760ca5d031eca0", "type": "electric_scooter"}, {"fusion_lat": 0.0, "bike_id": "bd9cd990b489a393892dae8e522d3c62", "fusion_lon": 0.0, "lon": -77.05050366666667, "lat": 38.92389983333333, "is_reserved": 0, "is_disabled": 0, "rental_uris": {"android": "https://dc.lft.to/lastmile_qr_scan", "ios": "https://dc.lft.to/lastmile_qr_scan"}, "name": "bd9cd990b489a393892dae8e522d3c62", "type": "electric_scooter"}, {"fusion_lat": 0.0, "bike_id": "5b3d8633944eded9ea7fb7ac4dab79d1", "fusion_lon": 0.0, "lon": -77.00064833333333, "lat": 38.9008465, "is_reserved": 0, "is_disabled": 0, "rental_uris": {"android": "https://dc.lft.to/lastmile_qr_scan", "ios": "https://dc.lft.to/lastmile_qr_scan"}, "name": "5b3d8633944eded9ea7fb7ac4dab79d1", "type": "electric_scooter"}, {"fusion_lat": 0.0, "bike_id": "0fa62413f5a00ef0a91382c62738e770", "fusion_lon": 0.0, "lon": -77.0322085, "lat": 38.91404, "is_reserved": 0, "is_disabled": 0, "rental_uris": {"android": "https://dc.lft.to/lastmile_qr_scan", "ios": "https://dc.lft.to/lastmile_qr_scan"}, "name": "0fa62413f5a00ef0a91382c62738e770", "type": "electric_scooter"}, {"fusion_lat": 0.0, "bike_id": "401a313989a757413d31d1b73b407494", "fusion_lon": 0.0, "lon": -77.04665316666667, "lat": 38.9045675, "is_reserved": 0, "is_disabled": 0, "rental_uris": {"android": "https://dc.lft.to/lastmile_qr_scan", "ios": "https://dc.lft.to/lastmile_qr_scan"}, "name": "401a313989a757413d31d1b73b407494", "type": "electric_scooter"}, {"fusion_lat": 0.0, "bike_id": "5df59367d6267ee417a240d2f6548736", "fusion_lon": 0.0, "lon": -76.94876883333333, "lat": 38.89429716666667, "is_reserved": 0, "is_disabled": 0, "rental_uris": {"android": "https://dc.lft.to/lastmile_qr_scan", "ios": "https://dc.lft.to/lastmile_qr_scan"}, "name": "5df59367d6267ee417a240d2f6548736", "type": "electric_scooter"}, {"fusion_lat": 0.0, "bike_id": "cc4905378039fcd02f730b12c6693c1e", "fusion_lon": 0.0, "lon": -76.990521, "lat": 38.86378116666667, "is_reserved": 0, "is_disabled": 0, "rental_uris": {"android": "https://dc.lft.to/lastmile_qr_scan", "ios": "https://dc.lft.to/lastmile_qr_scan"}, "name": "cc4905378039fcd02f730b12c6693c1e", "type": "electric_scooter"}, {"fusion_lat": 0.0, "bike_id": "bf95e09bb4c64034c496bd3e4bf88d67", "fusion_lon": 0.0, "lon": -77.03215033333333, "lat": 38.912676, "is_reserved": 0, "is_disabled": 0, "rental_uris": {"android": "https://dc.lft.to/lastmile_qr_scan", "ios": "https://dc.lft.to/lastmile_qr_scan"}, "name": "bf95e09bb4c64034c496bd3e4bf88d67", "type": "electric_scooter"}, {"fusion_lat": 0.0, "bike_id": "45eb911aa35c33948b017216551d5303", "fusion_lon": 0.0, "lon": -77.02154766666666, "lat": 38.924987, "is_reserved": 0, "is_disabled": 0, "rental_uris": {"android": "https://dc.lft.to/lastmile_qr_scan", "ios": "https://dc.lft.to/lastmile_qr_scan"}, "name": "45eb911aa35c33948b017216551d5303", "type": "electric_scooter"}, {"fusion_lat": 0.0, "bike_id": "b3aed0851b35bc646f9dec0ed173270c", "fusion_lon": 0.0, "lon": -77.046267, "lat": 38.91564616666667, "is_reserved": 0, "is_disabled": 0, "rental_uris": {"android": "https://dc.lft.to/lastmile_qr_scan", "ios": "https://dc.lft.to/lastmile_qr_scan"}, "name": "b3aed0851b35bc646f9dec0ed173270c", "type": "electric_scooter"}, {"fusion_lat": 0.0, "bike_id": "6ee198f018ba3b7a9156eea3e0a15457", "fusion_lon": 0.0, "lon": -77.00225616666667, "lat": 38.925105, "is_reserved": 0, "is_disabled": 0, "rental_uris": {"android": "https://dc.lft.to/lastmile_qr_scan", "ios": "https://dc.lft.to/lastmile_qr_scan"}, "name": "6ee198f018ba3b7a9156eea3e0a15457", "type": "electric_scooter"}, {"fusion_lat": 0.0, "bike_id": "6b4ca3e6da9004610a13cfdd653254c6", "fusion_lon": 0.0, "lon": -76.99361633333334, "lat": 38.893782, "is_reserved": 0, "is_disabled": 0, "rental_uris": {"android": "https://dc.lft.to/lastmile_qr_scan", "ios": "https://dc.lft.to/lastmile_qr_scan"}, "name": "6b4ca3e6da9004610a13cfdd653254c6", "type": "electric_scooter"}, {"fusion_lat": 0.0, "bike_id": "53c258ae905ea549fcd0e42462a62c36", "fusion_lon": 0.0, "lon": -77.017476, "lat": 38.8771475, "is_reserved": 0, "is_disabled": 0, "rental_uris": {"android": "https://dc.lft.to/lastmile_qr_scan", "ios": "https://dc.lft.to/lastmile_qr_scan"}, "name": "53c258ae905ea549fcd0e42462a62c36", "type": "electric_scooter"}, {"fusion_lat": 0.0, "bike_id": "c147b4a319deeb56e26f2e063acb556a", "fusion_lon": 0.0, "lon": -77.02729216666667, "lat": 38.89729033333333, "is_reserved": 0, "is_disabled": 0, "rental_uris": {"android": "https://dc.lft.to/lastmile_qr_scan", "ios": "https://dc.lft.to/lastmile_qr_scan"}, "name": "c147b4a319deeb56e26f2e063acb556a", "type": "electric_scooter"}, {"fusion_lat": 0.0, "bike_id": "411dafa0a0b8362cf90d20af79ce0d07", "fusion_lon": 0.0, "lon": -77.03265366666666, "lat": 38.93102533333333, "is_reserved": 0, "is_disabled": 0, "rental_uris": {"android": "https://dc.lft.to/lastmile_qr_scan", "ios": "https://dc.lft.to/lastmile_qr_scan"}, "name": "411dafa0a0b8362cf90d20af79ce0d07", "type": "electric_scooter"}, {"fusion_lat": 0.0, "bike_id": "062bda76be5883aff8e203db6fbf3e36", "fusion_lon": 0.0, "lon": -77.0255835, "lat": 38.938528833333336, "is_reserved": 0, "is_disabled": 0, "rental_uris": {"android": "https://dc.lft.to/lastmile_qr_scan", "ios": "https://dc.lft.to/lastmile_qr_scan"}, "name": "062bda76be5883aff8e203db6fbf3e36", "type": "electric_scooter"}, {"fusion_lat": 0.0, "bike_id": "8321495d3167b551386554140ac0bdfb", "fusion_lon": 0.0, "lon": -76.9574675, "lat": 38.884267, "is_reserved": 0, "is_disabled": 0, "rental_uris": {"android": "https://dc.lft.to/lastmile_qr_scan", "ios": "https://dc.lft.to/lastmile_qr_scan"}, "name": "8321495d3167b551386554140ac0bdfb", "type": "electric_scooter"}, {"fusion_lat": 0.0, "bike_id": "2813c70dd6858e7efa395119e66c04e1", "fusion_lon": 0.0, "lon": -77.08028033333333, "lat": 38.950584, "is_reserved": 0, "is_disabled": 0, "rental_uris": {"android": "https://dc.lft.to/lastmile_qr_scan", "ios": "https://dc.lft.to/lastmile_qr_scan"}, "name": "2813c70dd6858e7efa395119e66c04e1", "type": "electric_scooter"}, {"fusion_lat": 0.0, "bike_id": "ca612aa416d540876a37b76a54b24a42", "fusion_lon": 0.0, "lon": -77.03578483333334, "lat": 38.923238166666664, "is_reserved": 0, "is_disabled": 0, "rental_uris": {"android": "https://dc.lft.to/lastmile_qr_scan", "ios": "https://dc.lft.to/lastmile_qr_scan"}, "name": "ca612aa416d540876a37b76a54b24a42", "type": "electric_scooter"}, {"fusion_lat": 0.0, "bike_id": "25f1ec830a2d6d278eb234f24299ceca", "fusion_lon": 0.0, "lon": -76.99884616666667, "lat": 38.9205135, "is_reserved": 0, "is_disabled": 0, "rental_uris": {"android": "https://dc.lft.to/lastmile_qr_scan", "ios": "https://dc.lft.to/lastmile_qr_scan"}, "name": "25f1ec830a2d6d278eb234f24299ceca", "type": "electric_scooter"}, {"fusion_lat": 0.0, "bike_id": "a90d9443d1fb368a353e059fca8d4bdc", "fusion_lon": 0.0, "lon": -77.07914516666666, "lat": 38.946345, "is_reserved": 0, "is_disabled": 0, "rental_uris": {"android": "https://dc.lft.to/lastmile_qr_scan", "ios": "https://dc.lft.to/lastmile_qr_scan"}, "name": "a90d9443d1fb368a353e059fca8d4bdc", "type": "electric_scooter"}, {"fusion_lat": 0.0, "bike_id": "6bb58290b0566133f7c773b5a9e794a3", "fusion_lon": 0.0, "lon": -77.03860216666666, "lat": 38.906675666666665, "is_reserved": 0, "is_disabled": 0, "rental_uris": {"android": "https://dc.lft.to/lastmile_qr_scan", "ios": "https://dc.lft.to/lastmile_qr_scan"}, "name": "6bb58290b0566133f7c773b5a9e794a3", "type": "electric_scooter"}, {"fusion_lat": 0.0, "bike_id": "ad79a651a29c31dfd41e00b0e67d8599", "fusion_lon": 0.0, "lon": -76.92879483333333, "lat": 38.97837283333333, "is_reserved": 0, "is_disabled": 0, "rental_uris": {"android": "https://dc.lft.to/lastmile_qr_scan", "ios": "https://dc.lft.to/lastmile_qr_scan"}, "name": "ad79a651a29c31dfd41e00b0e67d8599", "type": "electric_bike"}, {"fusion_lat": 0.0, "bike_id": "65891e8b3c8ccd0c7d9fb64b9afabe06", "fusion_lon": 0.0, "lon": -76.93014116666667, "lat": 38.8965045, "is_reserved": 0, "is_disabled": 0, "rental_uris": {"android": "https://dc.lft.to/lastmile_qr_scan", "ios": "https://dc.lft.to/lastmile_qr_scan"}, "name": "65891e8b3c8ccd0c7d9fb64b9afabe06", "type": "electric_bike"}, {"fusion_lat": 0.0, "bike_id": "cd5057ddae3eb4fa3e3e5028711547f4", "fusion_lon": 0.0, "lon": -77.04159833333334, "lat": 38.903242666666664, "is_reserved": 0, "is_disabled": 0, "rental_uris": {"android": "https://dc.lft.to/lastmile_qr_scan", "ios": "https://dc.lft.to/lastmile_qr_scan"}, "name": "cd5057ddae3eb4fa3e3e5028711547f4", "type": "electric_scooter"}, {"fusion_lat": 0.0, "bike_id": "bd3429b1824dda4a1115a9fa58223867", "fusion_lon": 0.0, "lon": -77.032895, "lat": 38.9565375, "is_reserved": 0, "is_disabled": 0, "rental_uris": {"android": "https://dc.lft.to/lastmile_qr_scan", "ios": "https://dc.lft.to/lastmile_qr_scan"}, "name": "bd3429b1824dda4a1115a9fa58223867", "type": "electric_scooter"}, {"fusion_lat": 0.0, "bike_id": "6d27715ba0052529a5d1a9afdf87616e", "fusion_lon": 0.0, "lon": -76.9317415, "lat": 38.8988125, "is_reserved": 0, "is_disabled": 0, "rental_uris": {"android": "https://dc.lft.to/lastmile_qr_scan", "ios": "https://dc.lft.to/lastmile_qr_scan"}, "name": "6d27715ba0052529a5d1a9afdf87616e", "type": "electric_scooter"}, {"fusion_lat": 0.0, "bike_id": "1990fe8f7a94c0b5329acf025ced485a", "fusion_lon": 0.0, "lon": -77.02702266666667, "lat": 38.906628, "is_reserved": 0, "is_disabled": 0, "rental_uris": {"android": "https://dc.lft.to/lastmile_qr_scan", "ios": "https://dc.lft.to/lastmile_qr_scan"}, "name": "1990fe8f7a94c0b5329acf025ced485a", "type": "electric_scooter"}, {"fusion_lat": 0.0, "bike_id": "8c344c912e3346aa97758cee04c18729", "fusion_lon": 0.0, "lon": -77.04854333333333, "lat": 38.90087783333333, "is_reserved": 0, "is_disabled": 0, "rental_uris": {"android": "https://dc.lft.to/lastmile_qr_scan", "ios": "https://dc.lft.to/lastmile_qr_scan"}, "name": "8c344c912e3346aa97758cee04c18729", "type": "electric_scooter"}, {"fusion_lat": 0.0, "bike_id": "ff59ca7ad17c0f2c5749b00cd864dd38", "fusion_lon": 0.0, "lon": -77.04301566666666, "lat": 38.92241333333333, "is_reserved": 0, "is_disabled": 0, "rental_uris": {"android": "https://dc.lft.to/lastmile_qr_scan", "ios": "https://dc.lft.to/lastmile_qr_scan"}, "name": "ff59ca7ad17c0f2c5749b00cd864dd38", "type": "electric_scooter"}, {"fusion_lat": 0.0, "bike_id": "72760648d3edd958133ac57ae2971f19", "fusion_lon": 0.0, "lon": -77.005962, "lat": 38.87186033333333, "is_reserved": 0, "is_disabled": 0, "rental_uris": {"android": "https://dc.lft.to/lastmile_qr_scan", "ios": "https://dc.lft.to/lastmile_qr_scan"}, "name": "72760648d3edd958133ac57ae2971f19", "type": "electric_scooter"}, {"fusion_lat": 0.0, "bike_id": "9a9773aa241defc7fa2a633f7fb84513", "fusion_lon": 0.0, "lon": -76.89537716666666, "lat": 38.94554866666667, "is_reserved": 0, "is_disabled": 0, "rental_uris": {"android": "https://dc.lft.to/lastmile_qr_scan", "ios": "https://dc.lft.to/lastmile_qr_scan"}, "name": "9a9773aa241defc7fa2a633f7fb84513", "type": "electric_bike"}, {"fusion_lat": 0.0, "bike_id": "4896571253c44d5e27588b9c84de8204", "fusion_lon": 0.0, "lon": -77.03281916666667, "lat": 38.901501333333336, "is_reserved": 0, "is_disabled": 0, "rental_uris": {"android": "https://dc.lft.to/lastmile_qr_scan", "ios": "https://dc.lft.to/lastmile_qr_scan"}, "name": "4896571253c44d5e27588b9c84de8204", "type": "electric_scooter"}, {"fusion_lat": 0.0, "bike_id": "94eb25f3d9f53c8316768cd1e9aaebe5", "fusion_lon": 0.0, "lon": -77.02560433333333, "lat": 38.9417015, "is_reserved": 0, "is_disabled": 0, "rental_uris": {"android": "https://dc.lft.to/lastmile_qr_scan", "ios": "https://dc.lft.to/lastmile_qr_scan"}, "name": "94eb25f3d9f53c8316768cd1e9aaebe5", "type": "electric_scooter"}, {"fusion_lat": 0.0, "bike_id": "42db2fac4cc064605b979385131ca5eb", "fusion_lon": 0.0, "lon": -77.02570133333333, "lat": 38.9148595, "is_reserved": 0, "is_disabled": 0, "rental_uris": {"android": "https://dc.lft.to/lastmile_qr_scan", "ios": "https://dc.lft.to/lastmile_qr_scan"}, "name": "42db2fac4cc064605b979385131ca5eb", "type": "electric_scooter"}, {"fusion_lat": 0.0, "bike_id": "2d1aee7bc4bd7e0fd7044a0985374560", "fusion_lon": 0.0, "lon": -76.99120783333333, "lat": 38.9013805, "is_reserved": 0, "is_disabled": 0, "rental_uris": {"android": "https://dc.lft.to/lastmile_qr_scan", "ios": "https://dc.lft.to/lastmile_qr_scan"}, "name": "2d1aee7bc4bd7e0fd7044a0985374560", "type": "electric_scooter"}, {"fusion_lat": 0.0, "bike_id": "f5117231b9bcf416d5e0093b41ddf050", "fusion_lon": 0.0, "lon": -77.01937566666666, "lat": 38.902358166666666, "is_reserved": 0, "is_disabled": 0, "rental_uris": {"android": "https://dc.lft.to/lastmile_qr_scan", "ios": "https://dc.lft.to/lastmile_qr_scan"}, "name": "f5117231b9bcf416d5e0093b41ddf050", "type": "electric_scooter"}, {"fusion_lat": 0.0, "bike_id": "da6aaa6ea029f13f01e3d82d2cb06157", "fusion_lon": 0.0, "lon": -76.978069, "lat": 38.906671333333335, "is_reserved": 0, "is_disabled": 0, "rental_uris": {"android": "https://dc.lft.to/lastmile_qr_scan", "ios": "https://dc.lft.to/lastmile_qr_scan"}, "name": "da6aaa6ea029f13f01e3d82d2cb06157", "type": "electric_scooter"}, {"fusion_lat": 0.0, "bike_id": "d5ffcb549eb38c3925ec3adc16e73a82", "fusion_lon": 0.0, "lon": -77.0322605, "lat": 38.90867716666666, "is_reserved": 0, "is_disabled": 0, "rental_uris": {"android": "https://dc.lft.to/lastmile_qr_scan", "ios": "https://dc.lft.to/lastmile_qr_scan"}, "name": "d5ffcb549eb38c3925ec3adc16e73a82", "type": "electric_scooter"}, {"fusion_lat": 0.0, "bike_id": "e2a42d13d8156e2c1492c279b79c3b23", "fusion_lon": 0.0, "lon": -77.0504585, "lat": 38.923825666666666, "is_reserved": 0, "is_disabled": 0, "rental_uris": {"android": "https://dc.lft.to/lastmile_qr_scan", "ios": "https://dc.lft.to/lastmile_qr_scan"}, "name": "e2a42d13d8156e2c1492c279b79c3b23", "type": "electric_scooter"}, {"fusion_lat": 0.0, "bike_id": "41a52aab60ed814da5571057a39b8769", "fusion_lon": 0.0, "lon": -77.03715083333333, "lat": 38.9307215, "is_reserved": 0, "is_disabled": 0, "rental_uris": {"android": "https://dc.lft.to/lastmile_qr_scan", "ios": "https://dc.lft.to/lastmile_qr_scan"}, "name": "41a52aab60ed814da5571057a39b8769", "type": "electric_scooter"}, {"fusion_lat": 0.0, "bike_id": "ace9a36b785e64b8b8f225cc484ea102", "fusion_lon": 0.0, "lon": -77.03186816666667, "lat": 38.91823683333333, "is_reserved": 0, "is_disabled": 0, "rental_uris": {"android": "https://dc.lft.to/lastmile_qr_scan", "ios": "https://dc.lft.to/lastmile_qr_scan"}, "name": "ace9a36b785e64b8b8f225cc484ea102", "type": "electric_scooter"}, {"fusion_lat": 0.0, "bike_id": "0327cd39c7b3f5b50614c25bf16dbd6a", "fusion_lon": 0.0, "lon": -77.07119583333333, "lat": 38.91971383333333, "is_reserved": 0, "is_disabled": 0, "rental_uris": {"android": "https://dc.lft.to/lastmile_qr_scan", "ios": "https://dc.lft.to/lastmile_qr_scan"}, "name": "0327cd39c7b3f5b50614c25bf16dbd6a", "type": "electric_scooter"}, {"fusion_lat": 0.0, "bike_id": "f0254bdbb03e745011f4c447a83c4eb7", "fusion_lon": 0.0, "lon": -77.008854, "lat": 38.9038485, "is_reserved": 0, "is_disabled": 0, "rental_uris": {"android": "https://dc.lft.to/lastmile_qr_scan", "ios": "https://dc.lft.to/lastmile_qr_scan"}, "name": "f0254bdbb03e745011f4c447a83c4eb7", "type": "electric_bike"}, {"fusion_lat": 0.0, "bike_id": "2cee56bed2a9076c68a9bb45973a6c98", "fusion_lon": 0.0, "lon": -77.04675183333333, "lat": 38.89231216666667, "is_reserved": 0, "is_disabled": 0, "rental_uris": {"android": "https://dc.lft.to/lastmile_qr_scan", "ios": "https://dc.lft.to/lastmile_qr_scan"}, "name": "2cee56bed2a9076c68a9bb45973a6c98", "type": "electric_scooter"}, {"fusion_lat": 0.0, "bike_id": "5bfd714d0bc53d317411c3e21a03eb85", "fusion_lon": 0.0, "lon": -77.0366155, "lat": 38.92120883333333, "is_reserved": 0, "is_disabled": 0, "rental_uris": {"android": "https://dc.lft.to/lastmile_qr_scan", "ios": "https://dc.lft.to/lastmile_qr_scan"}, "name": "5bfd714d0bc53d317411c3e21a03eb85", "type": "electric_scooter"}, {"fusion_lat": 0.0, "bike_id": "8b8d41d8445b4c7bdc949b23459d151a", "fusion_lon": 0.0, "lon": -77.02511966666667, "lat": 38.926389, "is_reserved": 0, "is_disabled": 0, "rental_uris": {"android": "https://dc.lft.to/lastmile_qr_scan", "ios": "https://dc.lft.to/lastmile_qr_scan"}, "name": "8b8d41d8445b4c7bdc949b23459d151a", "type": "electric_scooter"},