{"data": {"bikes": [{"is_reserved": 0, "type": "electric_bike", "bike_id": "7bce8175ce1dd18b67cbefacc59f4c97", "lat": 38.888407, "lon": -76.957448, "rental_uris": {"android": "https://dc.lft.to/lastmile_qr_scan", "ios": "https://dc.lft.to/lastmile_qr_scan"}, "is_disabled": 0, "fusion_lat": 0.0, "name": "7bce8175ce1dd18b67cbefacc59f4c97", "fusion_lon": 0.0}, {"is_reserved": 0, "type": "electric_scooter", "bike_id": "62a6cc3565dde348ae89d03830fa9d55", "lat": 38.90169133333333, "lon": -76.9302085, "rental_uris": {"android": "https://dc.lft.to/lastmile_qr_scan", "ios": "https://dc.lft.to/lastmile_qr_scan"}, "is_disabled": 0, "fusion_lat": 0.0, "name": "62a6cc3565dde348ae89d03830fa9d55", "fusion_lon": 0.0}, {"is_reserved": 0, "type": "electric_scooter", "bike_id": "072f48b0ba5fca3eb5c8707f06d83f18", "lat": 38.912651, "lon": -77.03145366666666, "rental_uris": {"android": "https://dc.lft.to/lastmile_qr_scan", "ios": "https://dc.lft.to/lastmile_qr_scan"}, "is_disabled": 0, "fusion_lat": 0.0, "name": "072f48b0ba5fca3eb5c8707f06d83f18", "fusion_lon": 0.0}, {"is_reserved": 0, "type": "electric_scooter", "bike_id": "acfe1915f269a0e118391c506c479733", "lat": 38.89998833333333, "lon": -77.0271905, "rental_uris": {"android": "https://dc.lft.to/lastmile_qr_scan", "ios": "https://dc.lft.to/lastmile_qr_scan"}, "is_disabled": 0, "fusion_lat": 0.0, "name": "acfe1915f269a0e118391c506c479733", "fusion_lon": 0.0}, {"is_reserved": 0, "type": "electric_scooter", "bike_id": "7c88fa4e5e3b7ad9e53da20a521009e6", "lat": 38.92603033333333, "lon": -77.021546, "rental_uris": {"android": "https://dc.lft.to/lastmile_qr_scan", "ios": "https://dc.lft.to/lastmile_qr_scan"}, "is_disabled": 0, "fusion_lat": 0.0, "name": "7c88fa4e5e3b7ad9e53da20a521009e6", "fusion_lon": 0.0}, {"is_reserved": 0, "type": "electric_scooter", "bike_id": "d62d995f779846ade6832ec9888c4b71", "lat": 38.92895716666666, "lon": -77.02551816666667, "rental_uris": {"android": "https://dc.lft.to/lastmile_qr_scan", "ios": "https://dc.lft.to/lastmile_qr_scan"}, "is_disabled": 0, "fusion_lat": 0.0, "name": "d62d995f779846ade6832ec9888c4b71", "fusion_lon": 0.0}, {"is_reserved": 0, "type": "electric_scooter", "bike_id": "5694b0240bacb35385c9bb9fa9bd4bea", "lat": 38.897110833333336, "lon": -77.05352166666667, "rental_uris": {"android": "https://dc.lft.to/lastmile_qr_scan", "ios": "https://dc.lft.to/lastmile_qr_scan"}, "is_disabled": 0, "fusion_lat": 0.0, "name": "5694b0240bacb35385c9bb9fa9bd4bea", "fusion_lon": 0.0}, {"is_reserved": 0, "type": "electric_scooter", "bike_id": "928339e7ae722c0ba6fa7c1add3688c6", "lat": 38.946506166666666, "lon": -77.06555266666666, "rental_uris": {"android": "https://dc.lft.to/lastmile_qr_scan", "ios": "https://dc.lft.to/lastmile_qr_scan"}, "is_disabled": 0, "fusion_lat": 0.0, "name": "928339e7ae722c0ba6fa7c1add3688c6", "fusion_lon": 0.0}, {"is_reserved": 0, "type": "electric_scooter", "bike_id": "f3b918a36d6a08dbcf64cb0efb6393d7", "lat": 38.9176115, "lon": -77.027054, "rental_uris": {"android": "https://dc.lft.to/lastmile_qr_scan", "ios": "https://dc.lft.to/lastmile_qr_scan"}, "is_disabled": 0, "fusion_lat": 0.0, "name": "f3b918a36d6a08dbcf64cb0efb6393d7", "fusion_lon": 0.0}, {"is_reserved": 0, "type": "electric_bike", "bike_id": "0abcdde769b8619afade0749b67f64a4", "lat": 38.8073455, "lon": -76.992534, "rental_uris": {"android": "https://dc.lft.to/lastmile_qr_scan", "ios": "https://dc.lft.to/lastmile_qr_scan"}, "is_disabled": 0, "fusion_lat": 0.0, "name": "0abcdde769b8619afade0749b67f64a4", "fusion_lon": 0.0}, {"is_reserved": 0, "type": "electric_scooter", "bike_id": "1374bcd7385772f3552d27d4f3eb8694", "lat": 38.944176, "lon": -77.06320983333333, "rental_uris": {"android": "https://dc.lft.to/lastmile_qr_scan", "ios": "https://dc.lft.to/lastmile_qr_scan"}, "is_disabled": 0, "fusion_lat": 0.0, "name": "1374bcd7385772f3552d27d4f3eb8694", "fusion_lon": 0.0}, {"is_reserved": 0, "type": "electric_scooter", "bike_id": "532c34be8923acd0b913f9b80bc822ba", "lat": 38.919208, "lon": -77.04808733333333, "rental_uris": {"android": "https://dc.lft.to/lastmile_qr_scan", "ios": "https://dc.lft.to/lastmile_qr_scan"}, "is_disabled": 0, "fusion_lat": 0.0, "name": "532c34be8923acd0b913f9b80bc822ba", "fusion_lon": 0.0}, {"is_reserved": 0, "type": "electric_scooter", "bike_id": "7ae1e7f5da486ed7e1aca614fdfb8025", "lat": 38.9056245, "lon": -77.00587583333333, "rental_uris": {"android": "https://dc.lft.to/lastmile_qr_scan", "ios": "https://dc.lft.to/lastmile_qr_scan"}, "is_disabled": 0, "fusion_lat": 0.0, "name": "7ae1e7f5da486ed7e1aca614fdfb8025", "fusion_lon": 0.0}, {"is_reserved": 0, "type": "electric_scooter", "bike_id": "8fbd4bd1413a509f2d190a0737837166", "lat": 38.91679233333333, "lon": -77.0239625, "rental_uris": {"android": "https://dc.lft.to/lastmile_qr_scan", "ios": "https://dc.lft.to/lastmile_qr_scan"}, "is_disabled": 0, "fusion_lat": 0.0, "name": "8fbd4bd1413a509f2d190a0737837166", "fusion_lon": 0.0}, {"is_reserved": 0, "type": "electric_scooter", "bike_id": "daf447492a860c832b4d920a7122e5c5", "lat": 38.853250833333334, "lon": -76.98010383333333, "rental_uris": {"android": "https://dc.lft.to/lastmile_qr_scan", "ios": "https://dc.lft.to/lastmile_qr_scan"}, "is_disabled": 0, "fusion_lat": 0.0, "name": "daf447492a860c832b4d920a7122e5c5", "fusion_lon": 0.0}, {"is_reserved": 0, "type": "electric_scooter", "bike_id": "cc11a696f20f7b87166951b58088fea6", "lat": 38.937193, "lon": -77.03262266666667, "rental_uris": {"android": "https://dc.lft.to/lastmile_qr_scan", "ios": "https://dc.lft.to/lastmile_qr_scan"}, "is_disabled": 0, "fusion_lat": 0.0, "name": "cc11a696f20f7b87166951b58088fea6", "fusion_lon": 0.0}, {"is_reserved": 0, "type": "electric_scooter", "bike_id": "352fbbbd0d06776882bd2add294947a2", "lat": 38.93223833333333, "lon": -77.02820616666666, "rental_uris": {"android": "https://dc.lft.to/lastmile_qr_scan", "ios": "https://dc.lft.to/lastmile_qr_scan"}, "is_disabled": 0, "fusion_lat": 0.0, "name": "352fbbbd0d06776882bd2add294947a2", "fusion_lon": 0.0}, {"is_reserved": 0, "type": "electric_bike", "bike_id": "edfe63bbed2b6e02de64ec8776f6cd4c", "lat": 38.89129716666667, "lon": -77.18289783333333, "rental_uris": {"android": "https://dc.lft.to/lastmile_qr_scan", "ios": "https://dc.lft.to/lastmile_qr_scan"}, "is_disabled": 0, "fusion_lat": 0.0, "name": "edfe63bbed2b6e02de64ec8776f6cd4c", "fusion_lon": 0.0}, {"is_reserved": 0, "type": "electric_scooter", "bike_id": "cbbb1af68918b3d75962574559ed1897", "lat": 38.9026345, "lon": -77.00329433333333, "rental_uris": {"android": "https://dc.lft.to/lastmile_qr_scan", "ios": "https://dc.lft.to/lastmile_qr_scan"}, "is_disabled": 0, "fusion_lat": 0.0, "name": "cbbb1af68918b3d75962574559ed1897", "fusion_lon": 0.0}, {"is_reserved": 0, "type": "electric_scooter", "bike_id": "4b613485d36d592b1fd56b8769305402", "lat": 38.91807816666667, "lon": -77.0329385, "rental_uris": {"android": "https://dc.lft.to/lastmile_qr_scan", "ios": "https://dc.lft.to/lastmile_qr_scan"}, "is_disabled": 0, "fusion_lat": 0.0, "name": "4b613485d36d592b1fd56b8769305402", "fusion_lon": 0.0}, {"is_reserved": 0, "type": "electric_scooter", "bike_id": "d089455b7d9f77e55f1c3c804dcf408a", "lat": 38.92045183333333, "lon": -77.04203533333333, "rental_uris": {"android": "https://dc.lft.to/lastmile_qr_scan", "ios": "https://dc.lft.to/lastmile_qr_scan"}, "is_disabled": 0, "fusion_lat": 0.0, "name": "d089455b7d9f77e55f1c3c804dcf408a", "fusion_lon": 0.0}, {"is_reserved": 0, "type": "electric_scooter", "bike_id": "547a171cbf272c2ee7e31343736923a2", "lat": 38.920392166666666, "lon": -77.04819683333334, "rental_uris": {"android": "https://dc.lft.to/lastmile_qr_scan", "ios": "https://dc.lft.to/lastmile_qr_scan"}, "is_disabled": 0, "fusion_lat": 0.0, "name": "547a171cbf272c2ee7e31343736923a2", "fusion_lon": 0.0}, {"is_reserved": 0, "type": "electric_scooter", "bike_id": "30c1f489113647ad2da0035f8a2ed620", "lat": 38.91421533333333, "lon": -77.0318375, "rental_uris": {"android": "https://dc.lft.to/lastmile_qr_scan", "ios": "https://dc.lft.to/lastmile_qr_scan"}, "is_disabled": 0, "fusion_lat": 0.0, "name": "30c1f489113647ad2da0035f8a2ed620", "fusion_lon": 0.0}, {"is_reserved": 0, "type": "electric_scooter", "bike_id": "65afd4229c9b25d977fda492cd2b86f9", "lat": 38.909728666666666, "lon": -77.04520683333334, "rental_uris": {"android": "https://dc.lft.to/lastmile_qr_scan", "ios": "https://dc.lft.to/lastmile_qr_scan"}, "is_disabled": 0, "fusion_lat": 0.0, "name": "65afd4229c9b25d977fda492cd2b86f9", "fusion_lon": 0.0}, {"is_reserved": 0, "type": "electric_bike", "bike_id": "91b24aa4e1bf26558a8478dc57252c98", "lat": 39.010916, "lon": -77.04951216666667, "rental_uris": {"android": "https://dc.lft.to/lastmile_qr_scan", "ios": "https://dc.lft.to/lastmile_qr_scan"}, "is_disabled": 0, "fusion_lat": 0.0, "name": "91b24aa4e1bf26558a8478dc57252c98", "fusion_lon": 0.0}, {"is_reserved": 0, "type": "electric_scooter", "bike_id": "86f0a3d40de1e8f58d214606a9804604", "lat": 38.919890333333335, "lon": -76.9730295, "rental_uris": {"android": "https://dc.lft.to/lastmile_qr_scan", "ios": "https://dc.lft.to/lastmile_qr_scan"}, "is_disabled": 0, "fusion_lat": 0.0, "name": "86f0a3d40de1e8f58d214606a9804604", "fusion_lon": 0.0}, {"is_reserved": 0, "type": "electric_bike", "bike_id": "7c0bf8734280c5ab29f8d61357cbd9f3", "lat": 38.86329666666666, "lon": -76.98726183333333, "rental_uris": {"android": "https://dc.lft.to/lastmile_qr_scan", "ios": "https://dc.lft.to/lastmile_qr_scan"}, "is_disabled": 0, "fusion_lat": 0.0, "name": "7c0bf8734280c5ab29f8d61357cbd9f3", "fusion_lon": 0.0}, {"is_reserved": 0, "type": "electric_scooter", "bike_id": "82c8af22654dd6bd1491225988249a0f", "lat": 38.92602466666666, "lon": -77.03746466666666, "rental_uris": {"android": "https://dc.lft.to/lastmile_qr_scan", "ios": "https://dc.lft.to/lastmile_qr_scan"}, "is_disabled": 0, "fusion_lat": 0.0, "name": "82c8af22654dd6bd1491225988249a0f", "fusion_lon": 0.0}, {"is_reserved": 0, "type": "electric_bike", "bike_id": "0b9b848e0b7209a58c22f6dae358a512", "lat": 39.00003316666667, "lon": -76.91801433333333, "rental_uris": {"android": "https://dc.lft.to/lastmile_qr_scan", "ios": "https://dc.lft.to/lastmile_qr_scan"}, "is_disabled": 0, "fusion_lat": 0.0, "name": "0b9b848e0b7209a58c22f6dae358a512", "fusion_lon": 0.0}, {"is_reserved": 0, "type": "electric_scooter", "bike_id": "c099af5c39ac36c64d92e57add8eb495", "lat": 38.91761983333333, "lon": -77.00363116666666, "rental_uris": {"android": "https://dc.lft.to/lastmile_qr_scan", "ios": "https://dc.lft.to/lastmile_qr_scan"}, "is_disabled": 0, "fusion_lat": 0.0, "name": "c099af5c39ac36c64d92e57add8eb495", "fusion_lon": 0.0}, {"is_reserved": 0, "type": "electric_scooter", "bike_id": "1dc54aba9b79b8bd94ede5f8cf5b0563", "lat": 38.9182165, "lon": -77.01211683333334, "rental_uris": {"android": "https://dc.lft.to/lastmile_qr_scan", "ios": "https://dc.lft.to/lastmile_qr_scan"}, "is_disabled": 0, "fusion_lat": 0.0, "name": "1dc54aba9b79b8bd94ede5f8cf5b0563", "fusion_lon": 0.0}, {"is_reserved": 0, "type": "electric_scooter", "bike_id": "36caacae34ea1520104d3e3bc8ecd6cf", "lat": 38.90014983333333, "lon": -76.99165083333334, "rental_uris": {"android": "https://dc.lft.to/lastmile_qr_scan", "ios": "https://dc.lft.to/lastmile_qr_scan"}, "is_disabled": 0, "fusion_lat": 0.0, "name": "36caacae34ea1520104d3e3bc8ecd6cf", "fusion_lon": 0.0}, {"is_reserved": 0, "type": "electric_scooter", "bike_id": "9a29018f423a6237d0d173fac4f9df99", "lat": 38.918816, "lon": -77.04172166666666, "rental_uris": {"android": "https://dc.lft.to/lastmile_qr_scan", "ios": "https://dc.lft.to/lastmile_qr_scan"}, "is_disabled": 0, "fusion_lat": 0.0, "name": "9a29018f423a6237d0d173fac4f9df99", "fusion_lon": 0.0}, {"is_reserved": 0, "type": "electric_scooter", "bike_id": "554bdc4aff2e087f8803d1405163c954", "lat": 38.910478, "lon": -77.03326716666666, "rental_uris": {"android": "https://dc.lft.to/lastmile_qr_scan", "ios": "https://dc.lft.to/lastmile_qr_scan"}, "is_disabled": 0, "fusion_lat": 0.0, "name": "554bdc4aff2e087f8803d1405163c954", "fusion_lon": 0.0}, {"is_reserved": 0, "type": "electric_scooter", "bike_id": "a2a891ad5c03585080588395cb6c9761", "lat": 38.913648, "lon": -77.06563766666666, "rental_uris": {"android": "https://dc.lft.to/lastmile_qr_scan", "ios": "https://dc.lft.to/lastmile_qr_scan"}, "is_disabled": 0, "fusion_lat": 0.0, "name": "a2a891ad5c03585080588395cb6c9761", "fusion_lon": 0.0}, {"is_reserved": 0, "type": "electric_bike", "bike_id": "bc33767409d3a6ee3558c40e38b646b0", "lat": 38.97339483333333, "lon": -76.99585833333333, "rental_uris": {"android": "https://dc.lft.to/lastmile_qr_scan", "ios": "https://dc.lft.to/lastmile_qr_scan"}, "is_disabled": 0, "fusion_lat": 0.0, "name": "bc33767409d3a6ee3558c40e38b646b0", "fusion_lon": 0.0}, {"is_reserved": 0, "type": "electric_bike", "bike_id": "c75b9a8409c4793f50ee003ad247fd89", "lat": 38.9355205, "lon": -77.0214555, "rental_uris": {"android": "https://dc.lft.to/lastmile_qr_scan", "ios": "https://dc.lft.to/lastmile_qr_scan"}, "is_disabled": 0, "fusion_lat": 0.0, "name": "c75b9a8409c4793f50ee003ad247fd89", "fusion_lon": 0.0}, {"is_reserved": 0, "type": "electric_bike", "bike_id": "23fd4f577842b30e172d0a4617d974ae", "lat": 39.042331, "lon": -76.99734933333333, "rental_uris": {"android": "https://dc.lft.to/lastmile_qr_scan", "ios": "https://dc.lft.to/lastmile_qr_scan"}, "is_disabled": 0, "fusion_lat": 0.0, "name": "23fd4f577842b30e172d0a4617d974ae", "fusion_lon": 0.0}, {"is_reserved": 0, "type": "electric_scooter", "bike_id": "5e18795f3c69f8230cfb55c8e80b5108", "lat": 38.952185666666665, "lon": -77.01598533333333, "rental_uris": {"android": "https://dc.lft.to/lastmile_qr_scan", "ios": "https://dc.lft.to/lastmile_qr_scan"}, "is_disabled": 0, "fusion_lat": 0.0, "name": "5e18795f3c69f8230cfb55c8e80b5108", "fusion_lon": 0.0}, {"is_reserved": 0, "type": "electric_scooter", "bike_id": "91f3c987d5c21c23c0d9c1b877ab2310", "lat": 38.92789366666667, "lon": -77.02566216666666, "rental_uris": {"android": "https://dc.lft.to/lastmile_qr_scan", "ios": "https://dc.lft.to/lastmile_qr_scan"}, "is_disabled": 0, "fusion_lat": 0.0, "name": "91f3c987d5c21c23c0d9c1b877ab2310", "fusion_lon": 0.0}, {"is_reserved": 0, "type": "electric_scooter", "bike_id": "e9b7150369399fe837cc5847455a8964", "lat": 38.901279333333335, "lon": -77.02787066666667, "rental_uris": {"android": "https://dc.lft.to/lastmile_qr_scan", "ios": "https://dc.lft.to/lastmile_qr_scan"}, "is_disabled": 0, "fusion_lat": 0.0, "name": "e9b7150369399fe837cc5847455a8964", "fusion_lon": 0.0}, {"is_reserved": 0, "type": "electric_scooter", "bike_id": "62bd4476336a7132cea90d14ef89e73d", "lat": 38.90500083333333, "lon": -77.01991166666667, "rental_uris": {"android": "https://dc.lft.to/lastmile_qr_scan", "ios": "https://dc.lft.to/lastmile_qr_scan"}, "is_disabled": 0, "fusion_lat": 0.0, "name": "62bd4476336a7132cea90d14ef89e73d", "fusion_lon": 0.0}, {"is_reserved": 0, "type": "electric_scooter", "bike_id": "13eff560d66524fb27904d87c09628db", "lat": 38.887505, "lon": -77.0153465, "rental_uris": {"android": "https://dc.lft.to/lastmile_qr_scan", "ios": "https://dc.lft.to/lastmile_qr_scan"}, "is_disabled": 0, "fusion_lat": 0.0, "name": "13eff560d66524fb27904d87c09628db", "fusion_lon": 0.0}, {"is_reserved": 0, "type": "electric_scooter", "bike_id": "00c486a4a75a3121e123637c4cbb7e3a", "lat": 38.890141666666665, "lon": -76.93741166666666, "rental_uris": {"android": "https://dc.lft.to/lastmile_qr_scan", "ios": "https://dc.lft.to/lastmile_qr_scan"}, "is_disabled": 0, "fusion_lat": 0.0, "name": "00c486a4a75a3121e123637c4cbb7e3a", "fusion_lon": 0.0}, {"is_reserved": 0, "type": "electric_scooter", "bike_id": "4bd1f1729f3d17a611514ef619b13e8c", "lat": 38.897313833333335, "lon": -77.019572, "rental_uris": {"android": "https://dc.lft.to/lastmile_qr_scan", "ios": "https://dc.lft.to/lastmile_qr_scan"}, "is_disabled": 0, "fusion_lat": 0.0, "name": "4bd1f1729f3d17a611514ef619b13e8c", "fusion_lon": 0.0}, {"is_reserved": 0, "type": "electric_scooter", "bike_id": "276cd6939dccd263c2e52c34d5ce9374", "lat": 38.8962405, "lon": -77.04493866666667, "rental_uris": {"android": "https://dc.lft.to/lastmile_qr_scan", "ios": "https://dc.lft.to/lastmile_qr_scan"}, "is_disabled": 0, "fusion_lat": 0.0, "name": "276cd6939dccd263c2e52c34d5ce9374", "fusion_lon": 0.0}, {"is_reserved": 0, "type": "electric_scooter", "bike_id": "ac69d77ee8570916f596dc3c263a818b", "lat": 38.89827366666667, "lon": -77.03246233333333, "rental_uris": {"android": "https://dc.lft.to/lastmile_qr_scan", "ios": "https://dc.lft.to/lastmile_qr_scan"}, "is_disabled": 0, "fusion_lat": 0.0, "name": "ac69d77ee8570916f596dc3c263a818b", "fusion_lon": 0.0}, {"is_reserved": 0, "type": "electric_scooter", "bike_id": "97c55eaf70f0dbad36132bc7b2b29ca4", "lat": 38.88637133333334, "lon": -77.01287483333333, "rental_uris": {"android": "https://dc.lft.to/lastmile_qr_scan", "ios": "https://dc.lft.to/lastmile_qr_scan"}, "is_disabled": 0, "fusion_lat": 0.0, "name": "97c55eaf70f0dbad36132bc7b2b29ca4", "fusion_lon": 0.0}, {"is_reserved": 0, "type": "electric_scooter", "bike_id": "65d9590461b8df8a67c62d0877813ad0", "lat": 38.885087666666664, "lon": -77.02093383333333, "rental_uris": {"android": "https://dc.lft.to/lastmile_qr_scan", "ios": "https://dc.lft.to/lastmile_qr_scan"}, "is_disabled": 0, "fusion_lat": 0.0, "name": "65d9590461b8df8a67c62d0877813ad0", "fusion_lon": 0.0}, {"is_reserved": 0, "type": "electric_scooter", "bike_id": "486d1d8abb26be162f68e307579268a9", "lat": 38.901455166666665, "lon": -77.04162233333334, "rental_uris": {"android": "https://dc.lft.to/lastmile_qr_scan", "ios": "https://dc.lft.to/lastmile_qr_scan"}, "is_disabled": 0, "fusion_lat": 0.0, "name": "486d1d8abb26be162f68e307579268a9", "fusion_lon": 0.0}, {"is_reserved": 0, "type": "electric_scooter", "bike_id": "ad9a67c695024b110904763c3aff14be", "lat": 38.92423266666667, "lon": -77.019466, "rental_uris": {"android": "https://dc.lft.to/lastmile_qr_scan", "ios": "https://dc.lft.to/lastmile_qr_scan"}, "is_disabled": 0, "fusion_lat": 0.0, "name": "ad9a67c695024b110904763c3aff14be", "fusion_lon": 0.0}, {"is_reserved": 0, "type": "electric_scooter", "bike_id": "7474a343c1537a143cfed5df5926cfa8", "lat": 38.900321166666664, "lon": -77.01201116666667, "rental_uris": {"android": "https://dc.lft.to/lastmile_qr_scan", "ios": "https://dc.lft.to/lastmile_qr_scan"}, "is_disabled": 0, "fusion_lat": 0.0, "name": "7474a343c1537a143cfed5df5926cfa8", "fusion_lon": 0.0}, {"is_reserved": 0, "type": "electric_scooter", "bike_id": "59d8140d9f813b4a318d05fbfb9195ae", "lat": 38.901173, "lon": -77.02723216666666, "rental_uris": {"android": "https://dc.lft.to/lastmile_qr_scan", "ios": "https://dc.lft.to/lastmile_qr_scan"}, "is_disabled": 0, "fusion_lat": 0.0, "name": "59d8140d9f813b4a318d05fbfb9195ae", "fusion_lon": 0.0}, {"is_reserved": 0, "type": "electric_scooter", "bike_id": "668ea326d5da00fdb2b1badc185a2150", "lat": 38.89362783333333, "lon": -77.01944516666667, "rental_uris": {"android": "https://dc.lft.to/lastmile_qr_scan", "ios": "https://dc.lft.to/lastmile_qr_scan"}, "is_disabled": 0, "fusion_lat": 0.0, "name": "668ea326d5da00fdb2b1badc185a2150", "fusion_lon": 0.0}, {"is_reserved": 0, "type": "electric_scooter", "bike_id": "7739c05f527d6c180c28ca03431ac3b4", "lat": 38.8922195, "lon": -77.02796516666666, "rental_uris": {"android": "https://dc.lft.to/lastmile_qr_scan", "ios": "https://dc.lft.to/lastmile_qr_scan"}, "is_disabled": 0, "fusion_lat": 0.0, "name": "7739c05f527d6c180c28ca03431ac3b4", "fusion_lon": 0.0}, {"is_reserved": 0, "type": "electric_scooter", "bike_id": "56763d464643c0e52d6ae470d87debca", "lat": 38.908707666666665, "lon": -77.021813, "rental_uris": {"android": "https://dc.lft.to/lastmile_qr_scan", "ios": "https://dc.lft.to/lastmile_qr_scan"}, "is_disabled": 0, "fusion_lat": 0.0, "name": "56763d464643c0e52d6ae470d87debca", "fusion_lon": 0.0}, {"is_reserved": 0, "type": "electric_scooter", "bike_id": "531649d9c258400fe7a78cb8d5c13075", "lat": 38.925073833333336, "lon": -77.05222633333334, "rental_uris": {"android": "https://dc.lft.to/lastmile_qr_scan", "ios": "https://dc.lft.to/lastmile_qr_scan"}, "is_disabled": 0, "fusion_lat": 0.0, "name": "531649d9c258400fe7a78cb8d5c13075", "fusion_lon": 0.0}, {"is_reserved": 0, "type": "electric_scooter", "bike_id": "1e9401be4c3c900d357130ad4d3bff4a", "lat": 38.929711833333336, "lon": -77.02345183333334, "rental_uris": {"android": "https://dc.lft.to/lastmile_qr_scan", "ios": "https://dc.lft.to/lastmile_qr_scan"}, "is_disabled": 0, "fusion_lat": 0.0, "name": "1e9401be4c3c900d357130ad4d3bff4a", "fusion_lon": 0.0}, {"is_reserved": 0, "type": "electric_scooter", "bike_id": "5dc524766b5fc231869d6232270fd68d", "lat": 38.94730283333333, "lon": -77.02462066666666, "rental_uris": {"android": "https://dc.lft.to/lastmile_qr_scan", "ios": "https://dc.lft.to/lastmile_qr_scan"}, "is_disabled": 0, "fusion_lat": 0.0, "name": "5dc524766b5fc231869d6232270fd68d", "fusion_lon": 0.0}, {"is_reserved": 0, "type": "electric_scooter", "bike_id": "63c525084099dffb792371d62693ed4e", "lat": 38.925671, "lon": -76.9700445, "rental_uris": {"android": "https://dc.lft.to/lastmile_qr_scan", "ios": "https://dc.lft.to/lastmile_qr_scan"}, "is_disabled": 0, "fusion_lat": 0.0, "name": "63c525084099dffb792371d62693ed4e", "fusion_lon": 0.0}, {"is_reserved": 0, "type": "electric_scooter", "bike_id": "3baec4fb784b5fdcdd722bd866e60c26", "lat": 38.90041033333333, "lon": -77.02378533333334, "rental_uris": {"android": "https://dc.lft.to/lastmile_qr_scan", "ios": "https://dc.lft.to/lastmile_qr_scan"}, "is_disabled": 0, "fusion_lat": 0.0, "name": "3baec4fb784b5fdcdd722bd866e60c26", "fusion_lon": 0.0}, {"is_reserved": 0, "type": "electric_scooter", "bike_id": "e6b8074f4f76c42c1c26077ca79b501d", "lat": 38.88408233333333, "lon": -77.0304975, "rental_uris": {"android": "https://dc.lft.to/lastmile_qr_scan", "ios": "https://dc.lft.to/lastmile_qr_scan"}, "is_disabled": 0, "fusion_lat": 0.0, "name": "e6b8074f4f76c42c1c26077ca79b501d", "fusion_lon": 0.0}, {"is_reserved": 0, "type": "electric_scooter", "bike_id": "b1f35b524c3a4661076c7557660bee1c", "lat": 38.908179833333335, "lon": -77.03957316666667, "rental_uris": {"android": "https://dc.lft.to/lastmile_qr_scan", "ios": "https://dc.lft.to/lastmile_qr_scan"}, "is_disabled": 0, "fusion_lat": 0.0, "name": "b1f35b524c3a4661076c7557660bee1c", "fusion_lon": 0.0}, {"is_reserved": 0, "type": "electric_scooter", "bike_id": "4178a6df4d7655165105447974b7990b", "lat": 38.897636166666665, "lon": -77.03358633333333, "rental_uris": {"android": "https://dc.lft.to/lastmile_qr_scan", "ios": "https://dc.lft.to/lastmile_qr_scan"}, "is_disabled": 0, "fusion_lat": 0.0, "name": "4178a6df4d7655165105447974b7990b", "fusion_lon": 0.0}, {"is_reserved": 0, "type": "electric_scooter", "bike_id": "722d10c8c1d063be877b56b24478662f", "lat": 38.92952783333333, "lon": -77.00412316666667, "rental_uris": {"android": "https://dc.lft.to/lastmile_qr_scan", "ios": "https://dc.lft.to/lastmile_qr_scan"}, "is_disabled": 0, "fusion_lat": 0.0, "name": "722d10c8c1d063be877b56b24478662f", "fusion_lon": 0.0}, {"is_reserved": 0, "type": "electric_scooter", "bike_id": "c8ec134c6bc3d218639b021f367d6cf6", "lat": 38.90947766666667, "lon": -77.06440633333334, "rental_uris": {"android": "https://dc.lft.to/lastmile_qr_scan", "ios": "https://dc.lft.to/lastmile_qr_scan"}, "is_disabled": 0, "fusion_lat": 0.0, "name": "c8ec134c6bc3d218639b021f367d6cf6", "fusion_lon": 0.0}, {"is_reserved": 0, "type": "electric_scooter", "bike_id": "dc91bf2ed62e4be32edfc491c8971880", "lat": 38.928256833333336, "lon": -77.02258733333333, "rental_uris": {"android": "https://dc.lft.to/lastmile_qr_scan", "ios": "https://dc.lft.to/lastmile_qr_scan"}, "is_disabled": 0, "fusion_lat": 0.0, "name": "dc91bf2ed62e4be32edfc491c8971880", "fusion_lon": 0.0}, {"is_reserved": 0, "type": "electric_scooter", "bike_id": "ef3ac7382b0bb694e897936fb828b59a", "lat": 38.904175333333335, "lon": -77.02503966666667, "rental_uris": {"android": "https://dc.lft.to/lastmile_qr_scan", "ios": "https://dc.lft.to/lastmile_qr_scan"}, "is_disabled": 0, "fusion_lat": 0.0, "name": "ef3ac7382b0bb694e897936fb828b59a", "fusion_lon": 0.0}, {"is_reserved": 0, "type": "electric_scooter", "bike_id": "759c70a94f03a350d47af487128a277c", "lat": 38.93205916666667, "lon": -77.03740066666667, "rental_uris": {"android": "https://dc.lft.to/lastmile_qr_scan", "ios": "https://dc.lft.to/lastmile_qr_scan"}, "is_disabled": 0, "fusion_lat": 0.0, "name": "759c70a94f03a350d47af487128a277c", "fusion_lon": 0.0}, {"is_reserved": 0, "type": "electric_scooter", "bike_id": "014f614b38f0efaa44f00111cbe42258", "lat": 38.927095, "lon": -77.04046633333333, "rental_uris": {"android": "https://dc.lft.to/lastmile_qr_scan", "ios": "https://dc.lft.to/lastmile_qr_scan"}, "is_disabled": 0, "fusion_lat": 0.0, "name": "014f614b38f0efaa44f00111cbe42258", "fusion_lon": 0.0}, {"is_reserved": 0, "type": "electric_bike", "bike_id": "9ce7af06f9dffa6257582d08f3b6dcc1", "lat": 38.974257, "lon": -77.01258033333333, "rental_uris": {"android": "https://dc.lft.to/lastmile_qr_scan", "ios": "https://dc.lft.to/lastmile_qr_scan"}, "is_disabled": 0, "fusion_lat": 0.0, "name": "9ce7af06f9dffa6257582d08f3b6dcc1", "fusion_lon": 0.0}, {"is_reserved": 0, "type": "electric_scooter", "bike_id": "9f8c36e65698821f14d96d987da81fa3", "lat": 38.900799166666665, "lon": -77.04761266666667, "rental_uris": {"android": "https://dc.lft.to/lastmile_qr_scan", "ios": "https://dc.lft.to/lastmile_qr_scan"}, "is_disabled": 0, "fusion_lat": 0.0, "name": "9f8c36e65698821f14d96d987da81fa3", "fusion_lon": 0.0}, {"is_reserved": 0, "type": "electric_scooter", "bike_id": "49812b6271c26807a6ce5cae7c7569f0", "lat": 38.9253945, "lon": -77.02979466666666, "rental_uris": {"android": "https://dc.lft.to/lastmile_qr_scan", "ios": "https://dc.lft.to/lastmile_qr_scan"}, "is_disabled": 0, "fusion_lat": 0.0, "name": "49812b6271c26807a6ce5cae7c7569f0", "fusion_lon": 0.0}, {"is_reserved": 0, "type": "electric_scooter", "bike_id": "a74cd2345982ef7c8da068a0c9b03f58", "lat": 38.89734333333333, "lon": -77.003735, "rental_uris": {"android": "https://dc.lft.to/lastmile_qr_scan", "ios": "https://dc.lft.to/lastmile_qr_scan"}, "is_disabled": 0, "fusion_lat": 0.0, "name": "a74cd2345982ef7c8da068a0c9b03f58", "fusion_lon": 0.0}, {"is_reserved": 0, "type": "electric_bike", "bike_id": "2d775c010c9ee433851838734a0f84a2", "lat": 38.911226166666665, "lon": -77.00244333333333, "rental_uris": {"android": "https://dc.lft.to/lastmile_qr_scan", "ios": "https://dc.lft.to/lastmile_qr_scan"}, "is_disabled": 0, "fusion_lat": 0.0, "name": "2d775c010c9ee433851838734a0f84a2", "fusion_lon": 0.0}, {"is_reserved": 0, "type": "electric_scooter", "bike_id": "067e8622d350d988e43405cdfa49ea76", "lat": 38.915629333333335, "lon": -77.021168, "rental_uris": {"android": "https://dc.lft.to/lastmile_qr_scan", "ios": "https://dc.lft.to/lastmile_qr_scan"}, "is_disabled": 0, "fusion_lat": 0.0, "name": "067e8622d350d988e43405cdfa49ea76", "fusion_lon": 0.0}, {"is_reserved": 0, "type": "electric_scooter", "bike_id": "93240c714ce5852825b1717dbd86b12c", "lat": 38.9127075, "lon": -77.00155966666667, "rental_uris": {"android": "https://dc.lft.to/lastmile_qr_scan", "ios": "https://dc.lft.to/lastmile_qr_scan"}, "is_disabled": 0, "fusion_lat": 0.0, "name": "93240c714ce5852825b1717dbd86b12c", "fusion_lon": 0.0}, {"is_reserved": 0, "type": "electric_scooter", "bike_id": "95cfd423b6373ade01e4d6b84454d489", "lat": 38.89140833333333, "lon": -76.999402, "rental_uris": {"android": "https://dc.lft.to/lastmile_qr_scan", "ios": "https://dc.lft.to/lastmile_qr_scan"}, "is_disabled": 0, "fusion_lat": 0.0, "name": "95cfd423b6373ade01e4d6b84454d489", "fusion_lon": 0.0}, {"is_reserved": 0, "type": "electric_bike", "bike_id": "893c6eda332afae31f1f42b8ea009cb4", "lat": 38.9405065, "lon": -77.05511733333333, "rental_uris": {"android": "https://dc.lft.to/lastmile_qr_scan", "ios": "https://dc.lft.to/lastmile_qr_scan"}, "is_disabled": 0, "fusion_lat": 0.0, "name": "893c6eda332afae31f1f42b8ea009cb4", "fusion_lon": 0.0}, {"is_reserved": 0, "type": "electric_bike", "bike_id": "dbe86ed5cf8c946ff6b08b1818826fc9", "lat": 38.89931633333333, "lon": -77.00154766666667, "rental_uris": {"android": "https://dc.lft.to/lastmile_qr_scan", "ios": "https://dc.lft.to/lastmile_qr_scan"}, "is_disabled": 0, "fusion_lat": 0.0, "name": "dbe86ed5cf8c946ff6b08b1818826fc9", "fusion_lon": 0.0}, {"is_reserved": 0, "type": "electric_bike", "bike_id": "db148fa0a134f5c2008260196eacf854", "lat": 38.9156995, "lon": -77.03177666666667, "rental_uris": {"android": "https://dc.lft.to/lastmile_qr_scan", "ios": "https://dc.lft.to/lastmile_qr_scan"}, "is_disabled": 0, "fusion_lat": 0.0, "name": "db148fa0a134f5c2008260196eacf854", "fusion_lon": 0.0}, {"is_reserved": 0, "type": "electric_scooter", "bike_id": "5127b984b4f00bb0e52c49d492aa876b", "lat": 38.872966166666664, "lon": -77.00227, "rental_uris": {"android": "https://dc.lft.to/lastmile_qr_scan", "ios": "https://dc.lft.to/lastmile_qr_scan"}, "is_disabled": 0, "fusion_lat": 0.0, "name": "5127b984b4f00bb0e52c49d492aa876b", "fusion_lon": 0.0}, {"is_reserved": 0, "type": "electric_scooter", "bike_id": "eeae17c72227e69ff42f8f9c12c58faa", "lat": 38.92794416666667, "lon": -77.02536083333334, "rental_uris": {"android": "https://dc.lft.to/lastmile_qr_scan", "ios": "https://dc.lft.to/lastmile_qr_scan"}, "is_disabled": 0, "fusion_lat": 0.0, "name": "eeae17c72227e69ff42f8f9c12c58faa", "fusion_lon": 0.0}, {"is_reserved": 0, "type": "electric_scooter", "bike_id": "43fb0a5d7b5c0b59421cb98d9498610c", "lat": 38.92046766666667, "lon": -77.04199133333333, "rental_uris": {"android": "https://dc.lft.to/lastmile_qr_scan", "ios": "https://dc.lft.to/lastmile_qr_scan"}, "is_disabled": 0, "fusion_lat": 0.0, "name": "43fb0a5d7b5c0b59421cb98d9498610c", "fusion_lon": 0.0}, {"is_reserved": 0, "type": "electric_scooter", "bike_id": "200e02a88e066916138bd1db99e0f383", "lat": 38.94942316666667, "lon": -77.02692433333333, "rental_uris": {"android": "https://dc.lft.to/lastmile_qr_scan", "ios": "https://dc.lft.to/lastmile_qr_scan"}, "is_disabled": 0, "fusion_lat": 0.0, "name": "200e02a88e066916138bd1db99e0f383", "fusion_lon": 0.0}, {"is_reserved": 0, "type": "electric_bike", "bike_id": "ed8d845709297dc89cd019293fe42f09", "lat": 38.92141016666667, "lon": -77.07976783333334, "rental_uris": {"android": "https://dc.lft.to/lastmile_qr_scan", "ios": "https://dc.lft.to/lastmile_qr_scan"}, "is_disabled": 0, "fusion_lat": 0.0, "name": "ed8d845709297dc89cd019293fe42f09", "fusion_lon": 0.0}, {"is_reserved": 0, "type": "electric_scooter", "bike_id": "d84151117d83b9adfb19921f4afa17e1", "lat": 38.9168925, "lon": -77.02815733333334, "rental_uris": {"android": "https://dc.lft.to/lastmile_qr_scan", "ios": "https://dc.lft.to/lastmile_qr_scan"}, "is_disabled": 0, "fusion_lat": 0.0, "name": "d84151117d83b9adfb19921f4afa17e1", "fusion_lon": 0.0}, {"is_reserved": 0, "type": "electric_scooter", "bike_id": "0b17016d2b701d649989ff5bf6b3c588", "lat": 38.893462166666666, "lon": -76.99380083333334, "rental_uris": {"android": "https://dc.lft.to/lastmile_qr_scan", "ios": "https://dc.lft.to/lastmile_qr_scan"}, "is_disabled": 0, "fusion_lat": 0.0, "name": "0b17016d2b701d649989ff5bf6b3c588", "fusion_lon": 0.0}, {"is_reserved": 0, "type": "electric_scooter", "bike_id": "2b24e348e55bfde8f4b1a26944061e08", "lat": 38.89979683333333, "lon": -77.0293555, "rental_uris": {"android": "https://dc.lft.to/lastmile_qr_scan", "ios": "https://dc.lft.to/lastmile_qr_scan"}, "is_disabled": 0, "fusion_lat": 0.0, "name": "2b24e348e55bfde8f4b1a26944061e08", "fusion_lon": 0.0}, {"is_reserved": 0, "type": "electric_scooter", "bike_id": "37cbaca2a9703fda4e94cc6f7c01d33c", "lat": 38.90247566666667, "lon": -77.03564633333333, "rental_uris": {"android": "https://dc.lft.to/lastmile_qr_scan", "ios": "https://dc.lft.to/lastmile_qr_scan"}, "is_disabled": 0, "fusion_lat": 0.0, "name": "37cbaca2a9703fda4e94cc6f7c01d33c", "fusion_lon": 0.0}, {"is_reserved": 0, "type": "electric_scooter", "bike_id": "e789a97060553d732dc89030d2a1dc83", "lat": 38.915675666666665, "lon": -76.983592, "rental_uris": {"android": "https://dc.lft.to/lastmile_qr_scan", "ios": "https://dc.lft.to/lastmile_qr_scan"}, "is_disabled": 0, "fusion_lat": 0.0, "name": "e789a97060553d732dc89030d2a1dc83", "fusion_lon": 0.0}, {"is_reserved": 0, "type": "electric_scooter", "bike_id": "64883676e44ce466b8185baf5d6ad523", "lat": 38.910954, "lon": -76.98477016666666, "rental_uris": {"android": "https://dc.lft.to/lastmile_qr_scan", "ios": "https://dc.lft.to/lastmile_qr_scan"}, "is_disabled": 0, "fusion_lat": 0.0, "name": "64883676e44ce466b8185baf5d6ad523", "fusion_lon": 0.0}, {"is_reserved": 0, "type": "electric_bike", "bike_id": "f17809c374f49ea8778825f4ce26c5b0", "lat": 38.90022416666667, "lon": -76.99358883333333, "rental_uris": {"android": "https://dc.lft.to/lastmile_qr_scan", "ios": "https://dc.lft.to/lastmile_qr_scan"}, "is_disabled": 0, "fusion_lat": 0.0, "name": "f17809c374f49ea8778825f4ce26c5b0", "fusion_lon": 0.0}, {"is_reserved": 0, "type": "electric_scooter", "bike_id": "e45bd820009fb39d08713c41e1f337ce", "lat": 38.923339, "lon": -77.029638, "rental_uris": {"android": "https://dc.lft.to/lastmile_qr_scan", "ios": "https://dc.lft.to/lastmile_qr_scan"}, "is_disabled": 0, "fusion_lat": 0.0, "name": "e45bd820009fb39d08713c41e1f337ce", "fusion_lon": 0.0}, {"is_reserved": 0, "type": "electric_scooter", "bike_id": "e8fda92421e678d212d415c4d1a22149", "lat": 38.914292833333334, "lon": -77.03181166666667, "rental_uris": {"android": "https://dc.lft.to/lastmile_qr_scan", "ios": "https://dc.lft.to/lastmile_qr_scan"}, "is_disabled": 0, "fusion_lat": 0.0, "name": "e8fda92421e678d212d415c4d1a22149", "fusion_lon": 0.0}, {"is_reserved": 0, "type": "electric_scooter", "bike_id": "212604a38fa3286bf18c543772e4ae58", "lat": 38.920011, "lon": -77.03878033333334, "rental_uris": {"android": "https://dc.lft.to/lastmile_qr_scan", "ios": "https://dc.lft.to/lastmile_qr_scan"}, "is_disabled": 0, "fusion_lat": 0.0, "name": "212604a38fa3286bf18c543772e4ae58", "fusion_lon": 0.0}, {"is_reserved": 0, "type": "electric_scooter", "bike_id": "c9af5b2dd68be0a0ffa8dab57593e09e", "lat": 38.890347166666665, "lon": -76.93755333333333, "rental_uris": {"android": "https://dc.lft.to/lastmile_qr_scan", "ios": "https://dc.lft.to/lastmile_qr_scan"}, "is_disabled": 0, "fusion_lat": 0.0, "name": "c9af5b2dd68be0a0ffa8dab57593e09e", "fusion_lon": 0.0}, {"is_reserved": 0, "type": "electric_scooter", "bike_id": "34cb2b7c64c155cea06fcf6d100d4328", "lat": 38.92368716666667, "lon": -77.0190885, "rental_uris": {"android": "https://dc.lft.to/lastmile_qr_scan", "ios": "https://dc.lft.to/lastmile_qr_scan"}, "is_disabled": 0, "fusion_lat": 0.0, "name": "34cb2b7c64c155cea06fcf6d100d4328", "fusion_lon": 0.0}, {"is_reserved": 0, "type": "electric_bike", "bike_id": "5b9db092b4f2ac39321c5a7ec027663a", "lat": 38.808665833333336, "lon": -77.11253066666667, "rental_uris": {"android": "https://dc.lft.to/lastmile_qr_scan", "ios": "https://dc.lft.to/lastmile_qr_scan"}, "is_disabled": 0, "fusion_lat": 0.0, "name": "5b9db092b4f2ac39321c5a7ec027663a", "fusion_lon": 0.0}, {"is_reserved": 0, "type": "electric_scooter", "bike_id": "4d075a67cc0d1a8f0082ed470e30381c", "lat": 38.9386425, "lon": -77.02649783333334, "rental_uris": {"android": "https://dc.lft.to/lastmile_qr_scan", "ios": "https://dc.lft.to/lastmile_qr_scan"}, "is_disabled": 0, "fusion_lat": 0.0, "name": "4d075a67cc0d1a8f0082ed470e30381c", "fusion_lon": 0.0}, {"is_reserved": 0, "type": "electric_scooter", "bike_id": "4187e057509c4028accfb10735dd9781", "lat": 38.871546, "lon": -77.01316333333334, "rental_uris": {"android": "https://dc.lft.to/lastmile_qr_scan", "ios": "https://dc.lft.to/lastmile_qr_scan"}, "is_disabled": 0, "fusion_lat": 0.0, "name": "4187e057509c4028accfb10735dd9781", "fusion_lon": 0.0}, {"is_reserved": 0, "type": "electric_scooter", "bike_id": "b13fc4f84f17ada73190d99789c9f225", "lat": 38.87267383333333, "lon": -77.017101, "rental_uris": {"android": "https://dc.lft.to/lastmile_qr_scan", "ios": "https://dc.lft.to/lastmile_qr_scan"}, "is_disabled": 0, "fusion_lat": 0.0, "name": "b13fc4f84f17ada73190d99789c9f225", "fusion_lon": 0.0}, {"is_reserved": 0, "type": "electric_scooter", "bike_id": "bfeb4e2bd2996a41c4a51c071ad66a96", "lat": 38.897287166666665, "lon": -77.05522, "rental_uris": {"android": "https://dc.lft.to/lastmile_qr_scan", "ios": "https://dc.lft.to/lastmile_qr_scan"}, "is_disabled": 0, "fusion_lat": 0.0, "name": "bfeb4e2bd2996a41c4a51c071ad66a96", "fusion_lon": 0.0}, {"is_reserved": 0, "type": "electric_scooter", "bike_id": "ff7df22a488a0a4748d7ebf006fbbcd6", "lat": 38.9068795, "lon": -77.062578, "rental_uris": {"android": "https://dc.lft.to/lastmile_qr_scan", "ios": "https://dc.lft.to/lastmile_qr_scan"}, "is_disabled": 0, "fusion_lat": 0.0, "name": "ff7df22a488a0a4748d7ebf006fbbcd6", "fusion_lon": 0.0}, {"is_reserved": 0, "type": "electric_scooter", "bike_id": "ae69b02881610e6f10596787f05a6816", "lat": 38.912658, "lon": -77.030293, "rental_uris": {"android": "https://dc.lft.to/lastmile_qr_scan", "ios": "https://dc.lft.to/lastmile_qr_scan"}, "is_disabled": 0, "fusion_lat": 0.0, "name": "ae69b02881610e6f10596787f05a6816", "fusion_lon": 0.0}, {"is_reserved": 0, "type": "electric_scooter", "bike_id": "e0fe46c9274e13a5246eeaeb44e98e25", "lat": 38.93025983333333, "lon": -77.037856, "rental_uris": {"android": "https://dc.lft.to/lastmile_qr_scan", "ios": "https://dc.lft.to/lastmile_qr_scan"}, "is_disabled": 0, "fusion_lat": 0.0, "name": "e0fe46c9274e13a5246eeaeb44e98e25", "fusion_lon": 0.0}, {"is_reserved": 0, "type": "electric_scooter", "bike_id": "d9629cbc841ecc39d76e460f43e68506", "lat": 38.9255725, "lon": -77.03657466666667, "rental_uris": {"android": "https://dc.lft.to/lastmile_qr_scan", "ios": "https://dc.lft.to/lastmile_qr_scan"}, "is_disabled": 0, "fusion_lat": 0.0, "name": "d9629cbc841ecc39d76e460f43e68506", "fusion_lon": 0.0}, {"is_reserved": 0, "type": "electric_scooter", "bike_id": "aea1f1ddeb08ce23615bca5765f58834", "lat": 38.892239333333336, "lon": -77.024185, "rental_uris": {"android": "https://dc.lft.to/lastmile_qr_scan", "ios": "https://dc.lft.to/lastmile_qr_scan"}, "is_disabled": 0, "fusion_lat": 0.0, "name": "aea1f1ddeb08ce23615bca5765f58834", "fusion_lon": 0.0}, {"is_reserved": 0, "type": "electric_bike", "bike_id": "e275a3d1fbe06c54ab0d63ed5f89b098", "lat": 38.90049466666667, "lon": -76.97787466666666, "rental_uris": {"android": "https://dc.lft.to/lastmile_qr_scan", "ios": "https://dc.lft.to/lastmile_qr_scan"}, "is_disabled": 0, "fusion_lat": 0.0, "name": "e275a3d1fbe06c54ab0d63ed5f89b098", "fusion_lon": 0.0}, {"is_reserved": 0, "type": "electric_scooter", "bike_id": "a2bcb5a24cfbce8b756ddef07d61773e", "lat": 38.946556333333334, "lon": -77.0654805, "rental_uris": {"android": "https://dc.lft.to/lastmile_qr_scan", "ios": "https://dc.lft.to/lastmile_qr_scan"}, "is_disabled": 0, "fusion_lat": 0.0, "name": "a2bcb5a24cfbce8b756ddef07d61773e", "fusion_lon": 0.0}, {"is_reserved": 0, "type": "electric_bike", "bike_id": "c980c432f0e55d9a157d4c04ec2f4fa3", "lat": 38.99542733333333, "lon": -77.074721, "rental_uris": {"android": "https://dc.lft.to/lastmile_qr_scan", "ios": "https://dc.lft.to/lastmile_qr_scan"}, "is_disabled": 0, "fusion_lat": 0.0, "name": "c980c432f0e55d9a157d4c04ec2f4fa3", "fusion_lon": 0.0}, {"is_reserved": 0, "type": "electric_scooter", "bike_id": "c268909da923089f6b39196bb6bfde07", "lat": 38.9171345, "lon": -77.03219816666666, "rental_uris": {"android": "https://dc.lft.to/lastmile_qr_scan", "ios": "https://dc.lft.to/lastmile_qr_scan"}, "is_disabled": 0, "fusion_lat": 0.0, "name": "c268909da923089f6b39196bb6bfde07", "fusion_lon": 0.0}, {"is_reserved": 0, "type": "electric_scooter", "bike_id": "a51dff7fcd9f379fdd7eea18fa0fd5f8", "lat": 38.91860116666667, "lon": -77.0135215, "rental_uris": {"android": "https://dc.lft.to/lastmile_qr_scan", "ios": "https://dc.lft.to/lastmile_qr_scan"}, "is_disabled": 0, "fusion_lat": 0.0, "name": "a51dff7fcd9f379fdd7eea18fa0fd5f8", "fusion_lon": 0.0}, {"is_reserved": 0, "type": "electric_scooter", "bike_id": "46e9471dc22c471298eb65840b30adc0", "lat": 38.90585566666667, "lon": -77.03636133333333, "rental_uris": {"android": "https://dc.lft.to/lastmile_qr_scan", "ios": "https://dc.lft.to/lastmile_qr_scan"}, "is_disabled": 0, "fusion_lat": 0.0, "name": "46e9471dc22c471298eb65840b30adc0", "fusion_lon": 0.0}, {"is_reserved": 0, "type": "electric_scooter", "bike_id": "710e60c2a41cba29a2c45dd9dea14024", "lat": 38.922620333333334, "lon": -77.036633, "rental_uris": {"android": "https://dc.lft.to/lastmile_qr_scan", "ios": "https://dc.lft.to/lastmile_qr_scan"}, "is_disabled": 0, "fusion_lat": 0.0, "name": "710e60c2a41cba29a2c45dd9dea14024", "fusion_lon": 0.0}, {"is_reserved": 0, "type": "electric_scooter", "bike_id": "8ea9739521682aba8ca42bbac7354527", "lat": 38.966477833333336, "lon": -77.0089015, "rental_uris": {"android": "https://dc.lft.to/lastmile_qr_scan", "ios": "https://dc.lft.to/lastmile_qr_scan"}, "is_disabled": 0, "fusion_lat": 0.0, "name": "8ea9739521682aba8ca42bbac7354527", "fusion_lon": 0.0}, {"is_reserved": 0, "type": "electric_scooter", "bike_id": "3f523cb0d7779d1d5fe6010a6278ad63", "lat": 38.935833, "lon": -77.02430316666667, "rental_uris": {"android": "https://dc.lft.to/lastmile_qr_scan", "ios": "https://dc.lft.to/lastmile_qr_scan"}, "is_disabled": 0, "fusion_lat": 0.0, "name": "3f523cb0d7779d1d5fe6010a6278ad63", "fusion_lon": 0.0}, {"is_reserved": 0, "type": "electric_scooter", "bike_id": "de5f8177413f73ce08eaef6f33ad768d", "lat": 38.92613583333333, "lon": -77.02156616666667, "rental_uris": {"android": "https://dc.lft.to/lastmile_qr_scan", "ios": "https://dc.lft.to/lastmile_qr_scan"}, "is_disabled": 0, "fusion_lat": 0.0, "name": "de5f8177413f73ce08eaef6f33ad768d", "fusion_lon": 0.0}, {"is_reserved": 0, "type": "electric_scooter", "bike_id": "e4126161ea042e94ae56f8a680545c46", "lat": 38.9002995, "lon": -77.0450635, "rental_uris": {"android": "https://dc.lft.to/lastmile_qr_scan", "ios": "https://dc.lft.to/lastmile_qr_scan"}, "is_disabled": 0, "fusion_lat": 0.0, "name": "e4126161ea042e94ae56f8a680545c46", "fusion_lon": 0.0}, {"is_reserved": 0, "type": "electric_scooter", "bike_id": "74c39ffec2afaf58cb4103ed628c9e0a", "lat": 38.89992066666667, "lon": -77.02720183333334, "rental_uris": {"android": "https://dc.lft.to/lastmile_qr_scan", "ios": "https://dc.lft.to/lastmile_qr_scan"}, "is_disabled": 0, "fusion_lat": 0.0, "name": "74c39ffec2afaf58cb4103ed628c9e0a", "fusion_lon": 0.0}, {"is_reserved": 0, "type": "electric_bike", "bike_id": "40740609bf78e209fd1a8df3b18b6604", "lat": 38.907307333333335, "lon": -77.0251125, "rental_uris": {"android": "https://dc.lft.to/lastmile_qr_scan", "ios": "https://dc.lft.to/lastmile_qr_scan"}, "is_disabled": 0, "fusion_lat": 0.0, "name": "40740609bf78e209fd1a8df3b18b6604", "fusion_lon": 0.0}, {"is_reserved": 0, "type": "electric_scooter", "bike_id": "85093a5cffe3262fa38f33ab5ae9a66c", "lat": 38.95252966666666, "lon": -77.02399483333333, "rental_uris": {"android": "https://dc.lft.to/lastmile_qr_scan", "ios": "https://dc.lft.to/lastmile_qr_scan"}, "is_disabled": 0, "fusion_lat": 0.0, "name": "85093a5cffe3262fa38f33ab5ae9a66c", "fusion_lon": 0.0}, {"is_reserved": 0, "type": "electric_scooter", "bike_id": "b6c8c4add3d736b8cf0acfdddf791808", "lat": 38.9243205, "lon": -77.040361, "rental_uris": {"android": "https://dc.lft.to/lastmile_qr_scan", "ios": "https://dc.lft.to/lastmile_qr_scan"}, "is_disabled": 0, "fusion_lat": 0.0, "name": "b6c8c4add3d736b8cf0acfdddf791808", "fusion_lon": 0.0}, {"is_reserved": 0, "type": "electric_scooter", "bike_id": "8034d9c79b87f6b505ca05e443e38bbe", "lat": 38.94007233333333, "lon": -77.027291, "rental_uris": {"android": "https://dc.lft.to/lastmile_qr_scan", "ios": "https://dc.lft.to/lastmile_qr_scan"}, "is_disabled": 0, "fusion_lat": 0.0, "name": "8034d9c79b87f6b505ca05e443e38bbe", "fusion_lon": 0.0}, {"is_reserved": 0, "type": "electric_scooter", "bike_id": "15a8646c0cc5dc38adb32c878958722c", "lat": 38.9026205, "lon": -77.01678833333334, "rental_uris": {"android": "https://dc.lft.to/lastmile_qr_scan", "ios": "https://dc.lft.to/lastmile_qr_scan"}, "is_disabled": 0, "fusion_lat": 0.0, "name": "15a8646c0cc5dc38adb32c878958722c", "fusion_lon": 0.0}, {"is_reserved": 0, "type": "electric_scooter", "bike_id": "3dd416b2bf28891d47b1b679ce591ae7", "lat": 38.90858883333333, "lon": -77.001591, "rental_uris": {"android": "https://dc.lft.to/lastmile_qr_scan", "ios": "https://dc.lft.to/lastmile_qr_scan"}, "is_disabled": 0, "fusion_lat": 0.0, "name": "3dd416b2bf28891d47b1b679ce591ae7", "fusion_lon": 0.0}, {"is_reserved": 0, "type": "electric_scooter", "bike_id": "d92cccadd45017b954cdf95ac4047343", "lat": 38.89887816666667, "lon": -77.03974233333334, "rental_uris": {"android": "https://dc.lft.to/lastmile_qr_scan", "ios": "https://dc.lft.to/lastmile_qr_scan"}, "is_disabled": 0, "fusion_lat": 0.0, "name": "d92cccadd45017b954cdf95ac4047343", "fusion_lon": 0.0}, {"is_reserved": 0, "type": "electric_scooter", "bike_id": "14e5083451ac7ecb30255c6c4fe37570", "lat": 38.92448133333333, "lon": -77.0203305, "rental_uris": {"android": "https://dc.lft.to/lastmile_qr_scan", "ios": "https://dc.lft.to/lastmile_qr_scan"}, "is_disabled": 0, "fusion_lat": 0.0, "name": "14e5083451ac7ecb30255c6c4fe37570", "fusion_lon": 0.0}, {"is_reserved": 0, "type": "electric_scooter", "bike_id": "4933c5f2aa549c91dc0a2dd314651246", "lat": 38.918014166666666, "lon": -77.03190333333333, "rental_uris": {"android": "https://dc.lft.to/lastmile_qr_scan", "ios": "https://dc.lft.to/lastmile_qr_scan"}, "is_disabled": 0, "fusion_lat": 0.0, "name": "4933c5f2aa549c91dc0a2dd314651246", "fusion_lon": 0.0}, {"is_reserved": 0, "type": "electric_scooter", "bike_id": "c942b2225c3240d83ce96a4da5e534bc", "lat": 38.8922505, "lon": -77.03179133333333, "rental_uris": {"android": "https://dc.lft.to/lastmile_qr_scan", "ios": "https://dc.lft.to/lastmile_qr_scan"}, "is_disabled": 0, "fusion_lat": 0.0, "name": "c942b2225c3240d83ce96a4da5e534bc", "fusion_lon": 0.0}, {"is_reserved": 0, "type": "electric_scooter", "bike_id": "88c133c8b04ddeaa4094663eb729693f", "lat": 38.89930583333334, "lon": -76.94577583333333, "rental_uris": {"android": "https://dc.lft.to/lastmile_qr_scan", "ios": "https://dc.lft.to/lastmile_qr_scan"}, "is_disabled": 0, "fusion_lat": 0.0, "name": "88c133c8b04ddeaa4094663eb729693f", "fusion_lon": 0.0}, {"is_reserved": 0, "type": "electric_scooter", "bike_id": "5cafac24d5ea023338dae7bc259474d1", "lat": 38.91306616666667, "lon": -77.03202066666667, "rental_uris": {"android": "https://dc.lft.to/lastmile_qr_scan", "ios": "https://dc.lft.to/lastmile_qr_scan"}, "is_disabled": 0, "fusion_lat": 0.0, "name": "5cafac24d5ea023338dae7bc259474d1", "fusion_lon": 0.0}, {"is_reserved": 0, "type": "electric_scooter", "bike_id": "397402deb2f8c2c9bbffc4ba1d1248ca", "lat": 38.90094, "lon": -77.01590583333333, "rental_uris": {"android": "https://dc.lft.to/lastmile_qr_scan", "ios": "https://dc.lft.to/lastmile_qr_scan"}, "is_disabled": 0, "fusion_lat": 0.0, "name": "397402deb2f8c2c9bbffc4ba1d1248ca", "fusion_lon": 0.0}, {"is_reserved": 0, "type": "electric_scooter", "bike_id": "c3a80e60f7ff7e1c0355984a2c41ce0d", "lat": 38.92767583333333, "lon": -77.02790616666667, "rental_uris": {"android": "https://dc.lft.to/lastmile_qr_scan", "ios": "https://dc.lft.to/lastmile_qr_scan"}, "is_disabled": 0, "fusion_lat": 0.0, "name": "c3a80e60f7ff7e1c0355984a2c41ce0d", "fusion_lon": 0.0}, {"is_reserved": 0, "type": "electric_scooter", "bike_id": "80194139cc66f822774afb5db1ffb330", "lat": 38.90564883333333, "lon": -77.00599166666667, "rental_uris": {"android": "https://dc.lft.to/lastmile_qr_scan", "ios": "https://dc.lft.to/lastmile_qr_scan"}, "is_disabled": 0, "fusion_lat": 0.0, "name": "80194139cc66f822774afb5db1ffb330", "fusion_lon": 0.0}, {"is_reserved": 0, "type": "electric_scooter", "bike_id": "715e44b1f139f102eef4e7f66ba647f0", "lat": 38.894967, "lon": -77.00195116666667, "rental_uris": {"android": "https://dc.lft.to/lastmile_qr_scan", "ios": "https://dc.lft.to/lastmile_qr_scan"}, "is_disabled": 0, "fusion_lat": 0.0, "name": "715e44b1f139f102eef4e7f66ba647f0", "fusion_lon": 0.0}, {"is_reserved": 0, "type": "electric_scooter", "bike_id": "a925c4db0a00c2a25349dc12236995fe", "lat": 38.924490166666665, "lon": -77.029777, "rental_uris": {"android": "https://dc.lft.to/lastmile_qr_scan", "ios": "https://dc.lft.to/lastmile_qr_scan"}, "is_disabled": 0, "fusion_lat": 0.0, "name": "a925c4db0a00c2a25349dc12236995fe", "fusion_lon": 0.0}, {"is_reserved": 0, "type": "electric_scooter", "bike_id": "4227641dc76d499852b5e535ae9f260a", "lat": 38.902566, "lon": -77.01759566666667, "rental_uris": {"android": "https://dc.lft.to/lastmile_qr_scan", "ios": "https://dc.lft.to/lastmile_qr_scan"}, "is_disabled": 0, "fusion_lat": 0.0, "name": "4227641dc76d499852b5e535ae9f260a", "fusion_lon": 0.0}, {"is_reserved": 0, "type": "electric_scooter", "bike_id": "c5c018a4e15a8a2b902cb97e9e678447", "lat": 38.91265033333333, "lon": -77.02610816666666, "rental_uris": {"android": "https://dc.lft.to/lastmile_qr_scan", "ios": "https://dc.lft.to/lastmile_qr_scan"}, "is_disabled": 0, "fusion_lat": 0.0, "name": "c5c018a4e15a8a2b902cb97e9e678447", "fusion_lon": 0.0}, {"is_reserved": 0, "type": "electric_scooter", "bike_id": "bd438b783ec6c4398396a41937323b33", "lat": 38.905414666666665, "lon": -77.02209816666667, "rental_uris": {"android": "https://dc.lft.to/lastmile_qr_scan", "ios": "https://dc.lft.to/lastmile_qr_scan"}, "is_disabled": 0, "fusion_lat": 0.0, "name": "bd438b783ec6c4398396a41937323b33", "fusion_lon": 0.0}, {"is_reserved": 0, "type": "electric_scooter", "bike_id": "dcdf1bd9e9acec2482048894c8f794d2", "lat": 38.916367666666666, "lon": -77.04620733333333, "rental_uris": {"android": "https://dc.lft.to/lastmile_qr_scan", "ios": "https://dc.lft.to/lastmile_qr_scan"}, "is_disabled": 0, "fusion_lat": 0.0, "name": "dcdf1bd9e9acec2482048894c8f794d2", "fusion_lon": 0.0}, {"is_reserved": 0, "type": "electric_scooter", "bike_id": "d06266b3226fb593b5e17ac9a6db2647", "lat": 38.92615983333334, "lon": -77.02158366666667, "rental_uris": {"android": "https://dc.lft.to/lastmile_qr_scan", "ios": "https://dc.lft.to/lastmile_qr_scan"}, "is_disabled": 0, "fusion_lat": 0.0, "name": "d06266b3226fb593b5e17ac9a6db2647", "fusion_lon": 0.0}, {"is_reserved": 0, "type": "electric_scooter", "bike_id": "a16fb06673d9045b0a5d6ac0eede4da8", "lat": 38.886462, "lon": -76.99626566666667, "rental_uris": {"android": "https://dc.lft.to/lastmile_qr_scan", "ios": "https://dc.lft.to/lastmile_qr_scan"}, "is_disabled": 0, "fusion_lat": 0.0, "name": "a16fb06673d9045b0a5d6ac0eede4da8", "fusion_lon": 0.0}, {"is_reserved": 0, "type": "electric_scooter", "bike_id": "d9c53c0fdd593929723cfb7dc157767d", "lat": 38.9048615, "lon": -77.00720816666667, "rental_uris": {"android": "https://dc.lft.to/lastmile_qr_scan", "ios": "https://dc.lft.to/lastmile_qr_scan"}, "is_disabled": 0, "fusion_lat": 0.0, "name": "d9c53c0fdd593929723cfb7dc157767d", "fusion_lon": 0.0}, {"is_reserved": 0, "type": "electric_scooter", "bike_id": "eaa9ea28efaa8d026733e355984f2194", "lat": 38.900609, "lon": -77.054273, "rental_uris": {"android": "https://dc.lft.to/lastmile_qr_scan", "ios": "https://dc.lft.to/lastmile_qr_scan"}, "is_disabled": 0, "fusion_lat": 0.0, "name": "eaa9ea28efaa8d026733e355984f2194", "fusion_lon": 0.0}, {"is_reserved": 0, "type": "electric_scooter", "bike_id": "b7f0562b1beb69e8f810486ce42064d4", "lat": 38.89595816666667, "lon": -77.027811, "rental_uris": {"android": "https://dc.lft.to/lastmile_qr_scan", "ios": "https://dc.lft.to/lastmile_qr_scan"}, "is_disabled": 0, "fusion_lat": 0.0, "name": "b7f0562b1beb69e8f810486ce42064d4", "fusion_lon": 0.0}, {"is_reserved": 0, "type": "electric_scooter", "bike_id": "9398f725686f264899c71482021693c2", "lat": 38.887737333333334, "lon": -76.93259283333333, "rental_uris": {"android": "https://dc.lft.to/lastmile_qr_scan", "ios": "https://dc.lft.to/lastmile_qr_scan"}, "is_disabled": 0, "fusion_lat": 0.0, "name": "9398f725686f264899c71482021693c2", "fusion_lon": 0.0}, {"is_reserved": 0, "type": "electric_scooter", "bike_id": "56759bc26011b63521f0092d6df08408", "lat": 38.9100475, "lon": -77.04494516666666, "rental_uris": {"android": "https://dc.lft.to/lastmile_qr_scan", "ios": "https://dc.lft.to/lastmile_qr_scan"}, "is_disabled": 0, "fusion_lat": 0.0, "name": "56759bc26011b63521f0092d6df08408", "fusion_lon": 0.0}, {"is_reserved": 0, "type": "electric_scooter", "bike_id": "6b34568962cf648c68935990080736d5", "lat": 38.8904295, "lon": -76.9524695, "rental_uris": {"android": "https://dc.lft.to/lastmile_qr_scan", "ios": "https://dc.lft.to/lastmile_qr_scan"}, "is_disabled": 0, "fusion_lat": 0.0, "name": "6b34568962cf648c68935990080736d5", "fusion_lon": 0.0}, {"is_reserved": 0, "type": "electric_scooter", "bike_id": "27b6f1c711b3676dbd9724b53687372d", "lat": 38.888141833333336, "lon": -77.00198733333333, "rental_uris": {"android": "https://dc.lft.to/lastmile_qr_scan", "ios": "https://dc.lft.to/lastmile_qr_scan"}, "is_disabled": 0, "fusion_lat": 0.0, "name": "27b6f1c711b3676dbd9724b53687372d", "fusion_lon": 0.0}, {"is_reserved": 0, "type": "electric_scooter", "bike_id": "c82449732f0a36bc9e84dd91d76320cb", "lat": 38.93741516666667, "lon": -77.03254983333333, "rental_uris": {"android": "https://dc.lft.to/lastmile_qr_scan", "ios": "https://dc.lft.to/lastmile_qr_scan"}, "is_disabled": 0, "fusion_lat": 0.0, "name": "c82449732f0a36bc9e84dd91d76320cb", "fusion_lon": 0.0}, {"is_reserved": 0, "type": "electric_scooter", "bike_id": "5b98a6e99370dace01f24b2007e44e33", "lat": 38.9202875, "lon": -77.010312, "rental_uris": {"android": "https://dc.lft.to/lastmile_qr_scan", "ios": "https://dc.lft.to/lastmile_qr_scan"}, "is_disabled": 0, "fusion_lat": 0.0, "name": "5b98a6e99370dace01f24b2007e44e33", "fusion_lon": 0.0}, {"is_reserved": 0, "type": "electric_scooter", "bike_id": "4b2b363772e8e79f5ff05d7ca0704566", "lat": 38.94308566666667, "lon": -77.02174733333334, "rental_uris": {"android": "https://dc.lft.to/lastmile_qr_scan", "ios": "https://dc.lft.to/lastmile_qr_scan"}, "is_disabled": 0, "fusion_lat": 0.0, "name": "4b2b363772e8e79f5ff05d7ca0704566", "fusion_lon": 0.0}, {"is_reserved": 0, "type": "electric_scooter", "bike_id": "ba63033c3101e53fbf72826d4903cc59", "lat": 38.899410333333336, "lon": -77.026789, "rental_uris": {"android": "https://dc.lft.to/lastmile_qr_scan", "ios": "https://dc.lft.to/lastmile_qr_scan"}, "is_disabled": 0, "fusion_lat": 0.0, "name": "ba63033c3101e53fbf72826d4903cc59", "fusion_lon": 0.0}, {"is_reserved": 0, "type": "electric_scooter", "bike_id": "e6dd4c4b759e6f7fbc31af1655fa5991", "lat": 38.876116333333336, "lon": -76.96558083333333, "rental_uris": {"android": "https://dc.lft.to/lastmile_qr_scan", "ios": "https://dc.lft.to/lastmile_qr_scan"}, "is_disabled": 0, "fusion_lat": 0.0, "name": "e6dd4c4b759e6f7fbc31af1655fa5991", "fusion_lon": 0.0}, {"is_reserved": 0, "type": "electric_scooter", "bike_id": "36536dadf5949fc6742c332fb779edd6", "lat": 38.9008335, "lon": -77.02971733333334, "rental_uris": {"android": "https://dc.lft.to/lastmile_qr_scan", "ios": "https://dc.lft.to/lastmile_qr_scan"}, "is_disabled": 0, "fusion_lat": 0.0, "name": "36536dadf5949fc6742c332fb779edd6", "fusion_lon": 0.0}, {"is_reserved": 0, "type": "electric_scooter", "bike_id": "c6367c8a11468098bb30ff3bbe5813a0", "lat": 38.90974583333333, "lon": -77.03393433333333, "rental_uris": {"android": "https://dc.lft.to/lastmile_qr_scan", "ios": "https://dc.lft.to/lastmile_qr_scan"}, "is_disabled": 0, "fusion_lat": 0.0, "name": "c6367c8a11468098bb30ff3bbe5813a0", "fusion_lon": 0.0}, {"is_reserved": 0, "type": "electric_scooter", "bike_id": "80d590da359831337395ef329c4bce7e", "lat": 38.928236, "lon": -77.05433533333333, "rental_uris": {"android": "https://dc.lft.to/lastmile_qr_scan", "ios": "https://dc.lft.to/lastmile_qr_scan"}, "is_disabled": 0, "fusion_lat": 0.0, "name": "80d590da359831337395ef329c4bce7e", "fusion_lon": 0.0}, {"is_reserved": 0, "type": "electric_scooter", "bike_id": "ad6d6c505b8d36d39e96ef7c39523de5", "lat": 38.9051505, "lon": -77.0638, "rental_uris": {"android": "https://dc.lft.to/lastmile_qr_scan", "ios": "https://dc.lft.to/lastmile_qr_scan"}, "is_disabled": 0, "fusion_lat": 0.0, "name": "ad6d6c505b8d36d39e96ef7c39523de5", "fusion_lon": 0.0}, {"is_reserved": 0, "type": "electric_scooter", "bike_id": "0b7fddf2ace43ea351d353dba4b468b7", "lat": 38.892226666666666, "lon": -77.028, "rental_uris": {"android": "https://dc.lft.to/lastmile_qr_scan", "ios": "https://dc.lft.to/lastmile_qr_scan"}, "is_disabled": 0, "fusion_lat": 0.0, "name": "0b7fddf2ace43ea351d353dba4b468b7", "fusion_lon": 0.0}, {"is_reserved": 0, "type": "electric_scooter", "bike_id": "3e57a01d8653ee22efcb0430264a3563", "lat": 38.9248485, "lon": -77.0348435, "rental_uris": {"android": "https://dc.lft.to/lastmile_qr_scan", "ios": "https://dc.lft.to/lastmile_qr_scan"}, "is_disabled": 0, "fusion_lat": 0.0, "name": "3e57a01d8653ee22efcb0430264a3563", "fusion_lon": 0.0}, {"is_reserved": 0, "type": "electric_scooter", "bike_id": "5a4ec5cfd4b19927de48dba4c46b3e47", "lat": 38.919844833333336, "lon": -77.04068183333334, "rental_uris": {"android": "https://dc.lft.to/lastmile_qr_scan", "ios": "https://dc.lft.to/lastmile_qr_scan"}, "is_disabled": 0, "fusion_lat": 0.0, "name": "5a4ec5cfd4b19927de48dba4c46b3e47", "fusion_lon": 0.0}, {"is_reserved": 0, "type": "electric_scooter", "bike_id": "45bd0fe99034e47ffdd06bb7a55798e6", "lat": 38.89883183333333, "lon": -77.048799, "rental_uris": {"android": "https://dc.lft.to/lastmile_qr_scan", "ios": "https://dc.lft.to/lastmile_qr_scan"}, "is_disabled": 0, "fusion_lat": 0.0, "name": "45bd0fe99034e47ffdd06bb7a55798e6", "fusion_lon": 0.0}, {"is_reserved": 0, "type": "electric_scooter", "bike_id": "c61d799acf87625a46174a9f4af0ecd0", "lat": 38.901810166666664, "lon": -77.04471816666667, "rental_uris": {"android": "https://dc.lft.to/lastmile_qr_scan", "ios": "https://dc.lft.to/lastmile_qr_scan"}, "is_disabled": 0, "fusion_lat": 0.0, "name": "c61d799acf87625a46174a9f4af0ecd0", "fusion_lon": 0.0}, {"is_reserved": 0, "type": "electric_scooter", "bike_id": "be89877010e0fc2766a1d91452819266", "lat": 38.921373, "lon": -77.0103645, "rental_uris": {"android": "https://dc.lft.to/lastmile_qr_scan", "ios": "https://dc.lft.to/lastmile_qr_scan"}, "is_disabled": 0, "fusion_lat": 0.0, "name": "be89877010e0fc2766a1d91452819266", "fusion_lon": 0.0}, {"is_reserved": 0, "type": "electric_scooter", "bike_id": "06b6e0a789d9095f53cb6b437b740bf1", "lat": 38.928039166666665, "lon": -77.036494, "rental_uris": {"android": "https://dc.lft.to/lastmile_qr_scan", "ios": "https://dc.lft.to/lastmile_qr_scan"}, "is_disabled": 0, "fusion_lat": 0.0, "name": "06b6e0a789d9095f53cb6b437b740bf1", "fusion_lon": 0.0}, {"is_reserved": 0, "type": "electric_scooter", "bike_id": "832a2fcaf2f7e4df514aa9585b996877", "lat": 38.931865, "lon": -77.03846183333333, "rental_uris": {"android": "https://dc.lft.to/lastmile_qr_scan", "ios": "https://dc.lft.to/lastmile_qr_scan"}, "is_disabled": 0, "fusion_lat": 0.0, "name": "832a2fcaf2f7e4df514aa9585b996877", "fusion_lon": 0.0}, {"is_reserved": 0, "type": "electric_scooter", "bike_id": "5d367cf9295899ab2cafdfafaee51d5d", "lat": 38.909632, "lon": -77.01439516666667, "rental_uris": {"android": "https://dc.lft.to/lastmile_qr_scan", "ios": "https://dc.lft.to/lastmile_qr_scan"}, "is_disabled": 0, "fusion_lat": 0.0, "name": "5d367cf9295899ab2cafdfafaee51d5d", "fusion_lon": 0.0}, {"is_reserved": 0, "type": "electric_scooter", "bike_id": "1d3a52e4e0d6e5b2ee26b44f5fe689e1", "lat": 38.92405566666667, "lon": -76.9514, "rental_uris": {"android": "https://dc.lft.to/lastmile_qr_scan", "ios": "https://dc.lft.to/lastmile_qr_scan"}, "is_disabled": 0, "fusion_lat": 0.0, "name": "1d3a52e4e0d6e5b2ee26b44f5fe689e1", "fusion_lon": 0.0}, {"is_reserved": 0, "type": "electric_scooter", "bike_id": "39b7aac45ed64b81ee557b660254362b", "lat": 38.89625266666667, "lon": -77.0262775, "rental_uris": {"android": "https://dc.lft.to/lastmile_qr_scan", "ios": "https://dc.lft.to/lastmile_qr_scan"}, "is_disabled": 0, "fusion_lat": 0.0, "name": "39b7aac45ed64b81ee557b660254362b", "fusion_lon": 0.0}, {"is_reserved": 0, "type": "electric_scooter", "bike_id": "5940f0e2f47ef09003ff87d30f31ea93", "lat": 38.920316, "lon": -77.05621683333334, "rental_uris": {"android": "https://dc.lft.to/lastmile_qr_scan", "ios": "https://dc.lft.to/lastmile_qr_scan"}, "is_disabled": 0, "fusion_lat": 0.0, "name": "5940f0e2f47ef09003ff87d30f31ea93", "fusion_lon": 0.0}, {"is_reserved": 0, "type": "electric_scooter", "bike_id": "5278dbe45f9d075edbbb0c0332170bb6", "lat": 38.8999505, "lon": -77.02896483333333, "rental_uris": {"android": "https://dc.lft.to/lastmile_qr_scan", "ios": "https://dc.lft.to/lastmile_qr_scan"}, "is_disabled": 0, "fusion_lat": 0.0, "name": "5278dbe45f9d075edbbb0c0332170bb6", "fusion_lon": 0.0}, {"is_reserved": 0, "type": "electric_scooter", "bike_id": "8f5e3c97abadc34d8030d66cb760f595", "lat": 38.90959333333333, "lon": -77.0212985, "rental_uris": {"android": "https://dc.lft.to/lastmile_qr_scan", "ios": "https://dc.lft.to/lastmile_qr_scan"}, "is_disabled": 0, "fusion_lat": 0.0, "name": "8f5e3c97abadc34d8030d66cb760f595", "fusion_lon": 0.0}, {"is_reserved": 0, "type": "electric_scooter", "bike_id": "1ec7caa2c12d7b0ca31632044ec5e043", "lat": 38.89635333333333, "lon": -77.00204133333334, "rental_uris": {"android": "https://dc.lft.to/lastmile_qr_scan", "ios": "https://dc.lft.to/lastmile_qr_scan"}, "is_disabled": 0, "fusion_lat": 0.0, "name": "1ec7caa2c12d7b0ca31632044ec5e043", "fusion_lon": 0.0}, {"is_reserved": 0, "type": "electric_bike", "bike_id": "4a4a4e50a33b79914552989d6fbf6588", "lat": 38.91411216666667, "lon": -77.00484233333333, "rental_uris": {"android": "https://dc.lft.to/lastmile_qr_scan", "ios": "https://dc.lft.to/lastmile_qr_scan"}, "is_disabled": 0, "fusion_lat": 0.0, "name": "4a4a4e50a33b79914552989d6fbf6588", "fusion_lon": 0.0}, {"is_reserved": 0, "type": "electric_scooter", "bike_id": "189f4aefb779a8cf13e2acf0887e2cd1", "lat": 38.92432633333333, "lon": -77.0031955, "rental_uris": {"android": "https://dc.lft.to/lastmile_qr_scan", "ios": "https://dc.lft.to/lastmile_qr_scan"}, "is_disabled": 0, "fusion_lat": 0.0, "name": "189f4aefb779a8cf13e2acf0887e2cd1", "fusion_lon": 0.0}, {"is_reserved": 0, "type": "electric_scooter", "bike_id": "d4f54d975e00e9512482879d2e51af29", "lat": 38.90397, "lon": -77.06295183333333, "rental_uris": {"android": "https://dc.lft.to/lastmile_qr_scan", "ios": "https://dc.lft.to/lastmile_qr_scan"}, "is_disabled": 0, "fusion_lat": 0.0, "name": "d4f54d975e00e9512482879d2e51af29", "fusion_lon": 0.0}, {"is_reserved": 0, "type": "electric_scooter", "bike_id": "0987a42bf6d1d88d9fb065704b6833ba", "lat": 38.898700833333336, "lon": -76.94662116666666, "rental_uris": {"android": "https://dc.lft.to/lastmile_qr_scan", "ios": "https://dc.lft.to/lastmile_qr_scan"}, "is_disabled": 0, "fusion_lat": 0.0, "name": "0987a42bf6d1d88d9fb065704b6833ba", "fusion_lon": 0.0}, {"is_reserved": 0, "type": "electric_scooter", "bike_id": "836a461d6e5621212fcfa843a2828176", "lat": 38.928573166666666, "lon": -77.01382216666667, "rental_uris": {"android": "https://dc.lft.to/lastmile_qr_scan", "ios": "https://dc.lft.to/lastmile_qr_scan"}, "is_disabled": 0, "fusion_lat": 0.0, "name": "836a461d6e5621212fcfa843a2828176", "fusion_lon": 0.0}, {"is_reserved": 0, "type": "electric_scooter", "bike_id": "7b4e399d949dda7a313a07abf91620ac", "lat": 38.9170735, "lon": -77.0284335, "rental_uris": {"android": "https://dc.lft.to/lastmile_qr_scan", "ios": "https://dc.lft.to/lastmile_qr_scan"}, "is_disabled": 0, "fusion_lat": 0.0, "name": "7b4e399d949dda7a313a07abf91620ac", "fusion_lon": 0.0}, {"is_reserved": 0, "type": "electric_scooter", "bike_id": "3ebdfa8b7e18dcfdaeeef44bdc436330", "lat": 38.90725333333334, "lon": -77.016818, "rental_uris": {"android": "https://dc.lft.to/lastmile_qr_scan", "ios": "https://dc.lft.to/lastmile_qr_scan"}, "is_disabled": 0, "fusion_lat": 0.0, "name": "3ebdfa8b7e18dcfdaeeef44bdc436330", "fusion_lon": 0.0}, {"is_reserved": 0, "type": "electric_scooter", "bike_id": "0b65f53eded096e3061e0786c292ac73", "lat": 38.8922175, "lon": -77.01561283333334, "rental_uris": {"android": "https://dc.lft.to/lastmile_qr_scan", "ios": "https://dc.lft.to/lastmile_qr_scan"}, "is_disabled": 0, "fusion_lat": 0.0, "name": "0b65f53eded096e3061e0786c292ac73", "fusion_lon": 0.0}, {"is_reserved": 0, "type": "electric_scooter", "bike_id": "0b2a95ccd8107dfc620c7a48dee1fa81", "lat": 38.89226, "lon": -77.03181983333333, "rental_uris": {"android": "https://dc.lft.to/lastmile_qr_scan", "ios": "https://dc.lft.to/lastmile_qr_scan"}, "is_disabled": 0, "fusion_lat": 0.0, "name": "0b2a95ccd8107dfc620c7a48dee1fa81", "fusion_lon": 0.0}, {"is_reserved": 0, "type": "electric_scooter", "bike_id": "dba7cfc33fe9c49b5b13455dea55f25c", "lat": 38.89224633333333, "lon": -77.031088, "rental_uris": {"android": "https://dc.lft.to/lastmile_qr_scan", "ios": "https://dc.lft.to/lastmile_qr_scan"}, "is_disabled": 0, "fusion_lat": 0.0, "name": "dba7cfc33fe9c49b5b13455dea55f25c", "fusion_lon": 0.0}, {"is_reserved": 0, "type": "electric_scooter", "bike_id": "3ff49a7d6444b755df49e76118d37ae7", "lat": 38.93588333333334, "lon": -77.05867933333333, "rental_uris": {"android": "https://dc.lft.to/lastmile_qr_scan", "ios": "https://dc.lft.to/lastmile_qr_scan"}, "is_disabled": 0, "fusion_lat": 0.0, "name": "3ff49a7d6444b755df49e76118d37ae7", "fusion_lon": 0.0}, {"is_reserved": 0, "type": "electric_bike", "bike_id": "6018552b0db52eb64a436efea553175e", "lat": 38.86447716666667, "lon": -76.9898935, "rental_uris": {"android": "https://dc.lft.to/lastmile_qr_scan", "ios": "https://dc.lft.to/lastmile_qr_scan"}, "is_disabled": 0, "fusion_lat": 0.0, "name": "6018552b0db52eb64a436efea553175e", "fusion_lon": 0.0}, {"is_reserved": 0, "type": "electric_scooter", "bike_id": "a0a6ec05a50cb666c133269b129fd2e6", "lat": 38.92994866666667, "lon": -77.055093, "rental_uris": {"android": "https://dc.lft.to/lastmile_qr_scan", "ios": "https://dc.lft.to/lastmile_qr_scan"}, "is_disabled": 0, "fusion_lat": 0.0, "name": "a0a6ec05a50cb666c133269b129fd2e6", "fusion_lon": 0.0}, {"is_reserved": 0, "type": "electric_scooter", "bike_id": "53bfa7c5eebd41ced1d37dc01b912745", "lat": 38.90039266666667, "lon": -77.02583, "rental_uris": {"android": "https://dc.lft.to/lastmile_qr_scan", "ios": "https://dc.lft.to/lastmile_qr_scan"}, "is_disabled": 0, "fusion_lat": 0.0, "name": "53bfa7c5eebd41ced1d37dc01b912745", "fusion_lon": 0.0}, {"is_reserved": 0, "type": "electric_scooter", "bike_id": "5a0c46e00c8d6c0e18df758562f780d0", "lat": 38.897492666666665, "lon": -77.0214425, "rental_uris": {"android": "https://dc.lft.to/lastmile_qr_scan", "ios": "https://dc.lft.to/lastmile_qr_scan"}, "is_disabled": 0, "fusion_lat": 0.0, "name": "5a0c46e00c8d6c0e18df758562f780d0", "fusion_lon": 0.0}, {"is_reserved": 0, "type": "electric_scooter", "bike_id": "1d1158108bb5120c6ada9ec165b8bc1a", "lat": 38.90187066666667, "lon": -77.0487225, "rental_uris": {"android": "https://dc.lft.to/lastmile_qr_scan", "ios": "https://dc.lft.to/lastmile_qr_scan"}, "is_disabled": 0, "fusion_lat": 0.0, "name": "1d1158108bb5120c6ada9ec165b8bc1a", "fusion_lon": 0.0}, {"is_reserved": 0, "type": "electric_scooter", "bike_id": "11dd2c7553a46c2e822331ee7b886153", "lat": 38.928367333333334, "lon": -77.05508933333333, "rental_uris": {"android": "https://dc.lft.to/lastmile_qr_scan", "ios": "https://dc.lft.to/lastmile_qr_scan"}, "is_disabled": 0, "fusion_lat": 0.0, "name": "11dd2c7553a46c2e822331ee7b886153", "fusion_lon": 0.0}, {"is_reserved": 0, "type": "electric_scooter", "bike_id": "b4a7c45c244aadd80f8f2eb808f2b1ad", "lat": 38.9175695, "lon": -77.02792433333333, "rental_uris": {"android": "https://dc.lft.to/lastmile_qr_scan", "ios": "https://dc.lft.to/lastmile_qr_scan"}, "is_disabled": 0, "fusion_lat": 0.0, "name": "b4a7c45c244aadd80f8f2eb808f2b1ad", "fusion_lon": 0.0}, {"is_reserved": 0, "type": "electric_scooter", "bike_id": "00bcec4a9480b0dd23d8843f4e21f753", "lat": 38.891913833333334, "lon": -76.99846566666666, "rental_uris": {"android": "https://dc.lft.to/lastmile_qr_scan", "ios": "https://dc.lft.to/lastmile_qr_scan"}, "is_disabled": 0, "fusion_lat": 0.0, "name": "00bcec4a9480b0dd23d8843f4e21f753", "fusion_lon": 0.0}, {"is_reserved": 0, "type": "electric_scooter", "bike_id": "a5be85e2f71ec065c515463ca8686c82", "lat": 38.905899833333336, "lon": -76.9505325, "rental_uris": {"android": "https://dc.lft.to/lastmile_qr_scan", "ios": "https://dc.lft.to/lastmile_qr_scan"}, "is_disabled": 0, "fusion_lat": 0.0, "name": "a5be85e2f71ec065c515463ca8686c82", "fusion_lon": 0.0}, {"is_reserved": 0, "type": "electric_scooter", "bike_id": "c83538ba2dd7e027a9d3a11ab9eb6667", "lat": 38.94439283333333, "lon": -77.063504, "rental_uris": {"android": "https://dc.lft.to/lastmile_qr_scan", "ios": "https://dc.lft.to/lastmile_qr_scan"}, "is_disabled": 0, "fusion_lat": 0.0, "name": "c83538ba2dd7e027a9d3a11ab9eb6667", "fusion_lon": 0.0}, {"is_reserved": 0, "type": "electric_scooter", "bike_id": "76f5323a953ff4dc52ad0f417cb61a3a", "lat": 38.917128166666664, "lon": -77.0386385, "rental_uris": {"android": "https://dc.lft.to/lastmile_qr_scan", "ios": "https://dc.lft.to/lastmile_qr_scan"}, "is_disabled": 0, "fusion_lat": 0.0, "name": "76f5323a953ff4dc52ad0f417cb61a3a", "fusion_lon": 0.0}, {"is_reserved": 0, "type": "electric_bike", "bike_id": "cc015431f246a6e98de32a38236f8b5e", "lat": 38.89458783333333, "lon": -77.1912895, "rental_uris": {"android": "https://dc.lft.to/lastmile_qr_scan", "ios": "https://dc.lft.to/lastmile_qr_scan"}, "is_disabled": 0, "fusion_lat": 0.0, "name": "cc015431f246a6e98de32a38236f8b5e", "fusion_lon": 0.0}, {"is_reserved": 0, "type": "electric_scooter", "bike_id": "50f7475d75e480a21ab7e307d4019179", "lat": 38.90872683333333, "lon": -77.03469166666666, "rental_uris": {"android": "https://dc.lft.to/lastmile_qr_scan", "ios": "https://dc.lft.to/lastmile_qr_scan"}, "is_disabled": 0, "fusion_lat": 0.0, "name": "50f7475d75e480a21ab7e307d4019179", "fusion_lon": 0.0}, {"is_reserved": 0, "type": "electric_scooter", "bike_id": "a7ad10f8a9d2f06c9075e88327ed7282", "lat": 38.901582833333336, "lon": -77.041652, "rental_uris": {"android": "https://dc.lft.to/lastmile_qr_scan", "ios": "https://dc.lft.to/lastmile_qr_scan"}, "is_disabled": 0, "fusion_lat": 0.0, "name": "a7ad10f8a9d2f06c9075e88327ed7282", "fusion_lon": 0.0}, {"is_reserved": 0, "type": "electric_scooter", "bike_id": "c06027907d1c64aff6e9e13ebf4010f7", "lat": 38.89742716666667, "lon": -77.02005466666667, "rental_uris": {"android": "https://dc.lft.to/lastmile_qr_scan", "ios": "https://dc.lft.to/lastmile_qr_scan"}, "is_disabled": 0, "fusion_lat": 0.0, "name": "c06027907d1c64aff6e9e13ebf4010f7", "fusion_lon": 0.0}, {"is_reserved": 0, "type": "electric_scooter", "bike_id": "2475a27b51cd378fe6d38f7a809bd42c", "lat": 38.88389016666667, "lon": -76.93040816666667, "rental_uris": {"android": "https://dc.lft.to/lastmile_qr_scan", "ios": "https://dc.lft.to/lastmile_qr_scan"}, "is_disabled": 0, "fusion_lat": 0.0, "name": "2475a27b51cd378fe6d38f7a809bd42c", "fusion_lon": 0.0}, {"is_reserved": 0, "type": "electric_scooter", "bike_id": "67f0682d88fdd873f01fd4bedabed67a", "lat": 38.932117, "lon": -77.038935, "rental_uris": {"android": "https://dc.lft.to/lastmile_qr_scan", "ios": "https://dc.lft.to/lastmile_qr_scan"}, "is_disabled": 0, "fusion_lat": 0.0, "name": "67f0682d88fdd873f01fd4bedabed67a", "fusion_lon": 0.0}, {"is_reserved": 0, "type": "electric_bike", "bike_id": "5b1f315310e352a7898d22e7dac0b67b", "lat": 38.884188, "lon": -76.95759733333334, "rental_uris": {"android": "https://dc.lft.to/lastmile_qr_scan", "ios": "https://dc.lft.to/lastmile_qr_scan"}, "is_disabled": 0, "fusion_lat": 0.0, "name": "5b1f315310e352a7898d22e7dac0b67b", "fusion_lon": 0.0}, {"is_reserved": 0, "type": "electric_scooter", "bike_id": "119086f1cb78ed9a5ac37ec98ab0a1cc", "lat": 38.896041833333335, "lon": -77.03342083333334, "rental_uris": {"android": "https://dc.lft.to/lastmile_qr_scan", "ios": "https://dc.lft.to/lastmile_qr_scan"}, "is_disabled": 0, "fusion_lat": 0.0, "name": "119086f1cb78ed9a5ac37ec98ab0a1cc", "fusion_lon": 0.0}, {"is_reserved": 0, "type": "electric_scooter", "bike_id": "082f66388e88d19bfc67a333648fd325", "lat": 38.88326833333333, "lon": -77.00952816666667, "rental_uris": {"android": "https://dc.lft.to/lastmile_qr_scan", "ios": "https://dc.lft.to/lastmile_qr_scan"}, "is_disabled": 0, "fusion_lat": 0.0, "name": "082f66388e88d19bfc67a333648fd325", "fusion_lon": 0.0}, {"is_reserved": 0, "type": "electric_scooter", "bike_id": "4030e8d96cd25330846aa3a73a88ef6a", "lat": 38.90178183333333, "lon": -77.00346033333334, "rental_uris": {"android": "https://dc.lft.to/lastmile_qr_scan", "ios": "https://dc.lft.to/lastmile_qr_scan"}, "is_disabled": 0, "fusion_lat": 0.0, "name": "4030e8d96cd25330846aa3a73a88ef6a", "fusion_lon": 0.0}, {"is_reserved": 0, "type": "electric_scooter", "bike_id": "a31877ec76c88be8094790608ac3b5af", "lat": 38.93718616666666, "lon": -77.03261166666667, "rental_uris": {"android": "https://dc.lft.to/lastmile_qr_scan", "ios": "https://dc.lft.to/lastmile_qr_scan"}, "is_disabled": 0, "fusion_lat": 0.0, "name": "a31877ec76c88be8094790608ac3b5af", "fusion_lon": 0.0}, {"is_reserved": 0, "type": "electric_scooter", "bike_id": "80e2687e4fb037a6a4d8d5d4454fcb2c", "lat": 38.918149666666665, "lon": -77.03251283333333, "rental_uris": {"android": "https://dc.lft.to/lastmile_qr_scan", "ios": "https://dc.lft.to/lastmile_qr_scan"}, "is_disabled": 0, "fusion_lat": 0.0, "name": "80e2687e4fb037a6a4d8d5d4454fcb2c", "fusion_lon": 0.0}, {"is_reserved": 0, "type": "electric_scooter", "bike_id": "254f6847ed7c3a954f8efe982c9516ae", "lat": 38.96410633333333, "lon": -77.03278366666666, "rental_uris": {"android": "https://dc.lft.to/lastmile_qr_scan", "ios": "https://dc.lft.to/lastmile_qr_scan"}, "is_disabled": 0, "fusion_lat": 0.0, "name": "254f6847ed7c3a954f8efe982c9516ae", "fusion_lon": 0.0}, {"is_reserved": 0, "type": "electric_scooter", "bike_id": "2e39dd763277f8387a4fbecb48b16fa6", "lat": 38.920753, "lon": -77.04546983333333, "rental_uris": {"android": "https://dc.lft.to/lastmile_qr_scan", "ios": "https://dc.lft.to/lastmile_qr_scan"}, "is_disabled": 0, "fusion_lat": 0.0, "name": "2e39dd763277f8387a4fbecb48b16fa6", "fusion_lon": 0.0}, {"is_reserved": 0, "type": "electric_bike", "bike_id": "73a8856bddc7af52a02c9a4fbb08f4c6", "lat": 38.78406016666667, "lon": -77.12047633333333, "rental_uris": {"android": "https://dc.lft.to/lastmile_qr_scan", "ios": "https://dc.lft.to/lastmile_qr_scan"}, "is_disabled": 0, "fusion_lat": 0.0, "name": "73a8856bddc7af52a02c9a4fbb08f4c6", "fusion_lon": 0.0}, {"is_reserved": 0, "type": "electric_scooter", "bike_id": "2cfc6d9db5779a56bb18116ffbbb0204", "lat": 38.92494683333334, "lon": -77.0521565, "rental_uris": {"android": "https://dc.lft.to/lastmile_qr_scan", "ios": "https://dc.lft.to/lastmile_qr_scan"}, "is_disabled": 0, "fusion_lat": 0.0, "name": "2cfc6d9db5779a56bb18116ffbbb0204", "fusion_lon": 0.0}, {"is_reserved": 0, "type": "electric_scooter", "bike_id": "6163116ad65824d66a6a1be63c8fdd84", "lat": 38.900119333333336, "lon": -76.99630433333333, "rental_uris": {"android": "https://dc.lft.to/lastmile_qr_scan", "ios": "https://dc.lft.to/lastmile_qr_scan"}, "is_disabled": 0, "fusion_lat": 0.0, "name": "6163116ad65824d66a6a1be63c8fdd84", "fusion_lon": 0.0}, {"is_reserved": 0, "type": "electric_scooter", "bike_id": "5d10f0ee4300906d772d3d83b68560ac", "lat": 38.9001225, "lon": -76.99625766666666, "rental_uris": {"android": "https://dc.lft.to/lastmile_qr_scan", "ios": "https://dc.lft.to/lastmile_qr_scan"}, "is_disabled": 0, "fusion_lat": 0.0, "name": "5d10f0ee4300906d772d3d83b68560ac", "fusion_lon": 0.0}, {"is_reserved": 0, "type": "electric_scooter", "bike_id": "3e17416babc8e7bca6e89966cfe15cf9", "lat": 38.917108166666665, "lon": -77.02883516666667, "rental_uris": {"android": "https://dc.lft.to/lastmile_qr_scan", "ios": "https://dc.lft.to/lastmile_qr_scan"}, "is_disabled": 0, "fusion_lat": 0.0, "name": "3e17416babc8e7bca6e89966cfe15cf9", "fusion_lon": 0.0}, {"is_reserved": 0, "type": "electric_scooter", "bike_id": "48e705e07b6a4b5f901794aa8e7ca374", "lat": 38.95625016666666, "lon": -77.02783183333334, "rental_uris": {"android": "https://dc.lft.to/lastmile_qr_scan", "ios": "https://dc.lft.to/lastmile_qr_scan"}, "is_disabled": 0, "fusion_lat": 0.0, "name": "48e705e07b6a4b5f901794aa8e7ca374", "fusion_lon": 0.0}, {"is_reserved": 0, "type": "electric_scooter", "bike_id": "2b6a3b4a0e4625f10d2b6b2313023b29", "lat": 38.91811, "lon": -77.03304233333333, "rental_uris": {"android": "https://dc.lft.to/lastmile_qr_scan", "ios": "https://dc.lft.to/lastmile_qr_scan"}, "is_disabled": 0, "fusion_lat": 0.0, "name": "2b6a3b4a0e4625f10d2b6b2313023b29", "fusion_lon": 0.0}, {"is_reserved": 0, "type": "electric_scooter", "bike_id": "54523a48a38e14d4514bfa71e961be08", "lat": 38.894967, "lon": -77.00206866666667, "rental_uris": {"android": "https://dc.lft.to/lastmile_qr_scan", "ios": "https://dc.lft.to/lastmile_qr_scan"}, "is_disabled": 0, "fusion_lat": 0.0, "name": "54523a48a38e14d4514bfa71e961be08", "fusion_lon": 0.0}, {"is_reserved": 0, "type": "electric_scooter", "bike_id": "d1130c1f0dd85a155f1b89f382acf4b7", "lat": 38.93553216666667, "lon": -77.02212516666667, "rental_uris": {"android": "https://dc.lft.to/lastmile_qr_scan", "ios": "https://dc.lft.to/lastmile_qr_scan"}, "is_disabled": 0, "fusion_lat": 0.0, "name": "d1130c1f0dd85a155f1b89f382acf4b7", "fusion_lon": 0.0}, {"is_reserved": 0, "type": "electric_scooter", "bike_id": "5d683eca1a7014d246b12a3004bca989", "lat": 38.92447533333333, "lon": -77.0440215, "rental_uris": {"android": "https://dc.lft.to/lastmile_qr_scan", "ios": "https://dc.lft.to/lastmile_qr_scan"}, "is_disabled": 0, "fusion_lat": 0.0, "name": "5d683eca1a7014d246b12a3004bca989", "fusion_lon": 0.0}, {"is_reserved": 0, "type": "electric_scooter", "bike_id": "d267fa8b0f88a3299b45407c833f9364", "lat": 38.908745833333334, "lon": -77.023548, "rental_uris": {"android": "https://dc.lft.to/lastmile_qr_scan", "ios": "https://dc.lft.to/lastmile_qr_scan"}, "is_disabled": 0, "fusion_lat": 0.0, "name": "d267fa8b0f88a3299b45407c833f9364", "fusion_lon": 0.0}, {"is_reserved": 0, "type": "electric_scooter", "bike_id": "82f5ead11355a66532b4f308e5cfe178", "lat": 38.926597666666666, "lon": -77.0370705, "rental_uris": {"android": "https://dc.lft.to/lastmile_qr_scan", "ios": "https://dc.lft.to/lastmile_qr_scan"}, "is_disabled": 0, "fusion_lat": 0.0, "name": "82f5ead11355a66532b4f308e5cfe178", "fusion_lon": 0.0}, {"is_reserved": 0, "type": "electric_scooter", "bike_id": "48de20f8cda653d6894d3f7944efccbc", "lat": 38.915008, "lon": -77.01224733333333, "rental_uris": {"android": "https://dc.lft.to/lastmile_qr_scan", "ios": "https://dc.lft.to/lastmile_qr_scan"}, "is_disabled": 0, "fusion_lat": 0.0, "name": "48de20f8cda653d6894d3f7944efccbc", "fusion_lon": 0.0}, {"is_reserved": 0, "type": "electric_bike", "bike_id": "d176421617dce7369f11254fdc75b197", "lat": 38.803862, "lon": -76.98813366666667, "rental_uris": {"android": "https://dc.lft.to/lastmile_qr_scan", "ios": "https://dc.lft.to/lastmile_qr_scan"}, "is_disabled": 0, "fusion_lat": 0.0, "name": "d176421617dce7369f11254fdc75b197", "fusion_lon": 0.0}, {"is_reserved": 0, "type": "electric_scooter", "bike_id": "2050034f6cf1d143fc67dab67aa80764", "lat": 38.9222105, "lon": -77.02287016666666, "rental_uris": {"android": "https://dc.lft.to/lastmile_qr_scan", "ios": "https://dc.lft.to/lastmile_qr_scan"}, "is_disabled": 0, "fusion_lat": 0.0, "name": "2050034f6cf1d143fc67dab67aa80764", "fusion_lon": 0.0}, {"is_reserved": 0, "type": "electric_scooter", "bike_id": "7622bda00ef9a7488253d8128ed39a77", "lat": 38.876571, "lon": -77.00754333333333, "rental_uris": {"android": "https://dc.lft.to/lastmile_qr_scan", "ios": "https://dc.lft.to/lastmile_qr_scan"}, "is_disabled": 0, "fusion_lat": 0.0, "name": "7622bda00ef9a7488253d8128ed39a77", "fusion_lon": 0.0}, {"is_reserved": 0, "type": "electric_bike", "bike_id": "96d4839631391093756cfec8292a84a7", "lat": 38.922811833333334, "lon": -77.05355866666666, "rental_uris": {"android": "https://dc.lft.to/lastmile_qr_scan", "ios": "https://dc.lft.to/lastmile_qr_scan"}, "is_disabled": 0, "fusion_lat": 0.0, "name": "96d4839631391093756cfec8292a84a7", "fusion_lon": 0.0}, {"is_reserved": 0, "type": "electric_scooter", "bike_id": "2bf39024cca467f58deac6d416fcea50", "lat": 38.89796716666667, "lon": -77.05018216666667, "rental_uris": {"android": "https://dc.lft.to/lastmile_qr_scan", "ios": "https://dc.lft.to/lastmile_qr_scan"}, "is_disabled": 0, "fusion_lat": 0.0, "name": "2bf39024cca467f58deac6d416fcea50", "fusion_lon": 0.0}, {"is_reserved": 0, "type": "electric_scooter", "bike_id": "0ff6b4136b94a7d4662127e7415e867e", "lat": 38.9039825, "lon": -77.047258, "rental_uris": {"android": "https://dc.lft.to/lastmile_qr_scan", "ios": "https://dc.lft.to/lastmile_qr_scan"}, "is_disabled": 0, "fusion_lat": 0.0, "name": "0ff6b4136b94a7d4662127e7415e867e", "fusion_lon": 0.0}, {"is_reserved": 0, "type": "electric_scooter", "bike_id": "2cd42e1bbcef7676132ce3bb75176a9f", "lat": 38.906112666666665, "lon": -77.0630175, "rental_uris": {"android": "https://dc.lft.to/lastmile_qr_scan", "ios": "https://dc.lft.to/lastmile_qr_scan"}, "is_disabled": 0, "fusion_lat": 0.0, "name": "2cd42e1bbcef7676132ce3bb75176a9f", "fusion_lon": 0.0}, {"is_reserved": 0, "type": "electric_scooter", "bike_id": "da96625ed732c4dede0d96de7cd77bb5", "lat": 38.86689716666667, "lon": -76.9789275, "rental_uris": {"android": "https://dc.lft.to/lastmile_qr_scan", "ios": "https://dc.lft.to/lastmile_qr_scan"}, "is_disabled": 0, "fusion_lat": 0.0, "name": "da96625ed732c4dede0d96de7cd77bb5", "fusion_lon": 0.0}, {"is_reserved": 0, "type": "electric_scooter", "bike_id": "ecc6bee9254af99468a032b74530d7d3", "lat": 38.89258533333334, "lon": -76.92765833333333, "rental_uris": {"android": "https://dc.lft.to/lastmile_qr_scan", "ios": "https://dc.lft.to/lastmile_qr_scan"}, "is_disabled": 0, "fusion_lat": 0.0, "name": "ecc6bee9254af99468a032b74530d7d3", "fusion_lon": 0.0}, {"is_reserved": 0, "type": "electric_scooter", "bike_id": "d5e8a257e8b28047184a0e876784640c", "lat": 38.894616, "lon": -77.01897933333333, "rental_uris": {"android": "https://dc.lft.to/lastmile_qr_scan", "ios": "https://dc.lft.to/lastmile_qr_scan"}, "is_disabled": 0, "fusion_lat": 0.0, "name": "d5e8a257e8b28047184a0e876784640c", "fusion_lon": 0.0}, {"is_reserved": 0, "type": "electric_scooter", "bike_id": "26a811699ceb5cf6cadf6debdd6da799", "lat": 38.8836905, "lon": -76.941442, "rental_uris": {"android": "https://dc.lft.to/lastmile_qr_scan", "ios": "https://dc.lft.to/lastmile_qr_scan"}, "is_disabled": 0, "fusion_lat": 0.0, "name": "26a811699ceb5cf6cadf6debdd6da799", "fusion_lon": 0.0}, {"is_reserved": 0, "type": "electric_scooter", "bike_id": "660846a31a7de97449745e317c8ab277", "lat": 38.917361166666666, "lon": -77.036631, "rental_uris": {"android": "https://dc.lft.to/lastmile_qr_scan", "ios": "https://dc.lft.to/lastmile_qr_scan"}, "is_disabled": 0, "fusion_lat": 0.0, "name": "660846a31a7de97449745e317c8ab277", "fusion_lon": 0.0}, {"is_reserved": 0, "type": "electric_scooter", "bike_id": "35d1203ce92d199158d26aee4b3f4211", "lat": 38.91415666666666, "lon": -77.03139966666667, "rental_uris": {"android": "https://dc.lft.to/lastmile_qr_scan", "ios": "https://dc.lft.to/lastmile_qr_scan"}, "is_disabled": 0, "fusion_lat": 0.0, "name": "35d1203ce92d199158d26aee4b3f4211", "fusion_lon": 0.0}, {"is_reserved": 0, "type": "electric_bike", "bike_id": "24c631edf319d47cfac43d0365fa47b3", "lat": 38.8067415, "lon": -77.08761283333334, "rental_uris": {"android": "https://dc.lft.to/lastmile_qr_scan", "ios": "https://dc.lft.to/lastmile_qr_scan"}, "is_disabled": 0, "fusion_lat": 0.0, "name": "24c631edf319d47cfac43d0365fa47b3", "fusion_lon": 0.0}, {"is_reserved": 0, "type": "electric_bike", "bike_id": "04589a1329043fd41116553e5b76a77d", "lat": 38.872124666666664, "lon": -77.11736933333333, "rental_uris": {"android": "https://dc.lft.to/lastmile_qr_scan", "ios": "https://dc.lft.to/lastmile_qr_scan"}, "is_disabled": 0, "fusion_lat": 0.0, "name": "04589a1329043fd41116553e5b76a77d", "fusion_lon": 0.0}, {"is_reserved": 0, "type": "electric_scooter", "bike_id": "1f93fb9d05831209b29e44e8e19752ba", "lat": 38.910860666666665, "lon": -77.0218615, "rental_uris": {"android": "https://dc.lft.to/lastmile_qr_scan", "ios": "https://dc.lft.to/lastmile_qr_scan"}, "is_disabled": 0, "fusion_lat": 0.0, "name": "1f93fb9d05831209b29e44e8e19752ba", "fusion_lon": 0.0}, {"is_reserved": 0, "type": "electric_scooter", "bike_id": "78d1b3e0087e79861b543cdc9d81972d", "lat": 38.92137233333333, "lon": -77.04709316666667, "rental_uris": {"android": "https://dc.lft.to/lastmile_qr_scan", "ios": "https://dc.lft.to/lastmile_qr_scan"}, "is_disabled": 0, "fusion_lat": 0.0, "name": "78d1b3e0087e79861b543cdc9d81972d", "fusion_lon": 0.0}, {"is_reserved": 0, "type": "electric_scooter", "bike_id": "38061c5c8adb682e8fb1cd7b1f6744ff", "lat": 38.92124066666667, "lon": -77.01208166666666, "rental_uris": {"android": "https://dc.lft.to/lastmile_qr_scan", "ios": "https://dc.lft.to/lastmile_qr_scan"}, "is_disabled": 0, "fusion_lat": 0.0, "name": "38061c5c8adb682e8fb1cd7b1f6744ff", "fusion_lon": 0.0}, {"is_reserved": 0, "type": "electric_scooter", "bike_id": "976de9d459e5945581b8bef070098316", "lat": 38.9047025, "lon": -77.034554, "rental_uris": {"android": "https://dc.lft.to/lastmile_qr_scan", "ios": "https://dc.lft.to/lastmile_qr_scan"}, "is_disabled": 0, "fusion_lat": 0.0, "name": "976de9d459e5945581b8bef070098316", "fusion_lon": 0.0}, {"is_reserved": 0, "type": "electric_scooter", "bike_id": "d4a142332603ebe068689cbb4e8ec8e2", "lat": 38.91963716666667, "lon": -77.01440616666666, "rental_uris": {"android": "https://dc.lft.to/lastmile_qr_scan", "ios": "https://dc.lft.to/lastmile_qr_scan"}, "is_disabled": 0, "fusion_lat": 0.0, "name": "d4a142332603ebe068689cbb4e8ec8e2", "fusion_lon": 0.0}, {"is_reserved": 0, "type": "electric_scooter", "bike_id": "766c3449f5027e0d3a620cec3d27c6ab", "lat": 38.90053783333333, "lon": -77.043306, "rental_uris": {"android": "https://dc.lft.to/lastmile_qr_scan", "ios": "https://dc.lft.to/lastmile_qr_scan"}, "is_disabled": 0, "fusion_lat": 0.0, "name": "766c3449f5027e0d3a620cec3d27c6ab", "fusion_lon": 0.0}, {"is_reserved": 0, "type": "electric_bike", "bike_id": "cdf66d8634e9a5e35ce64e8d8e8d9742", "lat": 38.903198, "lon": -76.99129166666667, "rental_uris": {"android": "https://dc.lft.to/lastmile_qr_scan", "ios": "https://dc.lft.to/lastmile_qr_scan"}, "is_disabled": 0, "fusion_lat": 0.0, "name": "cdf66d8634e9a5e35ce64e8d8e8d9742", "fusion_lon": 0.0}, {"is_reserved": 0, "type": "electric_bike", "bike_id": "4d923aff8ce4f8189df23412c35a5e86", "lat": 38.855993166666664, "lon": -76.97453816666666, "rental_uris": {"android": "https://dc.lft.to/lastmile_qr_scan", "ios": "https://dc.lft.to/lastmile_qr_scan"}, "is_disabled": 0, "fusion_lat": 0.0, "name": "4d923aff8ce4f8189df23412c35a5e86", "fusion_lon": 0.0}, {"is_reserved": 0, "type": "electric_scooter", "bike_id": "2a500e4e245fc02c6d0bac938ab1875a", "lat": 38.90500266666667, "lon": -76.98869483333333, "rental_uris": {"android": "https://dc.lft.to/lastmile_qr_scan", "ios": "https://dc.lft.to/lastmile_qr_scan"}, "is_disabled": 0, "fusion_lat": 0.0, "name": "2a500e4e245fc02c6d0bac938ab1875a", "fusion_lon": 0.0}, {"is_reserved": 0, "type": "electric_scooter", "bike_id": "8dae299c65016e6d295f52986248fe5b", "lat": 38.9552215, "lon": -77.02402966666666, "rental_uris": {"android": "https://dc.lft.to/lastmile_qr_scan", "ios": "https://dc.lft.to/lastmile_qr_scan"}, "is_disabled": 0, "fusion_lat": 0.0, "name": "8dae299c65016e6d295f52986248fe5b", "fusion_lon": 0.0}, {"is_reserved": 0, "type": "electric_scooter", "bike_id": "f6294b3c9def986d9b7ef51c087a1df5", "lat": 38.904559, "lon": -77.02589033333334, "rental_uris": {"android": "https://dc.lft.to/lastmile_qr_scan", "ios": "https://dc.lft.to/lastmile_qr_scan"}, "is_disabled": 0, "fusion_lat": 0.0, "name": "f6294b3c9def986d9b7ef51c087a1df5", "fusion_lon": 0.0}, {"is_reserved": 0, "type": "electric_scooter", "bike_id": "94146054227a584f849200b4646f3d9b", "lat": 38.916761, "lon": -77.02976, "rental_uris": {"android": "https://dc.lft.to/lastmile_qr_scan", "ios": "https://dc.lft.to/lastmile_qr_scan"}, "is_disabled": 0, "fusion_lat": 0.0, "name": "94146054227a584f849200b4646f3d9b", "fusion_lon": 0.0}, {"is_reserved": 0, "type": "electric_bike", "bike_id": "616b2944d3e2ba95bcbac15461f39fca", "lat": 38.94325366666666, "lon": -76.99017583333334, "rental_uris": {"android": "https://dc.lft.to/lastmile_qr_scan", "ios": "https://dc.lft.to/lastmile_qr_scan"}, "is_disabled": 0, "fusion_lat": 0.0, "name": "616b2944d3e2ba95bcbac15461f39fca", "fusion_lon": 0.0}, {"is_reserved": 0, "type": "electric_scooter", "bike_id": "171cd0e81a5b3c35cd656116541dfef3", "lat": 38.905921166666666, "lon": -77.03628133333333, "rental_uris": {"android": "https://dc.lft.to/lastmile_qr_scan", "ios": "https://dc.lft.to/lastmile_qr_scan"}, "is_disabled": 0, "fusion_lat": 0.0, "name": "171cd0e81a5b3c35cd656116541dfef3", "fusion_lon": 0.0}, {"is_reserved": 0, "type": "electric_bike", "bike_id": "9cfe43cc4422dea860b4ef791306eb12", "lat": 38.8578505, "lon": -76.9875805, "rental_uris": {"android": "https://dc.lft.to/lastmile_qr_scan", "ios": "https://dc.lft.to/lastmile_qr_scan"}, "is_disabled": 0, "fusion_lat": 0.0, "name": "9cfe43cc4422dea860b4ef791306eb12", "fusion_lon": 0.0}, {"is_reserved": 0, "type": "electric_scooter", "bike_id": "a9be154fd3473b6ac0f6f0a29a92a907", "lat": 38.89862733333333, "lon": -76.9775715, "rental_uris": {"android": "https://dc.lft.to/lastmile_qr_scan", "ios": "https://dc.lft.to/lastmile_qr_scan"}, "is_disabled": 0, "fusion_lat": 0.0, "name": "a9be154fd3473b6ac0f6f0a29a92a907", "fusion_lon": 0.0}, {"is_reserved": 0, "type": "electric_bike", "bike_id": "9779257a87c9ab70d5a8a79228f247b4", "lat": 39.00031233333333, "lon": -77.04740733333334, "rental_uris": {"android": "https://dc.lft.to/lastmile_qr_scan", "ios": "https://dc.lft.to/lastmile_qr_scan"}, "is_disabled": 0, "fusion_lat": 0.0, "name": "9779257a87c9ab70d5a8a79228f247b4", "fusion_lon": 0.0}, {"is_reserved": 0, "type": "electric_scooter", "bike_id": "7bfbf89d8d7b317e04d25e52d223bb93", "lat": 38.905729666666666, "lon": -77.005927, "rental_uris": {"android": "https://dc.lft.to/lastmile_qr_scan", "ios": "https://dc.lft.to/lastmile_qr_scan"}, "is_disabled": 0, "fusion_lat": 0.0, "name": "7bfbf89d8d7b317e04d25e52d223bb93", "fusion_lon": 0.0}, {"is_reserved": 0, "type": "electric_scooter", "bike_id": "7ebc4092043c4b7883e04a17275ea0fb", "lat": 38.8637875, "lon": -76.99060033333333, "rental_uris": {"android": "https://dc.lft.to/lastmile_qr_scan", "ios": "https://dc.lft.to/lastmile_qr_scan"}, "is_disabled": 0, "fusion_lat": 0.0, "name": "7ebc4092043c4b7883e04a17275ea0fb", "fusion_lon": 0.0}, {"is_reserved": 0, "type": "electric_scooter", "bike_id": "c3e89bc458c73b0e8fed65fc5cea86ed", "lat": 38.924615, "lon": -77.05225033333333, "rental_uris": {"android": "https://dc.lft.to/lastmile_qr_scan", "ios": "https://dc.lft.to/lastmile_qr_scan"}, "is_disabled": 0, "fusion_lat": 0.0, "name": "c3e89bc458c73b0e8fed65fc5cea86ed", "fusion_lon": 0.0}, {"is_reserved": 0, "type": "electric_scooter", "bike_id": "32f7ee75c1b8b3531c258ab53a3e8266", "lat": 38.9274925, "lon": -77.03304566666667, "rental_uris": {"android": "https://dc.lft.to/lastmile_qr_scan", "ios": "https://dc.lft.to/lastmile_qr_scan"}, "is_disabled": 0, "fusion_lat": 0.0, "name": "32f7ee75c1b8b3531c258ab53a3e8266", "fusion_lon": 0.0}, {"is_reserved": 0, "type": "electric_scooter", "bike_id": "87bf340c0b12e0bdc05582ddeb22a075", "lat": 38.928252, "lon": -77.05439983333333, "rental_uris": {"android": "https://dc.lft.to/lastmile_qr_scan", "ios": "https://dc.lft.to/lastmile_qr_scan"}, "is_disabled": 0, "fusion_lat": 0.0, "name": "87bf340c0b12e0bdc05582ddeb22a075", "fusion_lon": 0.0}, {"is_reserved": 0, "type": "electric_scooter", "bike_id": "1060d8e7e178e6de78151565fc1ae262", "lat": 38.91836983333334, "lon": -77.0147465, "rental_uris": {"android": "https://dc.lft.to/lastmile_qr_scan", "ios": "https://dc.lft.to/lastmile_qr_scan"}, "is_disabled": 0, "fusion_lat": 0.0, "name": "1060d8e7e178e6de78151565fc1ae262", "fusion_lon": 0.0}, {"is_reserved": 0, "type": "electric_scooter", "bike_id": "630722c665c199e13dc2ae04625c232f", "lat": 38.899342833333336, "lon": -76.97707383333334, "rental_uris": {"android": "https://dc.lft.to/lastmile_qr_scan", "ios": "https://dc.lft.to/lastmile_qr_scan"}, "is_disabled": 0, "fusion_lat": 0.0, "name": "630722c665c199e13dc2ae04625c232f", "fusion_lon": 0.0}, {"is_reserved": 0, "type": "electric_scooter", "bike_id": "cd4f78fcc28c8a9e492e6977a3492c23", "lat": 38.9100495, "lon": -77.0319835, "rental_uris": {"android": "https://dc.lft.to/lastmile_qr_scan", "ios": "https://dc.lft.to/lastmile_qr_scan"}, "is_disabled": 0, "fusion_lat": 0.0, "name": "cd4f78fcc28c8a9e492e6977a3492c23", "fusion_lon": 0.0}, {"is_reserved": 0, "type": "electric_scooter", "bike_id": "1b52225fd7fbd32cee94aca8444f0c7c", "lat": 38.892291666666665, "lon": -77.04354216666667, "rental_uris": {"android": "https://dc.lft.to/lastmile_qr_scan", "ios": "https://dc.lft.to/lastmile_qr_scan"}, "is_disabled": 0, "fusion_lat": 0.0, "name": "1b52225fd7fbd32cee94aca8444f0c7c", "fusion_lon": 0.0}, {"is_reserved": 0, "type": "electric_scooter", "bike_id": "3558a136aaa57e69908679e00457af89", "lat": 38.92819766666667, "lon": -77.05429916666667, "rental_uris": {"android": "https://dc.lft.to/lastmile_qr_scan", "ios": "https://dc.lft.to/lastmile_qr_scan"}, "is_disabled": 0, "fusion_lat": 0.0, "name": "3558a136aaa57e69908679e00457af89", "fusion_lon": 0.0}, {"is_reserved": 0, "type": "electric_scooter", "bike_id": "4b9c2bf681a5094041c2b4905dc1bda8", "lat": 38.930828, "lon": -77.02792616666666, "rental_uris": {"android": "https://dc.lft.to/lastmile_qr_scan", "ios": "https://dc.lft.to/lastmile_qr_scan"}, "is_disabled": 0, "fusion_lat": 0.0, "name": "4b9c2bf681a5094041c2b4905dc1bda8", "fusion_lon": 0.0}, {"is_reserved": 0, "type": "electric_scooter", "bike_id": "e35d25d820df4239a1620f53a48c4cc2", "lat": 38.9538325, "lon": -77.00183716666666, "rental_uris": {"android": "https://dc.lft.to/lastmile_qr_scan", "ios": "https://dc.lft.to/lastmile_qr_scan"}, "is_disabled": 0, "fusion_lat": 0.0, "name": "e35d25d820df4239a1620f53a48c4cc2", "fusion_lon": 0.0}, {"is_reserved": 0, "type": "electric_bike", "bike_id": "0bc446bc10c9d975dc1e7d72d1ac229e", "lat": 38.921347833333336, "lon": -77.0039965, "rental_uris": {"android": "https://dc.lft.to/lastmile_qr_scan", "ios": "https://dc.lft.to/lastmile_qr_scan"}, "is_disabled": 0, "fusion_lat": 0.0, "name": "0bc446bc10c9d975dc1e7d72d1ac229e", "fusion_lon": 0.0}, {"is_reserved": 0, "type": "electric_scooter", "bike_id": "19f8f0f4d5aed285acb6e9da7a7efdd5", "lat": 38.92684033333333, "lon": -77.00871833333333, "rental_uris": {"android": "https://dc.lft.to/lastmile_qr_scan", "ios": "https://dc.lft.to/lastmile_qr_scan"}, "is_disabled": 0, "fusion_lat": 0.0, "name": "19f8f0f4d5aed285acb6e9da7a7efdd5", "fusion_lon": 0.0}, {"is_reserved": 0, "type": "electric_scooter", "bike_id": "20455f38fffcb2f32254d6131b51be68", "lat": 38.9497715, "lon": -77.02443916666667, "rental_uris": {"android": "https://dc.lft.to/lastmile_qr_scan", "ios": "https://dc.lft.to/lastmile_qr_scan"}, "is_disabled": 0, "fusion_lat": 0.0, "name": "20455f38fffcb2f32254d6131b51be68", "fusion_lon": 0.0}, {"is_reserved": 0, "type": "electric_scooter", "bike_id": "2d764c8223e6dda6f27b174c0553eb19", "lat": 38.937216, "lon": -77.032568, "rental_uris": {"android": "https://dc.lft.to/lastmile_qr_scan", "ios": "https://dc.lft.to/lastmile_qr_scan"}, "is_disabled": 0, "fusion_lat": 0.0, "name": "2d764c8223e6dda6f27b174c0553eb19", "fusion_lon": 0.0}, {"is_reserved": 0, "type": "electric_scooter", "bike_id": "a64a55822e7d43d0a794b511dacca454", "lat": 38.90074416666667, "lon": -77.04875783333334, "rental_uris": {"android": "https://dc.lft.to/lastmile_qr_scan", "ios": "https://dc.lft.to/lastmile_qr_scan"}, "is_disabled": 0, "fusion_lat": 0.0, "name": "a64a55822e7d43d0a794b511dacca454", "fusion_lon": 0.0}, {"is_reserved": 0, "type": "electric_scooter", "bike_id": "57252459e54cd9dc7ef881c257b21dc1", "lat": 38.934242833333336, "lon": -77.03901916666666, "rental_uris": {"android": "https://dc.lft.to/lastmile_qr_scan", "ios": "https://dc.lft.to/lastmile_qr_scan"}, "is_disabled": 0, "fusion_lat": 0.0, "name": "57252459e54cd9dc7ef881c257b21dc1", "fusion_lon": 0.0}, {"is_reserved": 0, "type": "electric_scooter", "bike_id": "4c90fb2df4dfa684076fcdded4e67cad", "lat": 38.917037666666666, "lon": -77.02296333333334, "rental_uris": {"android": "https://dc.lft.to/lastmile_qr_scan", "ios": "https://dc.lft.to/lastmile_qr_scan"}, "is_disabled": 0, "fusion_lat": 0.0, "name": "4c90fb2df4dfa684076fcdded4e67cad", "fusion_lon": 0.0}, {"is_reserved": 0, "type": "electric_scooter", "bike_id": "1f982923776da853cd1f95382244e9c8", "lat": 38.88758416666667, "lon": -76.99611083333333, "rental_uris": {"android": "https://dc.lft.to/lastmile_qr_scan", "ios": "https://dc.lft.to/lastmile_qr_scan"}, "is_disabled": 0, "fusion_lat": 0.0, "name": "1f982923776da853cd1f95382244e9c8", "fusion_lon": 0.0}, {"is_reserved": 0, "type": "electric_scooter", "bike_id": "c4106dd712b36732c45a7035a6724b7b", "lat": 38.895294166666666, "lon": -77.0295255, "rental_uris": {"android": "https://dc.lft.to/lastmile_qr_scan", "ios": "https://dc.lft.to/lastmile_qr_scan"}, "is_disabled": 0, "fusion_lat": 0.0, "name": "c4106dd712b36732c45a7035a6724b7b", "fusion_lon": 0.0}, {"is_reserved": 0, "type": "electric_scooter", "bike_id": "ecdf1e37b0a0e2b58bd1142aba8cd67a", "lat": 38.877245333333335, "lon": -77.01761366666666, "rental_uris": {"android": "https://dc.lft.to/lastmile_qr_scan", "ios": "https://dc.lft.to/lastmile_qr_scan"}, "is_disabled": 0, "fusion_lat": 0.0, "name": "ecdf1e37b0a0e2b58bd1142aba8cd67a", "fusion_lon": 0.0}, {"is_reserved": 0, "type": "electric_bike", "bike_id": "b259aa8fc3e9985be2a77b92cf609405", "lat": 38.98832433333333, "lon": -77.02647266666666, "rental_uris": {"android": "https://dc.lft.to/lastmile_qr_scan", "ios": "https://dc.lft.to/lastmile_qr_scan"}, "is_disabled": 0, "fusion_lat": 0.0, "name": "b259aa8fc3e9985be2a77b92cf609405", "fusion_lon": 0.0}, {"is_reserved": 0, "type": "electric_scooter", "bike_id": "1c31cb46ed48f4e5d90ec3cf2b5ac459", "lat": 38.905113166666666, "lon": -77.06041416666666, "rental_uris": {"android": "https://dc.lft.to/lastmile_qr_scan", "ios": "https://dc.lft.to/lastmile_qr_scan"}, "is_disabled": 0, "fusion_lat": 0.0, "name": "1c31cb46ed48f4e5d90ec3cf2b5ac459", "fusion_lon": 0.0}, {"is_reserved": 0, "type": "electric_scooter", "bike_id": "d397fd87817e2bcba8f011c60a4c4164", "lat": 38.9168355, "lon": -77.029721, "rental_uris": {"android": "https://dc.lft.to/lastmile_qr_scan", "ios": "https://dc.lft.to/lastmile_qr_scan"}, "is_disabled": 0, "fusion_lat": 0.0, "name": "d397fd87817e2bcba8f011c60a4c4164", "fusion_lon": 0.0}, {"is_reserved": 0, "type": "electric_scooter", "bike_id": "2176083cab49652111720510c106fa29", "lat": 38.905034, "lon": -77.029455, "rental_uris": {"android": "https://dc.lft.to/lastmile_qr_scan", "ios": "https://dc.lft.to/lastmile_qr_scan"}, "is_disabled": 0, "fusion_lat": 0.0, "name": "2176083cab49652111720510c106fa29", "fusion_lon": 0.0}, {"is_reserved": 0, "type": "electric_scooter", "bike_id": "fc9ea8011bd0d9ada0f60c9e7ee79c60", "lat": 38.927789, "lon": -77.02785633333333, "rental_uris": {"android": "https://dc.lft.to/lastmile_qr_scan", "ios": "https://dc.lft.to/lastmile_qr_scan"}, "is_disabled": 0, "fusion_lat": 0.0, "name": "fc9ea8011bd0d9ada0f60c9e7ee79c60", "fusion_lon": 0.0},