{"data": {"bikes": [{"bike_id": "5777c8fb2e9e91606af3f6a6a54d34a8", "is_reserved": 0, "name": "5777c8fb2e9e91606af3f6a6a54d34a8", "lat": 38.9176165, "fusion_lat": 0.0, "lon": -77.02280183333333, "is_disabled": 0, "fusion_lon": 0.0, "rental_uris": {"android": "https://dc.lft.to/lastmile_qr_scan", "ios": "https://dc.lft.to/lastmile_qr_scan"}, "type": "electric_scooter"}, {"bike_id": "e6e84db393ccd802130698d2ef4791ec", "is_reserved": 0, "name": "e6e84db393ccd802130698d2ef4791ec", "lat": 38.922652166666666, "fusion_lat": 0.0, "lon": -76.99768083333333, "is_disabled": 0, "fusion_lon": 0.0, "rental_uris": {"android": "https://dc.lft.to/lastmile_qr_scan", "ios": "https://dc.lft.to/lastmile_qr_scan"}, "type": "electric_scooter"}, {"bike_id": "c7d4b6260d970f2d27385c97cff04984", "is_reserved": 0, "name": "c7d4b6260d970f2d27385c97cff04984", "lat": 38.93424616666667, "fusion_lat": 0.0, "lon": -77.040001, "is_disabled": 0, "fusion_lon": 0.0, "rental_uris": {"android": "https://dc.lft.to/lastmile_qr_scan", "ios": "https://dc.lft.to/lastmile_qr_scan"}, "type": "electric_scooter"}, {"bike_id": "6f755cc85390afaa3f456c59df87ffa2", "is_reserved": 0, "name": "6f755cc85390afaa3f456c59df87ffa2", "lat": 38.90039016666667, "fusion_lat": 0.0, "lon": -77.01641566666666, "is_disabled": 0, "fusion_lon": 0.0, "rental_uris": {"android": "https://dc.lft.to/lastmile_qr_scan", "ios": "https://dc.lft.to/lastmile_qr_scan"}, "type": "electric_scooter"}, {"bike_id": "ca506a4de2be2ead192b2fa4c575cedd", "is_reserved": 0, "name": "ca506a4de2be2ead192b2fa4c575cedd", "lat": 38.892229666666665, "fusion_lat": 0.0, "lon": -77.02758316666667, "is_disabled": 0, "fusion_lon": 0.0, "rental_uris": {"android": "https://dc.lft.to/lastmile_qr_scan", "ios": "https://dc.lft.to/lastmile_qr_scan"}, "type": "electric_scooter"}, {"bike_id": "c5d666446095b5656588dd776e37c660", "is_reserved": 0, "name": "c5d666446095b5656588dd776e37c660", "lat": 38.901468333333334, "fusion_lat": 0.0, "lon": -77.04431433333333, "is_disabled": 0, "fusion_lon": 0.0, "rental_uris": {"android": "https://dc.lft.to/lastmile_qr_scan", "ios": "https://dc.lft.to/lastmile_qr_scan"}, "type": "electric_scooter"}, {"bike_id": "da150e7c033a2357382d3343d4357cc9", "is_reserved": 0, "name": "da150e7c033a2357382d3343d4357cc9", "lat": 38.9147635, "fusion_lat": 0.0, "lon": -77.02577483333333, "is_disabled": 0, "fusion_lon": 0.0, "rental_uris": {"android": "https://dc.lft.to/lastmile_qr_scan", "ios": "https://dc.lft.to/lastmile_qr_scan"}, "type": "electric_scooter"}, {"bike_id": "d3e00104cf90c9b54e33e94980e14bde", "is_reserved": 0, "name": "d3e00104cf90c9b54e33e94980e14bde", "lat": 38.92347983333333, "fusion_lat": 0.0, "lon": -77.05172966666666, "is_disabled": 0, "fusion_lon": 0.0, "rental_uris": {"android": "https://dc.lft.to/lastmile_qr_scan", "ios": "https://dc.lft.to/lastmile_qr_scan"}, "type": "electric_scooter"}, {"bike_id": "11ad4a5b46f37164a47d0147e09737a0", "is_reserved": 0, "name": "11ad4a5b46f37164a47d0147e09737a0", "lat": 38.9012655, "fusion_lat": 0.0, "lon": -77.016531, "is_disabled": 0, "fusion_lon": 0.0, "rental_uris": {"android": "https://dc.lft.to/lastmile_qr_scan", "ios": "https://dc.lft.to/lastmile_qr_scan"}, "type": "electric_scooter"}, {"bike_id": "c35c763f6793004799b61252ca3c0982", "is_reserved": 0, "name": "c35c763f6793004799b61252ca3c0982", "lat": 38.912115166666666, "fusion_lat": 0.0, "lon": -77.03854316666667, "is_disabled": 0, "fusion_lon": 0.0, "rental_uris": {"android": "https://dc.lft.to/lastmile_qr_scan", "ios": "https://dc.lft.to/lastmile_qr_scan"}, "type": "electric_scooter"}, {"bike_id": "82481e0dfbeacec22c068c67a2b17468", "is_reserved": 0, "name": "82481e0dfbeacec22c068c67a2b17468", "lat": 38.92479, "fusion_lat": 0.0, "lon": -77.02659883333334, "is_disabled": 0, "fusion_lon": 0.0, "rental_uris": {"android": "https://dc.lft.to/lastmile_qr_scan", "ios": "https://dc.lft.to/lastmile_qr_scan"}, "type": "electric_scooter"}, {"bike_id": "e2d2321be2ed285175623afcecd1d53c", "is_reserved": 0, "name": "e2d2321be2ed285175623afcecd1d53c", "lat": 38.892249166666666, "fusion_lat": 0.0, "lon": -77.02642783333333, "is_disabled": 0, "fusion_lon": 0.0, "rental_uris": {"android": "https://dc.lft.to/lastmile_qr_scan", "ios": "https://dc.lft.to/lastmile_qr_scan"}, "type": "electric_scooter"}, {"bike_id": "a01018220426d37c5732c1c66ff4a987", "is_reserved": 0, "name": "a01018220426d37c5732c1c66ff4a987", "lat": 38.903664, "fusion_lat": 0.0, "lon": -77.00559633333333, "is_disabled": 0, "fusion_lon": 0.0, "rental_uris": {"android": "https://dc.lft.to/lastmile_qr_scan", "ios": "https://dc.lft.to/lastmile_qr_scan"}, "type": "electric_scooter"}, {"bike_id": "5484e482c6217a2c432d9c592eb8542c", "is_reserved": 0, "name": "5484e482c6217a2c432d9c592eb8542c", "lat": 38.9001285, "fusion_lat": 0.0, "lon": -77.0061995, "is_disabled": 0, "fusion_lon": 0.0, "rental_uris": {"android": "https://dc.lft.to/lastmile_qr_scan", "ios": "https://dc.lft.to/lastmile_qr_scan"}, "type": "electric_bike"}, {"bike_id": "1645a6ec842430976654dacd5e8872d7", "is_reserved": 0, "name": "1645a6ec842430976654dacd5e8872d7", "lat": 38.9009745, "fusion_lat": 0.0, "lon": -76.99374133333333, "is_disabled": 0, "fusion_lon": 0.0, "rental_uris": {"android": "https://dc.lft.to/lastmile_qr_scan", "ios": "https://dc.lft.to/lastmile_qr_scan"}, "type": "electric_scooter"}, {"bike_id": "47e9651f6ae293249b6cfe6ed5b5f132", "is_reserved": 0, "name": "47e9651f6ae293249b6cfe6ed5b5f132", "lat": 38.9282285, "fusion_lat": 0.0, "lon": -77.022565, "is_disabled": 0, "fusion_lon": 0.0, "rental_uris": {"android": "https://dc.lft.to/lastmile_qr_scan", "ios": "https://dc.lft.to/lastmile_qr_scan"}, "type": "electric_scooter"}, {"bike_id": "16fc3e198842afb9cb682f3fa0778ebb", "is_reserved": 0, "name": "16fc3e198842afb9cb682f3fa0778ebb", "lat": 38.914805666666666, "fusion_lat": 0.0, "lon": -77.04606816666667, "is_disabled": 0, "fusion_lon": 0.0, "rental_uris": {"android": "https://dc.lft.to/lastmile_qr_scan", "ios": "https://dc.lft.to/lastmile_qr_scan"}, "type": "electric_scooter"}, {"bike_id": "5e27a9bff3bf61fbf074a5380b431a92", "is_reserved": 0, "name": "5e27a9bff3bf61fbf074a5380b431a92", "lat": 38.922581666666666, "fusion_lat": 0.0, "lon": -77.0192145, "is_disabled": 0, "fusion_lon": 0.0, "rental_uris": {"android": "https://dc.lft.to/lastmile_qr_scan", "ios": "https://dc.lft.to/lastmile_qr_scan"}, "type": "electric_scooter"}, {"bike_id": "284b6a95681c886f9bfe44eff2d6b2e4", "is_reserved": 0, "name": "284b6a95681c886f9bfe44eff2d6b2e4", "lat": 38.92608533333333, "fusion_lat": 0.0, "lon": -77.02162866666667, "is_disabled": 0, "fusion_lon": 0.0, "rental_uris": {"android": "https://dc.lft.to/lastmile_qr_scan", "ios": "https://dc.lft.to/lastmile_qr_scan"}, "type": "electric_scooter"}, {"bike_id": "60b115353bb4cbed051c5b3aca9e2444", "is_reserved": 0, "name": "60b115353bb4cbed051c5b3aca9e2444", "lat": 38.9108525, "fusion_lat": 0.0, "lon": -76.984771, "is_disabled": 0, "fusion_lon": 0.0, "rental_uris": {"android": "https://dc.lft.to/lastmile_qr_scan", "ios": "https://dc.lft.to/lastmile_qr_scan"}, "type": "electric_bike"}, {"bike_id": "e2c604b1efc92f4f296d5768b1befc8d", "is_reserved": 0, "name": "e2c604b1efc92f4f296d5768b1befc8d", "lat": 38.89586166666667, "fusion_lat": 0.0, "lon": -76.983152, "is_disabled": 0, "fusion_lon": 0.0, "rental_uris": {"android": "https://dc.lft.to/lastmile_qr_scan", "ios": "https://dc.lft.to/lastmile_qr_scan"}, "type": "electric_scooter"}, {"bike_id": "d727fcf63bb81215db90cea6741970e0", "is_reserved": 0, "name": "d727fcf63bb81215db90cea6741970e0", "lat": 38.9233695, "fusion_lat": 0.0, "lon": -77.05302766666667, "is_disabled": 0, "fusion_lon": 0.0, "rental_uris": {"android": "https://dc.lft.to/lastmile_qr_scan", "ios": "https://dc.lft.to/lastmile_qr_scan"}, "type": "electric_scooter"}, {"bike_id": "1e7dd63ec11361f544b1f99f2211556f", "is_reserved": 0, "name": "1e7dd63ec11361f544b1f99f2211556f", "lat": 38.89593383333333, "fusion_lat": 0.0, "lon": -77.02344916666667, "is_disabled": 0, "fusion_lon": 0.0, "rental_uris": {"android": "https://dc.lft.to/lastmile_qr_scan", "ios": "https://dc.lft.to/lastmile_qr_scan"}, "type": "electric_scooter"}, {"bike_id": "3e0bf806c1547197024d8bc1aa696fe4", "is_reserved": 0, "name": "3e0bf806c1547197024d8bc1aa696fe4", "lat": 38.892691666666664, "fusion_lat": 0.0, "lon": -77.0465595, "is_disabled": 0, "fusion_lon": 0.0, "rental_uris": {"android": "https://dc.lft.to/lastmile_qr_scan", "ios": "https://dc.lft.to/lastmile_qr_scan"}, "type": "electric_scooter"}, {"bike_id": "b5b347f938a5b702e55b6bd9cdccf404", "is_reserved": 0, "name": "b5b347f938a5b702e55b6bd9cdccf404", "lat": 38.9066895, "fusion_lat": 0.0, "lon": -77.026965, "is_disabled": 0, "fusion_lon": 0.0, "rental_uris": {"android": "https://dc.lft.to/lastmile_qr_scan", "ios": "https://dc.lft.to/lastmile_qr_scan"}, "type": "electric_scooter"}, {"bike_id": "b1e829a099321f01c127b52e9da25130", "is_reserved": 0, "name": "b1e829a099321f01c127b52e9da25130", "lat": 38.8757645, "fusion_lat": 0.0, "lon": -77.0054375, "is_disabled": 0, "fusion_lon": 0.0, "rental_uris": {"android": "https://dc.lft.to/lastmile_qr_scan", "ios": "https://dc.lft.to/lastmile_qr_scan"}, "type": "electric_scooter"}, {"bike_id": "12ace3f08b9f5fdb27f2210e88389246", "is_reserved": 0, "name": "12ace3f08b9f5fdb27f2210e88389246", "lat": 38.90141283333333, "fusion_lat": 0.0, "lon": -77.0152985, "is_disabled": 0, "fusion_lon": 0.0, "rental_uris": {"android": "https://dc.lft.to/lastmile_qr_scan", "ios": "https://dc.lft.to/lastmile_qr_scan"}, "type": "electric_scooter"}, {"bike_id": "e632aa14b211717ce715546f20092b44", "is_reserved": 0, "name": "e632aa14b211717ce715546f20092b44", "lat": 38.921007, "fusion_lat": 0.0, "lon": -77.02516033333333, "is_disabled": 0, "fusion_lon": 0.0, "rental_uris": {"android": "https://dc.lft.to/lastmile_qr_scan", "ios": "https://dc.lft.to/lastmile_qr_scan"}, "type": "electric_scooter"}, {"bike_id": "e489081fb6c0a1c68f46623f15a8c765", "is_reserved": 0, "name": "e489081fb6c0a1c68f46623f15a8c765", "lat": 38.94568133333333, "fusion_lat": 0.0, "lon": -77.07957916666666, "is_disabled": 0, "fusion_lon": 0.0, "rental_uris": {"android": "https://dc.lft.to/lastmile_qr_scan", "ios": "https://dc.lft.to/lastmile_qr_scan"}, "type": "electric_scooter"}, {"bike_id": "2e5b21be6819f773614d2dafd01d4dda", "is_reserved": 0, "name": "2e5b21be6819f773614d2dafd01d4dda", "lat": 38.929704666666666, "fusion_lat": 0.0, "lon": -77.02818266666667, "is_disabled": 0, "fusion_lon": 0.0, "rental_uris": {"android": "https://dc.lft.to/lastmile_qr_scan", "ios": "https://dc.lft.to/lastmile_qr_scan"}, "type": "electric_scooter"}, {"bike_id": "8fc365533f04ac363665ce4fe3bde91e", "is_reserved": 0, "name": "8fc365533f04ac363665ce4fe3bde91e", "lat": 38.892264, "fusion_lat": 0.0, "lon": -77.04895466666666, "is_disabled": 0, "fusion_lon": 0.0, "rental_uris": {"android": "https://dc.lft.to/lastmile_qr_scan", "ios": "https://dc.lft.to/lastmile_qr_scan"}, "type": "electric_scooter"}, {"bike_id": "610b597898c249c5cad8a076271cc79b", "is_reserved": 0, "name": "610b597898c249c5cad8a076271cc79b", "lat": 38.874816, "fusion_lat": 0.0, "lon": -77.00594533333333, "is_disabled": 0, "fusion_lon": 0.0, "rental_uris": {"android": "https://dc.lft.to/lastmile_qr_scan", "ios": "https://dc.lft.to/lastmile_qr_scan"}, "type": "electric_scooter"}, {"bike_id": "794d247de35d5488a7f66ecce77a328e", "is_reserved": 0, "name": "794d247de35d5488a7f66ecce77a328e", "lat": 38.9043045, "fusion_lat": 0.0, "lon": -77.0501395, "is_disabled": 0, "fusion_lon": 0.0, "rental_uris": {"android": "https://dc.lft.to/lastmile_qr_scan", "ios": "https://dc.lft.to/lastmile_qr_scan"}, "type": "electric_scooter"}, {"bike_id": "041d508f9be9afee39abb4de07c55cf5", "is_reserved": 0, "name": "041d508f9be9afee39abb4de07c55cf5", "lat": 38.896852, "fusion_lat": 0.0, "lon": -77.012056, "is_disabled": 0, "fusion_lon": 0.0, "rental_uris": {"android": "https://dc.lft.to/lastmile_qr_scan", "ios": "https://dc.lft.to/lastmile_qr_scan"}, "type": "electric_scooter"}, {"bike_id": "2a3889441a2174caa4c36c701652ee9d", "is_reserved": 0, "name": "2a3889441a2174caa4c36c701652ee9d", "lat": 38.961799, "fusion_lat": 0.0, "lon": -77.01434683333333, "is_disabled": 0, "fusion_lon": 0.0, "rental_uris": {"android": "https://dc.lft.to/lastmile_qr_scan", "ios": "https://dc.lft.to/lastmile_qr_scan"}, "type": "electric_scooter"}, {"bike_id": "3262a7c5b183ff5c52767f336eff2843", "is_reserved": 0, "name": "3262a7c5b183ff5c52767f336eff2843", "lat": 38.90048816666667, "fusion_lat": 0.0, "lon": -77.00066783333334, "is_disabled": 0, "fusion_lon": 0.0, "rental_uris": {"android": "https://dc.lft.to/lastmile_qr_scan", "ios": "https://dc.lft.to/lastmile_qr_scan"}, "type": "electric_scooter"}, {"bike_id": "5bba493625d6e8bf1fe9c167b876b125", "is_reserved": 0, "name": "5bba493625d6e8bf1fe9c167b876b125", "lat": 38.904593, "fusion_lat": 0.0, "lon": -77.0282245, "is_disabled": 0, "fusion_lon": 0.0, "rental_uris": {"android": "https://dc.lft.to/lastmile_qr_scan", "ios": "https://dc.lft.to/lastmile_qr_scan"}, "type": "electric_scooter"}, {"bike_id": "b3fbe187f43479d09dc75be319857e20", "is_reserved": 0, "name": "b3fbe187f43479d09dc75be319857e20", "lat": 38.916622, "fusion_lat": 0.0, "lon": -77.02474516666666, "is_disabled": 0, "fusion_lon": 0.0, "rental_uris": {"android": "https://dc.lft.to/lastmile_qr_scan", "ios": "https://dc.lft.to/lastmile_qr_scan"}, "type": "electric_scooter"}, {"bike_id": "a87296fa3abf220cbd97671f86fb77e6", "is_reserved": 0, "name": "a87296fa3abf220cbd97671f86fb77e6", "lat": 38.86982183333333, "fusion_lat": 0.0, "lon": -77.01368033333334, "is_disabled": 0, "fusion_lon": 0.0, "rental_uris": {"android": "https://dc.lft.to/lastmile_qr_scan", "ios": "https://dc.lft.to/lastmile_qr_scan"}, "type": "electric_scooter"}, {"bike_id": "26428b81f66765364ee19d5eb796db11", "is_reserved": 0, "name": "26428b81f66765364ee19d5eb796db11", "lat": 38.93411366666667, "fusion_lat": 0.0, "lon": -77.04305933333333, "is_disabled": 0, "fusion_lon": 0.0, "rental_uris": {"android": "https://dc.lft.to/lastmile_qr_scan", "ios": "https://dc.lft.to/lastmile_qr_scan"}, "type": "electric_bike"}, {"bike_id": "b987c7df96b0fee1d9869624b9c66df3", "is_reserved": 0, "name": "b987c7df96b0fee1d9869624b9c66df3", "lat": 38.8874465, "fusion_lat": 0.0, "lon": -77.02126966666667, "is_disabled": 0, "fusion_lon": 0.0, "rental_uris": {"android": "https://dc.lft.to/lastmile_qr_scan", "ios": "https://dc.lft.to/lastmile_qr_scan"}, "type": "electric_scooter"}, {"bike_id": "4b8e5d63e3057e5479861c6140c9b1e1", "is_reserved": 0, "name": "4b8e5d63e3057e5479861c6140c9b1e1", "lat": 38.89797, "fusion_lat": 0.0, "lon": -77.04891433333333, "is_disabled": 0, "fusion_lon": 0.0, "rental_uris": {"android": "https://dc.lft.to/lastmile_qr_scan", "ios": "https://dc.lft.to/lastmile_qr_scan"}, "type": "electric_scooter"}, {"bike_id": "8e28fde17519873376bf67a97a780a48", "is_reserved": 0, "name": "8e28fde17519873376bf67a97a780a48", "lat": 38.897102333333336, "fusion_lat": 0.0, "lon": -77.02814383333333, "is_disabled": 0, "fusion_lon": 0.0, "rental_uris": {"android": "https://dc.lft.to/lastmile_qr_scan", "ios": "https://dc.lft.to/lastmile_qr_scan"}, "type": "electric_scooter"}, {"bike_id": "a90734cf3f070688654338bc3b6fce37", "is_reserved": 0, "name": "a90734cf3f070688654338bc3b6fce37", "lat": 38.90811466666667, "fusion_lat": 0.0, "lon": -77.03452816666666, "is_disabled": 0, "fusion_lon": 0.0, "rental_uris": {"android": "https://dc.lft.to/lastmile_qr_scan", "ios": "https://dc.lft.to/lastmile_qr_scan"}, "type": "electric_scooter"}, {"bike_id": "6466f5fe306932760600b605a0c4bfd2", "is_reserved": 0, "name": "6466f5fe306932760600b605a0c4bfd2", "lat": 38.903610666666665, "fusion_lat": 0.0, "lon": -77.00740216666667, "is_disabled": 0, "fusion_lon": 0.0, "rental_uris": {"android": "https://dc.lft.to/lastmile_qr_scan", "ios": "https://dc.lft.to/lastmile_qr_scan"}, "type": "electric_scooter"}, {"bike_id": "8d7f859e63d299a8c5cd453d72513292", "is_reserved": 0, "name": "8d7f859e63d299a8c5cd453d72513292", "lat": 38.857209, "fusion_lat": 0.0, "lon": -76.980953, "is_disabled": 0, "fusion_lon": 0.0, "rental_uris": {"android": "https://dc.lft.to/lastmile_qr_scan", "ios": "https://dc.lft.to/lastmile_qr_scan"}, "type": "electric_bike"}, {"bike_id": "daa4ece1d3e42698c29d30cc80a2700e", "is_reserved": 0, "name": "daa4ece1d3e42698c29d30cc80a2700e", "lat": 38.90645716666667, "fusion_lat": 0.0, "lon": -77.0066435, "is_disabled": 0, "fusion_lon": 0.0, "rental_uris": {"android": "https://dc.lft.to/lastmile_qr_scan", "ios": "https://dc.lft.to/lastmile_qr_scan"}, "type": "electric_scooter"}, {"bike_id": "4395c03a032f8b0e0425d4f66018db95", "is_reserved": 0, "name": "4395c03a032f8b0e0425d4f66018db95", "lat": 38.89842633333333, "fusion_lat": 0.0, "lon": -77.0221205, "is_disabled": 0, "fusion_lon": 0.0, "rental_uris": {"android": "https://dc.lft.to/lastmile_qr_scan", "ios": "https://dc.lft.to/lastmile_qr_scan"}, "type": "electric_scooter"}, {"bike_id": "55a6b92c860b19de92d3a00af5c196bc", "is_reserved": 0, "name": "55a6b92c860b19de92d3a00af5c196bc", "lat": 38.912235333333335, "fusion_lat": 0.0, "lon": -77.0659825, "is_disabled": 0, "fusion_lon": 0.0, "rental_uris": {"android": "https://dc.lft.to/lastmile_qr_scan", "ios": "https://dc.lft.to/lastmile_qr_scan"}, "type": "electric_scooter"}, {"bike_id": "e8f7a915a7d0142183a85fb1564021ea", "is_reserved": 0, "name": "e8f7a915a7d0142183a85fb1564021ea", "lat": 38.90892233333334, "fusion_lat": 0.0, "lon": -77.03865866666666, "is_disabled": 0, "fusion_lon": 0.0, "rental_uris": {"android": "https://dc.lft.to/lastmile_qr_scan", "ios": "https://dc.lft.to/lastmile_qr_scan"}, "type": "electric_scooter"}, {"bike_id": "5bcc83988011bf6e6fd5702077c4b300", "is_reserved": 0, "name": "5bcc83988011bf6e6fd5702077c4b300", "lat": 38.89969166666667, "fusion_lat": 0.0, "lon": -77.01615616666666, "is_disabled": 0, "fusion_lon": 0.0, "rental_uris": {"android": "https://dc.lft.to/lastmile_qr_scan", "ios": "https://dc.lft.to/lastmile_qr_scan"}, "type": "electric_scooter"}, {"bike_id": "1d503f35faefc183126178426844d325", "is_reserved": 0, "name": "1d503f35faefc183126178426844d325", "lat": 38.879659, "fusion_lat": 0.0, "lon": -76.9161365, "is_disabled": 0, "fusion_lon": 0.0, "rental_uris": {"android": "https://dc.lft.to/lastmile_qr_scan", "ios": "https://dc.lft.to/lastmile_qr_scan"}, "type": "electric_bike"}, {"bike_id": "0aac819ba5b5a72b36777c53d9a6ef6e", "is_reserved": 0, "name": "0aac819ba5b5a72b36777c53d9a6ef6e", "lat": 38.944918, "fusion_lat": 0.0, "lon": -77.03630133333333, "is_disabled": 0, "fusion_lon": 0.0, "rental_uris": {"android": "https://dc.lft.to/lastmile_qr_scan", "ios": "https://dc.lft.to/lastmile_qr_scan"}, "type": "electric_scooter"}, {"bike_id": "e1a03a6d8bc0ef72984d764b4918a430", "is_reserved": 0, "name": "e1a03a6d8bc0ef72984d764b4918a430", "lat": 38.88740583333333, "fusion_lat": 0.0, "lon": -77.0307245, "is_disabled": 0, "fusion_lon": 0.0, "rental_uris": {"android": "https://dc.lft.to/lastmile_qr_scan", "ios": "https://dc.lft.to/lastmile_qr_scan"}, "type": "electric_scooter"}, {"bike_id": "ab7b9ca8bbb96c016d971f3400ea7e93", "is_reserved": 0, "name": "ab7b9ca8bbb96c016d971f3400ea7e93", "lat": 38.89902416666666, "fusion_lat": 0.0, "lon": -76.99157066666666, "is_disabled": 0, "fusion_lon": 0.0, "rental_uris": {"android": "https://dc.lft.to/lastmile_qr_scan", "ios": "https://dc.lft.to/lastmile_qr_scan"}, "type": "electric_scooter"}, {"bike_id": "9a464c31cf163ed8e3b2e6341e5257ee", "is_reserved": 0, "name": "9a464c31cf163ed8e3b2e6341e5257ee", "lat": 38.927876166666664, "fusion_lat": 0.0, "lon": -77.024556, "is_disabled": 0, "fusion_lon": 0.0, "rental_uris": {"android": "https://dc.lft.to/lastmile_qr_scan", "ios": "https://dc.lft.to/lastmile_qr_scan"}, "type": "electric_scooter"}, {"bike_id": "43ad64cb1ac171d030edfe9a48dc2def", "is_reserved": 0, "name": "43ad64cb1ac171d030edfe9a48dc2def", "lat": 38.90043216666667, "fusion_lat": 0.0, "lon": -77.01632816666667, "is_disabled": 0, "fusion_lon": 0.0, "rental_uris": {"android": "https://dc.lft.to/lastmile_qr_scan", "ios": "https://dc.lft.to/lastmile_qr_scan"}, "type": "electric_scooter"}, {"bike_id": "74dd2d6420fd08d25ef87182ff029f66", "is_reserved": 0, "name": "74dd2d6420fd08d25ef87182ff029f66", "lat": 38.92113916666667, "fusion_lat": 0.0, "lon": -77.02692133333333, "is_disabled": 0, "fusion_lon": 0.0, "rental_uris": {"android": "https://dc.lft.to/lastmile_qr_scan", "ios": "https://dc.lft.to/lastmile_qr_scan"}, "type": "electric_scooter"}, {"bike_id": "be4609a8681f0009c3768c00fea5a5b8", "is_reserved": 0, "name": "be4609a8681f0009c3768c00fea5a5b8", "lat": 38.93597583333333, "fusion_lat": 0.0, "lon": -77.037965, "is_disabled": 0, "fusion_lon": 0.0, "rental_uris": {"android": "https://dc.lft.to/lastmile_qr_scan", "ios": "https://dc.lft.to/lastmile_qr_scan"}, "type": "electric_scooter"}, {"bike_id": "aebea2cdb872d538ab9ffe048e81263b", "is_reserved": 0, "name": "aebea2cdb872d538ab9ffe048e81263b", "lat": 38.92018433333333, "fusion_lat": 0.0, "lon": -77.044111, "is_disabled": 0, "fusion_lon": 0.0, "rental_uris": {"android": "https://dc.lft.to/lastmile_qr_scan", "ios": "https://dc.lft.to/lastmile_qr_scan"}, "type": "electric_scooter"}, {"bike_id": "b87211afd1499b9672b1d3576f6f91d3", "is_reserved": 0, "name": "b87211afd1499b9672b1d3576f6f91d3", "lat": 38.91633566666667, "fusion_lat": 0.0, "lon": -77.05067966666667, "is_disabled": 0, "fusion_lon": 0.0, "rental_uris": {"android": "https://dc.lft.to/lastmile_qr_scan", "ios": "https://dc.lft.to/lastmile_qr_scan"}, "type": "electric_scooter"}, {"bike_id": "d3ce881d9d0105c944254810bed03836", "is_reserved": 0, "name": "d3ce881d9d0105c944254810bed03836", "lat": 38.899729666666666, "fusion_lat": 0.0, "lon": -77.02456983333333, "is_disabled": 0, "fusion_lon": 0.0, "rental_uris": {"android": "https://dc.lft.to/lastmile_qr_scan", "ios": "https://dc.lft.to/lastmile_qr_scan"}, "type": "electric_scooter"}, {"bike_id": "567857064718aa3c4c8ab6f53e55145e", "is_reserved": 0, "name": "567857064718aa3c4c8ab6f53e55145e", "lat": 38.900001833333334, "fusion_lat": 0.0, "lon": -77.027131, "is_disabled": 0, "fusion_lon": 0.0, "rental_uris": {"android": "https://dc.lft.to/lastmile_qr_scan", "ios": "https://dc.lft.to/lastmile_qr_scan"}, "type": "electric_scooter"}, {"bike_id": "82b6d51f17383f05ab6c203dcc0d62a4", "is_reserved": 0, "name": "82b6d51f17383f05ab6c203dcc0d62a4", "lat": 38.918601, "fusion_lat": 0.0, "lon": -77.04034883333334, "is_disabled": 0, "fusion_lon": 0.0, "rental_uris": {"android": "https://dc.lft.to/lastmile_qr_scan", "ios": "https://dc.lft.to/lastmile_qr_scan"}, "type": "electric_scooter"}, {"bike_id": "4e9cd26b978c1d7e9f6bbbe7b3990a4a", "is_reserved": 0, "name": "4e9cd26b978c1d7e9f6bbbe7b3990a4a", "lat": 38.92029266666667, "fusion_lat": 0.0, "lon": -77.08194866666666, "is_disabled": 0, "fusion_lon": 0.0, "rental_uris": {"android": "https://dc.lft.to/lastmile_qr_scan", "ios": "https://dc.lft.to/lastmile_qr_scan"}, "type": "electric_scooter"}, {"bike_id": "2393c5d9fcce420544fbd2c6b0c93d05", "is_reserved": 0, "name": "2393c5d9fcce420544fbd2c6b0c93d05", "lat": 38.906430666666665, "fusion_lat": 0.0, "lon": -77.02707416666667, "is_disabled": 0, "fusion_lon": 0.0, "rental_uris": {"android": "https://dc.lft.to/lastmile_qr_scan", "ios": "https://dc.lft.to/lastmile_qr_scan"}, "type": "electric_scooter"}, {"bike_id": "fefe0a9d0161bb7ef46e91846f712a63", "is_reserved": 0, "name": "fefe0a9d0161bb7ef46e91846f712a63", "lat": 38.9342275, "fusion_lat": 0.0, "lon": -77.04274866666667, "is_disabled": 0, "fusion_lon": 0.0, "rental_uris": {"android": "https://dc.lft.to/lastmile_qr_scan", "ios": "https://dc.lft.to/lastmile_qr_scan"}, "type": "electric_scooter"}, {"bike_id": "65907f060abdf5aedd6d6f41947518c2", "is_reserved": 0, "name": "65907f060abdf5aedd6d6f41947518c2", "lat": 38.90517166666667, "fusion_lat": 0.0, "lon": -77.007375, "is_disabled": 0, "fusion_lon": 0.0, "rental_uris": {"android": "https://dc.lft.to/lastmile_qr_scan", "ios": "https://dc.lft.to/lastmile_qr_scan"}, "type": "electric_scooter"}, {"bike_id": "17869a1c857de10f79a6674e7dd963f8", "is_reserved": 0, "name": "17869a1c857de10f79a6674e7dd963f8", "lat": 38.887453666666666, "fusion_lat": 0.0, "lon": -77.0277415, "is_disabled": 0, "fusion_lon": 0.0, "rental_uris": {"android": "https://dc.lft.to/lastmile_qr_scan", "ios": "https://dc.lft.to/lastmile_qr_scan"}, "type": "electric_scooter"}, {"bike_id": "4fef6c69b82318fc57dc8b82d36584ad", "is_reserved": 0, "name": "4fef6c69b82318fc57dc8b82d36584ad", "lat": 38.91099783333333, "fusion_lat": 0.0, "lon": -77.04839816666667, "is_disabled": 0, "fusion_lon": 0.0, "rental_uris": {"android": "https://dc.lft.to/lastmile_qr_scan", "ios": "https://dc.lft.to/lastmile_qr_scan"}, "type": "electric_scooter"}, {"bike_id": "e337500e31b81d96bdc008ca3b5b7d4d", "is_reserved": 0, "name": "e337500e31b81d96bdc008ca3b5b7d4d", "lat": 38.90450233333333, "fusion_lat": 0.0, "lon": -76.98219, "is_disabled": 0, "fusion_lon": 0.0, "rental_uris": {"android": "https://dc.lft.to/lastmile_qr_scan", "ios": "https://dc.lft.to/lastmile_qr_scan"}, "type": "electric_scooter"}, {"bike_id": "7a18111a70fd0be2d7069e6a94ef58d0", "is_reserved": 0, "name": "7a18111a70fd0be2d7069e6a94ef58d0", "lat": 38.9369705, "fusion_lat": 0.0, "lon": -77.05600116666666, "is_disabled": 0, "fusion_lon": 0.0, "rental_uris": {"android": "https://dc.lft.to/lastmile_qr_scan", "ios": "https://dc.lft.to/lastmile_qr_scan"}, "type": "electric_scooter"}, {"bike_id": "d98fd1b6fa084f0686dc5c98c14cfaa7", "is_reserved": 0, "name": "d98fd1b6fa084f0686dc5c98c14cfaa7", "lat": 38.9064145, "fusion_lat": 0.0, "lon": -77.01765, "is_disabled": 0, "fusion_lon": 0.0, "rental_uris": {"android": "https://dc.lft.to/lastmile_qr_scan", "ios": "https://dc.lft.to/lastmile_qr_scan"}, "type": "electric_scooter"}, {"bike_id": "bf758193d7506214dc1d692e3894cbf4", "is_reserved": 0, "name": "bf758193d7506214dc1d692e3894cbf4", "lat": 38.935629166666665, "fusion_lat": 0.0, "lon": -77.07460833333333, "is_disabled": 0, "fusion_lon": 0.0, "rental_uris": {"android": "https://dc.lft.to/lastmile_qr_scan", "ios": "https://dc.lft.to/lastmile_qr_scan"}, "type": "electric_scooter"}, {"bike_id": "26f607f70f9e8e824f1399cc90d6dac1", "is_reserved": 0, "name": "26f607f70f9e8e824f1399cc90d6dac1", "lat": 38.91316033333333, "fusion_lat": 0.0, "lon": -77.03633216666667, "is_disabled": 0, "fusion_lon": 0.0, "rental_uris": {"android": "https://dc.lft.to/lastmile_qr_scan", "ios": "https://dc.lft.to/lastmile_qr_scan"}, "type": "electric_scooter"}, {"bike_id": "49bc88b9dc628d65679c20297da8f703", "is_reserved": 0, "name": "49bc88b9dc628d65679c20297da8f703", "lat": 38.92157316666667, "fusion_lat": 0.0, "lon": -77.03380683333333, "is_disabled": 0, "fusion_lon": 0.0, "rental_uris": {"android": "https://dc.lft.to/lastmile_qr_scan", "ios": "https://dc.lft.to/lastmile_qr_scan"}, "type": "electric_scooter"}, {"bike_id": "a81b050c7c134ffc2c1d7851e97f3981", "is_reserved": 0, "name": "a81b050c7c134ffc2c1d7851e97f3981", "lat": 38.908243666666664, "fusion_lat": 0.0, "lon": -77.04321466666667, "is_disabled": 0, "fusion_lon": 0.0, "rental_uris": {"android": "https://dc.lft.to/lastmile_qr_scan", "ios": "https://dc.lft.to/lastmile_qr_scan"}, "type": "electric_scooter"}, {"bike_id": "ab612d0a5a449e049c08beec2ac93467", "is_reserved": 0, "name": "ab612d0a5a449e049c08beec2ac93467", "lat": 38.91020533333333, "fusion_lat": 0.0, "lon": -77.03302683333334, "is_disabled": 0, "fusion_lon": 0.0, "rental_uris": {"android": "https://dc.lft.to/lastmile_qr_scan", "ios": "https://dc.lft.to/lastmile_qr_scan"}, "type": "electric_scooter"}, {"bike_id": "0dd70bec31034bc6ee847a77c06e2ce3", "is_reserved": 0, "name": "0dd70bec31034bc6ee847a77c06e2ce3", "lat": 38.900264666666665, "fusion_lat": 0.0, "lon": -76.99354, "is_disabled": 0, "fusion_lon": 0.0, "rental_uris": {"android": "https://dc.lft.to/lastmile_qr_scan", "ios": "https://dc.lft.to/lastmile_qr_scan"}, "type": "electric_scooter"}, {"bike_id": "608228bfad94bf9caf3b0e37ab993de7", "is_reserved": 0, "name": "608228bfad94bf9caf3b0e37ab993de7", "lat": 38.836073666666664, "fusion_lat": 0.0, "lon": -77.0038255, "is_disabled": 0, "fusion_lon": 0.0, "rental_uris": {"android": "https://dc.lft.to/lastmile_qr_scan", "ios": "https://dc.lft.to/lastmile_qr_scan"}, "type": "electric_bike"}, {"bike_id": "861532721473872b4ffb123b732080a2", "is_reserved": 0, "name": "861532721473872b4ffb123b732080a2", "lat": 38.89725516666667, "fusion_lat": 0.0, "lon": -77.0037495, "is_disabled": 0, "fusion_lon": 0.0, "rental_uris": {"android": "https://dc.lft.to/lastmile_qr_scan", "ios": "https://dc.lft.to/lastmile_qr_scan"}, "type": "electric_scooter"}, {"bike_id": "9801ccf8637e6c7ce19e5c6c66153806", "is_reserved": 0, "name": "9801ccf8637e6c7ce19e5c6c66153806", "lat": 38.90330016666667, "fusion_lat": 0.0, "lon": -76.97528333333334, "is_disabled": 0, "fusion_lon": 0.0, "rental_uris": {"android": "https://dc.lft.to/lastmile_qr_scan", "ios": "https://dc.lft.to/lastmile_qr_scan"}, "type": "electric_bike"}, {"bike_id": "d9223dc3cbe55eeaeaeef8b4affd74b2", "is_reserved": 0, "name": "d9223dc3cbe55eeaeaeef8b4affd74b2", "lat": 38.892198666666665, "fusion_lat": 0.0, "lon": -77.026383, "is_disabled": 0, "fusion_lon": 0.0, "rental_uris": {"android": "https://dc.lft.to/lastmile_qr_scan", "ios": "https://dc.lft.to/lastmile_qr_scan"}, "type": "electric_scooter"}, {"bike_id": "3a8c30616e116c7e1288257a8ebbf9f2", "is_reserved": 0, "name": "3a8c30616e116c7e1288257a8ebbf9f2", "lat": 38.88750233333333, "fusion_lat": 0.0, "lon": -76.996072, "is_disabled": 0, "fusion_lon": 0.0, "rental_uris": {"android": "https://dc.lft.to/lastmile_qr_scan", "ios": "https://dc.lft.to/lastmile_qr_scan"}, "type": "electric_scooter"}, {"bike_id": "9e9d529c7851fd83fbff72b65804a71c", "is_reserved": 0, "name": "9e9d529c7851fd83fbff72b65804a71c", "lat": 38.956291, "fusion_lat": 0.0, "lon": -77.019913, "is_disabled": 0, "fusion_lon": 0.0, "rental_uris": {"android": "https://dc.lft.to/lastmile_qr_scan", "ios": "https://dc.lft.to/lastmile_qr_scan"}, "type": "electric_scooter"}, {"bike_id": "1990ce6f2babf8390b7e66e5d3eb1bb5", "is_reserved": 0, "name": "1990ce6f2babf8390b7e66e5d3eb1bb5", "lat": 38.92754733333334, "fusion_lat": 0.0, "lon": -77.0245025, "is_disabled": 0, "fusion_lon": 0.0, "rental_uris": {"android": "https://dc.lft.to/lastmile_qr_scan", "ios": "https://dc.lft.to/lastmile_qr_scan"}, "type": "electric_scooter"}, {"bike_id": "a4f59c2d0a4bf84eb492e3d5565f1203", "is_reserved": 0, "name": "a4f59c2d0a4bf84eb492e3d5565f1203", "lat": 38.90875466666667, "fusion_lat": 0.0, "lon": -77.03868916666667, "is_disabled": 0, "fusion_lon": 0.0, "rental_uris": {"android": "https://dc.lft.to/lastmile_qr_scan", "ios": "https://dc.lft.to/lastmile_qr_scan"}, "type": "electric_scooter"}, {"bike_id": "d75786515d7e040466aea1abd2d679c0", "is_reserved": 0, "name": "d75786515d7e040466aea1abd2d679c0", "lat": 38.86942966666667, "fusion_lat": 0.0, "lon": -77.01375266666666, "is_disabled": 0, "fusion_lon": 0.0, "rental_uris": {"android": "https://dc.lft.to/lastmile_qr_scan", "ios": "https://dc.lft.to/lastmile_qr_scan"}, "type": "electric_scooter"}, {"bike_id": "e3c31b0a128aa61fb7817739486787cb", "is_reserved": 0, "name": "e3c31b0a128aa61fb7817739486787cb", "lat": 39.052509666666666, "fusion_lat": 0.0, "lon": -77.08068116666666, "is_disabled": 0, "fusion_lon": 0.0, "rental_uris": {"android": "https://dc.lft.to/lastmile_qr_scan", "ios": "https://dc.lft.to/lastmile_qr_scan"}, "type": "electric_bike"}, {"bike_id": "04b340fec84d61c80a0467defa78fb29", "is_reserved": 0, "name": "04b340fec84d61c80a0467defa78fb29", "lat": 38.910068333333335, "fusion_lat": 0.0, "lon": -77.0491055, "is_disabled": 0, "fusion_lon": 0.0, "rental_uris": {"android": "https://dc.lft.to/lastmile_qr_scan", "ios": "https://dc.lft.to/lastmile_qr_scan"}, "type": "electric_scooter"}, {"bike_id": "7cf3ebd2b77824adfbdd656b0a6eb7cb", "is_reserved": 0, "name": "7cf3ebd2b77824adfbdd656b0a6eb7cb", "lat": 38.938979833333335, "fusion_lat": 0.0, "lon": -77.084882, "is_disabled": 0, "fusion_lon": 0.0, "rental_uris": {"android": "https://dc.lft.to/lastmile_qr_scan", "ios": "https://dc.lft.to/lastmile_qr_scan"}, "type": "electric_scooter"}, {"bike_id": "c2973e4810877fa2bf6774f2cd94aedc", "is_reserved": 0, "name": "c2973e4810877fa2bf6774f2cd94aedc", "lat": 38.90561916666667, "fusion_lat": 0.0, "lon": -77.04194466666667, "is_disabled": 0, "fusion_lon": 0.0, "rental_uris": {"android": "https://dc.lft.to/lastmile_qr_scan", "ios": "https://dc.lft.to/lastmile_qr_scan"}, "type": "electric_scooter"}, {"bike_id": "7aafc1cf84362d10f6c134168a0c5fca", "is_reserved": 0, "name": "7aafc1cf84362d10f6c134168a0c5fca", "lat": 38.8475635, "fusion_lat": 0.0, "lon": -76.9949975, "is_disabled": 0, "fusion_lon": 0.0, "rental_uris": {"android": "https://dc.lft.to/lastmile_qr_scan", "ios": "https://dc.lft.to/lastmile_qr_scan"}, "type": "electric_scooter"}, {"bike_id": "97c3e6196e2373a6b1130d4c06df254b", "is_reserved": 0, "name": "97c3e6196e2373a6b1130d4c06df254b", "lat": 38.92339466666667, "fusion_lat": 0.0, "lon": -77.05177116666667, "is_disabled": 0, "fusion_lon": 0.0, "rental_uris": {"android": "https://dc.lft.to/lastmile_qr_scan", "ios": "https://dc.lft.to/lastmile_qr_scan"}, "type": "electric_scooter"}, {"bike_id": "93dea46d4b8d7aa6a165d4b29031a4e4", "is_reserved": 0, "name": "93dea46d4b8d7aa6a165d4b29031a4e4", "lat": 38.922219166666665, "fusion_lat": 0.0, "lon": -77.021211, "is_disabled": 0, "fusion_lon": 0.0, "rental_uris": {"android": "https://dc.lft.to/lastmile_qr_scan", "ios": "https://dc.lft.to/lastmile_qr_scan"}, "type": "electric_scooter"}, {"bike_id": "ff6b5dd1b52cf4c1902d8a463239501c", "is_reserved": 0, "name": "ff6b5dd1b52cf4c1902d8a463239501c", "lat": 38.921428, "fusion_lat": 0.0, "lon": -77.03525033333334, "is_disabled": 0, "fusion_lon": 0.0, "rental_uris": {"android": "https://dc.lft.to/lastmile_qr_scan", "ios": "https://dc.lft.to/lastmile_qr_scan"}, "type": "electric_scooter"}, {"bike_id": "8d1da88fca22cbc4540c89eea404d298", "is_reserved": 0, "name": "8d1da88fca22cbc4540c89eea404d298", "lat": 38.903331333333334, "fusion_lat": 0.0, "lon": -77.062784, "is_disabled": 0, "fusion_lon": 0.0, "rental_uris": {"android": "https://dc.lft.to/lastmile_qr_scan", "ios": "https://dc.lft.to/lastmile_qr_scan"}, "type": "electric_scooter"}, {"bike_id": "e476f709d25ec35bd5a43002c8c0daf9", "is_reserved": 0, "name": "e476f709d25ec35bd5a43002c8c0daf9", "lat": 38.916744666666666, "fusion_lat": 0.0, "lon": -77.0157365, "is_disabled": 0, "fusion_lon": 0.0, "rental_uris": {"android": "https://dc.lft.to/lastmile_qr_scan", "ios": "https://dc.lft.to/lastmile_qr_scan"}, "type": "electric_scooter"}, {"bike_id": "bec0dd1c539e70aa01e1a3eb7850e8e7", "is_reserved": 0, "name": "bec0dd1c539e70aa01e1a3eb7850e8e7", "lat": 38.895427833333336, "fusion_lat": 0.0, "lon": -76.9809665, "is_disabled": 0, "fusion_lon": 0.0, "rental_uris": {"android": "https://dc.lft.to/lastmile_qr_scan", "ios": "https://dc.lft.to/lastmile_qr_scan"}, "type": "electric_scooter"}, {"bike_id": "952e0c0819b18fa587f3cc772f7c1d59", "is_reserved": 0, "name": "952e0c0819b18fa587f3cc772f7c1d59", "lat": 38.884578166666664, "fusion_lat": 0.0, "lon": -76.92619483333333, "is_disabled": 0, "fusion_lon": 0.0, "rental_uris": {"android": "https://dc.lft.to/lastmile_qr_scan", "ios": "https://dc.lft.to/lastmile_qr_scan"}, "type": "electric_scooter"}, {"bike_id": "f08df3c69747f775375fd3762df48767", "is_reserved": 0, "name": "f08df3c69747f775375fd3762df48767", "lat": 38.8697845, "fusion_lat": 0.0, "lon": -77.013729, "is_disabled": 0, "fusion_lon": 0.0, "rental_uris": {"android": "https://dc.lft.to/lastmile_qr_scan", "ios": "https://dc.lft.to/lastmile_qr_scan"}, "type": "electric_scooter"}, {"bike_id": "4a9403252114adf55261090c639789d0", "is_reserved": 0, "name": "4a9403252114adf55261090c639789d0", "lat": 38.909462, "fusion_lat": 0.0, "lon": -77.03182816666667, "is_disabled": 0, "fusion_lon": 0.0, "rental_uris": {"android": "https://dc.lft.to/lastmile_qr_scan", "ios": "https://dc.lft.to/lastmile_qr_scan"}, "type": "electric_scooter"}, {"bike_id": "34b865e11b066979b7c978903818ce65", "is_reserved": 0, "name": "34b865e11b066979b7c978903818ce65", "lat": 38.9171555, "fusion_lat": 0.0, "lon": -77.023985, "is_disabled": 0, "fusion_lon": 0.0, "rental_uris": {"android": "https://dc.lft.to/lastmile_qr_scan", "ios": "https://dc.lft.to/lastmile_qr_scan"}, "type": "electric_scooter"}, {"bike_id": "9b3783907afec70cc7a12948547869bf", "is_reserved": 0, "name": "9b3783907afec70cc7a12948547869bf", "lat": 38.900898166666664, "fusion_lat": 0.0, "lon": -77.04900066666667, "is_disabled": 0, "fusion_lon": 0.0, "rental_uris": {"android": "https://dc.lft.to/lastmile_qr_scan", "ios": "https://dc.lft.to/lastmile_qr_scan"}, "type": "electric_scooter"}, {"bike_id": "0f593ad77b7a67d461a3fd801eefcaa9", "is_reserved": 0, "name": "0f593ad77b7a67d461a3fd801eefcaa9", "lat": 38.898754833333335, "fusion_lat": 0.0, "lon": -77.05013866666667, "is_disabled": 0, "fusion_lon": 0.0, "rental_uris": {"android": "https://dc.lft.to/lastmile_qr_scan", "ios": "https://dc.lft.to/lastmile_qr_scan"}, "type": "electric_scooter"}, {"bike_id": "eb2dd99222d97ef7fb4740c915f1b146", "is_reserved": 0, "name": "eb2dd99222d97ef7fb4740c915f1b146", "lat": 38.87269083333333, "fusion_lat": 0.0, "lon": -77.01357033333333, "is_disabled": 0, "fusion_lon": 0.0, "rental_uris": {"android": "https://dc.lft.to/lastmile_qr_scan", "ios": "https://dc.lft.to/lastmile_qr_scan"}, "type": "electric_scooter"}, {"bike_id": "a9fd5ffee69099217ed812cc49e4c7f1", "is_reserved": 0, "name": "a9fd5ffee69099217ed812cc49e4c7f1", "lat": 38.8949345, "fusion_lat": 0.0, "lon": -77.003579, "is_disabled": 0, "fusion_lon": 0.0, "rental_uris": {"android": "https://dc.lft.to/lastmile_qr_scan", "ios": "https://dc.lft.to/lastmile_qr_scan"}, "type": "electric_scooter"}, {"bike_id": "3fd90bc85db8cc9cd086f825cf319dea", "is_reserved": 0, "name": "3fd90bc85db8cc9cd086f825cf319dea", "lat": 38.94253333333333, "fusion_lat": 0.0, "lon": -77.03627333333333, "is_disabled": 0, "fusion_lon": 0.0, "rental_uris": {"android": "https://dc.lft.to/lastmile_qr_scan", "ios": "https://dc.lft.to/lastmile_qr_scan"}, "type": "electric_scooter"}, {"bike_id": "ca1dd83dfd482f69e4cdf7fa95b35f64", "is_reserved": 0, "name": "ca1dd83dfd482f69e4cdf7fa95b35f64", "lat": 38.892403, "fusion_lat": 0.0, "lon": -77.04873233333333, "is_disabled": 0, "fusion_lon": 0.0, "rental_uris": {"android": "https://dc.lft.to/lastmile_qr_scan", "ios": "https://dc.lft.to/lastmile_qr_scan"}, "type": "electric_scooter"}, {"bike_id": "62e6d9f5276b44f1b9fb6bc7e1e1dee8", "is_reserved": 0, "name": "62e6d9f5276b44f1b9fb6bc7e1e1dee8", "lat": 38.87372333333333, "fusion_lat": 0.0, "lon": -77.0008685, "is_disabled": 0, "fusion_lon": 0.0, "rental_uris": {"android": "https://dc.lft.to/lastmile_qr_scan", "ios": "https://dc.lft.to/lastmile_qr_scan"}, "type": "electric_scooter"}, {"bike_id": "21fbe4739b969f3fb1982646731d6876", "is_reserved": 0, "name": "21fbe4739b969f3fb1982646731d6876", "lat": 38.86665, "fusion_lat": 0.0, "lon": -76.9890225, "is_disabled": 0, "fusion_lon": 0.0, "rental_uris": {"android": "https://dc.lft.to/lastmile_qr_scan", "ios": "https://dc.lft.to/lastmile_qr_scan"}, "type": "electric_scooter"}, {"bike_id": "cc2c70b05702d8de9fddb9088e1d2858", "is_reserved": 0, "name": "cc2c70b05702d8de9fddb9088e1d2858", "lat": 38.900398833333334, "fusion_lat": 0.0, "lon": -76.99847383333334, "is_disabled": 0, "fusion_lon": 0.0, "rental_uris": {"android": "https://dc.lft.to/lastmile_qr_scan", "ios": "https://dc.lft.to/lastmile_qr_scan"}, "type": "electric_scooter"}, {"bike_id": "181bff34c268384511e7edfc2317bb33", "is_reserved": 0, "name": "181bff34c268384511e7edfc2317bb33", "lat": 38.887703333333334, "fusion_lat": 0.0, "lon": -77.02942183333333, "is_disabled": 0, "fusion_lon": 0.0, "rental_uris": {"android": "https://dc.lft.to/lastmile_qr_scan", "ios": "https://dc.lft.to/lastmile_qr_scan"}, "type": "electric_scooter"}, {"bike_id": "d64745866cacf1388f64722702a312e8", "is_reserved": 0, "name": "d64745866cacf1388f64722702a312e8", "lat": 38.9037925, "fusion_lat": 0.0, "lon": -77.00882166666666, "is_disabled": 0, "fusion_lon": 0.0, "rental_uris": {"android": "https://dc.lft.to/lastmile_qr_scan", "ios": "https://dc.lft.to/lastmile_qr_scan"}, "type": "electric_scooter"}, {"bike_id": "e145b1f6db0f5080389e760adc3ced6e", "is_reserved": 0, "name": "e145b1f6db0f5080389e760adc3ced6e", "lat": 38.916307, "fusion_lat": 0.0, "lon": -77.03178083333333, "is_disabled": 0, "fusion_lon": 0.0, "rental_uris": {"android": "https://dc.lft.to/lastmile_qr_scan", "ios": "https://dc.lft.to/lastmile_qr_scan"}, "type": "electric_scooter"}, {"bike_id": "78454fca43661b6236a48db2215fab47", "is_reserved": 0, "name": "78454fca43661b6236a48db2215fab47", "lat": 38.95507966666667, "fusion_lat": 0.0, "lon": -77.0291955, "is_disabled": 0, "fusion_lon": 0.0, "rental_uris": {"android": "https://dc.lft.to/lastmile_qr_scan", "ios": "https://dc.lft.to/lastmile_qr_scan"}, "type": "electric_bike"}, {"bike_id": "a5ab74f93c201e9a1a4b50eb4ed57c65", "is_reserved": 0, "name": "a5ab74f93c201e9a1a4b50eb4ed57c65", "lat": 38.906218, "fusion_lat": 0.0, "lon": -77.00582133333333, "is_disabled": 0, "fusion_lon": 0.0, "rental_uris": {"android": "https://dc.lft.to/lastmile_qr_scan", "ios": "https://dc.lft.to/lastmile_qr_scan"}, "type": "electric_scooter"}, {"bike_id": "251321952ee7af3b94f6dbda31d20e4e", "is_reserved": 0, "name": "251321952ee7af3b94f6dbda31d20e4e", "lat": 38.93168133333333, "fusion_lat": 0.0, "lon": -77.07848883333334, "is_disabled": 0, "fusion_lon": 0.0, "rental_uris": {"android": "https://dc.lft.to/lastmile_qr_scan", "ios": "https://dc.lft.to/lastmile_qr_scan"}, "type": "electric_scooter"}, {"bike_id": "0adda871663e8281447c3954f4c1baab", "is_reserved": 0, "name": "0adda871663e8281447c3954f4c1baab", "lat": 38.8961595, "fusion_lat": 0.0, "lon": -77.04418383333334, "is_disabled": 0, "fusion_lon": 0.0, "rental_uris": {"android": "https://dc.lft.to/lastmile_qr_scan", "ios": "https://dc.lft.to/lastmile_qr_scan"}, "type": "electric_scooter"}, {"bike_id": "9751b7ab4b455f05e905764fe366da57", "is_reserved": 0, "name": "9751b7ab4b455f05e905764fe366da57", "lat": 38.88991583333333, "fusion_lat": 0.0, "lon": -76.914138, "is_disabled": 0, "fusion_lon": 0.0, "rental_uris": {"android": "https://dc.lft.to/lastmile_qr_scan", "ios": "https://dc.lft.to/lastmile_qr_scan"}, "type": "electric_scooter"}, {"bike_id": "5d8b6a6ff8e3e0e01731de2059f07514", "is_reserved": 0, "name": "5d8b6a6ff8e3e0e01731de2059f07514", "lat": 38.914399, "fusion_lat": 0.0, "lon": -77.04502683333334, "is_disabled": 0, "fusion_lon": 0.0, "rental_uris": {"android": "https://dc.lft.to/lastmile_qr_scan", "ios": "https://dc.lft.to/lastmile_qr_scan"}, "type": "electric_scooter"}, {"bike_id": "dbec895a62d74b3f8ffcfb19393e1c62", "is_reserved": 0, "name": "dbec895a62d74b3f8ffcfb19393e1c62", "lat": 38.960672, "fusion_lat": 0.0, "lon": -76.94163416666666, "is_disabled": 0, "fusion_lon": 0.0, "rental_uris": {"android": "https://dc.lft.to/lastmile_qr_scan", "ios": "https://dc.lft.to/lastmile_qr_scan"}, "type": "electric_bike"}, {"bike_id": "0bdf2a9c9991cea147b3d49f8e616439", "is_reserved": 0, "name": "0bdf2a9c9991cea147b3d49f8e616439", "lat": 38.90012016666667, "fusion_lat": 0.0, "lon": -77.000653, "is_disabled": 0, "fusion_lon": 0.0, "rental_uris": {"android": "https://dc.lft.to/lastmile_qr_scan", "ios": "https://dc.lft.to/lastmile_qr_scan"}, "type": "electric_scooter"}, {"bike_id": "334822d79e3645675c775f48fc531d6f", "is_reserved": 0, "name": "334822d79e3645675c775f48fc531d6f", "lat": 38.93327216666667, "fusion_lat": 0.0, "lon": -77.0326605, "is_disabled": 0, "fusion_lon": 0.0, "rental_uris": {"android": "https://dc.lft.to/lastmile_qr_scan", "ios": "https://dc.lft.to/lastmile_qr_scan"}, "type": "electric_scooter"}, {"bike_id": "c6946bb3b75e4a0e7edddbfbf242de47", "is_reserved": 0, "name": "c6946bb3b75e4a0e7edddbfbf242de47", "lat": 38.91729766666667, "fusion_lat": 0.0, "lon": -77.02804183333333, "is_disabled": 0, "fusion_lon": 0.0, "rental_uris": {"android": "https://dc.lft.to/lastmile_qr_scan", "ios": "https://dc.lft.to/lastmile_qr_scan"}, "type": "electric_scooter"}, {"bike_id": "4822200c66fccf3c24322e84782d7521", "is_reserved": 0, "name": "4822200c66fccf3c24322e84782d7521", "lat": 38.89954566666667, "fusion_lat": 0.0, "lon": -76.98561166666667, "is_disabled": 0, "fusion_lon": 0.0, "rental_uris": {"android": "https://dc.lft.to/lastmile_qr_scan", "ios": "https://dc.lft.to/lastmile_qr_scan"}, "type": "electric_scooter"}, {"bike_id": "6a277c578c4a8ea7bf641ca4c2e68ec7", "is_reserved": 0, "name": "6a277c578c4a8ea7bf641ca4c2e68ec7", "lat": 38.907614, "fusion_lat": 0.0, "lon": -77.03071, "is_disabled": 0, "fusion_lon": 0.0, "rental_uris": {"android": "https://dc.lft.to/lastmile_qr_scan", "ios": "https://dc.lft.to/lastmile_qr_scan"}, "type": "electric_scooter"}, {"bike_id": "bc79a314eeda875e597a7f4bc2c73aea", "is_reserved": 0, "name": "bc79a314eeda875e597a7f4bc2c73aea", "lat": 38.9216525, "fusion_lat": 0.0, "lon": -77.043553, "is_disabled": 0, "fusion_lon": 0.0, "rental_uris": {"android": "https://dc.lft.to/lastmile_qr_scan", "ios": "https://dc.lft.to/lastmile_qr_scan"}, "type": "electric_scooter"}, {"bike_id": "61c927a0246f12f4924c78567ea29add", "is_reserved": 0, "name": "61c927a0246f12f4924c78567ea29add", "lat": 38.91551416666667, "fusion_lat": 0.0, "lon": -77.0101615, "is_disabled": 0, "fusion_lon": 0.0, "rental_uris": {"android": "https://dc.lft.to/lastmile_qr_scan", "ios": "https://dc.lft.to/lastmile_qr_scan"}, "type": "electric_scooter"}, {"bike_id": "59203912270e053679de4b9ea77fdb59", "is_reserved": 0, "name": "59203912270e053679de4b9ea77fdb59", "lat": 38.89885183333333, "fusion_lat": 0.0, "lon": -76.93171366666667, "is_disabled": 0, "fusion_lon": 0.0, "rental_uris": {"android": "https://dc.lft.to/lastmile_qr_scan", "ios": "https://dc.lft.to/lastmile_qr_scan"}, "type": "electric_scooter"}, {"bike_id": "7314d15157467a189840f07704527e8b", "is_reserved": 0, "name": "7314d15157467a189840f07704527e8b", "lat": 38.899239333333334, "fusion_lat": 0.0, "lon": -76.98529783333333, "is_disabled": 0, "fusion_lon": 0.0, "rental_uris": {"android": "https://dc.lft.to/lastmile_qr_scan", "ios": "https://dc.lft.to/lastmile_qr_scan"}, "type": "electric_scooter"}, {"bike_id": "5dc9f027b62bb82cd42cf67689ef2d0d", "is_reserved": 0, "name": "5dc9f027b62bb82cd42cf67689ef2d0d", "lat": 38.912190833333334, "fusion_lat": 0.0, "lon": -77.03197733333333, "is_disabled": 0, "fusion_lon": 0.0, "rental_uris": {"android": "https://dc.lft.to/lastmile_qr_scan", "ios": "https://dc.lft.to/lastmile_qr_scan"}, "type": "electric_scooter"}, {"bike_id": "85352c6f2e2cf3de8335cf52334b950f", "is_reserved": 0, "name": "85352c6f2e2cf3de8335cf52334b950f", "lat": 38.91116433333333, "fusion_lat": 0.0, "lon": -77.03289516666666, "is_disabled": 0, "fusion_lon": 0.0, "rental_uris": {"android": "https://dc.lft.to/lastmile_qr_scan", "ios": "https://dc.lft.to/lastmile_qr_scan"}, "type": "electric_scooter"}, {"bike_id": "7c907c1c3a08718c8fb8e873388356a1", "is_reserved": 0, "name": "7c907c1c3a08718c8fb8e873388356a1", "lat": 38.93223316666667, "fusion_lat": 0.0, "lon": -76.99491766666667, "is_disabled": 0, "fusion_lon": 0.0, "rental_uris": {"android": "https://dc.lft.to/lastmile_qr_scan", "ios": "https://dc.lft.to/lastmile_qr_scan"}, "type": "electric_scooter"}, {"bike_id": "90f6a1018c3cde662d339b2f4acded66", "is_reserved": 0, "name": "90f6a1018c3cde662d339b2f4acded66", "lat": 38.90284616666667, "fusion_lat": 0.0, "lon": -77.03477066666666, "is_disabled": 0, "fusion_lon": 0.0, "rental_uris": {"android": "https://dc.lft.to/lastmile_qr_scan", "ios": "https://dc.lft.to/lastmile_qr_scan"}, "type": "electric_scooter"}, {"bike_id": "57bb01d105ac2e3c47ab52ca9143f0a0", "is_reserved": 0, "name": "57bb01d105ac2e3c47ab52ca9143f0a0", "lat": 38.93446083333333, "fusion_lat": 0.0, "lon": -77.05773183333334, "is_disabled": 0, "fusion_lon": 0.0, "rental_uris": {"android": "https://dc.lft.to/lastmile_qr_scan", "ios": "https://dc.lft.to/lastmile_qr_scan"}, "type": "electric_scooter"}, {"bike_id": "bfc1f25a9654a951b99fd1147a6caa5d", "is_reserved": 0, "name": "bfc1f25a9654a951b99fd1147a6caa5d", "lat": 38.924543666666665, "fusion_lat": 0.0, "lon": -76.97104933333334, "is_disabled": 0, "fusion_lon": 0.0, "rental_uris": {"android": "https://dc.lft.to/lastmile_qr_scan", "ios": "https://dc.lft.to/lastmile_qr_scan"}, "type": "electric_scooter"}, {"bike_id": "0d9d5a13ce8d104c86ccac0d3c14c510", "is_reserved": 0, "name": "0d9d5a13ce8d104c86ccac0d3c14c510", "lat": 38.90861066666667, "fusion_lat": 0.0, "lon": -77.04524516666666, "is_disabled": 0, "fusion_lon": 0.0, "rental_uris": {"android": "https://dc.lft.to/lastmile_qr_scan", "ios": "https://dc.lft.to/lastmile_qr_scan"}, "type": "electric_scooter"}, {"bike_id": "a6ac8ad89aa17642734c919d00ab244a", "is_reserved": 0, "name": "a6ac8ad89aa17642734c919d00ab244a", "lat": 38.91420316666667, "fusion_lat": 0.0, "lon": -77.01801533333334, "is_disabled": 0, "fusion_lon": 0.0, "rental_uris": {"android": "https://dc.lft.to/lastmile_qr_scan", "ios": "https://dc.lft.to/lastmile_qr_scan"}, "type": "electric_scooter"}, {"bike_id": "f5f0d1a67b24841cd893b70e453c5a27", "is_reserved": 0, "name": "f5f0d1a67b24841cd893b70e453c5a27", "lat": 38.919092666666664, "fusion_lat": 0.0, "lon": -77.01203583333333, "is_disabled": 0, "fusion_lon": 0.0, "rental_uris": {"android": "https://dc.lft.to/lastmile_qr_scan", "ios": "https://dc.lft.to/lastmile_qr_scan"}, "type": "electric_scooter"}, {"bike_id": "d5b420c949bd3b699b6e86ec080e1724", "is_reserved": 0, "name": "d5b420c949bd3b699b6e86ec080e1724", "lat": 38.902416833333334, "fusion_lat": 0.0, "lon": -77.028525, "is_disabled": 0, "fusion_lon": 0.0, "rental_uris": {"android": "https://dc.lft.to/lastmile_qr_scan", "ios": "https://dc.lft.to/lastmile_qr_scan"}, "type": "electric_scooter"}, {"bike_id": "f6547303ba4989a316dd694f9832d5da", "is_reserved": 0, "name": "f6547303ba4989a316dd694f9832d5da", "lat": 38.90553516666667, "fusion_lat": 0.0, "lon": -76.9947115, "is_disabled": 0, "fusion_lon": 0.0, "rental_uris": {"android": "https://dc.lft.to/lastmile_qr_scan", "ios": "https://dc.lft.to/lastmile_qr_scan"}, "type": "electric_scooter"}, {"bike_id": "0d02836b928b0760980c1ce4304f5750", "is_reserved": 0, "name": "0d02836b928b0760980c1ce4304f5750", "lat": 38.884059666666666, "fusion_lat": 0.0, "lon": -76.99379466666667, "is_disabled": 0, "fusion_lon": 0.0, "rental_uris": {"android": "https://dc.lft.to/lastmile_qr_scan", "ios": "https://dc.lft.to/lastmile_qr_scan"}, "type": "electric_scooter"}, {"bike_id": "aaa2363e41dd0342560c7a6849ee348a", "is_reserved": 0, "name": "aaa2363e41dd0342560c7a6849ee348a", "lat": 38.924352166666665, "fusion_lat": 0.0, "lon": -77.02016333333333, "is_disabled": 0, "fusion_lon": 0.0, "rental_uris": {"android": "https://dc.lft.to/lastmile_qr_scan", "ios": "https://dc.lft.to/lastmile_qr_scan"}, "type": "electric_scooter"}, {"bike_id": "1b8410cb8fb1f2c9ae226b87978a38da", "is_reserved": 0, "name": "1b8410cb8fb1f2c9ae226b87978a38da", "lat": 38.89352366666667, "fusion_lat": 0.0, "lon": -77.00333116666667, "is_disabled": 0, "fusion_lon": 0.0, "rental_uris": {"android": "https://dc.lft.to/lastmile_qr_scan", "ios": "https://dc.lft.to/lastmile_qr_scan"}, "type": "electric_scooter"}, {"bike_id": "d6be8b4c1f0bc4d4b241ffe343bddde8", "is_reserved": 0, "name": "d6be8b4c1f0bc4d4b241ffe343bddde8", "lat": 38.89220066666667, "fusion_lat": 0.0, "lon": -77.0265625, "is_disabled": 0, "fusion_lon": 0.0, "rental_uris": {"android": "https://dc.lft.to/lastmile_qr_scan", "ios": "https://dc.lft.to/lastmile_qr_scan"}, "type": "electric_scooter"}, {"bike_id": "57f3496bc4a24f448ce955d5b3637b14", "is_reserved": 0, "name": "57f3496bc4a24f448ce955d5b3637b14", "lat": 38.921912, "fusion_lat": 0.0, "lon": -77.03975866666667, "is_disabled": 0, "fusion_lon": 0.0, "rental_uris": {"android": "https://dc.lft.to/lastmile_qr_scan", "ios": "https://dc.lft.to/lastmile_qr_scan"}, "type": "electric_scooter"}, {"bike_id": "0b6de61e4da219b130e63f027a3b7058", "is_reserved": 0, "name": "0b6de61e4da219b130e63f027a3b7058", "lat": 38.935651666666665, "fusion_lat": 0.0, "lon": -77.08766233333333, "is_disabled": 0, "fusion_lon": 0.0, "rental_uris": {"android": "https://dc.lft.to/lastmile_qr_scan", "ios": "https://dc.lft.to/lastmile_qr_scan"}, "type": "electric_scooter"}, {"bike_id": "7b32bddfb96c1a1d50149efd73a122a5", "is_reserved": 0, "name": "7b32bddfb96c1a1d50149efd73a122a5", "lat": 38.921294, "fusion_lat": 0.0, "lon": -77.025437, "is_disabled": 0, "fusion_lon": 0.0, "rental_uris": {"android": "https://dc.lft.to/lastmile_qr_scan", "ios": "https://dc.lft.to/lastmile_qr_scan"}, "type": "electric_scooter"}, {"bike_id": "43f0ab7f05b3fbf6bb21e2d0b735b1ac", "is_reserved": 0, "name": "43f0ab7f05b3fbf6bb21e2d0b735b1ac", "lat": 38.914698, "fusion_lat": 0.0, "lon": -77.02458733333333, "is_disabled": 0, "fusion_lon": 0.0, "rental_uris": {"android": "https://dc.lft.to/lastmile_qr_scan", "ios": "https://dc.lft.to/lastmile_qr_scan"}, "type": "electric_scooter"}, {"bike_id": "3e599b3671f2adba08fd63d713b05885", "is_reserved": 0, "name": "3e599b3671f2adba08fd63d713b05885", "lat": 38.89887, "fusion_lat": 0.0, "lon": -76.9970065, "is_disabled": 0, "fusion_lon": 0.0, "rental_uris": {"android": "https://dc.lft.to/lastmile_qr_scan", "ios": "https://dc.lft.to/lastmile_qr_scan"}, "type": "electric_scooter"}, {"bike_id": "e96ebedb021812b929041a92b9b22bd2", "is_reserved": 0, "name": "e96ebedb021812b929041a92b9b22bd2", "lat": 38.90958933333334, "fusion_lat": 0.0, "lon": -77.0342125, "is_disabled": 0, "fusion_lon": 0.0, "rental_uris": {"android": "https://dc.lft.to/lastmile_qr_scan", "ios": "https://dc.lft.to/lastmile_qr_scan"}, "type": "electric_scooter"}, {"bike_id": "465536f48d76ab13295985865ae5e7bb", "is_reserved": 0, "name": "465536f48d76ab13295985865ae5e7bb", "lat": 38.9037155, "fusion_lat": 0.0, "lon": -77.0100075, "is_disabled": 0, "fusion_lon": 0.0, "rental_uris": {"android": "https://dc.lft.to/lastmile_qr_scan", "ios": "https://dc.lft.to/lastmile_qr_scan"}, "type": "electric_scooter"}, {"bike_id": "8c1b70ce29f52a8a1ef9b8d233cdf25b", "is_reserved": 0, "name": "8c1b70ce29f52a8a1ef9b8d233cdf25b", "lat": 38.909498666666664, "fusion_lat": 0.0, "lon": -77.02712016666666, "is_disabled": 0, "fusion_lon": 0.0, "rental_uris": {"android": "https://dc.lft.to/lastmile_qr_scan", "ios": "https://dc.lft.to/lastmile_qr_scan"}, "type": "electric_scooter"}, {"bike_id": "aa8ff2ccb84dab25378dc27b070f5556", "is_reserved": 0, "name": "aa8ff2ccb84dab25378dc27b070f5556", "lat": 38.87384866666667, "fusion_lat": 0.0, "lon": -77.000406, "is_disabled": 0, "fusion_lon": 0.0, "rental_uris": {"android": "https://dc.lft.to/lastmile_qr_scan", "ios": "https://dc.lft.to/lastmile_qr_scan"}, "type": "electric_scooter"}, {"bike_id": "15d2a690e625c9a1211bc9761cda98ca", "is_reserved": 0, "name": "15d2a690e625c9a1211bc9761cda98ca", "lat": 38.891837833333334, "fusion_lat": 0.0, "lon": -77.01589783333333, "is_disabled": 0, "fusion_lon": 0.0, "rental_uris": {"android": "https://dc.lft.to/lastmile_qr_scan", "ios": "https://dc.lft.to/lastmile_qr_scan"}, "type": "electric_scooter"}, {"bike_id": "b7a96323525e4d54d85717360c73e721", "is_reserved": 0, "name": "b7a96323525e4d54d85717360c73e721", "lat": 38.917087333333335, "fusion_lat": 0.0, "lon": -77.03042133333334, "is_disabled": 0, "fusion_lon": 0.0, "rental_uris": {"android": "https://dc.lft.to/lastmile_qr_scan", "ios": "https://dc.lft.to/lastmile_qr_scan"}, "type": "electric_scooter"}, {"bike_id": "adbb7da50f353d2ff5660784b4f97715", "is_reserved": 0, "name": "adbb7da50f353d2ff5660784b4f97715", "lat": 38.91912383333333, "fusion_lat": 0.0, "lon": -77.02734283333334, "is_disabled": 0, "fusion_lon": 0.0, "rental_uris": {"android": "https://dc.lft.to/lastmile_qr_scan", "ios": "https://dc.lft.to/lastmile_qr_scan"}, "type": "electric_scooter"}, {"bike_id": "bad1570d3e84cb832eae854f0daa00a8", "is_reserved": 0, "name": "bad1570d3e84cb832eae854f0daa00a8", "lat": 38.8748225, "fusion_lat": 0.0, "lon": -77.0060095, "is_disabled": 0, "fusion_lon": 0.0, "rental_uris": {"android": "https://dc.lft.to/lastmile_qr_scan", "ios": "https://dc.lft.to/lastmile_qr_scan"}, "type": "electric_scooter"}, {"bike_id": "3a976f8a6a3ce8d1057170a40a38af78", "is_reserved": 0, "name": "3a976f8a6a3ce8d1057170a40a38af78", "lat": 38.91808433333333, "fusion_lat": 0.0, "lon": -77.03180183333333, "is_disabled": 0, "fusion_lon": 0.0, "rental_uris": {"android": "https://dc.lft.to/lastmile_qr_scan", "ios": "https://dc.lft.to/lastmile_qr_scan"}, "type": "electric_scooter"}, {"bike_id": "3a8c6ce2feed89d827b0bbe76203ee9b", "is_reserved": 0, "name": "3a8c6ce2feed89d827b0bbe76203ee9b", "lat": 38.853298333333335, "fusion_lat": 0.0, "lon": -77.115048, "is_disabled": 0, "fusion_lon": 0.0, "rental_uris": {"android": "https://dc.lft.to/lastmile_qr_scan", "ios": "https://dc.lft.to/lastmile_qr_scan"}, "type": "electric_bike"}, {"bike_id": "b634824f82ddf973be2edb4897ac43d1", "is_reserved": 0, "name": "b634824f82ddf973be2edb4897ac43d1", "lat": 38.92861516666667, "fusion_lat": 0.0, "lon": -77.032355, "is_disabled": 0, "fusion_lon": 0.0, "rental_uris": {"android": "https://dc.lft.to/lastmile_qr_scan", "ios": "https://dc.lft.to/lastmile_qr_scan"}, "type": "electric_scooter"}, {"bike_id": "3f8f42dd63aacb0e78ff89d5f7fa97a7", "is_reserved": 0, "name": "3f8f42dd63aacb0e78ff89d5f7fa97a7", "lat": 38.868884666666666, "fusion_lat": 0.0, "lon": -76.99002, "is_disabled": 0, "fusion_lon": 0.0, "rental_uris": {"android": "https://dc.lft.to/lastmile_qr_scan", "ios": "https://dc.lft.to/lastmile_qr_scan"}, "type": "electric_scooter"}, {"bike_id": "5612cc342b20c01b1579b36db21f28b8", "is_reserved": 0, "name": "5612cc342b20c01b1579b36db21f28b8", "lat": 38.860605, "fusion_lat": 0.0, "lon": -76.967108, "is_disabled": 0, "fusion_lon": 0.0, "rental_uris": {"android": "https://dc.lft.to/lastmile_qr_scan", "ios": "https://dc.lft.to/lastmile_qr_scan"}, "type": "electric_scooter"}, {"bike_id": "af3f3bddccc781f6a585a4e34c1b1717", "is_reserved": 0, "name": "af3f3bddccc781f6a585a4e34c1b1717", "lat": 38.922813, "fusion_lat": 0.0, "lon": -77.03657683333333, "is_disabled": 0, "fusion_lon": 0.0, "rental_uris": {"android": "https://dc.lft.to/lastmile_qr_scan", "ios": "https://dc.lft.to/lastmile_qr_scan"}, "type": "electric_scooter"}, {"bike_id": "373c8192c60c4ba3aa484dbc724ec7ad", "is_reserved": 0, "name": "373c8192c60c4ba3aa484dbc724ec7ad", "lat": 38.9054555, "fusion_lat": 0.0, "lon": -77.00716766666666, "is_disabled": 0, "fusion_lon": 0.0, "rental_uris": {"android": "https://dc.lft.to/lastmile_qr_scan", "ios": "https://dc.lft.to/lastmile_qr_scan"}, "type": "electric_scooter"}, {"bike_id": "c7237e4f64830cb2ffa6da3977cafda4", "is_reserved": 0, "name": "c7237e4f64830cb2ffa6da3977cafda4", "lat": 39.034354, "fusion_lat": 0.0, "lon": -77.04314533333333, "is_disabled": 0, "fusion_lon": 0.0, "rental_uris": {"android": "https://dc.lft.to/lastmile_qr_scan", "ios": "https://dc.lft.to/lastmile_qr_scan"}, "type": "electric_bike"}, {"bike_id": "f74a89a4649918b91cbcc763f038f5a2", "is_reserved": 0, "name": "f74a89a4649918b91cbcc763f038f5a2", "lat": 38.910467, "fusion_lat": 0.0, "lon": -77.04339316666666, "is_disabled": 0, "fusion_lon": 0.0, "rental_uris": {"android": "https://dc.lft.to/lastmile_qr_scan", "ios": "https://dc.lft.to/lastmile_qr_scan"}, "type": "electric_scooter"}, {"bike_id": "971c91869c8f4b08a33ecb548a5d558f", "is_reserved": 0, "name": "971c91869c8f4b08a33ecb548a5d558f", "lat": 38.912683666666666, "fusion_lat": 0.0, "lon": -77.02261733333333, "is_disabled": 0, "fusion_lon": 0.0, "rental_uris": {"android": "https://dc.lft.to/lastmile_qr_scan", "ios": "https://dc.lft.to/lastmile_qr_scan"}, "type": "electric_scooter"}, {"bike_id": "8f077fdd602c6d37f2aed25f510dc113", "is_reserved": 0, "name": "8f077fdd602c6d37f2aed25f510dc113", "lat": 38.91921283333333, "fusion_lat": 0.0, "lon": -77.03206816666666, "is_disabled": 0, "fusion_lon": 0.0, "rental_uris": {"android": "https://dc.lft.to/lastmile_qr_scan", "ios": "https://dc.lft.to/lastmile_qr_scan"}, "type": "electric_scooter"}, {"bike_id": "7f510e6b18d702672257473a584ad816", "is_reserved": 0, "name": "7f510e6b18d702672257473a584ad816", "lat": 38.89770683333333, "fusion_lat": 0.0, "lon": -76.984623, "is_disabled": 0, "fusion_lon": 0.0, "rental_uris": {"android": "https://dc.lft.to/lastmile_qr_scan", "ios": "https://dc.lft.to/lastmile_qr_scan"}, "type": "electric_scooter"}, {"bike_id": "f8a0ac2f0df44808d474df079e61d1bb", "is_reserved": 0, "name": "f8a0ac2f0df44808d474df079e61d1bb", "lat": 38.909871, "fusion_lat": 0.0, "lon": -77.02186933333333, "is_disabled": 0, "fusion_lon": 0.0, "rental_uris": {"android": "https://dc.lft.to/lastmile_qr_scan", "ios": "https://dc.lft.to/lastmile_qr_scan"}, "type": "electric_scooter"}, {"bike_id": "4e2e06bc3fbfbc188c84a23773f36583", "is_reserved": 0, "name": "4e2e06bc3fbfbc188c84a23773f36583", "lat": 38.9004775, "fusion_lat": 0.0, "lon": -77.04486533333333, "is_disabled": 0, "fusion_lon": 0.0, "rental_uris": {"android": "https://dc.lft.to/lastmile_qr_scan", "ios": "https://dc.lft.to/lastmile_qr_scan"}, "type": "electric_scooter"}, {"bike_id": "064afcc0dc8f65617db5bbf7c5a1b3b5", "is_reserved": 0, "name": "064afcc0dc8f65617db5bbf7c5a1b3b5", "lat": 38.94307516666667, "fusion_lat": 0.0, "lon": -77.06131683333334, "is_disabled": 0, "fusion_lon": 0.0, "rental_uris": {"android": "https://dc.lft.to/lastmile_qr_scan", "ios": "https://dc.lft.to/lastmile_qr_scan"}, "type": "electric_scooter"}, {"bike_id": "75ecefc22cd77869a7318721ae8b9842", "is_reserved": 0, "name": "75ecefc22cd77869a7318721ae8b9842", "lat": 38.922336, "fusion_lat": 0.0, "lon": -77.04247483333333, "is_disabled": 0, "fusion_lon": 0.0, "rental_uris": {"android": "https://dc.lft.to/lastmile_qr_scan", "ios": "https://dc.lft.to/lastmile_qr_scan"}, "type": "electric_scooter"}, {"bike_id": "cfd56d68ba2334bbef0c028027955b2a", "is_reserved": 0, "name": "cfd56d68ba2334bbef0c028027955b2a", "lat": 38.92722116666667, "fusion_lat": 0.0, "lon": -77.02079166666667, "is_disabled": 0, "fusion_lon": 0.0, "rental_uris": {"android": "https://dc.lft.to/lastmile_qr_scan", "ios": "https://dc.lft.to/lastmile_qr_scan"}, "type": "electric_scooter"}, {"bike_id": "555b9d18c46b7ef0c97bae73f236a58e", "is_reserved": 0, "name": "555b9d18c46b7ef0c97bae73f236a58e", "lat": 38.871514833333336, "fusion_lat": 0.0, "lon": -77.011861, "is_disabled": 0, "fusion_lon": 0.0, "rental_uris": {"android": "https://dc.lft.to/lastmile_qr_scan", "ios": "https://dc.lft.to/lastmile_qr_scan"}, "type": "electric_bike"}, {"bike_id": "3a80808fbdd7c39dca19edaefe5c55a6", "is_reserved": 0, "name": "3a80808fbdd7c39dca19edaefe5c55a6", "lat": 38.917081333333336, "fusion_lat": 0.0, "lon": -77.024236, "is_disabled": 0, "fusion_lon": 0.0, "rental_uris": {"android": "https://dc.lft.to/lastmile_qr_scan", "ios": "https://dc.lft.to/lastmile_qr_scan"}, "type": "electric_scooter"}, {"bike_id": "852aea44133cf1d8da3b28f65dffd7ae", "is_reserved": 0, "name": "852aea44133cf1d8da3b28f65dffd7ae", "lat": 38.869336, "fusion_lat": 0.0, "lon": -77.01370583333333, "is_disabled": 0, "fusion_lon": 0.0, "rental_uris": {"android": "https://dc.lft.to/lastmile_qr_scan", "ios": "https://dc.lft.to/lastmile_qr_scan"}, "type": "electric_scooter"}, {"bike_id": "47f2aad5e175f6920695af0e229338e4", "is_reserved": 0, "name": "47f2aad5e175f6920695af0e229338e4", "lat": 38.898849, "fusion_lat": 0.0, "lon": -76.9317375, "is_disabled": 0, "fusion_lon": 0.0, "rental_uris": {"android": "https://dc.lft.to/lastmile_qr_scan", "ios": "https://dc.lft.to/lastmile_qr_scan"}, "type": "electric_scooter"}, {"bike_id": "2c42a3b5784e14d7a7b207bc4d72bec8", "is_reserved": 0, "name": "2c42a3b5784e14d7a7b207bc4d72bec8", "lat": 38.90149983333333, "fusion_lat": 0.0, "lon": -76.93066666666667, "is_disabled": 0, "fusion_lon": 0.0, "rental_uris": {"android": "https://dc.lft.to/lastmile_qr_scan", "ios": "https://dc.lft.to/lastmile_qr_scan"}, "type": "electric_scooter"}, {"bike_id": "209f9c80a800533c464152f0cee31ee6", "is_reserved": 0, "name": "209f9c80a800533c464152f0cee31ee6", "lat": 38.91090233333333, "fusion_lat": 0.0, "lon": -77.044883, "is_disabled": 0, "fusion_lon": 0.0, "rental_uris": {"android": "https://dc.lft.to/lastmile_qr_scan", "ios": "https://dc.lft.to/lastmile_qr_scan"}, "type": "electric_scooter"}, {"bike_id": "ad57e014cc8da09be4cd92299afdb771", "is_reserved": 0, "name": "ad57e014cc8da09be4cd92299afdb771", "lat": 38.90198983333333, "fusion_lat": 0.0, "lon": -77.0237005, "is_disabled": 0, "fusion_lon": 0.0, "rental_uris": {"android": "https://dc.lft.to/lastmile_qr_scan", "ios": "https://dc.lft.to/lastmile_qr_scan"}, "type": "electric_scooter"}, {"bike_id": "b1aba5f5d6c3b29f0364dfeffbe138aa", "is_reserved": 0, "name": "b1aba5f5d6c3b29f0364dfeffbe138aa", "lat": 38.924244333333334, "fusion_lat": 0.0, "lon": -77.05173316666666, "is_disabled": 0, "fusion_lon": 0.0, "rental_uris": {"android": "https://dc.lft.to/lastmile_qr_scan", "ios": "https://dc.lft.to/lastmile_qr_scan"}, "type": "electric_scooter"}, {"bike_id": "6dc21fa0067e664d6debc665921270de", "is_reserved": 0, "name": "6dc21fa0067e664d6debc665921270de", "lat": 38.874957333333334, "fusion_lat": 0.0, "lon": -77.00117083333333, "is_disabled": 0, "fusion_lon": 0.0, "rental_uris": {"android": "https://dc.lft.to/lastmile_qr_scan", "ios": "https://dc.lft.to/lastmile_qr_scan"}, "type": "electric_scooter"}, {"bike_id": "eef343c18860629899976232bb2bdf51", "is_reserved": 0, "name": "eef343c18860629899976232bb2bdf51", "lat": 38.875567333333336, "fusion_lat": 0.0, "lon": -77.00601383333333, "is_disabled": 0, "fusion_lon": 0.0, "rental_uris": {"android": "https://dc.lft.to/lastmile_qr_scan", "ios": "https://dc.lft.to/lastmile_qr_scan"}, "type": "electric_scooter"}, {"bike_id": "39e3b13c84f07d46588dca4e3e9c1077", "is_reserved": 0, "name": "39e3b13c84f07d46588dca4e3e9c1077", "lat": 38.9068345, "fusion_lat": 0.0, "lon": -76.944927, "is_disabled": 0, "fusion_lon": 0.0, "rental_uris": {"android": "https://dc.lft.to/lastmile_qr_scan", "ios": "https://dc.lft.to/lastmile_qr_scan"}, "type": "electric_bike"}, {"bike_id": "931f71de940e31d88fc3528384395b59", "is_reserved": 0, "name": "931f71de940e31d88fc3528384395b59", "lat": 38.899518666666665, "fusion_lat": 0.0, "lon": -77.016193, "is_disabled": 0, "fusion_lon": 0.0, "rental_uris": {"android": "https://dc.lft.to/lastmile_qr_scan", "ios": "https://dc.lft.to/lastmile_qr_scan"}, "type": "electric_scooter"}, {"bike_id": "ef05667df343b6ce8e2e3bc4b66291d5", "is_reserved": 0, "name": "ef05667df343b6ce8e2e3bc4b66291d5", "lat": 38.9505945, "fusion_lat": 0.0, "lon": -77.080219, "is_disabled": 0, "fusion_lon": 0.0, "rental_uris": {"android": "https://dc.lft.to/lastmile_qr_scan", "ios": "https://dc.lft.to/lastmile_qr_scan"}, "type": "electric_scooter"}, {"bike_id": "2ea220441d399653a3432b0db1f8f7ec", "is_reserved": 0, "name": "2ea220441d399653a3432b0db1f8f7ec", "lat": 38.8938305, "fusion_lat": 0.0, "lon": -76.9230855, "is_disabled": 0, "fusion_lon": 0.0, "rental_uris": {"android": "https://dc.lft.to/lastmile_qr_scan", "ios": "https://dc.lft.to/lastmile_qr_scan"}, "type": "electric_scooter"}, {"bike_id": "de7dda35118af374112c4d3f77d25a00", "is_reserved": 0, "name": "de7dda35118af374112c4d3f77d25a00", "lat": 38.943373333333334, "fusion_lat": 0.0, "lon": -76.98312633333333, "is_disabled": 0, "fusion_lon": 0.0, "rental_uris": {"android": "https://dc.lft.to/lastmile_qr_scan", "ios": "https://dc.lft.to/lastmile_qr_scan"}, "type": "electric_scooter"}, {"bike_id": "2c063f27e5a1ac4ba9eef67e6aae2d52", "is_reserved": 0, "name": "2c063f27e5a1ac4ba9eef67e6aae2d52", "lat": 38.905789166666665, "fusion_lat": 0.0, "lon": -77.00605066666667, "is_disabled": 0, "fusion_lon": 0.0, "rental_uris": {"android": "https://dc.lft.to/lastmile_qr_scan", "ios": "https://dc.lft.to/lastmile_qr_scan"}, "type": "electric_scooter"}, {"bike_id": "dd8f6cb5f601a3ca810aca160019a37b", "is_reserved": 0, "name": "dd8f6cb5f601a3ca810aca160019a37b", "lat": 38.95352333333334, "fusion_lat": 0.0, "lon": -76.980932, "is_disabled": 0, "fusion_lon": 0.0, "rental_uris": {"android": "https://dc.lft.to/lastmile_qr_scan", "ios": "https://dc.lft.to/lastmile_qr_scan"}, "type": "electric_bike"}, {"bike_id": "7be137fe0f9e1fa0a77b021632616d4d", "is_reserved": 0, "name": "7be137fe0f9e1fa0a77b021632616d4d", "lat": 38.87543133333333, "fusion_lat": 0.0, "lon": -77.00536166666667, "is_disabled": 0, "fusion_lon": 0.0, "rental_uris": {"android": "https://dc.lft.to/lastmile_qr_scan", "ios": "https://dc.lft.to/lastmile_qr_scan"}, "type": "electric_scooter"}, {"bike_id": "a672c704e265640f8fc5d8791f9ba90e", "is_reserved": 0, "name": "a672c704e265640f8fc5d8791f9ba90e", "lat": 38.933251166666665, "fusion_lat": 0.0, "lon": -77.03270966666666, "is_disabled": 0, "fusion_lon": 0.0, "rental_uris": {"android": "https://dc.lft.to/lastmile_qr_scan", "ios": "https://dc.lft.to/lastmile_qr_scan"}, "type": "electric_scooter"}, {"bike_id": "dff652595f893e0dffcd83b0af3bd918", "is_reserved": 0, "name": "dff652595f893e0dffcd83b0af3bd918", "lat": 38.902061833333335, "fusion_lat": 0.0, "lon": -77.02348616666667, "is_disabled": 0, "fusion_lon": 0.0, "rental_uris": {"android": "https://dc.lft.to/lastmile_qr_scan", "ios": "https://dc.lft.to/lastmile_qr_scan"}, "type": "electric_scooter"}, {"bike_id": "b0e4436781f20eea633a911a46a59762", "is_reserved": 0, "name": "b0e4436781f20eea633a911a46a59762", "lat": 38.865187166666665, "fusion_lat": 0.0, "lon": -76.97332616666667, "is_disabled": 0, "fusion_lon": 0.0, "rental_uris": {"android": "https://dc.lft.to/lastmile_qr_scan", "ios": "https://dc.lft.to/lastmile_qr_scan"}, "type": "electric_bike"}, {"bike_id": "ea3820081d0e0c63015eac30be7ca1e1", "is_reserved": 0, "name": "ea3820081d0e0c63015eac30be7ca1e1", "lat": 38.915524166666664, "fusion_lat": 0.0, "lon": -77.04610166666667, "is_disabled": 0, "fusion_lon": 0.0, "rental_uris": {"android": "https://dc.lft.to/lastmile_qr_scan", "ios": "https://dc.lft.to/lastmile_qr_scan"}, "type": "electric_scooter"}, {"bike_id": "ce329c4636d2f83bb07f4791b6d1b7c5", "is_reserved": 0, "name": "ce329c4636d2f83bb07f4791b6d1b7c5", "lat": 38.87669316666667, "fusion_lat": 0.0, "lon": -76.99270883333334, "is_disabled": 0, "fusion_lon": 0.0, "rental_uris": {"android": "https://dc.lft.to/lastmile_qr_scan", "ios": "https://dc.lft.to/lastmile_qr_scan"}, "type": "electric_scooter"}, {"bike_id": "8e91e560093fe41cd8a735fc68fe1628", "is_reserved": 0, "name": "8e91e560093fe41cd8a735fc68fe1628", "lat": 38.91919083333333, "fusion_lat": 0.0, "lon": -77.03201616666666, "is_disabled": 0, "fusion_lon": 0.0, "rental_uris": {"android": "https://dc.lft.to/lastmile_qr_scan", "ios": "https://dc.lft.to/lastmile_qr_scan"}, "type": "electric_scooter"}, {"bike_id": "5d19f389895952c3e4b1744e614e9bfc", "is_reserved": 0, "name": "5d19f389895952c3e4b1744e614e9bfc", "lat": 38.923413333333336, "fusion_lat": 0.0, "lon": -77.05180866666667, "is_disabled": 0, "fusion_lon": 0.0, "rental_uris": {"android": "https://dc.lft.to/lastmile_qr_scan", "ios": "https://dc.lft.to/lastmile_qr_scan"}, "type": "electric_scooter"}, {"bike_id": "28103dbf2e8548d6f1662ec7d012d877", "is_reserved": 0, "name": "28103dbf2e8548d6f1662ec7d012d877", "lat": 38.902779, "fusion_lat": 0.0, "lon": -77.04437916666667, "is_disabled": 0, "fusion_lon": 0.0, "rental_uris": {"android": "https://dc.lft.to/lastmile_qr_scan", "ios": "https://dc.lft.to/lastmile_qr_scan"}, "type": "electric_scooter"}, {"bike_id": "f550a5834d3615e8d0578425060b076c", "is_reserved": 0, "name": "f550a5834d3615e8d0578425060b076c", "lat": 38.900122333333336, "fusion_lat": 0.0, "lon": -76.989472, "is_disabled": 0, "fusion_lon": 0.0, "rental_uris": {"android": "https://dc.lft.to/lastmile_qr_scan", "ios": "https://dc.lft.to/lastmile_qr_scan"}, "type": "electric_scooter"}, {"bike_id": "29dfbd5aff27658b94c2487c62d7253c", "is_reserved": 0, "name": "29dfbd5aff27658b94c2487c62d7253c", "lat": 38.9307975, "fusion_lat": 0.0, "lon": -77.02796883333333, "is_disabled": 0, "fusion_lon": 0.0, "rental_uris": {"android": "https://dc.lft.to/lastmile_qr_scan", "ios": "https://dc.lft.to/lastmile_qr_scan"}, "type": "electric_scooter"}, {"bike_id": "f3a74f580b92547e7a764b2639a6121c", "is_reserved": 0, "name": "f3a74f580b92547e7a764b2639a6121c", "lat": 38.91701066666667, "fusion_lat": 0.0, "lon": -77.0287155, "is_disabled": 0, "fusion_lon": 0.0, "rental_uris": {"android": "https://dc.lft.to/lastmile_qr_scan", "ios": "https://dc.lft.to/lastmile_qr_scan"}, "type": "electric_scooter"}, {"bike_id": "9264c955ec776e6656901464c35cee91", "is_reserved": 0, "name": "9264c955ec776e6656901464c35cee91", "lat": 38.8776435, "fusion_lat": 0.0, "lon": -77.01047266666667, "is_disabled": 0, "fusion_lon": 0.0, "rental_uris": {"android": "https://dc.lft.to/lastmile_qr_scan", "ios": "https://dc.lft.to/lastmile_qr_scan"}, "type": "electric_bike"}, {"bike_id": "dae39a31dccbcd94b5eaabda52152ba3", "is_reserved": 0, "name": "dae39a31dccbcd94b5eaabda52152ba3", "lat": 38.90184033333333, "fusion_lat": 0.0, "lon": -77.05062633333333, "is_disabled": 0, "fusion_lon": 0.0, "rental_uris": {"android": "https://dc.lft.to/lastmile_qr_scan", "ios": "https://dc.lft.to/lastmile_qr_scan"}, "type": "electric_scooter"}, {"bike_id": "d71556121d7a0796e3b533c971b1c599", "is_reserved": 0, "name": "d71556121d7a0796e3b533c971b1c599", "lat": 38.94310616666667, "fusion_lat": 0.0, "lon": -77.02492866666667, "is_disabled": 0, "fusion_lon": 0.0, "rental_uris": {"android": "https://dc.lft.to/lastmile_qr_scan", "ios": "https://dc.lft.to/lastmile_qr_scan"}, "type": "electric_scooter"}, {"bike_id": "540f957e57826ddfa15aa2a05dc13d52", "is_reserved": 0, "name": "540f957e57826ddfa15aa2a05dc13d52", "lat": 38.9110005, "fusion_lat": 0.0, "lon": -77.0447535, "is_disabled": 0, "fusion_lon": 0.0, "rental_uris": {"android": "https://dc.lft.to/lastmile_qr_scan", "ios": "https://dc.lft.to/lastmile_qr_scan"}, "type": "electric_scooter"}, {"bike_id": "43e2fc637fcc5f7cd9d94c59016b031e", "is_reserved": 0, "name": "43e2fc637fcc5f7cd9d94c59016b031e", "lat": 38.883978, "fusion_lat": 0.0, "lon": -77.0198725, "is_disabled": 0, "fusion_lon": 0.0, "rental_uris": {"android": "https://dc.lft.to/lastmile_qr_scan", "ios": "https://dc.lft.to/lastmile_qr_scan"}, "type": "electric_scooter"}, {"bike_id": "e8a8e4743804dca23f837c5c15d3470b", "is_reserved": 0, "name": "e8a8e4743804dca23f837c5c15d3470b", "lat": 38.9000835, "fusion_lat": 0.0, "lon": -77.046408, "is_disabled": 0, "fusion_lon": 0.0, "rental_uris": {"android": "https://dc.lft.to/lastmile_qr_scan", "ios": "https://dc.lft.to/lastmile_qr_scan"}, "type": "electric_scooter"}, {"bike_id": "ce3cc8da35d81dd795e24e391fe9ab6d", "is_reserved": 0, "name": "ce3cc8da35d81dd795e24e391fe9ab6d", "lat": 38.90470833333333, "fusion_lat": 0.0, "lon": -77.01885583333333, "is_disabled": 0, "fusion_lon": 0.0, "rental_uris": {"android": "https://dc.lft.to/lastmile_qr_scan", "ios": "https://dc.lft.to/lastmile_qr_scan"}, "type": "electric_scooter"}, {"bike_id": "4a37d03e5e38ddbc7cc82dd670379afa", "is_reserved": 0, "name": "4a37d03e5e38ddbc7cc82dd670379afa", "lat": 38.91271916666667, "fusion_lat": 0.0, "lon": -77.04705733333333, "is_disabled": 0, "fusion_lon": 0.0, "rental_uris": {"android": "https://dc.lft.to/lastmile_qr_scan", "ios": "https://dc.lft.to/lastmile_qr_scan"}, "type": "electric_scooter"}, {"bike_id": "02811e9fecc27b7481f969db4bb6664f", "is_reserved": 0, "name": "02811e9fecc27b7481f969db4bb6664f", "lat": 38.920593333333336, "fusion_lat": 0.0, "lon": -77.031716, "is_disabled": 0, "fusion_lon": 0.0, "rental_uris": {"android": "https://dc.lft.to/lastmile_qr_scan", "ios": "https://dc.lft.to/lastmile_qr_scan"}, "type": "electric_scooter"}, {"bike_id": "b25b92c0fb2a8df116a25587d48e411b", "is_reserved": 0, "name": "b25b92c0fb2a8df116a25587d48e411b", "lat": 38.92345616666667, "fusion_lat": 0.0, "lon": -77.05168383333333, "is_disabled": 0, "fusion_lon": 0.0, "rental_uris": {"android": "https://dc.lft.to/lastmile_qr_scan", "ios": "https://dc.lft.to/lastmile_qr_scan"}, "type": "electric_scooter"}, {"bike_id": "5b7ab96a32c995cd77805de3d936c30f", "is_reserved": 0, "name": "5b7ab96a32c995cd77805de3d936c30f", "lat": 38.87792533333333, "fusion_lat": 0.0, "lon": -76.999439, "is_disabled": 0, "fusion_lon": 0.0, "rental_uris": {"android": "https://dc.lft.to/lastmile_qr_scan", "ios": "https://dc.lft.to/lastmile_qr_scan"}, "type": "electric_scooter"}, {"bike_id": "8b8f36572778121aa812dda4eaf8a6d1", "is_reserved": 0, "name": "8b8f36572778121aa812dda4eaf8a6d1", "lat": 38.93983816666667, "fusion_lat": 0.0, "lon": -77.02867016666667, "is_disabled": 0, "fusion_lon": 0.0, "rental_uris": {"android": "https://dc.lft.to/lastmile_qr_scan", "ios": "https://dc.lft.to/lastmile_qr_scan"}, "type": "electric_scooter"}, {"bike_id": "38c3cf192fb2b5f11ad1e17990925bef", "is_reserved": 0, "name": "38c3cf192fb2b5f11ad1e17990925bef", "lat": 38.97882, "fusion_lat": 0.0, "lon": -77.060259, "is_disabled": 0, "fusion_lon": 0.0, "rental_uris": {"android": "https://dc.lft.to/lastmile_qr_scan", "ios": "https://dc.lft.to/lastmile_qr_scan"}, "type": "electric_bike"}, {"bike_id": "22bf0f61720b61af5dcb2db899695015", "is_reserved": 0, "name": "22bf0f61720b61af5dcb2db899695015", "lat": 38.925916, "fusion_lat": 0.0, "lon": -77.03228816666666, "is_disabled": 0, "fusion_lon": 0.0, "rental_uris": {"android": "https://dc.lft.to/lastmile_qr_scan", "ios": "https://dc.lft.to/lastmile_qr_scan"}, "type": "electric_scooter"}, {"bike_id": "18c5b9f8380b5b9eac7f0ea497c9ddbd", "is_reserved": 0, "name": "18c5b9f8380b5b9eac7f0ea497c9ddbd", "lat": 38.91100566666667, "fusion_lat": 0.0, "lon": -77.02966816666667, "is_disabled": 0, "fusion_lon": 0.0, "rental_uris": {"android": "https://dc.lft.to/lastmile_qr_scan", "ios": "https://dc.lft.to/lastmile_qr_scan"}, "type": "electric_scooter"}, {"bike_id": "798462e0890d2afbd01787d0dfe9f031", "is_reserved": 0, "name": "798462e0890d2afbd01787d0dfe9f031", "lat": 38.91821383333333, "fusion_lat": 0.0, "lon": -77.0242085, "is_disabled": 0, "fusion_lon": 0.0, "rental_uris": {"android": "https://dc.lft.to/lastmile_qr_scan", "ios": "https://dc.lft.to/lastmile_qr_scan"}, "type": "electric_scooter"}, {"bike_id": "9f6cfcaedbbc70776c726e2d74d623b8", "is_reserved": 0, "name": "9f6cfcaedbbc70776c726e2d74d623b8", "lat": 38.905104333333334, "fusion_lat": 0.0, "lon": -77.02943683333334, "is_disabled": 0, "fusion_lon": 0.0, "rental_uris": {"android": "https://dc.lft.to/lastmile_qr_scan", "ios": "https://dc.lft.to/lastmile_qr_scan"}, "type": "electric_scooter"}, {"bike_id": "fc5c196f7af7f23cf5a9e76e188505aa", "is_reserved": 0, "name": "fc5c196f7af7f23cf5a9e76e188505aa", "lat": 38.8975485, "fusion_lat": 0.0, "lon": -77.02770433333333, "is_disabled": 0, "fusion_lon": 0.0, "rental_uris": {"android": "https://dc.lft.to/lastmile_qr_scan", "ios": "https://dc.lft.to/lastmile_qr_scan"}, "type": "electric_scooter"}, {"bike_id": "f766ffc357af3cddb918d5e8c0179d48", "is_reserved": 0, "name": "f766ffc357af3cddb918d5e8c0179d48", "lat": 38.857685833333335, "fusion_lat": 0.0, "lon": -76.987659, "is_disabled": 0, "fusion_lon": 0.0, "rental_uris": {"android": "https://dc.lft.to/lastmile_qr_scan", "ios": "https://dc.lft.to/lastmile_qr_scan"}, "type": "electric_bike"}, {"bike_id": "e057975d66cb7dc134d0b911bff8c29a", "is_reserved": 0, "name": "e057975d66cb7dc134d0b911bff8c29a", "lat": 38.86930816666667, "fusion_lat": 0.0, "lon": -77.01362583333334, "is_disabled": 0, "fusion_lon": 0.0, "rental_uris": {"android": "https://dc.lft.to/lastmile_qr_scan", "ios": "https://dc.lft.to/lastmile_qr_scan"}, "type": "electric_scooter"}, {"bike_id": "e7a91c46c029addc05f47a3e404bae45", "is_reserved": 0, "name": "e7a91c46c029addc05f47a3e404bae45", "lat": 38.90152066666667, "fusion_lat": 0.0, "lon": -76.99022233333334, "is_disabled": 0, "fusion_lon": 0.0, "rental_uris": {"android": "https://dc.lft.to/lastmile_qr_scan", "ios": "https://dc.lft.to/lastmile_qr_scan"}, "type": "electric_scooter"}, {"bike_id": "f25c652215fbf6b9bf4f6660140cb42f", "is_reserved": 0, "name": "f25c652215fbf6b9bf4f6660140cb42f", "lat": 38.89728216666666, "fusion_lat": 0.0, "lon": -77.055205, "is_disabled": 0, "fusion_lon": 0.0, "rental_uris": {"android": "https://dc.lft.to/lastmile_qr_scan", "ios": "https://dc.lft.to/lastmile_qr_scan"}, "type": "electric_scooter"}, {"bike_id": "9fff511bf434421e656e58e7e945e8fc", "is_reserved": 0, "name": "9fff511bf434421e656e58e7e945e8fc", "lat": 38.91121233333333, "fusion_lat": 0.0, "lon": -77.02195766666667, "is_disabled": 0, "fusion_lon": 0.0, "rental_uris": {"android": "https://dc.lft.to/lastmile_qr_scan", "ios": "https://dc.lft.to/lastmile_qr_scan"}, "type": "electric_scooter"}, {"bike_id": "252dd36ffed20207ec650a3ea3aff349", "is_reserved": 0, "name": "252dd36ffed20207ec650a3ea3aff349", "lat": 38.92146983333333, "fusion_lat": 0.0, "lon": -77.0319315, "is_disabled": 0, "fusion_lon": 0.0, "rental_uris": {"android": "https://dc.lft.to/lastmile_qr_scan", "ios": "https://dc.lft.to/lastmile_qr_scan"}, "type": "electric_scooter"}, {"bike_id": "4f1ef09781d1f42cfcf50645c43d182d", "is_reserved": 0, "name": "4f1ef09781d1f42cfcf50645c43d182d", "lat": 39.086219666666665, "fusion_lat": 0.0, "lon": -77.15255183333333, "is_disabled": 0, "fusion_lon": 0.0, "rental_uris": {"android": "https://dc.lft.to/lastmile_qr_scan", "ios": "https://dc.lft.to/lastmile_qr_scan"}, "type": "electric_bike"}, {"bike_id": "c18392fc6ec08f1ffb810dd338be7aa5", "is_reserved": 0, "name": "c18392fc6ec08f1ffb810dd338be7aa5", "lat": 38.89761283333333, "fusion_lat": 0.0, "lon": -77.009043, "is_disabled": 0, "fusion_lon": 0.0, "rental_uris": {"android": "https://dc.lft.to/lastmile_qr_scan", "ios": "https://dc.lft.to/lastmile_qr_scan"}, "type": "electric_scooter"}, {"bike_id": "6a62ac78d9d93edc2151711f2d9605b9", "is_reserved": 0, "name": "6a62ac78d9d93edc2151711f2d9605b9", "lat": 38.88498216666667, "fusion_lat": 0.0, "lon": -76.99740683333333, "is_disabled": 0, "fusion_lon": 0.0, "rental_uris": {"android": "https://dc.lft.to/lastmile_qr_scan", "ios": "https://dc.lft.to/lastmile_qr_scan"}, "type": "electric_scooter"}, {"bike_id": "698d1930f69353c99572122ff45529f3", "is_reserved": 0, "name": "698d1930f69353c99572122ff45529f3", "lat": 38.896108, "fusion_lat": 0.0, "lon": -77.13821383333334, "is_disabled": 0, "fusion_lon": 0.0, "rental_uris": {"android": "https://dc.lft.to/lastmile_qr_scan", "ios": "https://dc.lft.to/lastmile_qr_scan"}, "type": "electric_bike"}, {"bike_id": "ced184d6e33087aea69b7d5b557b3c9c", "is_reserved": 0, "name": "ced184d6e33087aea69b7d5b557b3c9c", "lat": 38.9056125, "fusion_lat": 0.0, "lon": -77.005435, "is_disabled": 0, "fusion_lon": 0.0, "rental_uris": {"android": "https://dc.lft.to/lastmile_qr_scan", "ios": "https://dc.lft.to/lastmile_qr_scan"}, "type": "electric_scooter"}, {"bike_id": "09e16b21187f80d2f16f2894965337e4", "is_reserved": 0, "name": "09e16b21187f80d2f16f2894965337e4", "lat": 38.87179883333334, "fusion_lat": 0.0, "lon": -77.00648933333333, "is_disabled": 0, "fusion_lon": 0.0, "rental_uris": {"android": "https://dc.lft.to/lastmile_qr_scan", "ios": "https://dc.lft.to/lastmile_qr_scan"}, "type": "electric_scooter"}, {"bike_id": "39bd465f02089bb73d1a446267ac6900", "is_reserved": 0, "name": "39bd465f02089bb73d1a446267ac6900", "lat": 38.89561783333333, "fusion_lat": 0.0, "lon": -77.07844316666667, "is_disabled": 0, "fusion_lon": 0.0, "rental_uris": {"android": "https://dc.lft.to/lastmile_qr_scan", "ios": "https://dc.lft.to/lastmile_qr_scan"}, "type": "electric_bike"}, {"bike_id": "e7227123a722b29216be1ea90ac05c2a", "is_reserved": 0, "name": "e7227123a722b29216be1ea90ac05c2a", "lat": 38.907891666666664, "fusion_lat": 0.0, "lon": -77.04253766666666, "is_disabled": 0, "fusion_lon": 0.0, "rental_uris": {"android": "https://dc.lft.to/lastmile_qr_scan", "ios": "https://dc.lft.to/lastmile_qr_scan"}, "type": "electric_scooter"}, {"bike_id": "569e2369a1ce66bc93f23e97a7399cbf", "is_reserved": 0, "name": "569e2369a1ce66bc93f23e97a7399cbf", "lat": 38.86015016666666, "fusion_lat": 0.0, "lon": -76.96706216666666, "is_disabled": 0, "fusion_lon": 0.0, "rental_uris": {"android": "https://dc.lft.to/lastmile_qr_scan", "ios": "https://dc.lft.to/lastmile_qr_scan"}, "type": "electric_scooter"}, {"bike_id": "2fa4ba21eae76abfb5912ff5ba1dff4d", "is_reserved": 0, "name": "2fa4ba21eae76abfb5912ff5ba1dff4d", "lat": 38.925884333333336, "fusion_lat": 0.0, "lon": -77.03228933333334, "is_disabled": 0, "fusion_lon": 0.0, "rental_uris": {"android": "https://dc.lft.to/lastmile_qr_scan", "ios": "https://dc.lft.to/lastmile_qr_scan"}, "type": "electric_scooter"}, {"bike_id": "207faa01b5ea77da7f9ab778be9ed966", "is_reserved": 0, "name": "207faa01b5ea77da7f9ab778be9ed966", "lat": 38.91104416666667, "fusion_lat": 0.0, "lon": -77.0209755, "is_disabled": 0, "fusion_lon": 0.0, "rental_uris": {"android": "https://dc.lft.to/lastmile_qr_scan", "ios": "https://dc.lft.to/lastmile_qr_scan"}, "type": "electric_scooter"}, {"bike_id": "af954ae209f9546db1a0c3ed57427cba", "is_reserved": 0, "name": "af954ae209f9546db1a0c3ed57427cba", "lat": 38.9234, "fusion_lat": 0.0, "lon": -77.05216566666667, "is_disabled": 0, "fusion_lon": 0.0, "rental_uris": {"android": "https://dc.lft.to/lastmile_qr_scan", "ios": "https://dc.lft.to/lastmile_qr_scan"}, "type": "electric_scooter"}, {"bike_id": "47a0104079ec1ace80d053964c8a4201", "is_reserved": 0, "name": "47a0104079ec1ace80d053964c8a4201", "lat": 38.8922145, "fusion_lat": 0.0, "lon": -77.043229, "is_disabled": 0, "fusion_lon": 0.0, "rental_uris": {"android": "https://dc.lft.to/lastmile_qr_scan", "ios": "https://dc.lft.to/lastmile_qr_scan"}, "type": "electric_scooter"}, {"bike_id": "7411d705ce0bad36230c2618606505c8", "is_reserved": 0, "name": "7411d705ce0bad36230c2618606505c8", "lat": 38.916564, "fusion_lat": 0.0, "lon": -77.04168216666666, "is_disabled": 0, "fusion_lon": 0.0, "rental_uris": {"android": "https://dc.lft.to/lastmile_qr_scan", "ios": "https://dc.lft.to/lastmile_qr_scan"}, "type": "electric_scooter"}, {"bike_id": "80a6e1edb3def102f3f4a7a33dd93df4", "is_reserved": 0, "name": "80a6e1edb3def102f3f4a7a33dd93df4", "lat": 38.917998833333336, "fusion_lat": 0.0, "lon": -77.03182616666666, "is_disabled": 0, "fusion_lon": 0.0, "rental_uris": {"android": "https://dc.lft.to/lastmile_qr_scan", "ios": "https://dc.lft.to/lastmile_qr_scan"}, "type": "electric_scooter"}, {"bike_id": "c546576922e8676f2aebf413aa70aa98", "is_reserved": 0, "name": "c546576922e8676f2aebf413aa70aa98", "lat": 38.92317283333333, "fusion_lat": 0.0, "lon": -77.0404165, "is_disabled": 0, "fusion_lon": 0.0, "rental_uris": {"android": "https://dc.lft.to/lastmile_qr_scan", "ios": "https://dc.lft.to/lastmile_qr_scan"}, "type": "electric_scooter"}, {"bike_id": "6dc84e586410532eee47d57f91756602", "is_reserved": 0, "name": "6dc84e586410532eee47d57f91756602", "lat": 38.894239166666665, "fusion_lat": 0.0, "lon": -77.02197333333334, "is_disabled": 0, "fusion_lon": 0.0, "rental_uris": {"android": "https://dc.lft.to/lastmile_qr_scan", "ios": "https://dc.lft.to/lastmile_qr_scan"}, "type": "electric_scooter"}, {"bike_id": "06989570cd60a5393cf3d81ef8ed2d85", "is_reserved": 0, "name": "06989570cd60a5393cf3d81ef8ed2d85", "lat": 38.92718583333333, "fusion_lat": 0.0, "lon": -77.0227005, "is_disabled": 0, "fusion_lon": 0.0, "rental_uris": {"android": "https://dc.lft.to/lastmile_qr_scan", "ios": "https://dc.lft.to/lastmile_qr_scan"}, "type": "electric_scooter"}, {"bike_id": "793959b0c4cf4c67c2b4863f3a2759f1", "is_reserved": 0, "name": "793959b0c4cf4c67c2b4863f3a2759f1", "lat": 38.901035, "fusion_lat": 0.0, "lon": -76.9304815, "is_disabled": 0, "fusion_lon": 0.0, "rental_uris": {"android": "https://dc.lft.to/lastmile_qr_scan", "ios": "https://dc.lft.to/lastmile_qr_scan"}, "type": "electric_scooter"}, {"bike_id": "379096844157b30ff129ea3cf1a6309b", "is_reserved": 0, "name": "379096844157b30ff129ea3cf1a6309b", "lat": 38.912032833333335, "fusion_lat": 0.0, "lon": -77.01177116666666, "is_disabled": 0, "fusion_lon": 0.0, "rental_uris": {"android": "https://dc.lft.to/lastmile_qr_scan", "ios": "https://dc.lft.to/lastmile_qr_scan"}, "type": "electric_scooter"}, {"bike_id": "2a3349e7a10dc526502d00601439da11", "is_reserved": 0, "name": "2a3349e7a10dc526502d00601439da11", "lat": 38.877387166666665, "fusion_lat": 0.0, "lon": -76.97031783333334, "is_disabled": 0, "fusion_lon": 0.0, "rental_uris": {"android": "https://dc.lft.to/lastmile_qr_scan", "ios": "https://dc.lft.to/lastmile_qr_scan"}, "type": "electric_scooter"}, {"bike_id": "59248f22a024c638616592e894f8e6f2", "is_reserved": 0, "name": "59248f22a024c638616592e894f8e6f2", "lat": 38.92886166666667, "fusion_lat": 0.0, "lon": -77.03317283333334, "is_disabled": 0, "fusion_lon": 0.0, "rental_uris": {"android": "https://dc.lft.to/lastmile_qr_scan", "ios": "https://dc.lft.to/lastmile_qr_scan"}, "type": "electric_scooter"}, {"bike_id": "643f7fe6b324d8c9810c4b82a22317f3", "is_reserved": 0, "name": "643f7fe6b324d8c9810c4b82a22317f3", "lat": 38.932895, "fusion_lat": 0.0, "lon": -77.0247205, "is_disabled": 0, "fusion_lon": 0.0, "rental_uris": {"android": "https://dc.lft.to/lastmile_qr_scan", "ios": "https://dc.lft.to/lastmile_qr_scan"}, "type": "electric_scooter"}, {"bike_id": "be5c009cb2f126aabdef7f7c72fc5f64", "is_reserved": 0, "name": "be5c009cb2f126aabdef7f7c72fc5f64", "lat": 38.90365766666667, "fusion_lat": 0.0, "lon": -77.03642416666666, "is_disabled": 0, "fusion_lon": 0.0, "rental_uris": {"android": "https://dc.lft.to/lastmile_qr_scan", "ios": "https://dc.lft.to/lastmile_qr_scan"}, "type": "electric_scooter"}, {"bike_id": "529ed3fd5e13da251975bbb8380ad683", "is_reserved": 0, "name": "529ed3fd5e13da251975bbb8380ad683", "lat": 38.892326833333335, "fusion_lat": 0.0, "lon": -77.04875016666666, "is_disabled": 0, "fusion_lon": 0.0, "rental_uris": {"android": "https://dc.lft.to/lastmile_qr_scan", "ios": "https://dc.lft.to/lastmile_qr_scan"}, "type": "electric_scooter"}, {"bike_id": "53592ef4da914c32d870fcf1b9fb9c75", "is_reserved": 0, "name": "53592ef4da914c32d870fcf1b9fb9c75", "lat": 38.923648, "fusion_lat": 0.0, "lon": -77.0291965, "is_disabled": 0, "fusion_lon": 0.0, "rental_uris": {"android": "https://dc.lft.to/lastmile_qr_scan", "ios": "https://dc.lft.to/lastmile_qr_scan"}, "type": "electric_scooter"}, {"bike_id": "415d31552eb7840e0915b534270ac3ff", "is_reserved": 0, "name": "415d31552eb7840e0915b534270ac3ff", "lat": 38.92602933333333, "fusion_lat": 0.0, "lon": -77.06417633333334, "is_disabled": 0, "fusion_lon": 0.0, "rental_uris": {"android": "https://dc.lft.to/lastmile_qr_scan", "ios": "https://dc.lft.to/lastmile_qr_scan"}, "type": "electric_bike"}, {"bike_id": "09c35e1e6c866ea039a9089f9177c5bb", "is_reserved": 0, "name": "09c35e1e6c866ea039a9089f9177c5bb", "lat": 38.99229666666667, "fusion_lat": 0.0, "lon": -76.94420783333334, "is_disabled": 0, "fusion_lon": 0.0, "rental_uris": {"android": "https://dc.lft.to/lastmile_qr_scan", "ios": "https://dc.lft.to/lastmile_qr_scan"}, "type": "electric_bike"}, {"bike_id": "fddfdaaa495a307b46ab2f66e08f3970", "is_reserved": 0, "name": "fddfdaaa495a307b46ab2f66e08f3970", "lat": 38.98938916666667, "fusion_lat": 0.0, "lon": -77.10111183333333, "is_disabled": 0, "fusion_lon": 0.0, "rental_uris": {"android": "https://dc.lft.to/lastmile_qr_scan", "ios": "https://dc.lft.to/lastmile_qr_scan"}, "type": "electric_bike"}, {"bike_id": "50db9e51e3027223c162d4fe30391e72", "is_reserved": 0, "name": "50db9e51e3027223c162d4fe30391e72", "lat": 38.9053315, "fusion_lat": 0.0, "lon": -77.05637733333333, "is_disabled": 0, "fusion_lon": 0.0, "rental_uris": {"android": "https://dc.lft.to/lastmile_qr_scan", "ios": "https://dc.lft.to/lastmile_qr_scan"}, "type": "electric_scooter"}, {"bike_id": "3ac422fa7c5d3568165aa40ab2c48677", "is_reserved": 0, "name": "3ac422fa7c5d3568165aa40ab2c48677", "lat": 38.919186, "fusion_lat": 0.0, "lon": -77.03127266666667, "is_disabled": 0, "fusion_lon": 0.0, "rental_uris": {"android": "https://dc.lft.to/lastmile_qr_scan", "ios": "https://dc.lft.to/lastmile_qr_scan"}, "type": "electric_scooter"}, {"bike_id": "c6bca16053aa2a22c941c2630237b353", "is_reserved": 0, "name": "c6bca16053aa2a22c941c2630237b353", "lat": 38.923209166666666, "fusion_lat": 0.0, "lon": -77.02892666666666, "is_disabled": 0, "fusion_lon": 0.0, "rental_uris": {"android": "https://dc.lft.to/lastmile_qr_scan", "ios": "https://dc.lft.to/lastmile_qr_scan"}, "type": "electric_scooter"}, {"bike_id": "c1fc296eab7e7167682b40df8ee49c80", "is_reserved": 0, "name": "c1fc296eab7e7167682b40df8ee49c80", "lat": 38.9269945, "fusion_lat": 0.0, "lon": -76.99762916666667, "is_disabled": 0, "fusion_lon": 0.0, "rental_uris": {"android": "https://dc.lft.to/lastmile_qr_scan", "ios": "https://dc.lft.to/lastmile_qr_scan"}, "type": "electric_scooter"}, {"bike_id": "da4ba1c5154bf02621d8b443b75212fa", "is_reserved": 0, "name": "da4ba1c5154bf02621d8b443b75212fa", "lat": 38.90545783333334, "fusion_lat": 0.0, "lon": -77.0059055, "is_disabled": 0, "fusion_lon": 0.0, "rental_uris": {"android": "https://dc.lft.to/lastmile_qr_scan", "ios": "https://dc.lft.to/lastmile_qr_scan"}, "type": "electric_scooter"}, {"bike_id": "280ff0fa72b144b1cc2c735b1dfe03e5", "is_reserved": 0, "name": "280ff0fa72b144b1cc2c735b1dfe03e5", "lat": 38.90024666666667, "fusion_lat": 0.0, "lon": -77.00689866666667, "is_disabled": 0, "fusion_lon": 0.0, "rental_uris": {"android": "https://dc.lft.to/lastmile_qr_scan", "ios": "https://dc.lft.to/lastmile_qr_scan"}, "type": "electric_scooter"}, {"bike_id": "a66bcf02fbffb65b0166af4ce55047ae", "is_reserved": 0, "name": "a66bcf02fbffb65b0166af4ce55047ae", "lat": 38.89683933333333, "fusion_lat": 0.0, "lon": -77.00501133333333, "is_disabled": 0, "fusion_lon": 0.0, "rental_uris": {"android": "https://dc.lft.to/lastmile_qr_scan", "ios": "https://dc.lft.to/lastmile_qr_scan"}, "type": "electric_scooter"}, {"bike_id": "c750636f852ee513b40c9b420ac4111d", "is_reserved": 0, "name": "c750636f852ee513b40c9b420ac4111d", "lat": 39.07061316666667, "fusion_lat": 0.0, "lon": -77.11521316666666, "is_disabled": 0, "fusion_lon": 0.0, "rental_uris": {"android": "https://dc.lft.to/lastmile_qr_scan", "ios": "https://dc.lft.to/lastmile_qr_scan"}, "type": "electric_bike"}, {"bike_id": "4358b2296e0ebaba31cb52d6d2a967bd", "is_reserved": 0, "name": "4358b2296e0ebaba31cb52d6d2a967bd", "lat": 38.9246865, "fusion_lat": 0.0, "lon": -77.02215216666667, "is_disabled": 0, "fusion_lon": 0.0, "rental_uris": {"android": "https://dc.lft.to/lastmile_qr_scan", "ios": "https://dc.lft.to/lastmile_qr_scan"}, "type": "electric_scooter"}, {"bike_id": "eb0f03a2464d74212ea956fb24e44300", "is_reserved": 0, "name": "eb0f03a2464d74212ea956fb24e44300", "lat": 38.912335166666665, "fusion_lat": 0.0, "lon": -77.04884483333333, "is_disabled": 0, "fusion_lon": 0.0, "rental_uris": {"android": "https://dc.lft.to/lastmile_qr_scan", "ios": "https://dc.lft.to/lastmile_qr_scan"}, "type": "electric_scooter"}, {"bike_id": "0887a18f088c0e2cb45d36ebe6e69fa2", "is_reserved": 0, "name": "0887a18f088c0e2cb45d36ebe6e69fa2", "lat": 38.914832833333335, "fusion_lat": 0.0, "lon": -77.04240316666667, "is_disabled": 0, "fusion_lon": 0.0, "rental_uris": {"android": "https://dc.lft.to/lastmile_qr_scan", "ios": "https://dc.lft.to/lastmile_qr_scan"}, "type": "electric_scooter"}, {"bike_id": "f69bf2ade1c903da1a49a635fe94cc21", "is_reserved": 0, "name": "f69bf2ade1c903da1a49a635fe94cc21", "lat": 38.91577183333333, "fusion_lat": 0.0, "lon": -77.01235116666666, "is_disabled": 0, "fusion_lon": 0.0, "rental_uris": {"android": "https://dc.lft.to/lastmile_qr_scan", "ios": "https://dc.lft.to/lastmile_qr_scan"}, "type": "electric_scooter"}, {"bike_id": "8be1371d1761120eea1fa9452ccceda0", "is_reserved": 0, "name": "8be1371d1761120eea1fa9452ccceda0", "lat": 38.917107333333334, "fusion_lat": 0.0, "lon": -77.03246983333334, "is_disabled": 0, "fusion_lon": 0.0, "rental_uris": {"android": "https://dc.lft.to/lastmile_qr_scan", "ios": "https://dc.lft.to/lastmile_qr_scan"}, "type": "electric_scooter"}, {"bike_id": "b9a3d134173a23e1ff2b2974fbe8f2ca", "is_reserved": 0, "name": "b9a3d134173a23e1ff2b2974fbe8f2ca", "lat": 38.92587833333333, "fusion_lat": 0.0, "lon": -77.05294083333334, "is_disabled": 0, "fusion_lon": 0.0, "rental_uris": {"android": "https://dc.lft.to/lastmile_qr_scan", "ios": "https://dc.lft.to/lastmile_qr_scan"}, "type": "electric_scooter"}, {"bike_id": "2280fac3e6cbb236938c04c92233e388", "is_reserved": 0, "name": "2280fac3e6cbb236938c04c92233e388", "lat": 38.9102885, "fusion_lat": 0.0, "lon": -77.034431, "is_disabled": 0, "fusion_lon": 0.0, "rental_uris": {"android": "https://dc.lft.to/lastmile_qr_scan", "ios": "https://dc.lft.to/lastmile_qr_scan"}, "type": "electric_scooter"}, {"bike_id": "80db8c2981a39d776e942c7695a4b90a", "is_reserved": 0, "name": "80db8c2981a39d776e942c7695a4b90a", "lat": 38.89892583333334, "fusion_lat": 0.0, "lon": -76.98067716666667, "is_disabled": 0, "fusion_lon": 0.0, "rental_uris": {"android": "https://dc.lft.to/lastmile_qr_scan", "ios": "https://dc.lft.to/lastmile_qr_scan"}, "type": "electric_scooter"}, {"bike_id": "3729c8514ecf4ea7e2ac423deb399dcd", "is_reserved": 0, "name": "3729c8514ecf4ea7e2ac423deb399dcd", "lat": 38.900931166666666, "fusion_lat": 0.0, "lon": -77.03360316666667, "is_disabled": 0, "fusion_lon": 0.0, "rental_uris": {"android": "https://dc.lft.to/lastmile_qr_scan", "ios": "https://dc.lft.to/lastmile_qr_scan"}, "type": "electric_scooter"}, {"bike_id": "997d2f11e5ddf5d7685ad7721943ff78", "is_reserved": 0, "name": "997d2f11e5ddf5d7685ad7721943ff78", "lat": 38.8076195, "fusion_lat": 0.0, "lon": -77.09466783333333, "is_disabled": 0, "fusion_lon": 0.0, "rental_uris": {"android": "https://dc.lft.to/lastmile_qr_scan", "ios": "https://dc.lft.to/lastmile_qr_scan"}, "type": "electric_bike"}, {"bike_id": "92f86500c6ae1f95c66582c9384f331a", "is_reserved": 0, "name": "92f86500c6ae1f95c66582c9384f331a", "lat": 38.907427, "fusion_lat": 0.0, "lon": -76.9354565, "is_disabled": 0, "fusion_lon": 0.0, "rental_uris": {"android": "https://dc.lft.to/lastmile_qr_scan", "ios": "https://dc.lft.to/lastmile_qr_scan"}, "type": "electric_scooter"}, {"bike_id": "f8b04a22c5529a7248e1b581a4ea0559", "is_reserved": 0, "name": "f8b04a22c5529a7248e1b581a4ea0559", "lat": 38.812511666666666, "fusion_lat": 0.0, "lon": -77.117667, "is_disabled": 0, "fusion_lon": 0.0, "rental_uris": {"android": "https://dc.lft.to/lastmile_qr_scan", "ios": "https://dc.lft.to/lastmile_qr_scan"}, "type": "electric_bike"}, {"bike_id": "5bdac78b9ca3a4af03b6ef6994532005", "is_reserved": 0, "name": "5bdac78b9ca3a4af03b6ef6994532005", "lat": 38.90523566666667, "fusion_lat": 0.0, "lon": -77.05215133333333, "is_disabled": 0, "fusion_lon": 0.0, "rental_uris": {"android": "https://dc.lft.to/lastmile_qr_scan", "ios": "https://dc.lft.to/lastmile_qr_scan"}, "type": "electric_scooter"}, {"bike_id": "95b8338440b0f48e1af20d2e5fe38f79", "is_reserved": 0, "name": "95b8338440b0f48e1af20d2e5fe38f79", "lat": 38.882115, "fusion_lat": 0.0, "lon": -76.98919633333334, "is_disabled": 0, "fusion_lon": 0.0, "rental_uris": {"android": "https://dc.lft.to/lastmile_qr_scan", "ios": "https://dc.lft.to/lastmile_qr_scan"}, "type": "electric_bike"}, {"bike_id": "42716c5fb2397484bbd7b714ae7d3a95", "is_reserved": 0, "name": "42716c5fb2397484bbd7b714ae7d3a95", "lat": 38.879077833333334, "fusion_lat": 0.0, "lon": -77.00815966666667, "is_disabled": 0, "fusion_lon": 0.0, "rental_uris": {"android": "https://dc.lft.to/lastmile_qr_scan", "ios": "https://dc.lft.to/lastmile_qr_scan"}, "type": "electric_scooter"}, {"bike_id": "6d6ef9adbff997064c38f9007cf9a6eb", "is_reserved": 0, "name": "6d6ef9adbff997064c38f9007cf9a6eb", "lat": 38.9223405, "fusion_lat": 0.0, "lon": -77.04242666666667, "is_disabled": 0, "fusion_lon": 0.0, "rental_uris": {"android": "https://dc.lft.to/lastmile_qr_scan", "ios": "https://dc.lft.to/lastmile_qr_scan"}, "type": "electric_scooter"},