{"data": {"bikes": [{"lat": 38.967391666666664, "fusion_lon": 0.0, "lon": -76.96052583333334, "is_disabled": 0, "type": "electric_bike", "name": "758c4210a3f51445555c4cef44fd1174", "fusion_lat": 0.0, "rental_uris": {"android": "https://dc.lft.to/lastmile_qr_scan", "ios": "https://dc.lft.to/lastmile_qr_scan"}, "bike_id": "758c4210a3f51445555c4cef44fd1174", "is_reserved": 0}, {"lat": 38.935180833333334, "fusion_lon": 0.0, "lon": -77.07288266666667, "is_disabled": 0, "type": "electric_scooter", "name": "65cdcfd7153bdf2c3e2a5398fe5657e8", "fusion_lat": 0.0, "rental_uris": {"android": "https://dc.lft.to/lastmile_qr_scan", "ios": "https://dc.lft.to/lastmile_qr_scan"}, "bike_id": "65cdcfd7153bdf2c3e2a5398fe5657e8", "is_reserved": 0}, {"lat": 38.919530333333334, "fusion_lon": 0.0, "lon": -76.98079, "is_disabled": 0, "type": "electric_scooter", "name": "cf4a429e9135fd3d7472b1d13c76c5d4", "fusion_lat": 0.0, "rental_uris": {"android": "https://dc.lft.to/lastmile_qr_scan", "ios": "https://dc.lft.to/lastmile_qr_scan"}, "bike_id": "cf4a429e9135fd3d7472b1d13c76c5d4", "is_reserved": 0}, {"lat": 38.906103, "fusion_lon": 0.0, "lon": -77.0412875, "is_disabled": 0, "type": "electric_scooter", "name": "37cfad7050690550dd075f924fd87bbf", "fusion_lat": 0.0, "rental_uris": {"android": "https://dc.lft.to/lastmile_qr_scan", "ios": "https://dc.lft.to/lastmile_qr_scan"}, "bike_id": "37cfad7050690550dd075f924fd87bbf", "is_reserved": 0}, {"lat": 38.920041499999996, "fusion_lon": 0.0, "lon": -77.04176516666666, "is_disabled": 0, "type": "electric_scooter", "name": "2f4d938f295ea3f775dee371a7493442", "fusion_lat": 0.0, "rental_uris": {"android": "https://dc.lft.to/lastmile_qr_scan", "ios": "https://dc.lft.to/lastmile_qr_scan"}, "bike_id": "2f4d938f295ea3f775dee371a7493442", "is_reserved": 0}, {"lat": 38.90553766666667, "fusion_lon": 0.0, "lon": -77.04703716666667, "is_disabled": 0, "type": "electric_scooter", "name": "33c2ee8e4a9bb50a70a6f1cf761d8703", "fusion_lat": 0.0, "rental_uris": {"android": "https://dc.lft.to/lastmile_qr_scan", "ios": "https://dc.lft.to/lastmile_qr_scan"}, "bike_id": "33c2ee8e4a9bb50a70a6f1cf761d8703", "is_reserved": 0}, {"lat": 38.9084545, "fusion_lon": 0.0, "lon": -77.04267866666666, "is_disabled": 0, "type": "electric_scooter", "name": "6406df2736f0fe71745a3669e0b1caf6", "fusion_lat": 0.0, "rental_uris": {"android": "https://dc.lft.to/lastmile_qr_scan", "ios": "https://dc.lft.to/lastmile_qr_scan"}, "bike_id": "6406df2736f0fe71745a3669e0b1caf6", "is_reserved": 0}, {"lat": 38.88607733333333, "fusion_lon": 0.0, "lon": -76.99511666666666, "is_disabled": 0, "type": "electric_scooter", "name": "e3f17bae3183838d886af8b2384a1955", "fusion_lat": 0.0, "rental_uris": {"android": "https://dc.lft.to/lastmile_qr_scan", "ios": "https://dc.lft.to/lastmile_qr_scan"}, "bike_id": "e3f17bae3183838d886af8b2384a1955", "is_reserved": 0}, {"lat": 38.922362666666665, "fusion_lon": 0.0, "lon": -77.0433875, "is_disabled": 0, "type": "electric_scooter", "name": "2ecc13e88d3aefa1bae7af8a012bf519", "fusion_lat": 0.0, "rental_uris": {"android": "https://dc.lft.to/lastmile_qr_scan", "ios": "https://dc.lft.to/lastmile_qr_scan"}, "bike_id": "2ecc13e88d3aefa1bae7af8a012bf519", "is_reserved": 0}, {"lat": 38.90823916666667, "fusion_lon": 0.0, "lon": -77.03966466666667, "is_disabled": 0, "type": "electric_scooter", "name": "43cba62028ed2e6f97fec6ec41392fed", "fusion_lat": 0.0, "rental_uris": {"android": "https://dc.lft.to/lastmile_qr_scan", "ios": "https://dc.lft.to/lastmile_qr_scan"}, "bike_id": "43cba62028ed2e6f97fec6ec41392fed", "is_reserved": 0}, {"lat": 38.931233, "fusion_lon": 0.0, "lon": -77.0199265, "is_disabled": 0, "type": "electric_scooter", "name": "03676f832fd2f8668fab5f372c05d4bb", "fusion_lat": 0.0, "rental_uris": {"android": "https://dc.lft.to/lastmile_qr_scan", "ios": "https://dc.lft.to/lastmile_qr_scan"}, "bike_id": "03676f832fd2f8668fab5f372c05d4bb", "is_reserved": 0}, {"lat": 38.90328366666667, "fusion_lon": 0.0, "lon": -76.9753595, "is_disabled": 0, "type": "electric_bike", "name": "f18702881a04b62f6344392eed907018", "fusion_lat": 0.0, "rental_uris": {"android": "https://dc.lft.to/lastmile_qr_scan", "ios": "https://dc.lft.to/lastmile_qr_scan"}, "bike_id": "f18702881a04b62f6344392eed907018", "is_reserved": 0}, {"lat": 38.89650616666667, "fusion_lon": 0.0, "lon": -76.93010566666666, "is_disabled": 0, "type": "electric_bike", "name": "e45a14f31cc69565e345793770f6b24f", "fusion_lat": 0.0, "rental_uris": {"android": "https://dc.lft.to/lastmile_qr_scan", "ios": "https://dc.lft.to/lastmile_qr_scan"}, "bike_id": "e45a14f31cc69565e345793770f6b24f", "is_reserved": 0}, {"lat": 38.924427666666666, "fusion_lon": 0.0, "lon": -77.040091, "is_disabled": 0, "type": "electric_scooter", "name": "98ad329f7c55e07a9b0125de9e9102bc", "fusion_lat": 0.0, "rental_uris": {"android": "https://dc.lft.to/lastmile_qr_scan", "ios": "https://dc.lft.to/lastmile_qr_scan"}, "bike_id": "98ad329f7c55e07a9b0125de9e9102bc", "is_reserved": 0}, {"lat": 38.92133283333333, "fusion_lon": 0.0, "lon": -77.02069133333333, "is_disabled": 0, "type": "electric_scooter", "name": "fb7bf23ec4b3d644de6c9d35f7c383b9", "fusion_lat": 0.0, "rental_uris": {"android": "https://dc.lft.to/lastmile_qr_scan", "ios": "https://dc.lft.to/lastmile_qr_scan"}, "bike_id": "fb7bf23ec4b3d644de6c9d35f7c383b9", "is_reserved": 0}, {"lat": 38.9096695, "fusion_lon": 0.0, "lon": -77.0144575, "is_disabled": 0, "type": "electric_scooter", "name": "9b27c822e4ad692d1aa75ce2a28e188a", "fusion_lat": 0.0, "rental_uris": {"android": "https://dc.lft.to/lastmile_qr_scan", "ios": "https://dc.lft.to/lastmile_qr_scan"}, "bike_id": "9b27c822e4ad692d1aa75ce2a28e188a", "is_reserved": 0}, {"lat": 38.94556433333333, "fusion_lon": 0.0, "lon": -76.89547316666666, "is_disabled": 0, "type": "electric_bike", "name": "98641f62afd5df65277fa394ef4bf141", "fusion_lat": 0.0, "rental_uris": {"android": "https://dc.lft.to/lastmile_qr_scan", "ios": "https://dc.lft.to/lastmile_qr_scan"}, "bike_id": "98641f62afd5df65277fa394ef4bf141", "is_reserved": 0}, {"lat": 38.898110833333334, "fusion_lon": 0.0, "lon": -77.0399645, "is_disabled": 0, "type": "electric_scooter", "name": "12e3bf51b66581fb707f7d1a29dd6954", "fusion_lat": 0.0, "rental_uris": {"android": "https://dc.lft.to/lastmile_qr_scan", "ios": "https://dc.lft.to/lastmile_qr_scan"}, "bike_id": "12e3bf51b66581fb707f7d1a29dd6954", "is_reserved": 0}, {"lat": 38.90912733333333, "fusion_lon": 0.0, "lon": -77.03191966666667, "is_disabled": 0, "type": "electric_scooter", "name": "466cdf1c7c9a38d7fc1e693ae3f7efb9", "fusion_lat": 0.0, "rental_uris": {"android": "https://dc.lft.to/lastmile_qr_scan", "ios": "https://dc.lft.to/lastmile_qr_scan"}, "bike_id": "466cdf1c7c9a38d7fc1e693ae3f7efb9", "is_reserved": 0}, {"lat": 38.886146333333336, "fusion_lon": 0.0, "lon": -76.99655083333333, "is_disabled": 0, "type": "electric_scooter", "name": "cb2b65cc701e982eedad67d7fdf84163", "fusion_lat": 0.0, "rental_uris": {"android": "https://dc.lft.to/lastmile_qr_scan", "ios": "https://dc.lft.to/lastmile_qr_scan"}, "bike_id": "cb2b65cc701e982eedad67d7fdf84163", "is_reserved": 0}, {"lat": 38.9292545, "fusion_lon": 0.0, "lon": -77.03756633333333, "is_disabled": 0, "type": "electric_scooter", "name": "f911e4064e0873e33a168ef3f247b1b6", "fusion_lat": 0.0, "rental_uris": {"android": "https://dc.lft.to/lastmile_qr_scan", "ios": "https://dc.lft.to/lastmile_qr_scan"}, "bike_id": "f911e4064e0873e33a168ef3f247b1b6", "is_reserved": 0}, {"lat": 38.90981166666667, "fusion_lon": 0.0, "lon": -77.0334465, "is_disabled": 0, "type": "electric_scooter", "name": "b3c2d0ca778505d460f57611865f92ab", "fusion_lat": 0.0, "rental_uris": {"android": "https://dc.lft.to/lastmile_qr_scan", "ios": "https://dc.lft.to/lastmile_qr_scan"}, "bike_id": "b3c2d0ca778505d460f57611865f92ab", "is_reserved": 0}, {"lat": 38.9077705, "fusion_lon": 0.0, "lon": -77.0318745, "is_disabled": 0, "type": "electric_scooter", "name": "3f974b6cd859f66f1229e6d0457cd826", "fusion_lat": 0.0, "rental_uris": {"android": "https://dc.lft.to/lastmile_qr_scan", "ios": "https://dc.lft.to/lastmile_qr_scan"}, "bike_id": "3f974b6cd859f66f1229e6d0457cd826", "is_reserved": 0}, {"lat": 38.9021695, "fusion_lon": 0.0, "lon": -77.03929666666667, "is_disabled": 0, "type": "electric_scooter", "name": "c84f06e4e038af4de40f5faf59f978a6", "fusion_lat": 0.0, "rental_uris": {"android": "https://dc.lft.to/lastmile_qr_scan", "ios": "https://dc.lft.to/lastmile_qr_scan"}, "bike_id": "c84f06e4e038af4de40f5faf59f978a6", "is_reserved": 0}, {"lat": 38.92967816666667, "fusion_lon": 0.0, "lon": -77.055033, "is_disabled": 0, "type": "electric_scooter", "name": "9337cece4df44d460d5b90c05ae9da17", "fusion_lat": 0.0, "rental_uris": {"android": "https://dc.lft.to/lastmile_qr_scan", "ios": "https://dc.lft.to/lastmile_qr_scan"}, "bike_id": "9337cece4df44d460d5b90c05ae9da17", "is_reserved": 0}, {"lat": 38.921457, "fusion_lon": 0.0, "lon": -77.02084716666667, "is_disabled": 0, "type": "electric_scooter", "name": "8ac58e8c444957b048f271f0767bd08e", "fusion_lat": 0.0, "rental_uris": {"android": "https://dc.lft.to/lastmile_qr_scan", "ios": "https://dc.lft.to/lastmile_qr_scan"}, "bike_id": "8ac58e8c444957b048f271f0767bd08e", "is_reserved": 0}, {"lat": 38.899634166666665, "fusion_lon": 0.0, "lon": -77.01577033333334, "is_disabled": 0, "type": "electric_scooter", "name": "26475ac63015bea63384d46afc66be8b", "fusion_lat": 0.0, "rental_uris": {"android": "https://dc.lft.to/lastmile_qr_scan", "ios": "https://dc.lft.to/lastmile_qr_scan"}, "bike_id": "26475ac63015bea63384d46afc66be8b", "is_reserved": 0}, {"lat": 38.94971266666667, "fusion_lon": 0.0, "lon": -77.073865, "is_disabled": 0, "type": "electric_bike", "name": "142cd4bfd8312eb887c825b7ff2e8465", "fusion_lat": 0.0, "rental_uris": {"android": "https://dc.lft.to/lastmile_qr_scan", "ios": "https://dc.lft.to/lastmile_qr_scan"}, "bike_id": "142cd4bfd8312eb887c825b7ff2e8465", "is_reserved": 0}, {"lat": 38.942621833333334, "fusion_lon": 0.0, "lon": -77.028415, "is_disabled": 0, "type": "electric_scooter", "name": "5c16b17eff2a906624bb20274a3c7891", "fusion_lat": 0.0, "rental_uris": {"android": "https://dc.lft.to/lastmile_qr_scan", "ios": "https://dc.lft.to/lastmile_qr_scan"}, "bike_id": "5c16b17eff2a906624bb20274a3c7891", "is_reserved": 0}, {"lat": 38.896377333333334, "fusion_lon": 0.0, "lon": -77.040173, "is_disabled": 0, "type": "electric_scooter", "name": "203b4707e9cfbb8cffb09a2d16c14b4b", "fusion_lat": 0.0, "rental_uris": {"android": "https://dc.lft.to/lastmile_qr_scan", "ios": "https://dc.lft.to/lastmile_qr_scan"}, "bike_id": "203b4707e9cfbb8cffb09a2d16c14b4b", "is_reserved": 0}, {"lat": 38.899630333333334, "fusion_lon": 0.0, "lon": -76.986733, "is_disabled": 0, "type": "electric_bike", "name": "c8e2f9fa467a0745316b07c6130c7c31", "fusion_lat": 0.0, "rental_uris": {"android": "https://dc.lft.to/lastmile_qr_scan", "ios": "https://dc.lft.to/lastmile_qr_scan"}, "bike_id": "c8e2f9fa467a0745316b07c6130c7c31", "is_reserved": 0}, {"lat": 38.92949816666667, "fusion_lon": 0.0, "lon": -77.03259833333334, "is_disabled": 0, "type": "electric_scooter", "name": "4a664782c3ac291e3da1f27a9fe74aff", "fusion_lat": 0.0, "rental_uris": {"android": "https://dc.lft.to/lastmile_qr_scan", "ios": "https://dc.lft.to/lastmile_qr_scan"}, "bike_id": "4a664782c3ac291e3da1f27a9fe74aff", "is_reserved": 0}, {"lat": 38.928816, "fusion_lon": 0.0, "lon": -77.01360866666667, "is_disabled": 0, "type": "electric_scooter", "name": "918e140a0247a93f511ee9ed87029cc9", "fusion_lat": 0.0, "rental_uris": {"android": "https://dc.lft.to/lastmile_qr_scan", "ios": "https://dc.lft.to/lastmile_qr_scan"}, "bike_id": "918e140a0247a93f511ee9ed87029cc9", "is_reserved": 0}, {"lat": 38.90436616666667, "fusion_lon": 0.0, "lon": -76.9848785, "is_disabled": 0, "type": "electric_scooter", "name": "dddcdb54dd4b4e43b681c5d756a106eb", "fusion_lat": 0.0, "rental_uris": {"android": "https://dc.lft.to/lastmile_qr_scan", "ios": "https://dc.lft.to/lastmile_qr_scan"}, "bike_id": "dddcdb54dd4b4e43b681c5d756a106eb", "is_reserved": 0}, {"lat": 38.94912266666667, "fusion_lon": 0.0, "lon": -77.078876, "is_disabled": 0, "type": "electric_scooter", "name": "648d0d50146539658922a47c183adfb7", "fusion_lat": 0.0, "rental_uris": {"android": "https://dc.lft.to/lastmile_qr_scan", "ios": "https://dc.lft.to/lastmile_qr_scan"}, "bike_id": "648d0d50146539658922a47c183adfb7", "is_reserved": 0}, {"lat": 38.9223365, "fusion_lon": 0.0, "lon": -77.04249966666667, "is_disabled": 0, "type": "electric_scooter", "name": "10c37b50b43532ad4d6be317949818bd", "fusion_lat": 0.0, "rental_uris": {"android": "https://dc.lft.to/lastmile_qr_scan", "ios": "https://dc.lft.to/lastmile_qr_scan"}, "bike_id": "10c37b50b43532ad4d6be317949818bd", "is_reserved": 0}, {"lat": 38.968105, "fusion_lon": 0.0, "lon": -77.072204, "is_disabled": 0, "type": "electric_bike", "name": "2a31495895720ba89487294d3bd786db", "fusion_lat": 0.0, "rental_uris": {"android": "https://dc.lft.to/lastmile_qr_scan", "ios": "https://dc.lft.to/lastmile_qr_scan"}, "bike_id": "2a31495895720ba89487294d3bd786db", "is_reserved": 0}, {"lat": 38.922565166666665, "fusion_lon": 0.0, "lon": -77.03527483333333, "is_disabled": 0, "type": "electric_scooter", "name": "e7763df462723038b987038b4338f2d7", "fusion_lat": 0.0, "rental_uris": {"android": "https://dc.lft.to/lastmile_qr_scan", "ios": "https://dc.lft.to/lastmile_qr_scan"}, "bike_id": "e7763df462723038b987038b4338f2d7", "is_reserved": 0}, {"lat": 38.919136, "fusion_lon": 0.0, "lon": -77.02618083333333, "is_disabled": 0, "type": "electric_scooter", "name": "be5dc5c5edaa1716a59d9e5815371da7", "fusion_lat": 0.0, "rental_uris": {"android": "https://dc.lft.to/lastmile_qr_scan", "ios": "https://dc.lft.to/lastmile_qr_scan"}, "bike_id": "be5dc5c5edaa1716a59d9e5815371da7", "is_reserved": 0}, {"lat": 38.919384, "fusion_lon": 0.0, "lon": -77.02508266666666, "is_disabled": 0, "type": "electric_scooter", "name": "ab3c0cf9cb0021ac27a228e8b1818ce5", "fusion_lat": 0.0, "rental_uris": {"android": "https://dc.lft.to/lastmile_qr_scan", "ios": "https://dc.lft.to/lastmile_qr_scan"}, "bike_id": "ab3c0cf9cb0021ac27a228e8b1818ce5", "is_reserved": 0}, {"lat": 38.89036616666667, "fusion_lon": 0.0, "lon": -77.029808, "is_disabled": 0, "type": "electric_scooter", "name": "7688f5cbde42c51a7340ff687e4806f9", "fusion_lat": 0.0, "rental_uris": {"android": "https://dc.lft.to/lastmile_qr_scan", "ios": "https://dc.lft.to/lastmile_qr_scan"}, "bike_id": "7688f5cbde42c51a7340ff687e4806f9", "is_reserved": 0}, {"lat": 38.94866416666667, "fusion_lon": 0.0, "lon": -77.03888666666667, "is_disabled": 0, "type": "electric_scooter", "name": "6d2b08c86de00937f340c918f05b7e1a", "fusion_lat": 0.0, "rental_uris": {"android": "https://dc.lft.to/lastmile_qr_scan", "ios": "https://dc.lft.to/lastmile_qr_scan"}, "bike_id": "6d2b08c86de00937f340c918f05b7e1a", "is_reserved": 0}, {"lat": 38.92649516666667, "fusion_lon": 0.0, "lon": -77.03401766666667, "is_disabled": 0, "type": "electric_scooter", "name": "a566fa6bf97614d458ef839ed277cedf", "fusion_lat": 0.0, "rental_uris": {"android": "https://dc.lft.to/lastmile_qr_scan", "ios": "https://dc.lft.to/lastmile_qr_scan"}, "bike_id": "a566fa6bf97614d458ef839ed277cedf", "is_reserved": 0}, {"lat": 38.89578216666666, "fusion_lon": 0.0, "lon": -77.01580516666667, "is_disabled": 0, "type": "electric_scooter", "name": "9c29a9f9c34b7b99df087052a2a0eea5", "fusion_lat": 0.0, "rental_uris": {"android": "https://dc.lft.to/lastmile_qr_scan", "ios": "https://dc.lft.to/lastmile_qr_scan"}, "bike_id": "9c29a9f9c34b7b99df087052a2a0eea5", "is_reserved": 0}, {"lat": 38.89551483333334, "fusion_lon": 0.0, "lon": -77.028578, "is_disabled": 0, "type": "electric_scooter", "name": "cbb7f345d5377bb86719581b935c1542", "fusion_lat": 0.0, "rental_uris": {"android": "https://dc.lft.to/lastmile_qr_scan", "ios": "https://dc.lft.to/lastmile_qr_scan"}, "bike_id": "cbb7f345d5377bb86719581b935c1542", "is_reserved": 0}, {"lat": 38.892307, "fusion_lon": 0.0, "lon": -77.0433705, "is_disabled": 0, "type": "electric_scooter", "name": "a16543719d3b9b7b8d3bb5ab2ac0fa5d", "fusion_lat": 0.0, "rental_uris": {"android": "https://dc.lft.to/lastmile_qr_scan", "ios": "https://dc.lft.to/lastmile_qr_scan"}, "bike_id": "a16543719d3b9b7b8d3bb5ab2ac0fa5d", "is_reserved": 0}, {"lat": 38.93576, "fusion_lon": 0.0, "lon": -77.02129183333334, "is_disabled": 0, "type": "electric_scooter", "name": "a93c01404344fb76397250e81f5bc47d", "fusion_lat": 0.0, "rental_uris": {"android": "https://dc.lft.to/lastmile_qr_scan", "ios": "https://dc.lft.to/lastmile_qr_scan"}, "bike_id": "a93c01404344fb76397250e81f5bc47d", "is_reserved": 0}, {"lat": 38.887741166666665, "fusion_lon": 0.0, "lon": -76.95527683333333, "is_disabled": 0, "type": "electric_scooter", "name": "14d446ef70e5ce5ac068f708b05470bc", "fusion_lat": 0.0, "rental_uris": {"android": "https://dc.lft.to/lastmile_qr_scan", "ios": "https://dc.lft.to/lastmile_qr_scan"}, "bike_id": "14d446ef70e5ce5ac068f708b05470bc", "is_reserved": 0}, {"lat": 38.9307205, "fusion_lon": 0.0, "lon": -77.0347855, "is_disabled": 0, "type": "electric_scooter", "name": "37a29b18cf88b7cd2d51b63df0fc4711", "fusion_lat": 0.0, "rental_uris": {"android": "https://dc.lft.to/lastmile_qr_scan", "ios": "https://dc.lft.to/lastmile_qr_scan"}, "bike_id": "37a29b18cf88b7cd2d51b63df0fc4711", "is_reserved": 0}, {"lat": 38.87041033333333, "fusion_lon": 0.0, "lon": -77.009681, "is_disabled": 0, "type": "electric_scooter", "name": "d22966c15741cf4490b4145661459fc1", "fusion_lat": 0.0, "rental_uris": {"android": "https://dc.lft.to/lastmile_qr_scan", "ios": "https://dc.lft.to/lastmile_qr_scan"}, "bike_id": "d22966c15741cf4490b4145661459fc1", "is_reserved": 0}, {"lat": 38.88190266666667, "fusion_lon": 0.0, "lon": -77.11447066666666, "is_disabled": 0, "type": "electric_bike", "name": "d3e17d8b4b860f0ccdd0e222ea8d3100", "fusion_lat": 0.0, "rental_uris": {"android": "https://dc.lft.to/lastmile_qr_scan", "ios": "https://dc.lft.to/lastmile_qr_scan"}, "bike_id": "d3e17d8b4b860f0ccdd0e222ea8d3100", "is_reserved": 0}, {"lat": 38.910423, "fusion_lon": 0.0, "lon": -77.04327933333333, "is_disabled": 0, "type": "electric_scooter", "name": "65ec91eda096271dc398b0cd7f1c658e", "fusion_lat": 0.0, "rental_uris": {"android": "https://dc.lft.to/lastmile_qr_scan", "ios": "https://dc.lft.to/lastmile_qr_scan"}, "bike_id": "65ec91eda096271dc398b0cd7f1c658e", "is_reserved": 0}, {"lat": 38.91471416666667, "fusion_lon": 0.0, "lon": -77.02175233333334, "is_disabled": 0, "type": "electric_scooter", "name": "7f755ff7171ab17f5a8c9badfbe53b9e", "fusion_lat": 0.0, "rental_uris": {"android": "https://dc.lft.to/lastmile_qr_scan", "ios": "https://dc.lft.to/lastmile_qr_scan"}, "bike_id": "7f755ff7171ab17f5a8c9badfbe53b9e", "is_reserved": 0}, {"lat": 38.8922035, "fusion_lon": 0.0, "lon": -77.04866333333334, "is_disabled": 0, "type": "electric_scooter", "name": "9477e2555039f40fabb60fbde1938fe4", "fusion_lat": 0.0, "rental_uris": {"android": "https://dc.lft.to/lastmile_qr_scan", "ios": "https://dc.lft.to/lastmile_qr_scan"}, "bike_id": "9477e2555039f40fabb60fbde1938fe4", "is_reserved": 0}, {"lat": 38.908845666666664, "fusion_lon": 0.0, "lon": -76.98233666666667, "is_disabled": 0, "type": "electric_scooter", "name": "bdf34e567db8ad5b05e4d0a2756c7c31", "fusion_lat": 0.0, "rental_uris": {"android": "https://dc.lft.to/lastmile_qr_scan", "ios": "https://dc.lft.to/lastmile_qr_scan"}, "bike_id": "bdf34e567db8ad5b05e4d0a2756c7c31", "is_reserved": 0}, {"lat": 38.84311366666667, "fusion_lon": 0.0, "lon": -76.99931933333333, "is_disabled": 0, "type": "electric_scooter", "name": "578f6fabb242090b62f066b279feb98a", "fusion_lat": 0.0, "rental_uris": {"android": "https://dc.lft.to/lastmile_qr_scan", "ios": "https://dc.lft.to/lastmile_qr_scan"}, "bike_id": "578f6fabb242090b62f066b279feb98a", "is_reserved": 0}, {"lat": 38.944863, "fusion_lon": 0.0, "lon": -77.09512383333333, "is_disabled": 0, "type": "electric_bike", "name": "929084496428264563c3a3035c9bed35", "fusion_lat": 0.0, "rental_uris": {"android": "https://dc.lft.to/lastmile_qr_scan", "ios": "https://dc.lft.to/lastmile_qr_scan"}, "bike_id": "929084496428264563c3a3035c9bed35", "is_reserved": 0}, {"lat": 38.93108816666667, "fusion_lon": 0.0, "lon": -77.03814583333333, "is_disabled": 0, "type": "electric_scooter", "name": "d073e59fd2173dd7a81291ae77a2d8e5", "fusion_lat": 0.0, "rental_uris": {"android": "https://dc.lft.to/lastmile_qr_scan", "ios": "https://dc.lft.to/lastmile_qr_scan"}, "bike_id": "d073e59fd2173dd7a81291ae77a2d8e5", "is_reserved": 0}, {"lat": 38.866992833333335, "fusion_lon": 0.0, "lon": -76.98714916666667, "is_disabled": 0, "type": "electric_scooter", "name": "ceda79b42ba30bf9fdee159596720735", "fusion_lat": 0.0, "rental_uris": {"android": "https://dc.lft.to/lastmile_qr_scan", "ios": "https://dc.lft.to/lastmile_qr_scan"}, "bike_id": "ceda79b42ba30bf9fdee159596720735", "is_reserved": 0}, {"lat": 38.88433883333333, "fusion_lon": 0.0, "lon": -77.00790983333333, "is_disabled": 0, "type": "electric_scooter", "name": "fca57e1048320f0507ebff9da08fc7e7", "fusion_lat": 0.0, "rental_uris": {"android": "https://dc.lft.to/lastmile_qr_scan", "ios": "https://dc.lft.to/lastmile_qr_scan"}, "bike_id": "fca57e1048320f0507ebff9da08fc7e7", "is_reserved": 0}, {"lat": 38.923923333333335, "fusion_lon": 0.0, "lon": -77.03539533333333, "is_disabled": 0, "type": "electric_scooter", "name": "fd582765df4f4fa0bf814d983877fdc2", "fusion_lat": 0.0, "rental_uris": {"android": "https://dc.lft.to/lastmile_qr_scan", "ios": "https://dc.lft.to/lastmile_qr_scan"}, "bike_id": "fd582765df4f4fa0bf814d983877fdc2", "is_reserved": 0}, {"lat": 38.86340166666667, "fusion_lon": 0.0, "lon": -76.9827905, "is_disabled": 0, "type": "electric_scooter", "name": "41fa8b975277ba3811c8c3b971f8c4bc", "fusion_lat": 0.0, "rental_uris": {"android": "https://dc.lft.to/lastmile_qr_scan", "ios": "https://dc.lft.to/lastmile_qr_scan"}, "bike_id": "41fa8b975277ba3811c8c3b971f8c4bc", "is_reserved": 0}, {"lat": 38.90483366666667, "fusion_lon": 0.0, "lon": -77.038286, "is_disabled": 0, "type": "electric_scooter", "name": "9e7f53e42162d3703ecf4bbe19fcaca8", "fusion_lat": 0.0, "rental_uris": {"android": "https://dc.lft.to/lastmile_qr_scan", "ios": "https://dc.lft.to/lastmile_qr_scan"}, "bike_id": "9e7f53e42162d3703ecf4bbe19fcaca8", "is_reserved": 0}, {"lat": 38.90712383333333, "fusion_lon": 0.0, "lon": -76.99824783333334, "is_disabled": 0, "type": "electric_scooter", "name": "d971309a43ff27e22de95780bbd73edc", "fusion_lat": 0.0, "rental_uris": {"android": "https://dc.lft.to/lastmile_qr_scan", "ios": "https://dc.lft.to/lastmile_qr_scan"}, "bike_id": "d971309a43ff27e22de95780bbd73edc", "is_reserved": 0}, {"lat": 38.98858466666667, "fusion_lon": 0.0, "lon": -77.09560033333334, "is_disabled": 0, "type": "electric_bike", "name": "6a271821dccb31793a19be291920fdb1", "fusion_lat": 0.0, "rental_uris": {"android": "https://dc.lft.to/lastmile_qr_scan", "ios": "https://dc.lft.to/lastmile_qr_scan"}, "bike_id": "6a271821dccb31793a19be291920fdb1", "is_reserved": 0}, {"lat": 38.911943, "fusion_lon": 0.0, "lon": -77.00461166666666, "is_disabled": 0, "type": "electric_scooter", "name": "7c2562e082e3f19406af3d7e75833650", "fusion_lat": 0.0, "rental_uris": {"android": "https://dc.lft.to/lastmile_qr_scan", "ios": "https://dc.lft.to/lastmile_qr_scan"}, "bike_id": "7c2562e082e3f19406af3d7e75833650", "is_reserved": 0}, {"lat": 38.927692666666665, "fusion_lon": 0.0, "lon": -77.020644, "is_disabled": 0, "type": "electric_scooter", "name": "fd0757172c3538c5b51a1f5318fcf7b4", "fusion_lat": 0.0, "rental_uris": {"android": "https://dc.lft.to/lastmile_qr_scan", "ios": "https://dc.lft.to/lastmile_qr_scan"}, "bike_id": "fd0757172c3538c5b51a1f5318fcf7b4", "is_reserved": 0}, {"lat": 38.90373866666667, "fusion_lon": 0.0, "lon": -77.03472216666667, "is_disabled": 0, "type": "electric_scooter", "name": "99bd0f0cd459decff0205ff18f758a79", "fusion_lat": 0.0, "rental_uris": {"android": "https://dc.lft.to/lastmile_qr_scan", "ios": "https://dc.lft.to/lastmile_qr_scan"}, "bike_id": "99bd0f0cd459decff0205ff18f758a79", "is_reserved": 0}, {"lat": 38.91738433333333, "fusion_lon": 0.0, "lon": -77.03195533333333, "is_disabled": 0, "type": "electric_scooter", "name": "69b17b265c16209fbb2bad37195b32e8", "fusion_lat": 0.0, "rental_uris": {"android": "https://dc.lft.to/lastmile_qr_scan", "ios": "https://dc.lft.to/lastmile_qr_scan"}, "bike_id": "69b17b265c16209fbb2bad37195b32e8", "is_reserved": 0}, {"lat": 38.931697666666665, "fusion_lon": 0.0, "lon": -77.03420883333334, "is_disabled": 0, "type": "electric_scooter", "name": "51e66abe7853c419c26af2dc98680b86", "fusion_lat": 0.0, "rental_uris": {"android": "https://dc.lft.to/lastmile_qr_scan", "ios": "https://dc.lft.to/lastmile_qr_scan"}, "bike_id": "51e66abe7853c419c26af2dc98680b86", "is_reserved": 0}, {"lat": 38.92321783333333, "fusion_lon": 0.0, "lon": -77.0195715, "is_disabled": 0, "type": "electric_scooter", "name": "9c74c1e1206f1615a0e1f29cb5b38f27", "fusion_lat": 0.0, "rental_uris": {"android": "https://dc.lft.to/lastmile_qr_scan", "ios": "https://dc.lft.to/lastmile_qr_scan"}, "bike_id": "9c74c1e1206f1615a0e1f29cb5b38f27", "is_reserved": 0}, {"lat": 38.9390205, "fusion_lon": 0.0, "lon": -77.01691316666667, "is_disabled": 0, "type": "electric_bike", "name": "263e29884e4666cce4c12eb0e1d31829", "fusion_lat": 0.0, "rental_uris": {"android": "https://dc.lft.to/lastmile_qr_scan", "ios": "https://dc.lft.to/lastmile_qr_scan"}, "bike_id": "263e29884e4666cce4c12eb0e1d31829", "is_reserved": 0}, {"lat": 38.90592516666667, "fusion_lon": 0.0, "lon": -77.0401525, "is_disabled": 0, "type": "electric_scooter", "name": "47f3bb13bae63a6f5fe6ef5ae2843374", "fusion_lat": 0.0, "rental_uris": {"android": "https://dc.lft.to/lastmile_qr_scan", "ios": "https://dc.lft.to/lastmile_qr_scan"}, "bike_id": "47f3bb13bae63a6f5fe6ef5ae2843374", "is_reserved": 0}, {"lat": 38.807117, "fusion_lon": 0.0, "lon": -77.0617435, "is_disabled": 0, "type": "electric_bike", "name": "105a71766bb47294e3d7f39c59ba4b5d", "fusion_lat": 0.0, "rental_uris": {"android": "https://dc.lft.to/lastmile_qr_scan", "ios": "https://dc.lft.to/lastmile_qr_scan"}, "bike_id": "105a71766bb47294e3d7f39c59ba4b5d", "is_reserved": 0}, {"lat": 38.8861805, "fusion_lon": 0.0, "lon": -76.95578583333334, "is_disabled": 0, "type": "electric_scooter", "name": "45a748166dce5bb78fec54807435de99", "fusion_lat": 0.0, "rental_uris": {"android": "https://dc.lft.to/lastmile_qr_scan", "ios": "https://dc.lft.to/lastmile_qr_scan"}, "bike_id": "45a748166dce5bb78fec54807435de99", "is_reserved": 0}, {"lat": 38.9024425, "fusion_lon": 0.0, "lon": -77.0175795, "is_disabled": 0, "type": "electric_scooter", "name": "80a4bf8619f4d3879ec8d3b5d116691e", "fusion_lat": 0.0, "rental_uris": {"android": "https://dc.lft.to/lastmile_qr_scan", "ios": "https://dc.lft.to/lastmile_qr_scan"}, "bike_id": "80a4bf8619f4d3879ec8d3b5d116691e", "is_reserved": 0}, {"lat": 38.853216833333335, "fusion_lon": 0.0, "lon": -76.98017483333334, "is_disabled": 0, "type": "electric_bike", "name": "9477ef97d65cedf8586bf2e8bda11517", "fusion_lat": 0.0, "rental_uris": {"android": "https://dc.lft.to/lastmile_qr_scan", "ios": "https://dc.lft.to/lastmile_qr_scan"}, "bike_id": "9477ef97d65cedf8586bf2e8bda11517", "is_reserved": 0}, {"lat": 38.943034, "fusion_lon": 0.0, "lon": -77.05942783333333, "is_disabled": 0, "type": "electric_scooter", "name": "94db9eb1d1c07495ad9565cfa160c52b", "fusion_lat": 0.0, "rental_uris": {"android": "https://dc.lft.to/lastmile_qr_scan", "ios": "https://dc.lft.to/lastmile_qr_scan"}, "bike_id": "94db9eb1d1c07495ad9565cfa160c52b", "is_reserved": 0}, {"lat": 38.8832135, "fusion_lon": 0.0, "lon": -77.01682616666666, "is_disabled": 0, "type": "electric_scooter", "name": "ddccbba44247f262ea395dc08ab5c3ca", "fusion_lat": 0.0, "rental_uris": {"android": "https://dc.lft.to/lastmile_qr_scan", "ios": "https://dc.lft.to/lastmile_qr_scan"}, "bike_id": "ddccbba44247f262ea395dc08ab5c3ca", "is_reserved": 0}, {"lat": 38.9115165, "fusion_lon": 0.0, "lon": -77.00470916666667, "is_disabled": 0, "type": "electric_scooter", "name": "0ace487cff5e7fd662624f04b962c293", "fusion_lat": 0.0, "rental_uris": {"android": "https://dc.lft.to/lastmile_qr_scan", "ios": "https://dc.lft.to/lastmile_qr_scan"}, "bike_id": "0ace487cff5e7fd662624f04b962c293", "is_reserved": 0}, {"lat": 38.952557166666665, "fusion_lon": 0.0, "lon": -77.00793783333333, "is_disabled": 0, "type": "electric_bike", "name": "beffcf10a2ca413032af6389e8cb0469", "fusion_lat": 0.0, "rental_uris": {"android": "https://dc.lft.to/lastmile_qr_scan", "ios": "https://dc.lft.to/lastmile_qr_scan"}, "bike_id": "beffcf10a2ca413032af6389e8cb0469", "is_reserved": 0}, {"lat": 38.9284545, "fusion_lon": 0.0, "lon": -77.01416433333333, "is_disabled": 0, "type": "electric_scooter", "name": "07e1f2ac3b7b5431a59c7b489dc62136", "fusion_lat": 0.0, "rental_uris": {"android": "https://dc.lft.to/lastmile_qr_scan", "ios": "https://dc.lft.to/lastmile_qr_scan"}, "bike_id": "07e1f2ac3b7b5431a59c7b489dc62136", "is_reserved": 0}, {"lat": 38.921806833333335, "fusion_lon": 0.0, "lon": -77.0423485, "is_disabled": 0, "type": "electric_scooter", "name": "e6e6eefdd045814e57af42ed8bb87bc0", "fusion_lat": 0.0, "rental_uris": {"android": "https://dc.lft.to/lastmile_qr_scan", "ios": "https://dc.lft.to/lastmile_qr_scan"}, "bike_id": "e6e6eefdd045814e57af42ed8bb87bc0", "is_reserved": 0}, {"lat": 38.90028233333334, "fusion_lon": 0.0, "lon": -77.0334885, "is_disabled": 0, "type": "electric_scooter", "name": "145632844a7a445ddf592889ed7ed33c", "fusion_lat": 0.0, "rental_uris": {"android": "https://dc.lft.to/lastmile_qr_scan", "ios": "https://dc.lft.to/lastmile_qr_scan"}, "bike_id": "145632844a7a445ddf592889ed7ed33c", "is_reserved": 0}, {"lat": 38.90062366666667, "fusion_lon": 0.0, "lon": -77.01339633333333, "is_disabled": 0, "type": "electric_scooter", "name": "22961a2c5e26d8a3c04af114cda7c24a", "fusion_lat": 0.0, "rental_uris": {"android": "https://dc.lft.to/lastmile_qr_scan", "ios": "https://dc.lft.to/lastmile_qr_scan"}, "bike_id": "22961a2c5e26d8a3c04af114cda7c24a", "is_reserved": 0}, {"lat": 38.9108355, "fusion_lon": 0.0, "lon": -77.065456, "is_disabled": 0, "type": "electric_scooter", "name": "87890eefe74d41dbaa06efa1ada570b8", "fusion_lat": 0.0, "rental_uris": {"android": "https://dc.lft.to/lastmile_qr_scan", "ios": "https://dc.lft.to/lastmile_qr_scan"}, "bike_id": "87890eefe74d41dbaa06efa1ada570b8", "is_reserved": 0}, {"lat": 38.8985575, "fusion_lon": 0.0, "lon": -76.98182933333334, "is_disabled": 0, "type": "electric_scooter", "name": "d2a9cb2eb542c98a4cddfd9a3f7181bc", "fusion_lat": 0.0, "rental_uris": {"android": "https://dc.lft.to/lastmile_qr_scan", "ios": "https://dc.lft.to/lastmile_qr_scan"}, "bike_id": "d2a9cb2eb542c98a4cddfd9a3f7181bc", "is_reserved": 0}, {"lat": 38.866985666666665, "fusion_lon": 0.0, "lon": -76.98597583333333, "is_disabled": 0, "type": "electric_scooter", "name": "a9f22acb99fea13f34ee3ffcddadb088", "fusion_lat": 0.0, "rental_uris": {"android": "https://dc.lft.to/lastmile_qr_scan", "ios": "https://dc.lft.to/lastmile_qr_scan"}, "bike_id": "a9f22acb99fea13f34ee3ffcddadb088", "is_reserved": 0}, {"lat": 38.904961666666665, "fusion_lon": 0.0, "lon": -77.0348195, "is_disabled": 0, "type": "electric_scooter", "name": "17b79131dda80862011cf486179e9a4e", "fusion_lat": 0.0, "rental_uris": {"android": "https://dc.lft.to/lastmile_qr_scan", "ios": "https://dc.lft.to/lastmile_qr_scan"}, "bike_id": "17b79131dda80862011cf486179e9a4e", "is_reserved": 0}, {"lat": 38.895252666666664, "fusion_lon": 0.0, "lon": -77.03261016666667, "is_disabled": 0, "type": "electric_scooter", "name": "3445635367f5ef7e89a87160a6023266", "fusion_lat": 0.0, "rental_uris": {"android": "https://dc.lft.to/lastmile_qr_scan", "ios": "https://dc.lft.to/lastmile_qr_scan"}, "bike_id": "3445635367f5ef7e89a87160a6023266", "is_reserved": 0}, {"lat": 38.8873405, "fusion_lon": 0.0, "lon": -77.028383, "is_disabled": 0, "type": "electric_scooter", "name": "67ac5935446956175485b648716f4408", "fusion_lat": 0.0, "rental_uris": {"android": "https://dc.lft.to/lastmile_qr_scan", "ios": "https://dc.lft.to/lastmile_qr_scan"}, "bike_id": "67ac5935446956175485b648716f4408", "is_reserved": 0}, {"lat": 38.8818045, "fusion_lon": 0.0, "lon": -77.0357775, "is_disabled": 0, "type": "electric_scooter", "name": "3cb333a6d2d635c402df78919be94a70", "fusion_lat": 0.0, "rental_uris": {"android": "https://dc.lft.to/lastmile_qr_scan", "ios": "https://dc.lft.to/lastmile_qr_scan"}, "bike_id": "3cb333a6d2d635c402df78919be94a70", "is_reserved": 0}, {"lat": 38.876434833333334, "fusion_lon": 0.0, "lon": -77.00874666666667, "is_disabled": 0, "type": "electric_scooter", "name": "b702dc5ab0ddcc772f98203902d44b55", "fusion_lat": 0.0, "rental_uris": {"android": "https://dc.lft.to/lastmile_qr_scan", "ios": "https://dc.lft.to/lastmile_qr_scan"}, "bike_id": "b702dc5ab0ddcc772f98203902d44b55", "is_reserved": 0}, {"lat": 38.89220983333333, "fusion_lon": 0.0, "lon": -77.02013633333334, "is_disabled": 0, "type": "electric_scooter", "name": "236a0417768624827231e9cbd822d9f0", "fusion_lat": 0.0, "rental_uris": {"android": "https://dc.lft.to/lastmile_qr_scan", "ios": "https://dc.lft.to/lastmile_qr_scan"}, "bike_id": "236a0417768624827231e9cbd822d9f0", "is_reserved": 0}, {"lat": 38.8075525, "fusion_lon": 0.0, "lon": -77.09456433333334, "is_disabled": 0, "type": "electric_bike", "name": "884c02b8fdb5693fd2ee30dae216bf45", "fusion_lat": 0.0, "rental_uris": {"android": "https://dc.lft.to/lastmile_qr_scan", "ios": "https://dc.lft.to/lastmile_qr_scan"}, "bike_id": "884c02b8fdb5693fd2ee30dae216bf45", "is_reserved": 0}, {"lat": 38.90538933333333, "fusion_lon": 0.0, "lon": -77.04998666666667, "is_disabled": 0, "type": "electric_scooter", "name": "b0277250d3d2dca2838c4acefd9bd4a5", "fusion_lat": 0.0, "rental_uris": {"android": "https://dc.lft.to/lastmile_qr_scan", "ios": "https://dc.lft.to/lastmile_qr_scan"}, "bike_id": "b0277250d3d2dca2838c4acefd9bd4a5", "is_reserved": 0}, {"lat": 38.89223783333333, "fusion_lon": 0.0, "lon": -77.04158733333334, "is_disabled": 0, "type": "electric_scooter", "name": "acb10e1c4437c2e8b48f32d32c44a8db", "fusion_lat": 0.0, "rental_uris": {"android": "https://dc.lft.to/lastmile_qr_scan", "ios": "https://dc.lft.to/lastmile_qr_scan"}, "bike_id": "acb10e1c4437c2e8b48f32d32c44a8db", "is_reserved": 0}, {"lat": 38.9323805, "fusion_lon": 0.0, "lon": -77.0283735, "is_disabled": 0, "type": "electric_scooter", "name": "3cba2e0ff6ed5bb8d544b0bc6056d700", "fusion_lat": 0.0, "rental_uris": {"android": "https://dc.lft.to/lastmile_qr_scan", "ios": "https://dc.lft.to/lastmile_qr_scan"}, "bike_id": "3cba2e0ff6ed5bb8d544b0bc6056d700", "is_reserved": 0}, {"lat": 38.89430383333333, "fusion_lon": 0.0, "lon": -76.9488125, "is_disabled": 0, "type": "electric_scooter", "name": "51fd1138275af23ec44f49320d1c2e6e", "fusion_lat": 0.0, "rental_uris": {"android": "https://dc.lft.to/lastmile_qr_scan", "ios": "https://dc.lft.to/lastmile_qr_scan"}, "bike_id": "51fd1138275af23ec44f49320d1c2e6e", "is_reserved": 0}, {"lat": 38.91953216666667, "fusion_lon": 0.0, "lon": -77.04153433333333, "is_disabled": 0, "type": "electric_scooter", "name": "5758bc790c4cda385d841081bd552910", "fusion_lat": 0.0, "rental_uris": {"android": "https://dc.lft.to/lastmile_qr_scan", "ios": "https://dc.lft.to/lastmile_qr_scan"}, "bike_id": "5758bc790c4cda385d841081bd552910", "is_reserved": 0}, {"lat": 38.897935, "fusion_lon": 0.0, "lon": -77.02491466666666, "is_disabled": 0, "type": "electric_scooter", "name": "696759f0f8b5d4d0e9fc2a685e070c3a", "fusion_lat": 0.0, "rental_uris": {"android": "https://dc.lft.to/lastmile_qr_scan", "ios": "https://dc.lft.to/lastmile_qr_scan"}, "bike_id": "696759f0f8b5d4d0e9fc2a685e070c3a", "is_reserved": 0}, {"lat": 38.94453, "fusion_lon": 0.0, "lon": -77.0602665, "is_disabled": 0, "type": "electric_scooter", "name": "15ec1339b526f791b8e5a6689fa180ce", "fusion_lat": 0.0, "rental_uris": {"android": "https://dc.lft.to/lastmile_qr_scan", "ios": "https://dc.lft.to/lastmile_qr_scan"}, "bike_id": "15ec1339b526f791b8e5a6689fa180ce", "is_reserved": 0}, {"lat": 38.91048466666667, "fusion_lon": 0.0, "lon": -77.0219355, "is_disabled": 0, "type": "electric_scooter", "name": "e9d1b59976531501a55c3a68bde14cab", "fusion_lat": 0.0, "rental_uris": {"android": "https://dc.lft.to/lastmile_qr_scan", "ios": "https://dc.lft.to/lastmile_qr_scan"}, "bike_id": "e9d1b59976531501a55c3a68bde14cab", "is_reserved": 0}, {"lat": 38.90476616666667, "fusion_lon": 0.0, "lon": -77.04358133333334, "is_disabled": 0, "type": "electric_scooter", "name": "1c7295f2c9360b1e0cfe097dc575ceac", "fusion_lat": 0.0, "rental_uris": {"android": "https://dc.lft.to/lastmile_qr_scan", "ios": "https://dc.lft.to/lastmile_qr_scan"}, "bike_id": "1c7295f2c9360b1e0cfe097dc575ceac", "is_reserved": 0}, {"lat": 38.90308133333333, "fusion_lon": 0.0, "lon": -77.04661283333333, "is_disabled": 0, "type": "electric_scooter", "name": "80a46da74783ecaf7899327929161d13", "fusion_lat": 0.0, "rental_uris": {"android": "https://dc.lft.to/lastmile_qr_scan", "ios": "https://dc.lft.to/lastmile_qr_scan"}, "bike_id": "80a46da74783ecaf7899327929161d13", "is_reserved": 0}, {"lat": 38.9071615, "fusion_lon": 0.0, "lon": -77.034602, "is_disabled": 0, "type": "electric_scooter", "name": "73144dae5bb1890e6a52780c0d40d3b8", "fusion_lat": 0.0, "rental_uris": {"android": "https://dc.lft.to/lastmile_qr_scan", "ios": "https://dc.lft.to/lastmile_qr_scan"}, "bike_id": "73144dae5bb1890e6a52780c0d40d3b8", "is_reserved": 0}, {"lat": 38.896498333333334, "fusion_lon": 0.0, "lon": -77.05020883333333, "is_disabled": 0, "type": "electric_scooter", "name": "d1016b4c2dc20177a352d0d96e0cd038", "fusion_lat": 0.0, "rental_uris": {"android": "https://dc.lft.to/lastmile_qr_scan", "ios": "https://dc.lft.to/lastmile_qr_scan"}, "bike_id": "d1016b4c2dc20177a352d0d96e0cd038", "is_reserved": 0}, {"lat": 38.92714333333333, "fusion_lon": 0.0, "lon": -77.02401683333333, "is_disabled": 0, "type": "electric_scooter", "name": "f2150bd1ba1119be5ed8f6c64b4f5c4c", "fusion_lat": 0.0, "rental_uris": {"android": "https://dc.lft.to/lastmile_qr_scan", "ios": "https://dc.lft.to/lastmile_qr_scan"}, "bike_id": "f2150bd1ba1119be5ed8f6c64b4f5c4c", "is_reserved": 0}, {"lat": 38.901292833333336, "fusion_lon": 0.0, "lon": -77.00257133333334, "is_disabled": 0, "type": "electric_scooter", "name": "ab8ff9b2ef0975725eeae3bdeed9911d", "fusion_lat": 0.0, "rental_uris": {"android": "https://dc.lft.to/lastmile_qr_scan", "ios": "https://dc.lft.to/lastmile_qr_scan"}, "bike_id": "ab8ff9b2ef0975725eeae3bdeed9911d", "is_reserved": 0}, {"lat": 38.892246166666666, "fusion_lon": 0.0, "lon": -77.03228733333333, "is_disabled": 0, "type": "electric_scooter", "name": "416c091132219bb8f3b1764eeeb8dab7", "fusion_lat": 0.0, "rental_uris": {"android": "https://dc.lft.to/lastmile_qr_scan", "ios": "https://dc.lft.to/lastmile_qr_scan"}, "bike_id": "416c091132219bb8f3b1764eeeb8dab7", "is_reserved": 0}, {"lat": 38.92419133333333, "fusion_lon": 0.0, "lon": -77.023151, "is_disabled": 0, "type": "electric_scooter", "name": "fce23c7da9d267a4833e4b2eab7b83f8", "fusion_lat": 0.0, "rental_uris": {"android": "https://dc.lft.to/lastmile_qr_scan", "ios": "https://dc.lft.to/lastmile_qr_scan"}, "bike_id": "fce23c7da9d267a4833e4b2eab7b83f8", "is_reserved": 0}, {"lat": 38.893658333333335, "fusion_lon": 0.0, "lon": -77.05495916666666, "is_disabled": 0, "type": "electric_scooter", "name": "18f5e60159df9208688f626524c84c5f", "fusion_lat": 0.0, "rental_uris": {"android": "https://dc.lft.to/lastmile_qr_scan", "ios": "https://dc.lft.to/lastmile_qr_scan"}, "bike_id": "18f5e60159df9208688f626524c84c5f", "is_reserved": 0}, {"lat": 38.892974, "fusion_lon": 0.0, "lon": -76.9982155, "is_disabled": 0, "type": "electric_scooter", "name": "f258fbe11d8b0d8ad4a6834125e19bc5", "fusion_lat": 0.0, "rental_uris": {"android": "https://dc.lft.to/lastmile_qr_scan", "ios": "https://dc.lft.to/lastmile_qr_scan"}, "bike_id": "f258fbe11d8b0d8ad4a6834125e19bc5", "is_reserved": 0}, {"lat": 38.8860945, "fusion_lon": 0.0, "lon": -76.95586983333334, "is_disabled": 0, "type": "electric_scooter", "name": "449f5a5d8e511b6f7f17d316399701e2", "fusion_lat": 0.0, "rental_uris": {"android": "https://dc.lft.to/lastmile_qr_scan", "ios": "https://dc.lft.to/lastmile_qr_scan"}, "bike_id": "449f5a5d8e511b6f7f17d316399701e2", "is_reserved": 0}, {"lat": 38.90859966666667, "fusion_lon": 0.0, "lon": -77.0709855, "is_disabled": 0, "type": "electric_scooter", "name": "2f7177ce2588799f01daf935f5d1306b", "fusion_lat": 0.0, "rental_uris": {"android": "https://dc.lft.to/lastmile_qr_scan", "ios": "https://dc.lft.to/lastmile_qr_scan"}, "bike_id": "2f7177ce2588799f01daf935f5d1306b", "is_reserved": 0}, {"lat": 38.9232815, "fusion_lon": 0.0, "lon": -77.0195815, "is_disabled": 0, "type": "electric_scooter", "name": "8d5f3515740b7dfc36fdf18421b7ef81", "fusion_lat": 0.0, "rental_uris": {"android": "https://dc.lft.to/lastmile_qr_scan", "ios": "https://dc.lft.to/lastmile_qr_scan"}, "bike_id": "8d5f3515740b7dfc36fdf18421b7ef81", "is_reserved": 0}, {"lat": 38.92109283333333, "fusion_lon": 0.0, "lon": -77.04221616666666, "is_disabled": 0, "type": "electric_scooter", "name": "5e9523acc4511a8283aa1511952c08bb", "fusion_lat": 0.0, "rental_uris": {"android": "https://dc.lft.to/lastmile_qr_scan", "ios": "https://dc.lft.to/lastmile_qr_scan"}, "bike_id": "5e9523acc4511a8283aa1511952c08bb", "is_reserved": 0}, {"lat": 38.880625, "fusion_lon": 0.0, "lon": -76.9320865, "is_disabled": 0, "type": "electric_scooter", "name": "bf7804fbfb13e1a5e56fe177a8a0f0f6", "fusion_lat": 0.0, "rental_uris": {"android": "https://dc.lft.to/lastmile_qr_scan", "ios": "https://dc.lft.to/lastmile_qr_scan"}, "bike_id": "bf7804fbfb13e1a5e56fe177a8a0f0f6", "is_reserved": 0}, {"lat": 38.907275, "fusion_lon": 0.0, "lon": -77.0456275, "is_disabled": 0, "type": "electric_scooter", "name": "4fc943de1fe9fc55d764aa52d32035fa", "fusion_lat": 0.0, "rental_uris": {"android": "https://dc.lft.to/lastmile_qr_scan", "ios": "https://dc.lft.to/lastmile_qr_scan"}, "bike_id": "4fc943de1fe9fc55d764aa52d32035fa", "is_reserved": 0}, {"lat": 38.90720366666667, "fusion_lon": 0.0, "lon": -77.02749233333333, "is_disabled": 0, "type": "electric_scooter", "name": "55c4c2cc6822fcba9b10cb38a441215e", "fusion_lat": 0.0, "rental_uris": {"android": "https://dc.lft.to/lastmile_qr_scan", "ios": "https://dc.lft.to/lastmile_qr_scan"}, "bike_id": "55c4c2cc6822fcba9b10cb38a441215e", "is_reserved": 0}, {"lat": 38.894690833333335, "fusion_lon": 0.0, "lon": -77.01726133333334, "is_disabled": 0, "type": "electric_scooter", "name": "874c16e7eb61ee853fd3001b20bf3694", "fusion_lat": 0.0, "rental_uris": {"android": "https://dc.lft.to/lastmile_qr_scan", "ios": "https://dc.lft.to/lastmile_qr_scan"}, "bike_id": "874c16e7eb61ee853fd3001b20bf3694", "is_reserved": 0}, {"lat": 38.862592166666666, "fusion_lon": 0.0, "lon": -76.996099, "is_disabled": 0, "type": "electric_scooter", "name": "490e47d7a53043f2b48231290c6d53d9", "fusion_lat": 0.0, "rental_uris": {"android": "https://dc.lft.to/lastmile_qr_scan", "ios": "https://dc.lft.to/lastmile_qr_scan"}, "bike_id": "490e47d7a53043f2b48231290c6d53d9", "is_reserved": 0}, {"lat": 38.90243316666667, "fusion_lon": 0.0, "lon": -77.01512116666666, "is_disabled": 0, "type": "electric_scooter", "name": "04664bfefcff4e19d6a92b70420a1d8b", "fusion_lat": 0.0, "rental_uris": {"android": "https://dc.lft.to/lastmile_qr_scan", "ios": "https://dc.lft.to/lastmile_qr_scan"}, "bike_id": "04664bfefcff4e19d6a92b70420a1d8b", "is_reserved": 0}, {"lat": 38.9110425, "fusion_lon": 0.0, "lon": -77.0431405, "is_disabled": 0, "type": "electric_scooter", "name": "1001c188c98c9061417ce6029d2bdf94", "fusion_lat": 0.0, "rental_uris": {"android": "https://dc.lft.to/lastmile_qr_scan", "ios": "https://dc.lft.to/lastmile_qr_scan"}, "bike_id": "1001c188c98c9061417ce6029d2bdf94", "is_reserved": 0}, {"lat": 38.928758, "fusion_lon": 0.0, "lon": -77.013562, "is_disabled": 0, "type": "electric_scooter", "name": "080a023fe74a99ca380b2c6c092e6beb", "fusion_lat": 0.0, "rental_uris": {"android": "https://dc.lft.to/lastmile_qr_scan", "ios": "https://dc.lft.to/lastmile_qr_scan"}, "bike_id": "080a023fe74a99ca380b2c6c092e6beb", "is_reserved": 0}, {"lat": 38.921622, "fusion_lon": 0.0, "lon": -77.03382183333333, "is_disabled": 0, "type": "electric_scooter", "name": "579180f0c7c746dc500810c8e05ecf25", "fusion_lat": 0.0, "rental_uris": {"android": "https://dc.lft.to/lastmile_qr_scan", "ios": "https://dc.lft.to/lastmile_qr_scan"}, "bike_id": "579180f0c7c746dc500810c8e05ecf25", "is_reserved": 0}, {"lat": 38.95325233333333, "fusion_lon": 0.0, "lon": -76.954366, "is_disabled": 0, "type": "electric_bike", "name": "7e2b790343b068a567b43fb488f0e400", "fusion_lat": 0.0, "rental_uris": {"android": "https://dc.lft.to/lastmile_qr_scan", "ios": "https://dc.lft.to/lastmile_qr_scan"}, "bike_id": "7e2b790343b068a567b43fb488f0e400", "is_reserved": 0}, {"lat": 38.932263166666665, "fusion_lon": 0.0, "lon": -77.181228, "is_disabled": 0, "type": "electric_bike", "name": "d7a49a80db392caedea5eef3a28377ba", "fusion_lat": 0.0, "rental_uris": {"android": "https://dc.lft.to/lastmile_qr_scan", "ios": "https://dc.lft.to/lastmile_qr_scan"}, "bike_id": "d7a49a80db392caedea5eef3a28377ba", "is_reserved": 0}, {"lat": 38.899018, "fusion_lon": 0.0, "lon": -76.99385866666667, "is_disabled": 0, "type": "electric_scooter", "name": "fce2428cb4c4dc99ccf351538d728c9f", "fusion_lat": 0.0, "rental_uris": {"android": "https://dc.lft.to/lastmile_qr_scan", "ios": "https://dc.lft.to/lastmile_qr_scan"}, "bike_id": "fce2428cb4c4dc99ccf351538d728c9f", "is_reserved": 0}, {"lat": 38.95185216666667, "fusion_lon": 0.0, "lon": -77.02614516666667, "is_disabled": 0, "type": "electric_scooter", "name": "02f566c7318867b5bd712ec24874f8f7", "fusion_lat": 0.0, "rental_uris": {"android": "https://dc.lft.to/lastmile_qr_scan", "ios": "https://dc.lft.to/lastmile_qr_scan"}, "bike_id": "02f566c7318867b5bd712ec24874f8f7", "is_reserved": 0}, {"lat": 38.91263883333333, "fusion_lon": 0.0, "lon": -77.04100716666666, "is_disabled": 0, "type": "electric_scooter", "name": "869a33bdc662aae6e44e47f16092e268", "fusion_lat": 0.0, "rental_uris": {"android": "https://dc.lft.to/lastmile_qr_scan", "ios": "https://dc.lft.to/lastmile_qr_scan"}, "bike_id": "869a33bdc662aae6e44e47f16092e268", "is_reserved": 0}, {"lat": 38.881356, "fusion_lon": 0.0, "lon": -77.01226116666666, "is_disabled": 0, "type": "electric_scooter", "name": "a3f058caf617932d505cd05a4fa94324", "fusion_lat": 0.0, "rental_uris": {"android": "https://dc.lft.to/lastmile_qr_scan", "ios": "https://dc.lft.to/lastmile_qr_scan"}, "bike_id": "a3f058caf617932d505cd05a4fa94324", "is_reserved": 0}, {"lat": 38.89610416666667, "fusion_lon": 0.0, "lon": -77.0498835, "is_disabled": 0, "type": "electric_scooter", "name": "61499ead8c2f4d8151ae6c19eb8e4163", "fusion_lat": 0.0, "rental_uris": {"android": "https://dc.lft.to/lastmile_qr_scan", "ios": "https://dc.lft.to/lastmile_qr_scan"}, "bike_id": "61499ead8c2f4d8151ae6c19eb8e4163", "is_reserved": 0}, {"lat": 38.91376966666667, "fusion_lon": 0.0, "lon": -77.03141633333334, "is_disabled": 0, "type": "electric_scooter", "name": "584c6a5ff57d8c6cffe3681a06a13e47", "fusion_lat": 0.0, "rental_uris": {"android": "https://dc.lft.to/lastmile_qr_scan", "ios": "https://dc.lft.to/lastmile_qr_scan"}, "bike_id": "584c6a5ff57d8c6cffe3681a06a13e47", "is_reserved": 0}, {"lat": 38.8962235, "fusion_lon": 0.0, "lon": -77.0319925, "is_disabled": 0, "type": "electric_scooter", "name": "f770c1c55ab4773f7eb0eb44657947ba", "fusion_lat": 0.0, "rental_uris": {"android": "https://dc.lft.to/lastmile_qr_scan", "ios": "https://dc.lft.to/lastmile_qr_scan"}, "bike_id": "f770c1c55ab4773f7eb0eb44657947ba", "is_reserved": 0}, {"lat": 38.91637383333333, "fusion_lon": 0.0, "lon": -77.04780883333333, "is_disabled": 0, "type": "electric_scooter", "name": "1e312808ef7620a3a45a46c861ffca16", "fusion_lat": 0.0, "rental_uris": {"android": "https://dc.lft.to/lastmile_qr_scan", "ios": "https://dc.lft.to/lastmile_qr_scan"}, "bike_id": "1e312808ef7620a3a45a46c861ffca16", "is_reserved": 0}, {"lat": 38.894277333333335, "fusion_lon": 0.0, "lon": -77.04001633333333, "is_disabled": 0, "type": "electric_scooter", "name": "ce528b4f800ac4e9934c5d3a6a541991", "fusion_lat": 0.0, "rental_uris": {"android": "https://dc.lft.to/lastmile_qr_scan", "ios": "https://dc.lft.to/lastmile_qr_scan"}, "bike_id": "ce528b4f800ac4e9934c5d3a6a541991", "is_reserved": 0}, {"lat": 38.92621883333333, "fusion_lon": 0.0, "lon": -77.04336016666667, "is_disabled": 0, "type": "electric_scooter", "name": "c86fb3144ce2c9dc312cd5e2c85782c6", "fusion_lat": 0.0, "rental_uris": {"android": "https://dc.lft.to/lastmile_qr_scan", "ios": "https://dc.lft.to/lastmile_qr_scan"}, "bike_id": "c86fb3144ce2c9dc312cd5e2c85782c6", "is_reserved": 0}, {"lat": 38.906213, "fusion_lon": 0.0, "lon": -77.0395775, "is_disabled": 0, "type": "electric_scooter", "name": "e0a6dc3327a08149d4c240224bfbbe0e", "fusion_lat": 0.0, "rental_uris": {"android": "https://dc.lft.to/lastmile_qr_scan", "ios": "https://dc.lft.to/lastmile_qr_scan"}, "bike_id": "e0a6dc3327a08149d4c240224bfbbe0e", "is_reserved": 0}, {"lat": 38.892223666666666, "fusion_lon": 0.0, "lon": -77.00216866666666, "is_disabled": 0, "type": "electric_scooter", "name": "5b328c22d1ad8bdffefde3c798d87d46", "fusion_lat": 0.0, "rental_uris": {"android": "https://dc.lft.to/lastmile_qr_scan", "ios": "https://dc.lft.to/lastmile_qr_scan"}, "bike_id": "5b328c22d1ad8bdffefde3c798d87d46", "is_reserved": 0}, {"lat": 38.88074116666667, "fusion_lon": 0.0, "lon": -76.98519183333333, "is_disabled": 0, "type": "electric_bike", "name": "41cd54137fe18ade1aad82d48684e586", "fusion_lat": 0.0, "rental_uris": {"android": "https://dc.lft.to/lastmile_qr_scan", "ios": "https://dc.lft.to/lastmile_qr_scan"}, "bike_id": "41cd54137fe18ade1aad82d48684e586", "is_reserved": 0}, {"lat": 38.905551833333334, "fusion_lon": 0.0, "lon": -77.050163, "is_disabled": 0, "type": "electric_scooter", "name": "86132b8137d346d6254a3b89434e3717", "fusion_lat": 0.0, "rental_uris": {"android": "https://dc.lft.to/lastmile_qr_scan", "ios": "https://dc.lft.to/lastmile_qr_scan"}, "bike_id": "86132b8137d346d6254a3b89434e3717", "is_reserved": 0}, {"lat": 38.912425, "fusion_lon": 0.0, "lon": -77.04484866666667, "is_disabled": 0, "type": "electric_scooter", "name": "858856dc0487ca1bd82ddb93166c5e3a", "fusion_lat": 0.0, "rental_uris": {"android": "https://dc.lft.to/lastmile_qr_scan", "ios": "https://dc.lft.to/lastmile_qr_scan"}, "bike_id": "858856dc0487ca1bd82ddb93166c5e3a", "is_reserved": 0}, {"lat": 38.906639, "fusion_lon": 0.0, "lon": -77.0386015, "is_disabled": 0, "type": "electric_scooter", "name": "8599df5754aa6478e69db0ec59d2bbef", "fusion_lat": 0.0, "rental_uris": {"android": "https://dc.lft.to/lastmile_qr_scan", "ios": "https://dc.lft.to/lastmile_qr_scan"}, "bike_id": "8599df5754aa6478e69db0ec59d2bbef", "is_reserved": 0}, {"lat": 38.897203833333336, "fusion_lon": 0.0, "lon": -77.00928366666666, "is_disabled": 0, "type": "electric_scooter", "name": "d656294881069fa936a85d805ebbcdf1", "fusion_lat": 0.0, "rental_uris": {"android": "https://dc.lft.to/lastmile_qr_scan", "ios": "https://dc.lft.to/lastmile_qr_scan"}, "bike_id": "d656294881069fa936a85d805ebbcdf1", "is_reserved": 0}, {"lat": 38.91687, "fusion_lon": 0.0, "lon": -77.0321755, "is_disabled": 0, "type": "electric_scooter", "name": "260ead4d314a10be1094ca7c9ebbe556", "fusion_lat": 0.0, "rental_uris": {"android": "https://dc.lft.to/lastmile_qr_scan", "ios": "https://dc.lft.to/lastmile_qr_scan"}, "bike_id": "260ead4d314a10be1094ca7c9ebbe556", "is_reserved": 0}, {"lat": 38.9095215, "fusion_lon": 0.0, "lon": -77.04262416666667, "is_disabled": 0, "type": "electric_scooter", "name": "3655ba367c31aaffc869b81900338472", "fusion_lat": 0.0, "rental_uris": {"android": "https://dc.lft.to/lastmile_qr_scan", "ios": "https://dc.lft.to/lastmile_qr_scan"}, "bike_id": "3655ba367c31aaffc869b81900338472", "is_reserved": 0}, {"lat": 38.900305833333334, "fusion_lon": 0.0, "lon": -77.0117195, "is_disabled": 0, "type": "electric_scooter", "name": "1cf83b13db9b7438523ac529060cbaa6", "fusion_lat": 0.0, "rental_uris": {"android": "https://dc.lft.to/lastmile_qr_scan", "ios": "https://dc.lft.to/lastmile_qr_scan"}, "bike_id": "1cf83b13db9b7438523ac529060cbaa6", "is_reserved": 0}, {"lat": 38.90432216666667, "fusion_lon": 0.0, "lon": -77.0449225, "is_disabled": 0, "type": "electric_scooter", "name": "bcf32b1483565459e48b891f1d2e4830", "fusion_lat": 0.0, "rental_uris": {"android": "https://dc.lft.to/lastmile_qr_scan", "ios": "https://dc.lft.to/lastmile_qr_scan"}, "bike_id": "bcf32b1483565459e48b891f1d2e4830", "is_reserved": 0}, {"lat": 38.89219333333333, "fusion_lon": 0.0, "lon": -77.02348366666666, "is_disabled": 0, "type": "electric_scooter", "name": "a6d42b163f9e5a8e36ce11a0d773738c", "fusion_lat": 0.0, "rental_uris": {"android": "https://dc.lft.to/lastmile_qr_scan", "ios": "https://dc.lft.to/lastmile_qr_scan"}, "bike_id": "a6d42b163f9e5a8e36ce11a0d773738c", "is_reserved": 0}, {"lat": 38.900345, "fusion_lon": 0.0, "lon": -77.00220416666667, "is_disabled": 0, "type": "electric_scooter", "name": "8085bf65cacba5cd75d7130c52a6ae83", "fusion_lat": 0.0, "rental_uris": {"android": "https://dc.lft.to/lastmile_qr_scan", "ios": "https://dc.lft.to/lastmile_qr_scan"}, "bike_id": "8085bf65cacba5cd75d7130c52a6ae83", "is_reserved": 0}, {"lat": 38.892787166666665, "fusion_lon": 0.0, "lon": -77.03189066666667, "is_disabled": 0, "type": "electric_scooter", "name": "b0639cf0377750a6f4343ccf89198ee1", "fusion_lat": 0.0, "rental_uris": {"android": "https://dc.lft.to/lastmile_qr_scan", "ios": "https://dc.lft.to/lastmile_qr_scan"}, "bike_id": "b0639cf0377750a6f4343ccf89198ee1", "is_reserved": 0}, {"lat": 38.91689733333333, "fusion_lon": 0.0, "lon": -77.025989, "is_disabled": 0, "type": "electric_scooter", "name": "7d086c5fe865952d01212ec273160274", "fusion_lat": 0.0, "rental_uris": {"android": "https://dc.lft.to/lastmile_qr_scan", "ios": "https://dc.lft.to/lastmile_qr_scan"}, "bike_id": "7d086c5fe865952d01212ec273160274", "is_reserved": 0}, {"lat": 38.869387, "fusion_lon": 0.0, "lon": -77.09465383333334, "is_disabled": 0, "type": "electric_bike", "name": "64ef44d92faa311fc4433da6ef8ac09b", "fusion_lat": 0.0, "rental_uris": {"android": "https://dc.lft.to/lastmile_qr_scan", "ios": "https://dc.lft.to/lastmile_qr_scan"}, "bike_id": "64ef44d92faa311fc4433da6ef8ac09b", "is_reserved": 0}, {"lat": 38.90364266666667, "fusion_lon": 0.0, "lon": -77.00725966666667, "is_disabled": 0, "type": "electric_scooter", "name": "bfb1e6395f3c510cd2023207d17e2f12", "fusion_lat": 0.0, "rental_uris": {"android": "https://dc.lft.to/lastmile_qr_scan", "ios": "https://dc.lft.to/lastmile_qr_scan"}, "bike_id": "bfb1e6395f3c510cd2023207d17e2f12", "is_reserved": 0}, {"lat": 38.8719975, "fusion_lon": 0.0, "lon": -77.00572016666666, "is_disabled": 0, "type": "electric_scooter", "name": "195cd248c80dc740a009f6ad65b8e51a", "fusion_lat": 0.0, "rental_uris": {"android": "https://dc.lft.to/lastmile_qr_scan", "ios": "https://dc.lft.to/lastmile_qr_scan"}, "bike_id": "195cd248c80dc740a009f6ad65b8e51a", "is_reserved": 0}, {"lat": 38.9182535, "fusion_lon": 0.0, "lon": -77.03157, "is_disabled": 0, "type": "electric_scooter", "name": "0f3121cac9787ab12a3af29f09ed549e", "fusion_lat": 0.0, "rental_uris": {"android": "https://dc.lft.to/lastmile_qr_scan", "ios": "https://dc.lft.to/lastmile_qr_scan"}, "bike_id": "0f3121cac9787ab12a3af29f09ed549e", "is_reserved": 0}, {"lat": 38.9015135, "fusion_lon": 0.0, "lon": -77.03192816666666, "is_disabled": 0, "type": "electric_scooter", "name": "6dab6f1e22347c48bb96227d0918be3a", "fusion_lat": 0.0, "rental_uris": {"android": "https://dc.lft.to/lastmile_qr_scan", "ios": "https://dc.lft.to/lastmile_qr_scan"}, "bike_id": "6dab6f1e22347c48bb96227d0918be3a", "is_reserved": 0}, {"lat": 38.91156933333333, "fusion_lon": 0.0, "lon": -77.0727115, "is_disabled": 0, "type": "electric_scooter", "name": "f22b23a6f51cb78dcf5da7092da171eb", "fusion_lat": 0.0, "rental_uris": {"android": "https://dc.lft.to/lastmile_qr_scan", "ios": "https://dc.lft.to/lastmile_qr_scan"}, "bike_id": "f22b23a6f51cb78dcf5da7092da171eb", "is_reserved": 0}, {"lat": 38.909209, "fusion_lon": 0.0, "lon": -77.031196, "is_disabled": 0, "type": "electric_scooter", "name": "07cd68bc8b907d15f8390aae3b609668", "fusion_lat": 0.0, "rental_uris": {"android": "https://dc.lft.to/lastmile_qr_scan", "ios": "https://dc.lft.to/lastmile_qr_scan"}, "bike_id": "07cd68bc8b907d15f8390aae3b609668", "is_reserved": 0}, {"lat": 38.92438833333333, "fusion_lon": 0.0, "lon": -77.02138433333333, "is_disabled": 0, "type": "electric_scooter", "name": "efad42fcc83dd231a06a21d98dc9d5bb", "fusion_lat": 0.0, "rental_uris": {"android": "https://dc.lft.to/lastmile_qr_scan", "ios": "https://dc.lft.to/lastmile_qr_scan"}, "bike_id": "efad42fcc83dd231a06a21d98dc9d5bb", "is_reserved": 0}, {"lat": 38.905413333333335, "fusion_lon": 0.0, "lon": -77.049999, "is_disabled": 0, "type": "electric_scooter", "name": "b023c185e6e558348cd202f9346c0cd4", "fusion_lat": 0.0, "rental_uris": {"android": "https://dc.lft.to/lastmile_qr_scan", "ios": "https://dc.lft.to/lastmile_qr_scan"}, "bike_id": "b023c185e6e558348cd202f9346c0cd4", "is_reserved": 0}, {"lat": 38.8931055, "fusion_lon": 0.0, "lon": -77.0500015, "is_disabled": 0, "type": "electric_scooter", "name": "4877febe98ef6aabd51ca9e29e896a3a", "fusion_lat": 0.0, "rental_uris": {"android": "https://dc.lft.to/lastmile_qr_scan", "ios": "https://dc.lft.to/lastmile_qr_scan"}, "bike_id": "4877febe98ef6aabd51ca9e29e896a3a", "is_reserved": 0}, {"lat": 38.90151683333333, "fusion_lon": 0.0, "lon": -77.044389, "is_disabled": 0, "type": "electric_scooter", "name": "12f6e62191fe1575cd849f2e81d3e497", "fusion_lat": 0.0, "rental_uris": {"android": "https://dc.lft.to/lastmile_qr_scan", "ios": "https://dc.lft.to/lastmile_qr_scan"}, "bike_id": "12f6e62191fe1575cd849f2e81d3e497", "is_reserved": 0}, {"lat": 38.879477666666666, "fusion_lon": 0.0, "lon": -76.98486783333334, "is_disabled": 0, "type": "electric_bike", "name": "f5664c321075702423e81c0d5ad143c4", "fusion_lat": 0.0, "rental_uris": {"android": "https://dc.lft.to/lastmile_qr_scan", "ios": "https://dc.lft.to/lastmile_qr_scan"}, "bike_id": "f5664c321075702423e81c0d5ad143c4", "is_reserved": 0}, {"lat": 38.8901905, "fusion_lon": 0.0, "lon": -76.93699766666667, "is_disabled": 0, "type": "electric_scooter", "name": "e96b918585c9ae329f6fd251504c6da7", "fusion_lat": 0.0, "rental_uris": {"android": "https://dc.lft.to/lastmile_qr_scan", "ios": "https://dc.lft.to/lastmile_qr_scan"}, "bike_id": "e96b918585c9ae329f6fd251504c6da7", "is_reserved": 0}, {"lat": 38.90825816666667, "fusion_lon": 0.0, "lon": -77.04330283333333, "is_disabled": 0, "type": "electric_scooter", "name": "4cbd1746f8221940c2e2fd73aea842d7", "fusion_lat": 0.0, "rental_uris": {"android": "https://dc.lft.to/lastmile_qr_scan", "ios": "https://dc.lft.to/lastmile_qr_scan"}, "bike_id": "4cbd1746f8221940c2e2fd73aea842d7", "is_reserved": 0}, {"lat": 38.87161183333333, "fusion_lon": 0.0, "lon": -77.0135445, "is_disabled": 0, "type": "electric_scooter", "name": "fc5ab5feb2c8e1809411254763298ae5", "fusion_lat": 0.0, "rental_uris": {"android": "https://dc.lft.to/lastmile_qr_scan", "ios": "https://dc.lft.to/lastmile_qr_scan"}, "bike_id": "fc5ab5feb2c8e1809411254763298ae5", "is_reserved": 0}, {"lat": 38.927579333333334, "fusion_lon": 0.0, "lon": -77.03279816666667, "is_disabled": 0, "type": "electric_scooter", "name": "0bec41d16564f60c3c4e44303652a3eb", "fusion_lat": 0.0, "rental_uris": {"android": "https://dc.lft.to/lastmile_qr_scan", "ios": "https://dc.lft.to/lastmile_qr_scan"}, "bike_id": "0bec41d16564f60c3c4e44303652a3eb", "is_reserved": 0}, {"lat": 38.921089, "fusion_lon": 0.0, "lon": -76.99404816666667, "is_disabled": 0, "type": "electric_bike", "name": "1ceb15ac3cc204a289a5de8058da2e24", "fusion_lat": 0.0, "rental_uris": {"android": "https://dc.lft.to/lastmile_qr_scan", "ios": "https://dc.lft.to/lastmile_qr_scan"}, "bike_id": "1ceb15ac3cc204a289a5de8058da2e24", "is_reserved": 0}, {"lat": 38.885216166666666, "fusion_lon": 0.0, "lon": -76.996255, "is_disabled": 0, "type": "electric_scooter", "name": "6b37dfae9bb8b38f865bfba7ee8b6c6a", "fusion_lat": 0.0, "rental_uris": {"android": "https://dc.lft.to/lastmile_qr_scan", "ios": "https://dc.lft.to/lastmile_qr_scan"}, "bike_id": "6b37dfae9bb8b38f865bfba7ee8b6c6a", "is_reserved": 0}, {"lat": 38.962270833333335, "fusion_lon": 0.0, "lon": -77.026264, "is_disabled": 0, "type": "electric_bike", "name": "75b91b19349783402e26445cd8c3cecc", "fusion_lat": 0.0, "rental_uris": {"android": "https://dc.lft.to/lastmile_qr_scan", "ios": "https://dc.lft.to/lastmile_qr_scan"}, "bike_id": "75b91b19349783402e26445cd8c3cecc", "is_reserved": 0}, {"lat": 38.89553766666667, "fusion_lon": 0.0, "lon": -76.94869833333334, "is_disabled": 0, "type": "electric_scooter", "name": "71ac8ad048f32029ad9271d9ab2237c2", "fusion_lat": 0.0, "rental_uris": {"android": "https://dc.lft.to/lastmile_qr_scan", "ios": "https://dc.lft.to/lastmile_qr_scan"}, "bike_id": "71ac8ad048f32029ad9271d9ab2237c2", "is_reserved": 0}, {"lat": 38.92137966666667, "fusion_lon": 0.0, "lon": -77.02873966666667, "is_disabled": 0, "type": "electric_scooter", "name": "cbde56481bfc30656247a7c378cfb6e8", "fusion_lat": 0.0, "rental_uris": {"android": "https://dc.lft.to/lastmile_qr_scan", "ios": "https://dc.lft.to/lastmile_qr_scan"}, "bike_id": "cbde56481bfc30656247a7c378cfb6e8", "is_reserved": 0}, {"lat": 38.938660666666664, "fusion_lon": 0.0, "lon": -76.942944, "is_disabled": 0, "type": "electric_bike", "name": "3e9c242a57319c3361c417d2c14a0d2b", "fusion_lat": 0.0, "rental_uris": {"android": "https://dc.lft.to/lastmile_qr_scan", "ios": "https://dc.lft.to/lastmile_qr_scan"}, "bike_id": "3e9c242a57319c3361c417d2c14a0d2b", "is_reserved": 0}, {"lat": 38.88738416666666, "fusion_lon": 0.0, "lon": -77.0221355, "is_disabled": 0, "type": "electric_scooter", "name": "6a2bd35f2497fbb1d2193457170a2b7f", "fusion_lat": 0.0, "rental_uris": {"android": "https://dc.lft.to/lastmile_qr_scan", "ios": "https://dc.lft.to/lastmile_qr_scan"}, "bike_id": "6a2bd35f2497fbb1d2193457170a2b7f", "is_reserved": 0}, {"lat": 38.90211033333333, "fusion_lon": 0.0, "lon": -77.03382916666666, "is_disabled": 0, "type": "electric_scooter", "name": "97db76b5545b1f8c692cbdfe8e4bc950", "fusion_lat": 0.0, "rental_uris": {"android": "https://dc.lft.to/lastmile_qr_scan", "ios": "https://dc.lft.to/lastmile_qr_scan"}, "bike_id": "97db76b5545b1f8c692cbdfe8e4bc950", "is_reserved": 0}, {"lat": 38.907588833333335, "fusion_lon": 0.0, "lon": -77.071585, "is_disabled": 0, "type": "electric_scooter", "name": "0576a6dd0968795656d0db011630780b", "fusion_lat": 0.0, "rental_uris": {"android": "https://dc.lft.to/lastmile_qr_scan", "ios": "https://dc.lft.to/lastmile_qr_scan"}, "bike_id": "0576a6dd0968795656d0db011630780b", "is_reserved": 0}, {"lat": 38.88605583333333, "fusion_lon": 0.0, "lon": -76.99509383333333, "is_disabled": 0, "type": "electric_scooter", "name": "702ffde1562776c0acc7a73f05467bd4", "fusion_lat": 0.0, "rental_uris": {"android": "https://dc.lft.to/lastmile_qr_scan", "ios": "https://dc.lft.to/lastmile_qr_scan"}, "bike_id": "702ffde1562776c0acc7a73f05467bd4", "is_reserved": 0}, {"lat": 38.934574, "fusion_lon": 0.0, "lon": -77.02218333333333, "is_disabled": 0, "type": "electric_scooter", "name": "14f4177510fa700f78e7554f6dd96eab", "fusion_lat": 0.0, "rental_uris": {"android": "https://dc.lft.to/lastmile_qr_scan", "ios": "https://dc.lft.to/lastmile_qr_scan"}, "bike_id": "14f4177510fa700f78e7554f6dd96eab", "is_reserved": 0}, {"lat": 38.95954533333333, "fusion_lon": 0.0, "lon": -77.10091333333334, "is_disabled": 0, "type": "electric_bike", "name": "8749b7d63de11c7d54752dbdd12767f9", "fusion_lat": 0.0, "rental_uris": {"android": "https://dc.lft.to/lastmile_qr_scan", "ios": "https://dc.lft.to/lastmile_qr_scan"}, "bike_id": "8749b7d63de11c7d54752dbdd12767f9", "is_reserved": 0}, {"lat": 38.88458416666667, "fusion_lon": 0.0, "lon": -76.92621883333334, "is_disabled": 0, "type": "electric_scooter", "name": "62b58ea6af3da1e1622eca921a581a96", "fusion_lat": 0.0, "rental_uris": {"android": "https://dc.lft.to/lastmile_qr_scan", "ios": "https://dc.lft.to/lastmile_qr_scan"}, "bike_id": "62b58ea6af3da1e1622eca921a581a96", "is_reserved": 0}, {"lat": 38.9198865, "fusion_lon": 0.0, "lon": -77.032441, "is_disabled": 0, "type": "electric_scooter", "name": "8a4be51e1536fdf2cc3ccf79b36db69d", "fusion_lat": 0.0, "rental_uris": {"android": "https://dc.lft.to/lastmile_qr_scan", "ios": "https://dc.lft.to/lastmile_qr_scan"}, "bike_id": "8a4be51e1536fdf2cc3ccf79b36db69d", "is_reserved": 0}, {"lat": 38.83158366666667, "fusion_lon": 0.0, "lon": -76.99546266666667, "is_disabled": 0, "type": "electric_bike", "name": "aa8901359afb614bbe2afa3d1fc5b927", "fusion_lat": 0.0, "rental_uris": {"android": "https://dc.lft.to/lastmile_qr_scan", "ios": "https://dc.lft.to/lastmile_qr_scan"}, "bike_id": "aa8901359afb614bbe2afa3d1fc5b927", "is_reserved": 0}, {"lat": 38.81201183333334, "fusion_lon": 0.0, "lon": -77.10830566666667, "is_disabled": 0, "type": "electric_bike", "name": "d72cb5f0f1f4108cba79a6bd388208bd", "fusion_lat": 0.0, "rental_uris": {"android": "https://dc.lft.to/lastmile_qr_scan", "ios": "https://dc.lft.to/lastmile_qr_scan"}, "bike_id": "d72cb5f0f1f4108cba79a6bd388208bd", "is_reserved": 0}, {"lat": 38.92342383333333, "fusion_lon": 0.0, "lon": -77.02122583333333, "is_disabled": 0, "type": "electric_scooter", "name": "67f2597b02a53f8590068ac5988ed966", "fusion_lat": 0.0, "rental_uris": {"android": "https://dc.lft.to/lastmile_qr_scan", "ios": "https://dc.lft.to/lastmile_qr_scan"}, "bike_id": "67f2597b02a53f8590068ac5988ed966", "is_reserved": 0}, {"lat": 38.9422765, "fusion_lon": 0.0, "lon": -76.96621516666667, "is_disabled": 0, "type": "electric_bike", "name": "3579d4b078095a85c1049c33cfbf9fdf", "fusion_lat": 0.0, "rental_uris": {"android": "https://dc.lft.to/lastmile_qr_scan", "ios": "https://dc.lft.to/lastmile_qr_scan"}, "bike_id": "3579d4b078095a85c1049c33cfbf9fdf", "is_reserved": 0}, {"lat": 38.866964833333334, "fusion_lon": 0.0, "lon": -76.98594816666666, "is_disabled": 0, "type": "electric_scooter", "name": "063349415e5e5d5fa9f66f4847ac1315", "fusion_lat": 0.0, "rental_uris": {"android": "https://dc.lft.to/lastmile_qr_scan", "ios": "https://dc.lft.to/lastmile_qr_scan"}, "bike_id": "063349415e5e5d5fa9f66f4847ac1315", "is_reserved": 0}, {"lat": 38.9244365, "fusion_lon": 0.0, "lon": -77.04099266666667, "is_disabled": 0, "type": "electric_scooter", "name": "cbafdbab312f6da864d8100204a7304b", "fusion_lat": 0.0, "rental_uris": {"android": "https://dc.lft.to/lastmile_qr_scan", "ios": "https://dc.lft.to/lastmile_qr_scan"}, "bike_id": "cbafdbab312f6da864d8100204a7304b", "is_reserved": 0}, {"lat": 38.942045666666665, "fusion_lon": 0.0, "lon": -77.02517933333333, "is_disabled": 0, "type": "electric_scooter", "name": "c84ab4c3df82ac05e2abb895112f5e77", "fusion_lat": 0.0, "rental_uris": {"android": "https://dc.lft.to/lastmile_qr_scan", "ios": "https://dc.lft.to/lastmile_qr_scan"}, "bike_id": "c84ab4c3df82ac05e2abb895112f5e77", "is_reserved": 0}, {"lat": 38.904417, "fusion_lon": 0.0, "lon": -77.053215, "is_disabled": 0, "type": "electric_scooter", "name": "e41583d27dc3a4ce1cda58eeb3066c02", "fusion_lat": 0.0, "rental_uris": {"android": "https://dc.lft.to/lastmile_qr_scan", "ios": "https://dc.lft.to/lastmile_qr_scan"}, "bike_id": "e41583d27dc3a4ce1cda58eeb3066c02", "is_reserved": 0}, {"lat": 38.90754283333333, "fusion_lon": 0.0, "lon": -77.00131733333333, "is_disabled": 0, "type": "electric_scooter", "name": "a4a80f4ececb441e5f144050f0ebcfb9", "fusion_lat": 0.0, "rental_uris": {"android": "https://dc.lft.to/lastmile_qr_scan", "ios": "https://dc.lft.to/lastmile_qr_scan"}, "bike_id": "a4a80f4ececb441e5f144050f0ebcfb9", "is_reserved": 0}, {"lat": 38.894133333333336, "fusion_lon": 0.0, "lon": -77.0240665, "is_disabled": 0, "type": "electric_scooter", "name": "6fe51eff8caed3537df7bc2bac029a30", "fusion_lat": 0.0, "rental_uris": {"android": "https://dc.lft.to/lastmile_qr_scan", "ios": "https://dc.lft.to/lastmile_qr_scan"}, "bike_id": "6fe51eff8caed3537df7bc2bac029a30", "is_reserved": 0}, {"lat": 38.9613845, "fusion_lon": 0.0, "lon": -77.0229665, "is_disabled": 0, "type": "electric_bike", "name": "954e72fd4b89a6d76f4eb1ea584762f8", "fusion_lat": 0.0, "rental_uris": {"android": "https://dc.lft.to/lastmile_qr_scan", "ios": "https://dc.lft.to/lastmile_qr_scan"}, "bike_id": "954e72fd4b89a6d76f4eb1ea584762f8", "is_reserved": 0}, {"lat": 38.900235333333335, "fusion_lon": 0.0, "lon": -77.0008555, "is_disabled": 0, "type": "electric_scooter", "name": "8d1a96a315528922369f89ed71682010", "fusion_lat": 0.0, "rental_uris": {"android": "https://dc.lft.to/lastmile_qr_scan", "ios": "https://dc.lft.to/lastmile_qr_scan"}, "bike_id": "8d1a96a315528922369f89ed71682010", "is_reserved": 0}, {"lat": 38.8727685, "fusion_lon": 0.0, "lon": -77.23320633333333, "is_disabled": 0, "type": "electric_bike", "name": "b97f4fdbccc0c955245277c1660d6623", "fusion_lat": 0.0, "rental_uris": {"android": "https://dc.lft.to/lastmile_qr_scan", "ios": "https://dc.lft.to/lastmile_qr_scan"}, "bike_id": "b97f4fdbccc0c955245277c1660d6623", "is_reserved": 0}, {"lat": 38.9101035, "fusion_lon": 0.0, "lon": -77.22805266666667, "is_disabled": 0, "type": "electric_bike", "name": "dbf97df01269b9e65e14341ffb63584e", "fusion_lat": 0.0, "rental_uris": {"android": "https://dc.lft.to/lastmile_qr_scan", "ios": "https://dc.lft.to/lastmile_qr_scan"}, "bike_id": "dbf97df01269b9e65e14341ffb63584e", "is_reserved": 0}, {"lat": 38.8653385, "fusion_lon": 0.0, "lon": -76.98712216666667, "is_disabled": 0, "type": "electric_scooter", "name": "a911c7c36aaf87bc989444c76b69e3c1", "fusion_lat": 0.0, "rental_uris": {"android": "https://dc.lft.to/lastmile_qr_scan", "ios": "https://dc.lft.to/lastmile_qr_scan"}, "bike_id": "a911c7c36aaf87bc989444c76b69e3c1", "is_reserved": 0}, {"lat": 38.902555666666665, "fusion_lon": 0.0, "lon": -77.01699566666667, "is_disabled": 0, "type": "electric_scooter", "name": "ded461af2fbcac6dc534ef1a0550e85b", "fusion_lat": 0.0, "rental_uris": {"android": "https://dc.lft.to/lastmile_qr_scan", "ios": "https://dc.lft.to/lastmile_qr_scan"}, "bike_id": "ded461af2fbcac6dc534ef1a0550e85b", "is_reserved": 0}, {"lat": 38.903683, "fusion_lon": 0.0, "lon": -77.0448615, "is_disabled": 0, "type": "electric_scooter", "name": "cd8234673877494b79d347266e2100d9", "fusion_lat": 0.0, "rental_uris": {"android": "https://dc.lft.to/lastmile_qr_scan", "ios": "https://dc.lft.to/lastmile_qr_scan"}, "bike_id": "cd8234673877494b79d347266e2100d9", "is_reserved": 0}, {"lat": 38.887229166666664, "fusion_lon": 0.0, "lon": -77.02814216666667, "is_disabled": 0, "type": "electric_scooter", "name": "15dbf5edc4707bea99d82dc45e5fb6dc", "fusion_lat": 0.0, "rental_uris": {"android": "https://dc.lft.to/lastmile_qr_scan", "ios": "https://dc.lft.to/lastmile_qr_scan"}, "bike_id": "15dbf5edc4707bea99d82dc45e5fb6dc", "is_reserved": 0}, {"lat": 38.920379, "fusion_lon": 0.0, "lon": -77.02431766666666, "is_disabled": 0, "type": "electric_scooter", "name": "7feb0d66fd9082849d971146344804e6", "fusion_lat": 0.0, "rental_uris": {"android": "https://dc.lft.to/lastmile_qr_scan", "ios": "https://dc.lft.to/lastmile_qr_scan"}, "bike_id": "7feb0d66fd9082849d971146344804e6", "is_reserved": 0}, {"lat": 38.926075, "fusion_lon": 0.0, "lon": -77.02164983333333, "is_disabled": 0, "type": "electric_scooter", "name": "de0ab91735bc8a71e764fa76f8c99f83", "fusion_lat": 0.0, "rental_uris": {"android": "https://dc.lft.to/lastmile_qr_scan", "ios": "https://dc.lft.to/lastmile_qr_scan"}, "bike_id": "de0ab91735bc8a71e764fa76f8c99f83", "is_reserved": 0}, {"lat": 38.905496, "fusion_lon": 0.0, "lon": -77.03248483333333, "is_disabled": 0, "type": "electric_scooter", "name": "933efcb754e5b33ae1462905f738df25", "fusion_lat": 0.0, "rental_uris": {"android": "https://dc.lft.to/lastmile_qr_scan", "ios": "https://dc.lft.to/lastmile_qr_scan"}, "bike_id": "933efcb754e5b33ae1462905f738df25", "is_reserved": 0}, {"lat": 38.900874, "fusion_lon": 0.0, "lon": -76.93026666666667, "is_disabled": 0, "type": "electric_scooter", "name": "60588157d89de787ed0606fa774d6fba", "fusion_lat": 0.0, "rental_uris": {"android": "https://dc.lft.to/lastmile_qr_scan", "ios": "https://dc.lft.to/lastmile_qr_scan"}, "bike_id": "60588157d89de787ed0606fa774d6fba", "is_reserved": 0}, {"lat": 38.855374166666664, "fusion_lon": 0.0, "lon": -76.98421533333334, "is_disabled": 0, "type": "electric_scooter", "name": "d12a4c3454baab88d7323bd27ef4ab0d", "fusion_lat": 0.0, "rental_uris": {"android": "https://dc.lft.to/lastmile_qr_scan", "ios": "https://dc.lft.to/lastmile_qr_scan"}, "bike_id": "d12a4c3454baab88d7323bd27ef4ab0d", "is_reserved": 0}, {"lat": 38.902455833333335, "fusion_lon": 0.0, "lon": -77.026053, "is_disabled": 0, "type": "electric_scooter", "name": "d5747e57b181284aa4a313a06c902492", "fusion_lat": 0.0, "rental_uris": {"android": "https://dc.lft.to/lastmile_qr_scan", "ios": "https://dc.lft.to/lastmile_qr_scan"}, "bike_id": "d5747e57b181284aa4a313a06c902492", "is_reserved": 0}, {"lat": 38.90254616666667, "fusion_lon": 0.0, "lon": -77.00207066666667, "is_disabled": 0, "type": "electric_scooter", "name": "9bf81b9c3d1159e3ee53b95c2c5931f2", "fusion_lat": 0.0, "rental_uris": {"android": "https://dc.lft.to/lastmile_qr_scan", "ios": "https://dc.lft.to/lastmile_qr_scan"}, "bike_id": "9bf81b9c3d1159e3ee53b95c2c5931f2", "is_reserved": 0}, {"lat": 38.87206716666667, "fusion_lon": 0.0, "lon": -76.978386, "is_disabled": 0, "type": "electric_scooter", "name": "d45a8a6c86fcd1c7445ab05cfa21cbf0", "fusion_lat": 0.0, "rental_uris": {"android": "https://dc.lft.to/lastmile_qr_scan", "ios": "https://dc.lft.to/lastmile_qr_scan"}, "bike_id": "d45a8a6c86fcd1c7445ab05cfa21cbf0", "is_reserved": 0}, {"lat": 38.9111265, "fusion_lon": 0.0, "lon": -77.02180933333334, "is_disabled": 0, "type": "electric_scooter", "name": "86c80cc1b1727402d8938417452408b5", "fusion_lat": 0.0, "rental_uris": {"android": "https://dc.lft.to/lastmile_qr_scan", "ios": "https://dc.lft.to/lastmile_qr_scan"}, "bike_id": "86c80cc1b1727402d8938417452408b5", "is_reserved": 0}, {"lat": 38.8848085, "fusion_lon": 0.0, "lon": -76.9261745, "is_disabled": 0, "type": "electric_scooter", "name": "f37b40fc786e47f30243b35fe89bc59a", "fusion_lat": 0.0, "rental_uris": {"android": "https://dc.lft.to/lastmile_qr_scan", "ios": "https://dc.lft.to/lastmile_qr_scan"}, "bike_id": "f37b40fc786e47f30243b35fe89bc59a", "is_reserved": 0}, {"lat": 38.88324033333333, "fusion_lon": 0.0, "lon": -77.0175995, "is_disabled": 0, "type": "electric_scooter", "name": "09f2fede96f8d249732600d1020ba11f", "fusion_lat": 0.0, "rental_uris": {"android": "https://dc.lft.to/lastmile_qr_scan", "ios": "https://dc.lft.to/lastmile_qr_scan"}, "bike_id": "09f2fede96f8d249732600d1020ba11f", "is_reserved": 0}, {"lat": 38.8927135, "fusion_lon": 0.0, "lon": -77.04874233333334, "is_disabled": 0, "type": "electric_scooter", "name": "31528ece3b244792715eee15b745024d", "fusion_lat": 0.0, "rental_uris": {"android": "https://dc.lft.to/lastmile_qr_scan", "ios": "https://dc.lft.to/lastmile_qr_scan"}, "bike_id": "31528ece3b244792715eee15b745024d", "is_reserved": 0}, {"lat": 38.9505515, "fusion_lon": 0.0, "lon": -77.080094, "is_disabled": 0, "type": "electric_scooter", "name": "fcec688aba23b1a2b971cc0d5b594eaa", "fusion_lat": 0.0, "rental_uris": {"android": "https://dc.lft.to/lastmile_qr_scan", "ios": "https://dc.lft.to/lastmile_qr_scan"}, "bike_id": "fcec688aba23b1a2b971cc0d5b594eaa", "is_reserved": 0}, {"lat": 38.94426716666667, "fusion_lon": 0.0, "lon": -77.0259725, "is_disabled": 0, "type": "electric_scooter", "name": "25b6537594d91f6c413d4893bfd9bd70", "fusion_lat": 0.0, "rental_uris": {"android": "https://dc.lft.to/lastmile_qr_scan", "ios": "https://dc.lft.to/lastmile_qr_scan"}, "bike_id": "25b6537594d91f6c413d4893bfd9bd70", "is_reserved": 0}, {"lat": 38.892305666666665, "fusion_lon": 0.0, "lon": -77.03183433333334, "is_disabled": 0, "type": "electric_scooter", "name": "a2524c3681020c0f03b48a93a242e522", "fusion_lat": 0.0, "rental_uris": {"android": "https://dc.lft.to/lastmile_qr_scan", "ios": "https://dc.lft.to/lastmile_qr_scan"}, "bike_id": "a2524c3681020c0f03b48a93a242e522", "is_reserved": 0}, {"lat": 38.893186666666665, "fusion_lon": 0.0, "lon": -77.01806683333334, "is_disabled": 0, "type": "electric_scooter", "name": "d57f03e78878b3bd9d1cce49f232477b", "fusion_lat": 0.0, "rental_uris": {"android": "https://dc.lft.to/lastmile_qr_scan", "ios": "https://dc.lft.to/lastmile_qr_scan"}, "bike_id": "d57f03e78878b3bd9d1cce49f232477b", "is_reserved": 0}, {"lat": 38.90772583333333, "fusion_lon": 0.0, "lon": -77.0349895, "is_disabled": 0, "type": "electric_scooter", "name": "8299967c37e80e744b8950cdb89c1d07", "fusion_lat": 0.0, "rental_uris": {"android": "https://dc.lft.to/lastmile_qr_scan", "ios": "https://dc.lft.to/lastmile_qr_scan"}, "bike_id": "8299967c37e80e744b8950cdb89c1d07", "is_reserved": 0}, {"lat": 38.89157083333333, "fusion_lon": 0.0, "lon": -76.95163866666667, "is_disabled": 0, "type": "electric_scooter", "name": "86fd323eaf8ae3790efcdade703ca8a8", "fusion_lat": 0.0, "rental_uris": {"android": "https://dc.lft.to/lastmile_qr_scan", "ios": "https://dc.lft.to/lastmile_qr_scan"}, "bike_id": "86fd323eaf8ae3790efcdade703ca8a8", "is_reserved": 0}, {"lat": 38.956450333333336, "fusion_lon": 0.0, "lon": -77.022599, "is_disabled": 0, "type": "electric_bike", "name": "078cd20de30f5412dc11b7ec2e3207b5", "fusion_lat": 0.0, "rental_uris": {"android": "https://dc.lft.to/lastmile_qr_scan", "ios": "https://dc.lft.to/lastmile_qr_scan"}, "bike_id": "078cd20de30f5412dc11b7ec2e3207b5", "is_reserved": 0}, {"lat": 38.97725616666666, "fusion_lon": 0.0, "lon": -77.01727583333333, "is_disabled": 0, "type": "electric_scooter", "name": "3a5f20bd703e3b2a9f4425a0ee3dd44d", "fusion_lat": 0.0, "rental_uris": {"android": "https://dc.lft.to/lastmile_qr_scan", "ios": "https://dc.lft.to/lastmile_qr_scan"}, "bike_id": "3a5f20bd703e3b2a9f4425a0ee3dd44d", "is_reserved": 0}, {"lat": 38.795243666666664, "fusion_lon": 0.0, "lon": -77.00707816666667, "is_disabled": 0, "type": "electric_bike", "name": "6a14e3ba2f7fe6b43892695efd483857", "fusion_lat": 0.0, "rental_uris": {"android": "https://dc.lft.to/lastmile_qr_scan", "ios": "https://dc.lft.to/lastmile_qr_scan"}, "bike_id": "6a14e3ba2f7fe6b43892695efd483857", "is_reserved": 0}, {"lat": 38.892228, "fusion_lon": 0.0, "lon": -77.02776683333333, "is_disabled": 0, "type": "electric_scooter", "name": "ce5e4a488b5aa0974aeb5f325d740884", "fusion_lat": 0.0, "rental_uris": {"android": "https://dc.lft.to/lastmile_qr_scan", "ios": "https://dc.lft.to/lastmile_qr_scan"}, "bike_id": "ce5e4a488b5aa0974aeb5f325d740884", "is_reserved": 0}, {"lat": 38.90106733333333, "fusion_lon": 0.0, "lon": -77.044861, "is_disabled": 0, "type": "electric_scooter", "name": "0476b23c5685d319be06cc5f7457a77b", "fusion_lat": 0.0, "rental_uris": {"android": "https://dc.lft.to/lastmile_qr_scan", "ios": "https://dc.lft.to/lastmile_qr_scan"}, "bike_id": "0476b23c5685d319be06cc5f7457a77b", "is_reserved": 0}, {"lat": 38.89785916666666, "fusion_lon": 0.0, "lon": -77.0396655, "is_disabled": 0, "type": "electric_scooter", "name": "4e684f35f7d3dc6e62b9c305eb95fbbb", "fusion_lat": 0.0, "rental_uris": {"android": "https://dc.lft.to/lastmile_qr_scan", "ios": "https://dc.lft.to/lastmile_qr_scan"}, "bike_id": "4e684f35f7d3dc6e62b9c305eb95fbbb", "is_reserved": 0}, {"lat": 38.86408633333333, "fusion_lon": 0.0, "lon": -77.01225383333333, "is_disabled": 0, "type": "electric_scooter", "name": "6b8bf68f233baf8071326563308aca64", "fusion_lat": 0.0, "rental_uris": {"android": "https://dc.lft.to/lastmile_qr_scan", "ios": "https://dc.lft.to/lastmile_qr_scan"}, "bike_id": "6b8bf68f233baf8071326563308aca64", "is_reserved": 0}, {"lat": 38.88856116666667, "fusion_lon": 0.0, "lon": -77.00616583333333, "is_disabled": 0, "type": "electric_bike", "name": "cd1b912a9ffe74f30361a6435ef17ac1", "fusion_lat": 0.0, "rental_uris": {"android": "https://dc.lft.to/lastmile_qr_scan", "ios": "https://dc.lft.to/lastmile_qr_scan"}, "bike_id": "cd1b912a9ffe74f30361a6435ef17ac1", "is_reserved": 0}, {"lat": 38.873464, "fusion_lon": 0.0, "lon": -77.00619983333333, "is_disabled": 0, "type": "electric_scooter", "name": "bf25f85a0e6ebede8e32690b53ad451b", "fusion_lat": 0.0, "rental_uris": {"android": "https://dc.lft.to/lastmile_qr_scan", "ios": "https://dc.lft.to/lastmile_qr_scan"}, "bike_id": "bf25f85a0e6ebede8e32690b53ad451b", "is_reserved": 0}, {"lat": 38.8851595, "fusion_lon": 0.0, "lon": -76.99622600000001, "is_disabled": 0, "type": "electric_scooter", "name": "0d9e92cef6ea8ededa9d933953b15355", "fusion_lat": 0.0, "rental_uris": {"android": "https://dc.lft.to/lastmile_qr_scan", "ios": "https://dc.lft.to/lastmile_qr_scan"}, "bike_id": "0d9e92cef6ea8ededa9d933953b15355", "is_reserved": 0}, {"lat": 38.91567633333333, "fusion_lon": 0.0, "lon": -77.02585933333333, "is_disabled": 0, "type": "electric_scooter", "name": "c7dcdf97fc14a440025ae80e596871d3", "fusion_lat": 0.0, "rental_uris": {"android": "https://dc.lft.to/lastmile_qr_scan", "ios": "https://dc.lft.to/lastmile_qr_scan"}, "bike_id": "c7dcdf97fc14a440025ae80e596871d3", "is_reserved": 0}, {"lat": 38.9277975, "fusion_lon": 0.0, "lon": -77.0278505, "is_disabled": 0, "type": "electric_scooter", "name": "ef0d500e7c4e1140be5f2d3e2a47ca6c", "fusion_lat": 0.0, "rental_uris": {"android": "https://dc.lft.to/lastmile_qr_scan", "ios": "https://dc.lft.to/lastmile_qr_scan"}, "bike_id": "ef0d500e7c4e1140be5f2d3e2a47ca6c", "is_reserved": 0}, {"lat": 38.8895975, "fusion_lon": 0.0, "lon": -76.937086, "is_disabled": 0, "type": "electric_scooter", "name": "7cb4399a96ca017154b15c3536b6de8b", "fusion_lat": 0.0, "rental_uris": {"android": "https://dc.lft.to/lastmile_qr_scan", "ios": "https://dc.lft.to/lastmile_qr_scan"}, "bike_id": "7cb4399a96ca017154b15c3536b6de8b", "is_reserved": 0}, {"lat": 38.925184, "fusion_lon": 0.0, "lon": -77.0015995, "is_disabled": 0, "type": "electric_scooter", "name": "a34d54110a9dbdf11dca4683aadb1fc1", "fusion_lat": 0.0, "rental_uris": {"android": "https://dc.lft.to/lastmile_qr_scan", "ios": "https://dc.lft.to/lastmile_qr_scan"}, "bike_id": "a34d54110a9dbdf11dca4683aadb1fc1", "is_reserved": 0}, {"lat": 38.9377525, "fusion_lon": 0.0, "lon": -77.03267333333334, "is_disabled": 0, "type": "electric_scooter", "name": "3e944540ece720bd071484cf7fa8bebc", "fusion_lat": 0.0, "rental_uris": {"android": "https://dc.lft.to/lastmile_qr_scan", "ios": "https://dc.lft.to/lastmile_qr_scan"}, "bike_id": "3e944540ece720bd071484cf7fa8bebc", "is_reserved": 0}, {"lat": 38.95545383333334, "fusion_lon": 0.0, "lon": -77.0692195, "is_disabled": 0, "type": "electric_bike", "name": "bea1ae11995bd096256832e52c76f93b", "fusion_lat": 0.0, "rental_uris": {"android": "https://dc.lft.to/lastmile_qr_scan", "ios": "https://dc.lft.to/lastmile_qr_scan"}, "bike_id": "bea1ae11995bd096256832e52c76f93b", "is_reserved": 0}, {"lat": 38.878497833333334, "fusion_lon": 0.0, "lon": -77.00774383333334, "is_disabled": 0, "type": "electric_bike", "name": "6bf3eb470d3535088757ee656dc8fc63", "fusion_lat": 0.0, "rental_uris": {"android": "https://dc.lft.to/lastmile_qr_scan", "ios": "https://dc.lft.to/lastmile_qr_scan"}, "bike_id": "6bf3eb470d3535088757ee656dc8fc63", "is_reserved": 0}, {"lat": 38.889593, "fusion_lon": 0.0, "lon": -76.93708566666666, "is_disabled": 0, "type": "electric_scooter", "name": "039151008d1cf823cd6e84a4011d5236", "fusion_lat": 0.0, "rental_uris": {"android": "https://dc.lft.to/lastmile_qr_scan", "ios": "https://dc.lft.to/lastmile_qr_scan"}, "bike_id": "039151008d1cf823cd6e84a4011d5236", "is_reserved": 0}, {"lat": 38.91837133333333, "fusion_lon": 0.0, "lon": -77.05949333333334, "is_disabled": 0, "type": "electric_scooter", "name": "ae45f4fa0237ec3d3f7d6128a81a61a8", "fusion_lat": 0.0, "rental_uris": {"android": "https://dc.lft.to/lastmile_qr_scan", "ios": "https://dc.lft.to/lastmile_qr_scan"}, "bike_id": "ae45f4fa0237ec3d3f7d6128a81a61a8", "is_reserved": 0}, {"lat": 38.887252333333336, "fusion_lon": 0.0, "lon": -77.02584816666666, "is_disabled": 0, "type": "electric_scooter", "name": "1660781b1917c2a48d462eaa39ee74e0", "fusion_lat": 0.0, "rental_uris": {"android": "https://dc.lft.to/lastmile_qr_scan", "ios": "https://dc.lft.to/lastmile_qr_scan"}, "bike_id": "1660781b1917c2a48d462eaa39ee74e0", "is_reserved": 0}, {"lat": 38.95203566666667, "fusion_lon": 0.0, "lon": -77.027373, "is_disabled": 0, "type": "electric_scooter", "name": "975af3fc49d2545bbf7518b156980d38", "fusion_lat": 0.0, "rental_uris": {"android": "https://dc.lft.to/lastmile_qr_scan", "ios": "https://dc.lft.to/lastmile_qr_scan"}, "bike_id": "975af3fc49d2545bbf7518b156980d38", "is_reserved": 0}, {"lat": 38.90908833333334, "fusion_lon": 0.0, "lon": -77.03192533333333, "is_disabled": 0, "type": "electric_scooter", "name": "1857ffe1d09091884c6e8ebb2fd3ca15", "fusion_lat": 0.0, "rental_uris": {"android": "https://dc.lft.to/lastmile_qr_scan", "ios": "https://dc.lft.to/lastmile_qr_scan"}, "bike_id": "1857ffe1d09091884c6e8ebb2fd3ca15", "is_reserved": 0}, {"lat": 38.92488216666667, "fusion_lon": 0.0, "lon": -77.02133716666667, "is_disabled": 0, "type": "electric_scooter", "name": "54fd78b0c2c735deed3d1f3ae2cef348", "fusion_lat": 0.0, "rental_uris": {"android": "https://dc.lft.to/lastmile_qr_scan", "ios": "https://dc.lft.to/lastmile_qr_scan"}, "bike_id": "54fd78b0c2c735deed3d1f3ae2cef348", "is_reserved": 0}, {"lat": 38.89477616666667, "fusion_lon": 0.0, "lon": -77.02314233333334, "is_disabled": 0, "type": "electric_scooter", "name": "285126dec22f01e3ede1fd3f107ad5cd", "fusion_lat": 0.0, "rental_uris": {"android": "https://dc.lft.to/lastmile_qr_scan", "ios": "https://dc.lft.to/lastmile_qr_scan"}, "bike_id": "285126dec22f01e3ede1fd3f107ad5cd", "is_reserved": 0}, {"lat": 38.90032766666667, "fusion_lon": 0.0, "lon": -77.01167383333333, "is_disabled": 0, "type": "electric_scooter", "name": "f860f20697d3d46693316bb3d06644a1", "fusion_lat": 0.0, "rental_uris": {"android": "https://dc.lft.to/lastmile_qr_scan", "ios": "https://dc.lft.to/lastmile_qr_scan"}, "bike_id": "f860f20697d3d46693316bb3d06644a1", "is_reserved": 0}, {"lat": 38.912766833333336, "fusion_lon": 0.0, "lon": -77.0320705, "is_disabled": 0, "type": "electric_scooter", "name": "0533e8a9803127ae206b488f9bacdc9b", "fusion_lat": 0.0, "rental_uris": {"android": "https://dc.lft.to/lastmile_qr_scan", "ios": "https://dc.lft.to/lastmile_qr_scan"}, "bike_id": "0533e8a9803127ae206b488f9bacdc9b", "is_reserved": 0}, {"lat": 38.86415383333333, "fusion_lon": 0.0, "lon": -76.99130233333334, "is_disabled": 0, "type": "electric_scooter", "name": "f76be0b5085b34020e21fb841f98cb95", "fusion_lat": 0.0, "rental_uris": {"android": "https://dc.lft.to/lastmile_qr_scan", "ios": "https://dc.lft.to/lastmile_qr_scan"}, "bike_id": "f76be0b5085b34020e21fb841f98cb95", "is_reserved": 0}, {"lat": 38.89215866666667, "fusion_lon": 0.0, "lon": -77.03147733333333, "is_disabled": 0, "type": "electric_scooter", "name": "61ea214df931c4e84c79194e815cdf12", "fusion_lat": 0.0, "rental_uris": {"android": "https://dc.lft.to/lastmile_qr_scan", "ios": "https://dc.lft.to/lastmile_qr_scan"}, "bike_id": "61ea214df931c4e84c79194e815cdf12", "is_reserved": 0}, {"lat": 38.92843633333333, "fusion_lon": 0.0, "lon": -77.0328305, "is_disabled": 0, "type": "electric_scooter", "name": "46b68ed78a8824b93e7fbefbeed04e6f", "fusion_lat": 0.0, "rental_uris": {"android": "https://dc.lft.to/lastmile_qr_scan", "ios": "https://dc.lft.to/lastmile_qr_scan"}, "bike_id": "46b68ed78a8824b93e7fbefbeed04e6f", "is_reserved": 0}, {"lat": 38.91681416666667, "fusion_lon": 0.0, "lon": -77.029577, "is_disabled": 0, "type": "electric_scooter", "name": "287025c0e24e21c0e0c22e8aa7035de4", "fusion_lat": 0.0, "rental_uris": {"android": "https://dc.lft.to/lastmile_qr_scan", "ios": "https://dc.lft.to/lastmile_qr_scan"}, "bike_id": "287025c0e24e21c0e0c22e8aa7035de4", "is_reserved": 0}, {"lat": 38.90976583333333, "fusion_lon": 0.0, "lon": -77.02076766666667, "is_disabled": 0, "type": "electric_scooter", "name": "c403f5941be0e8c29ccb6e2ef391f99f", "fusion_lat": 0.0, "rental_uris": {"android": "https://dc.lft.to/lastmile_qr_scan", "ios": "https://dc.lft.to/lastmile_qr_scan"}, "bike_id": "c403f5941be0e8c29ccb6e2ef391f99f", "is_reserved": 0}, {"lat": 38.9164585, "fusion_lon": 0.0, "lon": -77.04380816666666, "is_disabled": 0, "type": "electric_scooter", "name": "6ea53517297cefe0600b69b6638f2db1", "fusion_lat": 0.0, "rental_uris": {"android": "https://dc.lft.to/lastmile_qr_scan", "ios": "https://dc.lft.to/lastmile_qr_scan"}, "bike_id": "6ea53517297cefe0600b69b6638f2db1", "is_reserved": 0}, {"lat": 38.8921715, "fusion_lon": 0.0, "lon": -77.04306933333334, "is_disabled": 0, "type": "electric_scooter", "name": "81a6b41565c057916111b5ca446ede5d", "fusion_lat": 0.0, "rental_uris": {"android": "https://dc.lft.to/lastmile_qr_scan", "ios": "https://dc.lft.to/lastmile_qr_scan"}, "bike_id": "81a6b41565c057916111b5ca446ede5d", "is_reserved": 0}, {"lat": 38.92393366666667, "fusion_lon": 0.0, "lon": -77.02549966666666, "is_disabled": 0, "type": "electric_scooter", "name": "7a94f06795445746a2a9bf918a251004", "fusion_lat": 0.0, "rental_uris": {"android": "https://dc.lft.to/lastmile_qr_scan", "ios": "https://dc.lft.to/lastmile_qr_scan"}, "bike_id": "7a94f06795445746a2a9bf918a251004", "is_reserved": 0}, {"lat": 38.920660833333336, "fusion_lon": 0.0, "lon": -77.02832766666667, "is_disabled": 0, "type": "electric_scooter", "name": "c259ed5d802974759944e9b0ad7fd11d", "fusion_lat": 0.0, "rental_uris": {"android": "https://dc.lft.to/lastmile_qr_scan", "ios": "https://dc.lft.to/lastmile_qr_scan"}, "bike_id": "c259ed5d802974759944e9b0ad7fd11d", "is_reserved": 0}, {"lat": 38.876447166666665, "fusion_lon": 0.0, "lon": -76.9650835, "is_disabled": 0, "type": "electric_scooter", "name": "731c13cf422d3bc915dce07ba99a6082", "fusion_lat": 0.0, "rental_uris": {"android": "https://dc.lft.to/lastmile_qr_scan", "ios": "https://dc.lft.to/lastmile_qr_scan"}, "bike_id": "731c13cf422d3bc915dce07ba99a6082", "is_reserved": 0}, {"lat": 38.8874305, "fusion_lon": 0.0, "lon": -77.01726116666667, "is_disabled": 0, "type": "electric_scooter", "name": "88d7485bae2e6359ca8a4e7a56b85288", "fusion_lat": 0.0, "rental_uris": {"android": "https://dc.lft.to/lastmile_qr_scan", "ios": "https://dc.lft.to/lastmile_qr_scan"}, "bike_id": "88d7485bae2e6359ca8a4e7a56b85288", "is_reserved": 0}, {"lat": 39.042326833333334, "fusion_lon": 0.0, "lon": -77.03078233333333, "is_disabled": 0, "type": "electric_bike", "name": "e0ff5e11b9bf40018572822f41393f39", "fusion_lat": 0.0, "rental_uris": {"android": "https://dc.lft.to/lastmile_qr_scan", "ios": "https://dc.lft.to/lastmile_qr_scan"}, "bike_id": "e0ff5e11b9bf40018572822f41393f39", "is_reserved": 0}, {"lat": 38.9420795, "fusion_lon": 0.0, "lon": -77.0250925, "is_disabled": 0, "type": "electric_scooter", "name": "f1dfb76cd7b645f3b61213c1a5ba1d25", "fusion_lat": 0.0, "rental_uris": {"android": "https://dc.lft.to/lastmile_qr_scan", "ios": "https://dc.lft.to/lastmile_qr_scan"}, "bike_id": "f1dfb76cd7b645f3b61213c1a5ba1d25", "is_reserved": 0}, {"lat": 38.91553966666667, "fusion_lon": 0.0, "lon": -77.04184266666667, "is_disabled": 0, "type": "electric_scooter", "name": "ff5f44183d09ab770b73354471b2835b", "fusion_lat": 0.0, "rental_uris": {"android": "https://dc.lft.to/lastmile_qr_scan", "ios": "https://dc.lft.to/lastmile_qr_scan"}, "bike_id": "ff5f44183d09ab770b73354471b2835b", "is_reserved": 0}, {"lat": 38.91442883333333, "fusion_lon": 0.0, "lon": -77.0204795, "is_disabled": 0, "type": "electric_scooter", "name": "0a6e4dd7e669fbbecaa3d4c3ad431abb", "fusion_lat": 0.0, "rental_uris": {"android": "https://dc.lft.to/lastmile_qr_scan", "ios": "https://dc.lft.to/lastmile_qr_scan"}, "bike_id": "0a6e4dd7e669fbbecaa3d4c3ad431abb", "is_reserved": 0}, {"lat": 38.879050666666664, "fusion_lon": 0.0, "lon": -77.01907833333334, "is_disabled": 0, "type": "electric_scooter", "name": "b5f76cbb0347dff54f9d857620cf20ed", "fusion_lat": 0.0, "rental_uris": {"android": "https://dc.lft.to/lastmile_qr_scan", "ios": "https://dc.lft.to/lastmile_qr_scan"}, "bike_id": "b5f76cbb0347dff54f9d857620cf20ed", "is_reserved": 0}, {"lat": 38.914154333333336, "fusion_lon": 0.0, "lon": -77.0221665, "is_disabled": 0, "type": "electric_scooter", "name": "3afcbf3877b30e24f1954e377b2b9327", "fusion_lat": 0.0, "rental_uris": {"android": "https://dc.lft.to/lastmile_qr_scan", "ios": "https://dc.lft.to/lastmile_qr_scan"}, "bike_id": "3afcbf3877b30e24f1954e377b2b9327", "is_reserved": 0}, {"lat": 38.95827083333333, "fusion_lon": 0.0, "lon": -77.01517216666667, "is_disabled": 0, "type": "electric_scooter", "name": "5a87915dd4375188dc8fcb4a754b9942", "fusion_lat": 0.0, "rental_uris": {"android": "https://dc.lft.to/lastmile_qr_scan", "ios": "https://dc.lft.to/lastmile_qr_scan"}, "bike_id": "5a87915dd4375188dc8fcb4a754b9942", "is_reserved": 0}, {"lat": 38.89747633333333, "fusion_lon": 0.0, "lon": -77.01361133333333, "is_disabled": 0, "type": "electric_scooter", "name": "bd653324f84f53a4b6cba25858d4cfde", "fusion_lat": 0.0, "rental_uris": {"android": "https://dc.lft.to/lastmile_qr_scan", "ios": "https://dc.lft.to/lastmile_qr_scan"}, "bike_id": "bd653324f84f53a4b6cba25858d4cfde", "is_reserved": 0}, {"lat": 38.95504733333333, "fusion_lon": 0.0, "lon": -76.9935785, "is_disabled": 0, "type": "electric_bike", "name": "7abb2925d9a4de8ea8c77c2d8c33714e", "fusion_lat": 0.0, "rental_uris": {"android": "https://dc.lft.to/lastmile_qr_scan", "ios": "https://dc.lft.to/lastmile_qr_scan"}, "bike_id": "7abb2925d9a4de8ea8c77c2d8c33714e", "is_reserved": 0}, {"lat": 38.891858666666664, "fusion_lon": 0.0, "lon": -77.03639833333334, "is_disabled": 0, "type": "electric_scooter", "name": "a16fdaf6f79abb6c85e6a879c9f9d152", "fusion_lat": 0.0, "rental_uris": {"android": "https://dc.lft.to/lastmile_qr_scan", "ios": "https://dc.lft.to/lastmile_qr_scan"}, "bike_id": "a16fdaf6f79abb6c85e6a879c9f9d152", "is_reserved": 0}, {"lat": 38.9048545, "fusion_lon": 0.0, "lon": -77.0466045, "is_disabled": 0, "type": "electric_scooter", "name": "593948cddf4c393a50f274de702a8ae4", "fusion_lat": 0.0, "rental_uris": {"android": "https://dc.lft.to/lastmile_qr_scan", "ios": "https://dc.lft.to/lastmile_qr_scan"}, "bike_id": "593948cddf4c393a50f274de702a8ae4", "is_reserved": 0}, {"lat": 38.91699583333333, "fusion_lon": 0.0, "lon": -77.023878, "is_disabled": 0, "type": "electric_scooter", "name": "4d391e9dbb4e46db97f10575d1463609", "fusion_lat": 0.0, "rental_uris": {"android": "https://dc.lft.to/lastmile_qr_scan", "ios": "https://dc.lft.to/lastmile_qr_scan"}, "bike_id": "4d391e9dbb4e46db97f10575d1463609", "is_reserved": 0}, {"lat": 38.93625183333333, "fusion_lon": 0.0, "lon": -77.08175916666667, "is_disabled": 0, "type": "electric_scooter", "name": "d4f9736db9227fe381cf16acc31e7333", "fusion_lat": 0.0, "rental_uris": {"android": "https://dc.lft.to/lastmile_qr_scan", "ios": "https://dc.lft.to/lastmile_qr_scan"}, "bike_id": "d4f9736db9227fe381cf16acc31e7333", "is_reserved": 0}, {"lat": 38.924439, "fusion_lon": 0.0, "lon": -77.02133483333333, "is_disabled": 0, "type": "electric_scooter", "name": "14ad75eb9f13034fe58d6b9c9299bbe3", "fusion_lat": 0.0, "rental_uris": {"android": "https://dc.lft.to/lastmile_qr_scan", "ios": "https://dc.lft.to/lastmile_qr_scan"}, "bike_id": "14ad75eb9f13034fe58d6b9c9299bbe3", "is_reserved": 0}, {"lat": 38.8971165, "fusion_lon": 0.0, "lon": -77.03071533333333, "is_disabled": 0, "type": "electric_scooter", "name": "7b1b8623804dbfddd910c1e6cdd542b9", "fusion_lat": 0.0, "rental_uris": {"android": "https://dc.lft.to/lastmile_qr_scan", "ios": "https://dc.lft.to/lastmile_qr_scan"}, "bike_id": "7b1b8623804dbfddd910c1e6cdd542b9", "is_reserved": 0}, {"lat": 38.922222, "fusion_lon": 0.0, "lon": -77.04336883333333, "is_disabled": 0, "type": "electric_scooter", "name": "4a8522dbf7d676f5804ebce7c417353f", "fusion_lat": 0.0, "rental_uris": {"android": "https://dc.lft.to/lastmile_qr_scan", "ios": "https://dc.lft.to/lastmile_qr_scan"}, "bike_id": "4a8522dbf7d676f5804ebce7c417353f", "is_reserved": 0}, {"lat": 38.99640316666667, "fusion_lon": 0.0, "lon": -77.03993833333334, "is_disabled": 0, "type": "electric_bike", "name": "6e7ff9df219ebf61095b89f26d58b801", "fusion_lat": 0.0, "rental_uris": {"android": "https://dc.lft.to/lastmile_qr_scan", "ios": "https://dc.lft.to/lastmile_qr_scan"}, "bike_id": "6e7ff9df219ebf61095b89f26d58b801", "is_reserved": 0}, {"lat": 38.90085466666667, "fusion_lon": 0.0, "lon": -76.93862983333334, "is_disabled": 0, "type": "electric_scooter", "name": "b0dc716003757209867be18fc4ce3a66", "fusion_lat": 0.0, "rental_uris": {"android": "https://dc.lft.to/lastmile_qr_scan", "ios": "https://dc.lft.to/lastmile_qr_scan"}, "bike_id": "b0dc716003757209867be18fc4ce3a66", "is_reserved": 0}, {"lat": 38.90028783333333, "fusion_lon": 0.0, "lon": -76.98904833333333, "is_disabled": 0, "type": "electric_scooter", "name": "17e9626a6263c7c3d7016a3bf6f194fd", "fusion_lat": 0.0, "rental_uris": {"android": "https://dc.lft.to/lastmile_qr_scan", "ios": "https://dc.lft.to/lastmile_qr_scan"}, "bike_id": "17e9626a6263c7c3d7016a3bf6f194fd", "is_reserved": 0}, {"lat": 38.91901083333333, "fusion_lon": 0.0, "lon": -76.9874545, "is_disabled": 0, "type": "electric_scooter", "name": "8d87b08007cc1f9770454979e0aafa07", "fusion_lat": 0.0, "rental_uris": {"android": "https://dc.lft.to/lastmile_qr_scan", "ios": "https://dc.lft.to/lastmile_qr_scan"}, "bike_id": "8d87b08007cc1f9770454979e0aafa07", "is_reserved": 0}, {"lat": 38.906334666666666, "fusion_lon": 0.0, "lon": -77.00589783333334, "is_disabled": 0, "type": "electric_scooter", "name": "5f90549db5d1d9bc6e71ef355b2d78e2", "fusion_lat": 0.0, "rental_uris": {"android": "https://dc.lft.to/lastmile_qr_scan", "ios": "https://dc.lft.to/lastmile_qr_scan"}, "bike_id": "5f90549db5d1d9bc6e71ef355b2d78e2", "is_reserved": 0}, {"lat": 38.92168566666667, "fusion_lon": 0.0, "lon": -77.03381516666667, "is_disabled": 0, "type": "electric_scooter", "name": "b12175d27ec34bdf1dd2247b1956ca1e", "fusion_lat": 0.0, "rental_uris": {"android": "https://dc.lft.to/lastmile_qr_scan", "ios": "https://dc.lft.to/lastmile_qr_scan"}, "bike_id": "b12175d27ec34bdf1dd2247b1956ca1e", "is_reserved": 0}, {"lat": 38.854410333333334, "fusion_lon": 0.0, "lon": -77.08329433333333, "is_disabled": 0, "type": "electric_bike", "name": "8e3c93681bb695d0373d35fa536cc9d5", "fusion_lat": 0.0, "rental_uris": {"android": "https://dc.lft.to/lastmile_qr_scan", "ios": "https://dc.lft.to/lastmile_qr_scan"}, "bike_id": "8e3c93681bb695d0373d35fa536cc9d5", "is_reserved": 0}, {"lat": 38.875341666666664, "fusion_lon": 0.0, "lon": -77.00590883333334, "is_disabled": 0, "type": "electric_scooter", "name": "32118f5e17ca25a96b2f49be428b8ef1", "fusion_lat": 0.0, "rental_uris": {"android": "https://dc.lft.to/lastmile_qr_scan", "ios": "https://dc.lft.to/lastmile_qr_scan"}, "bike_id": "32118f5e17ca25a96b2f49be428b8ef1", "is_reserved": 0}, {"lat": 38.92642383333333, "fusion_lon": 0.0, "lon": -77.0347295, "is_disabled": 0, "type": "electric_scooter", "name": "a5a0c094c0b6d5b891fcb475a3b1a530", "fusion_lat": 0.0, "rental_uris": {"android": "https://dc.lft.to/lastmile_qr_scan", "ios": "https://dc.lft.to/lastmile_qr_scan"}, "bike_id": "a5a0c094c0b6d5b891fcb475a3b1a530", "is_reserved": 0}, {"lat": 38.887372666666664, "fusion_lon": 0.0, "lon": -77.023835, "is_disabled": 0, "type": "electric_scooter", "name": "ff514ad71fcb0b5638d91816a8bbd28d", "fusion_lat": 0.0, "rental_uris": {"android": "https://dc.lft.to/lastmile_qr_scan", "ios": "https://dc.lft.to/lastmile_qr_scan"}, "bike_id": "ff514ad71fcb0b5638d91816a8bbd28d", "is_reserved": 0}, {"lat": 38.857647166666666, "fusion_lon": 0.0, "lon": -76.98759966666667, "is_disabled": 0, "type": "electric_bike", "name": "ab9f9acbdd30ef99905d0604b8e5c409", "fusion_lat": 0.0, "rental_uris": {"android": "https://dc.lft.to/lastmile_qr_scan", "ios": "https://dc.lft.to/lastmile_qr_scan"},