{"data": {"bikes": [{"fusion_lat": 0.0, "name": "b315d5a5a629457c9c8727192eacae25", "is_disabled": 0, "rental_uris": {"android": "https://dc.lft.to/lastmile_qr_scan", "ios": "https://dc.lft.to/lastmile_qr_scan"}, "fusion_lon": 0.0, "lat": 38.909851, "bike_id": "b315d5a5a629457c9c8727192eacae25", "type": "electric_scooter", "is_reserved": 0, "lon": -77.0426485}, {"fusion_lat": 0.0, "name": "a839d34e3c938162cf0630a41dd18e20", "is_disabled": 0, "rental_uris": {"android": "https://dc.lft.to/lastmile_qr_scan", "ios": "https://dc.lft.to/lastmile_qr_scan"}, "fusion_lon": 0.0, "lat": 38.90570533333333, "bike_id": "a839d34e3c938162cf0630a41dd18e20", "type": "electric_scooter", "is_reserved": 0, "lon": -77.04331933333333}, {"fusion_lat": 0.0, "name": "d515aa6dc0ef3805b5eb4df9986a73bc", "is_disabled": 0, "rental_uris": {"android": "https://dc.lft.to/lastmile_qr_scan", "ios": "https://dc.lft.to/lastmile_qr_scan"}, "fusion_lon": 0.0, "lat": 38.87710466666667, "bike_id": "d515aa6dc0ef3805b5eb4df9986a73bc", "type": "electric_scooter", "is_reserved": 0, "lon": -77.00401833333333}, {"fusion_lat": 0.0, "name": "c1c8cd64c40929aa4e79e88e46a30c8e", "is_disabled": 0, "rental_uris": {"android": "https://dc.lft.to/lastmile_qr_scan", "ios": "https://dc.lft.to/lastmile_qr_scan"}, "fusion_lon": 0.0, "lat": 38.91158683333333, "bike_id": "c1c8cd64c40929aa4e79e88e46a30c8e", "type": "electric_scooter", "is_reserved": 0, "lon": -77.00458233333333}, {"fusion_lat": 0.0, "name": "08802231f41ff05048e3fbc401a0f8cd", "is_disabled": 0, "rental_uris": {"android": "https://dc.lft.to/lastmile_qr_scan", "ios": "https://dc.lft.to/lastmile_qr_scan"}, "fusion_lon": 0.0, "lat": 38.922548166666665, "bike_id": "08802231f41ff05048e3fbc401a0f8cd", "type": "electric_scooter", "is_reserved": 0, "lon": -77.00915416666666}, {"fusion_lat": 0.0, "name": "df1991f30ecad2e843bb2e9606026453", "is_disabled": 0, "rental_uris": {"android": "https://dc.lft.to/lastmile_qr_scan", "ios": "https://dc.lft.to/lastmile_qr_scan"}, "fusion_lon": 0.0, "lat": 38.91447, "bike_id": "df1991f30ecad2e843bb2e9606026453", "type": "electric_scooter", "is_reserved": 0, "lon": -76.98822366666667}, {"fusion_lat": 0.0, "name": "a05703c2c7c5950ce7efd563e8f73254", "is_disabled": 0, "rental_uris": {"android": "https://dc.lft.to/lastmile_qr_scan", "ios": "https://dc.lft.to/lastmile_qr_scan"}, "fusion_lon": 0.0, "lat": 38.831581666666665, "bike_id": "a05703c2c7c5950ce7efd563e8f73254", "type": "electric_bike", "is_reserved": 0, "lon": -76.995463}, {"fusion_lat": 0.0, "name": "81a5b64e8bdf918b21dd58b0cddcf7b6", "is_disabled": 0, "rental_uris": {"android": "https://dc.lft.to/lastmile_qr_scan", "ios": "https://dc.lft.to/lastmile_qr_scan"}, "fusion_lon": 0.0, "lat": 38.93861833333333, "bike_id": "81a5b64e8bdf918b21dd58b0cddcf7b6", "type": "electric_scooter", "is_reserved": 0, "lon": -77.02553216666666}, {"fusion_lat": 0.0, "name": "e404757449470b1fd043e373a4d78daa", "is_disabled": 0, "rental_uris": {"android": "https://dc.lft.to/lastmile_qr_scan", "ios": "https://dc.lft.to/lastmile_qr_scan"}, "fusion_lon": 0.0, "lat": 38.899885166666664, "bike_id": "e404757449470b1fd043e373a4d78daa", "type": "electric_scooter", "is_reserved": 0, "lon": -77.01126616666667}, {"fusion_lat": 0.0, "name": "de66553ce635f1c9b98e8640087efee1", "is_disabled": 0, "rental_uris": {"android": "https://dc.lft.to/lastmile_qr_scan", "ios": "https://dc.lft.to/lastmile_qr_scan"}, "fusion_lon": 0.0, "lat": 38.920815833333336, "bike_id": "de66553ce635f1c9b98e8640087efee1", "type": "electric_scooter", "is_reserved": 0, "lon": -77.0239835}, {"fusion_lat": 0.0, "name": "63db13ad7a68d0b4b486c61f3c288f18", "is_disabled": 0, "rental_uris": {"android": "https://dc.lft.to/lastmile_qr_scan", "ios": "https://dc.lft.to/lastmile_qr_scan"}, "fusion_lon": 0.0, "lat": 38.900331333333334, "bike_id": "63db13ad7a68d0b4b486c61f3c288f18", "type": "electric_bike", "is_reserved": 0, "lon": -76.97224933333334}, {"fusion_lat": 0.0, "name": "c3d51e841c4d5a6d9d87e12fd720881e", "is_disabled": 0, "rental_uris": {"android": "https://dc.lft.to/lastmile_qr_scan", "ios": "https://dc.lft.to/lastmile_qr_scan"}, "fusion_lon": 0.0, "lat": 38.847298333333335, "bike_id": "c3d51e841c4d5a6d9d87e12fd720881e", "type": "electric_scooter", "is_reserved": 0, "lon": -76.98251583333334}, {"fusion_lat": 0.0, "name": "d4f2ca4c9147187740aca8716df3389b", "is_disabled": 0, "rental_uris": {"android": "https://dc.lft.to/lastmile_qr_scan", "ios": "https://dc.lft.to/lastmile_qr_scan"}, "fusion_lon": 0.0, "lat": 38.91564483333333, "bike_id": "d4f2ca4c9147187740aca8716df3389b", "type": "electric_scooter", "is_reserved": 0, "lon": -77.03164133333334}, {"fusion_lat": 0.0, "name": "a25e147e13170bf874500d6e1b96472f", "is_disabled": 0, "rental_uris": {"android": "https://dc.lft.to/lastmile_qr_scan", "ios": "https://dc.lft.to/lastmile_qr_scan"}, "fusion_lon": 0.0, "lat": 38.87876166666667, "bike_id": "a25e147e13170bf874500d6e1b96472f", "type": "electric_scooter", "is_reserved": 0, "lon": -77.02326316666667}, {"fusion_lat": 0.0, "name": "494dc830d6772371ac004e0716ecf2c9", "is_disabled": 0, "rental_uris": {"android": "https://dc.lft.to/lastmile_qr_scan", "ios": "https://dc.lft.to/lastmile_qr_scan"}, "fusion_lon": 0.0, "lat": 38.92080766666667, "bike_id": "494dc830d6772371ac004e0716ecf2c9", "type": "electric_scooter", "is_reserved": 0, "lon": -77.01817233333334}, {"fusion_lat": 0.0, "name": "ca0d8e8ea8cad26a1b947e0e0af63d8b", "is_disabled": 0, "rental_uris": {"android": "https://dc.lft.to/lastmile_qr_scan", "ios": "https://dc.lft.to/lastmile_qr_scan"}, "fusion_lon": 0.0, "lat": 38.9109815, "bike_id": "ca0d8e8ea8cad26a1b947e0e0af63d8b", "type": "electric_scooter", "is_reserved": 0, "lon": -77.04487083333333}, {"fusion_lat": 0.0, "name": "a4c7ac7f3b8125bc5ecf6db4b7ff4be0", "is_disabled": 0, "rental_uris": {"android": "https://dc.lft.to/lastmile_qr_scan", "ios": "https://dc.lft.to/lastmile_qr_scan"}, "fusion_lon": 0.0, "lat": 38.916315833333336, "bike_id": "a4c7ac7f3b8125bc5ecf6db4b7ff4be0", "type": "electric_scooter", "is_reserved": 0, "lon": -77.03213733333334}, {"fusion_lat": 0.0, "name": "f095bb7073ce96d81ac21deea2133af6", "is_disabled": 0, "rental_uris": {"android": "https://dc.lft.to/lastmile_qr_scan", "ios": "https://dc.lft.to/lastmile_qr_scan"}, "fusion_lon": 0.0, "lat": 38.9223615, "bike_id": "f095bb7073ce96d81ac21deea2133af6", "type": "electric_scooter", "is_reserved": 0, "lon": -77.03429283333334}, {"fusion_lat": 0.0, "name": "40c0fff8a32e00ba0bde62391285b1c9", "is_disabled": 0, "rental_uris": {"android": "https://dc.lft.to/lastmile_qr_scan", "ios": "https://dc.lft.to/lastmile_qr_scan"}, "fusion_lon": 0.0, "lat": 38.9155435, "bike_id": "40c0fff8a32e00ba0bde62391285b1c9", "type": "electric_scooter", "is_reserved": 0, "lon": -77.03259566666667}, {"fusion_lat": 0.0, "name": "e0daafd933e15f709505d23c76a2d158", "is_disabled": 0, "rental_uris": {"android": "https://dc.lft.to/lastmile_qr_scan", "ios": "https://dc.lft.to/lastmile_qr_scan"}, "fusion_lon": 0.0, "lat": 38.90975983333333, "bike_id": "e0daafd933e15f709505d23c76a2d158", "type": "electric_scooter", "is_reserved": 0, "lon": -77.032928}, {"fusion_lat": 0.0, "name": "8bb6e4b182c3b4b5c863039755f7305d", "is_disabled": 0, "rental_uris": {"android": "https://dc.lft.to/lastmile_qr_scan", "ios": "https://dc.lft.to/lastmile_qr_scan"}, "fusion_lon": 0.0, "lat": 38.930861166666666, "bike_id": "8bb6e4b182c3b4b5c863039755f7305d", "type": "electric_scooter", "is_reserved": 0, "lon": -77.03735516666667}, {"fusion_lat": 0.0, "name": "b6efab7aef0372b3a987415fafb69d91", "is_disabled": 0, "rental_uris": {"android": "https://dc.lft.to/lastmile_qr_scan", "ios": "https://dc.lft.to/lastmile_qr_scan"}, "fusion_lon": 0.0, "lat": 38.907812, "bike_id": "b6efab7aef0372b3a987415fafb69d91", "type": "electric_scooter", "is_reserved": 0, "lon": -77.0353285}, {"fusion_lat": 0.0, "name": "9d62526e4b0cb79a9e1e5d887bec6606", "is_disabled": 0, "rental_uris": {"android": "https://dc.lft.to/lastmile_qr_scan", "ios": "https://dc.lft.to/lastmile_qr_scan"}, "fusion_lon": 0.0, "lat": 38.800191, "bike_id": "9d62526e4b0cb79a9e1e5d887bec6606", "type": "electric_bike", "is_reserved": 0, "lon": -77.0547895}, {"fusion_lat": 0.0, "name": "3d437f2dfaddc2e3632d39ebaab58836", "is_disabled": 0, "rental_uris": {"android": "https://dc.lft.to/lastmile_qr_scan", "ios": "https://dc.lft.to/lastmile_qr_scan"}, "fusion_lon": 0.0, "lat": 38.898729333333335, "bike_id": "3d437f2dfaddc2e3632d39ebaab58836", "type": "electric_scooter", "is_reserved": 0, "lon": -77.04882416666666}, {"fusion_lat": 0.0, "name": "3baa9a3a7b34e31b1dfd2e50545279f2", "is_disabled": 0, "rental_uris": {"android": "https://dc.lft.to/lastmile_qr_scan", "ios": "https://dc.lft.to/lastmile_qr_scan"}, "fusion_lon": 0.0, "lat": 38.90465583333334, "bike_id": "3baa9a3a7b34e31b1dfd2e50545279f2", "type": "electric_scooter", "is_reserved": 0, "lon": -77.04371583333334}, {"fusion_lat": 0.0, "name": "3ce84cad161180c955a6bc67a5f7bc44", "is_disabled": 0, "rental_uris": {"android": "https://dc.lft.to/lastmile_qr_scan", "ios": "https://dc.lft.to/lastmile_qr_scan"}, "fusion_lon": 0.0, "lat": 38.86446466666666, "bike_id": "3ce84cad161180c955a6bc67a5f7bc44", "type": "electric_scooter", "is_reserved": 0, "lon": -76.97997916666667}, {"fusion_lat": 0.0, "name": "eefb075bbddea162a2bf444c10b39992", "is_disabled": 0, "rental_uris": {"android": "https://dc.lft.to/lastmile_qr_scan", "ios": "https://dc.lft.to/lastmile_qr_scan"}, "fusion_lon": 0.0, "lat": 38.89227066666667, "bike_id": "eefb075bbddea162a2bf444c10b39992", "type": "electric_scooter", "is_reserved": 0, "lon": -77.02667933333333}, {"fusion_lat": 0.0, "name": "e2a71791325a9fd7242aeac7572304e9", "is_disabled": 0, "rental_uris": {"android": "https://dc.lft.to/lastmile_qr_scan", "ios": "https://dc.lft.to/lastmile_qr_scan"}, "fusion_lon": 0.0, "lat": 38.902586666666664, "bike_id": "e2a71791325a9fd7242aeac7572304e9", "type": "electric_scooter", "is_reserved": 0, "lon": -77.03857566666667}, {"fusion_lat": 0.0, "name": "275b1724147228dd29b95cbcfba70cc2", "is_disabled": 0, "rental_uris": {"android": "https://dc.lft.to/lastmile_qr_scan", "ios": "https://dc.lft.to/lastmile_qr_scan"}, "fusion_lon": 0.0, "lat": 38.835508833333336, "bike_id": "275b1724147228dd29b95cbcfba70cc2", "type": "electric_bike", "is_reserved": 0, "lon": -76.987294}, {"fusion_lat": 0.0, "name": "7839962280fb90b0539a6b3590f735fc", "is_disabled": 0, "rental_uris": {"android": "https://dc.lft.to/lastmile_qr_scan", "ios": "https://dc.lft.to/lastmile_qr_scan"}, "fusion_lon": 0.0, "lat": 38.84391816666667, "bike_id": "7839962280fb90b0539a6b3590f735fc", "type": "electric_scooter", "is_reserved": 0, "lon": -76.98953333333333}, {"fusion_lat": 0.0, "name": "2df901264291bc9f3fc74ef802912249", "is_disabled": 0, "rental_uris": {"android": "https://dc.lft.to/lastmile_qr_scan", "ios": "https://dc.lft.to/lastmile_qr_scan"}, "fusion_lon": 0.0, "lat": 38.93252733333333, "bike_id": "2df901264291bc9f3fc74ef802912249", "type": "electric_scooter", "is_reserved": 0, "lon": -77.0327685}, {"fusion_lat": 0.0, "name": "1ecc5f079131a605d316c071717cd2bc", "is_disabled": 0, "rental_uris": {"android": "https://dc.lft.to/lastmile_qr_scan", "ios": "https://dc.lft.to/lastmile_qr_scan"}, "fusion_lon": 0.0, "lat": 38.9343435, "bike_id": "1ecc5f079131a605d316c071717cd2bc", "type": "electric_scooter", "is_reserved": 0, "lon": -77.03994216666666}, {"fusion_lat": 0.0, "name": "ae009fcb2ccc16d1986a8ff1858f7732", "is_disabled": 0, "rental_uris": {"android": "https://dc.lft.to/lastmile_qr_scan", "ios": "https://dc.lft.to/lastmile_qr_scan"}, "fusion_lon": 0.0, "lat": 38.900620333333336, "bike_id": "ae009fcb2ccc16d1986a8ff1858f7732", "type": "electric_scooter", "is_reserved": 0, "lon": -76.933855}, {"fusion_lat": 0.0, "name": "e8f39761472d094fdf7d72569a22a3e4", "is_disabled": 0, "rental_uris": {"android": "https://dc.lft.to/lastmile_qr_scan", "ios": "https://dc.lft.to/lastmile_qr_scan"}, "fusion_lon": 0.0, "lat": 38.89949383333333, "bike_id": "e8f39761472d094fdf7d72569a22a3e4", "type": "electric_scooter", "is_reserved": 0, "lon": -77.0417235}, {"fusion_lat": 0.0, "name": "32204e4780e83e5e77a10d6e48fbeec2", "is_disabled": 0, "rental_uris": {"android": "https://dc.lft.to/lastmile_qr_scan", "ios": "https://dc.lft.to/lastmile_qr_scan"}, "fusion_lon": 0.0, "lat": 38.928459333333336, "bike_id": "32204e4780e83e5e77a10d6e48fbeec2", "type": "electric_scooter", "is_reserved": 0, "lon": -77.0365145}, {"fusion_lat": 0.0, "name": "92adc0e71707adf7deec329bf155821b", "is_disabled": 0, "rental_uris": {"android": "https://dc.lft.to/lastmile_qr_scan", "ios": "https://dc.lft.to/lastmile_qr_scan"}, "fusion_lon": 0.0, "lat": 38.99056483333333, "bike_id": "92adc0e71707adf7deec329bf155821b", "type": "electric_bike", "is_reserved": 0, "lon": -77.03872266666667}, {"fusion_lat": 0.0, "name": "a1f063187c9174fa012287a47b156773", "is_disabled": 0, "rental_uris": {"android": "https://dc.lft.to/lastmile_qr_scan", "ios": "https://dc.lft.to/lastmile_qr_scan"}, "fusion_lon": 0.0, "lat": 38.913521, "bike_id": "a1f063187c9174fa012287a47b156773", "type": "electric_scooter", "is_reserved": 0, "lon": -77.03183866666667}, {"fusion_lat": 0.0, "name": "331273e5f87abae157dfab6ef3360816", "is_disabled": 0, "rental_uris": {"android": "https://dc.lft.to/lastmile_qr_scan", "ios": "https://dc.lft.to/lastmile_qr_scan"}, "fusion_lon": 0.0, "lat": 38.8768665, "bike_id": "331273e5f87abae157dfab6ef3360816", "type": "electric_scooter", "is_reserved": 0, "lon": -77.0175835}, {"fusion_lat": 0.0, "name": "a7ae1b879163a643e6060e1408da9663", "is_disabled": 0, "rental_uris": {"android": "https://dc.lft.to/lastmile_qr_scan", "ios": "https://dc.lft.to/lastmile_qr_scan"}, "fusion_lon": 0.0, "lat": 38.9386825, "bike_id": "a7ae1b879163a643e6060e1408da9663", "type": "electric_scooter", "is_reserved": 0, "lon": -77.03219033333333}, {"fusion_lat": 0.0, "name": "3e178ba915c15542d727cea2798114c0", "is_disabled": 0, "rental_uris": {"android": "https://dc.lft.to/lastmile_qr_scan", "ios": "https://dc.lft.to/lastmile_qr_scan"}, "fusion_lon": 0.0, "lat": 38.88636366666667, "bike_id": "3e178ba915c15542d727cea2798114c0", "type": "electric_scooter", "is_reserved": 0, "lon": -77.01544366666667}, {"fusion_lat": 0.0, "name": "337330744f4919fe6dfc1ec5ec21662f", "is_disabled": 0, "rental_uris": {"android": "https://dc.lft.to/lastmile_qr_scan", "ios": "https://dc.lft.to/lastmile_qr_scan"}, "fusion_lon": 0.0, "lat": 38.89223483333333, "bike_id": "337330744f4919fe6dfc1ec5ec21662f", "type": "electric_scooter", "is_reserved": 0, "lon": -77.031334}, {"fusion_lat": 0.0, "name": "2dc57b4df2d39a09c64210d603b4097f", "is_disabled": 0, "rental_uris": {"android": "https://dc.lft.to/lastmile_qr_scan", "ios": "https://dc.lft.to/lastmile_qr_scan"}, "fusion_lon": 0.0, "lat": 38.921850666666664, "bike_id": "2dc57b4df2d39a09c64210d603b4097f", "type": "electric_scooter", "is_reserved": 0, "lon": -77.02987416666667}, {"fusion_lat": 0.0, "name": "878e7935650e54022130d7c1db2c49fd", "is_disabled": 0, "rental_uris": {"android": "https://dc.lft.to/lastmile_qr_scan", "ios": "https://dc.lft.to/lastmile_qr_scan"}, "fusion_lon": 0.0, "lat": 38.992196, "bike_id": "878e7935650e54022130d7c1db2c49fd", "type": "electric_bike", "is_reserved": 0, "lon": -76.94442683333334}, {"fusion_lat": 0.0, "name": "15708d93fe418e5d38df8995a4169123", "is_disabled": 0, "rental_uris": {"android": "https://dc.lft.to/lastmile_qr_scan", "ios": "https://dc.lft.to/lastmile_qr_scan"}, "fusion_lon": 0.0, "lat": 38.88739833333333, "bike_id": "15708d93fe418e5d38df8995a4169123", "type": "electric_scooter", "is_reserved": 0, "lon": -77.01527016666667}, {"fusion_lat": 0.0, "name": "e92ae0b6cf6bc1e89c6223dc67be505c", "is_disabled": 0, "rental_uris": {"android": "https://dc.lft.to/lastmile_qr_scan", "ios": "https://dc.lft.to/lastmile_qr_scan"}, "fusion_lon": 0.0, "lat": 38.92227616666667, "bike_id": "e92ae0b6cf6bc1e89c6223dc67be505c", "type": "electric_scooter", "is_reserved": 0, "lon": -77.046477}, {"fusion_lat": 0.0, "name": "2172e737b0916c18adb5a36ba68eebfb", "is_disabled": 0, "rental_uris": {"android": "https://dc.lft.to/lastmile_qr_scan", "ios": "https://dc.lft.to/lastmile_qr_scan"}, "fusion_lon": 0.0, "lat": 38.964789833333334, "bike_id": "2172e737b0916c18adb5a36ba68eebfb", "type": "electric_scooter", "is_reserved": 0, "lon": -77.01190866666667}, {"fusion_lat": 0.0, "name": "25a25058dc74464f96f62497db1796d3", "is_disabled": 0, "rental_uris": {"android": "https://dc.lft.to/lastmile_qr_scan", "ios": "https://dc.lft.to/lastmile_qr_scan"}, "fusion_lon": 0.0, "lat": 38.855179, "bike_id": "25a25058dc74464f96f62497db1796d3", "type": "electric_bike", "is_reserved": 0, "lon": -77.12052766666666}, {"fusion_lat": 0.0, "name": "1fb1f89f16c7c99ac8587649d4d6d333", "is_disabled": 0, "rental_uris": {"android": "https://dc.lft.to/lastmile_qr_scan", "ios": "https://dc.lft.to/lastmile_qr_scan"}, "fusion_lon": 0.0, "lat": 38.921255, "bike_id": "1fb1f89f16c7c99ac8587649d4d6d333", "type": "electric_scooter", "is_reserved": 0, "lon": -77.0443085}, {"fusion_lat": 0.0, "name": "8806c3e9b93baae63489aeea827314ed", "is_disabled": 0, "rental_uris": {"android": "https://dc.lft.to/lastmile_qr_scan", "ios": "https://dc.lft.to/lastmile_qr_scan"}, "fusion_lon": 0.0, "lat": 38.915543166666666, "bike_id": "8806c3e9b93baae63489aeea827314ed", "type": "electric_scooter", "is_reserved": 0, "lon": -77.03213616666666}, {"fusion_lat": 0.0, "name": "bb5d69c679c29b70e44b87296503981c", "is_disabled": 0, "rental_uris": {"android": "https://dc.lft.to/lastmile_qr_scan", "ios": "https://dc.lft.to/lastmile_qr_scan"}, "fusion_lon": 0.0, "lat": 38.951817166666665, "bike_id": "bb5d69c679c29b70e44b87296503981c", "type": "electric_scooter", "is_reserved": 0, "lon": -77.02728033333334}, {"fusion_lat": 0.0, "name": "79de4cb9d42f89fabf362c0a5bfc9e0c", "is_disabled": 0, "rental_uris": {"android": "https://dc.lft.to/lastmile_qr_scan", "ios": "https://dc.lft.to/lastmile_qr_scan"}, "fusion_lon": 0.0, "lat": 38.85787916666666, "bike_id": "79de4cb9d42f89fabf362c0a5bfc9e0c", "type": "electric_bike", "is_reserved": 0, "lon": -77.12019883333333}, {"fusion_lat": 0.0, "name": "854fd26ad8f471be0ddea42ffefa3d62", "is_disabled": 0, "rental_uris": {"android": "https://dc.lft.to/lastmile_qr_scan", "ios": "https://dc.lft.to/lastmile_qr_scan"}, "fusion_lon": 0.0, "lat": 38.903149, "bike_id": "854fd26ad8f471be0ddea42ffefa3d62", "type": "electric_scooter", "is_reserved": 0, "lon": -77.06531883333334}, {"fusion_lat": 0.0, "name": "98214fcd626d0612b1d57739f1e0f2db", "is_disabled": 0, "rental_uris": {"android": "https://dc.lft.to/lastmile_qr_scan", "ios": "https://dc.lft.to/lastmile_qr_scan"}, "fusion_lon": 0.0, "lat": 38.90560516666667, "bike_id": "98214fcd626d0612b1d57739f1e0f2db", "type": "electric_scooter", "is_reserved": 0, "lon": -77.01312133333333}, {"fusion_lat": 0.0, "name": "dbc30e9f6f008cdff7134ac72e8a7a9c", "is_disabled": 0, "rental_uris": {"android": "https://dc.lft.to/lastmile_qr_scan", "ios": "https://dc.lft.to/lastmile_qr_scan"}, "fusion_lon": 0.0, "lat": 38.896431666666665, "bike_id": "dbc30e9f6f008cdff7134ac72e8a7a9c", "type": "electric_scooter", "is_reserved": 0, "lon": -77.0464985}, {"fusion_lat": 0.0, "name": "89ee4e60f2b203430369e103ede2cba9", "is_disabled": 0, "rental_uris": {"android": "https://dc.lft.to/lastmile_qr_scan", "ios": "https://dc.lft.to/lastmile_qr_scan"}, "fusion_lon": 0.0, "lat": 38.91792683333333, "bike_id": "89ee4e60f2b203430369e103ede2cba9", "type": "electric_scooter", "is_reserved": 0, "lon": -77.03455766666667}, {"fusion_lat": 0.0, "name": "2414ebd4bf4bf962df245fd35aa4ee1e", "is_disabled": 0, "rental_uris": {"android": "https://dc.lft.to/lastmile_qr_scan", "ios": "https://dc.lft.to/lastmile_qr_scan"}, "fusion_lon": 0.0, "lat": 38.93067116666667, "bike_id": "2414ebd4bf4bf962df245fd35aa4ee1e", "type": "electric_scooter", "is_reserved": 0, "lon": -77.02973883333334}, {"fusion_lat": 0.0, "name": "f72f996e08dc3fc7aeec89acfa895eac", "is_disabled": 0, "rental_uris": {"android": "https://dc.lft.to/lastmile_qr_scan", "ios": "https://dc.lft.to/lastmile_qr_scan"}, "fusion_lon": 0.0, "lat": 38.8922495, "bike_id": "f72f996e08dc3fc7aeec89acfa895eac", "type": "electric_scooter", "is_reserved": 0, "lon": -77.04308283333333}, {"fusion_lat": 0.0, "name": "d8635de028ec43de038bc507b49ae5e8", "is_disabled": 0, "rental_uris": {"android": "https://dc.lft.to/lastmile_qr_scan", "ios": "https://dc.lft.to/lastmile_qr_scan"}, "fusion_lon": 0.0, "lat": 38.8922935, "bike_id": "d8635de028ec43de038bc507b49ae5e8", "type": "electric_scooter", "is_reserved": 0, "lon": -77.04329716666666}, {"fusion_lat": 0.0, "name": "0c01ea5067e6218c4c393cb23fbc8661", "is_disabled": 0, "rental_uris": {"android": "https://dc.lft.to/lastmile_qr_scan", "ios": "https://dc.lft.to/lastmile_qr_scan"}, "fusion_lon": 0.0, "lat": 38.91164116666667, "bike_id": "0c01ea5067e6218c4c393cb23fbc8661", "type": "electric_bike", "is_reserved": 0, "lon": -77.00297166666667}, {"fusion_lat": 0.0, "name": "3596850d39c657e1d31e479abdd171e1", "is_disabled": 0, "rental_uris": {"android": "https://dc.lft.to/lastmile_qr_scan", "ios": "https://dc.lft.to/lastmile_qr_scan"}, "fusion_lon": 0.0, "lat": 38.93187316666667, "bike_id": "3596850d39c657e1d31e479abdd171e1", "type": "electric_scooter", "is_reserved": 0, "lon": -77.04292666666667}, {"fusion_lat": 0.0, "name": "80f1388c54d36dcf737c0c8cb133e7b1", "is_disabled": 0, "rental_uris": {"android": "https://dc.lft.to/lastmile_qr_scan", "ios": "https://dc.lft.to/lastmile_qr_scan"}, "fusion_lon": 0.0, "lat": 38.907482, "bike_id": "80f1388c54d36dcf737c0c8cb133e7b1", "type": "electric_scooter", "is_reserved": 0, "lon": -76.99844966666667}, {"fusion_lat": 0.0, "name": "37e20fafaba9b72e191a3ba90f1520c3", "is_disabled": 0, "rental_uris": {"android": "https://dc.lft.to/lastmile_qr_scan", "ios": "https://dc.lft.to/lastmile_qr_scan"}, "fusion_lon": 0.0, "lat": 38.9073205, "bike_id": "37e20fafaba9b72e191a3ba90f1520c3", "type": "electric_scooter", "is_reserved": 0, "lon": -77.0069485}, {"fusion_lat": 0.0, "name": "8712da9caffa15d6a078a762d31e1438", "is_disabled": 0, "rental_uris": {"android": "https://dc.lft.to/lastmile_qr_scan", "ios": "https://dc.lft.to/lastmile_qr_scan"}, "fusion_lon": 0.0, "lat": 38.913342166666666, "bike_id": "8712da9caffa15d6a078a762d31e1438", "type": "electric_scooter", "is_reserved": 0, "lon": -77.04868333333333}, {"fusion_lat": 0.0, "name": "b43e19a20430f3ea7198ac3be0bf4897", "is_disabled": 0, "rental_uris": {"android": "https://dc.lft.to/lastmile_qr_scan", "ios": "https://dc.lft.to/lastmile_qr_scan"}, "fusion_lon": 0.0, "lat": 38.900250166666666, "bike_id": "b43e19a20430f3ea7198ac3be0bf4897", "type": "electric_scooter", "is_reserved": 0, "lon": -76.97399783333333}, {"fusion_lat": 0.0, "name": "da1cd8ca0c5b88a85cd56b22dc132aae", "is_disabled": 0, "rental_uris": {"android": "https://dc.lft.to/lastmile_qr_scan", "ios": "https://dc.lft.to/lastmile_qr_scan"}, "fusion_lon": 0.0, "lat": 38.9035315, "bike_id": "da1cd8ca0c5b88a85cd56b22dc132aae", "type": "electric_scooter", "is_reserved": 0, "lon": -77.05039916666666}, {"fusion_lat": 0.0, "name": "f32345c2959e0604d29c28e11be74211", "is_disabled": 0, "rental_uris": {"android": "https://dc.lft.to/lastmile_qr_scan", "ios": "https://dc.lft.to/lastmile_qr_scan"}, "fusion_lon": 0.0, "lat": 38.923213, "bike_id": "f32345c2959e0604d29c28e11be74211", "type": "electric_scooter", "is_reserved": 0, "lon": -77.02973766666666}, {"fusion_lat": 0.0, "name": "19f20355a66a782217c0c1546af903cf", "is_disabled": 0, "rental_uris": {"android": "https://dc.lft.to/lastmile_qr_scan", "ios": "https://dc.lft.to/lastmile_qr_scan"}, "fusion_lon": 0.0, "lat": 38.91826066666667, "bike_id": "19f20355a66a782217c0c1546af903cf", "type": "electric_scooter", "is_reserved": 0, "lon": -77.023076}, {"fusion_lat": 0.0, "name": "b4b5445266e24c00eb5cde05039958e7", "is_disabled": 0, "rental_uris": {"android": "https://dc.lft.to/lastmile_qr_scan", "ios": "https://dc.lft.to/lastmile_qr_scan"}, "fusion_lon": 0.0, "lat": 38.87379283333333, "bike_id": "b4b5445266e24c00eb5cde05039958e7", "type": "electric_scooter", "is_reserved": 0, "lon": -77.0012675}, {"fusion_lat": 0.0, "name": "b997e2a9db304601f62a95da9118f1ae", "is_disabled": 0, "rental_uris": {"android": "https://dc.lft.to/lastmile_qr_scan", "ios": "https://dc.lft.to/lastmile_qr_scan"}, "fusion_lon": 0.0, "lat": 38.913282, "bike_id": "b997e2a9db304601f62a95da9118f1ae", "type": "electric_scooter", "is_reserved": 0, "lon": -77.04534433333333}, {"fusion_lat": 0.0, "name": "2402ce7b216f05a9adfe02b6f78e90af", "is_disabled": 0, "rental_uris": {"android": "https://dc.lft.to/lastmile_qr_scan", "ios": "https://dc.lft.to/lastmile_qr_scan"}, "fusion_lon": 0.0, "lat": 38.9452315, "bike_id": "2402ce7b216f05a9adfe02b6f78e90af", "type": "electric_scooter", "is_reserved": 0, "lon": -77.02270966666667}, {"fusion_lat": 0.0, "name": "38b593ffafe2c959c5b5935eb2058e26", "is_disabled": 0, "rental_uris": {"android": "https://dc.lft.to/lastmile_qr_scan", "ios": "https://dc.lft.to/lastmile_qr_scan"}, "fusion_lon": 0.0, "lat": 38.9071465, "bike_id": "38b593ffafe2c959c5b5935eb2058e26", "type": "electric_scooter", "is_reserved": 0, "lon": -77.03359616666667}, {"fusion_lat": 0.0, "name": "77d51fd565fc2e2b7a7898b08a20a204", "is_disabled": 0, "rental_uris": {"android": "https://dc.lft.to/lastmile_qr_scan", "ios": "https://dc.lft.to/lastmile_qr_scan"}, "fusion_lon": 0.0, "lat": 38.902704, "bike_id": "77d51fd565fc2e2b7a7898b08a20a204", "type": "electric_scooter", "is_reserved": 0, "lon": -77.01763933333334}, {"fusion_lat": 0.0, "name": "4aed7a8a7d2b46ef4527425d53cdd78a", "is_disabled": 0, "rental_uris": {"android": "https://dc.lft.to/lastmile_qr_scan", "ios": "https://dc.lft.to/lastmile_qr_scan"}, "fusion_lon": 0.0, "lat": 38.88900483333333, "bike_id": "4aed7a8a7d2b46ef4527425d53cdd78a", "type": "electric_scooter", "is_reserved": 0, "lon": -76.97720133333334}, {"fusion_lat": 0.0, "name": "2ca33eac0a47e51fd966d4eb3076ca2f", "is_disabled": 0, "rental_uris": {"android": "https://dc.lft.to/lastmile_qr_scan", "ios": "https://dc.lft.to/lastmile_qr_scan"}, "fusion_lon": 0.0, "lat": 38.90033783333333, "bike_id": "2ca33eac0a47e51fd966d4eb3076ca2f", "type": "electric_scooter", "is_reserved": 0, "lon": -77.01170366666666}, {"fusion_lat": 0.0, "name": "2065eb615c1dbdc16cf17086012c308e", "is_disabled": 0, "rental_uris": {"android": "https://dc.lft.to/lastmile_qr_scan", "ios": "https://dc.lft.to/lastmile_qr_scan"}, "fusion_lon": 0.0, "lat": 38.88490316666667, "bike_id": "2065eb615c1dbdc16cf17086012c308e", "type": "electric_scooter", "is_reserved": 0, "lon": -77.00709083333334}, {"fusion_lat": 0.0, "name": "09485da8f33fd461335d222456acc98e", "is_disabled": 0, "rental_uris": {"android": "https://dc.lft.to/lastmile_qr_scan", "ios": "https://dc.lft.to/lastmile_qr_scan"}, "fusion_lon": 0.0, "lat": 38.867669, "bike_id": "09485da8f33fd461335d222456acc98e", "type": "electric_scooter", "is_reserved": 0, "lon": -76.9827625}, {"fusion_lat": 0.0, "name": "bdb838e80c390915fbe3ac019ad9fd6c", "is_disabled": 0, "rental_uris": {"android": "https://dc.lft.to/lastmile_qr_scan", "ios": "https://dc.lft.to/lastmile_qr_scan"}, "fusion_lon": 0.0, "lat": 38.936978, "bike_id": "bdb838e80c390915fbe3ac019ad9fd6c", "type": "electric_scooter", "is_reserved": 0, "lon": -77.05598633333334}, {"fusion_lat": 0.0, "name": "cf6dddab65ccc1d27dbc5e48369a4a2a", "is_disabled": 0, "rental_uris": {"android": "https://dc.lft.to/lastmile_qr_scan", "ios": "https://dc.lft.to/lastmile_qr_scan"}, "fusion_lon": 0.0, "lat": 38.911209166666666, "bike_id": "cf6dddab65ccc1d27dbc5e48369a4a2a", "type": "electric_scooter", "is_reserved": 0, "lon": -77.03832566666667}, {"fusion_lat": 0.0, "name": "44059acf648880b174ae86e1cd5ad013", "is_disabled": 0, "rental_uris": {"android": "https://dc.lft.to/lastmile_qr_scan", "ios": "https://dc.lft.to/lastmile_qr_scan"}, "fusion_lon": 0.0, "lat": 38.903865833333334, "bike_id": "44059acf648880b174ae86e1cd5ad013", "type": "electric_scooter", "is_reserved": 0, "lon": -77.042281}, {"fusion_lat": 0.0, "name": "0ee889fe6135e6c1333378f84ac385e4", "is_disabled": 0, "rental_uris": {"android": "https://dc.lft.to/lastmile_qr_scan", "ios": "https://dc.lft.to/lastmile_qr_scan"}, "fusion_lon": 0.0, "lat": 38.90410883333333, "bike_id": "0ee889fe6135e6c1333378f84ac385e4", "type": "electric_scooter", "is_reserved": 0, "lon": -76.973282}, {"fusion_lat": 0.0, "name": "0974f6eed7ad67441cb1cce62c015517", "is_disabled": 0, "rental_uris": {"android": "https://dc.lft.to/lastmile_qr_scan", "ios": "https://dc.lft.to/lastmile_qr_scan"}, "fusion_lon": 0.0, "lat": 38.89696, "bike_id": "0974f6eed7ad67441cb1cce62c015517", "type": "electric_scooter", "is_reserved": 0, "lon": -77.00496383333333}, {"fusion_lat": 0.0, "name": "f5d309d78f64270750b3280a29b6e51a", "is_disabled": 0, "rental_uris": {"android": "https://dc.lft.to/lastmile_qr_scan", "ios": "https://dc.lft.to/lastmile_qr_scan"}, "fusion_lon": 0.0, "lat": 38.892375, "bike_id": "f5d309d78f64270750b3280a29b6e51a", "type": "electric_scooter", "is_reserved": 0, "lon": -77.0487515}, {"fusion_lat": 0.0, "name": "e0bd348540ffe0a36b5413077442d47e", "is_disabled": 0, "rental_uris": {"android": "https://dc.lft.to/lastmile_qr_scan", "ios": "https://dc.lft.to/lastmile_qr_scan"}, "fusion_lon": 0.0, "lat": 38.899661333333334, "bike_id": "e0bd348540ffe0a36b5413077442d47e", "type": "electric_scooter", "is_reserved": 0, "lon": -77.04149916666667}, {"fusion_lat": 0.0, "name": "27992e47da9666e0f8672d668c5c11c5", "is_disabled": 0, "rental_uris": {"android": "https://dc.lft.to/lastmile_qr_scan", "ios": "https://dc.lft.to/lastmile_qr_scan"}, "fusion_lon": 0.0, "lat": 38.91408666666667, "bike_id": "27992e47da9666e0f8672d668c5c11c5", "type": "electric_scooter", "is_reserved": 0, "lon": -77.04863866666666}, {"fusion_lat": 0.0, "name": "fa1f4b0723bde9c8e9ec2c5c74af227d", "is_disabled": 0, "rental_uris": {"android": "https://dc.lft.to/lastmile_qr_scan", "ios": "https://dc.lft.to/lastmile_qr_scan"}, "fusion_lon": 0.0, "lat": 38.9145645, "bike_id": "fa1f4b0723bde9c8e9ec2c5c74af227d", "type": "electric_scooter", "is_reserved": 0, "lon": -77.00643633333334}, {"fusion_lat": 0.0, "name": "eeb3c9558f2978fec39612f65f841b46", "is_disabled": 0, "rental_uris": {"android": "https://dc.lft.to/lastmile_qr_scan", "ios": "https://dc.lft.to/lastmile_qr_scan"}, "fusion_lon": 0.0, "lat": 38.909615, "bike_id": "eeb3c9558f2978fec39612f65f841b46", "type": "electric_scooter", "is_reserved": 0, "lon": -77.03770566666667}, {"fusion_lat": 0.0, "name": "a83626057b5fd6eadf0ef535873b6940", "is_disabled": 0, "rental_uris": {"android": "https://dc.lft.to/lastmile_qr_scan", "ios": "https://dc.lft.to/lastmile_qr_scan"}, "fusion_lon": 0.0, "lat": 38.907439333333336, "bike_id": "a83626057b5fd6eadf0ef535873b6940", "type": "electric_scooter", "is_reserved": 0, "lon": -77.00767733333333}, {"fusion_lat": 0.0, "name": "a1eca914f97af2a7673b82a6c4461856", "is_disabled": 0, "rental_uris": {"android": "https://dc.lft.to/lastmile_qr_scan", "ios": "https://dc.lft.to/lastmile_qr_scan"}, "fusion_lon": 0.0, "lat": 38.877849499999996, "bike_id": "a1eca914f97af2a7673b82a6c4461856", "type": "electric_scooter", "is_reserved": 0, "lon": -76.99412716666667}, {"fusion_lat": 0.0, "name": "8ca2ab348e70a5443f8c68ae8637425c", "is_disabled": 0, "rental_uris": {"android": "https://dc.lft.to/lastmile_qr_scan", "ios": "https://dc.lft.to/lastmile_qr_scan"}, "fusion_lon": 0.0, "lat": 38.88523133333333, "bike_id": "8ca2ab348e70a5443f8c68ae8637425c", "type": "electric_scooter", "is_reserved": 0, "lon": -77.0151425}, {"fusion_lat": 0.0, "name": "7c3a0a361649107aded4829933a5e90f", "is_disabled": 0, "rental_uris": {"android": "https://dc.lft.to/lastmile_qr_scan", "ios": "https://dc.lft.to/lastmile_qr_scan"}, "fusion_lon": 0.0, "lat": 38.91431016666667, "bike_id": "7c3a0a361649107aded4829933a5e90f", "type": "electric_scooter", "is_reserved": 0, "lon": -77.06418866666667}, {"fusion_lat": 0.0, "name": "8e99911a2e6594f3e1347d33d008b6de", "is_disabled": 0, "rental_uris": {"android": "https://dc.lft.to/lastmile_qr_scan", "ios": "https://dc.lft.to/lastmile_qr_scan"}, "fusion_lon": 0.0, "lat": 38.887467666666666, "bike_id": "8e99911a2e6594f3e1347d33d008b6de", "type": "electric_scooter", "is_reserved": 0, "lon": -77.01777416666667}, {"fusion_lat": 0.0, "name": "ec45096dc7c9e42fc0af9e6512afc526", "is_disabled": 0, "rental_uris": {"android": "https://dc.lft.to/lastmile_qr_scan", "ios": "https://dc.lft.to/lastmile_qr_scan"}, "fusion_lon": 0.0, "lat": 38.895248, "bike_id": "ec45096dc7c9e42fc0af9e6512afc526", "type": "electric_scooter", "is_reserved": 0, "lon": -77.00334383333333}, {"fusion_lat": 0.0, "name": "aecee17fcd3faddcddc05316ee8ef651", "is_disabled": 0, "rental_uris": {"android": "https://dc.lft.to/lastmile_qr_scan", "ios": "https://dc.lft.to/lastmile_qr_scan"}, "fusion_lon": 0.0, "lat": 38.92078383333333, "bike_id": "aecee17fcd3faddcddc05316ee8ef651", "type": "electric_bike", "is_reserved": 0, "lon": -76.98945016666667}, {"fusion_lat": 0.0, "name": "a8978c8eb077483bb23a10366d941c3d", "is_disabled": 0, "rental_uris": {"android": "https://dc.lft.to/lastmile_qr_scan", "ios": "https://dc.lft.to/lastmile_qr_scan"}, "fusion_lon": 0.0, "lat": 38.874638833333336, "bike_id": "a8978c8eb077483bb23a10366d941c3d", "type": "electric_scooter", "is_reserved": 0, "lon": -77.00965366666667}, {"fusion_lat": 0.0, "name": "8879f4a060f6baf616024f3ad93fa08b", "is_disabled": 0, "rental_uris": {"android": "https://dc.lft.to/lastmile_qr_scan", "ios": "https://dc.lft.to/lastmile_qr_scan"}, "fusion_lon": 0.0, "lat": 38.89558233333333, "bike_id": "8879f4a060f6baf616024f3ad93fa08b", "type": "electric_scooter", "is_reserved": 0, "lon": -76.9983995}, {"fusion_lat": 0.0, "name": "4882956cd7a67bd69358245049427949", "is_disabled": 0, "rental_uris": {"android": "https://dc.lft.to/lastmile_qr_scan", "ios": "https://dc.lft.to/lastmile_qr_scan"}, "fusion_lon": 0.0, "lat": 38.884967333333336, "bike_id": "4882956cd7a67bd69358245049427949", "type": "electric_scooter", "is_reserved": 0, "lon": -77.00723033333334}, {"fusion_lat": 0.0, "name": "7f82fa3a202514a385f1cea8892985fd", "is_disabled": 0, "rental_uris": {"android": "https://dc.lft.to/lastmile_qr_scan", "ios": "https://dc.lft.to/lastmile_qr_scan"}, "fusion_lon": 0.0, "lat": 38.98502766666667, "bike_id": "7f82fa3a202514a385f1cea8892985fd", "type": "electric_bike", "is_reserved": 0, "lon": -76.9820085}, {"fusion_lat": 0.0, "name": "0329c86d4cc8440215de9c4374b23d1f", "is_disabled": 0, "rental_uris": {"android": "https://dc.lft.to/lastmile_qr_scan", "ios": "https://dc.lft.to/lastmile_qr_scan"}, "fusion_lon": 0.0, "lat": 38.86065933333333, "bike_id": "0329c86d4cc8440215de9c4374b23d1f", "type": "electric_scooter", "is_reserved": 0, "lon": -76.98497766666667}, {"fusion_lat": 0.0, "name": "d55eab125a49b63e3ad3030d94fe135b", "is_disabled": 0, "rental_uris": {"android": "https://dc.lft.to/lastmile_qr_scan", "ios": "https://dc.lft.to/lastmile_qr_scan"}, "fusion_lon": 0.0, "lat": 38.884011666666666, "bike_id": "d55eab125a49b63e3ad3030d94fe135b", "type": "electric_scooter", "is_reserved": 0, "lon": -76.98589266666667}, {"fusion_lat": 0.0, "name": "f12917a34503d52d40b64614186ded46", "is_disabled": 0, "rental_uris": {"android": "https://dc.lft.to/lastmile_qr_scan", "ios": "https://dc.lft.to/lastmile_qr_scan"}, "fusion_lon": 0.0, "lat": 38.9024025, "bike_id": "f12917a34503d52d40b64614186ded46", "type": "electric_scooter", "is_reserved": 0, "lon": -77.0019735}, {"fusion_lat": 0.0, "name": "878673794d6b3ce3ea9682c582383ccb", "is_disabled": 0, "rental_uris": {"android": "https://dc.lft.to/lastmile_qr_scan", "ios": "https://dc.lft.to/lastmile_qr_scan"}, "fusion_lon": 0.0, "lat": 38.910735833333334, "bike_id": "878673794d6b3ce3ea9682c582383ccb", "type": "electric_scooter", "is_reserved": 0, "lon": -77.02196283333333}, {"fusion_lat": 0.0, "name": "fec882f104a3f76705b96c0e69c978d4", "is_disabled": 0, "rental_uris": {"android": "https://dc.lft.to/lastmile_qr_scan", "ios": "https://dc.lft.to/lastmile_qr_scan"}, "fusion_lon": 0.0, "lat": 38.91581583333333, "bike_id": "fec882f104a3f76705b96c0e69c978d4", "type": "electric_scooter", "is_reserved": 0, "lon": -77.03200183333334}, {"fusion_lat": 0.0, "name": "74d81d623b03b1f47d757f4e4806bad7", "is_disabled": 0, "rental_uris": {"android": "https://dc.lft.to/lastmile_qr_scan", "ios": "https://dc.lft.to/lastmile_qr_scan"}, "fusion_lon": 0.0, "lat": 38.88488366666667, "bike_id": "74d81d623b03b1f47d757f4e4806bad7", "type": "electric_scooter", "is_reserved": 0, "lon": -77.00711733333333}, {"fusion_lat": 0.0, "name": "fe2a627c762aa9250613a13c2a45acbf", "is_disabled": 0, "rental_uris": {"android": "https://dc.lft.to/lastmile_qr_scan", "ios": "https://dc.lft.to/lastmile_qr_scan"}, "fusion_lon": 0.0, "lat": 38.884047, "bike_id": "fe2a627c762aa9250613a13c2a45acbf", "type": "electric_scooter", "is_reserved": 0, "lon": -77.0264445}, {"fusion_lat": 0.0, "name": "94a03083537433abbbed3e3e53e61b8f", "is_disabled": 0, "rental_uris": {"android": "https://dc.lft.to/lastmile_qr_scan", "ios": "https://dc.lft.to/lastmile_qr_scan"}, "fusion_lon": 0.0, "lat": 38.921994833333336, "bike_id": "94a03083537433abbbed3e3e53e61b8f", "type": "electric_scooter", "is_reserved": 0, "lon": -77.041207}, {"fusion_lat": 0.0, "name": "6ac066602a64718f7023f03441cdff34", "is_disabled": 0, "rental_uris": {"android": "https://dc.lft.to/lastmile_qr_scan", "ios": "https://dc.lft.to/lastmile_qr_scan"}, "fusion_lon": 0.0, "lat": 38.9095195, "bike_id": "6ac066602a64718f7023f03441cdff34", "type": "electric_scooter", "is_reserved": 0, "lon": -76.99878283333334}, {"fusion_lat": 0.0, "name": "2ccf3eb5ca54c5442dec2d4e1572da97", "is_disabled": 0, "rental_uris": {"android": "https://dc.lft.to/lastmile_qr_scan", "ios": "https://dc.lft.to/lastmile_qr_scan"}, "fusion_lon": 0.0, "lat": 38.88765083333333, "bike_id": "2ccf3eb5ca54c5442dec2d4e1572da97", "type": "electric_scooter", "is_reserved": 0, "lon": -76.9947075}, {"fusion_lat": 0.0, "name": "00dfcc55196154e1a86509b1f3c57930", "is_disabled": 0, "rental_uris": {"android": "https://dc.lft.to/lastmile_qr_scan", "ios": "https://dc.lft.to/lastmile_qr_scan"}, "fusion_lon": 0.0, "lat": 38.897343666666664, "bike_id": "00dfcc55196154e1a86509b1f3c57930", "type": "electric_scooter", "is_reserved": 0, "lon": -77.05472116666667}, {"fusion_lat": 0.0, "name": "babd7a38c93780908e3674a5a12a1db0", "is_disabled": 0, "rental_uris": {"android": "https://dc.lft.to/lastmile_qr_scan", "ios": "https://dc.lft.to/lastmile_qr_scan"}, "fusion_lon": 0.0, "lat": 38.9390475, "bike_id": "babd7a38c93780908e3674a5a12a1db0", "type": "electric_scooter", "is_reserved": 0, "lon": -77.03315}, {"fusion_lat": 0.0, "name": "44986a62db7ef7dda99551583c0b7b33", "is_disabled": 0, "rental_uris": {"android": "https://dc.lft.to/lastmile_qr_scan", "ios": "https://dc.lft.to/lastmile_qr_scan"}, "fusion_lon": 0.0, "lat": 38.923176, "bike_id": "44986a62db7ef7dda99551583c0b7b33", "type": "electric_scooter", "is_reserved": 0, "lon": -77.02979783333333}, {"fusion_lat": 0.0, "name": "6dfd055b5ec80d037a63f5ab81de2dfd", "is_disabled": 0, "rental_uris": {"android": "https://dc.lft.to/lastmile_qr_scan", "ios": "https://dc.lft.to/lastmile_qr_scan"}, "fusion_lon": 0.0, "lat": 38.93708083333333, "bike_id": "6dfd055b5ec80d037a63f5ab81de2dfd", "type": "electric_scooter", "is_reserved": 0, "lon": -77.023975}, {"fusion_lat": 0.0, "name": "70ae1d5a62051e27ec2a228faf6ba92e", "is_disabled": 0, "rental_uris": {"android": "https://dc.lft.to/lastmile_qr_scan", "ios": "https://dc.lft.to/lastmile_qr_scan"}, "fusion_lon": 0.0, "lat": 38.925997333333335, "bike_id": "70ae1d5a62051e27ec2a228faf6ba92e", "type": "electric_scooter", "is_reserved": 0, "lon": -77.025841}, {"fusion_lat": 0.0, "name": "d190be9dce58593014a1526413bdc6ca", "is_disabled": 0, "rental_uris": {"android": "https://dc.lft.to/lastmile_qr_scan", "ios": "https://dc.lft.to/lastmile_qr_scan"}, "fusion_lon": 0.0, "lat": 38.89557, "bike_id": "d190be9dce58593014a1526413bdc6ca", "type": "electric_scooter", "is_reserved": 0, "lon": -77.0395435}, {"fusion_lat": 0.0, "name": "65e952b5d7ea735a4215f2fd1ac4ad91", "is_disabled": 0, "rental_uris": {"android": "https://dc.lft.to/lastmile_qr_scan", "ios": "https://dc.lft.to/lastmile_qr_scan"}, "fusion_lon": 0.0, "lat": 38.92750383333333, "bike_id": "65e952b5d7ea735a4215f2fd1ac4ad91", "type": "electric_scooter", "is_reserved": 0, "lon": -77.021262}, {"fusion_lat": 0.0, "name": "bd896e35dcb66f8d8577bb9718f72fce", "is_disabled": 0, "rental_uris": {"android": "https://dc.lft.to/lastmile_qr_scan", "ios": "https://dc.lft.to/lastmile_qr_scan"}, "fusion_lon": 0.0, "lat": 38.98061966666667, "bike_id": "bd896e35dcb66f8d8577bb9718f72fce", "type": "electric_scooter", "is_reserved": 0, "lon": -77.02636433333333}, {"fusion_lat": 0.0, "name": "c72f06b76e318f6c0ec9a79c8741e2e2", "is_disabled": 0, "rental_uris": {"android": "https://dc.lft.to/lastmile_qr_scan", "ios": "https://dc.lft.to/lastmile_qr_scan"}, "fusion_lon": 0.0, "lat": 38.895380833333334, "bike_id": "c72f06b76e318f6c0ec9a79c8741e2e2", "type": "electric_scooter", "is_reserved": 0, "lon": -77.02817016666667}, {"fusion_lat": 0.0, "name": "1f798938615d23f8848897291bec03e5", "is_disabled": 0, "rental_uris": {"android": "https://dc.lft.to/lastmile_qr_scan", "ios": "https://dc.lft.to/lastmile_qr_scan"}, "fusion_lon": 0.0, "lat": 38.911350166666665, "bike_id": "1f798938615d23f8848897291bec03e5", "type": "electric_scooter", "is_reserved": 0, "lon": -77.044149}, {"fusion_lat": 0.0, "name": "192c724abd3ef052daef04be0fd96135", "is_disabled": 0, "rental_uris": {"android": "https://dc.lft.to/lastmile_qr_scan", "ios": "https://dc.lft.to/lastmile_qr_scan"}, "fusion_lon": 0.0, "lat": 38.907238, "bike_id": "192c724abd3ef052daef04be0fd96135", "type": "electric_scooter", "is_reserved": 0, "lon": -77.06907333333334}, {"fusion_lat": 0.0, "name": "d900e6647f000a58228505f25accfe8b", "is_disabled": 0, "rental_uris": {"android": "https://dc.lft.to/lastmile_qr_scan", "ios": "https://dc.lft.to/lastmile_qr_scan"}, "fusion_lon": 0.0, "lat": 38.886306166666664, "bike_id": "d900e6647f000a58228505f25accfe8b", "type": "electric_scooter", "is_reserved": 0, "lon": -77.02216566666667}, {"fusion_lat": 0.0, "name": "451031cec33ff696c5c87bad74a65776", "is_disabled": 0, "rental_uris": {"android": "https://dc.lft.to/lastmile_qr_scan", "ios": "https://dc.lft.to/lastmile_qr_scan"}, "fusion_lon": 0.0, "lat": 38.91700683333333, "bike_id": "451031cec33ff696c5c87bad74a65776", "type": "electric_scooter", "is_reserved": 0, "lon": -77.03156166666666}, {"fusion_lat": 0.0, "name": "a033434fd7b29f763d954a6d50251577", "is_disabled": 0, "rental_uris": {"android": "https://dc.lft.to/lastmile_qr_scan", "ios": "https://dc.lft.to/lastmile_qr_scan"}, "fusion_lon": 0.0, "lat": 38.888708666666666, "bike_id": "a033434fd7b29f763d954a6d50251577", "type": "electric_scooter", "is_reserved": 0, "lon": -76.98453333333333}, {"fusion_lat": 0.0, "name": "161ff6c0d14e29b4a1f3a1f4c030746d", "is_disabled": 0, "rental_uris": {"android": "https://dc.lft.to/lastmile_qr_scan", "ios": "https://dc.lft.to/lastmile_qr_scan"}, "fusion_lon": 0.0, "lat": 38.896099166666666, "bike_id": "161ff6c0d14e29b4a1f3a1f4c030746d", "type": "electric_scooter", "is_reserved": 0, "lon": -77.02981966666667}, {"fusion_lat": 0.0, "name": "a14911e37603f7ebb7290de35906fd99", "is_disabled": 0, "rental_uris": {"android": "https://dc.lft.to/lastmile_qr_scan", "ios": "https://dc.lft.to/lastmile_qr_scan"}, "fusion_lon": 0.0, "lat": 38.920487, "bike_id": "a14911e37603f7ebb7290de35906fd99", "type": "electric_scooter", "is_reserved": 0, "lon": -77.00206}, {"fusion_lat": 0.0, "name": "f1176a30b2203c76ebf6a21fabceb936", "is_disabled": 0, "rental_uris": {"android": "https://dc.lft.to/lastmile_qr_scan", "ios": "https://dc.lft.to/lastmile_qr_scan"}, "fusion_lon": 0.0, "lat": 38.901892333333336, "bike_id": "f1176a30b2203c76ebf6a21fabceb936", "type": "electric_scooter", "is_reserved": 0, "lon": -76.92891566666667}, {"fusion_lat": 0.0, "name": "d7bbb5d24a05571c7fb88f4b255a6ba6", "is_disabled": 0, "rental_uris": {"android": "https://dc.lft.to/lastmile_qr_scan", "ios": "https://dc.lft.to/lastmile_qr_scan"}, "fusion_lon": 0.0, "lat": 38.900385666666665, "bike_id": "d7bbb5d24a05571c7fb88f4b255a6ba6", "type": "electric_scooter", "is_reserved": 0, "lon": -76.988326}, {"fusion_lat": 0.0, "name": "19022ac36692fafb71c645d96baa7099", "is_disabled": 0, "rental_uris": {"android": "https://dc.lft.to/lastmile_qr_scan", "ios": "https://dc.lft.to/lastmile_qr_scan"}, "fusion_lon": 0.0, "lat": 38.855130333333335, "bike_id": "19022ac36692fafb71c645d96baa7099", "type": "electric_bike", "is_reserved": 0, "lon": -77.10537883333333}, {"fusion_lat": 0.0, "name": "a5cbd13d87c609a82aa566999ace6c25", "is_disabled": 0, "rental_uris": {"android": "https://dc.lft.to/lastmile_qr_scan", "ios": "https://dc.lft.to/lastmile_qr_scan"}, "fusion_lon": 0.0, "lat": 38.928278, "bike_id": "a5cbd13d87c609a82aa566999ace6c25", "type": "electric_scooter", "is_reserved": 0, "lon": -77.05440416666667}, {"fusion_lat": 0.0, "name": "7758a62aeced6ad1c8b0ed84277682f2", "is_disabled": 0, "rental_uris": {"android": "https://dc.lft.to/lastmile_qr_scan", "ios": "https://dc.lft.to/lastmile_qr_scan"}, "fusion_lon": 0.0, "lat": 38.8863505, "bike_id": "7758a62aeced6ad1c8b0ed84277682f2", "type": "electric_scooter", "is_reserved": 0, "lon": -76.9257845}, {"fusion_lat": 0.0, "name": "8223a98199084bf8939c08b84a875e38", "is_disabled": 0, "rental_uris": {"android": "https://dc.lft.to/lastmile_qr_scan", "ios": "https://dc.lft.to/lastmile_qr_scan"}, "fusion_lon": 0.0, "lat": 38.914001, "bike_id": "8223a98199084bf8939c08b84a875e38", "type": "electric_scooter", "is_reserved": 0, "lon": -77.03184866666666}, {"fusion_lat": 0.0, "name": "8b8657b0d9df8cdba5950164ba6200e3", "is_disabled": 0, "rental_uris": {"android": "https://dc.lft.to/lastmile_qr_scan", "ios": "https://dc.lft.to/lastmile_qr_scan"}, "fusion_lon": 0.0, "lat": 38.883510666666666, "bike_id": "8b8657b0d9df8cdba5950164ba6200e3", "type": "electric_scooter", "is_reserved": 0, "lon": -76.99498116666666}, {"fusion_lat": 0.0, "name": "d5880e26392cc3ed03d56c7550dc58b1", "is_disabled": 0, "rental_uris": {"android": "https://dc.lft.to/lastmile_qr_scan", "ios": "https://dc.lft.to/lastmile_qr_scan"}, "fusion_lon": 0.0, "lat": 38.89225166666667, "bike_id": "d5880e26392cc3ed03d56c7550dc58b1", "type": "electric_scooter", "is_reserved": 0, "lon": -77.0480475}, {"fusion_lat": 0.0, "name": "55f41ac864f181f70638ce40179ab8e3", "is_disabled": 0, "rental_uris": {"android": "https://dc.lft.to/lastmile_qr_scan", "ios": "https://dc.lft.to/lastmile_qr_scan"}, "fusion_lon": 0.0, "lat": 38.901451333333334, "bike_id": "55f41ac864f181f70638ce40179ab8e3", "type": "electric_scooter", "is_reserved": 0, "lon": -77.032277}, {"fusion_lat": 0.0, "name": "02eb517b1c3516a09bf88b39d53dfcaf", "is_disabled": 0, "rental_uris": {"android": "https://dc.lft.to/lastmile_qr_scan", "ios": "https://dc.lft.to/lastmile_qr_scan"}, "fusion_lon": 0.0, "lat": 38.895659, "bike_id": "02eb517b1c3516a09bf88b39d53dfcaf", "type": "electric_scooter", "is_reserved": 0, "lon": -77.02812466666667}, {"fusion_lat": 0.0, "name": "6bfbfae6d8709602c6bad1537aae9e46", "is_disabled": 0, "rental_uris": {"android": "https://dc.lft.to/lastmile_qr_scan", "ios": "https://dc.lft.to/lastmile_qr_scan"}, "fusion_lon": 0.0, "lat": 38.90500683333333, "bike_id": "6bfbfae6d8709602c6bad1537aae9e46", "type": "electric_scooter", "is_reserved": 0, "lon": -77.06115766666667}, {"fusion_lat": 0.0, "name": "9a4b28883d2e06b317de5e172336b03a", "is_disabled": 0, "rental_uris": {"android": "https://dc.lft.to/lastmile_qr_scan", "ios": "https://dc.lft.to/lastmile_qr_scan"}, "fusion_lon": 0.0, "lat": 38.910371, "bike_id": "9a4b28883d2e06b317de5e172336b03a", "type": "electric_bike", "is_reserved": 0, "lon": -77.03798833333333}, {"fusion_lat": 0.0, "name": "71d9e6ae702aa1d8fcd095c4124d163c", "is_disabled": 0, "rental_uris": {"android": "https://dc.lft.to/lastmile_qr_scan", "ios": "https://dc.lft.to/lastmile_qr_scan"}, "fusion_lon": 0.0, "lat": 38.93047716666667, "bike_id": "71d9e6ae702aa1d8fcd095c4124d163c", "type": "electric_scooter", "is_reserved": 0, "lon": -77.03212183333333}, {"fusion_lat": 0.0, "name": "f109ac4fb9afe20d76b48a6b4c7100b1", "is_disabled": 0, "rental_uris": {"android": "https://dc.lft.to/lastmile_qr_scan", "ios": "https://dc.lft.to/lastmile_qr_scan"}, "fusion_lon": 0.0, "lat": 38.91178716666667, "bike_id": "f109ac4fb9afe20d76b48a6b4c7100b1", "type": "electric_scooter", "is_reserved": 0, "lon": -77.028266}, {"fusion_lat": 0.0, "name": "c997a2965fd01d103318645bb4e5dca0", "is_disabled": 0, "rental_uris": {"android": "https://dc.lft.to/lastmile_qr_scan", "ios": "https://dc.lft.to/lastmile_qr_scan"}, "fusion_lon": 0.0, "lat": 38.91436183333333, "bike_id": "c997a2965fd01d103318645bb4e5dca0", "type": "electric_scooter", "is_reserved": 0, "lon": -77.0121805}, {"fusion_lat": 0.0, "name": "7bf15cbaa821951f27ddf354aa7bb2d5", "is_disabled": 0, "rental_uris": {"android": "https://dc.lft.to/lastmile_qr_scan", "ios": "https://dc.lft.to/lastmile_qr_scan"}, "fusion_lon": 0.0, "lat": 38.90928183333333, "bike_id": "7bf15cbaa821951f27ddf354aa7bb2d5", "type": "electric_scooter", "is_reserved": 0, "lon": -77.03071966666667}, {"fusion_lat": 0.0, "name": "5d96232ce795db1b0cfb11dc5f17d471", "is_disabled": 0, "rental_uris": {"android": "https://dc.lft.to/lastmile_qr_scan", "ios": "https://dc.lft.to/lastmile_qr_scan"}, "fusion_lon": 0.0, "lat": 38.954047833333334, "bike_id": "5d96232ce795db1b0cfb11dc5f17d471", "type": "electric_scooter", "is_reserved": 0, "lon": -77.02748766666667}, {"fusion_lat": 0.0, "name": "fcc56551f8c251525c541559a4c5f31b", "is_disabled": 0, "rental_uris": {"android": "https://dc.lft.to/lastmile_qr_scan", "ios": "https://dc.lft.to/lastmile_qr_scan"}, "fusion_lon": 0.0, "lat": 38.90139816666667, "bike_id": "fcc56551f8c251525c541559a4c5f31b", "type": "electric_scooter", "is_reserved": 0, "lon": -77.04356016666667}, {"fusion_lat": 0.0, "name": "a84925868b44ee8dcfe715dc6210a673", "is_disabled": 0, "rental_uris": {"android": "https://dc.lft.to/lastmile_qr_scan", "ios": "https://dc.lft.to/lastmile_qr_scan"}, "fusion_lon": 0.0, "lat": 38.917142166666665, "bike_id": "a84925868b44ee8dcfe715dc6210a673", "type": "electric_scooter", "is_reserved": 0, "lon": -77.03227183333334}, {"fusion_lat": 0.0, "name": "57ac4e268859e4d9518dc62ef2b98a5e", "is_disabled": 0, "rental_uris": {"android": "https://dc.lft.to/lastmile_qr_scan", "ios": "https://dc.lft.to/lastmile_qr_scan"}, "fusion_lon": 0.0, "lat": 38.899717833333334, "bike_id": "57ac4e268859e4d9518dc62ef2b98a5e", "type": "electric_scooter", "is_reserved": 0, "lon": -77.0067265}, {"fusion_lat": 0.0, "name": "de5bb35395b3fd70b365948577d4e863", "is_disabled": 0, "rental_uris": {"android": "https://dc.lft.to/lastmile_qr_scan", "ios": "https://dc.lft.to/lastmile_qr_scan"}, "fusion_lon": 0.0, "lat": 38.883243, "bike_id": "de5bb35395b3fd70b365948577d4e863", "type": "electric_bike", "is_reserved": 0, "lon": -76.96056033333333}, {"fusion_lat": 0.0, "name": "4a0e02ae30ce8d21e6e881b1481249c5", "is_disabled": 0, "rental_uris": {"android": "https://dc.lft.to/lastmile_qr_scan", "ios": "https://dc.lft.to/lastmile_qr_scan"}, "fusion_lon": 0.0, "lat": 38.905239333333334, "bike_id": "4a0e02ae30ce8d21e6e881b1481249c5", "type": "electric_scooter", "is_reserved": 0, "lon": -77.05139383333334}, {"fusion_lat": 0.0, "name": "6b63acd07df1140c82586d0beb2cbcfa", "is_disabled": 0, "rental_uris": {"android": "https://dc.lft.to/lastmile_qr_scan", "ios": "https://dc.lft.to/lastmile_qr_scan"}, "fusion_lon": 0.0, "lat": 38.9165235, "bike_id": "6b63acd07df1140c82586d0beb2cbcfa", "type": "electric_scooter", "is_reserved": 0, "lon": -77.0227965}, {"fusion_lat": 0.0, "name": "ddd21add5ead12cb4311541632f70a53", "is_disabled": 0, "rental_uris": {"android": "https://dc.lft.to/lastmile_qr_scan", "ios": "https://dc.lft.to/lastmile_qr_scan"}, "fusion_lon": 0.0, "lat": 38.885599166666665, "bike_id": "ddd21add5ead12cb4311541632f70a53", "type": "electric_scooter", "is_reserved": 0, "lon": -76.97714333333333}, {"fusion_lat": 0.0, "name": "faffeddd2dc0f9d0ab65c9e87a046b84", "is_disabled": 0, "rental_uris": {"android": "https://dc.lft.to/lastmile_qr_scan", "ios": "https://dc.lft.to/lastmile_qr_scan"}, "fusion_lon": 0.0, "lat": 38.88616416666667, "bike_id": "faffeddd2dc0f9d0ab65c9e87a046b84", "type": "electric_scooter", "is_reserved": 0, "lon": -77.012467}, {"fusion_lat": 0.0, "name": "d0fb766c6555e64dbc282529bd00336e", "is_disabled": 0, "rental_uris": {"android": "https://dc.lft.to/lastmile_qr_scan", "ios": "https://dc.lft.to/lastmile_qr_scan"}, "fusion_lon": 0.0, "lat": 38.90603016666667, "bike_id": "d0fb766c6555e64dbc282529bd00336e", "type": "electric_scooter", "is_reserved": 0, "lon": -77.00332516666667}, {"fusion_lat": 0.0, "name": "0fe72aba78bd63990cc3ea08d6f18575", "is_disabled": 0, "rental_uris": {"android": "https://dc.lft.to/lastmile_qr_scan", "ios": "https://dc.lft.to/lastmile_qr_scan"}, "fusion_lon": 0.0, "lat": 38.92327433333333, "bike_id": "0fe72aba78bd63990cc3ea08d6f18575", "type": "electric_scooter", "is_reserved": 0, "lon": -77.028923}, {"fusion_lat": 0.0, "name": "b1113d52591f798f725ffaed49052685", "is_disabled": 0, "rental_uris": {"android": "https://dc.lft.to/lastmile_qr_scan", "ios": "https://dc.lft.to/lastmile_qr_scan"}, "fusion_lon": 0.0, "lat": 38.919199, "bike_id": "b1113d52591f798f725ffaed49052685", "type": "electric_scooter", "is_reserved": 0, "lon": -77.00971416666667}, {"fusion_lat": 0.0, "name": "f719021f0132dafd0fda7831a25cab4c", "is_disabled": 0, "rental_uris": {"android": "https://dc.lft.to/lastmile_qr_scan", "ios": "https://dc.lft.to/lastmile_qr_scan"}, "fusion_lon": 0.0, "lat": 38.914169666666666, "bike_id": "f719021f0132dafd0fda7831a25cab4c", "type": "electric_scooter", "is_reserved": 0, "lon": -77.03172483333333}, {"fusion_lat": 0.0, "name": "8d1c159e6731a15ead3e2476017512cd", "is_disabled": 0, "rental_uris": {"android": "https://dc.lft.to/lastmile_qr_scan", "ios": "https://dc.lft.to/lastmile_qr_scan"}, "fusion_lon": 0.0, "lat": 38.90236066666667, "bike_id": "8d1c159e6731a15ead3e2476017512cd", "type": "electric_scooter", "is_reserved": 0, "lon": -77.037725}, {"fusion_lat": 0.0, "name": "9ffc35a63933eb956dbbd015d24f4c63", "is_disabled": 0, "rental_uris": {"android": "https://dc.lft.to/lastmile_qr_scan", "ios": "https://dc.lft.to/lastmile_qr_scan"}, "fusion_lon": 0.0, "lat": 38.92309733333333, "bike_id": "9ffc35a63933eb956dbbd015d24f4c63", "type": "electric_scooter", "is_reserved": 0, "lon": -76.986424}, {"fusion_lat": 0.0, "name": "192b221a544f65ea4abdea9aca62d8b5", "is_disabled": 0, "rental_uris": {"android": "https://dc.lft.to/lastmile_qr_scan", "ios": "https://dc.lft.to/lastmile_qr_scan"}, "fusion_lon": 0.0, "lat": 38.90575783333333, "bike_id": "192b221a544f65ea4abdea9aca62d8b5", "type": "electric_scooter", "is_reserved": 0, "lon": -77.04343616666667}, {"fusion_lat": 0.0, "name": "6581c595f810805b50bd613890822643", "is_disabled": 0, "rental_uris": {"android": "https://dc.lft.to/lastmile_qr_scan", "ios": "https://dc.lft.to/lastmile_qr_scan"}, "fusion_lon": 0.0, "lat": 38.900647166666666, "bike_id": "6581c595f810805b50bd613890822643", "type": "electric_scooter", "is_reserved": 0, "lon": -77.05423783333333}, {"fusion_lat": 0.0, "name": "a1c9815e040dee981e2db5e809da01c5", "is_disabled": 0, "rental_uris": {"android": "https://dc.lft.to/lastmile_qr_scan", "ios": "https://dc.lft.to/lastmile_qr_scan"}, "fusion_lon": 0.0, "lat": 38.88736683333333, "bike_id": "a1c9815e040dee981e2db5e809da01c5", "type": "electric_scooter", "is_reserved": 0, "lon": -77.02581916666666}, {"fusion_lat": 0.0, "name": "6d80c08f05891503ac84af22182a05af", "is_disabled": 0, "rental_uris": {"android": "https://dc.lft.to/lastmile_qr_scan", "ios": "https://dc.lft.to/lastmile_qr_scan"}, "fusion_lon": 0.0, "lat": 38.884908333333335, "bike_id": "6d80c08f05891503ac84af22182a05af", "type": "electric_scooter", "is_reserved": 0, "lon": -77.0206765}, {"fusion_lat": 0.0, "name": "aa7df872a666c520d74bddca42837a14", "is_disabled": 0, "rental_uris": {"android": "https://dc.lft.to/lastmile_qr_scan", "ios": "https://dc.lft.to/lastmile_qr_scan"}, "fusion_lon": 0.0, "lat": 38.88331616666667, "bike_id": "aa7df872a666c520d74bddca42837a14", "type": "electric_scooter", "is_reserved": 0, "lon": -77.01773783333333}, {"fusion_lat": 0.0, "name": "5b4a9a0bb499243a36952772ab9e1079", "is_disabled": 0, "rental_uris": {"android": "https://dc.lft.to/lastmile_qr_scan", "ios": "https://dc.lft.to/lastmile_qr_scan"}, "fusion_lon": 0.0, "lat": 38.92373933333333, "bike_id": "5b4a9a0bb499243a36952772ab9e1079", "type": "electric_scooter", "is_reserved": 0, "lon": -77.03131}, {"fusion_lat": 0.0, "name": "9705d2a69589aa0a1018da075181a12a", "is_disabled": 0, "rental_uris": {"android": "https://dc.lft.to/lastmile_qr_scan", "ios": "https://dc.lft.to/lastmile_qr_scan"}, "fusion_lon": 0.0, "lat": 38.91705833333333, "bike_id": "9705d2a69589aa0a1018da075181a12a", "type": "electric_scooter", "is_reserved": 0, "lon": -77.033209}, {"fusion_lat": 0.0, "name": "6b6682dfee26899c30e5eb2d9e44c0d0", "is_disabled": 0, "rental_uris": {"android": "https://dc.lft.to/lastmile_qr_scan", "ios": "https://dc.lft.to/lastmile_qr_scan"}, "fusion_lon": 0.0, "lat": 38.898684833333334, "bike_id": "6b6682dfee26899c30e5eb2d9e44c0d0", "type": "electric_scooter", "is_reserved": 0, "lon": -77.0395355}, {"fusion_lat": 0.0, "name": "824bdceb8425da673ce07e0cccda7bae", "is_disabled": 0, "rental_uris": {"android": "https://dc.lft.to/lastmile_qr_scan", "ios": "https://dc.lft.to/lastmile_qr_scan"}, "fusion_lon": 0.0, "lat": 38.930969833333336, "bike_id": "824bdceb8425da673ce07e0cccda7bae", "type": "electric_scooter", "is_reserved": 0, "lon": -77.02553466666667}, {"fusion_lat": 0.0, "name": "6d427e87e190081f24dd8363aa452277", "is_disabled": 0, "rental_uris": {"android": "https://dc.lft.to/lastmile_qr_scan", "ios": "https://dc.lft.to/lastmile_qr_scan"}, "fusion_lon": 0.0, "lat": 38.95636283333333, "bike_id": "6d427e87e190081f24dd8363aa452277", "type": "electric_scooter", "is_reserved": 0, "lon": -77.03304116666666}, {"fusion_lat": 0.0, "name": "646889a9b21b9106b8d61b07636ddf13", "is_disabled": 0, "rental_uris": {"android": "https://dc.lft.to/lastmile_qr_scan", "ios": "https://dc.lft.to/lastmile_qr_scan"}, "fusion_lon": 0.0, "lat": 38.9177605, "bike_id": "646889a9b21b9106b8d61b07636ddf13", "type": "electric_scooter", "is_reserved": 0, "lon": -77.04098783333333}, {"fusion_lat": 0.0, "name": "7756587f6b3dd108b44f6032c6498c49", "is_disabled": 0, "rental_uris": {"android": "https://dc.lft.to/lastmile_qr_scan", "ios": "https://dc.lft.to/lastmile_qr_scan"}, "fusion_lon": 0.0, "lat": 38.898218666666665, "bike_id": "7756587f6b3dd108b44f6032c6498c49", "type": "electric_scooter", "is_reserved": 0, "lon": -77.03161816666666}, {"fusion_lat": 0.0, "name": "3d2417903cb02b4839b0160377304c73", "is_disabled": 0, "rental_uris": {"android": "https://dc.lft.to/lastmile_qr_scan", "ios": "https://dc.lft.to/lastmile_qr_scan"}, "fusion_lon": 0.0, "lat": 38.8956855, "bike_id": "3d2417903cb02b4839b0160377304c73", "type": "electric_scooter", "is_reserved": 0, "lon": -77.030061}, {"fusion_lat": 0.0, "name": "7b72a6d52d34b8528ba03979c2769b21", "is_disabled": 0, "rental_uris": {"android": "https://dc.lft.to/lastmile_qr_scan", "ios": "https://dc.lft.to/lastmile_qr_scan"}, "fusion_lon": 0.0, "lat": 38.90031316666666, "bike_id": "7b72a6d52d34b8528ba03979c2769b21", "type": "electric_scooter", "is_reserved": 0, "lon": -77.011853}, {"fusion_lat": 0.0, "name": "fa0f2d98d39200e39d6c114df899e7e3", "is_disabled": 0, "rental_uris": {"android": "https://dc.lft.to/lastmile_qr_scan", "ios": "https://dc.lft.to/lastmile_qr_scan"}, "fusion_lon": 0.0, "lat": 38.920944, "bike_id": "fa0f2d98d39200e39d6c114df899e7e3", "type": "electric_scooter", "is_reserved": 0, "lon": -77.0231125}, {"fusion_lat": 0.0, "name": "21da40bffabf328203fd78e5fa6f34dc", "is_disabled": 0, "rental_uris": {"android": "https://dc.lft.to/lastmile_qr_scan", "ios": "https://dc.lft.to/lastmile_qr_scan"}, "fusion_lon": 0.0, "lat": 38.90153033333333, "bike_id": "21da40bffabf328203fd78e5fa6f34dc", "type": "electric_scooter", "is_reserved": 0, "lon": -77.0132975}, {"fusion_lat": 0.0, "name": "abd94a1db87ec238879ee5ba795b144e", "is_disabled": 0, "rental_uris": {"android": "https://dc.lft.to/lastmile_qr_scan", "ios": "https://dc.lft.to/lastmile_qr_scan"}, "fusion_lon": 0.0, "lat": 38.853519666666664, "bike_id": "abd94a1db87ec238879ee5ba795b144e", "type": "electric_bike", "is_reserved": 0, "lon": -77.13470133333334}, {"fusion_lat": 0.0, "name": "839dfb6b061fe587a5ade289738a1d1c", "is_disabled": 0, "rental_uris": {"android": "https://dc.lft.to/lastmile_qr_scan", "ios": "https://dc.lft.to/lastmile_qr_scan"}, "fusion_lon": 0.0, "lat": 38.8865355, "bike_id": "839dfb6b061fe587a5ade289738a1d1c", "type": "electric_scooter", "is_reserved": 0, "lon": -77.001163}, {"fusion_lat": 0.0, "name": "8a80dfd08286e42280a58faa34ff4b76", "is_disabled": 0, "rental_uris": {"android": "https://dc.lft.to/lastmile_qr_scan", "ios": "https://dc.lft.to/lastmile_qr_scan"}, "fusion_lon": 0.0, "lat": 38.913364666666666, "bike_id": "8a80dfd08286e42280a58faa34ff4b76", "type": "electric_scooter", "is_reserved": 0, "lon": -77.03172233333333}, {"fusion_lat": 0.0, "name": "cf23df51bd11c8a90cfb04b93da10ef6", "is_disabled": 0, "rental_uris": {"android": "https://dc.lft.to/lastmile_qr_scan", "ios": "https://dc.lft.to/lastmile_qr_scan"}, "fusion_lon": 0.0, "lat": 38.896359, "bike_id": "cf23df51bd11c8a90cfb04b93da10ef6", "type": "electric_scooter", "is_reserved": 0, "lon": -77.032174}, {"fusion_lat": 0.0, "name": "52809ead7ee902d900aeabc3de3a8ec0", "is_disabled": 0, "rental_uris": {"android": "https://dc.lft.to/lastmile_qr_scan", "ios": "https://dc.lft.to/lastmile_qr_scan"}, "fusion_lon": 0.0, "lat": 38.93609083333333, "bike_id": "52809ead7ee902d900aeabc3de3a8ec0", "type": "electric_scooter", "is_reserved": 0, "lon": -77.0585995}, {"fusion_lat": 0.0, "name": "abeb9c797d7cda3bd8a654f0f81024d6", "is_disabled": 0, "rental_uris": {"android": "https://dc.lft.to/lastmile_qr_scan", "ios": "https://dc.lft.to/lastmile_qr_scan"}, "fusion_lon": 0.0, "lat": 38.864111, "bike_id": "abeb9c797d7cda3bd8a654f0f81024d6", "type": "electric_scooter", "is_reserved": 0, "lon": -76.97467333333333}, {"fusion_lat": 0.0, "name": "5e5d3309b96f0a7efdf293d34f61d490", "is_disabled": 0, "rental_uris": {"android": "https://dc.lft.to/lastmile_qr_scan", "ios": "https://dc.lft.to/lastmile_qr_scan"}, "fusion_lon": 0.0, "lat": 38.89792633333333, "bike_id": "5e5d3309b96f0a7efdf293d34f61d490", "type": "electric_scooter", "is_reserved": 0, "lon": -76.9312105}, {"fusion_lat": 0.0, "name": "d0ef82c76733f7c307e7ebcdf59b2826", "is_disabled": 0, "rental_uris": {"android": "https://dc.lft.to/lastmile_qr_scan", "ios": "https://dc.lft.to/lastmile_qr_scan"}, "fusion_lon": 0.0, "lat": 38.902680833333335, "bike_id": "d0ef82c76733f7c307e7ebcdf59b2826", "type": "electric_scooter", "is_reserved": 0, "lon": -77.03510483333334}, {"fusion_lat": 0.0, "name": "10cb347de910e82699dacde2605c0160", "is_disabled": 0, "rental_uris": {"android": "https://dc.lft.to/lastmile_qr_scan", "ios": "https://dc.lft.to/lastmile_qr_scan"}, "fusion_lon": 0.0, "lat": 38.89763683333334, "bike_id": "10cb347de910e82699dacde2605c0160", "type": "electric_scooter", "is_reserved": 0, "lon": -77.004272}, {"fusion_lat": 0.0, "name": "907a4bdab4d7cf854e0b181ee09ebe58", "is_disabled": 0, "rental_uris": {"android": "https://dc.lft.to/lastmile_qr_scan", "ios": "https://dc.lft.to/lastmile_qr_scan"}, "fusion_lon": 0.0, "lat": 38.91709733333333, "bike_id": "907a4bdab4d7cf854e0b181ee09ebe58", "type": "electric_scooter", "is_reserved": 0, "lon": -77.02465383333333}, {"fusion_lat": 0.0, "name": "057356c96bccf070dcc19c661754642c", "is_disabled": 0, "rental_uris": {"android": "https://dc.lft.to/lastmile_qr_scan", "ios": "https://dc.lft.to/lastmile_qr_scan"}, "fusion_lon": 0.0, "lat": 38.88330533333333, "bike_id": "057356c96bccf070dcc19c661754642c", "type": "electric_scooter", "is_reserved": 0, "lon": -77.01730016666667}, {"fusion_lat": 0.0, "name": "f658f9191519e896f8a86d630bf6e5c0", "is_disabled": 0, "rental_uris": {"android": "https://dc.lft.to/lastmile_qr_scan", "ios": "https://dc.lft.to/lastmile_qr_scan"}, "fusion_lon": 0.0, "lat": 38.8850185, "bike_id": "f658f9191519e896f8a86d630bf6e5c0", "type": "electric_scooter", "is_reserved": 0, "lon": -77.00570533333334}, {"fusion_lat": 0.0, "name": "27adf895dff7fb4377fbd1277841b3bc", "is_disabled": 0, "rental_uris": {"android": "https://dc.lft.to/lastmile_qr_scan", "ios": "https://dc.lft.to/lastmile_qr_scan"}, "fusion_lon": 0.0, "lat": 38.89259233333333, "bike_id": "27adf895dff7fb4377fbd1277841b3bc", "type": "electric_bike", "is_reserved": 0, "lon": -76.951182}, {"fusion_lat": 0.0, "name": "232771ca06ab768a7ba45d95bf6afb1d", "is_disabled": 0, "rental_uris": {"android": "https://dc.lft.to/lastmile_qr_scan", "ios": "https://dc.lft.to/lastmile_qr_scan"}, "fusion_lon": 0.0, "lat": 38.905249166666664, "bike_id": "232771ca06ab768a7ba45d95bf6afb1d", "type": "electric_scooter", "is_reserved": 0, "lon": -77.06379383333334}, {"fusion_lat": 0.0, "name": "564fd2da6a420a5b7918d44c2bfb1750", "is_disabled": 0, "rental_uris": {"android": "https://dc.lft.to/lastmile_qr_scan", "ios": "https://dc.lft.to/lastmile_qr_scan"}, "fusion_lon": 0.0, "lat": 38.967294, "bike_id": "564fd2da6a420a5b7918d44c2bfb1750", "type": "electric_scooter", "is_reserved": 0, "lon": -77.0091745}, {"fusion_lat": 0.0, "name": "47db9ad365c2076240ffeb42138e4377", "is_disabled": 0, "rental_uris": {"android": "https://dc.lft.to/lastmile_qr_scan", "ios": "https://dc.lft.to/lastmile_qr_scan"}, "fusion_lon": 0.0, "lat": 38.95242616666667, "bike_id": "47db9ad365c2076240ffeb42138e4377", "type": "electric_scooter", "is_reserved": 0, "lon": -77.02379716666667}, {"fusion_lat": 0.0, "name": "21f7573bb76506925092e94d5ea48342", "is_disabled": 0, "rental_uris": {"android": "https://dc.lft.to/lastmile_qr_scan", "ios": "https://dc.lft.to/lastmile_qr_scan"}, "fusion_lon": 0.0, "lat": 38.919150333333334, "bike_id": "21f7573bb76506925092e94d5ea48342", "type": "electric_scooter", "is_reserved": 0, "lon": -77.02616516666667}, {"fusion_lat": 0.0, "name": "0b0ec0e9cfdd25e3d0c8553dc7daccae", "is_disabled": 0, "rental_uris": {"android": "https://dc.lft.to/lastmile_qr_scan", "ios": "https://dc.lft.to/lastmile_qr_scan"}, "fusion_lon": 0.0, "lat": 38.916051833333334, "bike_id": "0b0ec0e9cfdd25e3d0c8553dc7daccae", "type": "electric_scooter", "is_reserved": 0, "lon": -77.02398116666667}, {"fusion_lat": 0.0, "name": "b38a94204a7bd144909ae95a94b0c109", "is_disabled": 0, "rental_uris": {"android": "https://dc.lft.to/lastmile_qr_scan", "ios": "https://dc.lft.to/lastmile_qr_scan"}, "fusion_lon": 0.0, "lat": 38.9288365, "bike_id": "b38a94204a7bd144909ae95a94b0c109", "type": "electric_scooter", "is_reserved": 0, "lon": -77.03219916666667}, {"fusion_lat": 0.0, "name": "c8de1227a250887037c9b81494f8ddfa", "is_disabled": 0, "rental_uris": {"android": "https://dc.lft.to/lastmile_qr_scan", "ios": "https://dc.lft.to/lastmile_qr_scan"}, "fusion_lon": 0.0, "lat": 38.8964035, "bike_id": "c8de1227a250887037c9b81494f8ddfa", "type": "electric_scooter", "is_reserved": 0, "lon": -77.0265325}, {"fusion_lat": 0.0, "name": "01411060e3dce475968e0c0862d03c62", "is_disabled": 0, "rental_uris": {"android": "https://dc.lft.to/lastmile_qr_scan", "ios": "https://dc.lft.to/lastmile_qr_scan"}, "fusion_lon": 0.0, "lat": 38.8963305, "bike_id": "01411060e3dce475968e0c0862d03c62", "type": "electric_scooter", "is_reserved": 0, "lon": -77.02853716666667}, {"fusion_lat": 0.0, "name": "1833e4d615cfa15524b962be543c19d3", "is_disabled": 0, "rental_uris": {"android": "https://dc.lft.to/lastmile_qr_scan", "ios": "https://dc.lft.to/lastmile_qr_scan"}, "fusion_lon": 0.0, "lat": 38.898444166666664, "bike_id": "1833e4d615cfa15524b962be543c19d3", "type": "electric_scooter", "is_reserved": 0, "lon": -77.00747366666667}, {"fusion_lat": 0.0, "name": "8fa97d74ceb4b1a095f93dabb8b706e2", "is_disabled": 0, "rental_uris": {"android": "https://dc.lft.to/lastmile_qr_scan", "ios": "https://dc.lft.to/lastmile_qr_scan"}, "fusion_lon": 0.0, "lat": 38.900326166666666, "bike_id": "8fa97d74ceb4b1a095f93dabb8b706e2", "type": "electric_scooter", "is_reserved": 0, "lon": -77.00205583333333}, {"fusion_lat": 0.0, "name": "c56848a69a88f0e68a6eb5d1405a0c21", "is_disabled": 0, "rental_uris": {"android": "https://dc.lft.to/lastmile_qr_scan", "ios": "https://dc.lft.to/lastmile_qr_scan"}, "fusion_lon": 0.0, "lat": 38.9210365, "bike_id": "c56848a69a88f0e68a6eb5d1405a0c21", "type": "electric_scooter", "is_reserved": 0, "lon": -77.07474}, {"fusion_lat": 0.0, "name": "41d34a573fd1665143317e5e6b512db9", "is_disabled": 0, "rental_uris": {"android": "https://dc.lft.to/lastmile_qr_scan", "ios": "https://dc.lft.to/lastmile_qr_scan"}, "fusion_lon": 0.0, "lat": 38.976318666666664, "bike_id": "41d34a573fd1665143317e5e6b512db9", "type": "electric_scooter", "is_reserved": 0, "lon": -77.0156725}, {"fusion_lat": 0.0, "name": "d1b2262dab5d0effb900b9103e4d75fd", "is_disabled": 0, "rental_uris": {"android": "https://dc.lft.to/lastmile_qr_scan", "ios": "https://dc.lft.to/lastmile_qr_scan"}, "fusion_lon": 0.0, "lat": 38.93275116666667, "bike_id": "d1b2262dab5d0effb900b9103e4d75fd", "type": "electric_scooter", "is_reserved": 0, "lon": -77.04534316666667}, {"fusion_lat": 0.0, "name": "442c4d47140b1890c599633b287ae357", "is_disabled": 0, "rental_uris": {"android": "https://dc.lft.to/lastmile_qr_scan", "ios": "https://dc.lft.to/lastmile_qr_scan"}, "fusion_lon": 0.0, "lat": 38.92385983333333, "bike_id": "442c4d47140b1890c599633b287ae357", "type": "electric_scooter", "is_reserved": 0, "lon": -77.05154216666666}, {"fusion_lat": 0.0, "name": "0578e291f7b29bd64bda44993224b952", "is_disabled": 0, "rental_uris": {"android": "https://dc.lft.to/lastmile_qr_scan", "ios": "https://dc.lft.to/lastmile_qr_scan"}, "fusion_lon": 0.0, "lat": 38.9001535, "bike_id": "0578e291f7b29bd64bda44993224b952", "type": "electric_scooter", "is_reserved": 0, "lon": -77.040981}, {"fusion_lat": 0.0, "name": "4f5ec668c7f7861a4a6ffbae524007d5", "is_disabled": 0, "rental_uris": {"android": "https://dc.lft.to/lastmile_qr_scan", "ios": "https://dc.lft.to/lastmile_qr_scan"}, "fusion_lon": 0.0, "lat": 38.91680366666667, "bike_id": "4f5ec668c7f7861a4a6ffbae524007d5", "type": "electric_scooter", "is_reserved": 0, "lon": -77.0232825}, {"fusion_lat": 0.0, "name": "81e5256edb8c7bb007835bc031c8e31d", "is_disabled": 0, "rental_uris": {"android": "https://dc.lft.to/lastmile_qr_scan", "ios": "https://dc.lft.to/lastmile_qr_scan"}, "fusion_lon": 0.0, "lat": 38.86509383333333, "bike_id": "81e5256edb8c7bb007835bc031c8e31d", "type": "electric_scooter", "is_reserved": 0, "lon": -76.99002683333333}, {"fusion_lat": 0.0, "name": "e89e1333b11b3c8fb23ec7b3bac1acea", "is_disabled": 0, "rental_uris": {"android": "https://dc.lft.to/lastmile_qr_scan", "ios": "https://dc.lft.to/lastmile_qr_scan"}, "fusion_lon": 0.0, "lat": 38.92888, "bike_id": "e89e1333b11b3c8fb23ec7b3bac1acea", "type": "electric_scooter", "is_reserved": 0, "lon": -77.02309116666666}, {"fusion_lat": 0.0, "name": "8bd57a469dfa8e8e6f27f56fef28a505", "is_disabled": 0, "rental_uris": {"android": "https://dc.lft.to/lastmile_qr_scan", "ios": "https://dc.lft.to/lastmile_qr_scan"}, "fusion_lon": 0.0, "lat": 38.91290216666667, "bike_id": "8bd57a469dfa8e8e6f27f56fef28a505", "type": "electric_scooter", "is_reserved": 0, "lon": -77.03221233333333}, {"fusion_lat": 0.0, "name": "933e233c905409f26433bbe46f7025ae", "is_disabled": 0, "rental_uris": {"android": "https://dc.lft.to/lastmile_qr_scan", "ios": "https://dc.lft.to/lastmile_qr_scan"}, "fusion_lon": 0.0, "lat": 38.89717183333333, "bike_id": "933e233c905409f26433bbe46f7025ae", "type": "electric_scooter", "is_reserved": 0, "lon": -77.00794866666666}, {"fusion_lat": 0.0, "name": "121ed6f67cd4ea6007c888791dbd012a", "is_disabled": 0, "rental_uris": {"android": "https://dc.lft.to/lastmile_qr_scan", "ios": "https://dc.lft.to/lastmile_qr_scan"}, "fusion_lon": 0.0, "lat": 38.881768, "bike_id": "121ed6f67cd4ea6007c888791dbd012a", "type": "electric_scooter", "is_reserved": 0, "lon": -77.02813783333333}, {"fusion_lat": 0.0, "name": "af8c63a3dd10b1e125b6b50f0578f76d", "is_disabled": 0, "rental_uris": {"android": "https://dc.lft.to/lastmile_qr_scan", "ios": "https://dc.lft.to/lastmile_qr_scan"}, "fusion_lon": 0.0, "lat": 38.876599166666665, "bike_id": "af8c63a3dd10b1e125b6b50f0578f76d", "type": "electric_scooter", "is_reserved": 0, "lon": -77.0161195}, {"fusion_lat": 0.0, "name": "da2bf4a7b0b7265c3680f5af77a971a7", "is_disabled": 0, "rental_uris": {"android": "https://dc.lft.to/lastmile_qr_scan", "ios": "https://dc.lft.to/lastmile_qr_scan"}, "fusion_lon": 0.0, "lat": 38.90255783333333, "bike_id": "da2bf4a7b0b7265c3680f5af77a971a7", "type": "electric_scooter", "is_reserved": 0, "lon": -77.04354316666667}, {"fusion_lat": 0.0, "name": "37c9a378b547ca412f74ffa1c28746af", "is_disabled": 0, "rental_uris": {"android": "https://dc.lft.to/lastmile_qr_scan", "ios": "https://dc.lft.to/lastmile_qr_scan"}, "fusion_lon": 0.0, "lat": 38.912017666666664, "bike_id": "37c9a378b547ca412f74ffa1c28746af", "type": "electric_scooter", "is_reserved": 0, "lon": -77.038578}, {"fusion_lat": 0.0, "name": "188d358dc4ba93d9845145f4410d633d", "is_disabled": 0, "rental_uris": {"android": "https://dc.lft.to/lastmile_qr_scan", "ios": "https://dc.lft.to/lastmile_qr_scan"}, "fusion_lon": 0.0, "lat": 38.873053666666664, "bike_id": "188d358dc4ba93d9845145f4410d633d", "type": "electric_scooter", "is_reserved": 0, "lon": -77.00029633333334}, {"fusion_lat": 0.0, "name": "5d8affee7342ebc1d82dfef17caea1c9", "is_disabled": 0, "rental_uris": {"android": "https://dc.lft.to/lastmile_qr_scan", "ios": "https://dc.lft.to/lastmile_qr_scan"}, "fusion_lon": 0.0, "lat": 38.91703416666667, "bike_id": "5d8affee7342ebc1d82dfef17caea1c9", "type": "electric_scooter", "is_reserved": 0, "lon": -77.03595716666666}, {"fusion_lat": 0.0, "name": "e7e4967c05d3624af741fbfa20d02976", "is_disabled": 0, "rental_uris": {"android": "https://dc.lft.to/lastmile_qr_scan", "ios": "https://dc.lft.to/lastmile_qr_scan"}, "fusion_lon": 0.0, "lat": 38.919202166666665, "bike_id": "e7e4967c05d3624af741fbfa20d02976", "type": "electric_scooter", "is_reserved": 0, "lon": -77.00980583333333}, {"fusion_lat": 0.0, "name": "566843f2c0f90ba650778717a98e0f9a", "is_disabled": 0, "rental_uris": {"android": "https://dc.lft.to/lastmile_qr_scan", "ios": "https://dc.lft.to/lastmile_qr_scan"}, "fusion_lon": 0.0, "lat": 38.88744633333334, "bike_id": "566843f2c0f90ba650778717a98e0f9a", "type": "electric_scooter", "is_reserved": 0, "lon": -77.0284485}, {"fusion_lat": 0.0, "name": "b6a4614587eb701ebaccb3240650cf39", "is_disabled": 0, "rental_uris": {"android": "https://dc.lft.to/lastmile_qr_scan", "ios": "https://dc.lft.to/lastmile_qr_scan"}, "fusion_lon": 0.0, "lat": 38.95631016666667, "bike_id": "b6a4614587eb701ebaccb3240650cf39", "type": "electric_scooter", "is_reserved": 0, "lon": -77.09131116666667}, {"fusion_lat": 0.0, "name": "91a695331bacb275abc694543f969385", "is_disabled": 0, "rental_uris": {"android": "https://dc.lft.to/lastmile_qr_scan", "ios": "https://dc.lft.to/lastmile_qr_scan"}, "fusion_lon": 0.0, "lat": 38.87644216666666, "bike_id": "91a695331bacb275abc694543f969385", "type": "electric_scooter", "is_reserved": 0, "lon": -77.015679}, {"fusion_lat": 0.0, "name": "36c066f8b82f041787a2382054ccf6d4", "is_disabled": 0, "rental_uris": {"android": "https://dc.lft.to/lastmile_qr_scan", "ios": "https://dc.lft.to/lastmile_qr_scan"}, "fusion_lon": 0.0, "lat": 38.90640766666667, "bike_id": "36c066f8b82f041787a2382054ccf6d4", "type": "electric_scooter", "is_reserved": 0, "lon": -77.010378}, {"fusion_lat": 0.0, "name": "858ad63589f4f1f99712f3f7e110f97c", "is_disabled": 0, "rental_uris": {"android": "https://dc.lft.to/lastmile_qr_scan", "ios": "https://dc.lft.to/lastmile_qr_scan"}, "fusion_lon": 0.0, "lat": 38.864505666666666, "bike_id": "858ad63589f4f1f99712f3f7e110f97c", "type": "electric_bike", "is_reserved": 0, "lon": -77.10684283333333}, {"fusion_lat": 0.0, "name": "bdc68c48d658ecd7bb26d613863a5d73", "is_disabled": 0, "rental_uris": {"android": "https://dc.lft.to/lastmile_qr_scan", "ios": "https://dc.lft.to/lastmile_qr_scan"}, "fusion_lon": 0.0, "lat": 38.897327, "bike_id": "bdc68c48d658ecd7bb26d613863a5d73", "type": "electric_scooter", "is_reserved": 0, "lon": -77.049891}, {"fusion_lat": 0.0, "name": "f3eaac4027bf8871f2d9afd709a7eb35", "is_disabled": 0, "rental_uris": {"android": "https://dc.lft.to/lastmile_qr_scan", "ios": "https://dc.lft.to/lastmile_qr_scan"}, "fusion_lon": 0.0, "lat": 38.903847999999996, "bike_id": "f3eaac4027bf8871f2d9afd709a7eb35", "type": "electric_scooter", "is_reserved": 0, "lon": -77.0443155}, {"fusion_lat": 0.0, "name": "9e3ad4da66ff7f11926a3028bca021f6", "is_disabled": 0, "rental_uris": {"android": "https://dc.lft.to/lastmile_qr_scan", "ios": "https://dc.lft.to/lastmile_qr_scan"}, "fusion_lon": 0.0, "lat": 38.84283333333333, "bike_id": "9e3ad4da66ff7f11926a3028bca021f6", "type": "electric_bike", "is_reserved": 0, "lon": -77.045068}, {"fusion_lat": 0.0, "name": "731a14e06ab56c05d3e697a2d1750c9d", "is_disabled": 0, "rental_uris": {"android": "https://dc.lft.to/lastmile_qr_scan", "ios": "https://dc.lft.to/lastmile_qr_scan"}, "fusion_lon": 0.0, "lat": 38.91567416666667, "bike_id": "731a14e06ab56c05d3e697a2d1750c9d", "type": "electric_scooter", "is_reserved": 0, "lon": -77.02391783333333}, {"fusion_lat": 0.0, "name": "98cafeda70cb176605ff6b2470ee8697", "is_disabled": 0, "rental_uris": {"android": "https://dc.lft.to/lastmile_qr_scan", "ios": "https://dc.lft.to/lastmile_qr_scan"}, "fusion_lon": 0.0, "lat": 38.900165, "bike_id": "98cafeda70cb176605ff6b2470ee8697", "type": "electric_scooter", "is_reserved": 0, "lon": -77.00681533333334}, {"fusion_lat": 0.0, "name": "0c59ad5ff605f556d86e7e2ad740eeb2", "is_disabled": 0, "rental_uris": {"android": "https://dc.lft.to/lastmile_qr_scan", "ios": "https://dc.lft.to/lastmile_qr_scan"}, "fusion_lon": 0.0, "lat": 38.92829116666667, "bike_id": "0c59ad5ff605f556d86e7e2ad740eeb2", "type": "electric_scooter", "is_reserved": 0, "lon": -77.0328975}, {"fusion_lat": 0.0, "name": "62ccf4d518e2dba0c86185c72a72c095", "is_disabled": 0, "rental_uris": {"android": "https://dc.lft.to/lastmile_qr_scan", "ios": "https://dc.lft.to/lastmile_qr_scan"}, "fusion_lon": 0.0, "lat": 38.924764333333336, "bike_id": "62ccf4d518e2dba0c86185c72a72c095", "type": "electric_scooter", "is_reserved": 0, "lon": -77.03911783333334}, {"fusion_lat": 0.0, "name": "c360b7ea5d95edef9c95e61bd609d8ca", "is_disabled": 0, "rental_uris": {"android": "https://dc.lft.to/lastmile_qr_scan", "ios": "https://dc.lft.to/lastmile_qr_scan"}, "fusion_lon": 0.0, "lat": 38.9345805, "bike_id": "c360b7ea5d95edef9c95e61bd609d8ca", "type": "electric_scooter", "is_reserved": 0, "lon": -77.04121333333333}, {"fusion_lat": 0.0, "name": "47b38d870d008b88c14079349438afa4", "is_disabled": 0, "rental_uris": {"android": "https://dc.lft.to/lastmile_qr_scan", "ios": "https://dc.lft.to/lastmile_qr_scan"}, "fusion_lon": 0.0, "lat": 38.884887166666665, "bike_id": "47b38d870d008b88c14079349438afa4", "type": "electric_scooter", "is_reserved": 0, "lon": -77.00708616666667}, {"fusion_lat": 0.0, "name": "f2bdb0ea21cbf438c1e201eac05562e1", "is_disabled": 0, "rental_uris": {"android": "https://dc.lft.to/lastmile_qr_scan", "ios": "https://dc.lft.to/lastmile_qr_scan"}, "fusion_lon": 0.0, "lat": 38.913645833333334, "bike_id": "f2bdb0ea21cbf438c1e201eac05562e1", "type": "electric_scooter", "is_reserved": 0, "lon": -77.0456}, {"fusion_lat": 0.0, "name": "df778155048204efc38cd41d82836fba", "is_disabled": 0, "rental_uris": {"android": "https://dc.lft.to/lastmile_qr_scan", "ios": "https://dc.lft.to/lastmile_qr_scan"}, "fusion_lon": 0.0, "lat": 38.937033, "bike_id": "df778155048204efc38cd41d82836fba", "type": "electric_scooter", "is_reserved": 0, "lon": -77.0328285}, {"fusion_lat": 0.0, "name": "43dec8eea8e2717c58bbad751fa33704", "is_disabled": 0, "rental_uris": {"android": "https://dc.lft.to/lastmile_qr_scan", "ios": "https://dc.lft.to/lastmile_qr_scan"}, "fusion_lon": 0.0, "lat": 38.89736333333333, "bike_id": "43dec8eea8e2717c58bbad751fa33704", "type": "electric_scooter", "is_reserved": 0, "lon": -77.043378}, {"fusion_lat": 0.0, "name": "2c5a3515739e66ac23d54b1bad7a199f", "is_disabled": 0, "rental_uris": {"android": "https://dc.lft.to/lastmile_qr_scan", "ios": "https://dc.lft.to/lastmile_qr_scan"}, "fusion_lon": 0.0, "lat": 38.92243966666667, "bike_id": "2c5a3515739e66ac23d54b1bad7a199f", "type": "electric_scooter", "is_reserved": 0, "lon": -77.0420755}, {"fusion_lat": 0.0, "name": "b5c2206c09b28bd00dde51a7c2b5250f", "is_disabled": 0, "rental_uris": {"android": "https://dc.lft.to/lastmile_qr_scan", "ios": "https://dc.lft.to/lastmile_qr_scan"}, "fusion_lon": 0.0, "lat": 38.86682733333333, "bike_id": "b5c2206c09b28bd00dde51a7c2b5250f", "type": "electric_scooter", "is_reserved": 0, "lon": -76.98564466666667}, {"fusion_lat": 0.0, "name": "5cb18781a776992167369bbfb4846986", "is_disabled": 0, "rental_uris": {"android": "https://dc.lft.to/lastmile_qr_scan", "ios": "https://dc.lft.to/lastmile_qr_scan"}, "fusion_lon": 0.0, "lat": 38.91405433333333, "bike_id": "5cb18781a776992167369bbfb4846986", "type": "electric_scooter", "is_reserved": 0, "lon": -77.0266295}, {"fusion_lat": 0.0, "name": "817f511e334ab7af6e3f3ad2a973ef35", "is_disabled": 0, "rental_uris": {"android": "https://dc.lft.to/lastmile_qr_scan", "ios": "https://dc.lft.to/lastmile_qr_scan"}, "fusion_lon": 0.0, "lat": 38.89769483333333, "bike_id": "817f511e334ab7af6e3f3ad2a973ef35", "type": "electric_scooter", "is_reserved": 0, "lon": -76.98553483333333}, {"fusion_lat": 0.0, "name": "2279b25bf017b46df6d38101bb3fe930", "is_disabled": 0, "rental_uris": {"android": "https://dc.lft.to/lastmile_qr_scan", "ios": "https://dc.lft.to/lastmile_qr_scan"}, "fusion_lon": 0.0, "lat": 38.89834833333333, "bike_id": "2279b25bf017b46df6d38101bb3fe930", "type": "electric_scooter", "is_reserved": 0, "lon": -76.9318025}, {"fusion_lat": 0.0, "name": "f3b61b5e6cf11853935f1cb27a3c31c7", "is_disabled": 0, "rental_uris": {"android": "https://dc.lft.to/lastmile_qr_scan", "ios": "https://dc.lft.to/lastmile_qr_scan"}, "fusion_lon": 0.0, "lat": 38.9465945, "bike_id": "f3b61b5e6cf11853935f1cb27a3c31c7", "type": "electric_scooter", "is_reserved": 0, "lon": -77.06467933333333}, {"fusion_lat": 0.0, "name": "adce5b34b3e844b7711c0e417233d6d0", "is_disabled": 0, "rental_uris": {"android": "https://dc.lft.to/lastmile_qr_scan", "ios": "https://dc.lft.to/lastmile_qr_scan"}, "fusion_lon": 0.0, "lat": 38.9155235, "bike_id": "adce5b34b3e844b7711c0e417233d6d0", "type": "electric_scooter", "is_reserved": 0, "lon": -77.03172966666666}, {"fusion_lat": 0.0, "name": "db9c2d74833bb554fd79b007f8c5d274", "is_disabled": 0, "rental_uris": {"android": "https://dc.lft.to/lastmile_qr_scan", "ios": "https://dc.lft.to/lastmile_qr_scan"}, "fusion_lon": 0.0, "lat": 38.840556, "bike_id": "db9c2d74833bb554fd79b007f8c5d274", "type": "electric_scooter", "is_reserved": 0, "lon": -76.9766695}, {"fusion_lat": 0.0, "name": "9c6f92158d76e88949c3eb63a8a3c30a", "is_disabled": 0, "rental_uris": {"android": "https://dc.lft.to/lastmile_qr_scan", "ios": "https://dc.lft.to/lastmile_qr_scan"}, "fusion_lon": 0.0, "lat": 38.9499215, "bike_id": "9c6f92158d76e88949c3eb63a8a3c30a", "type": "electric_scooter", "is_reserved": 0, "lon": -77.02703716666667}, {"fusion_lat": 0.0, "name": "a73f3b81a96f1b2a6a1e153fbbe90915", "is_disabled": 0, "rental_uris": {"android": "https://dc.lft.to/lastmile_qr_scan", "ios": "https://dc.lft.to/lastmile_qr_scan"}, "fusion_lon": 0.0, "lat": 38.899059666666666, "bike_id": "a73f3b81a96f1b2a6a1e153fbbe90915", "type": "electric_scooter", "is_reserved": 0, "lon": -77.003566}, {"fusion_lat": 0.0, "name": "9cb3db1772a3c02af35a66e2e53c7358", "is_disabled": 0, "rental_uris": {"android": "https://dc.lft.to/lastmile_qr_scan", "ios": "https://dc.lft.to/lastmile_qr_scan"}, "fusion_lon": 0.0, "lat": 38.91490833333334, "bike_id": "9cb3db1772a3c02af35a66e2e53c7358", "type": "electric_scooter", "is_reserved": 0, "lon": -77.04569616666667}, {"fusion_lat": 0.0, "name": "263a343eccb57f28753500010b4b8891", "is_disabled": 0, "rental_uris": {"android": "https://dc.lft.to/lastmile_qr_scan", "ios": "https://dc.lft.to/lastmile_qr_scan"}, "fusion_lon": 0.0, "lat": 38.920766, "bike_id": "263a343eccb57f28753500010b4b8891", "type": "electric_scooter", "is_reserved": 0, "lon": -77.02521083333333}, {"fusion_lat": 0.0, "name": "24e6008943bbbb0713f4833732935013", "is_disabled": 0, "rental_uris": {"android": "https://dc.lft.to/lastmile_qr_scan", "ios": "https://dc.lft.to/lastmile_qr_scan"}, "fusion_lon": 0.0, "lat": 38.9180465, "bike_id": "24e6008943bbbb0713f4833732935013", "type": "electric_scooter", "is_reserved": 0, "lon": -77.03338166666667}, {"fusion_lat": 0.0, "name": "be7bb62dfed6dfd5dc04570a8e46ab7d", "is_disabled": 0, "rental_uris": {"android": "https://dc.lft.to/lastmile_qr_scan", "ios": "https://dc.lft.to/lastmile_qr_scan"}, "fusion_lon": 0.0, "lat": 38.90732216666667, "bike_id": "be7bb62dfed6dfd5dc04570a8e46ab7d", "type": "electric_scooter", "is_reserved": 0, "lon": -77.04348716666667}, {"fusion_lat": 0.0, "name": "f8f7c31c4250e38267f2f2340d561a90", "is_disabled": 0, "rental_uris": {"android": "https://dc.lft.to/lastmile_qr_scan", "ios": "https://dc.lft.to/lastmile_qr_scan"}, "fusion_lon": 0.0, "lat": 38.896485, "bike_id": "f8f7c31c4250e38267f2f2340d561a90", "type": "electric_scooter", "is_reserved": 0, "lon": -77.03334416666667}, {"fusion_lat": 0.0, "name": "40d42bd803592148d9db4e7a7a85d015", "is_disabled": 0, "rental_uris": {"android": "https://dc.lft.to/lastmile_qr_scan", "ios": "https://dc.lft.to/lastmile_qr_scan"}, "fusion_lon": 0.0, "lat": 38.89961066666667, "bike_id": "40d42bd803592148d9db4e7a7a85d015", "type": "electric_scooter", "is_reserved": 0, "lon": -77.040655}, {"fusion_lat": 0.0, "name": "bfb1da8eb7f2b469e07cbbd3ce33c6af", "is_disabled": 0, "rental_uris": {"android": "https://dc.lft.to/lastmile_qr_scan", "ios": "https://dc.lft.to/lastmile_qr_scan"}, "fusion_lon": 0.0, "lat": 38.926159166666665, "bike_id": "bfb1da8eb7f2b469e07cbbd3ce33c6af", "type": "electric_scooter", "is_reserved": 0, "lon": -77.0221015}, {"fusion_lat": 0.0, "name": "f071824b13407816d009e099a2e4e370", "is_disabled": 0, "rental_uris": {"android": "https://dc.lft.to/lastmile_qr_scan", "ios": "https://dc.lft.to/lastmile_qr_scan"}, "fusion_lon": 0.0, "lat": 38.91693766666667, "bike_id": "f071824b13407816d009e099a2e4e370", "type": "electric_scooter", "is_reserved": 0, "lon": -77.0117335}, {"fusion_lat": 0.0, "name": "7a6cc41fa15b25b4b0fc71f7d240d22c", "is_disabled": 0, "rental_uris": {"android": "https://dc.lft.to/lastmile_qr_scan", "ios": "https://dc.lft.to/lastmile_qr_scan"}, "fusion_lon": 0.0, "lat": 38.92481566666667, "bike_id": "7a6cc41fa15b25b4b0fc71f7d240d22c", "type": "electric_scooter", "is_reserved": 0, "lon": -77.0276}, {"fusion_lat": 0.0, "name": "5928526cd9f025f2913c497ede60f925", "is_disabled": 0, "rental_uris": {"android": "https://dc.lft.to/lastmile_qr_scan", "ios": "https://dc.lft.to/lastmile_qr_scan"}, "fusion_lon": 0.0, "lat": 38.84586133333333, "bike_id": "5928526cd9f025f2913c497ede60f925", "type": "electric_bike", "is_reserved": 0, "lon": -76.98167283333333}, {"fusion_lat": 0.0, "name": "36f427bd0b9b9eb8376d05ad22f026c0", "is_disabled": 0, "rental_uris": {"android": "https://dc.lft.to/lastmile_qr_scan", "ios": "https://dc.lft.to/lastmile_qr_scan"}, "fusion_lon": 0.0, "lat": 38.904105333333334, "bike_id": "36f427bd0b9b9eb8376d05ad22f026c0", "type": "electric_scooter", "is_reserved": 0, "lon": -76.97329933333333}, {"fusion_lat": 0.0, "name": "496adecb79474780d2102b56dc27cd82", "is_disabled": 0, "rental_uris": {"android": "https://dc.lft.to/lastmile_qr_scan", "ios": "https://dc.lft.to/lastmile_qr_scan"}, "fusion_lon": 0.0, "lat": 38.8976415, "bike_id": "496adecb79474780d2102b56dc27cd82", "type": "electric_scooter", "is_reserved": 0, "lon": -77.0301905}, {"fusion_lat": 0.0, "name": "19e00d839170f49ef5b2598d0c5318d9", "is_disabled": 0, "rental_uris": {"android": "https://dc.lft.to/lastmile_qr_scan", "ios": "https://dc.lft.to/lastmile_qr_scan"}, "fusion_lon": 0.0, "lat": 38.912242, "bike_id": "19e00d839170f49ef5b2598d0c5318d9", "type": "electric_scooter", "is_reserved": 0, "lon": -77.037848}, {"fusion_lat": 0.0, "name": "93008521cf51ea9addc252a5b0d9f3f5", "is_disabled": 0, "rental_uris": {"android": "https://dc.lft.to/lastmile_qr_scan", "ios": "https://dc.lft.to/lastmile_qr_scan"}, "fusion_lon": 0.0, "lat": 38.959329833333335, "bike_id": "93008521cf51ea9addc252a5b0d9f3f5", "type": "electric_scooter", "is_reserved": 0, "lon": -77.03119383333333}, {"fusion_lat": 0.0, "name": "d652e16af67901e8ed70a0c4dff2ccc6", "is_disabled": 0, "rental_uris": {"android": "https://dc.lft.to/lastmile_qr_scan", "ios": "https://dc.lft.to/lastmile_qr_scan"}, "fusion_lon": 0.0, "lat": 38.9182495, "bike_id": "d652e16af67901e8ed70a0c4dff2ccc6", "type": "electric_scooter", "is_reserved": 0, "lon": -77.04173166666666}, {"fusion_lat": 0.0, "name": "f38105a7f66e0c2b4d42ca27e61bedc7", "is_disabled": 0, "rental_uris": {"android": "https://dc.lft.to/lastmile_qr_scan", "ios": "https://dc.lft.to/lastmile_qr_scan"}, "fusion_lon": 0.0, "lat": 38.9097915, "bike_id": "f38105a7f66e0c2b4d42ca27e61bedc7", "type": "electric_scooter", "is_reserved": 0, "lon": -77.02814816666667}, {"fusion_lat": 0.0, "name": "2fa498acef6d226d1b22cd9b2d6c6fcb", "is_disabled": 0, "rental_uris": {"android": "https://dc.lft.to/lastmile_qr_scan", "ios": "https://dc.lft.to/lastmile_qr_scan"}, "fusion_lon": 0.0, "lat": 38.91477733333333, "bike_id": "2fa498acef6d226d1b22cd9b2d6c6fcb", "type": "electric_bike", "is_reserved": 0, "lon": -77.010154}, {"fusion_lat": 0.0, "name": "f47ffeb7485679f286cbe815875ea2cb", "is_disabled": 0, "rental_uris": {"android": "https://dc.lft.to/lastmile_qr_scan", "ios": "https://dc.lft.to/lastmile_qr_scan"}, "fusion_lon": 0.0, "lat": 38.9482425, "bike_id": "f47ffeb7485679f286cbe815875ea2cb", "type": "electric_scooter", "is_reserved": 0, "lon": -77.07998966666666}, {"fusion_lat": 0.0, "name": "a8426fd58e648cb97ba34b2c06e49436", "is_disabled": 0, "rental_uris": {"android": "https://dc.lft.to/lastmile_qr_scan", "ios": "https://dc.lft.to/lastmile_qr_scan"}, "fusion_lon": 0.0, "lat": 38.90401633333333, "bike_id": "a8426fd58e648cb97ba34b2c06e49436", "type": "electric_scooter", "is_reserved": 0, "lon": -77.0436005}, {"fusion_lat": 0.0, "name": "608d276251154715d1be57fe5d245a8c", "is_disabled": 0, "rental_uris": {"android": "https://dc.lft.to/lastmile_qr_scan", "ios": "https://dc.lft.to/lastmile_qr_scan"}, "fusion_lon": 0.0, "lat": 38.91695566666667, "bike_id": "608d276251154715d1be57fe5d245a8c", "type": "electric_scooter", "is_reserved": 0, "lon": -77.0259835}, {"fusion_lat": 0.0, "name": "00dfdb953c232daee029189fb65e65c3", "is_disabled": 0, "rental_uris": {"android": "https://dc.lft.to/lastmile_qr_scan", "ios": "https://dc.lft.to/lastmile_qr_scan"}, "fusion_lon": 0.0, "lat": 38.9140665, "bike_id": "00dfdb953c232daee029189fb65e65c3", "type": "electric_scooter", "is_reserved": 0, "lon": -77.03908433333334}, {"fusion_lat": 0.0, "name": "fbd3a0ec1b24845e9cc9b3838ea4fe80", "is_disabled": 0, "rental_uris": {"android": "https://dc.lft.to/lastmile_qr_scan", "ios": "https://dc.lft.to/lastmile_qr_scan"}, "fusion_lon": 0.0, "lat": 38.91889066666667, "bike_id": "fbd3a0ec1b24845e9cc9b3838ea4fe80", "type": "electric_scooter", "is_reserved": 0, "lon": -77.02966933333333}, {"fusion_lat": 0.0, "name": "4003c6afbdceae89667eecfbf3af65e2", "is_disabled": 0, "rental_uris": {"android": "https://dc.lft.to/lastmile_qr_scan", "ios": "https://dc.lft.to/lastmile_qr_scan"}, "fusion_lon": 0.0, "lat": 38.87493716666667, "bike_id": "4003c6afbdceae89667eecfbf3af65e2", "type": "electric_bike", "is_reserved": 0, "lon": -77.21122866666667}, {"fusion_lat": 0.0, "name": "0d8478d53c273031b3ed7c1b18810247", "is_disabled": 0, "rental_uris": {"android": "https://dc.lft.to/lastmile_qr_scan", "ios": "https://dc.lft.to/lastmile_qr_scan"}, "fusion_lon": 0.0, "lat": 38.94441966666667, "bike_id": "0d8478d53c273031b3ed7c1b18810247", "type": "electric_scooter", "is_reserved": 0, "lon": -77.06350083333334}, {"fusion_lat": 0.0, "name": "08dbf76a0e80ae5ea1be07e67ac6c195", "is_disabled": 0, "rental_uris": {"android": "https://dc.lft.to/lastmile_qr_scan", "ios": "https://dc.lft.to/lastmile_qr_scan"}, "fusion_lon": 0.0, "lat": 38.896137333333336, "bike_id": "08dbf76a0e80ae5ea1be07e67ac6c195", "type": "electric_bike", "is_reserved": 0, "lon": -76.90737283333333}, {"fusion_lat": 0.0, "name": "015c8dd417cf31a6bc0c9e5ffb533bd9", "is_disabled": 0, "rental_uris": {"android": "https://dc.lft.to/lastmile_qr_scan", "ios": "https://dc.lft.to/lastmile_qr_scan"}, "fusion_lon": 0.0, "lat": 38.9073185, "bike_id": "015c8dd417cf31a6bc0c9e5ffb533bd9", "type": "electric_scooter", "is_reserved": 0, "lon": -77.02972133333333}, {"fusion_lat": 0.0, "name": "abb5e67bd404b671096d99eebbf67376", "is_disabled": 0, "rental_uris": {"android": "https://dc.lft.to/lastmile_qr_scan", "ios": "https://dc.lft.to/lastmile_qr_scan"}, "fusion_lon": 0.0, "lat": 38.892244166666664, "bike_id": "abb5e67bd404b671096d99eebbf67376", "type": "electric_scooter", "is_reserved": 0, "lon": -77.04310783333334}, {"fusion_lat": 0.0, "name": "b6e1a440d6aa433baac627ca168ae35a", "is_disabled": 0, "rental_uris": {"android": "https://dc.lft.to/lastmile_qr_scan", "ios": "https://dc.lft.to/lastmile_qr_scan"}, "fusion_lon": 0.0, "lat": 38.84614333333333, "bike_id": "b6e1a440d6aa433baac627ca168ae35a", "type": "electric_bike", "is_reserved": 0, "lon": -76.96907283333333}, {"fusion_lat": 0.0, "name": "1f960221ea650799a361fa8cd2881836", "is_disabled": 0, "rental_uris": {"android": "https://dc.lft.to/lastmile_qr_scan", "ios": "https://dc.lft.to/lastmile_qr_scan"}, "fusion_lon": 0.0, "lat": 38.9045775, "bike_id": "1f960221ea650799a361fa8cd2881836", "type": "electric_scooter", "is_reserved": 0, "lon": -77.03135766666666}, {"fusion_lat": 0.0, "name": "52f18c1999644fd4dd4a4ee5b4e62c9d", "is_disabled": 0, "rental_uris": {"android": "https://dc.lft.to/lastmile_qr_scan", "ios": "https://dc.lft.to/lastmile_qr_scan"}, "fusion_lon": 0.0, "lat": 38.9051435, "bike_id": "52f18c1999644fd4dd4a4ee5b4e62c9d", "type": "electric_scooter", "is_reserved": 0, "lon": -77.051323}, {"fusion_lat": 0.0, "name": "8a990b1c3f8b280842845213f0e4c6ef", "is_disabled": 0, "rental_uris": {"android": "https://dc.lft.to/lastmile_qr_scan", "ios": "https://dc.lft.to/lastmile_qr_scan"}, "fusion_lon": 0.0, "lat": 38.9022735, "bike_id": "8a990b1c3f8b280842845213f0e4c6ef", "type": "electric_scooter", "is_reserved": 0, "lon": -77.04754183333333}, {"fusion_lat": 0.0, "name": "9b32a80ef7f6d34e43975b18cabd55e4", "is_disabled": 0, "rental_uris": {"android": "https://dc.lft.to/lastmile_qr_scan", "ios": "https://dc.lft.to/lastmile_qr_scan"}, "fusion_lon": 0.0, "lat": 38.856094, "bike_id": "9b32a80ef7f6d34e43975b18cabd55e4", "type": "electric_scooter", "is_reserved": 0, "lon": -76.97272233333334}, {"fusion_lat": 0.0, "name": "dcd7b8d84d0e3fc7a980292e2739fc2b", "is_disabled": 0, "rental_uris": {"android": "https://dc.lft.to/lastmile_qr_scan", "ios": "https://dc.lft.to/lastmile_qr_scan"}, "fusion_lon": 0.0, "lat": 38.89247983333333, "bike_id": "dcd7b8d84d0e3fc7a980292e2739fc2b", "type": "electric_scooter", "is_reserved": 0, "lon": -77.04655483333333}, {"fusion_lat": 0.0, "name": "8fd2a4b4dcfe5d338854ffcdeba81bff", "is_disabled": 0, "rental_uris": {"android": "https://dc.lft.to/lastmile_qr_scan", "ios": "https://dc.lft.to/lastmile_qr_scan"}, "fusion_lon": 0.0, "lat": 38.89241066666666, "bike_id": "8fd2a4b4dcfe5d338854ffcdeba81bff", "type": "electric_scooter", "is_reserved": 0, "lon": -77.0487545}, {"fusion_lat": 0.0, "name": "4e9ea56c30c8a5f5a22306150b36c354", "is_disabled": 0, "rental_uris": {"android": "https://dc.lft.to/lastmile_qr_scan", "ios": "https://dc.lft.to/lastmile_qr_scan"}, "fusion_lon": 0.0, "lat": 38.91485266666667, "bike_id": "4e9ea56c30c8a5f5a22306150b36c354", "type": "electric_scooter", "is_reserved": 0, "lon": -77.0229655}, {"fusion_lat": 0.0, "name": "ef15fbd586562be0211729e664b2feed", "is_disabled": 0, "rental_uris": {"android": "https://dc.lft.to/lastmile_qr_scan", "ios": "https://dc.lft.to/lastmile_qr_scan"}, "fusion_lon": 0.0, "lat": 38.91604433333333, "bike_id": "ef15fbd586562be0211729e664b2feed", "type": "electric_scooter", "is_reserved": 0, "lon": -77.03131616666667}, {"fusion_lat": 0.0, "name": "c12ccd5e55e42155ef32e7450551256e", "is_disabled": 0, "rental_uris": {"android": "https://dc.lft.to/lastmile_qr_scan", "ios": "https://dc.lft.to/lastmile_qr_scan"}, "fusion_lon": 0.0, "lat": 38.900271000000004, "bike_id": "c12ccd5e55e42155ef32e7450551256e", "type": "electric_scooter", "is_reserved": 0, "lon": -77.03486083333334}, {"fusion_lat": 0.0, "name": "4bc3d35c8650deff7dfb11cc7315144b", "is_disabled": 0, "rental_uris": {"android": "https://dc.lft.to/lastmile_qr_scan", "ios": "https://dc.lft.to/lastmile_qr_scan"}, "fusion_lon": 0.0, "lat": 38.8852915, "bike_id": "4bc3d35c8650deff7dfb11cc7315144b", "type": "electric_scooter", "is_reserved": 0, "lon": -76.92919783333333}, {"fusion_lat": 0.0, "name": "40cc2c4eb4e1e467e04ab3e55c6e633b", "is_disabled": 0, "rental_uris": {"android": "https://dc.lft.to/lastmile_qr_scan", "ios": "https://dc.lft.to/lastmile_qr_scan"}, "fusion_lon": 0.0, "lat": 38.875771, "bike_id": "40cc2c4eb4e1e467e04ab3e55c6e633b", "type": "electric_bike", "is_reserved": 0, "lon": -77.23407616666667}, {"fusion_lat": 0.0, "name": "db16a0669f75e67016c0c951fb652656", "is_disabled": 0, "rental_uris": {"android": "https://dc.lft.to/lastmile_qr_scan", "ios": "https://dc.lft.to/lastmile_qr_scan"}, "fusion_lon": 0.0, "lat": 38.89843183333333, "bike_id": "db16a0669f75e67016c0c951fb652656", "type": "electric_scooter", "is_reserved": 0, "lon": -77.00742416666667}, {"fusion_lat": 0.0, "name": "bb3e1b8622e1c605e4d26de2ed7e26c8", "is_disabled": 0, "rental_uris": {"android": "https://dc.lft.to/lastmile_qr_scan", "ios": "https://dc.lft.to/lastmile_qr_scan"}, "fusion_lon": 0.0, "lat": 38.89226216666667, "bike_id": "bb3e1b8622e1c605e4d26de2ed7e26c8", "type": "electric_scooter", "is_reserved": 0, "lon": -77.03981883333333}, {"fusion_lat": 0.0, "name": "4bc3d5ecdf2fec0f98208abad2169c2a", "is_disabled": 0, "rental_uris": {"android": "https://dc.lft.to/lastmile_qr_scan", "ios": "https://dc.lft.to/lastmile_qr_scan"}, "fusion_lon": 0.0, "lat": 38.918176333333335, "bike_id": "4bc3d5ecdf2fec0f98208abad2169c2a", "type": "electric_scooter", "is_reserved": 0, "lon": -77.0400115}, {"fusion_lat": 0.0, "name": "c3c828b23755815d9ab00decadb9ffa7", "is_disabled": 0, "rental_uris": {"android": "https://dc.lft.to/lastmile_qr_scan", "ios": "https://dc.lft.to/lastmile_qr_scan"}, "fusion_lon": 0.0, "lat": 38.91882533333333, "bike_id": "c3c828b23755815d9ab00decadb9ffa7", "type": "electric_scooter", "is_reserved": 0, "lon": -77.04831016666667}, {"fusion_lat": 0.0, "name": "75973fa8f1c5261212185f069682184f", "is_disabled": 0, "rental_uris": {"android": "https://dc.lft.to/lastmile_qr_scan", "ios": "https://dc.lft.to/lastmile_qr_scan"}, "fusion_lon": 0.0, "lat": 38.9077575, "bike_id": "75973fa8f1c5261212185f069682184f", "type": "electric_scooter", "is_reserved": 0, "lon": -77.04355683333333}, {"fusion_lat": 0.0, "name": "556a64485cbfa26128b29c653acbb446", "is_disabled": 0, "rental_uris": {"android": "https://dc.lft.to/lastmile_qr_scan", "ios": "https://dc.lft.to/lastmile_qr_scan"}, "fusion_lon": 0.0, "lat": 38.92405216666667, "bike_id": "556a64485cbfa26128b29c653acbb446", "type": "electric_scooter", "is_reserved": 0, "lon": -77.02984833333333},