{"data": {"bikes": [{"lat": 38.9592535, "is_disabled": 0, "type": "electric_bike", "lon": -77.0312015, "bike_id": "4344f2d5820951883f5a209598f6c8ce", "fusion_lat": 0.0, "name": "4344f2d5820951883f5a209598f6c8ce", "is_reserved": 0, "rental_uris": {"android": "https://dc.lft.to/lastmile_qr_scan", "ios": "https://dc.lft.to/lastmile_qr_scan"}, "fusion_lon": 0.0}, {"lat": 38.908614666666665, "is_disabled": 0, "type": "electric_bike", "lon": -77.080769, "bike_id": "566734af91d3aa1dfd1d25a03071fe44", "fusion_lat": 0.0, "name": "566734af91d3aa1dfd1d25a03071fe44", "is_reserved": 0, "rental_uris": {"android": "https://dc.lft.to/lastmile_qr_scan", "ios": "https://dc.lft.to/lastmile_qr_scan"}, "fusion_lon": 0.0}, {"lat": 38.91721833333333, "is_disabled": 0, "type": "electric_scooter", "lon": -77.04104, "bike_id": "8b2c9433ee3296bdea32dafeb7e29a19", "fusion_lat": 0.0, "name": "8b2c9433ee3296bdea32dafeb7e29a19", "is_reserved": 0, "rental_uris": {"android": "https://dc.lft.to/lastmile_qr_scan", "ios": "https://dc.lft.to/lastmile_qr_scan"}, "fusion_lon": 0.0}, {"lat": 38.91987816666666, "is_disabled": 0, "type": "electric_scooter", "lon": -76.97306316666666, "bike_id": "0c2bbf27f765e9f98fc3563bf657eea2", "fusion_lat": 0.0, "name": "0c2bbf27f765e9f98fc3563bf657eea2", "is_reserved": 0, "rental_uris": {"android": "https://dc.lft.to/lastmile_qr_scan", "ios": "https://dc.lft.to/lastmile_qr_scan"}, "fusion_lon": 0.0}, {"lat": 38.923464833333334, "is_disabled": 0, "type": "electric_scooter", "lon": -77.03366016666666, "bike_id": "997c0b7fd4cdfc4961bc411d5e096952", "fusion_lat": 0.0, "name": "997c0b7fd4cdfc4961bc411d5e096952", "is_reserved": 0, "rental_uris": {"android": "https://dc.lft.to/lastmile_qr_scan", "ios": "https://dc.lft.to/lastmile_qr_scan"}, "fusion_lon": 0.0}, {"lat": 38.884763, "is_disabled": 0, "type": "electric_scooter", "lon": -76.992662, "bike_id": "963b6cc6175b40caa2f2359c2064b4e9", "fusion_lat": 0.0, "name": "963b6cc6175b40caa2f2359c2064b4e9", "is_reserved": 0, "rental_uris": {"android": "https://dc.lft.to/lastmile_qr_scan", "ios": "https://dc.lft.to/lastmile_qr_scan"}, "fusion_lon": 0.0}, {"lat": 38.880842, "is_disabled": 0, "type": "electric_scooter", "lon": -76.98531333333334, "bike_id": "ea9f87d25fb4860536df64ca7a816b77", "fusion_lat": 0.0, "name": "ea9f87d25fb4860536df64ca7a816b77", "is_reserved": 0, "rental_uris": {"android": "https://dc.lft.to/lastmile_qr_scan", "ios": "https://dc.lft.to/lastmile_qr_scan"}, "fusion_lon": 0.0}, {"lat": 38.9507275, "is_disabled": 0, "type": "electric_scooter", "lon": -77.00878616666667, "bike_id": "5456f220183528357d7c8521017f1741", "fusion_lat": 0.0, "name": "5456f220183528357d7c8521017f1741", "is_reserved": 0, "rental_uris": {"android": "https://dc.lft.to/lastmile_qr_scan", "ios": "https://dc.lft.to/lastmile_qr_scan"}, "fusion_lon": 0.0}, {"lat": 38.87576883333333, "is_disabled": 0, "type": "electric_scooter", "lon": -77.01328266666667, "bike_id": "c6bd05dba3536660309e449856aba16c", "fusion_lat": 0.0, "name": "c6bd05dba3536660309e449856aba16c", "is_reserved": 0, "rental_uris": {"android": "https://dc.lft.to/lastmile_qr_scan", "ios": "https://dc.lft.to/lastmile_qr_scan"}, "fusion_lon": 0.0}, {"lat": 38.9602635, "is_disabled": 0, "type": "electric_bike", "lon": -77.0173035, "bike_id": "8e800d09bbe78b50eb1da7965379bb34", "fusion_lat": 0.0, "name": "8e800d09bbe78b50eb1da7965379bb34", "is_reserved": 0, "rental_uris": {"android": "https://dc.lft.to/lastmile_qr_scan", "ios": "https://dc.lft.to/lastmile_qr_scan"}, "fusion_lon": 0.0}, {"lat": 39.02931616666667, "is_disabled": 0, "type": "electric_bike", "lon": -77.04930033333333, "bike_id": "53057d06eb9c76be71fa848c81790817", "fusion_lat": 0.0, "name": "53057d06eb9c76be71fa848c81790817", "is_reserved": 0, "rental_uris": {"android": "https://dc.lft.to/lastmile_qr_scan", "ios": "https://dc.lft.to/lastmile_qr_scan"}, "fusion_lon": 0.0}, {"lat": 38.899887666666665, "is_disabled": 0, "type": "electric_scooter", "lon": -77.02284816666666, "bike_id": "e89db879c038c8fd19eab3aa2c2620b4", "fusion_lat": 0.0, "name": "e89db879c038c8fd19eab3aa2c2620b4", "is_reserved": 0, "rental_uris": {"android": "https://dc.lft.to/lastmile_qr_scan", "ios": "https://dc.lft.to/lastmile_qr_scan"}, "fusion_lon": 0.0}, {"lat": 38.9541225, "is_disabled": 0, "type": "electric_scooter", "lon": -77.02749733333333, "bike_id": "c6058ee5e917a97fe0e8ff4516fc1b6e", "fusion_lat": 0.0, "name": "c6058ee5e917a97fe0e8ff4516fc1b6e", "is_reserved": 0, "rental_uris": {"android": "https://dc.lft.to/lastmile_qr_scan", "ios": "https://dc.lft.to/lastmile_qr_scan"}, "fusion_lon": 0.0}, {"lat": 38.87670833333333, "is_disabled": 0, "type": "electric_scooter", "lon": -77.00444733333333, "bike_id": "4dba8ee91c454a19a354bb5f7d31d931", "fusion_lat": 0.0, "name": "4dba8ee91c454a19a354bb5f7d31d931", "is_reserved": 0, "rental_uris": {"android": "https://dc.lft.to/lastmile_qr_scan", "ios": "https://dc.lft.to/lastmile_qr_scan"}, "fusion_lon": 0.0}, {"lat": 38.8927575, "is_disabled": 0, "type": "electric_scooter", "lon": -77.05031016666666, "bike_id": "99a7d8f0de919ab02a4e0df977241875", "fusion_lat": 0.0, "name": "99a7d8f0de919ab02a4e0df977241875", "is_reserved": 0, "rental_uris": {"android": "https://dc.lft.to/lastmile_qr_scan", "ios": "https://dc.lft.to/lastmile_qr_scan"}, "fusion_lon": 0.0}, {"lat": 38.93637316666667, "is_disabled": 0, "type": "electric_scooter", "lon": -77.0366405, "bike_id": "fd29bd690c493d04c72f2e3c2ab24924", "fusion_lat": 0.0, "name": "fd29bd690c493d04c72f2e3c2ab24924", "is_reserved": 0, "rental_uris": {"android": "https://dc.lft.to/lastmile_qr_scan", "ios": "https://dc.lft.to/lastmile_qr_scan"}, "fusion_lon": 0.0}, {"lat": 38.91776183333333, "is_disabled": 0, "type": "electric_scooter", "lon": -77.023036, "bike_id": "d3b752dbaf53cc87b079bf3124ac656c", "fusion_lat": 0.0, "name": "d3b752dbaf53cc87b079bf3124ac656c", "is_reserved": 0, "rental_uris": {"android": "https://dc.lft.to/lastmile_qr_scan", "ios": "https://dc.lft.to/lastmile_qr_scan"}, "fusion_lon": 0.0}, {"lat": 38.9066855, "is_disabled": 0, "type": "electric_scooter", "lon": -77.03534916666666, "bike_id": "88e6f7d428011dd0fd368509226986e4", "fusion_lat": 0.0, "name": "88e6f7d428011dd0fd368509226986e4", "is_reserved": 0, "rental_uris": {"android": "https://dc.lft.to/lastmile_qr_scan", "ios": "https://dc.lft.to/lastmile_qr_scan"}, "fusion_lon": 0.0}, {"lat": 38.91840333333333, "is_disabled": 0, "type": "electric_scooter", "lon": -76.965368, "bike_id": "8d70350899bbecadae12821cd805ddc6", "fusion_lat": 0.0, "name": "8d70350899bbecadae12821cd805ddc6", "is_reserved": 0, "rental_uris": {"android": "https://dc.lft.to/lastmile_qr_scan", "ios": "https://dc.lft.to/lastmile_qr_scan"}, "fusion_lon": 0.0}, {"lat": 38.846280166666666, "is_disabled": 0, "type": "electric_bike", "lon": -77.06936816666666, "bike_id": "5a3a535b3ea92bd07358a22e4f68c550", "fusion_lat": 0.0, "name": "5a3a535b3ea92bd07358a22e4f68c550", "is_reserved": 0, "rental_uris": {"android": "https://dc.lft.to/lastmile_qr_scan", "ios": "https://dc.lft.to/lastmile_qr_scan"}, "fusion_lon": 0.0}, {"lat": 38.92384216666667, "is_disabled": 0, "type": "electric_scooter", "lon": -77.0307545, "bike_id": "4d06dccdba807842c1cb7b108a458cdb", "fusion_lat": 0.0, "name": "4d06dccdba807842c1cb7b108a458cdb", "is_reserved": 0, "rental_uris": {"android": "https://dc.lft.to/lastmile_qr_scan", "ios": "https://dc.lft.to/lastmile_qr_scan"}, "fusion_lon": 0.0}, {"lat": 38.90958583333333, "is_disabled": 0, "type": "electric_scooter", "lon": -77.022799, "bike_id": "e73f47966b3b94a467279440f223d100", "fusion_lat": 0.0, "name": "e73f47966b3b94a467279440f223d100", "is_reserved": 0, "rental_uris": {"android": "https://dc.lft.to/lastmile_qr_scan", "ios": "https://dc.lft.to/lastmile_qr_scan"}, "fusion_lon": 0.0}, {"lat": 38.895065, "is_disabled": 0, "type": "electric_scooter", "lon": -77.02761483333333, "bike_id": "f3b40730d273e1916d88c065deee29d6", "fusion_lat": 0.0, "name": "f3b40730d273e1916d88c065deee29d6", "is_reserved": 0, "rental_uris": {"android": "https://dc.lft.to/lastmile_qr_scan", "ios": "https://dc.lft.to/lastmile_qr_scan"}, "fusion_lon": 0.0}, {"lat": 38.917145833333336, "is_disabled": 0, "type": "electric_scooter", "lon": -77.03458983333333, "bike_id": "14e72b5880f0d28fb7c06c1b41885880", "fusion_lat": 0.0, "name": "14e72b5880f0d28fb7c06c1b41885880", "is_reserved": 0, "rental_uris": {"android": "https://dc.lft.to/lastmile_qr_scan", "ios": "https://dc.lft.to/lastmile_qr_scan"}, "fusion_lon": 0.0}, {"lat": 38.885507833333335, "is_disabled": 0, "type": "electric_bike", "lon": -77.11786066666667, "bike_id": "1595bbbbf67c44cffb011ac6bd0d414b", "fusion_lat": 0.0, "name": "1595bbbbf67c44cffb011ac6bd0d414b", "is_reserved": 0, "rental_uris": {"android": "https://dc.lft.to/lastmile_qr_scan", "ios": "https://dc.lft.to/lastmile_qr_scan"}, "fusion_lon": 0.0}, {"lat": 38.87669966666667, "is_disabled": 0, "type": "electric_scooter", "lon": -77.017607, "bike_id": "dd020396537a7447bf06152029f5f02d", "fusion_lat": 0.0, "name": "dd020396537a7447bf06152029f5f02d", "is_reserved": 0, "rental_uris": {"android": "https://dc.lft.to/lastmile_qr_scan", "ios": "https://dc.lft.to/lastmile_qr_scan"}, "fusion_lon": 0.0}, {"lat": 38.87716016666667, "is_disabled": 0, "type": "electric_scooter", "lon": -77.017515, "bike_id": "57bd79cee66e8d1cf484777623095612", "fusion_lat": 0.0, "name": "57bd79cee66e8d1cf484777623095612", "is_reserved": 0, "rental_uris": {"android": "https://dc.lft.to/lastmile_qr_scan", "ios": "https://dc.lft.to/lastmile_qr_scan"}, "fusion_lon": 0.0}, {"lat": 38.884607, "is_disabled": 0, "type": "electric_scooter", "lon": -76.92949766666666, "bike_id": "2b961a6f783bd021574e61bbf1c86e4b", "fusion_lat": 0.0, "name": "2b961a6f783bd021574e61bbf1c86e4b", "is_reserved": 0, "rental_uris": {"android": "https://dc.lft.to/lastmile_qr_scan", "ios": "https://dc.lft.to/lastmile_qr_scan"}, "fusion_lon": 0.0}, {"lat": 38.907956666666664, "is_disabled": 0, "type": "electric_scooter", "lon": -77.03478766666667, "bike_id": "800fe68478041eca05b1bc7c45df10ea", "fusion_lat": 0.0, "name": "800fe68478041eca05b1bc7c45df10ea", "is_reserved": 0, "rental_uris": {"android": "https://dc.lft.to/lastmile_qr_scan", "ios": "https://dc.lft.to/lastmile_qr_scan"}, "fusion_lon": 0.0}, {"lat": 38.93437616666667, "is_disabled": 0, "type": "electric_scooter", "lon": -76.96513166666666, "bike_id": "4ce8547b86ce1c5ebaf2cb63e0f30306", "fusion_lat": 0.0, "name": "4ce8547b86ce1c5ebaf2cb63e0f30306", "is_reserved": 0, "rental_uris": {"android": "https://dc.lft.to/lastmile_qr_scan", "ios": "https://dc.lft.to/lastmile_qr_scan"}, "fusion_lon": 0.0}, {"lat": 38.93392266666667, "is_disabled": 0, "type": "electric_scooter", "lon": -77.03558733333334, "bike_id": "9bccbe626aaf4311722b28e3f87c9dfe", "fusion_lat": 0.0, "name": "9bccbe626aaf4311722b28e3f87c9dfe", "is_reserved": 0, "rental_uris": {"android": "https://dc.lft.to/lastmile_qr_scan", "ios": "https://dc.lft.to/lastmile_qr_scan"}, "fusion_lon": 0.0}, {"lat": 38.9570995, "is_disabled": 0, "type": "electric_scooter", "lon": -77.023977, "bike_id": "0603d0a7702fc8234278f231d85fb0c5", "fusion_lat": 0.0, "name": "0603d0a7702fc8234278f231d85fb0c5", "is_reserved": 0, "rental_uris": {"android": "https://dc.lft.to/lastmile_qr_scan", "ios": "https://dc.lft.to/lastmile_qr_scan"}, "fusion_lon": 0.0}, {"lat": 38.998959666666664, "is_disabled": 0, "type": "electric_bike", "lon": -77.02882066666666, "bike_id": "1ceaeb9cd55fed7c4026e28de163258b", "fusion_lat": 0.0, "name": "1ceaeb9cd55fed7c4026e28de163258b", "is_reserved": 0, "rental_uris": {"android": "https://dc.lft.to/lastmile_qr_scan", "ios": "https://dc.lft.to/lastmile_qr_scan"}, "fusion_lon": 0.0}, {"lat": 38.898164, "is_disabled": 0, "type": "electric_scooter", "lon": -77.03297083333334, "bike_id": "8fa0332f04912c64305bdaa2059df4df", "fusion_lat": 0.0, "name": "8fa0332f04912c64305bdaa2059df4df", "is_reserved": 0, "rental_uris": {"android": "https://dc.lft.to/lastmile_qr_scan", "ios": "https://dc.lft.to/lastmile_qr_scan"}, "fusion_lon": 0.0}, {"lat": 38.88722883333333, "is_disabled": 0, "type": "electric_bike", "lon": -77.13304033333333, "bike_id": "22b7ba08d1c5fe6a819ed8dc52031438", "fusion_lat": 0.0, "name": "22b7ba08d1c5fe6a819ed8dc52031438", "is_reserved": 0, "rental_uris": {"android": "https://dc.lft.to/lastmile_qr_scan", "ios": "https://dc.lft.to/lastmile_qr_scan"}, "fusion_lon": 0.0}, {"lat": 38.90528283333333, "is_disabled": 0, "type": "electric_scooter", "lon": -77.03446966666667, "bike_id": "b6f4d73175c250bc88010cbe2c6c0fbf", "fusion_lat": 0.0, "name": "b6f4d73175c250bc88010cbe2c6c0fbf", "is_reserved": 0, "rental_uris": {"android": "https://dc.lft.to/lastmile_qr_scan", "ios": "https://dc.lft.to/lastmile_qr_scan"}, "fusion_lon": 0.0}, {"lat": 38.92256783333333, "is_disabled": 0, "type": "electric_scooter", "lon": -77.0193295, "bike_id": "4b4294e91d210bc6daf75e54302c6bc1", "fusion_lat": 0.0, "name": "4b4294e91d210bc6daf75e54302c6bc1", "is_reserved": 0, "rental_uris": {"android": "https://dc.lft.to/lastmile_qr_scan", "ios": "https://dc.lft.to/lastmile_qr_scan"}, "fusion_lon": 0.0}, {"lat": 38.928390666666665, "is_disabled": 0, "type": "electric_scooter", "lon": -77.05427333333333, "bike_id": "dc763cd614a24108d99729528bf34146", "fusion_lat": 0.0, "name": "dc763cd614a24108d99729528bf34146", "is_reserved": 0, "rental_uris": {"android": "https://dc.lft.to/lastmile_qr_scan", "ios": "https://dc.lft.to/lastmile_qr_scan"}, "fusion_lon": 0.0}, {"lat": 38.872477833333335, "is_disabled": 0, "type": "electric_scooter", "lon": -76.97730466666667, "bike_id": "aeb0ff2e2db1d2d9bf3340fe09bbed7c", "fusion_lat": 0.0, "name": "aeb0ff2e2db1d2d9bf3340fe09bbed7c", "is_reserved": 0, "rental_uris": {"android": "https://dc.lft.to/lastmile_qr_scan", "ios": "https://dc.lft.to/lastmile_qr_scan"}, "fusion_lon": 0.0}, {"lat": 38.9095985, "is_disabled": 0, "type": "electric_scooter", "lon": -77.02685033333333, "bike_id": "86bae1494618dcbb22914fbdc82325ef", "fusion_lat": 0.0, "name": "86bae1494618dcbb22914fbdc82325ef", "is_reserved": 0, "rental_uris": {"android": "https://dc.lft.to/lastmile_qr_scan", "ios": "https://dc.lft.to/lastmile_qr_scan"}, "fusion_lon": 0.0}, {"lat": 38.886398, "is_disabled": 0, "type": "electric_scooter", "lon": -76.95473183333333, "bike_id": "d83fdc3761c72e546f458b301118aa78", "fusion_lat": 0.0, "name": "d83fdc3761c72e546f458b301118aa78", "is_reserved": 0, "rental_uris": {"android": "https://dc.lft.to/lastmile_qr_scan", "ios": "https://dc.lft.to/lastmile_qr_scan"}, "fusion_lon": 0.0}, {"lat": 38.932291, "is_disabled": 0, "type": "electric_scooter", "lon": -77.03387783333334, "bike_id": "48aacc4a4002cb2cf22e6075bd11b8fb", "fusion_lat": 0.0, "name": "48aacc4a4002cb2cf22e6075bd11b8fb", "is_reserved": 0, "rental_uris": {"android": "https://dc.lft.to/lastmile_qr_scan", "ios": "https://dc.lft.to/lastmile_qr_scan"}, "fusion_lon": 0.0}, {"lat": 38.94326233333334, "is_disabled": 0, "type": "electric_scooter", "lon": -77.061332, "bike_id": "57dd51a5048f859a443dc4b3f66b7a57", "fusion_lat": 0.0, "name": "57dd51a5048f859a443dc4b3f66b7a57", "is_reserved": 0, "rental_uris": {"android": "https://dc.lft.to/lastmile_qr_scan", "ios": "https://dc.lft.to/lastmile_qr_scan"}, "fusion_lon": 0.0}, {"lat": 38.915681166666666, "is_disabled": 0, "type": "electric_scooter", "lon": -77.05024983333334, "bike_id": "e2bb15638b3b9ae84be93ed609ef95b8", "fusion_lat": 0.0, "name": "e2bb15638b3b9ae84be93ed609ef95b8", "is_reserved": 0, "rental_uris": {"android": "https://dc.lft.to/lastmile_qr_scan", "ios": "https://dc.lft.to/lastmile_qr_scan"}, "fusion_lon": 0.0}, {"lat": 38.90651866666666, "is_disabled": 0, "type": "electric_scooter", "lon": -77.01417333333333, "bike_id": "5ae378728b751a09684b63eb443a11f2", "fusion_lat": 0.0, "name": "5ae378728b751a09684b63eb443a11f2", "is_reserved": 0, "rental_uris": {"android": "https://dc.lft.to/lastmile_qr_scan", "ios": "https://dc.lft.to/lastmile_qr_scan"}, "fusion_lon": 0.0}, {"lat": 38.9027185, "is_disabled": 0, "type": "electric_scooter", "lon": -77.03411583333333, "bike_id": "f213bf3d1fa122930579998d3e8d5b80", "fusion_lat": 0.0, "name": "f213bf3d1fa122930579998d3e8d5b80", "is_reserved": 0, "rental_uris": {"android": "https://dc.lft.to/lastmile_qr_scan", "ios": "https://dc.lft.to/lastmile_qr_scan"}, "fusion_lon": 0.0}, {"lat": 38.90332166666666, "is_disabled": 0, "type": "electric_scooter", "lon": -76.97595533333333, "bike_id": "2758b453c465dd8fb45e69ff8875a03b", "fusion_lat": 0.0, "name": "2758b453c465dd8fb45e69ff8875a03b", "is_reserved": 0, "rental_uris": {"android": "https://dc.lft.to/lastmile_qr_scan", "ios": "https://dc.lft.to/lastmile_qr_scan"}, "fusion_lon": 0.0}, {"lat": 38.9211385, "is_disabled": 0, "type": "electric_scooter", "lon": -77.04692733333333, "bike_id": "0307b941f472162a5c11bcbf2908cc5a", "fusion_lat": 0.0, "name": "0307b941f472162a5c11bcbf2908cc5a", "is_reserved": 0, "rental_uris": {"android": "https://dc.lft.to/lastmile_qr_scan", "ios": "https://dc.lft.to/lastmile_qr_scan"}, "fusion_lon": 0.0}, {"lat": 38.928262, "is_disabled": 0, "type": "electric_scooter", "lon": -77.02262366666666, "bike_id": "6b7d84b68c951c571aa5a2781e8dadf5", "fusion_lat": 0.0, "name": "6b7d84b68c951c571aa5a2781e8dadf5", "is_reserved": 0, "rental_uris": {"android": "https://dc.lft.to/lastmile_qr_scan", "ios": "https://dc.lft.to/lastmile_qr_scan"}, "fusion_lon": 0.0}, {"lat": 38.85644716666667, "is_disabled": 0, "type": "electric_bike", "lon": -77.112567, "bike_id": "5ca5313b1f6bb43c189913050cb5cabb", "fusion_lat": 0.0, "name": "5ca5313b1f6bb43c189913050cb5cabb", "is_reserved": 0, "rental_uris": {"android": "https://dc.lft.to/lastmile_qr_scan", "ios": "https://dc.lft.to/lastmile_qr_scan"}, "fusion_lon": 0.0}, {"lat": 38.87716783333333, "is_disabled": 0, "type": "electric_scooter", "lon": -77.01682766666667, "bike_id": "575f8ebb32793605211ebff88a9f7bba", "fusion_lat": 0.0, "name": "575f8ebb32793605211ebff88a9f7bba", "is_reserved": 0, "rental_uris": {"android": "https://dc.lft.to/lastmile_qr_scan", "ios": "https://dc.lft.to/lastmile_qr_scan"}, "fusion_lon": 0.0}, {"lat": 38.883949666666666, "is_disabled": 0, "type": "electric_scooter", "lon": -77.02423583333334, "bike_id": "ff6f3170816210f07b67e42de826d181", "fusion_lat": 0.0, "name": "ff6f3170816210f07b67e42de826d181", "is_reserved": 0, "rental_uris": {"android": "https://dc.lft.to/lastmile_qr_scan", "ios": "https://dc.lft.to/lastmile_qr_scan"}, "fusion_lon": 0.0}, {"lat": 38.929741166666666, "is_disabled": 0, "type": "electric_scooter", "lon": -77.03826483333333, "bike_id": "ea7c71f5d6e1fbc4d81592115ca9e1fe", "fusion_lat": 0.0, "name": "ea7c71f5d6e1fbc4d81592115ca9e1fe", "is_reserved": 0, "rental_uris": {"android": "https://dc.lft.to/lastmile_qr_scan", "ios": "https://dc.lft.to/lastmile_qr_scan"}, "fusion_lon": 0.0}, {"lat": 38.88267283333333, "is_disabled": 0, "type": "electric_scooter", "lon": -76.98823416666667, "bike_id": "ab377161a079cf08ae8fd8904f51cecb", "fusion_lat": 0.0, "name": "ab377161a079cf08ae8fd8904f51cecb", "is_reserved": 0, "rental_uris": {"android": "https://dc.lft.to/lastmile_qr_scan", "ios": "https://dc.lft.to/lastmile_qr_scan"}, "fusion_lon": 0.0}, {"lat": 38.9104545, "is_disabled": 0, "type": "electric_scooter", "lon": -77.0412445, "bike_id": "3e2319b7af0dfc925673d6a7efce7a58", "fusion_lat": 0.0, "name": "3e2319b7af0dfc925673d6a7efce7a58", "is_reserved": 0, "rental_uris": {"android": "https://dc.lft.to/lastmile_qr_scan", "ios": "https://dc.lft.to/lastmile_qr_scan"}, "fusion_lon": 0.0}, {"lat": 38.93599716666667, "is_disabled": 0, "type": "electric_scooter", "lon": -77.05631183333334, "bike_id": "202b180efeedabc0051459268cdbc1f1", "fusion_lat": 0.0, "name": "202b180efeedabc0051459268cdbc1f1", "is_reserved": 0, "rental_uris": {"android": "https://dc.lft.to/lastmile_qr_scan", "ios": "https://dc.lft.to/lastmile_qr_scan"}, "fusion_lon": 0.0}, {"lat": 38.9106475, "is_disabled": 0, "type": "electric_scooter", "lon": -77.029279, "bike_id": "f919915d06c1487f744221c5679b73e9", "fusion_lat": 0.0, "name": "f919915d06c1487f744221c5679b73e9", "is_reserved": 0, "rental_uris": {"android": "https://dc.lft.to/lastmile_qr_scan", "ios": "https://dc.lft.to/lastmile_qr_scan"}, "fusion_lon": 0.0}, {"lat": 38.903658166666666, "is_disabled": 0, "type": "electric_scooter", "lon": -77.04088333333333, "bike_id": "8fbd82b775b516e4b10bbfbb023c334b", "fusion_lat": 0.0, "name": "8fbd82b775b516e4b10bbfbb023c334b", "is_reserved": 0, "rental_uris": {"android": "https://dc.lft.to/lastmile_qr_scan", "ios": "https://dc.lft.to/lastmile_qr_scan"}, "fusion_lon": 0.0}, {"lat": 38.905078333333336, "is_disabled": 0, "type": "electric_scooter", "lon": -77.04475866666667, "bike_id": "40f2db8ed58158a0ac4d39055aadfaf4", "fusion_lat": 0.0, "name": "40f2db8ed58158a0ac4d39055aadfaf4", "is_reserved": 0, "rental_uris": {"android": "https://dc.lft.to/lastmile_qr_scan", "ios": "https://dc.lft.to/lastmile_qr_scan"}, "fusion_lon": 0.0}, {"lat": 38.91904383333333, "is_disabled": 0, "type": "electric_scooter", "lon": -77.03197783333333, "bike_id": "7d0d47bfc36b4bb9dc145f125be97476", "fusion_lat": 0.0, "name": "7d0d47bfc36b4bb9dc145f125be97476", "is_reserved": 0, "rental_uris": {"android": "https://dc.lft.to/lastmile_qr_scan", "ios": "https://dc.lft.to/lastmile_qr_scan"}, "fusion_lon": 0.0}, {"lat": 38.917076333333334, "is_disabled": 0, "type": "electric_scooter", "lon": -77.04024633333333, "bike_id": "9910396e1802ac7acb43a9de8e7780b3", "fusion_lat": 0.0, "name": "9910396e1802ac7acb43a9de8e7780b3", "is_reserved": 0, "rental_uris": {"android": "https://dc.lft.to/lastmile_qr_scan", "ios": "https://dc.lft.to/lastmile_qr_scan"}, "fusion_lon": 0.0}, {"lat": 38.907338333333335, "is_disabled": 0, "type": "electric_scooter", "lon": -77.02375566666667, "bike_id": "a4fa9830c92e3d6511d3f8fb9bbba94e", "fusion_lat": 0.0, "name": "a4fa9830c92e3d6511d3f8fb9bbba94e", "is_reserved": 0, "rental_uris": {"android": "https://dc.lft.to/lastmile_qr_scan", "ios": "https://dc.lft.to/lastmile_qr_scan"}, "fusion_lon": 0.0}, {"lat": 38.93327566666667, "is_disabled": 0, "type": "electric_scooter", "lon": -77.057205, "bike_id": "3de1f60f06d2a893b812705c6fb5d8c9", "fusion_lat": 0.0, "name": "3de1f60f06d2a893b812705c6fb5d8c9", "is_reserved": 0, "rental_uris": {"android": "https://dc.lft.to/lastmile_qr_scan", "ios": "https://dc.lft.to/lastmile_qr_scan"}, "fusion_lon": 0.0}, {"lat": 38.91186666666667, "is_disabled": 0, "type": "electric_scooter", "lon": -77.03859716666666, "bike_id": "b3e5b86a3b3d68cad8a7c75cbecb0ef5", "fusion_lat": 0.0, "name": "b3e5b86a3b3d68cad8a7c75cbecb0ef5", "is_reserved": 0, "rental_uris": {"android": "https://dc.lft.to/lastmile_qr_scan", "ios": "https://dc.lft.to/lastmile_qr_scan"}, "fusion_lon": 0.0}, {"lat": 38.921302833333336, "is_disabled": 0, "type": "electric_scooter", "lon": -77.04006383333333, "bike_id": "d66e5f7a54929eb6664d2b7df54ba22b", "fusion_lat": 0.0, "name": "d66e5f7a54929eb6664d2b7df54ba22b", "is_reserved": 0, "rental_uris": {"android": "https://dc.lft.to/lastmile_qr_scan", "ios": "https://dc.lft.to/lastmile_qr_scan"}, "fusion_lon": 0.0}, {"lat": 38.90679466666667, "is_disabled": 0, "type": "electric_scooter", "lon": -77.0364045, "bike_id": "032f4eac1ed09624339abafe2daca199", "fusion_lat": 0.0, "name": "032f4eac1ed09624339abafe2daca199", "is_reserved": 0, "rental_uris": {"android": "https://dc.lft.to/lastmile_qr_scan", "ios": "https://dc.lft.to/lastmile_qr_scan"}, "fusion_lon": 0.0}, {"lat": 38.8850925, "is_disabled": 0, "type": "electric_scooter", "lon": -77.0027725, "bike_id": "98b3310aed2e4267fe1fd218f1329892", "fusion_lat": 0.0, "name": "98b3310aed2e4267fe1fd218f1329892", "is_reserved": 0, "rental_uris": {"android": "https://dc.lft.to/lastmile_qr_scan", "ios": "https://dc.lft.to/lastmile_qr_scan"}, "fusion_lon": 0.0}, {"lat": 38.90573283333333, "is_disabled": 0, "type": "electric_scooter", "lon": -77.005953, "bike_id": "9b50fd8ff0ede30d2d82dd3af942b43e", "fusion_lat": 0.0, "name": "9b50fd8ff0ede30d2d82dd3af942b43e", "is_reserved": 0, "rental_uris": {"android": "https://dc.lft.to/lastmile_qr_scan", "ios": "https://dc.lft.to/lastmile_qr_scan"}, "fusion_lon": 0.0}, {"lat": 38.9246705, "is_disabled": 0, "type": "electric_scooter", "lon": -77.05239416666667, "bike_id": "4248fe5a292410d9f10635e4fe22d2b2", "fusion_lat": 0.0, "name": "4248fe5a292410d9f10635e4fe22d2b2", "is_reserved": 0, "rental_uris": {"android": "https://dc.lft.to/lastmile_qr_scan", "ios": "https://dc.lft.to/lastmile_qr_scan"}, "fusion_lon": 0.0}, {"lat": 38.90145716666667, "is_disabled": 0, "type": "electric_scooter", "lon": -77.0007425, "bike_id": "bc80e01e98604284f5ec79e855f5f92c", "fusion_lat": 0.0, "name": "bc80e01e98604284f5ec79e855f5f92c", "is_reserved": 0, "rental_uris": {"android": "https://dc.lft.to/lastmile_qr_scan", "ios": "https://dc.lft.to/lastmile_qr_scan"}, "fusion_lon": 0.0}, {"lat": 38.897919333333334, "is_disabled": 0, "type": "electric_bike", "lon": -76.904319, "bike_id": "5c138a22ab6d2c03ba65499671806adc", "fusion_lat": 0.0, "name": "5c138a22ab6d2c03ba65499671806adc", "is_reserved": 0, "rental_uris": {"android": "https://dc.lft.to/lastmile_qr_scan", "ios": "https://dc.lft.to/lastmile_qr_scan"}, "fusion_lon": 0.0}, {"lat": 38.94427483333333, "is_disabled": 0, "type": "electric_scooter", "lon": -77.0630775, "bike_id": "9d0cdbef0deff6fb53306b287c59d777", "fusion_lat": 0.0, "name": "9d0cdbef0deff6fb53306b287c59d777", "is_reserved": 0, "rental_uris": {"android": "https://dc.lft.to/lastmile_qr_scan", "ios": "https://dc.lft.to/lastmile_qr_scan"}, "fusion_lon": 0.0}, {"lat": 38.9003975, "is_disabled": 0, "type": "electric_scooter", "lon": -76.98840566666667, "bike_id": "ecfb033846cdda9f96bf68a09a070d0f", "fusion_lat": 0.0, "name": "ecfb033846cdda9f96bf68a09a070d0f", "is_reserved": 0, "rental_uris": {"android": "https://dc.lft.to/lastmile_qr_scan", "ios": "https://dc.lft.to/lastmile_qr_scan"}, "fusion_lon": 0.0}, {"lat": 38.90620233333333, "is_disabled": 0, "type": "electric_scooter", "lon": -77.0128905, "bike_id": "4945b1ab2f32d9aa804f6fc0e0088dff", "fusion_lat": 0.0, "name": "4945b1ab2f32d9aa804f6fc0e0088dff", "is_reserved": 0, "rental_uris": {"android": "https://dc.lft.to/lastmile_qr_scan", "ios": "https://dc.lft.to/lastmile_qr_scan"}, "fusion_lon": 0.0}, {"lat": 38.842743666666664, "is_disabled": 0, "type": "electric_bike", "lon": -76.988497, "bike_id": "08ede1b85ed887800a9e0b384b9be4e5", "fusion_lat": 0.0, "name": "08ede1b85ed887800a9e0b384b9be4e5", "is_reserved": 0, "rental_uris": {"android": "https://dc.lft.to/lastmile_qr_scan", "ios": "https://dc.lft.to/lastmile_qr_scan"}, "fusion_lon": 0.0}, {"lat": 38.86630366666667, "is_disabled": 0, "type": "electric_scooter", "lon": -76.9871635, "bike_id": "67b730dadd96528500911e83d13b2bcb", "fusion_lat": 0.0, "name": "67b730dadd96528500911e83d13b2bcb", "is_reserved": 0, "rental_uris": {"android": "https://dc.lft.to/lastmile_qr_scan", "ios": "https://dc.lft.to/lastmile_qr_scan"}, "fusion_lon": 0.0}, {"lat": 38.956147, "is_disabled": 0, "type": "electric_bike", "lon": -76.93885583333333, "bike_id": "704e80d32a6d221dc430548017aad434", "fusion_lat": 0.0, "name": "704e80d32a6d221dc430548017aad434", "is_reserved": 0, "rental_uris": {"android": "https://dc.lft.to/lastmile_qr_scan", "ios": "https://dc.lft.to/lastmile_qr_scan"}, "fusion_lon": 0.0}, {"lat": 38.89265283333334, "is_disabled": 0, "type": "electric_scooter", "lon": -77.02847383333334, "bike_id": "a3463a321d0e36f16939bc4b31e73b55", "fusion_lat": 0.0, "name": "a3463a321d0e36f16939bc4b31e73b55", "is_reserved": 0, "rental_uris": {"android": "https://dc.lft.to/lastmile_qr_scan", "ios": "https://dc.lft.to/lastmile_qr_scan"}, "fusion_lon": 0.0}, {"lat": 38.9153835, "is_disabled": 0, "type": "electric_scooter", "lon": -77.01378233333334, "bike_id": "1665bfd373b9327fad2a611da4bca9d3", "fusion_lat": 0.0, "name": "1665bfd373b9327fad2a611da4bca9d3", "is_reserved": 0, "rental_uris": {"android": "https://dc.lft.to/lastmile_qr_scan", "ios": "https://dc.lft.to/lastmile_qr_scan"}, "fusion_lon": 0.0}, {"lat": 38.89986066666667, "is_disabled": 0, "type": "electric_scooter", "lon": -77.050999, "bike_id": "89b6937ff0ed80d1a7044ad3b5da80c3", "fusion_lat": 0.0, "name": "89b6937ff0ed80d1a7044ad3b5da80c3", "is_reserved": 0, "rental_uris": {"android": "https://dc.lft.to/lastmile_qr_scan", "ios": "https://dc.lft.to/lastmile_qr_scan"}, "fusion_lon": 0.0}, {"lat": 38.90964266666667, "is_disabled": 0, "type": "electric_scooter", "lon": -77.02311883333333, "bike_id": "9f09643b646404242470f7c0e40944b5", "fusion_lat": 0.0, "name": "9f09643b646404242470f7c0e40944b5", "is_reserved": 0, "rental_uris": {"android": "https://dc.lft.to/lastmile_qr_scan", "ios": "https://dc.lft.to/lastmile_qr_scan"}, "fusion_lon": 0.0}, {"lat": 38.92612583333333, "is_disabled": 0, "type": "electric_scooter", "lon": -77.05690966666667, "bike_id": "8717be7a0923da539819a960ab102a63", "fusion_lat": 0.0, "name": "8717be7a0923da539819a960ab102a63", "is_reserved": 0, "rental_uris": {"android": "https://dc.lft.to/lastmile_qr_scan", "ios": "https://dc.lft.to/lastmile_qr_scan"}, "fusion_lon": 0.0}, {"lat": 38.94600583333333, "is_disabled": 0, "type": "electric_scooter", "lon": -77.07045866666667, "bike_id": "4df4239e95f36e14116b6f7173693a40", "fusion_lat": 0.0, "name": "4df4239e95f36e14116b6f7173693a40", "is_reserved": 0, "rental_uris": {"android": "https://dc.lft.to/lastmile_qr_scan", "ios": "https://dc.lft.to/lastmile_qr_scan"}, "fusion_lon": 0.0}, {"lat": 38.903995333333334, "is_disabled": 0, "type": "electric_scooter", "lon": -77.05320116666667, "bike_id": "e207c69756561a016321d8f987c0e292", "fusion_lat": 0.0, "name": "e207c69756561a016321d8f987c0e292", "is_reserved": 0, "rental_uris": {"android": "https://dc.lft.to/lastmile_qr_scan", "ios": "https://dc.lft.to/lastmile_qr_scan"}, "fusion_lon": 0.0}, {"lat": 38.8936755, "is_disabled": 0, "type": "electric_scooter", "lon": -76.99109916666667, "bike_id": "1a511c848ae81278aad4ee76add7f19f", "fusion_lat": 0.0, "name": "1a511c848ae81278aad4ee76add7f19f", "is_reserved": 0, "rental_uris": {"android": "https://dc.lft.to/lastmile_qr_scan", "ios": "https://dc.lft.to/lastmile_qr_scan"}, "fusion_lon": 0.0}, {"lat": 38.921075, "is_disabled": 0, "type": "electric_scooter", "lon": -77.04199033333333, "bike_id": "1206d6456b735f2dad00879e9425c97f", "fusion_lat": 0.0, "name": "1206d6456b735f2dad00879e9425c97f", "is_reserved": 0, "rental_uris": {"android": "https://dc.lft.to/lastmile_qr_scan", "ios": "https://dc.lft.to/lastmile_qr_scan"}, "fusion_lon": 0.0}, {"lat": 38.882955, "is_disabled": 0, "type": "electric_bike", "lon": -76.987973, "bike_id": "bdb2667b66c083a2fde33859275574a5", "fusion_lat": 0.0, "name": "bdb2667b66c083a2fde33859275574a5", "is_reserved": 0, "rental_uris": {"android": "https://dc.lft.to/lastmile_qr_scan", "ios": "https://dc.lft.to/lastmile_qr_scan"}, "fusion_lon": 0.0}, {"lat": 38.91555533333333, "is_disabled": 0, "type": "electric_scooter", "lon": -77.009711, "bike_id": "87253d0ec923ba591906f4e714fce4e4", "fusion_lat": 0.0, "name": "87253d0ec923ba591906f4e714fce4e4", "is_reserved": 0, "rental_uris": {"android": "https://dc.lft.to/lastmile_qr_scan", "ios": "https://dc.lft.to/lastmile_qr_scan"}, "fusion_lon": 0.0}, {"lat": 38.91878, "is_disabled": 0, "type": "electric_scooter", "lon": -77.0350425, "bike_id": "1fdf4d93281e97f0dbd3dda14f2fcbdb", "fusion_lat": 0.0, "name": "1fdf4d93281e97f0dbd3dda14f2fcbdb", "is_reserved": 0, "rental_uris": {"android": "https://dc.lft.to/lastmile_qr_scan", "ios": "https://dc.lft.to/lastmile_qr_scan"}, "fusion_lon": 0.0}, {"lat": 38.85432216666667, "is_disabled": 0, "type": "electric_bike", "lon": -76.90973666666666, "bike_id": "5c4b0dd8f49e4daf7109ea772c2b5d2c", "fusion_lat": 0.0, "name": "5c4b0dd8f49e4daf7109ea772c2b5d2c", "is_reserved": 0, "rental_uris": {"android": "https://dc.lft.to/lastmile_qr_scan", "ios": "https://dc.lft.to/lastmile_qr_scan"}, "fusion_lon": 0.0}, {"lat": 38.92385383333333, "is_disabled": 0, "type": "electric_scooter", "lon": -77.02762066666666, "bike_id": "d78f6020ad0a2dd840f4ce27bfad0903", "fusion_lat": 0.0, "name": "d78f6020ad0a2dd840f4ce27bfad0903", "is_reserved": 0, "rental_uris": {"android": "https://dc.lft.to/lastmile_qr_scan", "ios": "https://dc.lft.to/lastmile_qr_scan"}, "fusion_lon": 0.0}, {"lat": 38.90489816666667, "is_disabled": 0, "type": "electric_scooter", "lon": -76.99543316666667, "bike_id": "562f7cd0ccb6a068eecb4e607f4fc7f1", "fusion_lat": 0.0, "name": "562f7cd0ccb6a068eecb4e607f4fc7f1", "is_reserved": 0, "rental_uris": {"android": "https://dc.lft.to/lastmile_qr_scan", "ios": "https://dc.lft.to/lastmile_qr_scan"}, "fusion_lon": 0.0}, {"lat": 38.844248666666665, "is_disabled": 0, "type": "electric_scooter", "lon": -76.997783, "bike_id": "b45b84b030b312112992b3d23dfaced2", "fusion_lat": 0.0, "name": "b45b84b030b312112992b3d23dfaced2", "is_reserved": 0, "rental_uris": {"android": "https://dc.lft.to/lastmile_qr_scan", "ios": "https://dc.lft.to/lastmile_qr_scan"}, "fusion_lon": 0.0}, {"lat": 38.8105175, "is_disabled": 0, "type": "electric_bike", "lon": -77.085076, "bike_id": "393123a78d8d4527c200ced23d8c7360", "fusion_lat": 0.0, "name": "393123a78d8d4527c200ced23d8c7360", "is_reserved": 0, "rental_uris": {"android": "https://dc.lft.to/lastmile_qr_scan", "ios": "https://dc.lft.to/lastmile_qr_scan"}, "fusion_lon": 0.0}, {"lat": 38.908699666666664, "is_disabled": 0, "type": "electric_scooter", "lon": -77.04660366666667, "bike_id": "52d1b785e8dead1fcebc81ee2e887039", "fusion_lat": 0.0, "name": "52d1b785e8dead1fcebc81ee2e887039", "is_reserved": 0, "rental_uris": {"android": "https://dc.lft.to/lastmile_qr_scan", "ios": "https://dc.lft.to/lastmile_qr_scan"}, "fusion_lon": 0.0}, {"lat": 38.96563183333333, "is_disabled": 0, "type": "electric_bike", "lon": -77.02300816666667, "bike_id": "44e475109338a5f01fdcc7278e9bf714", "fusion_lat": 0.0, "name": "44e475109338a5f01fdcc7278e9bf714", "is_reserved": 0, "rental_uris": {"android": "https://dc.lft.to/lastmile_qr_scan", "ios": "https://dc.lft.to/lastmile_qr_scan"}, "fusion_lon": 0.0}, {"lat": 38.9111035, "is_disabled": 0, "type": "electric_scooter", "lon": -77.04328766666667, "bike_id": "27bb4f5098f265bd0c4d3cc547a371a3", "fusion_lat": 0.0, "name": "27bb4f5098f265bd0c4d3cc547a371a3", "is_reserved": 0, "rental_uris": {"android": "https://dc.lft.to/lastmile_qr_scan", "ios": "https://dc.lft.to/lastmile_qr_scan"}, "fusion_lon": 0.0}, {"lat": 38.91995216666667, "is_disabled": 0, "type": "electric_scooter", "lon": -76.97297483333334, "bike_id": "e4afc50d1723cb015048692534c1ba46", "fusion_lat": 0.0, "name": "e4afc50d1723cb015048692534c1ba46", "is_reserved": 0, "rental_uris": {"android": "https://dc.lft.to/lastmile_qr_scan", "ios": "https://dc.lft.to/lastmile_qr_scan"}, "fusion_lon": 0.0}, {"lat": 38.92878433333333, "is_disabled": 0, "type": "electric_bike", "lon": -77.036965, "bike_id": "df3a348fc61a9ca8810ad5d83e3db10c", "fusion_lat": 0.0, "name": "df3a348fc61a9ca8810ad5d83e3db10c", "is_reserved": 0, "rental_uris": {"android": "https://dc.lft.to/lastmile_qr_scan", "ios": "https://dc.lft.to/lastmile_qr_scan"}, "fusion_lon": 0.0}, {"lat": 38.915992, "is_disabled": 0, "type": "electric_scooter", "lon": -77.0238155, "bike_id": "8d16cdaa093c048d6ffde3506371b9c7", "fusion_lat": 0.0, "name": "8d16cdaa093c048d6ffde3506371b9c7", "is_reserved": 0, "rental_uris": {"android": "https://dc.lft.to/lastmile_qr_scan", "ios": "https://dc.lft.to/lastmile_qr_scan"}, "fusion_lon": 0.0}, {"lat": 38.924241333333335, "is_disabled": 0, "type": "electric_scooter", "lon": -77.05191333333333, "bike_id": "c98c0c8a4492a19e0daabb460010c8dc", "fusion_lat": 0.0, "name": "c98c0c8a4492a19e0daabb460010c8dc", "is_reserved": 0, "rental_uris": {"android": "https://dc.lft.to/lastmile_qr_scan", "ios": "https://dc.lft.to/lastmile_qr_scan"}, "fusion_lon": 0.0}, {"lat": 38.895262333333335, "is_disabled": 0, "type": "electric_scooter", "lon": -77.04344083333334, "bike_id": "2e9f799bc51a9a179d04e50c79d2a652", "fusion_lat": 0.0, "name": "2e9f799bc51a9a179d04e50c79d2a652", "is_reserved": 0, "rental_uris": {"android": "https://dc.lft.to/lastmile_qr_scan", "ios": "https://dc.lft.to/lastmile_qr_scan"}, "fusion_lon": 0.0}, {"lat": 38.92326683333334, "is_disabled": 0, "type": "electric_scooter", "lon": -77.03901666666667, "bike_id": "b0bacaabbc56332916dcf6d4f9a3df82", "fusion_lat": 0.0, "name": "b0bacaabbc56332916dcf6d4f9a3df82", "is_reserved": 0, "rental_uris": {"android": "https://dc.lft.to/lastmile_qr_scan", "ios": "https://dc.lft.to/lastmile_qr_scan"}, "fusion_lon": 0.0}, {"lat": 38.90967233333333, "is_disabled": 0, "type": "electric_scooter", "lon": -77.045096, "bike_id": "39673962e3b5e4c61799404be85cbc22", "fusion_lat": 0.0, "name": "39673962e3b5e4c61799404be85cbc22", "is_reserved": 0, "rental_uris": {"android": "https://dc.lft.to/lastmile_qr_scan", "ios": "https://dc.lft.to/lastmile_qr_scan"}, "fusion_lon": 0.0}, {"lat": 38.901311166666666, "is_disabled": 0, "type": "electric_scooter", "lon": -77.00066733333334, "bike_id": "3aebd4ee9fc2a1f7ae65ea5c312927e6", "fusion_lat": 0.0, "name": "3aebd4ee9fc2a1f7ae65ea5c312927e6", "is_reserved": 0, "rental_uris": {"android": "https://dc.lft.to/lastmile_qr_scan", "ios": "https://dc.lft.to/lastmile_qr_scan"}, "fusion_lon": 0.0}, {"lat": 38.921790333333334, "is_disabled": 0, "type": "electric_scooter", "lon": -77.0423445, "bike_id": "4067fa0de8972406d00fb0f3b5200e54", "fusion_lat": 0.0, "name": "4067fa0de8972406d00fb0f3b5200e54", "is_reserved": 0, "rental_uris": {"android": "https://dc.lft.to/lastmile_qr_scan", "ios": "https://dc.lft.to/lastmile_qr_scan"}, "fusion_lon": 0.0}, {"lat": 38.907275166666665, "is_disabled": 0, "type": "electric_scooter", "lon": -77.04830883333334, "bike_id": "23d283f9dd796d3de8dfd9854323fd7b", "fusion_lat": 0.0, "name": "23d283f9dd796d3de8dfd9854323fd7b", "is_reserved": 0, "rental_uris": {"android": "https://dc.lft.to/lastmile_qr_scan", "ios": "https://dc.lft.to/lastmile_qr_scan"}, "fusion_lon": 0.0}, {"lat": 38.900729, "is_disabled": 0, "type": "electric_scooter", "lon": -77.05310966666667, "bike_id": "b26dffe2980f8dd6a677759ee34a0388", "fusion_lat": 0.0, "name": "b26dffe2980f8dd6a677759ee34a0388", "is_reserved": 0, "rental_uris": {"android": "https://dc.lft.to/lastmile_qr_scan", "ios": "https://dc.lft.to/lastmile_qr_scan"}, "fusion_lon": 0.0}, {"lat": 38.95172783333334, "is_disabled": 0, "type": "electric_scooter", "lon": -77.00981516666667, "bike_id": "e49072923e1513a96799f44f591484dd", "fusion_lat": 0.0, "name": "e49072923e1513a96799f44f591484dd", "is_reserved": 0, "rental_uris": {"android": "https://dc.lft.to/lastmile_qr_scan", "ios": "https://dc.lft.to/lastmile_qr_scan"}, "fusion_lon": 0.0}, {"lat": 38.9368005, "is_disabled": 0, "type": "electric_scooter", "lon": -77.0357645, "bike_id": "161e4a3d4e0ab16746d749875e6e9ca9", "fusion_lat": 0.0, "name": "161e4a3d4e0ab16746d749875e6e9ca9", "is_reserved": 0, "rental_uris": {"android": "https://dc.lft.to/lastmile_qr_scan", "ios": "https://dc.lft.to/lastmile_qr_scan"}, "fusion_lon": 0.0}, {"lat": 38.94632266666667, "is_disabled": 0, "type": "electric_scooter", "lon": -77.0184755, "bike_id": "21d5b7e103918c6550c0d57b51119b51", "fusion_lat": 0.0, "name": "21d5b7e103918c6550c0d57b51119b51", "is_reserved": 0, "rental_uris": {"android": "https://dc.lft.to/lastmile_qr_scan", "ios": "https://dc.lft.to/lastmile_qr_scan"}, "fusion_lon": 0.0}, {"lat": 39.0305075, "is_disabled": 0, "type": "electric_bike", "lon": -77.09490933333333, "bike_id": "1127e02b1405fd3883051edb89759e61", "fusion_lat": 0.0, "name": "1127e02b1405fd3883051edb89759e61", "is_reserved": 0, "rental_uris": {"android": "https://dc.lft.to/lastmile_qr_scan", "ios": "https://dc.lft.to/lastmile_qr_scan"}, "fusion_lon": 0.0}, {"lat": 38.9220895, "is_disabled": 0, "type": "electric_scooter", "lon": -77.04256966666667, "bike_id": "b75d4fe2407bd6147248e5d7388ac55d", "fusion_lat": 0.0, "name": "b75d4fe2407bd6147248e5d7388ac55d", "is_reserved": 0, "rental_uris": {"android": "https://dc.lft.to/lastmile_qr_scan", "ios": "https://dc.lft.to/lastmile_qr_scan"}, "fusion_lon": 0.0}, {"lat": 38.88094983333333, "is_disabled": 0, "type": "electric_scooter", "lon": -76.99250183333334, "bike_id": "85afead5140ed2874215df9cb9043b53", "fusion_lat": 0.0, "name": "85afead5140ed2874215df9cb9043b53", "is_reserved": 0, "rental_uris": {"android": "https://dc.lft.to/lastmile_qr_scan", "ios": "https://dc.lft.to/lastmile_qr_scan"}, "fusion_lon": 0.0}, {"lat": 38.96606833333333, "is_disabled": 0, "type": "electric_scooter", "lon": -77.0232585, "bike_id": "2f5f79881b419af47d1b9314fcc056de", "fusion_lat": 0.0, "name": "2f5f79881b419af47d1b9314fcc056de", "is_reserved": 0, "rental_uris": {"android": "https://dc.lft.to/lastmile_qr_scan", "ios": "https://dc.lft.to/lastmile_qr_scan"}, "fusion_lon": 0.0}, {"lat": 38.922621666666664, "is_disabled": 0, "type": "electric_scooter", "lon": -77.01977633333334, "bike_id": "73c825d1447fefc60c2c9c0f663f1376", "fusion_lat": 0.0, "name": "73c825d1447fefc60c2c9c0f663f1376", "is_reserved": 0, "rental_uris": {"android": "https://dc.lft.to/lastmile_qr_scan", "ios": "https://dc.lft.to/lastmile_qr_scan"}, "fusion_lon": 0.0}, {"lat": 38.984293666666666, "is_disabled": 0, "type": "electric_scooter", "lon": -77.02674883333333, "bike_id": "840352d2ce6b32a21d768244f01221ca", "fusion_lat": 0.0, "name": "840352d2ce6b32a21d768244f01221ca", "is_reserved": 0, "rental_uris": {"android": "https://dc.lft.to/lastmile_qr_scan", "ios": "https://dc.lft.to/lastmile_qr_scan"}, "fusion_lon": 0.0}, {"lat": 38.93900283333333, "is_disabled": 0, "type": "electric_scooter", "lon": -77.03311116666667, "bike_id": "3cd47627b258c47fe48deba4a274f1eb", "fusion_lat": 0.0, "name": "3cd47627b258c47fe48deba4a274f1eb", "is_reserved": 0, "rental_uris": {"android": "https://dc.lft.to/lastmile_qr_scan", "ios": "https://dc.lft.to/lastmile_qr_scan"}, "fusion_lon": 0.0}, {"lat": 38.900746833333336, "is_disabled": 0, "type": "electric_scooter", "lon": -77.00756966666667, "bike_id": "d2b1bb7b167837597a8475d0e27a0053", "fusion_lat": 0.0, "name": "d2b1bb7b167837597a8475d0e27a0053", "is_reserved": 0, "rental_uris": {"android": "https://dc.lft.to/lastmile_qr_scan", "ios": "https://dc.lft.to/lastmile_qr_scan"}, "fusion_lon": 0.0}, {"lat": 38.82786133333333, "is_disabled": 0, "type": "electric_bike", "lon": -77.00916833333333, "bike_id": "83c82c45b5df8576b70871f25290b109", "fusion_lat": 0.0, "name": "83c82c45b5df8576b70871f25290b109", "is_reserved": 0, "rental_uris": {"android": "https://dc.lft.to/lastmile_qr_scan", "ios": "https://dc.lft.to/lastmile_qr_scan"}, "fusion_lon": 0.0}, {"lat": 38.909718, "is_disabled": 0, "type": "electric_scooter", "lon": -77.04801316666666, "bike_id": "7c1f74df1424ee2bfb5afd0693946b80", "fusion_lat": 0.0, "name": "7c1f74df1424ee2bfb5afd0693946b80", "is_reserved": 0, "rental_uris": {"android": "https://dc.lft.to/lastmile_qr_scan", "ios": "https://dc.lft.to/lastmile_qr_scan"}, "fusion_lon": 0.0}, {"lat": 38.93192, "is_disabled": 0, "type": "electric_scooter", "lon": -77.02565766666666, "bike_id": "cb0d5fd6580cbfa330a9d43f24b7075a", "fusion_lat": 0.0, "name": "cb0d5fd6580cbfa330a9d43f24b7075a", "is_reserved": 0, "rental_uris": {"android": "https://dc.lft.to/lastmile_qr_scan", "ios": "https://dc.lft.to/lastmile_qr_scan"}, "fusion_lon": 0.0}, {"lat": 38.883691, "is_disabled": 0, "type": "electric_scooter", "lon": -76.99506016666666, "bike_id": "1ae3b22afabbf8ab05f4ff1743ef2cbd", "fusion_lat": 0.0, "name": "1ae3b22afabbf8ab05f4ff1743ef2cbd", "is_reserved": 0, "rental_uris": {"android": "https://dc.lft.to/lastmile_qr_scan", "ios": "https://dc.lft.to/lastmile_qr_scan"}, "fusion_lon": 0.0}, {"lat": 38.896283, "is_disabled": 0, "type": "electric_scooter", "lon": -77.03306233333333, "bike_id": "507a33dba755552a1e46c35481bce490", "fusion_lat": 0.0, "name": "507a33dba755552a1e46c35481bce490", "is_reserved": 0, "rental_uris": {"android": "https://dc.lft.to/lastmile_qr_scan", "ios": "https://dc.lft.to/lastmile_qr_scan"}, "fusion_lon": 0.0}, {"lat": 38.95664133333333, "is_disabled": 0, "type": "electric_bike", "lon": -77.01155316666667, "bike_id": "a717c8eed203a52d0ea0e83024d70d00", "fusion_lat": 0.0, "name": "a717c8eed203a52d0ea0e83024d70d00", "is_reserved": 0, "rental_uris": {"android": "https://dc.lft.to/lastmile_qr_scan", "ios": "https://dc.lft.to/lastmile_qr_scan"}, "fusion_lon": 0.0}, {"lat": 38.897129666666665, "is_disabled": 0, "type": "electric_scooter", "lon": -77.02810633333333, "bike_id": "35b7bc3f02c8d28db9a353e296acc504", "fusion_lat": 0.0, "name": "35b7bc3f02c8d28db9a353e296acc504", "is_reserved": 0, "rental_uris": {"android": "https://dc.lft.to/lastmile_qr_scan", "ios": "https://dc.lft.to/lastmile_qr_scan"}, "fusion_lon": 0.0}, {"lat": 38.90974283333333, "is_disabled": 0, "type": "electric_scooter", "lon": -77.03864683333333, "bike_id": "15185defc09cab1682b164739747c479", "fusion_lat": 0.0, "name": "15185defc09cab1682b164739747c479", "is_reserved": 0, "rental_uris": {"android": "https://dc.lft.to/lastmile_qr_scan", "ios": "https://dc.lft.to/lastmile_qr_scan"}, "fusion_lon": 0.0}, {"lat": 38.887997, "is_disabled": 0, "type": "electric_scooter", "lon": -76.933646, "bike_id": "f48887c7ef8160c5246f27b5a660e848", "fusion_lat": 0.0, "name": "f48887c7ef8160c5246f27b5a660e848", "is_reserved": 0, "rental_uris": {"android": "https://dc.lft.to/lastmile_qr_scan", "ios": "https://dc.lft.to/lastmile_qr_scan"}, "fusion_lon": 0.0}, {"lat": 38.889242833333334, "is_disabled": 0, "type": "electric_scooter", "lon": -77.02165116666667, "bike_id": "0cd991f787d6d57defa0ee74eb6ea0af", "fusion_lat": 0.0, "name": "0cd991f787d6d57defa0ee74eb6ea0af", "is_reserved": 0, "rental_uris": {"android": "https://dc.lft.to/lastmile_qr_scan", "ios": "https://dc.lft.to/lastmile_qr_scan"}, "fusion_lon": 0.0}, {"lat": 38.893253666666666, "is_disabled": 0, "type": "electric_scooter", "lon": -76.930007, "bike_id": "c08dbe9e8381ff46f909b36054a4ccd2", "fusion_lat": 0.0, "name": "c08dbe9e8381ff46f909b36054a4ccd2", "is_reserved": 0, "rental_uris": {"android": "https://dc.lft.to/lastmile_qr_scan", "ios": "https://dc.lft.to/lastmile_qr_scan"}, "fusion_lon": 0.0}, {"lat": 38.90967116666667, "is_disabled": 0, "type": "electric_scooter", "lon": -76.98471316666667, "bike_id": "09761577a00728c281cf6c2e18729d39", "fusion_lat": 0.0, "name": "09761577a00728c281cf6c2e18729d39", "is_reserved": 0, "rental_uris": {"android": "https://dc.lft.to/lastmile_qr_scan", "ios": "https://dc.lft.to/lastmile_qr_scan"}, "fusion_lon": 0.0}, {"lat": 38.922877166666666, "is_disabled": 0, "type": "electric_scooter", "lon": -77.036621, "bike_id": "502485b60233cfe43fc2555865c02674", "fusion_lat": 0.0, "name": "502485b60233cfe43fc2555865c02674", "is_reserved": 0, "rental_uris": {"android": "https://dc.lft.to/lastmile_qr_scan", "ios": "https://dc.lft.to/lastmile_qr_scan"}, "fusion_lon": 0.0}, {"lat": 38.946372833333335, "is_disabled": 0, "type": "electric_scooter", "lon": -77.01940733333333, "bike_id": "937d04886e1bd3ca8979c26d241e8b20", "fusion_lat": 0.0, "name": "937d04886e1bd3ca8979c26d241e8b20", "is_reserved": 0, "rental_uris": {"android": "https://dc.lft.to/lastmile_qr_scan", "ios": "https://dc.lft.to/lastmile_qr_scan"}, "fusion_lon": 0.0}, {"lat": 38.89221766666667, "is_disabled": 0, "type": "electric_scooter", "lon": -77.0436, "bike_id": "df15d320aab8128b712370f6fced7807", "fusion_lat": 0.0, "name": "df15d320aab8128b712370f6fced7807", "is_reserved": 0, "rental_uris": {"android": "https://dc.lft.to/lastmile_qr_scan", "ios": "https://dc.lft.to/lastmile_qr_scan"}, "fusion_lon": 0.0}, {"lat": 39.034046, "is_disabled": 0, "type": "electric_bike", "lon": -77.04203566666666, "bike_id": "d610211d8424a182729abc77aa71d4d9", "fusion_lat": 0.0, "name": "d610211d8424a182729abc77aa71d4d9", "is_reserved": 0, "rental_uris": {"android": "https://dc.lft.to/lastmile_qr_scan", "ios": "https://dc.lft.to/lastmile_qr_scan"}, "fusion_lon": 0.0}, {"lat": 38.9030725, "is_disabled": 0, "type": "electric_scooter", "lon": -77.02053683333334, "bike_id": "8826a7a10402ac9ca829321b370c8a5a", "fusion_lat": 0.0, "name": "8826a7a10402ac9ca829321b370c8a5a", "is_reserved": 0, "rental_uris": {"android": "https://dc.lft.to/lastmile_qr_scan", "ios": "https://dc.lft.to/lastmile_qr_scan"}, "fusion_lon": 0.0}, {"lat": 38.8962935, "is_disabled": 0, "type": "electric_scooter", "lon": -76.9985645, "bike_id": "14adfed8b157ab0f7f714ed0047eab53", "fusion_lat": 0.0, "name": "14adfed8b157ab0f7f714ed0047eab53", "is_reserved": 0, "rental_uris": {"android": "https://dc.lft.to/lastmile_qr_scan", "ios": "https://dc.lft.to/lastmile_qr_scan"}, "fusion_lon": 0.0}, {"lat": 38.917327666666665, "is_disabled": 0, "type": "electric_bike", "lon": -77.00800783333334, "bike_id": "33a3ac361d1e08eb3a746a608b28939e", "fusion_lat": 0.0, "name": "33a3ac361d1e08eb3a746a608b28939e", "is_reserved": 0, "rental_uris": {"android": "https://dc.lft.to/lastmile_qr_scan", "ios": "https://dc.lft.to/lastmile_qr_scan"}, "fusion_lon": 0.0}, {"lat": 38.8763025, "is_disabled": 0, "type": "electric_scooter", "lon": -76.96529133333334, "bike_id": "cb1516e34790d9c896962b9ced85863b", "fusion_lat": 0.0, "name": "cb1516e34790d9c896962b9ced85863b", "is_reserved": 0, "rental_uris": {"android": "https://dc.lft.to/lastmile_qr_scan", "ios": "https://dc.lft.to/lastmile_qr_scan"}, "fusion_lon": 0.0}, {"lat": 38.90233083333333, "is_disabled": 0, "type": "electric_scooter", "lon": -77.023794, "bike_id": "c2dfa00522b3c0c7ae29dc3658b0227e", "fusion_lat": 0.0, "name": "c2dfa00522b3c0c7ae29dc3658b0227e", "is_reserved": 0, "rental_uris": {"android": "https://dc.lft.to/lastmile_qr_scan", "ios": "https://dc.lft.to/lastmile_qr_scan"}, "fusion_lon": 0.0}, {"lat": 38.901013, "is_disabled": 0, "type": "electric_scooter", "lon": -77.01361716666666, "bike_id": "ebe18e71984e8e0bc57b7cc6f7a14376", "fusion_lat": 0.0, "name": "ebe18e71984e8e0bc57b7cc6f7a14376", "is_reserved": 0, "rental_uris": {"android": "https://dc.lft.to/lastmile_qr_scan", "ios": "https://dc.lft.to/lastmile_qr_scan"}, "fusion_lon": 0.0}, {"lat": 38.89823916666667, "is_disabled": 0, "type": "electric_scooter", "lon": -77.03177633333334, "bike_id": "02edd50f685a5766183190721993217f", "fusion_lat": 0.0, "name": "02edd50f685a5766183190721993217f", "is_reserved": 0, "rental_uris": {"android": "https://dc.lft.to/lastmile_qr_scan", "ios": "https://dc.lft.to/lastmile_qr_scan"}, "fusion_lon": 0.0}, {"lat": 38.902438333333336, "is_disabled": 0, "type": "electric_scooter", "lon": -77.0533005, "bike_id": "d4c301cbcce87d80e83d7243a39d8ea3", "fusion_lat": 0.0, "name": "d4c301cbcce87d80e83d7243a39d8ea3", "is_reserved": 0, "rental_uris": {"android": "https://dc.lft.to/lastmile_qr_scan", "ios": "https://dc.lft.to/lastmile_qr_scan"}, "fusion_lon": 0.0}, {"lat": 38.907965, "is_disabled": 0, "type": "electric_scooter", "lon": -77.03644833333334, "bike_id": "6312fb49c18200e5d7bd6c83db599d94", "fusion_lat": 0.0, "name": "6312fb49c18200e5d7bd6c83db599d94", "is_reserved": 0, "rental_uris": {"android": "https://dc.lft.to/lastmile_qr_scan", "ios": "https://dc.lft.to/lastmile_qr_scan"}, "fusion_lon": 0.0}, {"lat": 38.92299283333333, "is_disabled": 0, "type": "electric_scooter", "lon": -77.03660216666667, "bike_id": "63368f1cb346781395e30726bd04eea4", "fusion_lat": 0.0, "name": "63368f1cb346781395e30726bd04eea4", "is_reserved": 0, "rental_uris": {"android": "https://dc.lft.to/lastmile_qr_scan", "ios": "https://dc.lft.to/lastmile_qr_scan"}, "fusion_lon": 0.0}, {"lat": 38.93879866666666, "is_disabled": 0, "type": "electric_scooter", "lon": -77.03284816666667, "bike_id": "52ce21bd20cf82f0323f345da2febd00", "fusion_lat": 0.0, "name": "52ce21bd20cf82f0323f345da2febd00", "is_reserved": 0, "rental_uris": {"android": "https://dc.lft.to/lastmile_qr_scan", "ios": "https://dc.lft.to/lastmile_qr_scan"}, "fusion_lon": 0.0}, {"lat": 38.973136333333336, "is_disabled": 0, "type": "electric_scooter", "lon": -77.02699116666666, "bike_id": "ae5b9ed1239a305704e76980065fc79f", "fusion_lat": 0.0, "name": "ae5b9ed1239a305704e76980065fc79f", "is_reserved": 0, "rental_uris": {"android": "https://dc.lft.to/lastmile_qr_scan", "ios": "https://dc.lft.to/lastmile_qr_scan"}, "fusion_lon": 0.0}, {"lat": 38.92834383333334, "is_disabled": 0, "type": "electric_scooter", "lon": -77.021913, "bike_id": "d23d44943cc41dd8c463587fa371ff75", "fusion_lat": 0.0, "name": "d23d44943cc41dd8c463587fa371ff75", "is_reserved": 0, "rental_uris": {"android": "https://dc.lft.to/lastmile_qr_scan", "ios": "https://dc.lft.to/lastmile_qr_scan"}, "fusion_lon": 0.0}, {"lat": 38.9109855, "is_disabled": 0, "type": "electric_scooter", "lon": -77.03183333333334, "bike_id": "180e328e6a07b88a300c9e5dc709d9be", "fusion_lat": 0.0, "name": "180e328e6a07b88a300c9e5dc709d9be", "is_reserved": 0, "rental_uris": {"android": "https://dc.lft.to/lastmile_qr_scan", "ios": "https://dc.lft.to/lastmile_qr_scan"}, "fusion_lon": 0.0}, {"lat": 38.869847, "is_disabled": 0, "type": "electric_bike", "lon": -76.95982766666667, "bike_id": "ae5ce904cd465259e7b57ef93f52e07a", "fusion_lat": 0.0, "name": "ae5ce904cd465259e7b57ef93f52e07a", "is_reserved": 0, "rental_uris": {"android": "https://dc.lft.to/lastmile_qr_scan", "ios": "https://dc.lft.to/lastmile_qr_scan"}, "fusion_lon": 0.0}, {"lat": 38.858963, "is_disabled": 0, "type": "electric_scooter", "lon": -76.99434883333333, "bike_id": "2bd6d099fdf36c9eaff0100e22cee084", "fusion_lat": 0.0, "name": "2bd6d099fdf36c9eaff0100e22cee084", "is_reserved": 0, "rental_uris": {"android": "https://dc.lft.to/lastmile_qr_scan", "ios": "https://dc.lft.to/lastmile_qr_scan"}, "fusion_lon": 0.0}, {"lat": 38.8995855, "is_disabled": 0, "type": "electric_scooter", "lon": -77.02108133333333, "bike_id": "3d46dabb3363188c19ff9b3e02f99484", "fusion_lat": 0.0, "name": "3d46dabb3363188c19ff9b3e02f99484", "is_reserved": 0, "rental_uris": {"android": "https://dc.lft.to/lastmile_qr_scan", "ios": "https://dc.lft.to/lastmile_qr_scan"}, "fusion_lon": 0.0}, {"lat": 38.985, "is_disabled": 0, "type": "electric_bike", "lon": -76.98203266666667, "bike_id": "c8c06d7d59fbc4d81aed7cf9373dbd18", "fusion_lat": 0.0, "name": "c8c06d7d59fbc4d81aed7cf9373dbd18", "is_reserved": 0, "rental_uris": {"android": "https://dc.lft.to/lastmile_qr_scan", "ios": "https://dc.lft.to/lastmile_qr_scan"}, "fusion_lon": 0.0}, {"lat": 38.932385, "is_disabled": 0, "type": "electric_bike", "lon": -76.9742605, "bike_id": "2be2696eb2db8bd8c3e3f4f0ed0f5dd4", "fusion_lat": 0.0, "name": "2be2696eb2db8bd8c3e3f4f0ed0f5dd4", "is_reserved": 0, "rental_uris": {"android": "https://dc.lft.to/lastmile_qr_scan", "ios": "https://dc.lft.to/lastmile_qr_scan"}, "fusion_lon": 0.0}, {"lat": 38.88135033333333, "is_disabled": 0, "type": "electric_scooter", "lon": -77.01698083333333, "bike_id": "a98148c82c3783d7d9d8027a5b30e930", "fusion_lat": 0.0, "name": "a98148c82c3783d7d9d8027a5b30e930", "is_reserved": 0, "rental_uris": {"android": "https://dc.lft.to/lastmile_qr_scan", "ios": "https://dc.lft.to/lastmile_qr_scan"}, "fusion_lon": 0.0}, {"lat": 38.82266583333333, "is_disabled": 0, "type": "electric_bike", "lon": -77.05809566666667, "bike_id": "db1c8c34899216bc09be65b22178d8b6", "fusion_lat": 0.0, "name": "db1c8c34899216bc09be65b22178d8b6", "is_reserved": 0, "rental_uris": {"android": "https://dc.lft.to/lastmile_qr_scan", "ios": "https://dc.lft.to/lastmile_qr_scan"}, "fusion_lon": 0.0}, {"lat": 38.886182833333336, "is_disabled": 0, "type": "electric_scooter", "lon": -77.02177766666667, "bike_id": "3d1ce49beda57e61a403118d9d0d4452", "fusion_lat": 0.0, "name": "3d1ce49beda57e61a403118d9d0d4452", "is_reserved": 0, "rental_uris": {"android": "https://dc.lft.to/lastmile_qr_scan", "ios": "https://dc.lft.to/lastmile_qr_scan"}, "fusion_lon": 0.0}, {"lat": 38.905158666666665, "is_disabled": 0, "type": "electric_scooter", "lon": -77.0261175, "bike_id": "9e80812f05d9168b40017b176e911dcf", "fusion_lat": 0.0, "name": "9e80812f05d9168b40017b176e911dcf", "is_reserved": 0, "rental_uris": {"android": "https://dc.lft.to/lastmile_qr_scan", "ios": "https://dc.lft.to/lastmile_qr_scan"}, "fusion_lon": 0.0}, {"lat": 38.905556, "is_disabled": 0, "type": "electric_scooter", "lon": -77.03408083333333, "bike_id": "96cdd4e3b2dacb1f71e9e54d218b8f1a", "fusion_lat": 0.0, "name": "96cdd4e3b2dacb1f71e9e54d218b8f1a", "is_reserved": 0, "rental_uris": {"android": "https://dc.lft.to/lastmile_qr_scan", "ios": "https://dc.lft.to/lastmile_qr_scan"}, "fusion_lon": 0.0}, {"lat": 38.924283, "is_disabled": 0, "type": "electric_scooter", "lon": -77.05188566666666, "bike_id": "51f0f06b2e04faf1ab4144f0e8ee36f4", "fusion_lat": 0.0, "name": "51f0f06b2e04faf1ab4144f0e8ee36f4", "is_reserved": 0, "rental_uris": {"android": "https://dc.lft.to/lastmile_qr_scan", "ios": "https://dc.lft.to/lastmile_qr_scan"}, "fusion_lon": 0.0}, {"lat": 38.8935, "is_disabled": 0, "type": "electric_scooter", "lon": -76.9493215, "bike_id": "01b6188e1228c0aa8e7f1b0a7642232e", "fusion_lat": 0.0, "name": "01b6188e1228c0aa8e7f1b0a7642232e", "is_reserved": 0, "rental_uris": {"android": "https://dc.lft.to/lastmile_qr_scan", "ios": "https://dc.lft.to/lastmile_qr_scan"}, "fusion_lon": 0.0}, {"lat": 38.918240833333336, "is_disabled": 0, "type": "electric_scooter", "lon": -77.03451333333334, "bike_id": "772e5251537aeca08c484c91758add01", "fusion_lat": 0.0, "name": "772e5251537aeca08c484c91758add01", "is_reserved": 0, "rental_uris": {"android": "https://dc.lft.to/lastmile_qr_scan", "ios": "https://dc.lft.to/lastmile_qr_scan"}, "fusion_lon": 0.0}, {"lat": 38.92882133333333, "is_disabled": 0, "type": "electric_scooter", "lon": -77.02711616666667, "bike_id": "1bd5635d03bc6bfff729c3970bd34dae", "fusion_lat": 0.0, "name": "1bd5635d03bc6bfff729c3970bd34dae", "is_reserved": 0, "rental_uris": {"android": "https://dc.lft.to/lastmile_qr_scan", "ios": "https://dc.lft.to/lastmile_qr_scan"}, "fusion_lon": 0.0}, {"lat": 38.9315135, "is_disabled": 0, "type": "electric_scooter", "lon": -77.0457165, "bike_id": "30643f7da7e045b962be279bddcca864", "fusion_lat": 0.0, "name": "30643f7da7e045b962be279bddcca864", "is_reserved": 0, "rental_uris": {"android": "https://dc.lft.to/lastmile_qr_scan", "ios": "https://dc.lft.to/lastmile_qr_scan"}, "fusion_lon": 0.0}, {"lat": 38.91699583333333, "is_disabled": 0, "type": "electric_scooter", "lon": -77.0313185, "bike_id": "9d0dbfec24a9d5547ec75ab68ef1af22", "fusion_lat": 0.0, "name": "9d0dbfec24a9d5547ec75ab68ef1af22", "is_reserved": 0, "rental_uris": {"android": "https://dc.lft.to/lastmile_qr_scan", "ios": "https://dc.lft.to/lastmile_qr_scan"}, "fusion_lon": 0.0}, {"lat": 38.902972166666665, "is_disabled": 0, "type": "electric_scooter", "lon": -77.01743783333333, "bike_id": "086ec29f7d854438036ba9850fb71ebc", "fusion_lat": 0.0, "name": "086ec29f7d854438036ba9850fb71ebc", "is_reserved": 0, "rental_uris": {"android": "https://dc.lft.to/lastmile_qr_scan", "ios": "https://dc.lft.to/lastmile_qr_scan"}, "fusion_lon": 0.0}, {"lat": 38.873740833333336, "is_disabled": 0, "type": "electric_bike", "lon": -77.11796466666667, "bike_id": "19cb0c42628f0429252557470657e831", "fusion_lat": 0.0, "name": "19cb0c42628f0429252557470657e831", "is_reserved": 0, "rental_uris": {"android": "https://dc.lft.to/lastmile_qr_scan", "ios": "https://dc.lft.to/lastmile_qr_scan"}, "fusion_lon": 0.0}, {"lat": 38.944391333333336, "is_disabled": 0, "type": "electric_scooter", "lon": -76.99212466666667, "bike_id": "35c332f63871acde3645e0edab16f1c0", "fusion_lat": 0.0, "name": "35c332f63871acde3645e0edab16f1c0", "is_reserved": 0, "rental_uris": {"android": "https://dc.lft.to/lastmile_qr_scan", "ios": "https://dc.lft.to/lastmile_qr_scan"}, "fusion_lon": 0.0}, {"lat": 38.874764666666664, "is_disabled": 0, "type": "electric_scooter", "lon": -77.010696, "bike_id": "e5368588d94a366b897220f04d7393a1", "fusion_lat": 0.0, "name": "e5368588d94a366b897220f04d7393a1", "is_reserved": 0, "rental_uris": {"android": "https://dc.lft.to/lastmile_qr_scan", "ios": "https://dc.lft.to/lastmile_qr_scan"}, "fusion_lon": 0.0}, {"lat": 38.9022325, "is_disabled": 0, "type": "electric_scooter", "lon": -77.02832416666666, "bike_id": "fd6083a16fb96ececcd9a58b61767045", "fusion_lat": 0.0, "name": "fd6083a16fb96ececcd9a58b61767045", "is_reserved": 0, "rental_uris": {"android": "https://dc.lft.to/lastmile_qr_scan", "ios": "https://dc.lft.to/lastmile_qr_scan"}, "fusion_lon": 0.0}, {"lat": 38.899729, "is_disabled": 0, "type": "electric_scooter", "lon": -77.05088416666666, "bike_id": "a11ff90d65631efc92e1cfdcec945131", "fusion_lat": 0.0, "name": "a11ff90d65631efc92e1cfdcec945131", "is_reserved": 0, "rental_uris": {"android": "https://dc.lft.to/lastmile_qr_scan", "ios": "https://dc.lft.to/lastmile_qr_scan"}, "fusion_lon": 0.0}, {"lat": 38.897415, "is_disabled": 0, "type": "electric_scooter", "lon": -77.046828, "bike_id": "0148c46d347c72fbbb6c7308482f4836", "fusion_lat": 0.0, "name": "0148c46d347c72fbbb6c7308482f4836", "is_reserved": 0, "rental_uris": {"android": "https://dc.lft.to/lastmile_qr_scan", "ios": "https://dc.lft.to/lastmile_qr_scan"}, "fusion_lon": 0.0}, {"lat": 38.912698166666665, "is_disabled": 0, "type": "electric_scooter", "lon": -77.03849766666667, "bike_id": "cc487c8e6b03b02997330bed1c77d375", "fusion_lat": 0.0, "name": "cc487c8e6b03b02997330bed1c77d375", "is_reserved": 0, "rental_uris": {"android": "https://dc.lft.to/lastmile_qr_scan", "ios": "https://dc.lft.to/lastmile_qr_scan"}, "fusion_lon": 0.0}, {"lat": 38.892256333333336, "is_disabled": 0, "type": "electric_scooter", "lon": -77.02645416666667, "bike_id": "e9032a09c6df3eaf4c0c294458a9b492", "fusion_lat": 0.0, "name": "e9032a09c6df3eaf4c0c294458a9b492", "is_reserved": 0, "rental_uris": {"android": "https://dc.lft.to/lastmile_qr_scan", "ios": "https://dc.lft.to/lastmile_qr_scan"}, "fusion_lon": 0.0}, {"lat": 38.876802, "is_disabled": 0, "type": "electric_scooter", "lon": -77.0178915, "bike_id": "585cb0212c52227939fcf44010971a60", "fusion_lat": 0.0, "name": "585cb0212c52227939fcf44010971a60", "is_reserved": 0, "rental_uris": {"android": "https://dc.lft.to/lastmile_qr_scan", "ios": "https://dc.lft.to/lastmile_qr_scan"}, "fusion_lon": 0.0}, {"lat": 38.906903, "is_disabled": 0, "type": "electric_scooter", "lon": -76.99963416666667, "bike_id": "e280221c1f66232d9626a5c5945941f0", "fusion_lat": 0.0, "name": "e280221c1f66232d9626a5c5945941f0", "is_reserved": 0, "rental_uris": {"android": "https://dc.lft.to/lastmile_qr_scan", "ios": "https://dc.lft.to/lastmile_qr_scan"}, "fusion_lon": 0.0}, {"lat": 38.926318333333334, "is_disabled": 0, "type": "electric_scooter", "lon": -77.03790683333334, "bike_id": "0827bc5b0f9725ad2a31dbbc05d8e752", "fusion_lat": 0.0, "name": "0827bc5b0f9725ad2a31dbbc05d8e752", "is_reserved": 0, "rental_uris": {"android": "https://dc.lft.to/lastmile_qr_scan", "ios": "https://dc.lft.to/lastmile_qr_scan"}, "fusion_lon": 0.0}, {"lat": 38.91914416666667, "is_disabled": 0, "type": "electric_scooter", "lon": -77.0338955, "bike_id": "1d864f4b2ee0856f02cf46e08163d6ee", "fusion_lat": 0.0, "name": "1d864f4b2ee0856f02cf46e08163d6ee", "is_reserved": 0, "rental_uris": {"android": "https://dc.lft.to/lastmile_qr_scan", "ios": "https://dc.lft.to/lastmile_qr_scan"}, "fusion_lon": 0.0}, {"lat": 38.90301616666667, "is_disabled": 0, "type": "electric_scooter", "lon": -77.053232, "bike_id": "3a6e5b4fdeaed9d020671543681a0a0d", "fusion_lat": 0.0, "name": "3a6e5b4fdeaed9d020671543681a0a0d", "is_reserved": 0, "rental_uris": {"android": "https://dc.lft.to/lastmile_qr_scan", "ios": "https://dc.lft.to/lastmile_qr_scan"}, "fusion_lon": 0.0}, {"lat": 38.94603866666667, "is_disabled": 0, "type": "electric_scooter", "lon": -77.02978133333333, "bike_id": "22efcd9629eaf968b81765f3c669ba75", "fusion_lat": 0.0, "name": "22efcd9629eaf968b81765f3c669ba75", "is_reserved": 0, "rental_uris": {"android": "https://dc.lft.to/lastmile_qr_scan", "ios": "https://dc.lft.to/lastmile_qr_scan"}, "fusion_lon": 0.0}, {"lat": 38.9105535, "is_disabled": 0, "type": "electric_scooter", "lon": -77.01525116666667, "bike_id": "cd5296b2d3ce9ffd6361f6a908ac52f9", "fusion_lat": 0.0, "name": "cd5296b2d3ce9ffd6361f6a908ac52f9", "is_reserved": 0, "rental_uris": {"android": "https://dc.lft.to/lastmile_qr_scan", "ios": "https://dc.lft.to/lastmile_qr_scan"}, "fusion_lon": 0.0}, {"lat": 38.899631, "is_disabled": 0, "type": "electric_scooter", "lon": -77.05183833333334, "bike_id": "9d3dd4f68476bb4ab4b63fbb12130aaa", "fusion_lat": 0.0, "name": "9d3dd4f68476bb4ab4b63fbb12130aaa", "is_reserved": 0, "rental_uris": {"android": "https://dc.lft.to/lastmile_qr_scan", "ios": "https://dc.lft.to/lastmile_qr_scan"}, "fusion_lon": 0.0}, {"lat": 38.92418516666667, "is_disabled": 0, "type": "electric_scooter", "lon": -77.04446433333334, "bike_id": "bc6e19cf3fda5cfd7ded742948c0e37e", "fusion_lat": 0.0, "name": "bc6e19cf3fda5cfd7ded742948c0e37e", "is_reserved": 0, "rental_uris": {"android": "https://dc.lft.to/lastmile_qr_scan", "ios": "https://dc.lft.to/lastmile_qr_scan"}, "fusion_lon": 0.0}, {"lat": 38.8651355, "is_disabled": 0, "type": "electric_scooter", "lon": -76.97431083333333, "bike_id": "ea7c06f5875e975a36d663c0f789b679", "fusion_lat": 0.0, "name": "ea7c06f5875e975a36d663c0f789b679", "is_reserved": 0, "rental_uris": {"android": "https://dc.lft.to/lastmile_qr_scan", "ios": "https://dc.lft.to/lastmile_qr_scan"}, "fusion_lon": 0.0}, {"lat": 38.865604, "is_disabled": 0, "type": "electric_scooter", "lon": -76.98949366666666, "bike_id": "658e1d26c686fca1239b43f9e96c342c", "fusion_lat": 0.0, "name": "658e1d26c686fca1239b43f9e96c342c", "is_reserved": 0, "rental_uris": {"android": "https://dc.lft.to/lastmile_qr_scan", "ios": "https://dc.lft.to/lastmile_qr_scan"}, "fusion_lon": 0.0}, {"lat": 38.955651833333334, "is_disabled": 0, "type": "electric_scooter", "lon": -77.02226866666666, "bike_id": "efceb1e4fe3e36f5e11a7ad85d2f6e6f", "fusion_lat": 0.0, "name": "efceb1e4fe3e36f5e11a7ad85d2f6e6f", "is_reserved": 0, "rental_uris": {"android": "https://dc.lft.to/lastmile_qr_scan", "ios": "https://dc.lft.to/lastmile_qr_scan"}, "fusion_lon": 0.0}, {"lat": 38.9387215, "is_disabled": 0, "type": "electric_scooter", "lon": -77.02449283333333, "bike_id": "398c5dfae1024e2ceadf305b28e0e50e", "fusion_lat": 0.0, "name": "398c5dfae1024e2ceadf305b28e0e50e", "is_reserved": 0, "rental_uris": {"android": "https://dc.lft.to/lastmile_qr_scan", "ios": "https://dc.lft.to/lastmile_qr_scan"}, "fusion_lon": 0.0}, {"lat": 38.90918083333333, "is_disabled": 0, "type": "electric_scooter", "lon": -77.03643666666666, "bike_id": "9f9dfefe4fe68c805d2edebc79407728", "fusion_lat": 0.0, "name": "9f9dfefe4fe68c805d2edebc79407728", "is_reserved": 0, "rental_uris": {"android": "https://dc.lft.to/lastmile_qr_scan", "ios": "https://dc.lft.to/lastmile_qr_scan"}, "fusion_lon": 0.0}, {"lat": 38.890433, "is_disabled": 0, "type": "electric_scooter", "lon": -76.9898855, "bike_id": "3585654e0b9d9e53a5c537980afd282a", "fusion_lat": 0.0, "name": "3585654e0b9d9e53a5c537980afd282a", "is_reserved": 0, "rental_uris": {"android": "https://dc.lft.to/lastmile_qr_scan", "ios": "https://dc.lft.to/lastmile_qr_scan"}, "fusion_lon": 0.0}, {"lat": 38.88740083333333, "is_disabled": 0, "type": "electric_scooter", "lon": -77.03195266666667, "bike_id": "2e287e1775616fffad8a1013e2466a21", "fusion_lat": 0.0, "name": "2e287e1775616fffad8a1013e2466a21", "is_reserved": 0, "rental_uris": {"android": "https://dc.lft.to/lastmile_qr_scan", "ios": "https://dc.lft.to/lastmile_qr_scan"}, "fusion_lon": 0.0}, {"lat": 38.845743, "is_disabled": 0, "type": "electric_bike", "lon": -77.096242, "bike_id": "95c492cb0b141de7f397605330854c84", "fusion_lat": 0.0, "name": "95c492cb0b141de7f397605330854c84", "is_reserved": 0, "rental_uris": {"android": "https://dc.lft.to/lastmile_qr_scan", "ios": "https://dc.lft.to/lastmile_qr_scan"}, "fusion_lon": 0.0}, {"lat": 38.92070416666667, "is_disabled": 0, "type": "electric_scooter", "lon": -77.02423766666666, "bike_id": "0d2928ec09cba45646bffed4a6c8438e", "fusion_lat": 0.0, "name": "0d2928ec09cba45646bffed4a6c8438e", "is_reserved": 0, "rental_uris": {"android": "https://dc.lft.to/lastmile_qr_scan", "ios": "https://dc.lft.to/lastmile_qr_scan"}, "fusion_lon": 0.0}, {"lat": 38.90249633333333, "is_disabled": 0, "type": "electric_scooter", "lon": -77.05319666666666, "bike_id": "8c43669cf00e39d5a1e2a0f0e6b90d8f", "fusion_lat": 0.0, "name": "8c43669cf00e39d5a1e2a0f0e6b90d8f", "is_reserved": 0, "rental_uris": {"android": "https://dc.lft.to/lastmile_qr_scan", "ios": "https://dc.lft.to/lastmile_qr_scan"}, "fusion_lon": 0.0}, {"lat": 38.8368755, "is_disabled": 0, "type": "electric_scooter", "lon": -77.10309033333333, "bike_id": "cabec6c73cb19bb1e264946f66a993a5", "fusion_lat": 0.0, "name": "cabec6c73cb19bb1e264946f66a993a5", "is_reserved": 0, "rental_uris": {"android": "https://dc.lft.to/lastmile_qr_scan", "ios": "https://dc.lft.to/lastmile_qr_scan"}, "fusion_lon": 0.0}, {"lat": 38.867155, "is_disabled": 0, "type": "electric_scooter", "lon": -76.98724083333333, "bike_id": "93ec5310fbffe76cb90ca52e89e12f81", "fusion_lat": 0.0, "name": "93ec5310fbffe76cb90ca52e89e12f81", "is_reserved": 0, "rental_uris": {"android": "https://dc.lft.to/lastmile_qr_scan", "ios": "https://dc.lft.to/lastmile_qr_scan"}, "fusion_lon": 0.0}, {"lat": 38.9047215, "is_disabled": 0, "type": "electric_scooter", "lon": -77.007158, "bike_id": "eb1e069675116eea4b70b91ee9dfbfa0", "fusion_lat": 0.0, "name": "eb1e069675116eea4b70b91ee9dfbfa0", "is_reserved": 0, "rental_uris": {"android": "https://dc.lft.to/lastmile_qr_scan", "ios": "https://dc.lft.to/lastmile_qr_scan"}, "fusion_lon": 0.0}, {"lat": 38.9001535, "is_disabled": 0, "type": "electric_scooter", "lon": -76.98809216666666, "bike_id": "fea3381148a9a2a09c0da9a2aa58cafb", "fusion_lat": 0.0, "name": "fea3381148a9a2a09c0da9a2aa58cafb", "is_reserved": 0, "rental_uris": {"android": "https://dc.lft.to/lastmile_qr_scan", "ios": "https://dc.lft.to/lastmile_qr_scan"}, "fusion_lon": 0.0}, {"lat": 38.9116815, "is_disabled": 0, "type": "electric_bike", "lon": -77.00300016666667, "bike_id": "20aaecd8a2bbd9cc53b89916bae77eb9", "fusion_lat": 0.0, "name": "20aaecd8a2bbd9cc53b89916bae77eb9", "is_reserved": 0, "rental_uris": {"android": "https://dc.lft.to/lastmile_qr_scan", "ios": "https://dc.lft.to/lastmile_qr_scan"}, "fusion_lon": 0.0}, {"lat": 38.8714545, "is_disabled": 0, "type": "electric_bike", "lon": -76.93698233333333, "bike_id": "4828ac9fe41b5df3d64aa6c9b95ddab6", "fusion_lat": 0.0, "name": "4828ac9fe41b5df3d64aa6c9b95ddab6", "is_reserved": 0, "rental_uris": {"android": "https://dc.lft.to/lastmile_qr_scan", "ios": "https://dc.lft.to/lastmile_qr_scan"}, "fusion_lon": 0.0}, {"lat": 38.91614166666667, "is_disabled": 0, "type": "electric_scooter", "lon": -77.03289033333333, "bike_id": "3cb55130f418d4b8373ed02de1ce455e", "fusion_lat": 0.0, "name": "3cb55130f418d4b8373ed02de1ce455e", "is_reserved": 0, "rental_uris": {"android": "https://dc.lft.to/lastmile_qr_scan", "ios": "https://dc.lft.to/lastmile_qr_scan"}, "fusion_lon": 0.0}, {"lat": 38.93104483333333, "is_disabled": 0, "type": "electric_scooter", "lon": -77.03480366666666, "bike_id": "02d19fe6d8d99538aee81a129a52426e", "fusion_lat": 0.0, "name": "02d19fe6d8d99538aee81a129a52426e", "is_reserved": 0, "rental_uris": {"android": "https://dc.lft.to/lastmile_qr_scan", "ios": "https://dc.lft.to/lastmile_qr_scan"}, "fusion_lon": 0.0}, {"lat": 38.901559666666664, "is_disabled": 0, "type": "electric_scooter", "lon": -76.980639, "bike_id": "108662f2109d61a3c3d95744b70d80f2", "fusion_lat": 0.0, "name": "108662f2109d61a3c3d95744b70d80f2", "is_reserved": 0, "rental_uris": {"android": "https://dc.lft.to/lastmile_qr_scan", "ios": "https://dc.lft.to/lastmile_qr_scan"}, "fusion_lon": 0.0}, {"lat": 38.871541666666666, "is_disabled": 0, "type": "electric_scooter", "lon": -77.01318683333334, "bike_id": "6a93bb8ef95151927306df37d10b6ebc", "fusion_lat": 0.0, "name": "6a93bb8ef95151927306df37d10b6ebc", "is_reserved": 0, "rental_uris": {"android": "https://dc.lft.to/lastmile_qr_scan", "ios": "https://dc.lft.to/lastmile_qr_scan"}, "fusion_lon": 0.0}, {"lat": 38.93095483333333, "is_disabled": 0, "type": "electric_scooter", "lon": -77.02510583333333, "bike_id": "5fd640d4831b255c4d24a352196e5744", "fusion_lat": 0.0, "name": "5fd640d4831b255c4d24a352196e5744", "is_reserved": 0, "rental_uris": {"android": "https://dc.lft.to/lastmile_qr_scan", "ios": "https://dc.lft.to/lastmile_qr_scan"}, "fusion_lon": 0.0}, {"lat": 38.901916166666666, "is_disabled": 0, "type": "electric_scooter", "lon": -77.023995, "bike_id": "a3da6e0fe1c6d94e98d531b63e1385ad", "fusion_lat": 0.0, "name": "a3da6e0fe1c6d94e98d531b63e1385ad", "is_reserved": 0, "rental_uris": {"android": "https://dc.lft.to/lastmile_qr_scan", "ios": "https://dc.lft.to/lastmile_qr_scan"}, "fusion_lon": 0.0}, {"lat": 38.898226, "is_disabled": 0, "type": "electric_scooter", "lon": -76.9969935, "bike_id": "adf79626acfe90ddf52f8ae965b7aa61", "fusion_lat": 0.0, "name": "adf79626acfe90ddf52f8ae965b7aa61", "is_reserved": 0, "rental_uris": {"android": "https://dc.lft.to/lastmile_qr_scan", "ios": "https://dc.lft.to/lastmile_qr_scan"}, "fusion_lon": 0.0}, {"lat": 39.05635483333333, "is_disabled": 0, "type": "electric_bike", "lon": -77.12529933333333, "bike_id": "44b5cfef4f5bee46e6ad0118603cf060", "fusion_lat": 0.0, "name": "44b5cfef4f5bee46e6ad0118603cf060", "is_reserved": 0, "rental_uris": {"android": "https://dc.lft.to/lastmile_qr_scan", "ios": "https://dc.lft.to/lastmile_qr_scan"}, "fusion_lon": 0.0}, {"lat": 38.927541, "is_disabled": 0, "type": "electric_scooter", "lon": -77.03219516666667, "bike_id": "5f592023fb1f08e8915503f9f43d798d", "fusion_lat": 0.0, "name": "5f592023fb1f08e8915503f9f43d798d", "is_reserved": 0, "rental_uris": {"android": "https://dc.lft.to/lastmile_qr_scan", "ios": "https://dc.lft.to/lastmile_qr_scan"}, "fusion_lon": 0.0}, {"lat": 38.911196333333336, "is_disabled": 0, "type": "electric_scooter", "lon": -77.03766716666667, "bike_id": "07bc49d5a1f89092bc445734191b9382", "fusion_lat": 0.0, "name": "07bc49d5a1f89092bc445734191b9382", "is_reserved": 0, "rental_uris": {"android": "https://dc.lft.to/lastmile_qr_scan", "ios": "https://dc.lft.to/lastmile_qr_scan"}, "fusion_lon": 0.0}, {"lat": 38.88578833333333, "is_disabled": 0, "type": "electric_scooter", "lon": -76.9191405, "bike_id": "03f17ac9b4fa7f535dc5838df4dbf384", "fusion_lat": 0.0, "name": "03f17ac9b4fa7f535dc5838df4dbf384", "is_reserved": 0, "rental_uris": {"android": "https://dc.lft.to/lastmile_qr_scan", "ios": "https://dc.lft.to/lastmile_qr_scan"}, "fusion_lon": 0.0}, {"lat": 38.92473433333333, "is_disabled": 0, "type": "electric_scooter", "lon": -77.02839666666667, "bike_id": "7edd53bba0c0d038e31ede5e12008e99", "fusion_lat": 0.0, "name": "7edd53bba0c0d038e31ede5e12008e99", "is_reserved": 0, "rental_uris": {"android": "https://dc.lft.to/lastmile_qr_scan", "ios": "https://dc.lft.to/lastmile_qr_scan"}, "fusion_lon": 0.0}, {"lat": 38.91182366666666, "is_disabled": 0, "type": "electric_scooter", "lon": -77.06092233333334, "bike_id": "c1f5408b276800ae79a74cbdfa4d0f41", "fusion_lat": 0.0, "name": "c1f5408b276800ae79a74cbdfa4d0f41", "is_reserved": 0, "rental_uris": {"android": "https://dc.lft.to/lastmile_qr_scan", "ios": "https://dc.lft.to/lastmile_qr_scan"}, "fusion_lon": 0.0}, {"lat": 38.92899633333333, "is_disabled": 0, "type": "electric_scooter", "lon": -77.02216483333333, "bike_id": "8395de98adb05646c3bdd04954049523", "fusion_lat": 0.0, "name": "8395de98adb05646c3bdd04954049523", "is_reserved": 0, "rental_uris": {"android": "https://dc.lft.to/lastmile_qr_scan", "ios": "https://dc.lft.to/lastmile_qr_scan"}, "fusion_lon": 0.0}, {"lat": 38.886395666666665, "is_disabled": 0, "type": "electric_bike", "lon": -76.954753, "bike_id": "c13a3d7758b3c1280c3b6e440e3cf774", "fusion_lat": 0.0, "name": "c13a3d7758b3c1280c3b6e440e3cf774", "is_reserved": 0, "rental_uris": {"android": "https://dc.lft.to/lastmile_qr_scan", "ios": "https://dc.lft.to/lastmile_qr_scan"}, "fusion_lon": 0.0}, {"lat": 38.92733066666667, "is_disabled": 0, "type": "electric_scooter", "lon": -77.034514, "bike_id": "2d30f23f8e7722945a273f8588b0ca85", "fusion_lat": 0.0, "name": "2d30f23f8e7722945a273f8588b0ca85", "is_reserved": 0, "rental_uris": {"android": "https://dc.lft.to/lastmile_qr_scan", "ios": "https://dc.lft.to/lastmile_qr_scan"}, "fusion_lon": 0.0}, {"lat": 38.961519833333334, "is_disabled": 0, "type": "electric_scooter", "lon": -77.02778983333333, "bike_id": "71d63dcbe4d858a0457b6e21defec39e", "fusion_lat": 0.0, "name": "71d63dcbe4d858a0457b6e21defec39e", "is_reserved": 0, "rental_uris": {"android": "https://dc.lft.to/lastmile_qr_scan", "ios": "https://dc.lft.to/lastmile_qr_scan"}, "fusion_lon": 0.0}, {"lat": 38.93288183333333, "is_disabled": 0, "type": "electric_scooter", "lon": -77.03974716666667, "bike_id": "a37b4f26ac2f9de15aed9e5e2c01e0ae", "fusion_lat": 0.0, "name": "a37b4f26ac2f9de15aed9e5e2c01e0ae", "is_reserved": 0, "rental_uris": {"android": "https://dc.lft.to/lastmile_qr_scan", "ios": "https://dc.lft.to/lastmile_qr_scan"}, "fusion_lon": 0.0}, {"lat": 38.9072295, "is_disabled": 0, "type": "electric_scooter", "lon": -77.02373133333333, "bike_id": "b8431d3f932f0abd2583c2f2be1f5c63", "fusion_lat": 0.0, "name": "b8431d3f932f0abd2583c2f2be1f5c63", "is_reserved": 0, "rental_uris": {"android": "https://dc.lft.to/lastmile_qr_scan", "ios": "https://dc.lft.to/lastmile_qr_scan"}, "fusion_lon": 0.0}, {"lat": 38.84658983333333, "is_disabled": 0, "type": "electric_bike", "lon": -76.9792885, "bike_id": "e89843ebada363e3119c987ae92376c6", "fusion_lat": 0.0, "name": "e89843ebada363e3119c987ae92376c6", "is_reserved": 0, "rental_uris": {"android": "https://dc.lft.to/lastmile_qr_scan", "ios": "https://dc.lft.to/lastmile_qr_scan"}, "fusion_lon": 0.0}, {"lat": 38.92486616666667, "is_disabled": 0, "type": "electric_scooter", "lon": -77.052102, "bike_id": "03ad8f004cea8a8521ad26dc0bbe33c4", "fusion_lat": 0.0, "name": "03ad8f004cea8a8521ad26dc0bbe33c4", "is_reserved": 0, "rental_uris": {"android": "https://dc.lft.to/lastmile_qr_scan", "ios": "https://dc.lft.to/lastmile_qr_scan"}, "fusion_lon": 0.0}, {"lat": 38.9317605, "is_disabled": 0, "type": "electric_scooter", "lon": -77.02818383333333, "bike_id": "3454887b4c6f27f6ccdb00dcd9eff519", "fusion_lat": 0.0, "name": "3454887b4c6f27f6ccdb00dcd9eff519", "is_reserved": 0, "rental_uris": {"android": "https://dc.lft.to/lastmile_qr_scan", "ios": "https://dc.lft.to/lastmile_qr_scan"}, "fusion_lon": 0.0}, {"lat": 38.890455, "is_disabled": 0, "type": "electric_scooter", "lon": -76.951397, "bike_id": "3126d13f807221aadcf89d972800786b", "fusion_lat": 0.0, "name": "3126d13f807221aadcf89d972800786b", "is_reserved": 0, "rental_uris": {"android": "https://dc.lft.to/lastmile_qr_scan", "ios": "https://dc.lft.to/lastmile_qr_scan"}, "fusion_lon": 0.0}, {"lat": 38.89509116666667, "is_disabled": 0, "type": "electric_scooter", "lon": -77.0226805, "bike_id": "03af85eb67d5a342c46e3d8000923983", "fusion_lat": 0.0, "name": "03af85eb67d5a342c46e3d8000923983", "is_reserved": 0, "rental_uris": {"android": "https://dc.lft.to/lastmile_qr_scan", "ios": "https://dc.lft.to/lastmile_qr_scan"}, "fusion_lon": 0.0}, {"lat": 38.90551333333333, "is_disabled": 0, "type": "electric_scooter", "lon": -77.03399266666666, "bike_id": "7ea14dbefc6c956c992c8ae873153c7b", "fusion_lat": 0.0, "name": "7ea14dbefc6c956c992c8ae873153c7b", "is_reserved": 0, "rental_uris": {"android": "https://dc.lft.to/lastmile_qr_scan", "ios": "https://dc.lft.to/lastmile_qr_scan"}, "fusion_lon": 0.0}, {"lat": 38.90302, "is_disabled": 0, "type": "electric_scooter", "lon": -77.02619016666667, "bike_id": "d764bdf31e28f40bb92db52f684eaf3e", "fusion_lat": 0.0, "name": "d764bdf31e28f40bb92db52f684eaf3e", "is_reserved": 0, "rental_uris": {"android": "https://dc.lft.to/lastmile_qr_scan", "ios": "https://dc.lft.to/lastmile_qr_scan"}, "fusion_lon": 0.0}, {"lat": 38.94173983333334, "is_disabled": 0, "type": "electric_scooter", "lon": -77.0234385, "bike_id": "d61c8322dc54c584f96a226a38366acd", "fusion_lat": 0.0, "name": "d61c8322dc54c584f96a226a38366acd", "is_reserved": 0, "rental_uris": {"android": "https://dc.lft.to/lastmile_qr_scan", "ios": "https://dc.lft.to/lastmile_qr_scan"}, "fusion_lon": 0.0}, {"lat": 38.8946515, "is_disabled": 0, "type": "electric_scooter", "lon": -77.02140066666666, "bike_id": "7372a4f90abde68ebe9a84e8054635da", "fusion_lat": 0.0, "name": "7372a4f90abde68ebe9a84e8054635da", "is_reserved": 0, "rental_uris": {"android": "https://dc.lft.to/lastmile_qr_scan", "ios": "https://dc.lft.to/lastmile_qr_scan"}, "fusion_lon": 0.0}, {"lat": 38.905550166666664, "is_disabled": 0, "type": "electric_scooter", "lon": -77.03407716666666, "bike_id": "ec00d1daf6e7095db6f11a1ed33466b0", "fusion_lat": 0.0, "name": "ec00d1daf6e7095db6f11a1ed33466b0", "is_reserved": 0, "rental_uris": {"android": "https://dc.lft.to/lastmile_qr_scan", "ios": "https://dc.lft.to/lastmile_qr_scan"}, "fusion_lon": 0.0}, {"lat": 38.9104555, "is_disabled": 0, "type": "electric_scooter", "lon": -77.01515516666667, "bike_id": "fdda0b0a0a52fefa5e3fa20b7347cc96", "fusion_lat": 0.0, "name": "fdda0b0a0a52fefa5e3fa20b7347cc96", "is_reserved": 0, "rental_uris": {"android": "https://dc.lft.to/lastmile_qr_scan", "ios": "https://dc.lft.to/lastmile_qr_scan"}, "fusion_lon": 0.0}, {"lat": 38.869098666666666, "is_disabled": 0, "type": "electric_bike", "lon": -77.13178833333333, "bike_id": "a41e9b33fa4c4e52417c77679bb65555", "fusion_lat": 0.0, "name": "a41e9b33fa4c4e52417c77679bb65555", "is_reserved": 0, "rental_uris": {"android": "https://dc.lft.to/lastmile_qr_scan", "ios": "https://dc.lft.to/lastmile_qr_scan"}, "fusion_lon": 0.0}, {"lat": 38.920101333333335, "is_disabled": 0, "type": "electric_scooter", "lon": -77.03236183333334, "bike_id": "25019919012379edbb0a2fe1ebf45625", "fusion_lat": 0.0, "name": "25019919012379edbb0a2fe1ebf45625", "is_reserved": 0, "rental_uris": {"android": "https://dc.lft.to/lastmile_qr_scan", "ios": "https://dc.lft.to/lastmile_qr_scan"}, "fusion_lon": 0.0}, {"lat": 38.932764166666665, "is_disabled": 0, "type": "electric_scooter", "lon": -77.0364295, "bike_id": "4f0f4d0fc7dd62a23f0db3fd8ddf2a4c", "fusion_lat": 0.0, "name": "4f0f4d0fc7dd62a23f0db3fd8ddf2a4c", "is_reserved": 0, "rental_uris": {"android": "https://dc.lft.to/lastmile_qr_scan", "ios": "https://dc.lft.to/lastmile_qr_scan"}, "fusion_lon": 0.0}, {"lat": 38.9253695, "is_disabled": 0, "type": "electric_scooter", "lon": -77.03451983333333, "bike_id": "962904056e9a164f2f61ce4bad115c03", "fusion_lat": 0.0, "name": "962904056e9a164f2f61ce4bad115c03", "is_reserved": 0, "rental_uris": {"android": "https://dc.lft.to/lastmile_qr_scan", "ios": "https://dc.lft.to/lastmile_qr_scan"}, "fusion_lon": 0.0}, {"lat": 38.92491733333333, "is_disabled": 0, "type": "electric_scooter", "lon": -77.0318725, "bike_id": "d58c42125e02108538b64cc4c1642381", "fusion_lat": 0.0, "name": "d58c42125e02108538b64cc4c1642381", "is_reserved": 0, "rental_uris": {"android": "https://dc.lft.to/lastmile_qr_scan", "ios": "https://dc.lft.to/lastmile_qr_scan"}, "fusion_lon": 0.0}, {"lat": 38.966156, "is_disabled": 0, "type": "electric_scooter", "lon": -77.020602, "bike_id": "96646bfaec0ad4d3b281b721cec800d7", "fusion_lat": 0.0, "name": "96646bfaec0ad4d3b281b721cec800d7", "is_reserved": 0, "rental_uris": {"android": "https://dc.lft.to/lastmile_qr_scan", "ios": "https://dc.lft.to/lastmile_qr_scan"}, "fusion_lon": 0.0}, {"lat": 38.85806216666667, "is_disabled": 0, "type": "electric_scooter", "lon": -76.98652666666666, "bike_id": "b1f4379606c2f99896e8edefde6e7f31", "fusion_lat": 0.0, "name": "b1f4379606c2f99896e8edefde6e7f31", "is_reserved": 0, "rental_uris": {"android": "https://dc.lft.to/lastmile_qr_scan", "ios": "https://dc.lft.to/lastmile_qr_scan"}, "fusion_lon": 0.0}, {"lat": 38.942024833333335, "is_disabled": 0, "type": "electric_bike", "lon": -77.01824683333334, "bike_id": "f79856915a7069f1c70ed0ae866d7611", "fusion_lat": 0.0, "name": "f79856915a7069f1c70ed0ae866d7611", "is_reserved": 0, "rental_uris": {"android": "https://dc.lft.to/lastmile_qr_scan", "ios": "https://dc.lft.to/lastmile_qr_scan"}, "fusion_lon": 0.0}, {"lat": 38.934765, "is_disabled": 0, "type": "electric_scooter", "lon": -77.05791033333334, "bike_id": "e9b59c6866647ef43a172b90d57e7ee3", "fusion_lat": 0.0, "name": "e9b59c6866647ef43a172b90d57e7ee3", "is_reserved": 0, "rental_uris": {"android": "https://dc.lft.to/lastmile_qr_scan", "ios": "https://dc.lft.to/lastmile_qr_scan"}, "fusion_lon": 0.0}, {"lat": 38.900265, "is_disabled": 0, "type": "electric_scooter", "lon": -77.00214133333333, "bike_id": "427176ecb0cb8dd7d23bdad180360652", "fusion_lat": 0.0, "name": "427176ecb0cb8dd7d23bdad180360652", "is_reserved": 0, "rental_uris": {"android": "https://dc.lft.to/lastmile_qr_scan", "ios": "https://dc.lft.to/lastmile_qr_scan"}, "fusion_lon": 0.0}, {"lat": 38.88746116666667, "is_disabled": 0, "type": "electric_scooter", "lon": -77.03147983333334, "bike_id": "eddab445d9cc1a80bd530147d9aee3e8", "fusion_lat": 0.0, "name": "eddab445d9cc1a80bd530147d9aee3e8", "is_reserved": 0, "rental_uris": {"android": "https://dc.lft.to/lastmile_qr_scan", "ios": "https://dc.lft.to/lastmile_qr_scan"}, "fusion_lon": 0.0}, {"lat": 38.906849666666666, "is_disabled": 0, "type": "electric_scooter", "lon": -77.06261, "bike_id": "b2ff40a6a6c8f2c25dfb3ca103c7ce2e", "fusion_lat": 0.0, "name": "b2ff40a6a6c8f2c25dfb3ca103c7ce2e", "is_reserved": 0, "rental_uris": {"android": "https://dc.lft.to/lastmile_qr_scan", "ios": "https://dc.lft.to/lastmile_qr_scan"}, "fusion_lon": 0.0}, {"lat": 38.923024, "is_disabled": 0, "type": "electric_scooter", "lon": -77.04143783333333, "bike_id": "096dab7d66c8e3be2d41ba6452fa4033", "fusion_lat": 0.0, "name": "096dab7d66c8e3be2d41ba6452fa4033", "is_reserved": 0, "rental_uris": {"android": "https://dc.lft.to/lastmile_qr_scan", "ios": "https://dc.lft.to/lastmile_qr_scan"}, "fusion_lon": 0.0}, {"lat": 38.866495, "is_disabled": 0, "type": "electric_scooter", "lon": -76.98882816666666, "bike_id": "a1e15854814921f076c24120b2865062", "fusion_lat": 0.0, "name": "a1e15854814921f076c24120b2865062", "is_reserved": 0, "rental_uris": {"android": "https://dc.lft.to/lastmile_qr_scan", "ios": "https://dc.lft.to/lastmile_qr_scan"}, "fusion_lon": 0.0}, {"lat": 38.921832333333334, "is_disabled": 0, "type": "electric_scooter", "lon": -77.0470895, "bike_id": "d3996179561eb9ea440f1fae88520ebd", "fusion_lat": 0.0, "name": "d3996179561eb9ea440f1fae88520ebd", "is_reserved": 0, "rental_uris": {"android": "https://dc.lft.to/lastmile_qr_scan", "ios": "https://dc.lft.to/lastmile_qr_scan"}, "fusion_lon": 0.0}, {"lat": 38.96500016666667, "is_disabled": 0, "type": "electric_scooter", "lon": -77.02785416666667, "bike_id": "7fac0e9dcd0cfd9ccc7869f09ea2ad0f", "fusion_lat": 0.0, "name": "7fac0e9dcd0cfd9ccc7869f09ea2ad0f", "is_reserved": 0, "rental_uris": {"android": "https://dc.lft.to/lastmile_qr_scan", "ios": "https://dc.lft.to/lastmile_qr_scan"}, "fusion_lon": 0.0}, {"lat": 38.93240816666667, "is_disabled": 0, "type": "electric_scooter", "lon": -77.03273733333333, "bike_id": "b2a993238147a18238c6f56cc382c03c", "fusion_lat": 0.0, "name": "b2a993238147a18238c6f56cc382c03c", "is_reserved": 0, "rental_uris": {"android": "https://dc.lft.to/lastmile_qr_scan", "ios": "https://dc.lft.to/lastmile_qr_scan"}, "fusion_lon": 0.0}, {"lat": 38.9202655, "is_disabled": 0, "type": "electric_scooter", "lon": -77.038571, "bike_id": "dec22330784c5f9a7951c65f23faa60a", "fusion_lat": 0.0, "name": "dec22330784c5f9a7951c65f23faa60a", "is_reserved": 0, "rental_uris": {"android": "https://dc.lft.to/lastmile_qr_scan", "ios": "https://dc.lft.to/lastmile_qr_scan"}, "fusion_lon": 0.0}, {"lat": 38.91919516666667, "is_disabled": 0, "type": "electric_scooter", "lon": -77.033903, "bike_id": "b55ecd4324ef01ce482ca03f9fd222a8", "fusion_lat": 0.0, "name": "b55ecd4324ef01ce482ca03f9fd222a8", "is_reserved": 0, "rental_uris": {"android": "https://dc.lft.to/lastmile_qr_scan", "ios": "https://dc.lft.to/lastmile_qr_scan"}, "fusion_lon": 0.0}, {"lat": 38.867913333333334, "is_disabled": 0, "type": "electric_scooter", "lon": -76.96579483333333, "bike_id": "ca5a53caeb80e2f4c998f671b9ecc2bf", "fusion_lat": 0.0, "name": "ca5a53caeb80e2f4c998f671b9ecc2bf", "is_reserved": 0, "rental_uris": {"android": "https://dc.lft.to/lastmile_qr_scan", "ios": "https://dc.lft.to/lastmile_qr_scan"}, "fusion_lon": 0.0}, {"lat": 38.9037835, "is_disabled": 0, "type": "electric_scooter", "lon": -77.002782, "bike_id": "d5b6c3ffd1c697a6b0f862e83cb42319", "fusion_lat": 0.0, "name": "d5b6c3ffd1c697a6b0f862e83cb42319", "is_reserved": 0, "rental_uris": {"android": "https://dc.lft.to/lastmile_qr_scan", "ios": "https://dc.lft.to/lastmile_qr_scan"}, "fusion_lon": 0.0}, {"lat": 38.90529566666667, "is_disabled": 0, "type": "electric_scooter", "lon": -76.98624883333333, "bike_id": "a667f14ced6c7612aba92353e9cdaee8", "fusion_lat": 0.0, "name": "a667f14ced6c7612aba92353e9cdaee8", "is_reserved": 0, "rental_uris": {"android": "https://dc.lft.to/lastmile_qr_scan", "ios": "https://dc.lft.to/lastmile_qr_scan"}, "fusion_lon": 0.0}, {"lat": 38.9003605, "is_disabled": 0, "type": "electric_scooter", "lon": -77.00201283333334, "bike_id": "4201bad8fb56f488a03c96015665ff96", "fusion_lat": 0.0, "name": "4201bad8fb56f488a03c96015665ff96", "is_reserved": 0, "rental_uris": {"android": "https://dc.lft.to/lastmile_qr_scan", "ios": "https://dc.lft.to/lastmile_qr_scan"}, "fusion_lon": 0.0}, {"lat": 38.89750033333333, "is_disabled": 0, "type": "electric_scooter", "lon": -77.01863966666667, "bike_id": "519660e7b27b79647fa18088b2bc229b", "fusion_lat": 0.0, "name": "519660e7b27b79647fa18088b2bc229b", "is_reserved": 0, "rental_uris": {"android": "https://dc.lft.to/lastmile_qr_scan", "ios": "https://dc.lft.to/lastmile_qr_scan"}, "fusion_lon": 0.0}, {"lat": 38.9326785, "is_disabled": 0, "type": "electric_scooter", "lon": -77.03272866666667, "bike_id": "9e316894778bb90fcbcfaaf8d2d46dd1", "fusion_lat": 0.0, "name": "9e316894778bb90fcbcfaaf8d2d46dd1", "is_reserved": 0, "rental_uris": {"android": "https://dc.lft.to/lastmile_qr_scan", "ios": "https://dc.lft.to/lastmile_qr_scan"}, "fusion_lon": 0.0}, {"lat": 38.921517, "is_disabled": 0, "type": "electric_scooter", "lon": -77.0337925, "bike_id": "d29a472a3ef0f9124a9059c8342044d8", "fusion_lat": 0.0, "name": "d29a472a3ef0f9124a9059c8342044d8", "is_reserved": 0, "rental_uris": {"android": "https://dc.lft.to/lastmile_qr_scan", "ios": "https://dc.lft.to/lastmile_qr_scan"}, "fusion_lon": 0.0}, {"lat": 38.8616925, "is_disabled": 0, "type": "electric_bike", "lon": -77.131464, "bike_id": "e22e38bc504da8fffe0517a559cb20da", "fusion_lat": 0.0, "name": "e22e38bc504da8fffe0517a559cb20da", "is_reserved": 0, "rental_uris": {"android": "https://dc.lft.to/lastmile_qr_scan", "ios": "https://dc.lft.to/lastmile_qr_scan"}, "fusion_lon": 0.0}, {"lat": 38.950965833333335, "is_disabled": 0, "type": "electric_scooter", "lon": -77.023373, "bike_id": "a6cfb99ea87f2427376a728e3c207a84", "fusion_lat": 0.0, "name": "a6cfb99ea87f2427376a728e3c207a84", "is_reserved": 0, "rental_uris": {"android": "https://dc.lft.to/lastmile_qr_scan", "ios": "https://dc.lft.to/lastmile_qr_scan"}, "fusion_lon": 0.0}, {"lat": 38.900970666666666, "is_disabled": 0, "type": "electric_scooter", "lon": -77.003484, "bike_id": "ed995a858e1eca8fc1119fc0a7d85a71", "fusion_lat": 0.0, "name": "ed995a858e1eca8fc1119fc0a7d85a71", "is_reserved": 0, "rental_uris": {"android": "https://dc.lft.to/lastmile_qr_scan", "ios": "https://dc.lft.to/lastmile_qr_scan"}, "fusion_lon": 0.0}, {"lat": 38.900021, "is_disabled": 0, "type": "electric_scooter", "lon": -77.029399, "bike_id": "1f87fb48463ca158bdce4f21821c3f91", "fusion_lat": 0.0, "name": "1f87fb48463ca158bdce4f21821c3f91", "is_reserved": 0, "rental_uris": {"android": "https://dc.lft.to/lastmile_qr_scan", "ios": "https://dc.lft.to/lastmile_qr_scan"}, "fusion_lon": 0.0}, {"lat": 38.9031485, "is_disabled": 0, "type": "electric_scooter", "lon": -76.97813566666666, "bike_id": "4ca45ad65982e145c72033852d6ef217", "fusion_lat": 0.0, "name": "4ca45ad65982e145c72033852d6ef217", "is_reserved": 0, "rental_uris": {"android": "https://dc.lft.to/lastmile_qr_scan", "ios": "https://dc.lft.to/lastmile_qr_scan"}, "fusion_lon": 0.0}, {"lat": 38.91013216666666, "is_disabled": 0, "type": "electric_scooter", "lon": -77.08896616666667, "bike_id": "82c2c9af9864cca4e39bd177e7224b3f", "fusion_lat": 0.0, "name": "82c2c9af9864cca4e39bd177e7224b3f", "is_reserved": 0, "rental_uris": {"android": "https://dc.lft.to/lastmile_qr_scan", "ios": "https://dc.lft.to/lastmile_qr_scan"}, "fusion_lon": 0.0}, {"lat": 38.89640716666667, "is_disabled": 0, "type": "electric_scooter", "lon": -77.04499, "bike_id": "05d113a8d419816fef5a892093c88efc", "fusion_lat": 0.0, "name": "05d113a8d419816fef5a892093c88efc", "is_reserved": 0, "rental_uris": {"android": "https://dc.lft.to/lastmile_qr_scan", "ios": "https://dc.lft.to/lastmile_qr_scan"}, "fusion_lon": 0.0}, {"lat": 38.89706566666667, "is_disabled": 0, "type": "electric_scooter", "lon": -77.0241165, "bike_id": "101a50675669166123913616a9c5dac4", "fusion_lat": 0.0, "name": "101a50675669166123913616a9c5dac4", "is_reserved": 0, "rental_uris": {"android": "https://dc.lft.to/lastmile_qr_scan", "ios": "https://dc.lft.to/lastmile_qr_scan"}, "fusion_lon": 0.0}, {"lat": 38.92459566666667, "is_disabled": 0, "type": "electric_bike", "lon": -76.97558716666667, "bike_id": "c0416460aaa572f4730dfeeb125ae8cf", "fusion_lat": 0.0, "name": "c0416460aaa572f4730dfeeb125ae8cf", "is_reserved": 0, "rental_uris": {"android": "https://dc.lft.to/lastmile_qr_scan", "ios": "https://dc.lft.to/lastmile_qr_scan"}, "fusion_lon": 0.0}, {"lat": 38.872311, "is_disabled": 0, "type": "electric_bike", "lon": -77.01180366666667, "bike_id": "931a929ee1ff5347764294d5bfb14d79", "fusion_lat": 0.0, "name": "931a929ee1ff5347764294d5bfb14d79", "is_reserved": 0, "rental_uris": {"android": "https://dc.lft.to/lastmile_qr_scan", "ios": "https://dc.lft.to/lastmile_qr_scan"}, "fusion_lon": 0.0}, {"lat": 38.9133955, "is_disabled": 0, "type": "electric_scooter", "lon": -77.00222433333333, "bike_id": "222b7d7af48ccb687ba4e6b5a8b1a43f", "fusion_lat": 0.0, "name": "222b7d7af48ccb687ba4e6b5a8b1a43f", "is_reserved": 0, "rental_uris": {"android": "https://dc.lft.to/lastmile_qr_scan", "ios": "https://dc.lft.to/lastmile_qr_scan"}, "fusion_lon": 0.0}, {"lat": 38.912677333333335, "is_disabled": 0, "type": "electric_scooter", "lon": -77.00279233333333, "bike_id": "4c793d5f6e16b2e09cf2b6b3c550ea35", "fusion_lat": 0.0, "name": "4c793d5f6e16b2e09cf2b6b3c550ea35", "is_reserved": 0, "rental_uris": {"android": "https://dc.lft.to/lastmile_qr_scan", "ios": "https://dc.lft.to/lastmile_qr_scan"}, "fusion_lon": 0.0}, {"lat": 38.88342133333333, "is_disabled": 0, "type": "electric_scooter", "lon": -77.03150033333333, "bike_id": "6d0407ae402e2f89b58814494f9725f6", "fusion_lat": 0.0, "name": "6d0407ae402e2f89b58814494f9725f6", "is_reserved": 0, "rental_uris": {"android": "https://dc.lft.to/lastmile_qr_scan", "ios": "https://dc.lft.to/lastmile_qr_scan"}, "fusion_lon": 0.0}, {"lat": 38.923408333333334, "is_disabled": 0, "type": "electric_scooter", "lon": -77.0190495, "bike_id": "04ed45e270346eccad5a2d51034473a2", "fusion_lat": 0.0, "name": "04ed45e270346eccad5a2d51034473a2", "is_reserved": 0, "rental_uris": {"android": "https://dc.lft.to/lastmile_qr_scan", "ios": "https://dc.lft.to/lastmile_qr_scan"}, "fusion_lon": 0.0}, {"lat": 38.900302333333336, "is_disabled": 0, "type": "electric_scooter", "lon": -76.98740216666667, "bike_id": "cf3d9b4bf6def22d632767de49f530ff", "fusion_lat": 0.0, "name": "cf3d9b4bf6def22d632767de49f530ff", "is_reserved": 0, "rental_uris": {"android": "https://dc.lft.to/lastmile_qr_scan", "ios": "https://dc.lft.to/lastmile_qr_scan"}, "fusion_lon": 0.0}, {"lat": 38.91112533333333, "is_disabled": 0, "type": "electric_scooter", "lon": -77.002407, "bike_id": "180d07be4600fd1f0eab391ae225dedf", "fusion_lat": 0.0, "name": "180d07be4600fd1f0eab391ae225dedf", "is_reserved": 0, "rental_uris": {"android": "https://dc.lft.to/lastmile_qr_scan", "ios": "https://dc.lft.to/lastmile_qr_scan"}, "fusion_lon": 0.0}, {"lat": 38.91014416666667, "is_disabled": 0, "type": "electric_scooter", "lon": -76.993926, "bike_id": "9f90576d32b106134f1f7300c9b94cc7", "fusion_lat": 0.0, "name": "9f90576d32b106134f1f7300c9b94cc7", "is_reserved": 0, "rental_uris": {"android": "https://dc.lft.to/lastmile_qr_scan", "ios": "https://dc.lft.to/lastmile_qr_scan"}, "fusion_lon": 0.0}, {"lat": 38.861072166666666, "is_disabled": 0, "type": "electric_scooter", "lon": -76.9835785, "bike_id": "cbfa6c7e1ca3dd0b5c7917793e7f926a", "fusion_lat": 0.0, "name": "cbfa6c7e1ca3dd0b5c7917793e7f926a", "is_reserved": 0, "rental_uris": {"android": "https://dc.lft.to/lastmile_qr_scan", "ios": "https://dc.lft.to/lastmile_qr_scan"}, "fusion_lon": 0.0}, {"lat": 38.897314333333334, "is_disabled": 0, "type": "electric_scooter", "lon": -77.0552265, "bike_id": "f368acf78c3bbbdc1c2a39c91c5c11b6", "fusion_lat": 0.0, "name": "f368acf78c3bbbdc1c2a39c91c5c11b6", "is_reserved": 0, "rental_uris": {"android": "https://dc.lft.to/lastmile_qr_scan", "ios": "https://dc.lft.to/lastmile_qr_scan"}, "fusion_lon": 0.0}, {"lat": 38.90097766666667, "is_disabled": 0, "type": "electric_scooter", "lon": -77.04975366666666, "bike_id": "478a9feee23e76f06d49ba8b26ee0abc", "fusion_lat": 0.0, "name": "478a9feee23e76f06d49ba8b26ee0abc", "is_reserved": 0, "rental_uris": {"android": "https://dc.lft.to/lastmile_qr_scan", "ios": "https://dc.lft.to/lastmile_qr_scan"}, "fusion_lon": 0.0}, {"lat": 38.909859, "is_disabled": 0, "type": "electric_scooter", "lon": -77.034244, "bike_id": "510068f42d8077eabda8f104557b0829", "fusion_lat": 0.0, "name": "510068f42d8077eabda8f104557b0829", "is_reserved": 0, "rental_uris": {"android": "https://dc.lft.to/lastmile_qr_scan", "ios": "https://dc.lft.to/lastmile_qr_scan"}, "fusion_lon": 0.0}, {"lat": 38.9395015, "is_disabled": 0, "type": "electric_scooter", "lon": -77.02184566666666, "bike_id": "90b69508cc1347b3591dd1a795dbaa87", "fusion_lat": 0.0, "name": "90b69508cc1347b3591dd1a795dbaa87", "is_reserved": 0, "rental_uris": {"android": "https://dc.lft.to/lastmile_qr_scan", "ios": "https://dc.lft.to/lastmile_qr_scan"}, "fusion_lon": 0.0}, {"lat": 38.89847783333333, "is_disabled": 0, "type": "electric_scooter", "lon": -76.94470483333333, "bike_id": "82ed9ba20ed7e3cd32a570d5559229e6", "fusion_lat": 0.0, "name": "82ed9ba20ed7e3cd32a570d5559229e6", "is_reserved": 0, "rental_uris": {"android": "https://dc.lft.to/lastmile_qr_scan", "ios": "https://dc.lft.to/lastmile_qr_scan"}, "fusion_lon": 0.0}, {"lat": 38.86285783333334, "is_disabled": 0, "type": "electric_scooter", "lon": -76.99233283333334, "bike_id": "fe7f095389df464452f4b9d8f374444b", "fusion_lat": 0.0, "name": "fe7f095389df464452f4b9d8f374444b", "is_reserved": 0, "rental_uris": {"android": "https://dc.lft.to/lastmile_qr_scan", "ios": "https://dc.lft.to/lastmile_qr_scan"}, "fusion_lon": 0.0}, {"lat": 39.09436016666667, "is_disabled": 0, "type": "electric_bike", "lon": -77.13458733333333, "bike_id": "0b2eed458d42ee21577d46983d6dc027", "fusion_lat": 0.0, "name": "0b2eed458d42ee21577d46983d6dc027", "is_reserved": 0, "rental_uris": {"android": "https://dc.lft.to/lastmile_qr_scan", "ios": "https://dc.lft.to/lastmile_qr_scan"}, "fusion_lon": 0.0}, {"lat": 38.92334316666667, "is_disabled": 0, "type": "electric_scooter", "lon": -77.04453133333334, "bike_id": "649c39f4acae9eee64224189623c8680", "fusion_lat": 0.0, "name": "649c39f4acae9eee64224189623c8680", "is_reserved": 0, "rental_uris": {"android": "https://dc.lft.to/lastmile_qr_scan", "ios": "https://dc.lft.to/lastmile_qr_scan"}, "fusion_lon": 0.0}, {"lat": 38.91980216666666, "is_disabled": 0, "type": "electric_scooter", "lon": -77.04100666666666, "bike_id": "9f9b7a2e76f43e64650a088bc1268eb6", "fusion_lat": 0.0, "name": "9f9b7a2e76f43e64650a088bc1268eb6", "is_reserved": 0, "rental_uris": {"android": "https://dc.lft.to/lastmile_qr_scan", "ios": "https://dc.lft.to/lastmile_qr_scan"}, "fusion_lon": 0.0},