{"data": {"bikes": [{"fusion_lat": 0.0, "name": "8454eaba30176f149e1263b5705d6b38", "is_disabled": 0, "rental_uris": {"android": "https://dc.lft.to/lastmile_qr_scan", "ios": "https://dc.lft.to/lastmile_qr_scan"}, "fusion_lon": 0.0, "lat": 38.88986233333333, "bike_id": "8454eaba30176f149e1263b5705d6b38", "type": "electric_scooter", "is_reserved": 0, "lon": -77.00338433333333}, {"fusion_lat": 0.0, "name": "0d01ffca18827293fd6a63ef0383bd93", "is_disabled": 0, "rental_uris": {"android": "https://dc.lft.to/lastmile_qr_scan", "ios": "https://dc.lft.to/lastmile_qr_scan"}, "fusion_lon": 0.0, "lat": 38.89660666666666, "bike_id": "0d01ffca18827293fd6a63ef0383bd93", "type": "electric_scooter", "is_reserved": 0, "lon": -77.02466083333333}, {"fusion_lat": 0.0, "name": "7d5db9ce3b2af3969e0d672fa82160c5", "is_disabled": 0, "rental_uris": {"android": "https://dc.lft.to/lastmile_qr_scan", "ios": "https://dc.lft.to/lastmile_qr_scan"}, "fusion_lon": 0.0, "lat": 38.90589216666667, "bike_id": "7d5db9ce3b2af3969e0d672fa82160c5", "type": "electric_scooter", "is_reserved": 0, "lon": -77.06608983333334}, {"fusion_lat": 0.0, "name": "113f93a1307ac65b648ba81276b99809", "is_disabled": 0, "rental_uris": {"android": "https://dc.lft.to/lastmile_qr_scan", "ios": "https://dc.lft.to/lastmile_qr_scan"}, "fusion_lon": 0.0, "lat": 38.887183666666665, "bike_id": "113f93a1307ac65b648ba81276b99809", "type": "electric_scooter", "is_reserved": 0, "lon": -77.02182383333333}, {"fusion_lat": 0.0, "name": "b7287c13f439fdaf6ba5576841807423", "is_disabled": 0, "rental_uris": {"android": "https://dc.lft.to/lastmile_qr_scan", "ios": "https://dc.lft.to/lastmile_qr_scan"}, "fusion_lon": 0.0, "lat": 38.8763755, "bike_id": "b7287c13f439fdaf6ba5576841807423", "type": "electric_scooter", "is_reserved": 0, "lon": -77.0081375}, {"fusion_lat": 0.0, "name": "4d2e14ee6db2826803ae1ed61f21d736", "is_disabled": 0, "rental_uris": {"android": "https://dc.lft.to/lastmile_qr_scan", "ios": "https://dc.lft.to/lastmile_qr_scan"}, "fusion_lon": 0.0, "lat": 38.89952266666667, "bike_id": "4d2e14ee6db2826803ae1ed61f21d736", "type": "electric_scooter", "is_reserved": 0, "lon": -77.0570575}, {"fusion_lat": 0.0, "name": "37756e7c95a88e8cdae726580e4a628e", "is_disabled": 0, "rental_uris": {"android": "https://dc.lft.to/lastmile_qr_scan", "ios": "https://dc.lft.to/lastmile_qr_scan"}, "fusion_lon": 0.0, "lat": 38.90343216666667, "bike_id": "37756e7c95a88e8cdae726580e4a628e", "type": "electric_scooter", "is_reserved": 0, "lon": -77.0364365}, {"fusion_lat": 0.0, "name": "22cfaf729869493a7f28ca649c294d2f", "is_disabled": 0, "rental_uris": {"android": "https://dc.lft.to/lastmile_qr_scan", "ios": "https://dc.lft.to/lastmile_qr_scan"}, "fusion_lon": 0.0, "lat": 38.93080333333333, "bike_id": "22cfaf729869493a7f28ca649c294d2f", "type": "electric_scooter", "is_reserved": 0, "lon": -77.03658733333333}, {"fusion_lat": 0.0, "name": "d8f31a22a16b2c9a1d82da8211cc53cd", "is_disabled": 0, "rental_uris": {"android": "https://dc.lft.to/lastmile_qr_scan", "ios": "https://dc.lft.to/lastmile_qr_scan"}, "fusion_lon": 0.0, "lat": 38.877313666666666, "bike_id": "d8f31a22a16b2c9a1d82da8211cc53cd", "type": "electric_scooter", "is_reserved": 0, "lon": -76.97037633333333}, {"fusion_lat": 0.0, "name": "0f84647ea6fdb5da21e85247fdbef758", "is_disabled": 0, "rental_uris": {"android": "https://dc.lft.to/lastmile_qr_scan", "ios": "https://dc.lft.to/lastmile_qr_scan"}, "fusion_lon": 0.0, "lat": 38.898671, "bike_id": "0f84647ea6fdb5da21e85247fdbef758", "type": "electric_scooter", "is_reserved": 0, "lon": -77.02248483333334}, {"fusion_lat": 0.0, "name": "e89ad3769714a9dc8a921ae0e30e6a66", "is_disabled": 0, "rental_uris": {"android": "https://dc.lft.to/lastmile_qr_scan", "ios": "https://dc.lft.to/lastmile_qr_scan"}, "fusion_lon": 0.0, "lat": 38.91982933333333, "bike_id": "e89ad3769714a9dc8a921ae0e30e6a66", "type": "electric_scooter", "is_reserved": 0, "lon": -77.04091333333334}, {"fusion_lat": 0.0, "name": "b0a1c1abd6553868427dd696fdbd4407", "is_disabled": 0, "rental_uris": {"android": "https://dc.lft.to/lastmile_qr_scan", "ios": "https://dc.lft.to/lastmile_qr_scan"}, "fusion_lon": 0.0, "lat": 38.92133233333333, "bike_id": "b0a1c1abd6553868427dd696fdbd4407", "type": "electric_scooter", "is_reserved": 0, "lon": -77.00404783333333}, {"fusion_lat": 0.0, "name": "0fd766a8706b45df51105bb6ca261a50", "is_disabled": 0, "rental_uris": {"android": "https://dc.lft.to/lastmile_qr_scan", "ios": "https://dc.lft.to/lastmile_qr_scan"}, "fusion_lon": 0.0, "lat": 38.984706833333334, "bike_id": "0fd766a8706b45df51105bb6ca261a50", "type": "electric_scooter", "is_reserved": 0, "lon": -77.02640583333333}, {"fusion_lat": 0.0, "name": "0313d806943f85f311046a16bdfc4c70", "is_disabled": 0, "rental_uris": {"android": "https://dc.lft.to/lastmile_qr_scan", "ios": "https://dc.lft.to/lastmile_qr_scan"}, "fusion_lon": 0.0, "lat": 38.854375, "bike_id": "0313d806943f85f311046a16bdfc4c70", "type": "electric_bike", "is_reserved": 0, "lon": -77.05341066666666}, {"fusion_lat": 0.0, "name": "e1e20fd676ff306d55d4cb89a37f534b", "is_disabled": 0, "rental_uris": {"android": "https://dc.lft.to/lastmile_qr_scan", "ios": "https://dc.lft.to/lastmile_qr_scan"}, "fusion_lon": 0.0, "lat": 38.90955616666667, "bike_id": "e1e20fd676ff306d55d4cb89a37f534b", "type": "electric_scooter", "is_reserved": 0, "lon": -77.04608433333334}, {"fusion_lat": 0.0, "name": "67f9b1ab750567fe114984048aac8b0c", "is_disabled": 0, "rental_uris": {"android": "https://dc.lft.to/lastmile_qr_scan", "ios": "https://dc.lft.to/lastmile_qr_scan"}, "fusion_lon": 0.0, "lat": 38.99227366666667, "bike_id": "67f9b1ab750567fe114984048aac8b0c", "type": "electric_bike", "is_reserved": 0, "lon": -76.94426783333333}, {"fusion_lat": 0.0, "name": "d50075af3d7bb0016033cbf8ac1e8086", "is_disabled": 0, "rental_uris": {"android": "https://dc.lft.to/lastmile_qr_scan", "ios": "https://dc.lft.to/lastmile_qr_scan"}, "fusion_lon": 0.0, "lat": 38.877941, "bike_id": "d50075af3d7bb0016033cbf8ac1e8086", "type": "electric_bike", "is_reserved": 0, "lon": -77.00837}, {"fusion_lat": 0.0, "name": "ba14842053d8343607e30b16d37900eb", "is_disabled": 0, "rental_uris": {"android": "https://dc.lft.to/lastmile_qr_scan", "ios": "https://dc.lft.to/lastmile_qr_scan"}, "fusion_lon": 0.0, "lat": 38.92878016666667, "bike_id": "ba14842053d8343607e30b16d37900eb", "type": "electric_scooter", "is_reserved": 0, "lon": -77.01363366666666}, {"fusion_lat": 0.0, "name": "a9cc4134d8a81e5aafd8a482bce7eb8e", "is_disabled": 0, "rental_uris": {"android": "https://dc.lft.to/lastmile_qr_scan", "ios": "https://dc.lft.to/lastmile_qr_scan"}, "fusion_lon": 0.0, "lat": 38.911582, "bike_id": "a9cc4134d8a81e5aafd8a482bce7eb8e", "type": "electric_scooter", "is_reserved": 0, "lon": -77.010945}, {"fusion_lat": 0.0, "name": "39e7e1fdb50d16ad99c8aa0421da3992", "is_disabled": 0, "rental_uris": {"android": "https://dc.lft.to/lastmile_qr_scan", "ios": "https://dc.lft.to/lastmile_qr_scan"}, "fusion_lon": 0.0, "lat": 38.87848666666667, "bike_id": "39e7e1fdb50d16ad99c8aa0421da3992", "type": "electric_scooter", "is_reserved": 0, "lon": -77.00108033333333}, {"fusion_lat": 0.0, "name": "ed419da541220016d997c7be72638f0e", "is_disabled": 0, "rental_uris": {"android": "https://dc.lft.to/lastmile_qr_scan", "ios": "https://dc.lft.to/lastmile_qr_scan"}, "fusion_lon": 0.0, "lat": 38.909940666666664, "bike_id": "ed419da541220016d997c7be72638f0e", "type": "electric_scooter", "is_reserved": 0, "lon": -77.0384635}, {"fusion_lat": 0.0, "name": "6504f02a576fbad3228c3ec4550ba924", "is_disabled": 0, "rental_uris": {"android": "https://dc.lft.to/lastmile_qr_scan", "ios": "https://dc.lft.to/lastmile_qr_scan"}, "fusion_lon": 0.0, "lat": 38.920697833333335, "bike_id": "6504f02a576fbad3228c3ec4550ba924", "type": "electric_scooter", "is_reserved": 0, "lon": -77.02524366666667}, {"fusion_lat": 0.0, "name": "85d8f4010612749a766dd40d9d6cb2c2", "is_disabled": 0, "rental_uris": {"android": "https://dc.lft.to/lastmile_qr_scan", "ios": "https://dc.lft.to/lastmile_qr_scan"}, "fusion_lon": 0.0, "lat": 38.90728, "bike_id": "85d8f4010612749a766dd40d9d6cb2c2", "type": "electric_scooter", "is_reserved": 0, "lon": -77.00510066666666}, {"fusion_lat": 0.0, "name": "d1843a9a33b074abb700164d57150b08", "is_disabled": 0, "rental_uris": {"android": "https://dc.lft.to/lastmile_qr_scan", "ios": "https://dc.lft.to/lastmile_qr_scan"}, "fusion_lon": 0.0, "lat": 38.877180333333335, "bike_id": "d1843a9a33b074abb700164d57150b08", "type": "electric_scooter", "is_reserved": 0, "lon": -77.0176825}, {"fusion_lat": 0.0, "name": "5cb48ccaf15c5dbac55090b162b10a4b", "is_disabled": 0, "rental_uris": {"android": "https://dc.lft.to/lastmile_qr_scan", "ios": "https://dc.lft.to/lastmile_qr_scan"}, "fusion_lon": 0.0, "lat": 38.9072345, "bike_id": "5cb48ccaf15c5dbac55090b162b10a4b", "type": "electric_scooter", "is_reserved": 0, "lon": -77.04962883333333}, {"fusion_lat": 0.0, "name": "493445ada674adbfaa2c4f1b07f02ad0", "is_disabled": 0, "rental_uris": {"android": "https://dc.lft.to/lastmile_qr_scan", "ios": "https://dc.lft.to/lastmile_qr_scan"}, "fusion_lon": 0.0, "lat": 38.90682316666667, "bike_id": "493445ada674adbfaa2c4f1b07f02ad0", "type": "electric_scooter", "is_reserved": 0, "lon": -77.02694616666666}, {"fusion_lat": 0.0, "name": "f842e8a41ccd33080955df82371fcf5a", "is_disabled": 0, "rental_uris": {"android": "https://dc.lft.to/lastmile_qr_scan", "ios": "https://dc.lft.to/lastmile_qr_scan"}, "fusion_lon": 0.0, "lat": 38.914168, "bike_id": "f842e8a41ccd33080955df82371fcf5a", "type": "electric_scooter", "is_reserved": 0, "lon": -77.03816366666666}, {"fusion_lat": 0.0, "name": "413b9c442dc6fb9706a43af42ef51272", "is_disabled": 0, "rental_uris": {"android": "https://dc.lft.to/lastmile_qr_scan", "ios": "https://dc.lft.to/lastmile_qr_scan"}, "fusion_lon": 0.0, "lat": 38.903872166666666, "bike_id": "413b9c442dc6fb9706a43af42ef51272", "type": "electric_scooter", "is_reserved": 0, "lon": -77.00722216666666}, {"fusion_lat": 0.0, "name": "3b4c8407801e2585e7d13e9a6a2fa76f", "is_disabled": 0, "rental_uris": {"android": "https://dc.lft.to/lastmile_qr_scan", "ios": "https://dc.lft.to/lastmile_qr_scan"}, "fusion_lon": 0.0, "lat": 38.871013833333336, "bike_id": "3b4c8407801e2585e7d13e9a6a2fa76f", "type": "electric_scooter", "is_reserved": 0, "lon": -76.96582333333333}, {"fusion_lat": 0.0, "name": "2582d249e661feccd38695f880300269", "is_disabled": 0, "rental_uris": {"android": "https://dc.lft.to/lastmile_qr_scan", "ios": "https://dc.lft.to/lastmile_qr_scan"}, "fusion_lon": 0.0, "lat": 38.898967999999996, "bike_id": "2582d249e661feccd38695f880300269", "type": "electric_scooter", "is_reserved": 0, "lon": -76.9938775}, {"fusion_lat": 0.0, "name": "60d53b78c2e917c930ebeab10a89c41d", "is_disabled": 0, "rental_uris": {"android": "https://dc.lft.to/lastmile_qr_scan", "ios": "https://dc.lft.to/lastmile_qr_scan"}, "fusion_lon": 0.0, "lat": 38.901117666666664, "bike_id": "60d53b78c2e917c930ebeab10a89c41d", "type": "electric_scooter", "is_reserved": 0, "lon": -77.05900183333334}, {"fusion_lat": 0.0, "name": "e2749f36ceb305b2db7d5dfec4c926b9", "is_disabled": 0, "rental_uris": {"android": "https://dc.lft.to/lastmile_qr_scan", "ios": "https://dc.lft.to/lastmile_qr_scan"}, "fusion_lon": 0.0, "lat": 38.888880666666665, "bike_id": "e2749f36ceb305b2db7d5dfec4c926b9", "type": "electric_scooter", "is_reserved": 0, "lon": -77.0332575}, {"fusion_lat": 0.0, "name": "220406439c51a0c9e5529c4f2899bcc9", "is_disabled": 0, "rental_uris": {"android": "https://dc.lft.to/lastmile_qr_scan", "ios": "https://dc.lft.to/lastmile_qr_scan"}, "fusion_lon": 0.0, "lat": 38.907220833333334, "bike_id": "220406439c51a0c9e5529c4f2899bcc9", "type": "electric_scooter", "is_reserved": 0, "lon": -77.04079366666667}, {"fusion_lat": 0.0, "name": "a77f576977387da0ba0d74c8fd8e654b", "is_disabled": 0, "rental_uris": {"android": "https://dc.lft.to/lastmile_qr_scan", "ios": "https://dc.lft.to/lastmile_qr_scan"}, "fusion_lon": 0.0, "lat": 38.90069233333333, "bike_id": "a77f576977387da0ba0d74c8fd8e654b", "type": "electric_scooter", "is_reserved": 0, "lon": -77.03949766666666}, {"fusion_lat": 0.0, "name": "73543443a546472d7a27c0efb6f2188d", "is_disabled": 0, "rental_uris": {"android": "https://dc.lft.to/lastmile_qr_scan", "ios": "https://dc.lft.to/lastmile_qr_scan"}, "fusion_lon": 0.0, "lat": 38.91692833333333, "bike_id": "73543443a546472d7a27c0efb6f2188d", "type": "electric_scooter", "is_reserved": 0, "lon": -77.03762}, {"fusion_lat": 0.0, "name": "9d69ba7f717acffe9b05010cd659944b", "is_disabled": 0, "rental_uris": {"android": "https://dc.lft.to/lastmile_qr_scan", "ios": "https://dc.lft.to/lastmile_qr_scan"}, "fusion_lon": 0.0, "lat": 38.8952375, "bike_id": "9d69ba7f717acffe9b05010cd659944b", "type": "electric_scooter", "is_reserved": 0, "lon": -76.9341165}, {"fusion_lat": 0.0, "name": "959774dd7109b6078f6a3a417dca379e", "is_disabled": 0, "rental_uris": {"android": "https://dc.lft.to/lastmile_qr_scan", "ios": "https://dc.lft.to/lastmile_qr_scan"}, "fusion_lon": 0.0, "lat": 38.9563005, "bike_id": "959774dd7109b6078f6a3a417dca379e", "type": "electric_bike", "is_reserved": 0, "lon": -76.9387755}, {"fusion_lat": 0.0, "name": "ab3a3d90b231aeb1de8a0bfa4f49b55c", "is_disabled": 0, "rental_uris": {"android": "https://dc.lft.to/lastmile_qr_scan", "ios": "https://dc.lft.to/lastmile_qr_scan"}, "fusion_lon": 0.0, "lat": 38.9095875, "bike_id": "ab3a3d90b231aeb1de8a0bfa4f49b55c", "type": "electric_scooter", "is_reserved": 0, "lon": -77.02309216666667}, {"fusion_lat": 0.0, "name": "6f1f8b334177126b49d65c43cfb5a326", "is_disabled": 0, "rental_uris": {"android": "https://dc.lft.to/lastmile_qr_scan", "ios": "https://dc.lft.to/lastmile_qr_scan"}, "fusion_lon": 0.0, "lat": 38.9126825, "bike_id": "6f1f8b334177126b49d65c43cfb5a326", "type": "electric_scooter", "is_reserved": 0, "lon": -77.019295}, {"fusion_lat": 0.0, "name": "4bcf47efc48b916003b3ee1488e69fd2", "is_disabled": 0, "rental_uris": {"android": "https://dc.lft.to/lastmile_qr_scan", "ios": "https://dc.lft.to/lastmile_qr_scan"}, "fusion_lon": 0.0, "lat": 38.892859, "bike_id": "4bcf47efc48b916003b3ee1488e69fd2", "type": "electric_scooter", "is_reserved": 0, "lon": -77.02608983333333}, {"fusion_lat": 0.0, "name": "46b631fecba9c6f97125770d08744f71", "is_disabled": 0, "rental_uris": {"android": "https://dc.lft.to/lastmile_qr_scan", "ios": "https://dc.lft.to/lastmile_qr_scan"}, "fusion_lon": 0.0, "lat": 38.93129666666667, "bike_id": "46b631fecba9c6f97125770d08744f71", "type": "electric_scooter", "is_reserved": 0, "lon": -77.03853733333334}, {"fusion_lat": 0.0, "name": "9e886f61ef209156817acc25bc9572f3", "is_disabled": 0, "rental_uris": {"android": "https://dc.lft.to/lastmile_qr_scan", "ios": "https://dc.lft.to/lastmile_qr_scan"}, "fusion_lon": 0.0, "lat": 38.843555333333335, "bike_id": "9e886f61ef209156817acc25bc9572f3", "type": "electric_bike", "is_reserved": 0, "lon": -76.978332}, {"fusion_lat": 0.0, "name": "43fd5763cfdc5d89a3a76e4ac8892c91", "is_disabled": 0, "rental_uris": {"android": "https://dc.lft.to/lastmile_qr_scan", "ios": "https://dc.lft.to/lastmile_qr_scan"}, "fusion_lon": 0.0, "lat": 38.94498433333333, "bike_id": "43fd5763cfdc5d89a3a76e4ac8892c91", "type": "electric_scooter", "is_reserved": 0, "lon": -77.0315085}, {"fusion_lat": 0.0, "name": "7e2d7423ee6687b0d4976cc50df284bb", "is_disabled": 0, "rental_uris": {"android": "https://dc.lft.to/lastmile_qr_scan", "ios": "https://dc.lft.to/lastmile_qr_scan"}, "fusion_lon": 0.0, "lat": 38.937797333333336, "bike_id": "7e2d7423ee6687b0d4976cc50df284bb", "type": "electric_scooter", "is_reserved": 0, "lon": -77.032873}, {"fusion_lat": 0.0, "name": "e3f7a1f4739c66f744605307b2391ddd", "is_disabled": 0, "rental_uris": {"android": "https://dc.lft.to/lastmile_qr_scan", "ios": "https://dc.lft.to/lastmile_qr_scan"}, "fusion_lon": 0.0, "lat": 38.910545166666665, "bike_id": "e3f7a1f4739c66f744605307b2391ddd", "type": "electric_scooter", "is_reserved": 0, "lon": -77.02656716666667}, {"fusion_lat": 0.0, "name": "a007e6e7e71f729ab20d1cfaa1c0b123", "is_disabled": 0, "rental_uris": {"android": "https://dc.lft.to/lastmile_qr_scan", "ios": "https://dc.lft.to/lastmile_qr_scan"}, "fusion_lon": 0.0, "lat": 38.903689666666665, "bike_id": "a007e6e7e71f729ab20d1cfaa1c0b123", "type": "electric_scooter", "is_reserved": 0, "lon": -77.0383075}, {"fusion_lat": 0.0, "name": "98c3c1f34fa2a052ae955451aa103050", "is_disabled": 0, "rental_uris": {"android": "https://dc.lft.to/lastmile_qr_scan", "ios": "https://dc.lft.to/lastmile_qr_scan"}, "fusion_lon": 0.0, "lat": 38.883574333333335, "bike_id": "98c3c1f34fa2a052ae955451aa103050", "type": "electric_scooter", "is_reserved": 0, "lon": -76.94154466666667}, {"fusion_lat": 0.0, "name": "712c4ffd2dd139caff73f0ef8f0830b8", "is_disabled": 0, "rental_uris": {"android": "https://dc.lft.to/lastmile_qr_scan", "ios": "https://dc.lft.to/lastmile_qr_scan"}, "fusion_lon": 0.0, "lat": 38.92343066666667, "bike_id": "712c4ffd2dd139caff73f0ef8f0830b8", "type": "electric_scooter", "is_reserved": 0, "lon": -77.05230966666667}, {"fusion_lat": 0.0, "name": "ac5c725f909d555b257fed02868a8f25", "is_disabled": 0, "rental_uris": {"android": "https://dc.lft.to/lastmile_qr_scan", "ios": "https://dc.lft.to/lastmile_qr_scan"}, "fusion_lon": 0.0, "lat": 38.90244666666667, "bike_id": "ac5c725f909d555b257fed02868a8f25", "type": "electric_scooter", "is_reserved": 0, "lon": -77.03984016666666}, {"fusion_lat": 0.0, "name": "3a2157c5f0dc2fe4d498576545cd32a4", "is_disabled": 0, "rental_uris": {"android": "https://dc.lft.to/lastmile_qr_scan", "ios": "https://dc.lft.to/lastmile_qr_scan"}, "fusion_lon": 0.0, "lat": 38.92427466666667, "bike_id": "3a2157c5f0dc2fe4d498576545cd32a4", "type": "electric_scooter", "is_reserved": 0, "lon": -77.0298335}, {"fusion_lat": 0.0, "name": "06a3b26b11b5edd770de4132058321ca", "is_disabled": 0, "rental_uris": {"android": "https://dc.lft.to/lastmile_qr_scan", "ios": "https://dc.lft.to/lastmile_qr_scan"}, "fusion_lon": 0.0, "lat": 38.91092483333333, "bike_id": "06a3b26b11b5edd770de4132058321ca", "type": "electric_scooter", "is_reserved": 0, "lon": -77.04485066666666}, {"fusion_lat": 0.0, "name": "90bcd76de8368fe9f84df5f008926ce6", "is_disabled": 0, "rental_uris": {"android": "https://dc.lft.to/lastmile_qr_scan", "ios": "https://dc.lft.to/lastmile_qr_scan"}, "fusion_lon": 0.0, "lat": 38.93487533333333, "bike_id": "90bcd76de8368fe9f84df5f008926ce6", "type": "electric_scooter", "is_reserved": 0, "lon": -77.07275733333333}, {"fusion_lat": 0.0, "name": "f911888d9029fb39e2985bea43d9dd52", "is_disabled": 0, "rental_uris": {"android": "https://dc.lft.to/lastmile_qr_scan", "ios": "https://dc.lft.to/lastmile_qr_scan"}, "fusion_lon": 0.0, "lat": 38.941973, "bike_id": "f911888d9029fb39e2985bea43d9dd52", "type": "electric_scooter", "is_reserved": 0, "lon": -77.0253295}, {"fusion_lat": 0.0, "name": "f9bea224cea626e094316974207d0ce5", "is_disabled": 0, "rental_uris": {"android": "https://dc.lft.to/lastmile_qr_scan", "ios": "https://dc.lft.to/lastmile_qr_scan"}, "fusion_lon": 0.0, "lat": 38.92402283333333, "bike_id": "f9bea224cea626e094316974207d0ce5", "type": "electric_scooter", "is_reserved": 0, "lon": -77.02544533333334}, {"fusion_lat": 0.0, "name": "51db7c4f43fbccad67014d4d6933aa7c", "is_disabled": 0, "rental_uris": {"android": "https://dc.lft.to/lastmile_qr_scan", "ios": "https://dc.lft.to/lastmile_qr_scan"}, "fusion_lon": 0.0, "lat": 38.911095833333334, "bike_id": "51db7c4f43fbccad67014d4d6933aa7c", "type": "electric_scooter", "is_reserved": 0, "lon": -77.02155516666667}, {"fusion_lat": 0.0, "name": "db326f001fe3810212a63107a77c0d6e", "is_disabled": 0, "rental_uris": {"android": "https://dc.lft.to/lastmile_qr_scan", "ios": "https://dc.lft.to/lastmile_qr_scan"}, "fusion_lon": 0.0, "lat": 38.90556316666667, "bike_id": "db326f001fe3810212a63107a77c0d6e", "type": "electric_scooter", "is_reserved": 0, "lon": -77.02097466666666}, {"fusion_lat": 0.0, "name": "89ca080e6f6d0d8c67d3f81e12be6083", "is_disabled": 0, "rental_uris": {"android": "https://dc.lft.to/lastmile_qr_scan", "ios": "https://dc.lft.to/lastmile_qr_scan"}, "fusion_lon": 0.0, "lat": 38.90691866666667, "bike_id": "89ca080e6f6d0d8c67d3f81e12be6083", "type": "electric_scooter", "is_reserved": 0, "lon": -76.95192933333334}, {"fusion_lat": 0.0, "name": "2d77219e563ed47ba7b98a5abab3c55f", "is_disabled": 0, "rental_uris": {"android": "https://dc.lft.to/lastmile_qr_scan", "ios": "https://dc.lft.to/lastmile_qr_scan"}, "fusion_lon": 0.0, "lat": 38.9165575, "bike_id": "2d77219e563ed47ba7b98a5abab3c55f", "type": "electric_scooter", "is_reserved": 0, "lon": -77.0385195}, {"fusion_lat": 0.0, "name": "66c92a2cb5d7374b8f608300c132af92", "is_disabled": 0, "rental_uris": {"android": "https://dc.lft.to/lastmile_qr_scan", "ios": "https://dc.lft.to/lastmile_qr_scan"}, "fusion_lon": 0.0, "lat": 38.88130316666667, "bike_id": "66c92a2cb5d7374b8f608300c132af92", "type": "electric_bike", "is_reserved": 0, "lon": -76.98122233333333}, {"fusion_lat": 0.0, "name": "3176584136606230c9d769fd2ab4fb11", "is_disabled": 0, "rental_uris": {"android": "https://dc.lft.to/lastmile_qr_scan", "ios": "https://dc.lft.to/lastmile_qr_scan"}, "fusion_lon": 0.0, "lat": 38.9025885, "bike_id": "3176584136606230c9d769fd2ab4fb11", "type": "electric_scooter", "is_reserved": 0, "lon": -77.04606133333333}, {"fusion_lat": 0.0, "name": "620e9cb3e8cac4bc2164f0dc410c8fa7", "is_disabled": 0, "rental_uris": {"android": "https://dc.lft.to/lastmile_qr_scan", "ios": "https://dc.lft.to/lastmile_qr_scan"}, "fusion_lon": 0.0, "lat": 38.836283333333334, "bike_id": "620e9cb3e8cac4bc2164f0dc410c8fa7", "type": "electric_bike", "is_reserved": 0, "lon": -77.0695345}, {"fusion_lat": 0.0, "name": "d6770a0359286c907291feaa828f8033", "is_disabled": 0, "rental_uris": {"android": "https://dc.lft.to/lastmile_qr_scan", "ios": "https://dc.lft.to/lastmile_qr_scan"}, "fusion_lon": 0.0, "lat": 38.906557666666664, "bike_id": "d6770a0359286c907291feaa828f8033", "type": "electric_scooter", "is_reserved": 0, "lon": -77.00951616666667}, {"fusion_lat": 0.0, "name": "0ea151bd3f9e695cac335701495d375c", "is_disabled": 0, "rental_uris": {"android": "https://dc.lft.to/lastmile_qr_scan", "ios": "https://dc.lft.to/lastmile_qr_scan"}, "fusion_lon": 0.0, "lat": 38.91707316666667, "bike_id": "0ea151bd3f9e695cac335701495d375c", "type": "electric_scooter", "is_reserved": 0, "lon": -77.02955683333333}, {"fusion_lat": 0.0, "name": "6d23c34b4b61e170f96b047c99e9d287", "is_disabled": 0, "rental_uris": {"android": "https://dc.lft.to/lastmile_qr_scan", "ios": "https://dc.lft.to/lastmile_qr_scan"}, "fusion_lon": 0.0, "lat": 38.90441933333334, "bike_id": "6d23c34b4b61e170f96b047c99e9d287", "type": "electric_scooter", "is_reserved": 0, "lon": -77.05864483333333}, {"fusion_lat": 0.0, "name": "b3f23d6f7c302224c1ed80eb13c49423", "is_disabled": 0, "rental_uris": {"android": "https://dc.lft.to/lastmile_qr_scan", "ios": "https://dc.lft.to/lastmile_qr_scan"}, "fusion_lon": 0.0, "lat": 38.88723933333333, "bike_id": "b3f23d6f7c302224c1ed80eb13c49423", "type": "electric_scooter", "is_reserved": 0, "lon": -77.02580916666666}, {"fusion_lat": 0.0, "name": "e882e415bed63290cee6ea914d5d3424", "is_disabled": 0, "rental_uris": {"android": "https://dc.lft.to/lastmile_qr_scan", "ios": "https://dc.lft.to/lastmile_qr_scan"}, "fusion_lon": 0.0, "lat": 38.94165866666667, "bike_id": "e882e415bed63290cee6ea914d5d3424", "type": "electric_bike", "is_reserved": 0, "lon": -76.96651433333334}, {"fusion_lat": 0.0, "name": "995a9f64236f3c94e2e0da143b6752be", "is_disabled": 0, "rental_uris": {"android": "https://dc.lft.to/lastmile_qr_scan", "ios": "https://dc.lft.to/lastmile_qr_scan"}, "fusion_lon": 0.0, "lat": 38.98786416666667, "bike_id": "995a9f64236f3c94e2e0da143b6752be", "type": "electric_bike", "is_reserved": 0, "lon": -77.14100166666667}, {"fusion_lat": 0.0, "name": "2064480f27e72875ccb3ad04ac1d24ff", "is_disabled": 0, "rental_uris": {"android": "https://dc.lft.to/lastmile_qr_scan", "ios": "https://dc.lft.to/lastmile_qr_scan"}, "fusion_lon": 0.0, "lat": 38.941531, "bike_id": "2064480f27e72875ccb3ad04ac1d24ff", "type": "electric_bike", "is_reserved": 0, "lon": -77.00193133333333}, {"fusion_lat": 0.0, "name": "89303f478152e48aab96cdca7692c095", "is_disabled": 0, "rental_uris": {"android": "https://dc.lft.to/lastmile_qr_scan", "ios": "https://dc.lft.to/lastmile_qr_scan"}, "fusion_lon": 0.0, "lat": 38.895660666666664, "bike_id": "89303f478152e48aab96cdca7692c095", "type": "electric_scooter", "is_reserved": 0, "lon": -77.0240855}, {"fusion_lat": 0.0, "name": "b3b456620953177b6277a26ed501f88b", "is_disabled": 0, "rental_uris": {"android": "https://dc.lft.to/lastmile_qr_scan", "ios": "https://dc.lft.to/lastmile_qr_scan"}, "fusion_lon": 0.0, "lat": 38.900186, "bike_id": "b3b456620953177b6277a26ed501f88b", "type": "electric_scooter", "is_reserved": 0, "lon": -77.0240065}, {"fusion_lat": 0.0, "name": "c6991b3ccbd843271884585ac8c65cd0", "is_disabled": 0, "rental_uris": {"android": "https://dc.lft.to/lastmile_qr_scan", "ios": "https://dc.lft.to/lastmile_qr_scan"}, "fusion_lon": 0.0, "lat": 38.92865833333333, "bike_id": "c6991b3ccbd843271884585ac8c65cd0", "type": "electric_scooter", "is_reserved": 0, "lon": -77.0343685}, {"fusion_lat": 0.0, "name": "023691a0c29af088ae8daf8c2de9fe61", "is_disabled": 0, "rental_uris": {"android": "https://dc.lft.to/lastmile_qr_scan", "ios": "https://dc.lft.to/lastmile_qr_scan"}, "fusion_lon": 0.0, "lat": 38.873638, "bike_id": "023691a0c29af088ae8daf8c2de9fe61", "type": "electric_scooter", "is_reserved": 0, "lon": -77.00131433333334}, {"fusion_lat": 0.0, "name": "0c88480474e39b8e81b3415f6200c524", "is_disabled": 0, "rental_uris": {"android": "https://dc.lft.to/lastmile_qr_scan", "ios": "https://dc.lft.to/lastmile_qr_scan"}, "fusion_lon": 0.0, "lat": 38.90867766666667, "bike_id": "0c88480474e39b8e81b3415f6200c524", "type": "electric_scooter", "is_reserved": 0, "lon": -77.0239175}, {"fusion_lat": 0.0, "name": "cdf1a5d0f5dc899545e32f2ec58aea21", "is_disabled": 0, "rental_uris": {"android": "https://dc.lft.to/lastmile_qr_scan", "ios": "https://dc.lft.to/lastmile_qr_scan"}, "fusion_lon": 0.0, "lat": 38.877343333333336, "bike_id": "cdf1a5d0f5dc899545e32f2ec58aea21", "type": "electric_scooter", "is_reserved": 0, "lon": -77.00570166666667}, {"fusion_lat": 0.0, "name": "4c27136eb4af49e10fb351a883b4a80f", "is_disabled": 0, "rental_uris": {"android": "https://dc.lft.to/lastmile_qr_scan", "ios": "https://dc.lft.to/lastmile_qr_scan"}, "fusion_lon": 0.0, "lat": 38.89340266666667, "bike_id": "4c27136eb4af49e10fb351a883b4a80f", "type": "electric_scooter", "is_reserved": 0, "lon": -76.99162333333334}, {"fusion_lat": 0.0, "name": "63c6d52eb9fec5a759c642cd2453e642", "is_disabled": 0, "rental_uris": {"android": "https://dc.lft.to/lastmile_qr_scan", "ios": "https://dc.lft.to/lastmile_qr_scan"}, "fusion_lon": 0.0, "lat": 38.902870666666665, "bike_id": "63c6d52eb9fec5a759c642cd2453e642", "type": "electric_scooter", "is_reserved": 0, "lon": -77.01748566666667}, {"fusion_lat": 0.0, "name": "15971dcdb1b9ae09160de6f1413d1e03", "is_disabled": 0, "rental_uris": {"android": "https://dc.lft.to/lastmile_qr_scan", "ios": "https://dc.lft.to/lastmile_qr_scan"}, "fusion_lon": 0.0, "lat": 38.909046833333335, "bike_id": "15971dcdb1b9ae09160de6f1413d1e03", "type": "electric_scooter", "is_reserved": 0, "lon": -77.0421005}, {"fusion_lat": 0.0, "name": "9f345b3e6dae5ded975a6ae7422d537e", "is_disabled": 0, "rental_uris": {"android": "https://dc.lft.to/lastmile_qr_scan", "ios": "https://dc.lft.to/lastmile_qr_scan"}, "fusion_lon": 0.0, "lat": 38.91114566666667, "bike_id": "9f345b3e6dae5ded975a6ae7422d537e", "type": "electric_scooter", "is_reserved": 0, "lon": -77.034359}, {"fusion_lat": 0.0, "name": "4a3d6f421c3fe931f5233530e24c94ba", "is_disabled": 0, "rental_uris": {"android": "https://dc.lft.to/lastmile_qr_scan", "ios": "https://dc.lft.to/lastmile_qr_scan"}, "fusion_lon": 0.0, "lat": 38.922813166666664, "bike_id": "4a3d6f421c3fe931f5233530e24c94ba", "type": "electric_scooter", "is_reserved": 0, "lon": -77.02244216666666}, {"fusion_lat": 0.0, "name": "0973f0bda6b590ffe70aaa13599c5cf4", "is_disabled": 0, "rental_uris": {"android": "https://dc.lft.to/lastmile_qr_scan", "ios": "https://dc.lft.to/lastmile_qr_scan"}, "fusion_lon": 0.0, "lat": 38.91619466666667, "bike_id": "0973f0bda6b590ffe70aaa13599c5cf4", "type": "electric_scooter", "is_reserved": 0, "lon": -77.023934}, {"fusion_lat": 0.0, "name": "9b275b086571bbb5b568e19b232eb6ec", "is_disabled": 0, "rental_uris": {"android": "https://dc.lft.to/lastmile_qr_scan", "ios": "https://dc.lft.to/lastmile_qr_scan"}, "fusion_lon": 0.0, "lat": 38.9036675, "bike_id": "9b275b086571bbb5b568e19b232eb6ec", "type": "electric_scooter", "is_reserved": 0, "lon": -77.03857733333334}, {"fusion_lat": 0.0, "name": "d886f99864e70b3fbbf9e6a03c3840d9", "is_disabled": 0, "rental_uris": {"android": "https://dc.lft.to/lastmile_qr_scan", "ios": "https://dc.lft.to/lastmile_qr_scan"}, "fusion_lon": 0.0, "lat": 38.93828533333333, "bike_id": "d886f99864e70b3fbbf9e6a03c3840d9", "type": "electric_scooter", "is_reserved": 0, "lon": -76.99190816666666}, {"fusion_lat": 0.0, "name": "b7ae48272bd1a69b228e5ec6516abe31", "is_disabled": 0, "rental_uris": {"android": "https://dc.lft.to/lastmile_qr_scan", "ios": "https://dc.lft.to/lastmile_qr_scan"}, "fusion_lon": 0.0, "lat": 38.90221, "bike_id": "b7ae48272bd1a69b228e5ec6516abe31", "type": "electric_scooter", "is_reserved": 0, "lon": -77.0435505}, {"fusion_lat": 0.0, "name": "5ebbccb7406069fa687e28befea4f828", "is_disabled": 0, "rental_uris": {"android": "https://dc.lft.to/lastmile_qr_scan", "ios": "https://dc.lft.to/lastmile_qr_scan"}, "fusion_lon": 0.0, "lat": 38.9109485, "bike_id": "5ebbccb7406069fa687e28befea4f828", "type": "electric_scooter", "is_reserved": 0, "lon": -77.07349283333333}, {"fusion_lat": 0.0, "name": "af6683b7e20498e9473447f274a7c151", "is_disabled": 0, "rental_uris": {"android": "https://dc.lft.to/lastmile_qr_scan", "ios": "https://dc.lft.to/lastmile_qr_scan"}, "fusion_lon": 0.0, "lat": 38.9203925, "bike_id": "af6683b7e20498e9473447f274a7c151", "type": "electric_scooter", "is_reserved": 0, "lon": -77.02590883333333}, {"fusion_lat": 0.0, "name": "1a0ae39df17a795a6668c48264d16167", "is_disabled": 0, "rental_uris": {"android": "https://dc.lft.to/lastmile_qr_scan", "ios": "https://dc.lft.to/lastmile_qr_scan"}, "fusion_lon": 0.0, "lat": 38.92096566666667, "bike_id": "1a0ae39df17a795a6668c48264d16167", "type": "electric_bike", "is_reserved": 0, "lon": -76.994741}, {"fusion_lat": 0.0, "name": "3b4fa0dc3dde140493ba7af17d28645e", "is_disabled": 0, "rental_uris": {"android": "https://dc.lft.to/lastmile_qr_scan", "ios": "https://dc.lft.to/lastmile_qr_scan"}, "fusion_lon": 0.0, "lat": 38.947167, "bike_id": "3b4fa0dc3dde140493ba7af17d28645e", "type": "electric_scooter", "is_reserved": 0, "lon": -77.06532316666667}, {"fusion_lat": 0.0, "name": "258791cfe1554bf73cad9d9badb96db9", "is_disabled": 0, "rental_uris": {"android": "https://dc.lft.to/lastmile_qr_scan", "ios": "https://dc.lft.to/lastmile_qr_scan"}, "fusion_lon": 0.0, "lat": 38.901318833333335, "bike_id": "258791cfe1554bf73cad9d9badb96db9", "type": "electric_scooter", "is_reserved": 0, "lon": -77.04466983333333}, {"fusion_lat": 0.0, "name": "75ddff5f7108e5c75acd51d8853adb05", "is_disabled": 0, "rental_uris": {"android": "https://dc.lft.to/lastmile_qr_scan", "ios": "https://dc.lft.to/lastmile_qr_scan"}, "fusion_lon": 0.0, "lat": 38.920944666666664, "bike_id": "75ddff5f7108e5c75acd51d8853adb05", "type": "electric_scooter", "is_reserved": 0, "lon": -77.02522183333333}, {"fusion_lat": 0.0, "name": "ff30e0620bf1e6a6d9d0d380b47b6e9e", "is_disabled": 0, "rental_uris": {"android": "https://dc.lft.to/lastmile_qr_scan", "ios": "https://dc.lft.to/lastmile_qr_scan"}, "fusion_lon": 0.0, "lat": 38.91543033333333, "bike_id": "ff30e0620bf1e6a6d9d0d380b47b6e9e", "type": "electric_scooter", "is_reserved": 0, "lon": -77.03855516666667}, {"fusion_lat": 0.0, "name": "46143ccacd04a4a7edd8b012485f160c", "is_disabled": 0, "rental_uris": {"android": "https://dc.lft.to/lastmile_qr_scan", "ios": "https://dc.lft.to/lastmile_qr_scan"}, "fusion_lon": 0.0, "lat": 38.91707016666667, "bike_id": "46143ccacd04a4a7edd8b012485f160c", "type": "electric_scooter", "is_reserved": 0, "lon": -77.034692}, {"fusion_lat": 0.0, "name": "0340af00f764d94caead1caf9894a94a", "is_disabled": 0, "rental_uris": {"android": "https://dc.lft.to/lastmile_qr_scan", "ios": "https://dc.lft.to/lastmile_qr_scan"}, "fusion_lon": 0.0, "lat": 38.88339533333333, "bike_id": "0340af00f764d94caead1caf9894a94a", "type": "electric_scooter", "is_reserved": 0, "lon": -76.93502483333333}, {"fusion_lat": 0.0, "name": "2219536471cfd5129dbf061a2a5d6848", "is_disabled": 0, "rental_uris": {"android": "https://dc.lft.to/lastmile_qr_scan", "ios": "https://dc.lft.to/lastmile_qr_scan"}, "fusion_lon": 0.0, "lat": 38.915623333333336, "bike_id": "2219536471cfd5129dbf061a2a5d6848", "type": "electric_scooter", "is_reserved": 0, "lon": -77.010409}, {"fusion_lat": 0.0, "name": "a6678b08a48027dfb723902962c0135f", "is_disabled": 0, "rental_uris": {"android": "https://dc.lft.to/lastmile_qr_scan", "ios": "https://dc.lft.to/lastmile_qr_scan"}, "fusion_lon": 0.0, "lat": 38.8902325, "bike_id": "a6678b08a48027dfb723902962c0135f", "type": "electric_scooter", "is_reserved": 0, "lon": -77.0318235}, {"fusion_lat": 0.0, "name": "0a4352d46dd6e4932ac621c99db67f7f", "is_disabled": 0, "rental_uris": {"android": "https://dc.lft.to/lastmile_qr_scan", "ios": "https://dc.lft.to/lastmile_qr_scan"}, "fusion_lon": 0.0, "lat": 38.943850166666664, "bike_id": "0a4352d46dd6e4932ac621c99db67f7f", "type": "electric_scooter", "is_reserved": 0, "lon": -77.09503166666667}, {"fusion_lat": 0.0, "name": "8e29cdd778aff3c0c190b839d1c141f0", "is_disabled": 0, "rental_uris": {"android": "https://dc.lft.to/lastmile_qr_scan", "ios": "https://dc.lft.to/lastmile_qr_scan"}, "fusion_lon": 0.0, "lat": 38.93144216666666, "bike_id": "8e29cdd778aff3c0c190b839d1c141f0", "type": "electric_bike", "is_reserved": 0, "lon": -77.00072333333334}, {"fusion_lat": 0.0, "name": "2b4f274b9e4527f108d54a30e9ed12f2", "is_disabled": 0, "rental_uris": {"android": "https://dc.lft.to/lastmile_qr_scan", "ios": "https://dc.lft.to/lastmile_qr_scan"}, "fusion_lon": 0.0, "lat": 38.91412533333333, "bike_id": "2b4f274b9e4527f108d54a30e9ed12f2", "type": "electric_scooter", "is_reserved": 0, "lon": -77.03937366666666}, {"fusion_lat": 0.0, "name": "145af943de9d5849d097376296811504", "is_disabled": 0, "rental_uris": {"android": "https://dc.lft.to/lastmile_qr_scan", "ios": "https://dc.lft.to/lastmile_qr_scan"}, "fusion_lon": 0.0, "lat": 38.9099785, "bike_id": "145af943de9d5849d097376296811504", "type": "electric_scooter", "is_reserved": 0, "lon": -77.04677733333334}, {"fusion_lat": 0.0, "name": "f90392499f00dccd5dccf49537bbebbb", "is_disabled": 0, "rental_uris": {"android": "https://dc.lft.to/lastmile_qr_scan", "ios": "https://dc.lft.to/lastmile_qr_scan"}, "fusion_lon": 0.0, "lat": 38.918388666666665, "bike_id": "f90392499f00dccd5dccf49537bbebbb", "type": "electric_scooter", "is_reserved": 0, "lon": -77.02465933333333}, {"fusion_lat": 0.0, "name": "490be3c95ea16369b0f02909fd695577", "is_disabled": 0, "rental_uris": {"android": "https://dc.lft.to/lastmile_qr_scan", "ios": "https://dc.lft.to/lastmile_qr_scan"}, "fusion_lon": 0.0, "lat": 38.92496033333333, "bike_id": "490be3c95ea16369b0f02909fd695577", "type": "electric_scooter", "is_reserved": 0, "lon": -77.05208916666666}, {"fusion_lat": 0.0, "name": "7c4b711afc93d06a2dfd62c21867d1a7", "is_disabled": 0, "rental_uris": {"android": "https://dc.lft.to/lastmile_qr_scan", "ios": "https://dc.lft.to/lastmile_qr_scan"}, "fusion_lon": 0.0, "lat": 38.89908583333333, "bike_id": "7c4b711afc93d06a2dfd62c21867d1a7", "type": "electric_scooter", "is_reserved": 0, "lon": -76.9335145}, {"fusion_lat": 0.0, "name": "4c88421d506659ca8318a70262739afe", "is_disabled": 0, "rental_uris": {"android": "https://dc.lft.to/lastmile_qr_scan", "ios": "https://dc.lft.to/lastmile_qr_scan"}, "fusion_lon": 0.0, "lat": 38.938628, "bike_id": "4c88421d506659ca8318a70262739afe", "type": "electric_scooter", "is_reserved": 0, "lon": -77.03437216666667}, {"fusion_lat": 0.0, "name": "5c014bc3ba85dfa339408fe1f36e9e26", "is_disabled": 0, "rental_uris": {"android": "https://dc.lft.to/lastmile_qr_scan", "ios": "https://dc.lft.to/lastmile_qr_scan"}, "fusion_lon": 0.0, "lat": 38.905399, "bike_id": "5c014bc3ba85dfa339408fe1f36e9e26", "type": "electric_scooter", "is_reserved": 0, "lon": -77.04648766666666}, {"fusion_lat": 0.0, "name": "946df6d17130162e8caa801aa1bae938", "is_disabled": 0, "rental_uris": {"android": "https://dc.lft.to/lastmile_qr_scan", "ios": "https://dc.lft.to/lastmile_qr_scan"}, "fusion_lon": 0.0, "lat": 38.92477133333333, "bike_id": "946df6d17130162e8caa801aa1bae938", "type": "electric_scooter", "is_reserved": 0, "lon": -77.05204616666667}, {"fusion_lat": 0.0, "name": "ed694787e41c1cd3b6a639ce6943bb32", "is_disabled": 0, "rental_uris": {"android": "https://dc.lft.to/lastmile_qr_scan", "ios": "https://dc.lft.to/lastmile_qr_scan"}, "fusion_lon": 0.0, "lat": 38.934077, "bike_id": "ed694787e41c1cd3b6a639ce6943bb32", "type": "electric_scooter", "is_reserved": 0, "lon": -77.04157583333334}, {"fusion_lat": 0.0, "name": "0eb031e00db2b52cc3147dc2bb6bc679", "is_disabled": 0, "rental_uris": {"android": "https://dc.lft.to/lastmile_qr_scan", "ios": "https://dc.lft.to/lastmile_qr_scan"}, "fusion_lon": 0.0, "lat": 38.8972335, "bike_id": "0eb031e00db2b52cc3147dc2bb6bc679", "type": "electric_scooter", "is_reserved": 0, "lon": -77.0272045}, {"fusion_lat": 0.0, "name": "cea4d55f351bf914768bd4031540e079", "is_disabled": 0, "rental_uris": {"android": "https://dc.lft.to/lastmile_qr_scan", "ios": "https://dc.lft.to/lastmile_qr_scan"}, "fusion_lon": 0.0, "lat": 38.9154605, "bike_id": "cea4d55f351bf914768bd4031540e079", "type": "electric_scooter", "is_reserved": 0, "lon": -77.03852583333334}, {"fusion_lat": 0.0, "name": "14cb932d35fc24301d90a67d58a79101", "is_disabled": 0, "rental_uris": {"android": "https://dc.lft.to/lastmile_qr_scan", "ios": "https://dc.lft.to/lastmile_qr_scan"}, "fusion_lon": 0.0, "lat": 38.950852833333336, "bike_id": "14cb932d35fc24301d90a67d58a79101", "type": "electric_bike", "is_reserved": 0, "lon": -77.01227516666667}, {"fusion_lat": 0.0, "name": "bf711727b0b039f180e1c692c403f5db", "is_disabled": 0, "rental_uris": {"android": "https://dc.lft.to/lastmile_qr_scan", "ios": "https://dc.lft.to/lastmile_qr_scan"}, "fusion_lon": 0.0, "lat": 38.9441215, "bike_id": "bf711727b0b039f180e1c692c403f5db", "type": "electric_scooter", "is_reserved": 0, "lon": -77.06325933333333}, {"fusion_lat": 0.0, "name": "ba20addef162d74884540d7000cb2bbd", "is_disabled": 0, "rental_uris": {"android": "https://dc.lft.to/lastmile_qr_scan", "ios": "https://dc.lft.to/lastmile_qr_scan"}, "fusion_lon": 0.0, "lat": 38.920896, "bike_id": "ba20addef162d74884540d7000cb2bbd", "type": "electric_scooter", "is_reserved": 0, "lon": -77.02517933333333}, {"fusion_lat": 0.0, "name": "cd183c14538cb7f2fdb5cb586c2a06f9", "is_disabled": 0, "rental_uris": {"android": "https://dc.lft.to/lastmile_qr_scan", "ios": "https://dc.lft.to/lastmile_qr_scan"}, "fusion_lon": 0.0, "lat": 38.917068666666665, "bike_id": "cd183c14538cb7f2fdb5cb586c2a06f9", "type": "electric_scooter", "is_reserved": 0, "lon": -77.06871783333334}, {"fusion_lat": 0.0, "name": "df15d3c00375c7e7c55d7808945a353e", "is_disabled": 0, "rental_uris": {"android": "https://dc.lft.to/lastmile_qr_scan", "ios": "https://dc.lft.to/lastmile_qr_scan"}, "fusion_lon": 0.0, "lat": 38.879237333333336, "bike_id": "df15d3c00375c7e7c55d7808945a353e", "type": "electric_scooter", "is_reserved": 0, "lon": -77.023758}, {"fusion_lat": 0.0, "name": "dcb5ae631318112eec7792c7fccf64bd", "is_disabled": 0, "rental_uris": {"android": "https://dc.lft.to/lastmile_qr_scan", "ios": "https://dc.lft.to/lastmile_qr_scan"}, "fusion_lon": 0.0, "lat": 38.90725533333333, "bike_id": "dcb5ae631318112eec7792c7fccf64bd", "type": "electric_scooter", "is_reserved": 0, "lon": -77.04328966666667}, {"fusion_lat": 0.0, "name": "44697edc56f2c034e33bbe88e6b3d3d8", "is_disabled": 0, "rental_uris": {"android": "https://dc.lft.to/lastmile_qr_scan", "ios": "https://dc.lft.to/lastmile_qr_scan"}, "fusion_lon": 0.0, "lat": 38.91260916666667, "bike_id": "44697edc56f2c034e33bbe88e6b3d3d8", "type": "electric_scooter", "is_reserved": 0, "lon": -77.03147933333334}, {"fusion_lat": 0.0, "name": "ef4c7ac2b5b63c9039d79c9ca57e4709", "is_disabled": 0, "rental_uris": {"android": "https://dc.lft.to/lastmile_qr_scan", "ios": "https://dc.lft.to/lastmile_qr_scan"}, "fusion_lon": 0.0, "lat": 38.916476, "bike_id": "ef4c7ac2b5b63c9039d79c9ca57e4709", "type": "electric_scooter", "is_reserved": 0, "lon": -77.02181366666667}, {"fusion_lat": 0.0, "name": "fe305242d9bc006b80d64f58706790d2", "is_disabled": 0, "rental_uris": {"android": "https://dc.lft.to/lastmile_qr_scan", "ios": "https://dc.lft.to/lastmile_qr_scan"}, "fusion_lon": 0.0, "lat": 38.9233715, "bike_id": "fe305242d9bc006b80d64f58706790d2", "type": "electric_scooter", "is_reserved": 0, "lon": -77.05301766666666}, {"fusion_lat": 0.0, "name": "28327975fb4bd9a9cf0fef5f75b74d98", "is_disabled": 0, "rental_uris": {"android": "https://dc.lft.to/lastmile_qr_scan", "ios": "https://dc.lft.to/lastmile_qr_scan"}, "fusion_lon": 0.0, "lat": 38.88181, "bike_id": "28327975fb4bd9a9cf0fef5f75b74d98", "type": "electric_bike", "is_reserved": 0, "lon": -77.086405}, {"fusion_lat": 0.0, "name": "d0dfbd76d4d71f14cedf6a70d1e8fc75", "is_disabled": 0, "rental_uris": {"android": "https://dc.lft.to/lastmile_qr_scan", "ios": "https://dc.lft.to/lastmile_qr_scan"}, "fusion_lon": 0.0, "lat": 38.895438, "bike_id": "d0dfbd76d4d71f14cedf6a70d1e8fc75", "type": "electric_scooter", "is_reserved": 0, "lon": -76.98336433333333}, {"fusion_lat": 0.0, "name": "db95dca316109f467f7e31f113352037", "is_disabled": 0, "rental_uris": {"android": "https://dc.lft.to/lastmile_qr_scan", "ios": "https://dc.lft.to/lastmile_qr_scan"}, "fusion_lon": 0.0, "lat": 38.926015166666666, "bike_id": "db95dca316109f467f7e31f113352037", "type": "electric_scooter", "is_reserved": 0, "lon": -77.02155883333333}, {"fusion_lat": 0.0, "name": "4817b41466a82f00ed01655f9615a410", "is_disabled": 0, "rental_uris": {"android": "https://dc.lft.to/lastmile_qr_scan", "ios": "https://dc.lft.to/lastmile_qr_scan"}, "fusion_lon": 0.0, "lat": 38.897279166666664, "bike_id": "4817b41466a82f00ed01655f9615a410", "type": "electric_scooter", "is_reserved": 0, "lon": -76.9913495}, {"fusion_lat": 0.0, "name": "9f819cc57d4fc95bfdc326d2f48ffe61", "is_disabled": 0, "rental_uris": {"android": "https://dc.lft.to/lastmile_qr_scan", "ios": "https://dc.lft.to/lastmile_qr_scan"}, "fusion_lon": 0.0, "lat": 38.903232333333335, "bike_id": "9f819cc57d4fc95bfdc326d2f48ffe61", "type": "electric_scooter", "is_reserved": 0, "lon": -77.044876}, {"fusion_lat": 0.0, "name": "10a2a4f45d9a6fa4b06bca096eccb49f", "is_disabled": 0, "rental_uris": {"android": "https://dc.lft.to/lastmile_qr_scan", "ios": "https://dc.lft.to/lastmile_qr_scan"}, "fusion_lon": 0.0, "lat": 38.908611, "bike_id": "10a2a4f45d9a6fa4b06bca096eccb49f", "type": "electric_scooter", "is_reserved": 0, "lon": -77.02341}, {"fusion_lat": 0.0, "name": "6e1d507087932abce03124e0efac32f9", "is_disabled": 0, "rental_uris": {"android": "https://dc.lft.to/lastmile_qr_scan", "ios": "https://dc.lft.to/lastmile_qr_scan"}, "fusion_lon": 0.0, "lat": 38.90651066666667, "bike_id": "6e1d507087932abce03124e0efac32f9", "type": "electric_scooter", "is_reserved": 0, "lon": -77.02213633333334}, {"fusion_lat": 0.0, "name": "ebbac9f7184aa465b3de2369b8ced7ea", "is_disabled": 0, "rental_uris": {"android": "https://dc.lft.to/lastmile_qr_scan", "ios": "https://dc.lft.to/lastmile_qr_scan"}, "fusion_lon": 0.0, "lat": 38.91119483333333, "bike_id": "ebbac9f7184aa465b3de2369b8ced7ea", "type": "electric_scooter", "is_reserved": 0, "lon": -77.01973966666667}, {"fusion_lat": 0.0, "name": "eb1bc19a2825b68a84b07061a4f1c20b", "is_disabled": 0, "rental_uris": {"android": "https://dc.lft.to/lastmile_qr_scan", "ios": "https://dc.lft.to/lastmile_qr_scan"}, "fusion_lon": 0.0, "lat": 38.90237916666667, "bike_id": "eb1bc19a2825b68a84b07061a4f1c20b", "type": "electric_scooter", "is_reserved": 0, "lon": -77.00197833333333}, {"fusion_lat": 0.0, "name": "cb5503542bfa3221a40689d2cbcc7b9b", "is_disabled": 0, "rental_uris": {"android": "https://dc.lft.to/lastmile_qr_scan", "ios": "https://dc.lft.to/lastmile_qr_scan"}, "fusion_lon": 0.0, "lat": 38.9257, "bike_id": "cb5503542bfa3221a40689d2cbcc7b9b", "type": "electric_scooter", "is_reserved": 0, "lon": -77.02688433333333}, {"fusion_lat": 0.0, "name": "e2299f24ddf3ef4d8e86bece2e087760", "is_disabled": 0, "rental_uris": {"android": "https://dc.lft.to/lastmile_qr_scan", "ios": "https://dc.lft.to/lastmile_qr_scan"}, "fusion_lon": 0.0, "lat": 38.91255983333333, "bike_id": "e2299f24ddf3ef4d8e86bece2e087760", "type": "electric_scooter", "is_reserved": 0, "lon": -77.036371}, {"fusion_lat": 0.0, "name": "52cee081c4025a88f42d55e5140d2f80", "is_disabled": 0, "rental_uris": {"android": "https://dc.lft.to/lastmile_qr_scan", "ios": "https://dc.lft.to/lastmile_qr_scan"}, "fusion_lon": 0.0, "lat": 38.906214166666665, "bike_id": "52cee081c4025a88f42d55e5140d2f80", "type": "electric_scooter", "is_reserved": 0, "lon": -77.02596766666667}, {"fusion_lat": 0.0, "name": "dac62e9453be92f4952316311098228b", "is_disabled": 0, "rental_uris": {"android": "https://dc.lft.to/lastmile_qr_scan", "ios": "https://dc.lft.to/lastmile_qr_scan"}, "fusion_lon": 0.0, "lat": 38.904198, "bike_id": "dac62e9453be92f4952316311098228b", "type": "electric_scooter", "is_reserved": 0, "lon": -77.025957}, {"fusion_lat": 0.0, "name": "6288898286de71ccc3e3ec8063c7d1f2", "is_disabled": 0, "rental_uris": {"android": "https://dc.lft.to/lastmile_qr_scan", "ios": "https://dc.lft.to/lastmile_qr_scan"}, "fusion_lon": 0.0, "lat": 38.93110133333333, "bike_id": "6288898286de71ccc3e3ec8063c7d1f2", "type": "electric_scooter", "is_reserved": 0, "lon": -76.99615733333333}, {"fusion_lat": 0.0, "name": "4a553d4fb3fd2f3abf5716f439a786c3", "is_disabled": 0, "rental_uris": {"android": "https://dc.lft.to/lastmile_qr_scan", "ios": "https://dc.lft.to/lastmile_qr_scan"}, "fusion_lon": 0.0, "lat": 38.9288375, "bike_id": "4a553d4fb3fd2f3abf5716f439a786c3", "type": "electric_scooter", "is_reserved": 0, "lon": -76.9956375}, {"fusion_lat": 0.0, "name": "47b03d7403c42240b06a65ba9820354e", "is_disabled": 0, "rental_uris": {"android": "https://dc.lft.to/lastmile_qr_scan", "ios": "https://dc.lft.to/lastmile_qr_scan"}, "fusion_lon": 0.0, "lat": 38.880159, "bike_id": "47b03d7403c42240b06a65ba9820354e", "type": "electric_scooter", "is_reserved": 0, "lon": -76.98072233333333}, {"fusion_lat": 0.0, "name": "5ddec6d1cd751b1f2e5595ad00c619b9", "is_disabled": 0, "rental_uris": {"android": "https://dc.lft.to/lastmile_qr_scan", "ios": "https://dc.lft.to/lastmile_qr_scan"}, "fusion_lon": 0.0, "lat": 38.910890333333334, "bike_id": "5ddec6d1cd751b1f2e5595ad00c619b9", "type": "electric_scooter", "is_reserved": 0, "lon": -77.04481216666667}, {"fusion_lat": 0.0, "name": "f7122347e41599690e933df6543bf104", "is_disabled": 0, "rental_uris": {"android": "https://dc.lft.to/lastmile_qr_scan", "ios": "https://dc.lft.to/lastmile_qr_scan"}, "fusion_lon": 0.0, "lat": 38.895029, "bike_id": "f7122347e41599690e933df6543bf104", "type": "electric_scooter", "is_reserved": 0, "lon": -77.02200316666666}, {"fusion_lat": 0.0, "name": "44b41b6e845745989dc9b90e8a2dd302", "is_disabled": 0, "rental_uris": {"android": "https://dc.lft.to/lastmile_qr_scan", "ios": "https://dc.lft.to/lastmile_qr_scan"}, "fusion_lon": 0.0, "lat": 38.902123, "bike_id": "44b41b6e845745989dc9b90e8a2dd302", "type": "electric_scooter", "is_reserved": 0, "lon": -77.018499}, {"fusion_lat": 0.0, "name": "3c928c9ca3e8c32587b9409cb5da2253", "is_disabled": 0, "rental_uris": {"android": "https://dc.lft.to/lastmile_qr_scan", "ios": "https://dc.lft.to/lastmile_qr_scan"}, "fusion_lon": 0.0, "lat": 38.85353283333333, "bike_id": "3c928c9ca3e8c32587b9409cb5da2253", "type": "electric_bike", "is_reserved": 0, "lon": -77.13462883333334}, {"fusion_lat": 0.0, "name": "9736c75b02915152ae5414cab7923871", "is_disabled": 0, "rental_uris": {"android": "https://dc.lft.to/lastmile_qr_scan", "ios": "https://dc.lft.to/lastmile_qr_scan"}, "fusion_lon": 0.0, "lat": 38.925503666666664, "bike_id": "9736c75b02915152ae5414cab7923871", "type": "electric_scooter", "is_reserved": 0, "lon": -77.03337266666666}, {"fusion_lat": 0.0, "name": "245e272a413fa5a96379d7b93189b48e", "is_disabled": 0, "rental_uris": {"android": "https://dc.lft.to/lastmile_qr_scan", "ios": "https://dc.lft.to/lastmile_qr_scan"}, "fusion_lon": 0.0, "lat": 38.91258766666667, "bike_id": "245e272a413fa5a96379d7b93189b48e", "type": "electric_scooter", "is_reserved": 0, "lon": -77.03866133333334}, {"fusion_lat": 0.0, "name": "a8175bb17655fa7dc571762b16e2659e", "is_disabled": 0, "rental_uris": {"android": "https://dc.lft.to/lastmile_qr_scan", "ios": "https://dc.lft.to/lastmile_qr_scan"}, "fusion_lon": 0.0, "lat": 38.90536066666667, "bike_id": "a8175bb17655fa7dc571762b16e2659e", "type": "electric_scooter", "is_reserved": 0, "lon": -77.0591465}, {"fusion_lat": 0.0, "name": "f1e5e5fc5805cb3052572d3434be0735", "is_disabled": 0, "rental_uris": {"android": "https://dc.lft.to/lastmile_qr_scan", "ios": "https://dc.lft.to/lastmile_qr_scan"}, "fusion_lon": 0.0, "lat": 38.91434366666667, "bike_id": "f1e5e5fc5805cb3052572d3434be0735", "type": "electric_scooter", "is_reserved": 0, "lon": -77.01219383333333}, {"fusion_lat": 0.0, "name": "d72b2b80fd05714c22ca91e9c3264a3e", "is_disabled": 0, "rental_uris": {"android": "https://dc.lft.to/lastmile_qr_scan", "ios": "https://dc.lft.to/lastmile_qr_scan"}, "fusion_lon": 0.0, "lat": 38.8475915, "bike_id": "d72b2b80fd05714c22ca91e9c3264a3e", "type": "electric_scooter", "is_reserved": 0, "lon": -76.99504966666666}, {"fusion_lat": 0.0, "name": "23599914abda81e94f04280d648a0a52", "is_disabled": 0, "rental_uris": {"android": "https://dc.lft.to/lastmile_qr_scan", "ios": "https://dc.lft.to/lastmile_qr_scan"}, "fusion_lon": 0.0, "lat": 38.87481783333333, "bike_id": "23599914abda81e94f04280d648a0a52", "type": "electric_scooter", "is_reserved": 0, "lon": -77.00033583333334}, {"fusion_lat": 0.0, "name": "4fdf2bb3d73056f55103fdbcf6bcfb66", "is_disabled": 0, "rental_uris": {"android": "https://dc.lft.to/lastmile_qr_scan", "ios": "https://dc.lft.to/lastmile_qr_scan"}, "fusion_lon": 0.0, "lat": 38.9146935, "bike_id": "4fdf2bb3d73056f55103fdbcf6bcfb66", "type": "electric_scooter", "is_reserved": 0, "lon": -77.0220405}, {"fusion_lat": 0.0, "name": "be312c6c7d001aea120e59b5577f5db1", "is_disabled": 0, "rental_uris": {"android": "https://dc.lft.to/lastmile_qr_scan", "ios": "https://dc.lft.to/lastmile_qr_scan"}, "fusion_lon": 0.0, "lat": 38.912898166666665, "bike_id": "be312c6c7d001aea120e59b5577f5db1", "type": "electric_scooter", "is_reserved": 0, "lon": -77.00898316666667}, {"fusion_lat": 0.0, "name": "7eb0dbcc0691d9c503594e6a0117362b", "is_disabled": 0, "rental_uris": {"android": "https://dc.lft.to/lastmile_qr_scan", "ios": "https://dc.lft.to/lastmile_qr_scan"}, "fusion_lon": 0.0, "lat": 38.9159745, "bike_id": "7eb0dbcc0691d9c503594e6a0117362b", "type": "electric_scooter", "is_reserved": 0, "lon": -76.99362033333334}, {"fusion_lat": 0.0, "name": "324815dd33d7c4571c092c9f95f599ac", "is_disabled": 0, "rental_uris": {"android": "https://dc.lft.to/lastmile_qr_scan", "ios": "https://dc.lft.to/lastmile_qr_scan"}, "fusion_lon": 0.0, "lat": 38.92600383333333, "bike_id": "324815dd33d7c4571c092c9f95f599ac", "type": "electric_scooter", "is_reserved": 0, "lon": -77.03746483333333}, {"fusion_lat": 0.0, "name": "2285e7d22d1264d306edae9fb73486ed", "is_disabled": 0, "rental_uris": {"android": "https://dc.lft.to/lastmile_qr_scan", "ios": "https://dc.lft.to/lastmile_qr_scan"}, "fusion_lon": 0.0, "lat": 38.920754333333335, "bike_id": "2285e7d22d1264d306edae9fb73486ed", "type": "electric_bike", "is_reserved": 0, "lon": -76.98945733333333}, {"fusion_lat": 0.0, "name": "a65f2e0a8c263ef13a252805fb302104", "is_disabled": 0, "rental_uris": {"android": "https://dc.lft.to/lastmile_qr_scan", "ios": "https://dc.lft.to/lastmile_qr_scan"}, "fusion_lon": 0.0, "lat": 38.90378316666666, "bike_id": "a65f2e0a8c263ef13a252805fb302104", "type": "electric_scooter", "is_reserved": 0, "lon": -77.03814366666667}, {"fusion_lat": 0.0, "name": "c292bc55834b74b2b4403edde42923fd", "is_disabled": 0, "rental_uris": {"android": "https://dc.lft.to/lastmile_qr_scan", "ios": "https://dc.lft.to/lastmile_qr_scan"}, "fusion_lon": 0.0, "lat": 38.902844333333334, "bike_id": "c292bc55834b74b2b4403edde42923fd", "type": "electric_scooter", "is_reserved": 0, "lon": -77.039286}, {"fusion_lat": 0.0, "name": "bbb745dffc6fcd9d4dd8c3fd457f1adc", "is_disabled": 0, "rental_uris": {"android": "https://dc.lft.to/lastmile_qr_scan", "ios": "https://dc.lft.to/lastmile_qr_scan"}, "fusion_lon": 0.0, "lat": 38.89966183333333, "bike_id": "bbb745dffc6fcd9d4dd8c3fd457f1adc", "type": "electric_scooter", "is_reserved": 0, "lon": -76.987138}, {"fusion_lat": 0.0, "name": "e6ef83a8665529fdcbcdf542f8c44359", "is_disabled": 0, "rental_uris": {"android": "https://dc.lft.to/lastmile_qr_scan", "ios": "https://dc.lft.to/lastmile_qr_scan"}, "fusion_lon": 0.0, "lat": 38.88727466666667, "bike_id": "e6ef83a8665529fdcbcdf542f8c44359", "type": "electric_scooter", "is_reserved": 0, "lon": -76.98356466666667}, {"fusion_lat": 0.0, "name": "0d9a827eaa6682930321207084adebcb", "is_disabled": 0, "rental_uris": {"android": "https://dc.lft.to/lastmile_qr_scan", "ios": "https://dc.lft.to/lastmile_qr_scan"}, "fusion_lon": 0.0, "lat": 38.94229516666667, "bike_id": "0d9a827eaa6682930321207084adebcb", "type": "electric_scooter", "is_reserved": 0, "lon": -77.01383666666666}, {"fusion_lat": 0.0, "name": "fc4fc5ada5cf0b490af49dd9b50c472e", "is_disabled": 0, "rental_uris": {"android": "https://dc.lft.to/lastmile_qr_scan", "ios": "https://dc.lft.to/lastmile_qr_scan"}, "fusion_lon": 0.0, "lat": 38.94194683333333, "bike_id": "fc4fc5ada5cf0b490af49dd9b50c472e", "type": "electric_scooter", "is_reserved": 0, "lon": -77.02531066666667}, {"fusion_lat": 0.0, "name": "74d0460ad4c6091ec234bb0604bd8839", "is_disabled": 0, "rental_uris": {"android": "https://dc.lft.to/lastmile_qr_scan", "ios": "https://dc.lft.to/lastmile_qr_scan"}, "fusion_lon": 0.0, "lat": 38.920863, "bike_id": "74d0460ad4c6091ec234bb0604bd8839", "type": "electric_scooter", "is_reserved": 0, "lon": -77.025283}, {"fusion_lat": 0.0, "name": "5fc12baaa9e81101836847aa94a41692", "is_disabled": 0, "rental_uris": {"android": "https://dc.lft.to/lastmile_qr_scan", "ios": "https://dc.lft.to/lastmile_qr_scan"}, "fusion_lon": 0.0, "lat": 38.8874595, "bike_id": "5fc12baaa9e81101836847aa94a41692", "type": "electric_scooter", "is_reserved": 0, "lon": -77.01787016666667}, {"fusion_lat": 0.0, "name": "44c48048216f926eed749f77e5960936", "is_disabled": 0, "rental_uris": {"android": "https://dc.lft.to/lastmile_qr_scan", "ios": "https://dc.lft.to/lastmile_qr_scan"}, "fusion_lon": 0.0, "lat": 38.887289, "bike_id": "44c48048216f926eed749f77e5960936", "type": "electric_scooter", "is_reserved": 0, "lon": -77.03180416666666}, {"fusion_lat": 0.0, "name": "8b045b8b9f5eb4905dce31626b9b0227", "is_disabled": 0, "rental_uris": {"android": "https://dc.lft.to/lastmile_qr_scan", "ios": "https://dc.lft.to/lastmile_qr_scan"}, "fusion_lon": 0.0, "lat": 38.91996566666667, "bike_id": "8b045b8b9f5eb4905dce31626b9b0227", "type": "electric_scooter", "is_reserved": 0, "lon": -77.03280316666667}, {"fusion_lat": 0.0, "name": "282a23a16f5665e356c75619a7117071", "is_disabled": 0, "rental_uris": {"android": "https://dc.lft.to/lastmile_qr_scan", "ios": "https://dc.lft.to/lastmile_qr_scan"}, "fusion_lon": 0.0, "lat": 38.90029333333333, "bike_id": "282a23a16f5665e356c75619a7117071", "type": "electric_scooter", "is_reserved": 0, "lon": -77.0119535}, {"fusion_lat": 0.0, "name": "a72c12c1d2447f7fadf5255c53c9eb33", "is_disabled": 0, "rental_uris": {"android": "https://dc.lft.to/lastmile_qr_scan", "ios": "https://dc.lft.to/lastmile_qr_scan"}, "fusion_lon": 0.0, "lat": 38.924351333333334, "bike_id": "a72c12c1d2447f7fadf5255c53c9eb33", "type": "electric_scooter", "is_reserved": 0, "lon": -77.00069233333333}, {"fusion_lat": 0.0, "name": "7706498f2c8401bcd502dbae219adb8b", "is_disabled": 0, "rental_uris": {"android": "https://dc.lft.to/lastmile_qr_scan", "ios": "https://dc.lft.to/lastmile_qr_scan"}, "fusion_lon": 0.0, "lat": 38.9194205, "bike_id": "7706498f2c8401bcd502dbae219adb8b", "type": "electric_scooter", "is_reserved": 0, "lon": -77.02521866666666}, {"fusion_lat": 0.0, "name": "8a7cda2457c0d9f7dbbf47de6d79752d", "is_disabled": 0, "rental_uris": {"android": "https://dc.lft.to/lastmile_qr_scan", "ios": "https://dc.lft.to/lastmile_qr_scan"}, "fusion_lon": 0.0, "lat": 38.887328833333335, "bike_id": "8a7cda2457c0d9f7dbbf47de6d79752d", "type": "electric_scooter", "is_reserved": 0, "lon": -77.0032365}, {"fusion_lat": 0.0, "name": "803e6dba656f9a13113ba8455ce4be86", "is_disabled": 0, "rental_uris": {"android": "https://dc.lft.to/lastmile_qr_scan", "ios": "https://dc.lft.to/lastmile_qr_scan"}, "fusion_lon": 0.0, "lat": 38.897245833333336, "bike_id": "803e6dba656f9a13113ba8455ce4be86", "type": "electric_scooter", "is_reserved": 0, "lon": -77.0273905}, {"fusion_lat": 0.0, "name": "1776c7e9b337e6fd4e3fb839c1513fe6", "is_disabled": 0, "rental_uris": {"android": "https://dc.lft.to/lastmile_qr_scan", "ios": "https://dc.lft.to/lastmile_qr_scan"}, "fusion_lon": 0.0, "lat": 38.898533666666665, "bike_id": "1776c7e9b337e6fd4e3fb839c1513fe6", "type": "electric_scooter", "is_reserved": 0, "lon": -76.95043533333333}, {"fusion_lat": 0.0, "name": "7eee866f6be28fe363ae961f55b23c11", "is_disabled": 0, "rental_uris": {"android": "https://dc.lft.to/lastmile_qr_scan", "ios": "https://dc.lft.to/lastmile_qr_scan"}, "fusion_lon": 0.0, "lat": 38.911712666666666, "bike_id": "7eee866f6be28fe363ae961f55b23c11", "type": "electric_scooter", "is_reserved": 0, "lon": -77.031847}, {"fusion_lat": 0.0, "name": "41351fca59100a8a88215bebbd18642e", "is_disabled": 0, "rental_uris": {"android": "https://dc.lft.to/lastmile_qr_scan", "ios": "https://dc.lft.to/lastmile_qr_scan"}, "fusion_lon": 0.0, "lat": 38.8851355, "bike_id": "41351fca59100a8a88215bebbd18642e", "type": "electric_scooter", "is_reserved": 0, "lon": -76.99621916666666}, {"fusion_lat": 0.0, "name": "08efbc85ef2bafd5e1317600b7b63abe", "is_disabled": 0, "rental_uris": {"android": "https://dc.lft.to/lastmile_qr_scan", "ios": "https://dc.lft.to/lastmile_qr_scan"}, "fusion_lon": 0.0, "lat": 38.892228833333334, "bike_id": "08efbc85ef2bafd5e1317600b7b63abe", "type": "electric_scooter", "is_reserved": 0, "lon": -77.04804483333334}, {"fusion_lat": 0.0, "name": "d45783ed9c29b9f8628caba761874f22", "is_disabled": 0, "rental_uris": {"android": "https://dc.lft.to/lastmile_qr_scan", "ios": "https://dc.lft.to/lastmile_qr_scan"}, "fusion_lon": 0.0, "lat": 38.920610333333336, "bike_id": "d45783ed9c29b9f8628caba761874f22", "type": "electric_bike", "is_reserved": 0, "lon": -77.23954333333333}, {"fusion_lat": 0.0, "name": "75bfa7c07cc01f11b867514698861a2c", "is_disabled": 0, "rental_uris": {"android": "https://dc.lft.to/lastmile_qr_scan", "ios": "https://dc.lft.to/lastmile_qr_scan"}, "fusion_lon": 0.0, "lat": 38.94180516666667, "bike_id": "75bfa7c07cc01f11b867514698861a2c", "type": "electric_scooter", "is_reserved": 0, "lon": -77.02490383333334}, {"fusion_lat": 0.0, "name": "f6679de7cc6c2dfd9d7303f3b811093e", "is_disabled": 0, "rental_uris": {"android": "https://dc.lft.to/lastmile_qr_scan", "ios": "https://dc.lft.to/lastmile_qr_scan"}, "fusion_lon": 0.0, "lat": 38.90572933333333, "bike_id": "f6679de7cc6c2dfd9d7303f3b811093e", "type": "electric_scooter", "is_reserved": 0, "lon": -77.024174}, {"fusion_lat": 0.0, "name": "c373aa4864bb669af5cf6cfbcc65b28b", "is_disabled": 0, "rental_uris": {"android": "https://dc.lft.to/lastmile_qr_scan", "ios": "https://dc.lft.to/lastmile_qr_scan"}, "fusion_lon": 0.0, "lat": 38.93574366666667, "bike_id": "c373aa4864bb669af5cf6cfbcc65b28b", "type": "electric_scooter", "is_reserved": 0, "lon": -77.03511633333333}, {"fusion_lat": 0.0, "name": "2b417de3aebcf2bd16935fe679c359eb", "is_disabled": 0, "rental_uris": {"android": "https://dc.lft.to/lastmile_qr_scan", "ios": "https://dc.lft.to/lastmile_qr_scan"}, "fusion_lon": 0.0, "lat": 38.92155916666667, "bike_id": "2b417de3aebcf2bd16935fe679c359eb", "type": "electric_scooter", "is_reserved": 0, "lon": -77.04237583333334}, {"fusion_lat": 0.0, "name": "1fe5c62b9ad8c7921aab1f21d31fdf37", "is_disabled": 0, "rental_uris": {"android": "https://dc.lft.to/lastmile_qr_scan", "ios": "https://dc.lft.to/lastmile_qr_scan"}, "fusion_lon": 0.0, "lat": 38.897644, "bike_id": "1fe5c62b9ad8c7921aab1f21d31fdf37", "type": "electric_scooter", "is_reserved": 0, "lon": -77.02581866666667}, {"fusion_lat": 0.0, "name": "57006a7333b4aada48f3d944b77c3fc5", "is_disabled": 0, "rental_uris": {"android": "https://dc.lft.to/lastmile_qr_scan", "ios": "https://dc.lft.to/lastmile_qr_scan"}, "fusion_lon": 0.0, "lat": 38.90201283333333, "bike_id": "57006a7333b4aada48f3d944b77c3fc5", "type": "electric_scooter", "is_reserved": 0, "lon": -77.02373983333334}, {"fusion_lat": 0.0, "name": "6758cc40208f50674f547c9271a1d9fb", "is_disabled": 0, "rental_uris": {"android": "https://dc.lft.to/lastmile_qr_scan", "ios": "https://dc.lft.to/lastmile_qr_scan"}, "fusion_lon": 0.0, "lat": 38.8576945, "bike_id": "6758cc40208f50674f547c9271a1d9fb", "type": "electric_bike", "is_reserved": 0, "lon": -76.98769916666667}, {"fusion_lat": 0.0, "name": "51e9e02641300eb719b7d0921d29c224", "is_disabled": 0, "rental_uris": {"android": "https://dc.lft.to/lastmile_qr_scan", "ios": "https://dc.lft.to/lastmile_qr_scan"}, "fusion_lon": 0.0, "lat": 38.909719833333334, "bike_id": "51e9e02641300eb719b7d0921d29c224", "type": "electric_scooter", "is_reserved": 0, "lon": -77.0207645}, {"fusion_lat": 0.0, "name": "da796594c7466c4e07e0785cbabe0278", "is_disabled": 0, "rental_uris": {"android": "https://dc.lft.to/lastmile_qr_scan", "ios": "https://dc.lft.to/lastmile_qr_scan"}, "fusion_lon": 0.0, "lat": 38.940838666666664, "bike_id": "da796594c7466c4e07e0785cbabe0278", "type": "electric_scooter", "is_reserved": 0, "lon": -77.06173533333333}, {"fusion_lat": 0.0, "name": "da516bde0d3f7b53a710d44a09edd31e", "is_disabled": 0, "rental_uris": {"android": "https://dc.lft.to/lastmile_qr_scan", "ios": "https://dc.lft.to/lastmile_qr_scan"}, "fusion_lon": 0.0, "lat": 38.885321, "bike_id": "da516bde0d3f7b53a710d44a09edd31e", "type": "electric_scooter", "is_reserved": 0, "lon": -76.98842533333334}, {"fusion_lat": 0.0, "name": "cfcf508ea1d3ed49af2c24d15f1bd3b1", "is_disabled": 0, "rental_uris": {"android": "https://dc.lft.to/lastmile_qr_scan", "ios": "https://dc.lft.to/lastmile_qr_scan"}, "fusion_lon": 0.0, "lat": 38.89853566666667, "bike_id": "cfcf508ea1d3ed49af2c24d15f1bd3b1", "type": "electric_bike", "is_reserved": 0, "lon": -76.93187383333333}, {"fusion_lat": 0.0, "name": "8da6fcca9b732e36137e546f7f6cfc7f", "is_disabled": 0, "rental_uris": {"android": "https://dc.lft.to/lastmile_qr_scan", "ios": "https://dc.lft.to/lastmile_qr_scan"}, "fusion_lon": 0.0, "lat": 38.8839815, "bike_id": "8da6fcca9b732e36137e546f7f6cfc7f", "type": "electric_scooter", "is_reserved": 0, "lon": -76.93046816666667}, {"fusion_lat": 0.0, "name": "9310fd9099ff78be27ed5b3e53dfbe8a", "is_disabled": 0, "rental_uris": {"android": "https://dc.lft.to/lastmile_qr_scan", "ios": "https://dc.lft.to/lastmile_qr_scan"}, "fusion_lon": 0.0, "lat": 38.89727166666667, "bike_id": "9310fd9099ff78be27ed5b3e53dfbe8a", "type": "electric_scooter", "is_reserved": 0, "lon": -77.05520216666666}, {"fusion_lat": 0.0, "name": "37f5bc58973b2c053fd727288ee68823", "is_disabled": 0, "rental_uris": {"android": "https://dc.lft.to/lastmile_qr_scan", "ios": "https://dc.lft.to/lastmile_qr_scan"}, "fusion_lon": 0.0, "lat": 38.897772333333336, "bike_id": "37f5bc58973b2c053fd727288ee68823", "type": "electric_scooter", "is_reserved": 0, "lon": -77.02208133333333}, {"fusion_lat": 0.0, "name": "ddf2b99cd3483b303747e9f739b0a8fa", "is_disabled": 0, "rental_uris": {"android": "https://dc.lft.to/lastmile_qr_scan", "ios": "https://dc.lft.to/lastmile_qr_scan"}, "fusion_lon": 0.0, "lat": 38.9203705, "bike_id": "ddf2b99cd3483b303747e9f739b0a8fa", "type": "electric_scooter", "is_reserved": 0, "lon": -77.02591616666666}, {"fusion_lat": 0.0, "name": "ec15114b114383c21a9a926498ee16fa", "is_disabled": 0, "rental_uris": {"android": "https://dc.lft.to/lastmile_qr_scan", "ios": "https://dc.lft.to/lastmile_qr_scan"}, "fusion_lon": 0.0, "lat": 38.9139985, "bike_id": "ec15114b114383c21a9a926498ee16fa", "type": "electric_scooter", "is_reserved": 0, "lon": -77.008436}, {"fusion_lat": 0.0, "name": "08069ec069848bc5a26403483fcc472c", "is_disabled": 0, "rental_uris": {"android": "https://dc.lft.to/lastmile_qr_scan", "ios": "https://dc.lft.to/lastmile_qr_scan"}, "fusion_lon": 0.0, "lat": 38.8245815, "bike_id": "08069ec069848bc5a26403483fcc472c", "type": "electric_bike", "is_reserved": 0, "lon": -77.00792066666666}, {"fusion_lat": 0.0, "name": "836585c30ec7a383e22bd7ce7117f8c3", "is_disabled": 0, "rental_uris": {"android": "https://dc.lft.to/lastmile_qr_scan", "ios": "https://dc.lft.to/lastmile_qr_scan"}, "fusion_lon": 0.0, "lat": 38.921094333333336, "bike_id": "836585c30ec7a383e22bd7ce7117f8c3", "type": "electric_scooter", "is_reserved": 0, "lon": -77.06331983333334}, {"fusion_lat": 0.0, "name": "5388a039d4fc256e0834a5680406a3bd", "is_disabled": 0, "rental_uris": {"android": "https://dc.lft.to/lastmile_qr_scan", "ios": "https://dc.lft.to/lastmile_qr_scan"}, "fusion_lon": 0.0, "lat": 38.91341216666667, "bike_id": "5388a039d4fc256e0834a5680406a3bd", "type": "electric_scooter", "is_reserved": 0, "lon": -77.03194316666666}, {"fusion_lat": 0.0, "name": "65b1bf9f06f9ae0e015390645dcefdae", "is_disabled": 0, "rental_uris": {"android": "https://dc.lft.to/lastmile_qr_scan", "ios": "https://dc.lft.to/lastmile_qr_scan"}, "fusion_lon": 0.0, "lat": 38.89908966666667, "bike_id": "65b1bf9f06f9ae0e015390645dcefdae", "type": "electric_scooter", "is_reserved": 0, "lon": -76.9454825}, {"fusion_lat": 0.0, "name": "4bbca480eac3baf6d65e07b8156af897", "is_disabled": 0, "rental_uris": {"android": "https://dc.lft.to/lastmile_qr_scan", "ios": "https://dc.lft.to/lastmile_qr_scan"}, "fusion_lon": 0.0, "lat": 38.896228, "bike_id": "4bbca480eac3baf6d65e07b8156af897", "type": "electric_scooter", "is_reserved": 0, "lon": -77.00948166666667}, {"fusion_lat": 0.0, "name": "85f35c97f0c671c3b7baae46d08b45bc", "is_disabled": 0, "rental_uris": {"android": "https://dc.lft.to/lastmile_qr_scan", "ios": "https://dc.lft.to/lastmile_qr_scan"}, "fusion_lon": 0.0, "lat": 38.92958566666667, "bike_id": "85f35c97f0c671c3b7baae46d08b45bc", "type": "electric_scooter", "is_reserved": 0, "lon": -77.01963266666667}, {"fusion_lat": 0.0, "name": "3fc64e5e7db1a01901159b75c6dbf430", "is_disabled": 0, "rental_uris": {"android": "https://dc.lft.to/lastmile_qr_scan", "ios": "https://dc.lft.to/lastmile_qr_scan"}, "fusion_lon": 0.0, "lat": 38.90435133333333, "bike_id": "3fc64e5e7db1a01901159b75c6dbf430", "type": "electric_scooter", "is_reserved": 0, "lon": -77.060142}, {"fusion_lat": 0.0, "name": "7ac04ef9fbfb6d36b9f576de6c8c38dc", "is_disabled": 0, "rental_uris": {"android": "https://dc.lft.to/lastmile_qr_scan", "ios": "https://dc.lft.to/lastmile_qr_scan"}, "fusion_lon": 0.0, "lat": 38.947437, "bike_id": "7ac04ef9fbfb6d36b9f576de6c8c38dc", "type": "electric_scooter", "is_reserved": 0, "lon": -77.0162135}, {"fusion_lat": 0.0, "name": "a3825a05e91a1aa0dba34ac00668c89d", "is_disabled": 0, "rental_uris": {"android": "https://dc.lft.to/lastmile_qr_scan", "ios": "https://dc.lft.to/lastmile_qr_scan"}, "fusion_lon": 0.0, "lat": 38.84294416666667, "bike_id": "a3825a05e91a1aa0dba34ac00668c89d", "type": "electric_bike", "is_reserved": 0, "lon": -77.10863766666667}, {"fusion_lat": 0.0, "name": "bf3f0098f9100a19659e5ebdd7aa6e6e", "is_disabled": 0, "rental_uris": {"android": "https://dc.lft.to/lastmile_qr_scan", "ios": "https://dc.lft.to/lastmile_qr_scan"}, "fusion_lon": 0.0, "lat": 38.9440345, "bike_id": "bf3f0098f9100a19659e5ebdd7aa6e6e", "type": "electric_scooter", "is_reserved": 0, "lon": -77.0386225}, {"fusion_lat": 0.0, "name": "50a74b04cad3acfb4c6379f94f96df0c", "is_disabled": 0, "rental_uris": {"android": "https://dc.lft.to/lastmile_qr_scan", "ios": "https://dc.lft.to/lastmile_qr_scan"}, "fusion_lon": 0.0, "lat": 38.89221916666666, "bike_id": "50a74b04cad3acfb4c6379f94f96df0c", "type": "electric_scooter", "is_reserved": 0, "lon": -77.03209366666667}, {"fusion_lat": 0.0, "name": "315953c2749b0ee00d9fd4c01d53f0f2", "is_disabled": 0, "rental_uris": {"android": "https://dc.lft.to/lastmile_qr_scan", "ios": "https://dc.lft.to/lastmile_qr_scan"}, "fusion_lon": 0.0, "lat": 38.8922975, "bike_id": "315953c2749b0ee00d9fd4c01d53f0f2", "type": "electric_scooter", "is_reserved": 0, "lon": -77.02409566666667}, {"fusion_lat": 0.0, "name": "4046af96b0de554bf5aa0f53175bcb0a", "is_disabled": 0, "rental_uris": {"android": "https://dc.lft.to/lastmile_qr_scan", "ios": "https://dc.lft.to/lastmile_qr_scan"}, "fusion_lon": 0.0, "lat": 38.88018133333333, "bike_id": "4046af96b0de554bf5aa0f53175bcb0a", "type": "electric_scooter", "is_reserved": 0, "lon": -76.931087}, {"fusion_lat": 0.0, "name": "2d0a65acc3385b26f5b4930875881c34", "is_disabled": 0, "rental_uris": {"android": "https://dc.lft.to/lastmile_qr_scan", "ios": "https://dc.lft.to/lastmile_qr_scan"}, "fusion_lon": 0.0, "lat": 38.96435316666667, "bike_id": "2d0a65acc3385b26f5b4930875881c34", "type": "electric_bike", "is_reserved": 0, "lon": -77.02067616666666}, {"fusion_lat": 0.0, "name": "ecf8b921a35cfc06f07c75e6b55d0457", "is_disabled": 0, "rental_uris": {"android": "https://dc.lft.to/lastmile_qr_scan", "ios": "https://dc.lft.to/lastmile_qr_scan"}, "fusion_lon": 0.0, "lat": 38.905122666666664, "bike_id": "ecf8b921a35cfc06f07c75e6b55d0457", "type": "electric_scooter", "is_reserved": 0, "lon": -77.00612283333334}, {"fusion_lat": 0.0, "name": "73fed46ff79f856faed07170e85ee986", "is_disabled": 0, "rental_uris": {"android": "https://dc.lft.to/lastmile_qr_scan", "ios": "https://dc.lft.to/lastmile_qr_scan"}, "fusion_lon": 0.0, "lat": 38.84840483333333, "bike_id": "73fed46ff79f856faed07170e85ee986", "type": "electric_bike", "is_reserved": 0, "lon": -77.0790945}, {"fusion_lat": 0.0, "name": "aedfb2f32687e6ce247c3c58987c5014", "is_disabled": 0, "rental_uris": {"android": "https://dc.lft.to/lastmile_qr_scan", "ios": "https://dc.lft.to/lastmile_qr_scan"}, "fusion_lon": 0.0, "lat": 38.918389, "bike_id": "aedfb2f32687e6ce247c3c58987c5014", "type": "electric_scooter", "is_reserved": 0, "lon": -77.01612583333333}, {"fusion_lat": 0.0, "name": "198c11ed3bd032f7e8a09be55ad54ae3", "is_disabled": 0, "rental_uris": {"android": "https://dc.lft.to/lastmile_qr_scan", "ios": "https://dc.lft.to/lastmile_qr_scan"}, "fusion_lon": 0.0, "lat": 38.92009733333333, "bike_id": "198c11ed3bd032f7e8a09be55ad54ae3", "type": "electric_scooter", "is_reserved": 0, "lon": -77.081957}, {"fusion_lat": 0.0, "name": "e21653bb81b1115cb1779736a12f959e", "is_disabled": 0, "rental_uris": {"android": "https://dc.lft.to/lastmile_qr_scan", "ios": "https://dc.lft.to/lastmile_qr_scan"}, "fusion_lon": 0.0, "lat": 38.914707166666666, "bike_id": "e21653bb81b1115cb1779736a12f959e", "type": "electric_scooter", "is_reserved": 0, "lon": -77.02159033333334}, {"fusion_lat": 0.0, "name": "33408e4379f945ae56f99bbec9024d17", "is_disabled": 0, "rental_uris": {"android": "https://dc.lft.to/lastmile_qr_scan", "ios": "https://dc.lft.to/lastmile_qr_scan"}, "fusion_lon": 0.0, "lat": 38.9310105, "bike_id": "33408e4379f945ae56f99bbec9024d17", "type": "electric_scooter", "is_reserved": 0, "lon": -77.03809016666666}, {"fusion_lat": 0.0, "name": "8209af254505a429370dd084d97b7db1", "is_disabled": 0, "rental_uris": {"android": "https://dc.lft.to/lastmile_qr_scan", "ios": "https://dc.lft.to/lastmile_qr_scan"}, "fusion_lon": 0.0, "lat": 38.93364783333333, "bike_id": "8209af254505a429370dd084d97b7db1", "type": "electric_scooter", "is_reserved": 0, "lon": -77.05724533333333}, {"fusion_lat": 0.0, "name": "888bbffb5b5fb57b54b1bdf3c7d58b92", "is_disabled": 0, "rental_uris": {"android": "https://dc.lft.to/lastmile_qr_scan", "ios": "https://dc.lft.to/lastmile_qr_scan"}, "fusion_lon": 0.0, "lat": 38.908373833333336, "bike_id": "888bbffb5b5fb57b54b1bdf3c7d58b92", "type": "electric_scooter", "is_reserved": 0, "lon": -77.03650366666666}, {"fusion_lat": 0.0, "name": "1116911f136249b482d1f0f3aa7e122a", "is_disabled": 0, "rental_uris": {"android": "https://dc.lft.to/lastmile_qr_scan", "ios": "https://dc.lft.to/lastmile_qr_scan"}, "fusion_lon": 0.0, "lat": 38.897512, "bike_id": "1116911f136249b482d1f0f3aa7e122a", "type": "electric_scooter", "is_reserved": 0, "lon": -77.04889616666667}, {"fusion_lat": 0.0, "name": "f20f82f9172f0f4aafa4f39887921b76", "is_disabled": 0, "rental_uris": {"android": "https://dc.lft.to/lastmile_qr_scan", "ios": "https://dc.lft.to/lastmile_qr_scan"}, "fusion_lon": 0.0, "lat": 38.91708466666667, "bike_id": "f20f82f9172f0f4aafa4f39887921b76", "type": "electric_scooter", "is_reserved": 0, "lon": -77.02426}, {"fusion_lat": 0.0, "name": "4d506a77837aa4089e937629bedcd1df", "is_disabled": 0, "rental_uris": {"android": "https://dc.lft.to/lastmile_qr_scan", "ios": "https://dc.lft.to/lastmile_qr_scan"}, "fusion_lon": 0.0, "lat": 38.93261916666667, "bike_id": "4d506a77837aa4089e937629bedcd1df", "type": "electric_scooter", "is_reserved": 0, "lon": -77.019118}, {"fusion_lat": 0.0, "name": "062343f5c3b64acbd0c6419e5c700bf3", "is_disabled": 0, "rental_uris": {"android": "https://dc.lft.to/lastmile_qr_scan", "ios": "https://dc.lft.to/lastmile_qr_scan"}, "fusion_lon": 0.0, "lat": 38.89833766666667, "bike_id": "062343f5c3b64acbd0c6419e5c700bf3", "type": "electric_scooter", "is_reserved": 0, "lon": -77.02806483333333}, {"fusion_lat": 0.0, "name": "2d7989b3ecb042659ad423a741e36c37", "is_disabled": 0, "rental_uris": {"android": "https://dc.lft.to/lastmile_qr_scan", "ios": "https://dc.lft.to/lastmile_qr_scan"}, "fusion_lon": 0.0, "lat": 38.93485666666667, "bike_id": "2d7989b3ecb042659ad423a741e36c37", "type": "electric_scooter", "is_reserved": 0, "lon": -77.04522983333334}, {"fusion_lat": 0.0, "name": "b88ac8364eebbf9c2e05b6a67e167ca0", "is_disabled": 0, "rental_uris": {"android": "https://dc.lft.to/lastmile_qr_scan", "ios": "https://dc.lft.to/lastmile_qr_scan"}, "fusion_lon": 0.0, "lat": 38.9317225, "bike_id": "b88ac8364eebbf9c2e05b6a67e167ca0", "type": "electric_scooter", "is_reserved": 0, "lon": -77.05648916666667}, {"fusion_lat": 0.0, "name": "812933b06df1693e01d1706afb9d973b", "is_disabled": 0, "rental_uris": {"android": "https://dc.lft.to/lastmile_qr_scan", "ios": "https://dc.lft.to/lastmile_qr_scan"}, "fusion_lon": 0.0, "lat": 38.9127565, "bike_id": "812933b06df1693e01d1706afb9d973b", "type": "electric_scooter", "is_reserved": 0, "lon": -77.032039}, {"fusion_lat": 0.0, "name": "2ea6075273e48c510db9b8c19d3df148", "is_disabled": 0, "rental_uris": {"android": "https://dc.lft.to/lastmile_qr_scan", "ios": "https://dc.lft.to/lastmile_qr_scan"}, "fusion_lon": 0.0, "lat": 38.90548, "bike_id": "2ea6075273e48c510db9b8c19d3df148", "type": "electric_scooter", "is_reserved": 0, "lon": -76.9832995}, {"fusion_lat": 0.0, "name": "b3ba6d35442b6287065d070af123240c", "is_disabled": 0, "rental_uris": {"android": "https://dc.lft.to/lastmile_qr_scan", "ios": "https://dc.lft.to/lastmile_qr_scan"}, "fusion_lon": 0.0, "lat": 38.901272666666664, "bike_id": "b3ba6d35442b6287065d070af123240c", "type": "electric_scooter", "is_reserved": 0, "lon": -77.0499625}, {"fusion_lat": 0.0, "name": "6e7cb21e17b23e82ade5351713747f18", "is_disabled": 0, "rental_uris": {"android": "https://dc.lft.to/lastmile_qr_scan", "ios": "https://dc.lft.to/lastmile_qr_scan"}, "fusion_lon": 0.0, "lat": 38.90579616666667, "bike_id": "6e7cb21e17b23e82ade5351713747f18", "type": "electric_scooter", "is_reserved": 0, "lon": -77.042039}, {"fusion_lat": 0.0, "name": "d4dba2e42b1eeaaca09d6853daace380", "is_disabled": 0, "rental_uris": {"android": "https://dc.lft.to/lastmile_qr_scan", "ios": "https://dc.lft.to/lastmile_qr_scan"}, "fusion_lon": 0.0, "lat": 38.92458633333333, "bike_id": "d4dba2e42b1eeaaca09d6853daace380", "type": "electric_bike", "is_reserved": 0, "lon": -77.23338166666667}, {"fusion_lat": 0.0, "name": "575531f4f7a432a9ea9aed6869e2ae9a", "is_disabled": 0, "rental_uris": {"android": "https://dc.lft.to/lastmile_qr_scan", "ios": "https://dc.lft.to/lastmile_qr_scan"}, "fusion_lon": 0.0, "lat": 38.90970883333333, "bike_id": "575531f4f7a432a9ea9aed6869e2ae9a", "type": "electric_scooter", "is_reserved": 0, "lon": -77.03370483333333}, {"fusion_lat": 0.0, "name": "69c4a4e0a29878db3483dda2afb18ebe", "is_disabled": 0, "rental_uris": {"android": "https://dc.lft.to/lastmile_qr_scan", "ios": "https://dc.lft.to/lastmile_qr_scan"}, "fusion_lon": 0.0, "lat": 38.896678666666666, "bike_id": "69c4a4e0a29878db3483dda2afb18ebe", "type": "electric_scooter", "is_reserved": 0, "lon": -76.93211466666666}, {"fusion_lat": 0.0, "name": "97fd8b5b038daec2ebb450970b98716a", "is_disabled": 0, "rental_uris": {"android": "https://dc.lft.to/lastmile_qr_scan", "ios": "https://dc.lft.to/lastmile_qr_scan"}, "fusion_lon": 0.0, "lat": 38.93237116666667, "bike_id": "97fd8b5b038daec2ebb450970b98716a", "type": "electric_bike", "is_reserved": 0, "lon": -76.974255}, {"fusion_lat": 0.0, "name": "6b1f937a4d875ca7400fb444cb30a681", "is_disabled": 0, "rental_uris": {"android": "https://dc.lft.to/lastmile_qr_scan", "ios": "https://dc.lft.to/lastmile_qr_scan"}, "fusion_lon": 0.0, "lat": 38.905178166666666, "bike_id": "6b1f937a4d875ca7400fb444cb30a681", "type": "electric_scooter", "is_reserved": 0, "lon": -77.06788866666666}, {"fusion_lat": 0.0, "name": "74f381633cc067064f9f63b09e3cf2e5", "is_disabled": 0, "rental_uris": {"android": "https://dc.lft.to/lastmile_qr_scan", "ios": "https://dc.lft.to/lastmile_qr_scan"}, "fusion_lon": 0.0, "lat": 38.90717633333333, "bike_id": "74f381633cc067064f9f63b09e3cf2e5", "type": "electric_scooter", "is_reserved": 0, "lon": -77.031727}, {"fusion_lat": 0.0, "name": "76a766c673394cd699e1c6cd13522370", "is_disabled": 0, "rental_uris": {"android": "https://dc.lft.to/lastmile_qr_scan", "ios": "https://dc.lft.to/lastmile_qr_scan"}, "fusion_lon": 0.0, "lat": 38.915346666666665, "bike_id": "76a766c673394cd699e1c6cd13522370", "type": "electric_scooter", "is_reserved": 0, "lon": -77.03199533333333}, {"fusion_lat": 0.0, "name": "53d4abc14f3e91bc5e6cb4f5e80bdf17", "is_disabled": 0, "rental_uris": {"android": "https://dc.lft.to/lastmile_qr_scan", "ios": "https://dc.lft.to/lastmile_qr_scan"}, "fusion_lon": 0.0, "lat": 38.92418466666667, "bike_id": "53d4abc14f3e91bc5e6cb4f5e80bdf17", "type": "electric_scooter", "is_reserved": 0, "lon": -77.05751116666667}, {"fusion_lat": 0.0, "name": "6cd07c325e800157938383946675e4d2", "is_disabled": 0, "rental_uris": {"android": "https://dc.lft.to/lastmile_qr_scan", "ios": "https://dc.lft.to/lastmile_qr_scan"}, "fusion_lon": 0.0, "lat": 38.909455333333334, "bike_id": "6cd07c325e800157938383946675e4d2", "type": "electric_scooter", "is_reserved": 0, "lon": -77.034462}, {"fusion_lat": 0.0, "name": "7b9042dc818b01ce89f4f32abfa0ddf9", "is_disabled": 0, "rental_uris": {"android": "https://dc.lft.to/lastmile_qr_scan", "ios": "https://dc.lft.to/lastmile_qr_scan"}, "fusion_lon": 0.0, "lat": 38.97374133333334, "bike_id": "7b9042dc818b01ce89f4f32abfa0ddf9", "type": "electric_scooter", "is_reserved": 0, "lon": -77.02607233333333}, {"fusion_lat": 0.0, "name": "f359d0c79cf6d575ce3b8cba742a90d1", "is_disabled": 0, "rental_uris": {"android": "https://dc.lft.to/lastmile_qr_scan", "ios": "https://dc.lft.to/lastmile_qr_scan"}, "fusion_lon": 0.0, "lat": 38.9288515, "bike_id": "f359d0c79cf6d575ce3b8cba742a90d1", "type": "electric_scooter", "is_reserved": 0, "lon": -77.03737816666667}, {"fusion_lat": 0.0, "name": "d35ecf8a7c51d496558d97c7af137826", "is_disabled": 0, "rental_uris": {"android": "https://dc.lft.to/lastmile_qr_scan", "ios": "https://dc.lft.to/lastmile_qr_scan"}, "fusion_lon": 0.0, "lat": 38.926103499999996, "bike_id": "d35ecf8a7c51d496558d97c7af137826", "type": "electric_scooter", "is_reserved": 0, "lon": -77.02161733333334}, {"fusion_lat": 0.0, "name": "c35bc066c3d5212ba3997e216edd38e5", "is_disabled": 0, "rental_uris": {"android": "https://dc.lft.to/lastmile_qr_scan", "ios": "https://dc.lft.to/lastmile_qr_scan"}, "fusion_lon": 0.0, "lat": 38.918442166666665, "bike_id": "c35bc066c3d5212ba3997e216edd38e5", "type": "electric_scooter", "is_reserved": 0, "lon": -76.9653835}, {"fusion_lat": 0.0, "name": "babbe5758c528a32a4a9dd9acc584665", "is_disabled": 0, "rental_uris": {"android": "https://dc.lft.to/lastmile_qr_scan", "ios": "https://dc.lft.to/lastmile_qr_scan"}, "fusion_lon": 0.0, "lat": 38.8993325, "bike_id": "babbe5758c528a32a4a9dd9acc584665", "type": "electric_scooter", "is_reserved": 0, "lon": -76.9974015}, {"fusion_lat": 0.0, "name": "53696de74121021e5051446e40b81e49", "is_disabled": 0, "rental_uris": {"android": "https://dc.lft.to/lastmile_qr_scan", "ios": "https://dc.lft.to/lastmile_qr_scan"}, "fusion_lon": 0.0, "lat": 38.900587333333334, "bike_id": "53696de74121021e5051446e40b81e49", "type": "electric_scooter", "is_reserved": 0, "lon": -77.01698666666667}, {"fusion_lat": 0.0, "name": "eeacf2e6def84f37dc434a38b9c610f1", "is_disabled": 0, "rental_uris": {"android": "https://dc.lft.to/lastmile_qr_scan", "ios": "https://dc.lft.to/lastmile_qr_scan"}, "fusion_lon": 0.0, "lat": 38.904705666666665, "bike_id": "eeacf2e6def84f37dc434a38b9c610f1", "type": "electric_scooter", "is_reserved": 0, "lon": -77.02710416666666}, {"fusion_lat": 0.0, "name": "0ace17ae1d65a7c4bdc624eb6acfbf50", "is_disabled": 0, "rental_uris": {"android": "https://dc.lft.to/lastmile_qr_scan", "ios": "https://dc.lft.to/lastmile_qr_scan"}, "fusion_lon": 0.0, "lat": 38.883958166666666, "bike_id": "0ace17ae1d65a7c4bdc624eb6acfbf50", "type": "electric_scooter", "is_reserved": 0, "lon": -76.93036016666667}, {"fusion_lat": 0.0, "name": "f3c88182452a420647c850f967f0bc05", "is_disabled": 0, "rental_uris": {"android": "https://dc.lft.to/lastmile_qr_scan", "ios": "https://dc.lft.to/lastmile_qr_scan"}, "fusion_lon": 0.0, "lat": 38.9101925, "bike_id": "f3c88182452a420647c850f967f0bc05", "type": "electric_scooter", "is_reserved": 0, "lon": -77.05280916666666}, {"fusion_lat": 0.0, "name": "3c3e90842525264234831bccb54df4cd", "is_disabled": 0, "rental_uris": {"android": "https://dc.lft.to/lastmile_qr_scan", "ios": "https://dc.lft.to/lastmile_qr_scan"}, "fusion_lon": 0.0, "lat": 38.9286335, "bike_id": "3c3e90842525264234831bccb54df4cd", "type": "electric_scooter", "is_reserved": 0, "lon": -77.073407}, {"fusion_lat": 0.0, "name": "4ef48e41f9408803f12bd5081c73c512", "is_disabled": 0, "rental_uris": {"android": "https://dc.lft.to/lastmile_qr_scan", "ios": "https://dc.lft.to/lastmile_qr_scan"}, "fusion_lon": 0.0, "lat": 38.8836535, "bike_id": "4ef48e41f9408803f12bd5081c73c512", "type": "electric_scooter", "is_reserved": 0, "lon": -77.013621}, {"fusion_lat": 0.0, "name": "4c36a3218c23cc8063d023026719462a", "is_disabled": 0, "rental_uris": {"android": "https://dc.lft.to/lastmile_qr_scan", "ios": "https://dc.lft.to/lastmile_qr_scan"}, "fusion_lon": 0.0, "lat": 38.907272666666664, "bike_id": "4c36a3218c23cc8063d023026719462a", "type": "electric_scooter", "is_reserved": 0, "lon": -77.04335183333333}, {"fusion_lat": 0.0, "name": "aebb5346ed7c0a3b3ba669e07f9e1545", "is_disabled": 0, "rental_uris": {"android": "https://dc.lft.to/lastmile_qr_scan", "ios": "https://dc.lft.to/lastmile_qr_scan"}, "fusion_lon": 0.0, "lat": 38.9192335, "bike_id": "aebb5346ed7c0a3b3ba669e07f9e1545", "type": "electric_scooter", "is_reserved": 0, "lon": -77.02663066666666}, {"fusion_lat": 0.0, "name": "950a71f33510df2a20bf8de0a9e14896", "is_disabled": 0, "rental_uris": {"android": "https://dc.lft.to/lastmile_qr_scan", "ios": "https://dc.lft.to/lastmile_qr_scan"}, "fusion_lon": 0.0, "lat": 38.9225835, "bike_id": "950a71f33510df2a20bf8de0a9e14896", "type": "electric_scooter", "is_reserved": 0, "lon": -77.035385}, {"fusion_lat": 0.0, "name": "db1221845d6a08386a85cae834d1602f", "is_disabled": 0, "rental_uris": {"android": "https://dc.lft.to/lastmile_qr_scan", "ios": "https://dc.lft.to/lastmile_qr_scan"}, "fusion_lon": 0.0, "lat": 38.9302985, "bike_id": "db1221845d6a08386a85cae834d1602f", "type": "electric_scooter", "is_reserved": 0, "lon": -77.03797666666667}, {"fusion_lat": 0.0, "name": "8315b509e6577ccd65933d6218751814", "is_disabled": 0, "rental_uris": {"android": "https://dc.lft.to/lastmile_qr_scan", "ios": "https://dc.lft.to/lastmile_qr_scan"}, "fusion_lon": 0.0, "lat": 38.9052055, "bike_id": "8315b509e6577ccd65933d6218751814", "type": "electric_scooter", "is_reserved": 0, "lon": -77.06791083333333}, {"fusion_lat": 0.0, "name": "12ccd1eb93e45cf4ec90b9d6682f43aa", "is_disabled": 0, "rental_uris": {"android": "https://dc.lft.to/lastmile_qr_scan", "ios": "https://dc.lft.to/lastmile_qr_scan"}, "fusion_lon": 0.0, "lat": 38.841963666666665, "bike_id": "12ccd1eb93e45cf4ec90b9d6682f43aa", "type": "electric_bike", "is_reserved": 0, "lon": -77.07759833333333}, {"fusion_lat": 0.0, "name": "07ad4288d84bad872e3c4782a906e40c", "is_disabled": 0, "rental_uris": {"android": "https://dc.lft.to/lastmile_qr_scan", "ios": "https://dc.lft.to/lastmile_qr_scan"}, "fusion_lon": 0.0, "lat": 38.897441666666666, "bike_id": "07ad4288d84bad872e3c4782a906e40c", "type": "electric_scooter", "is_reserved": 0, "lon": -77.00198833333333}, {"fusion_lat": 0.0, "name": "08e01037d5d7addc7697e527290c7add", "is_disabled": 0, "rental_uris": {"android": "https://dc.lft.to/lastmile_qr_scan", "ios": "https://dc.lft.to/lastmile_qr_scan"}, "fusion_lon": 0.0, "lat": 38.9005725, "bike_id": "08e01037d5d7addc7697e527290c7add", "type": "electric_scooter", "is_reserved": 0, "lon": -77.01617333333333}, {"fusion_lat": 0.0, "name": "fc55606506b0ec8a6b6cb430f10df682", "is_disabled": 0, "rental_uris": {"android": "https://dc.lft.to/lastmile_qr_scan", "ios": "https://dc.lft.to/lastmile_qr_scan"}, "fusion_lon": 0.0, "lat": 38.90379216666667, "bike_id": "fc55606506b0ec8a6b6cb430f10df682", "type": "electric_scooter", "is_reserved": 0, "lon": -77.03833033333333}, {"fusion_lat": 0.0, "name": "e29e35db24c63b44e92800bca102fb9e", "is_disabled": 0, "rental_uris": {"android": "https://dc.lft.to/lastmile_qr_scan", "ios": "https://dc.lft.to/lastmile_qr_scan"}, "fusion_lon": 0.0, "lat": 38.938635, "bike_id": "e29e35db24c63b44e92800bca102fb9e", "type": "electric_scooter", "is_reserved": 0, "lon": -77.02943916666666}, {"fusion_lat": 0.0, "name": "1a94f5641d49630e5d71703f41db7ff4", "is_disabled": 0, "rental_uris": {"android": "https://dc.lft.to/lastmile_qr_scan", "ios": "https://dc.lft.to/lastmile_qr_scan"}, "fusion_lon": 0.0, "lat": 38.91610983333333, "bike_id": "1a94f5641d49630e5d71703f41db7ff4", "type": "electric_scooter", "is_reserved": 0, "lon": -77.0215775}, {"fusion_lat": 0.0, "name": "ad0d8a2e196d481987356219e2ab8371", "is_disabled": 0, "rental_uris": {"android": "https://dc.lft.to/lastmile_qr_scan", "ios": "https://dc.lft.to/lastmile_qr_scan"}, "fusion_lon": 0.0, "lat": 38.94919933333333, "bike_id": "ad0d8a2e196d481987356219e2ab8371", "type": "electric_bike", "is_reserved": 0, "lon": -77.0079555}, {"fusion_lat": 0.0, "name": "0f420aca86fb17405c95c7945ed97c0b", "is_disabled": 0, "rental_uris": {"android": "https://dc.lft.to/lastmile_qr_scan", "ios": "https://dc.lft.to/lastmile_qr_scan"}, "fusion_lon": 0.0, "lat": 38.91735883333333, "bike_id": "0f420aca86fb17405c95c7945ed97c0b", "type": "electric_scooter", "is_reserved": 0, "lon": -77.06902483333333}, {"fusion_lat": 0.0, "name": "b27166901dc0c1bf59b3cf9005d555c3", "is_disabled": 0, "rental_uris": {"android": "https://dc.lft.to/lastmile_qr_scan", "ios": "https://dc.lft.to/lastmile_qr_scan"}, "fusion_lon": 0.0, "lat": 38.912704, "bike_id": "b27166901dc0c1bf59b3cf9005d555c3", "type": "electric_scooter", "is_reserved": 0, "lon": -77.02245866666667}, {"fusion_lat": 0.0, "name": "b7a1fcfe56b1d88a8ae741e2257888e7", "is_disabled": 0, "rental_uris": {"android": "https://dc.lft.to/lastmile_qr_scan", "ios": "https://dc.lft.to/lastmile_qr_scan"}, "fusion_lon": 0.0, "lat": 38.9071855, "bike_id": "b7a1fcfe56b1d88a8ae741e2257888e7", "type": "electric_scooter", "is_reserved": 0, "lon": -76.998244}, {"fusion_lat": 0.0, "name": "4b71e61c3e85578ec98db0839b491d12", "is_disabled": 0, "rental_uris": {"android": "https://dc.lft.to/lastmile_qr_scan", "ios": "https://dc.lft.to/lastmile_qr_scan"}, "fusion_lon": 0.0, "lat": 38.9224, "bike_id": "4b71e61c3e85578ec98db0839b491d12", "type": "electric_scooter", "is_reserved": 0, "lon": -77.0390405}, {"fusion_lat": 0.0, "name": "b7d8da848f965067471006e1e77010d6", "is_disabled": 0, "rental_uris": {"android": "https://dc.lft.to/lastmile_qr_scan", "ios": "https://dc.lft.to/lastmile_qr_scan"}, "fusion_lon": 0.0, "lat": 38.92022883333333, "bike_id": "b7d8da848f965067471006e1e77010d6", "type": "electric_scooter", "is_reserved": 0, "lon": -77.04404883333333}, {"fusion_lat": 0.0, "name": "63de02728146842f1f8f59440aaf82ee", "is_disabled": 0, "rental_uris": {"android": "https://dc.lft.to/lastmile_qr_scan", "ios": "https://dc.lft.to/lastmile_qr_scan"}, "fusion_lon": 0.0, "lat": 38.94119633333333, "bike_id": "63de02728146842f1f8f59440aaf82ee", "type": "electric_bike", "is_reserved": 0, "lon": -76.9903175}, {"fusion_lat": 0.0, "name": "8065e1fad23a943998a4c57237ff4a80", "is_disabled": 0, "rental_uris": {"android": "https://dc.lft.to/lastmile_qr_scan", "ios": "https://dc.lft.to/lastmile_qr_scan"}, "fusion_lon": 0.0, "lat": 38.9170915, "bike_id": "8065e1fad23a943998a4c57237ff4a80", "type": "electric_scooter", "is_reserved": 0, "lon": -77.03870716666667}, {"fusion_lat": 0.0, "name": "bd6ae083f04567a4330026aa6d7ca35e", "is_disabled": 0, "rental_uris": {"android": "https://dc.lft.to/lastmile_qr_scan", "ios": "https://dc.lft.to/lastmile_qr_scan"}, "fusion_lon": 0.0, "lat": 38.929330666666665, "bike_id": "bd6ae083f04567a4330026aa6d7ca35e", "type": "electric_scooter", "is_reserved": 0, "lon": -77.03280216666667}, {"fusion_lat": 0.0, "name": "f6d6892ef94d5119ee6d026c8219893c", "is_disabled": 0, "rental_uris": {"android": "https://dc.lft.to/lastmile_qr_scan", "ios": "https://dc.lft.to/lastmile_qr_scan"}, "fusion_lon": 0.0, "lat": 38.91711316666667, "bike_id": "f6d6892ef94d5119ee6d026c8219893c", "type": "electric_scooter", "is_reserved": 0, "lon": -77.02423466666667}, {"fusion_lat": 0.0, "name": "97b4c39a9614355a037d7c1a1eecd0b8", "is_disabled": 0, "rental_uris": {"android": "https://dc.lft.to/lastmile_qr_scan", "ios": "https://dc.lft.to/lastmile_qr_scan"}, "fusion_lon": 0.0, "lat": 38.9084885, "bike_id": "97b4c39a9614355a037d7c1a1eecd0b8", "type": "electric_scooter", "is_reserved": 0, "lon": -76.99766066666666}, {"fusion_lat": 0.0, "name": "ca369025a9bbef4026f1b2cabfcda182", "is_disabled": 0, "rental_uris": {"android": "https://dc.lft.to/lastmile_qr_scan", "ios": "https://dc.lft.to/lastmile_qr_scan"}, "fusion_lon": 0.0, "lat": 38.909741, "bike_id": "ca369025a9bbef4026f1b2cabfcda182", "type": "electric_scooter", "is_reserved": 0, "lon": -77.03199433333333}, {"fusion_lat": 0.0, "name": "6913a0ec0bb5ccb65501a886b5713b2b", "is_disabled": 0, "rental_uris": {"android": "https://dc.lft.to/lastmile_qr_scan", "ios": "https://dc.lft.to/lastmile_qr_scan"}, "fusion_lon": 0.0, "lat": 38.928102, "bike_id": "6913a0ec0bb5ccb65501a886b5713b2b", "type": "electric_scooter", "is_reserved": 0, "lon": -77.043566}, {"fusion_lat": 0.0, "name": "8f68082bb0ecf372eacb70eb929cc324", "is_disabled": 0, "rental_uris": {"android": "https://dc.lft.to/lastmile_qr_scan", "ios": "https://dc.lft.to/lastmile_qr_scan"}, "fusion_lon": 0.0, "lat": 38.9014665, "bike_id": "8f68082bb0ecf372eacb70eb929cc324", "type": "electric_scooter", "is_reserved": 0, "lon": -76.93070516666667}, {"fusion_lat": 0.0, "name": "42fd366bf2b922d7f2b388c7f4147fce", "is_disabled": 0, "rental_uris": {"android": "https://dc.lft.to/lastmile_qr_scan", "ios": "https://dc.lft.to/lastmile_qr_scan"}, "fusion_lon": 0.0, "lat": 38.96127333333333, "bike_id": "42fd366bf2b922d7f2b388c7f4147fce", "type": "electric_bike", "is_reserved": 0, "lon": -77.03275216666667}, {"fusion_lat": 0.0, "name": "dbdf10f543bd115ea8913f2179c333ad", "is_disabled": 0, "rental_uris": {"android": "https://dc.lft.to/lastmile_qr_scan", "ios": "https://dc.lft.to/lastmile_qr_scan"}, "fusion_lon": 0.0, "lat": 38.87986183333334, "bike_id": "dbdf10f543bd115ea8913f2179c333ad", "type": "electric_bike", "is_reserved": 0, "lon": -76.98421166666667}, {"fusion_lat": 0.0, "name": "b189564b3582ad339d01383aebf7c449", "is_disabled": 0, "rental_uris": {"android": "https://dc.lft.to/lastmile_qr_scan", "ios": "https://dc.lft.to/lastmile_qr_scan"}, "fusion_lon": 0.0, "lat": 38.92227333333334, "bike_id": "b189564b3582ad339d01383aebf7c449", "type": "electric_scooter", "is_reserved": 0, "lon": -77.04252966666667}, {"fusion_lat": 0.0, "name": "5d5070255040c5e6ec7bdb887bc8abde", "is_disabled": 0, "rental_uris": {"android": "https://dc.lft.to/lastmile_qr_scan", "ios": "https://dc.lft.to/lastmile_qr_scan"}, "fusion_lon": 0.0, "lat": 38.914161, "bike_id": "5d5070255040c5e6ec7bdb887bc8abde", "type": "electric_scooter", "is_reserved": 0, "lon": -77.028143}, {"fusion_lat": 0.0, "name": "fdb945d985779cdc52d6ae7f9e37f801", "is_disabled": 0, "rental_uris": {"android": "https://dc.lft.to/lastmile_qr_scan", "ios": "https://dc.lft.to/lastmile_qr_scan"}, "fusion_lon": 0.0, "lat": 38.92303866666666, "bike_id": "fdb945d985779cdc52d6ae7f9e37f801", "type": "electric_scooter", "is_reserved": 0, "lon": -77.04124883333333}, {"fusion_lat": 0.0, "name": "0836d544c495e848059754f67cdada1e", "is_disabled": 0, "rental_uris": {"android": "https://dc.lft.to/lastmile_qr_scan", "ios": "https://dc.lft.to/lastmile_qr_scan"}, "fusion_lon": 0.0, "lat": 38.92740766666667, "bike_id": "0836d544c495e848059754f67cdada1e", "type": "electric_bike", "is_reserved": 0, "lon": -76.99363216666667}, {"fusion_lat": 0.0, "name": "a2dc7da0f30b770a93e7e6d95bc395f6", "is_disabled": 0, "rental_uris": {"android": "https://dc.lft.to/lastmile_qr_scan", "ios": "https://dc.lft.to/lastmile_qr_scan"}, "fusion_lon": 0.0, "lat": 38.87658716666667, "bike_id": "a2dc7da0f30b770a93e7e6d95bc395f6", "type": "electric_scooter", "is_reserved": 0, "lon": -77.0012035}, {"fusion_lat": 0.0, "name": "87b2eb44677a93e7262b6578a0a17ba2", "is_disabled": 0, "rental_uris": {"android": "https://dc.lft.to/lastmile_qr_scan", "ios": "https://dc.lft.to/lastmile_qr_scan"}, "fusion_lon": 0.0, "lat": 38.90388083333333, "bike_id": "87b2eb44677a93e7262b6578a0a17ba2", "type": "electric_scooter", "is_reserved": 0, "lon": -77.06141383333333}, {"fusion_lat": 0.0, "name": "ae4f98f744197f2d020fb786d96f3651", "is_disabled": 0, "rental_uris": {"android": "https://dc.lft.to/lastmile_qr_scan", "ios": "https://dc.lft.to/lastmile_qr_scan"}, "fusion_lon": 0.0, "lat": 38.92369883333333, "bike_id": "ae4f98f744197f2d020fb786d96f3651", "type": "electric_scooter", "is_reserved": 0, "lon": -77.05258283333333}, {"fusion_lat": 0.0, "name": "7bee8d1340c426f151542cef755f6970", "is_disabled": 0, "rental_uris": {"android": "https://dc.lft.to/lastmile_qr_scan", "ios": "https://dc.lft.to/lastmile_qr_scan"}, "fusion_lon": 0.0, "lat": 38.9050815, "bike_id": "7bee8d1340c426f151542cef755f6970", "type": "electric_scooter", "is_reserved": 0, "lon": -77.04769533333334}, {"fusion_lat": 0.0, "name": "92d4a4e7a1328b1adde295f88b517648", "is_disabled": 0, "rental_uris": {"android": "https://dc.lft.to/lastmile_qr_scan", "ios": "https://dc.lft.to/lastmile_qr_scan"}, "fusion_lon": 0.0, "lat": 38.90623383333333, "bike_id": "92d4a4e7a1328b1adde295f88b517648", "type": "electric_scooter", "is_reserved": 0, "lon": -77.0260015}, {"fusion_lat": 0.0, "name": "dfb9f0724aaeef1b593857353f0fc5d3", "is_disabled": 0, "rental_uris": {"android": "https://dc.lft.to/lastmile_qr_scan", "ios": "https://dc.lft.to/lastmile_qr_scan"}, "fusion_lon": 0.0, "lat": 38.9073585, "bike_id": "dfb9f0724aaeef1b593857353f0fc5d3", "type": "electric_scooter", "is_reserved": 0, "lon": -77.04345266666667}, {"fusion_lat": 0.0, "name": "cec53a45b0bc960850d5e91d1df28df8", "is_disabled": 0, "rental_uris": {"android": "https://dc.lft.to/lastmile_qr_scan", "ios": "https://dc.lft.to/lastmile_qr_scan"}, "fusion_lon": 0.0, "lat": 38.953692, "bike_id": "cec53a45b0bc960850d5e91d1df28df8", "type": "electric_scooter", "is_reserved": 0, "lon": -76.99840316666666}, {"fusion_lat": 0.0, "name": "1ed0907dc2f4c3444dfc7698e4be81c3", "is_disabled": 0, "rental_uris": {"android": "https://dc.lft.to/lastmile_qr_scan", "ios": "https://dc.lft.to/lastmile_qr_scan"}, "fusion_lon": 0.0, "lat": 38.90515766666667, "bike_id": "1ed0907dc2f4c3444dfc7698e4be81c3", "type": "electric_scooter", "is_reserved": 0, "lon": -77.04830216666667}, {"fusion_lat": 0.0, "name": "a2e596e714454cf5985f1580e3eef11b", "is_disabled": 0, "rental_uris": {"android": "https://dc.lft.to/lastmile_qr_scan", "ios": "https://dc.lft.to/lastmile_qr_scan"}, "fusion_lon": 0.0, "lat": 38.920454, "bike_id": "a2e596e714454cf5985f1580e3eef11b", "type": "electric_scooter", "is_reserved": 0, "lon": -77.03474383333334}, {"fusion_lat": 0.0, "name": "6302bed3b4612ec739f37c6cdf6187bc", "is_disabled": 0, "rental_uris": {"android": "https://dc.lft.to/lastmile_qr_scan", "ios": "https://dc.lft.to/lastmile_qr_scan"}, "fusion_lon": 0.0, "lat": 38.900614, "bike_id": "6302bed3b4612ec739f37c6cdf6187bc", "type": "electric_scooter", "is_reserved": 0, "lon": -76.933862}, {"fusion_lat": 0.0, "name": "083c5282b526cf7e44399d04df5d3ffb", "is_disabled": 0, "rental_uris": {"android": "https://dc.lft.to/lastmile_qr_scan", "ios": "https://dc.lft.to/lastmile_qr_scan"}, "fusion_lon": 0.0, "lat": 38.898318833333335, "bike_id": "083c5282b526cf7e44399d04df5d3ffb", "type": "electric_scooter", "is_reserved": 0, "lon": -76.94636616666666}, {"fusion_lat": 0.0, "name": "e620d963b1dc2b726acdfcc882e35f59", "is_disabled": 0, "rental_uris": {"android": "https://dc.lft.to/lastmile_qr_scan", "ios": "https://dc.lft.to/lastmile_qr_scan"}, "fusion_lon": 0.0, "lat": 38.90233666666666, "bike_id": "e620d963b1dc2b726acdfcc882e35f59", "type": "electric_scooter", "is_reserved": 0, "lon": -77.02287383333334}, {"fusion_lat": 0.0, "name": "b6a2df8cd45e5f23c5b374eae362ee6d", "is_disabled": 0, "rental_uris": {"android": "https://dc.lft.to/lastmile_qr_scan", "ios": "https://dc.lft.to/lastmile_qr_scan"}, "fusion_lon": 0.0, "lat": 38.91208533333333, "bike_id": "b6a2df8cd45e5f23c5b374eae362ee6d", "type": "electric_scooter", "is_reserved": 0, "lon": -77.03206383333334}, {"fusion_lat": 0.0, "name": "a8001bdfbf1e0c0aeb235b3143dac47b", "is_disabled": 0, "rental_uris": {"android": "https://dc.lft.to/lastmile_qr_scan", "ios": "https://dc.lft.to/lastmile_qr_scan"}, "fusion_lon": 0.0, "lat": 38.96591, "bike_id": "a8001bdfbf1e0c0aeb235b3143dac47b", "type": "electric_scooter", "is_reserved": 0, "lon": -77.01598133333333}, {"fusion_lat": 0.0, "name": "00682439b90ab56d8a9da3a9d89edff0", "is_disabled": 0, "rental_uris": {"android": "https://dc.lft.to/lastmile_qr_scan", "ios": "https://dc.lft.to/lastmile_qr_scan"}, "fusion_lon": 0.0, "lat": 38.87467, "bike_id": "00682439b90ab56d8a9da3a9d89edff0", "type": "electric_scooter", "is_reserved": 0, "lon": -77.00555483333333}, {"fusion_lat": 0.0, "name": "1bfcd00ba90cf8684b9f0f9272ab9c4b", "is_disabled": 0, "rental_uris": {"android": "https://dc.lft.to/lastmile_qr_scan", "ios": "https://dc.lft.to/lastmile_qr_scan"}, "fusion_lon": 0.0, "lat": 38.933792333333336, "bike_id": "1bfcd00ba90cf8684b9f0f9272ab9c4b", "type": "electric_scooter", "is_reserved": 0, "lon": -77.03883883333333},