{"data": {"bikes": [{"fusion_lat": 0.0, "name": "7f52bdf486175bdf8d8169aa636d5e42", "is_disabled": 0, "rental_uris": {"android": "https://dc.lft.to/lastmile_qr_scan", "ios": "https://dc.lft.to/lastmile_qr_scan"}, "fusion_lon": 0.0, "lat": 38.93265383333333, "bike_id": "7f52bdf486175bdf8d8169aa636d5e42", "type": "electric_scooter", "is_reserved": 0, "lon": -77.0192295}, {"fusion_lat": 0.0, "name": "2f3a9c6ecef9621dccba59665fa38f98", "is_disabled": 0, "rental_uris": {"android": "https://dc.lft.to/lastmile_qr_scan", "ios": "https://dc.lft.to/lastmile_qr_scan"}, "fusion_lon": 0.0, "lat": 38.920634166666666, "bike_id": "2f3a9c6ecef9621dccba59665fa38f98", "type": "electric_scooter", "is_reserved": 0, "lon": -77.03807416666666}, {"fusion_lat": 0.0, "name": "3e7fc9ef4aa46f831f2c477c63ec3565", "is_disabled": 0, "rental_uris": {"android": "https://dc.lft.to/lastmile_qr_scan", "ios": "https://dc.lft.to/lastmile_qr_scan"}, "fusion_lon": 0.0, "lat": 38.91728166666667, "bike_id": "3e7fc9ef4aa46f831f2c477c63ec3565", "type": "electric_scooter", "is_reserved": 0, "lon": -77.01919183333334}, {"fusion_lat": 0.0, "name": "fa0235702f7149202644c5221efc06ab", "is_disabled": 0, "rental_uris": {"android": "https://dc.lft.to/lastmile_qr_scan", "ios": "https://dc.lft.to/lastmile_qr_scan"}, "fusion_lon": 0.0, "lat": 38.94099683333334, "bike_id": "fa0235702f7149202644c5221efc06ab", "type": "electric_scooter", "is_reserved": 0, "lon": -77.03283833333333}, {"fusion_lat": 0.0, "name": "649f1533e63ba647156ebdeb439d203e", "is_disabled": 0, "rental_uris": {"android": "https://dc.lft.to/lastmile_qr_scan", "ios": "https://dc.lft.to/lastmile_qr_scan"}, "fusion_lon": 0.0, "lat": 38.928218666666666, "bike_id": "649f1533e63ba647156ebdeb439d203e", "type": "electric_scooter", "is_reserved": 0, "lon": -77.014155}, {"fusion_lat": 0.0, "name": "f2cb4fee96cf83c9c7a97a2c539f01a6", "is_disabled": 0, "rental_uris": {"android": "https://dc.lft.to/lastmile_qr_scan", "ios": "https://dc.lft.to/lastmile_qr_scan"}, "fusion_lon": 0.0, "lat": 38.930768, "bike_id": "f2cb4fee96cf83c9c7a97a2c539f01a6", "type": "electric_scooter", "is_reserved": 0, "lon": -77.077616}, {"fusion_lat": 0.0, "name": "8eca9b94ad584334cb64fcbb239a6cb2", "is_disabled": 0, "rental_uris": {"android": "https://dc.lft.to/lastmile_qr_scan", "ios": "https://dc.lft.to/lastmile_qr_scan"}, "fusion_lon": 0.0, "lat": 38.860128, "bike_id": "8eca9b94ad584334cb64fcbb239a6cb2", "type": "electric_bike", "is_reserved": 0, "lon": -77.1281095}, {"fusion_lat": 0.0, "name": "7aec12c3b9915902822558825bee7758", "is_disabled": 0, "rental_uris": {"android": "https://dc.lft.to/lastmile_qr_scan", "ios": "https://dc.lft.to/lastmile_qr_scan"}, "fusion_lon": 0.0, "lat": 38.93079483333333, "bike_id": "7aec12c3b9915902822558825bee7758", "type": "electric_scooter", "is_reserved": 0, "lon": -77.0200365}, {"fusion_lat": 0.0, "name": "1a9b112f99941450bc19e61f7849edef", "is_disabled": 0, "rental_uris": {"android": "https://dc.lft.to/lastmile_qr_scan", "ios": "https://dc.lft.to/lastmile_qr_scan"}, "fusion_lon": 0.0, "lat": 38.9256715, "bike_id": "1a9b112f99941450bc19e61f7849edef", "type": "electric_scooter", "is_reserved": 0, "lon": -77.02894633333334}, {"fusion_lat": 0.0, "name": "9db1eb7806fd970ccb85d43b54a530de", "is_disabled": 0, "rental_uris": {"android": "https://dc.lft.to/lastmile_qr_scan", "ios": "https://dc.lft.to/lastmile_qr_scan"}, "fusion_lon": 0.0, "lat": 38.874571833333334, "bike_id": "9db1eb7806fd970ccb85d43b54a530de", "type": "electric_scooter", "is_reserved": 0, "lon": -77.002925}, {"fusion_lat": 0.0, "name": "29712475a97b8b4de0776741fe03de62", "is_disabled": 0, "rental_uris": {"android": "https://dc.lft.to/lastmile_qr_scan", "ios": "https://dc.lft.to/lastmile_qr_scan"}, "fusion_lon": 0.0, "lat": 38.928759, "bike_id": "29712475a97b8b4de0776741fe03de62", "type": "electric_scooter", "is_reserved": 0, "lon": -77.01369166666667}, {"fusion_lat": 0.0, "name": "74bc2ed3152a7735258eb6175c54dd52", "is_disabled": 0, "rental_uris": {"android": "https://dc.lft.to/lastmile_qr_scan", "ios": "https://dc.lft.to/lastmile_qr_scan"}, "fusion_lon": 0.0, "lat": 38.878706666666666, "bike_id": "74bc2ed3152a7735258eb6175c54dd52", "type": "electric_scooter", "is_reserved": 0, "lon": -77.022972}, {"fusion_lat": 0.0, "name": "689108ef27a19857c01bcb5d3d00a3b9", "is_disabled": 0, "rental_uris": {"android": "https://dc.lft.to/lastmile_qr_scan", "ios": "https://dc.lft.to/lastmile_qr_scan"}, "fusion_lon": 0.0, "lat": 38.911619333333334, "bike_id": "689108ef27a19857c01bcb5d3d00a3b9", "type": "electric_scooter", "is_reserved": 0, "lon": -77.011116}, {"fusion_lat": 0.0, "name": "e1883758bdafabfac28d77dcc83a83ff", "is_disabled": 0, "rental_uris": {"android": "https://dc.lft.to/lastmile_qr_scan", "ios": "https://dc.lft.to/lastmile_qr_scan"}, "fusion_lon": 0.0, "lat": 38.87104516666667, "bike_id": "e1883758bdafabfac28d77dcc83a83ff", "type": "electric_scooter", "is_reserved": 0, "lon": -76.96577416666666}, {"fusion_lat": 0.0, "name": "60e83fba162476491ee37e597605020a", "is_disabled": 0, "rental_uris": {"android": "https://dc.lft.to/lastmile_qr_scan", "ios": "https://dc.lft.to/lastmile_qr_scan"}, "fusion_lon": 0.0, "lat": 38.878438833333334, "bike_id": "60e83fba162476491ee37e597605020a", "type": "electric_scooter", "is_reserved": 0, "lon": -77.00109583333334}, {"fusion_lat": 0.0, "name": "bc6f8cfb40d425080a03ce4ed5a1255c", "is_disabled": 0, "rental_uris": {"android": "https://dc.lft.to/lastmile_qr_scan", "ios": "https://dc.lft.to/lastmile_qr_scan"}, "fusion_lon": 0.0, "lat": 38.927239, "bike_id": "bc6f8cfb40d425080a03ce4ed5a1255c", "type": "electric_scooter", "is_reserved": 0, "lon": -77.0230245}, {"fusion_lat": 0.0, "name": "68582e6c4ff1876b7f3d97cb70351424", "is_disabled": 0, "rental_uris": {"android": "https://dc.lft.to/lastmile_qr_scan", "ios": "https://dc.lft.to/lastmile_qr_scan"}, "fusion_lon": 0.0, "lat": 38.87464583333333, "bike_id": "68582e6c4ff1876b7f3d97cb70351424", "type": "electric_scooter", "is_reserved": 0, "lon": -77.004829}, {"fusion_lat": 0.0, "name": "8ab172bfd536207bfd1d9467ff1222e3", "is_disabled": 0, "rental_uris": {"android": "https://dc.lft.to/lastmile_qr_scan", "ios": "https://dc.lft.to/lastmile_qr_scan"}, "fusion_lon": 0.0, "lat": 38.910098166666664, "bike_id": "8ab172bfd536207bfd1d9467ff1222e3", "type": "electric_scooter", "is_reserved": 0, "lon": -77.03867433333333}, {"fusion_lat": 0.0, "name": "ec8aaf96572f38da682995c414cbad19", "is_disabled": 0, "rental_uris": {"android": "https://dc.lft.to/lastmile_qr_scan", "ios": "https://dc.lft.to/lastmile_qr_scan"}, "fusion_lon": 0.0, "lat": 38.92079533333333, "bike_id": "ec8aaf96572f38da682995c414cbad19", "type": "electric_scooter", "is_reserved": 0, "lon": -77.0240655}, {"fusion_lat": 0.0, "name": "d9d110d18f3c5842446853cd4cdbc8f8", "is_disabled": 0, "rental_uris": {"android": "https://dc.lft.to/lastmile_qr_scan", "ios": "https://dc.lft.to/lastmile_qr_scan"}, "fusion_lon": 0.0, "lat": 38.9112625, "bike_id": "d9d110d18f3c5842446853cd4cdbc8f8", "type": "electric_scooter", "is_reserved": 0, "lon": -77.03175033333333}, {"fusion_lat": 0.0, "name": "26eda89785ea7476ea74ff238dc13463", "is_disabled": 0, "rental_uris": {"android": "https://dc.lft.to/lastmile_qr_scan", "ios": "https://dc.lft.to/lastmile_qr_scan"}, "fusion_lon": 0.0, "lat": 38.90700533333333, "bike_id": "26eda89785ea7476ea74ff238dc13463", "type": "electric_scooter", "is_reserved": 0, "lon": -77.04966183333333}, {"fusion_lat": 0.0, "name": "1119134bc22175dcaa20ef6eb713e95f", "is_disabled": 0, "rental_uris": {"android": "https://dc.lft.to/lastmile_qr_scan", "ios": "https://dc.lft.to/lastmile_qr_scan"}, "fusion_lon": 0.0, "lat": 38.921439666666664, "bike_id": "1119134bc22175dcaa20ef6eb713e95f", "type": "electric_scooter", "is_reserved": 0, "lon": -77.02564816666667}, {"fusion_lat": 0.0, "name": "b9a6f023bff1511554d0ddcfeab6778a", "is_disabled": 0, "rental_uris": {"android": "https://dc.lft.to/lastmile_qr_scan", "ios": "https://dc.lft.to/lastmile_qr_scan"}, "fusion_lon": 0.0, "lat": 38.9071185, "bike_id": "b9a6f023bff1511554d0ddcfeab6778a", "type": "electric_scooter", "is_reserved": 0, "lon": -77.0050735}, {"fusion_lat": 0.0, "name": "e651f56730df817848ba0b9fdc485ed6", "is_disabled": 0, "rental_uris": {"android": "https://dc.lft.to/lastmile_qr_scan", "ios": "https://dc.lft.to/lastmile_qr_scan"}, "fusion_lon": 0.0, "lat": 38.915677333333335, "bike_id": "e651f56730df817848ba0b9fdc485ed6", "type": "electric_scooter", "is_reserved": 0, "lon": -77.03209566666666}, {"fusion_lat": 0.0, "name": "e3bb286f655d19a5b3331bb4c031e078", "is_disabled": 0, "rental_uris": {"android": "https://dc.lft.to/lastmile_qr_scan", "ios": "https://dc.lft.to/lastmile_qr_scan"}, "fusion_lon": 0.0, "lat": 38.906815, "bike_id": "e3bb286f655d19a5b3331bb4c031e078", "type": "electric_scooter", "is_reserved": 0, "lon": -77.02695966666667}, {"fusion_lat": 0.0, "name": "6375466c92f6e474dcb4a4ecc8e2d87d", "is_disabled": 0, "rental_uris": {"android": "https://dc.lft.to/lastmile_qr_scan", "ios": "https://dc.lft.to/lastmile_qr_scan"}, "fusion_lon": 0.0, "lat": 38.90348633333333, "bike_id": "6375466c92f6e474dcb4a4ecc8e2d87d", "type": "electric_scooter", "is_reserved": 0, "lon": -77.00725683333333}, {"fusion_lat": 0.0, "name": "3b01f85395bb13c0af00e863f0e32b98", "is_disabled": 0, "rental_uris": {"android": "https://dc.lft.to/lastmile_qr_scan", "ios": "https://dc.lft.to/lastmile_qr_scan"}, "fusion_lon": 0.0, "lat": 38.9061485, "bike_id": "3b01f85395bb13c0af00e863f0e32b98", "type": "electric_scooter", "is_reserved": 0, "lon": -77.00586583333333}, {"fusion_lat": 0.0, "name": "2c06c865ef74ce3bd1fe821cfc0af6fc", "is_disabled": 0, "rental_uris": {"android": "https://dc.lft.to/lastmile_qr_scan", "ios": "https://dc.lft.to/lastmile_qr_scan"}, "fusion_lon": 0.0, "lat": 38.915512, "bike_id": "2c06c865ef74ce3bd1fe821cfc0af6fc", "type": "electric_scooter", "is_reserved": 0, "lon": -77.02146}, {"fusion_lat": 0.0, "name": "2c69ec708df680ae2978f1d1f81607d9", "is_disabled": 0, "rental_uris": {"android": "https://dc.lft.to/lastmile_qr_scan", "ios": "https://dc.lft.to/lastmile_qr_scan"}, "fusion_lon": 0.0, "lat": 38.934398, "bike_id": "2c69ec708df680ae2978f1d1f81607d9", "type": "electric_bike", "is_reserved": 0, "lon": -77.0272985}, {"fusion_lat": 0.0, "name": "7a731f2d30b396b77e35be83be3f90ca", "is_disabled": 0, "rental_uris": {"android": "https://dc.lft.to/lastmile_qr_scan", "ios": "https://dc.lft.to/lastmile_qr_scan"}, "fusion_lon": 0.0, "lat": 38.957973333333335, "bike_id": "7a731f2d30b396b77e35be83be3f90ca", "type": "electric_bike", "is_reserved": 0, "lon": -76.96048066666667}, {"fusion_lat": 0.0, "name": "fc9b3404aefe08da1cbfa8bdcde62e80", "is_disabled": 0, "rental_uris": {"android": "https://dc.lft.to/lastmile_qr_scan", "ios": "https://dc.lft.to/lastmile_qr_scan"}, "fusion_lon": 0.0, "lat": 38.92502733333333, "bike_id": "fc9b3404aefe08da1cbfa8bdcde62e80", "type": "electric_scooter", "is_reserved": 0, "lon": -77.05220216666666}, {"fusion_lat": 0.0, "name": "5098e23615c2d7307679e7ecee0105b2", "is_disabled": 0, "rental_uris": {"android": "https://dc.lft.to/lastmile_qr_scan", "ios": "https://dc.lft.to/lastmile_qr_scan"}, "fusion_lon": 0.0, "lat": 38.921043, "bike_id": "5098e23615c2d7307679e7ecee0105b2", "type": "electric_scooter", "is_reserved": 0, "lon": -77.01774983333334}, {"fusion_lat": 0.0, "name": "afb49ffa89b9724ff92cfaed76cd1ddd", "is_disabled": 0, "rental_uris": {"android": "https://dc.lft.to/lastmile_qr_scan", "ios": "https://dc.lft.to/lastmile_qr_scan"}, "fusion_lon": 0.0, "lat": 38.921942666666666, "bike_id": "afb49ffa89b9724ff92cfaed76cd1ddd", "type": "electric_scooter", "is_reserved": 0, "lon": -77.08081283333334}, {"fusion_lat": 0.0, "name": "0d2f61085392eb350013af4b82f6cf1a", "is_disabled": 0, "rental_uris": {"android": "https://dc.lft.to/lastmile_qr_scan", "ios": "https://dc.lft.to/lastmile_qr_scan"}, "fusion_lon": 0.0, "lat": 38.908406, "bike_id": "0d2f61085392eb350013af4b82f6cf1a", "type": "electric_scooter", "is_reserved": 0, "lon": -77.0466905}, {"fusion_lat": 0.0, "name": "df2333213ca4e12397d6c67da1477a82", "is_disabled": 0, "rental_uris": {"android": "https://dc.lft.to/lastmile_qr_scan", "ios": "https://dc.lft.to/lastmile_qr_scan"}, "fusion_lon": 0.0, "lat": 38.91447683333333, "bike_id": "df2333213ca4e12397d6c67da1477a82", "type": "electric_scooter", "is_reserved": 0, "lon": -77.04488216666667}, {"fusion_lat": 0.0, "name": "0c0db9fc1fa51e61ecf588a5f457cf7e", "is_disabled": 0, "rental_uris": {"android": "https://dc.lft.to/lastmile_qr_scan", "ios": "https://dc.lft.to/lastmile_qr_scan"}, "fusion_lon": 0.0, "lat": 38.900344, "bike_id": "0c0db9fc1fa51e61ecf588a5f457cf7e", "type": "electric_scooter", "is_reserved": 0, "lon": -76.9856285}, {"fusion_lat": 0.0, "name": "1d672587faecf73b565cfcc892951640", "is_disabled": 0, "rental_uris": {"android": "https://dc.lft.to/lastmile_qr_scan", "ios": "https://dc.lft.to/lastmile_qr_scan"}, "fusion_lon": 0.0, "lat": 38.889811333333334, "bike_id": "1d672587faecf73b565cfcc892951640", "type": "electric_scooter", "is_reserved": 0, "lon": -76.9141925}, {"fusion_lat": 0.0, "name": "2e761ee4ced765b36919c3a13bde7839", "is_disabled": 0, "rental_uris": {"android": "https://dc.lft.to/lastmile_qr_scan", "ios": "https://dc.lft.to/lastmile_qr_scan"}, "fusion_lon": 0.0, "lat": 38.90565983333333, "bike_id": "2e761ee4ced765b36919c3a13bde7839", "type": "electric_scooter", "is_reserved": 0, "lon": -77.04688616666667}, {"fusion_lat": 0.0, "name": "5318797e53c0c7920a46a904a5dc427c", "is_disabled": 0, "rental_uris": {"android": "https://dc.lft.to/lastmile_qr_scan", "ios": "https://dc.lft.to/lastmile_qr_scan"}, "fusion_lon": 0.0, "lat": 38.91087366666667, "bike_id": "5318797e53c0c7920a46a904a5dc427c", "type": "electric_scooter", "is_reserved": 0, "lon": -77.02209766666667}, {"fusion_lat": 0.0, "name": "8013d04dfc524773a42f72392aec3a37", "is_disabled": 0, "rental_uris": {"android": "https://dc.lft.to/lastmile_qr_scan", "ios": "https://dc.lft.to/lastmile_qr_scan"}, "fusion_lon": 0.0, "lat": 38.9142615, "bike_id": "8013d04dfc524773a42f72392aec3a37", "type": "electric_scooter", "is_reserved": 0, "lon": -77.032082}, {"fusion_lat": 0.0, "name": "ff7ed562bbdea2b72a89179598f7a29a", "is_disabled": 0, "rental_uris": {"android": "https://dc.lft.to/lastmile_qr_scan", "ios": "https://dc.lft.to/lastmile_qr_scan"}, "fusion_lon": 0.0, "lat": 38.90431616666667, "bike_id": "ff7ed562bbdea2b72a89179598f7a29a", "type": "electric_scooter", "is_reserved": 0, "lon": -76.9795085}, {"fusion_lat": 0.0, "name": "a2918d3ff923a6b4ea3d3faac9ebddf1", "is_disabled": 0, "rental_uris": {"android": "https://dc.lft.to/lastmile_qr_scan", "ios": "https://dc.lft.to/lastmile_qr_scan"}, "fusion_lon": 0.0, "lat": 38.91799433333333, "bike_id": "a2918d3ff923a6b4ea3d3faac9ebddf1", "type": "electric_scooter", "is_reserved": 0, "lon": -77.0401705}, {"fusion_lat": 0.0, "name": "d9a11383f0898572091208494423833b", "is_disabled": 0, "rental_uris": {"android": "https://dc.lft.to/lastmile_qr_scan", "ios": "https://dc.lft.to/lastmile_qr_scan"}, "fusion_lon": 0.0, "lat": 38.81798283333333, "bike_id": "d9a11383f0898572091208494423833b", "type": "electric_bike", "is_reserved": 0, "lon": -77.00157283333333}, {"fusion_lat": 0.0, "name": "f0055a882496320edad66898003b36c0", "is_disabled": 0, "rental_uris": {"android": "https://dc.lft.to/lastmile_qr_scan", "ios": "https://dc.lft.to/lastmile_qr_scan"}, "fusion_lon": 0.0, "lat": 38.921770333333335, "bike_id": "f0055a882496320edad66898003b36c0", "type": "electric_scooter", "is_reserved": 0, "lon": -77.02657133333334}, {"fusion_lat": 0.0, "name": "77067cf00bc832f6f02600e71e047d45", "is_disabled": 0, "rental_uris": {"android": "https://dc.lft.to/lastmile_qr_scan", "ios": "https://dc.lft.to/lastmile_qr_scan"}, "fusion_lon": 0.0, "lat": 38.921200666666664, "bike_id": "77067cf00bc832f6f02600e71e047d45", "type": "electric_scooter", "is_reserved": 0, "lon": -77.04440766666667}, {"fusion_lat": 0.0, "name": "f37a240d11404e445c15461db088b67c", "is_disabled": 0, "rental_uris": {"android": "https://dc.lft.to/lastmile_qr_scan", "ios": "https://dc.lft.to/lastmile_qr_scan"}, "fusion_lon": 0.0, "lat": 38.90381583333333, "bike_id": "f37a240d11404e445c15461db088b67c", "type": "electric_scooter", "is_reserved": 0, "lon": -77.034431}, {"fusion_lat": 0.0, "name": "985630fa3eaab02306b2d753e8350d62", "is_disabled": 0, "rental_uris": {"android": "https://dc.lft.to/lastmile_qr_scan", "ios": "https://dc.lft.to/lastmile_qr_scan"}, "fusion_lon": 0.0, "lat": 38.902443, "bike_id": "985630fa3eaab02306b2d753e8350d62", "type": "electric_scooter", "is_reserved": 0, "lon": -77.01856066666667}, {"fusion_lat": 0.0, "name": "9cc2f29f530aa697d09752f50d6ee185", "is_disabled": 0, "rental_uris": {"android": "https://dc.lft.to/lastmile_qr_scan", "ios": "https://dc.lft.to/lastmile_qr_scan"}, "fusion_lon": 0.0, "lat": 38.929837, "bike_id": "9cc2f29f530aa697d09752f50d6ee185", "type": "electric_scooter", "is_reserved": 0, "lon": -77.03474133333333}, {"fusion_lat": 0.0, "name": "f0bff42e5bd2d3d3e87bd02cb254697d", "is_disabled": 0, "rental_uris": {"android": "https://dc.lft.to/lastmile_qr_scan", "ios": "https://dc.lft.to/lastmile_qr_scan"}, "fusion_lon": 0.0, "lat": 38.93072516666667, "bike_id": "f0bff42e5bd2d3d3e87bd02cb254697d", "type": "electric_scooter", "is_reserved": 0, "lon": -77.03156933333334}, {"fusion_lat": 0.0, "name": "261047047ded2e1a4efcbfd63f9d685a", "is_disabled": 0, "rental_uris": {"android": "https://dc.lft.to/lastmile_qr_scan", "ios": "https://dc.lft.to/lastmile_qr_scan"}, "fusion_lon": 0.0, "lat": 38.90799333333333, "bike_id": "261047047ded2e1a4efcbfd63f9d685a", "type": "electric_scooter", "is_reserved": 0, "lon": -77.04362333333333}, {"fusion_lat": 0.0, "name": "b94dc843d041b8bfe64a5e3d6aa8103e", "is_disabled": 0, "rental_uris": {"android": "https://dc.lft.to/lastmile_qr_scan", "ios": "https://dc.lft.to/lastmile_qr_scan"}, "fusion_lon": 0.0, "lat": 38.90270916666667, "bike_id": "b94dc843d041b8bfe64a5e3d6aa8103e", "type": "electric_scooter", "is_reserved": 0, "lon": -77.00371333333334}, {"fusion_lat": 0.0, "name": "ba5ed51bd14f752e56ed8a6f978cbd7a", "is_disabled": 0, "rental_uris": {"android": "https://dc.lft.to/lastmile_qr_scan", "ios": "https://dc.lft.to/lastmile_qr_scan"}, "fusion_lon": 0.0, "lat": 38.8839895, "bike_id": "ba5ed51bd14f752e56ed8a6f978cbd7a", "type": "electric_scooter", "is_reserved": 0, "lon": -77.02998383333333}, {"fusion_lat": 0.0, "name": "85d2e85f967da2287ee4b65ba41809de", "is_disabled": 0, "rental_uris": {"android": "https://dc.lft.to/lastmile_qr_scan", "ios": "https://dc.lft.to/lastmile_qr_scan"}, "fusion_lon": 0.0, "lat": 38.895949333333334, "bike_id": "85d2e85f967da2287ee4b65ba41809de", "type": "electric_scooter", "is_reserved": 0, "lon": -77.0231135}, {"fusion_lat": 0.0, "name": "649f4118d5b3af97c4bbcfcfeee8a0c8", "is_disabled": 0, "rental_uris": {"android": "https://dc.lft.to/lastmile_qr_scan", "ios": "https://dc.lft.to/lastmile_qr_scan"}, "fusion_lon": 0.0, "lat": 38.911047333333336, "bike_id": "649f4118d5b3af97c4bbcfcfeee8a0c8", "type": "electric_scooter", "is_reserved": 0, "lon": -77.031606}, {"fusion_lat": 0.0, "name": "47bb59a5290007fbe55928a2dd0d5256", "is_disabled": 0, "rental_uris": {"android": "https://dc.lft.to/lastmile_qr_scan", "ios": "https://dc.lft.to/lastmile_qr_scan"}, "fusion_lon": 0.0, "lat": 38.923115, "bike_id": "47bb59a5290007fbe55928a2dd0d5256", "type": "electric_scooter", "is_reserved": 0, "lon": -77.04036816666667}, {"fusion_lat": 0.0, "name": "480d51c94ecf4d6d3b97d34f5a8486cd", "is_disabled": 0, "rental_uris": {"android": "https://dc.lft.to/lastmile_qr_scan", "ios": "https://dc.lft.to/lastmile_qr_scan"}, "fusion_lon": 0.0, "lat": 38.92339466666667, "bike_id": "480d51c94ecf4d6d3b97d34f5a8486cd", "type": "electric_scooter", "is_reserved": 0, "lon": -77.05225333333334}, {"fusion_lat": 0.0, "name": "3d913f87f2e7440f235e8a0f592674d5", "is_disabled": 0, "rental_uris": {"android": "https://dc.lft.to/lastmile_qr_scan", "ios": "https://dc.lft.to/lastmile_qr_scan"}, "fusion_lon": 0.0, "lat": 38.90352883333333, "bike_id": "3d913f87f2e7440f235e8a0f592674d5", "type": "electric_scooter", "is_reserved": 0, "lon": -76.97479833333334}, {"fusion_lat": 0.0, "name": "142aafb35db4ff46affd8cdfe17479f2", "is_disabled": 0, "rental_uris": {"android": "https://dc.lft.to/lastmile_qr_scan", "ios": "https://dc.lft.to/lastmile_qr_scan"}, "fusion_lon": 0.0, "lat": 38.9317895, "bike_id": "142aafb35db4ff46affd8cdfe17479f2", "type": "electric_scooter", "is_reserved": 0, "lon": -77.0200835}, {"fusion_lat": 0.0, "name": "23922272a51ff4d5dd2f4371a522fc80", "is_disabled": 0, "rental_uris": {"android": "https://dc.lft.to/lastmile_qr_scan", "ios": "https://dc.lft.to/lastmile_qr_scan"}, "fusion_lon": 0.0, "lat": 38.90770833333333, "bike_id": "23922272a51ff4d5dd2f4371a522fc80", "type": "electric_scooter", "is_reserved": 0, "lon": -77.04274683333334}, {"fusion_lat": 0.0, "name": "55bf5413d8f37ea3dc816eaaa60ef291", "is_disabled": 0, "rental_uris": {"android": "https://dc.lft.to/lastmile_qr_scan", "ios": "https://dc.lft.to/lastmile_qr_scan"}, "fusion_lon": 0.0, "lat": 38.922431333333336, "bike_id": "55bf5413d8f37ea3dc816eaaa60ef291", "type": "electric_scooter", "is_reserved": 0, "lon": -77.0390635}, {"fusion_lat": 0.0, "name": "984321105a626ae8f787e9e40a8b4302", "is_disabled": 0, "rental_uris": {"android": "https://dc.lft.to/lastmile_qr_scan", "ios": "https://dc.lft.to/lastmile_qr_scan"}, "fusion_lon": 0.0, "lat": 38.92439816666667, "bike_id": "984321105a626ae8f787e9e40a8b4302", "type": "electric_scooter", "is_reserved": 0, "lon": -77.02077316666667}, {"fusion_lat": 0.0, "name": "a99fc472d1878f379e7cb74cac0ae949", "is_disabled": 0, "rental_uris": {"android": "https://dc.lft.to/lastmile_qr_scan", "ios": "https://dc.lft.to/lastmile_qr_scan"}, "fusion_lon": 0.0, "lat": 38.87728516666667, "bike_id": "a99fc472d1878f379e7cb74cac0ae949", "type": "electric_scooter", "is_reserved": 0, "lon": -77.02140333333334}, {"fusion_lat": 0.0, "name": "35943f764aa44270ba7b04e091282ebc", "is_disabled": 0, "rental_uris": {"android": "https://dc.lft.to/lastmile_qr_scan", "ios": "https://dc.lft.to/lastmile_qr_scan"}, "fusion_lon": 0.0, "lat": 38.923259333333334, "bike_id": "35943f764aa44270ba7b04e091282ebc", "type": "electric_scooter", "is_reserved": 0, "lon": -77.03548383333333}, {"fusion_lat": 0.0, "name": "5c6a136a133d8475a7f9d7bea06919ee", "is_disabled": 0, "rental_uris": {"android": "https://dc.lft.to/lastmile_qr_scan", "ios": "https://dc.lft.to/lastmile_qr_scan"}, "fusion_lon": 0.0, "lat": 38.879791166666664, "bike_id": "5c6a136a133d8475a7f9d7bea06919ee", "type": "electric_scooter", "is_reserved": 0, "lon": -76.98385716666667}, {"fusion_lat": 0.0, "name": "76706a13f47df1c6f2ed302bba253b70", "is_disabled": 0, "rental_uris": {"android": "https://dc.lft.to/lastmile_qr_scan", "ios": "https://dc.lft.to/lastmile_qr_scan"}, "fusion_lon": 0.0, "lat": 38.89727366666666, "bike_id": "76706a13f47df1c6f2ed302bba253b70", "type": "electric_scooter", "is_reserved": 0, "lon": -77.02470033333333}, {"fusion_lat": 0.0, "name": "5238217f2528cb0ad405aeeb31d65f68", "is_disabled": 0, "rental_uris": {"android": "https://dc.lft.to/lastmile_qr_scan", "ios": "https://dc.lft.to/lastmile_qr_scan"}, "fusion_lon": 0.0, "lat": 38.903946833333336, "bike_id": "5238217f2528cb0ad405aeeb31d65f68", "type": "electric_scooter", "is_reserved": 0, "lon": -77.018027}, {"fusion_lat": 0.0, "name": "5f906e7d138cd59c19f9564600f52463", "is_disabled": 0, "rental_uris": {"android": "https://dc.lft.to/lastmile_qr_scan", "ios": "https://dc.lft.to/lastmile_qr_scan"}, "fusion_lon": 0.0, "lat": 38.8997505, "bike_id": "5f906e7d138cd59c19f9564600f52463", "type": "electric_scooter", "is_reserved": 0, "lon": -77.05277133333334}, {"fusion_lat": 0.0, "name": "16583a01a7a9a56159bba7498592b72f", "is_disabled": 0, "rental_uris": {"android": "https://dc.lft.to/lastmile_qr_scan", "ios": "https://dc.lft.to/lastmile_qr_scan"}, "fusion_lon": 0.0, "lat": 38.93081433333333, "bike_id": "16583a01a7a9a56159bba7498592b72f", "type": "electric_scooter", "is_reserved": 0, "lon": -77.02001783333333}, {"fusion_lat": 0.0, "name": "4b387fb448b256750d5e9ed0402cc3a8", "is_disabled": 0, "rental_uris": {"android": "https://dc.lft.to/lastmile_qr_scan", "ios": "https://dc.lft.to/lastmile_qr_scan"}, "fusion_lon": 0.0, "lat": 38.9346325, "bike_id": "4b387fb448b256750d5e9ed0402cc3a8", "type": "electric_scooter", "is_reserved": 0, "lon": -77.04120116666667}, {"fusion_lat": 0.0, "name": "7ca89d7066194725d527058d5508d90c", "is_disabled": 0, "rental_uris": {"android": "https://dc.lft.to/lastmile_qr_scan", "ios": "https://dc.lft.to/lastmile_qr_scan"}, "fusion_lon": 0.0, "lat": 38.90103416666667, "bike_id": "7ca89d7066194725d527058d5508d90c", "type": "electric_scooter", "is_reserved": 0, "lon": -76.93045233333333}, {"fusion_lat": 0.0, "name": "c9494c97575649c3e5a47cf3c2580324", "is_disabled": 0, "rental_uris": {"android": "https://dc.lft.to/lastmile_qr_scan", "ios": "https://dc.lft.to/lastmile_qr_scan"}, "fusion_lon": 0.0, "lat": 38.876637, "bike_id": "c9494c97575649c3e5a47cf3c2580324", "type": "electric_scooter", "is_reserved": 0, "lon": -77.00341216666666}, {"fusion_lat": 0.0, "name": "0f44ff2f9a4b3b9b738a34a09fa035fa", "is_disabled": 0, "rental_uris": {"android": "https://dc.lft.to/lastmile_qr_scan", "ios": "https://dc.lft.to/lastmile_qr_scan"}, "fusion_lon": 0.0, "lat": 38.9314205, "bike_id": "0f44ff2f9a4b3b9b738a34a09fa035fa", "type": "electric_bike", "is_reserved": 0, "lon": -77.00076716666666}, {"fusion_lat": 0.0, "name": "117db6cef66e3b77c4fe81164f9f1542", "is_disabled": 0, "rental_uris": {"android": "https://dc.lft.to/lastmile_qr_scan", "ios": "https://dc.lft.to/lastmile_qr_scan"}, "fusion_lon": 0.0, "lat": 38.92325866666667, "bike_id": "117db6cef66e3b77c4fe81164f9f1542", "type": "electric_scooter", "is_reserved": 0, "lon": -77.05696133333333}, {"fusion_lat": 0.0, "name": "9e43365ffe9ad4fea8a80172a743f7ad", "is_disabled": 0, "rental_uris": {"android": "https://dc.lft.to/lastmile_qr_scan", "ios": "https://dc.lft.to/lastmile_qr_scan"}, "fusion_lon": 0.0, "lat": 38.901285333333334, "bike_id": "9e43365ffe9ad4fea8a80172a743f7ad", "type": "electric_scooter", "is_reserved": 0, "lon": -77.0446715}, {"fusion_lat": 0.0, "name": "a71d4646e9740c4258ff3ed4d4103639", "is_disabled": 0, "rental_uris": {"android": "https://dc.lft.to/lastmile_qr_scan", "ios": "https://dc.lft.to/lastmile_qr_scan"}, "fusion_lon": 0.0, "lat": 38.919159666666665, "bike_id": "a71d4646e9740c4258ff3ed4d4103639", "type": "electric_scooter", "is_reserved": 0, "lon": -77.0342625}, {"fusion_lat": 0.0, "name": "519c0fa6cad702b399e45dc5134b4211", "is_disabled": 0, "rental_uris": {"android": "https://dc.lft.to/lastmile_qr_scan", "ios": "https://dc.lft.to/lastmile_qr_scan"}, "fusion_lon": 0.0, "lat": 38.9209865, "bike_id": "519c0fa6cad702b399e45dc5134b4211", "type": "electric_scooter", "is_reserved": 0, "lon": -77.02535283333333}, {"fusion_lat": 0.0, "name": "6c44b3cd74d544f4f4521d7a0899a173", "is_disabled": 0, "rental_uris": {"android": "https://dc.lft.to/lastmile_qr_scan", "ios": "https://dc.lft.to/lastmile_qr_scan"}, "fusion_lon": 0.0, "lat": 38.883404666666664, "bike_id": "6c44b3cd74d544f4f4521d7a0899a173", "type": "electric_scooter", "is_reserved": 0, "lon": -76.934979}, {"fusion_lat": 0.0, "name": "7bb80ff2e029f579a5b9a60c57ec1865", "is_disabled": 0, "rental_uris": {"android": "https://dc.lft.to/lastmile_qr_scan", "ios": "https://dc.lft.to/lastmile_qr_scan"}, "fusion_lon": 0.0, "lat": 38.943869166666666, "bike_id": "7bb80ff2e029f579a5b9a60c57ec1865", "type": "electric_scooter", "is_reserved": 0, "lon": -77.0950915}, {"fusion_lat": 0.0, "name": "a3a6d0d8732b2caefc17c0cb17378b26", "is_disabled": 0, "rental_uris": {"android": "https://dc.lft.to/lastmile_qr_scan", "ios": "https://dc.lft.to/lastmile_qr_scan"}, "fusion_lon": 0.0, "lat": 38.94716183333333, "bike_id": "a3a6d0d8732b2caefc17c0cb17378b26", "type": "electric_scooter", "is_reserved": 0, "lon": -77.06545}, {"fusion_lat": 0.0, "name": "f0f3660bfa6451847b650ba07284fa27", "is_disabled": 0, "rental_uris": {"android": "https://dc.lft.to/lastmile_qr_scan", "ios": "https://dc.lft.to/lastmile_qr_scan"}, "fusion_lon": 0.0, "lat": 38.9119595, "bike_id": "f0f3660bfa6451847b650ba07284fa27", "type": "electric_scooter", "is_reserved": 0, "lon": -77.03849316666667}, {"fusion_lat": 0.0, "name": "6fdf3be006aea82b26657563ee9a433c", "is_disabled": 0, "rental_uris": {"android": "https://dc.lft.to/lastmile_qr_scan", "ios": "https://dc.lft.to/lastmile_qr_scan"}, "fusion_lon": 0.0, "lat": 38.90401833333333, "bike_id": "6fdf3be006aea82b26657563ee9a433c", "type": "electric_scooter", "is_reserved": 0, "lon": -77.06772983333333}, {"fusion_lat": 0.0, "name": "a3f1dca37a42ea12c1a2a66ddcb26817", "is_disabled": 0, "rental_uris": {"android": "https://dc.lft.to/lastmile_qr_scan", "ios": "https://dc.lft.to/lastmile_qr_scan"}, "fusion_lon": 0.0, "lat": 38.898756, "bike_id": "a3f1dca37a42ea12c1a2a66ddcb26817", "type": "electric_scooter", "is_reserved": 0, "lon": -76.9318605}, {"fusion_lat": 0.0, "name": "af2fb2e8b20f70200a128179f01f23ef", "is_disabled": 0, "rental_uris": {"android": "https://dc.lft.to/lastmile_qr_scan", "ios": "https://dc.lft.to/lastmile_qr_scan"}, "fusion_lon": 0.0, "lat": 38.920192, "bike_id": "af2fb2e8b20f70200a128179f01f23ef", "type": "electric_scooter", "is_reserved": 0, "lon": -77.01319766666667}, {"fusion_lat": 0.0, "name": "99ea20576c6c898e86f4f226afe95fc5", "is_disabled": 0, "rental_uris": {"android": "https://dc.lft.to/lastmile_qr_scan", "ios": "https://dc.lft.to/lastmile_qr_scan"}, "fusion_lon": 0.0, "lat": 38.9261375, "bike_id": "99ea20576c6c898e86f4f226afe95fc5", "type": "electric_scooter", "is_reserved": 0, "lon": -77.03673133333334}, {"fusion_lat": 0.0, "name": "b4b8b8d21519a674d5a22b68b153f0ad", "is_disabled": 0, "rental_uris": {"android": "https://dc.lft.to/lastmile_qr_scan", "ios": "https://dc.lft.to/lastmile_qr_scan"}, "fusion_lon": 0.0, "lat": 38.90726033333333, "bike_id": "b4b8b8d21519a674d5a22b68b153f0ad", "type": "electric_scooter", "is_reserved": 0, "lon": -77.0435315}, {"fusion_lat": 0.0, "name": "ee49379310a84d02f8a55739bd45244f", "is_disabled": 0, "rental_uris": {"android": "https://dc.lft.to/lastmile_qr_scan", "ios": "https://dc.lft.to/lastmile_qr_scan"}, "fusion_lon": 0.0, "lat": 38.90435333333333, "bike_id": "ee49379310a84d02f8a55739bd45244f", "type": "electric_scooter", "is_reserved": 0, "lon": -77.05817366666666}, {"fusion_lat": 0.0, "name": "2274d33ef2263a6ebf5d0c74be2f0dff", "is_disabled": 0, "rental_uris": {"android": "https://dc.lft.to/lastmile_qr_scan", "ios": "https://dc.lft.to/lastmile_qr_scan"}, "fusion_lon": 0.0, "lat": 38.923421, "bike_id": "2274d33ef2263a6ebf5d0c74be2f0dff", "type": "electric_scooter", "is_reserved": 0, "lon": -77.01914166666667}, {"fusion_lat": 0.0, "name": "078f69ac34c64651d5dd6925b9b96470", "is_disabled": 0, "rental_uris": {"android": "https://dc.lft.to/lastmile_qr_scan", "ios": "https://dc.lft.to/lastmile_qr_scan"}, "fusion_lon": 0.0, "lat": 38.91967983333333, "bike_id": "078f69ac34c64651d5dd6925b9b96470", "type": "electric_scooter", "is_reserved": 0, "lon": -77.03225516666667}, {"fusion_lat": 0.0, "name": "f3f4f4db297027795e28caf958a60954", "is_disabled": 0, "rental_uris": {"android": "https://dc.lft.to/lastmile_qr_scan", "ios": "https://dc.lft.to/lastmile_qr_scan"}, "fusion_lon": 0.0, "lat": 38.8924655, "bike_id": "f3f4f4db297027795e28caf958a60954", "type": "electric_scooter", "is_reserved": 0, "lon": -77.03957533333333}, {"fusion_lat": 0.0, "name": "ad3e54c317b3579baf5d508b575dbb73", "is_disabled": 0, "rental_uris": {"android": "https://dc.lft.to/lastmile_qr_scan", "ios": "https://dc.lft.to/lastmile_qr_scan"}, "fusion_lon": 0.0, "lat": 38.9111345, "bike_id": "ad3e54c317b3579baf5d508b575dbb73", "type": "electric_scooter", "is_reserved": 0, "lon": -77.0075725}, {"fusion_lat": 0.0, "name": "b232da17be93b1d4a2236d64b9a37aba", "is_disabled": 0, "rental_uris": {"android": "https://dc.lft.to/lastmile_qr_scan", "ios": "https://dc.lft.to/lastmile_qr_scan"}, "fusion_lon": 0.0, "lat": 38.92758083333333, "bike_id": "b232da17be93b1d4a2236d64b9a37aba", "type": "electric_scooter", "is_reserved": 0, "lon": -77.05271316666666}, {"fusion_lat": 0.0, "name": "e6e396b2f63ce5c29ea128b2381e7619", "is_disabled": 0, "rental_uris": {"android": "https://dc.lft.to/lastmile_qr_scan", "ios": "https://dc.lft.to/lastmile_qr_scan"}, "fusion_lon": 0.0, "lat": 38.9000815, "bike_id": "e6e396b2f63ce5c29ea128b2381e7619", "type": "electric_scooter", "is_reserved": 0, "lon": -76.98816166666667}, {"fusion_lat": 0.0, "name": "8ffdeb8d8b385643139028ed24464d6f", "is_disabled": 0, "rental_uris": {"android": "https://dc.lft.to/lastmile_qr_scan", "ios": "https://dc.lft.to/lastmile_qr_scan"}, "fusion_lon": 0.0, "lat": 38.927815333333335, "bike_id": "8ffdeb8d8b385643139028ed24464d6f", "type": "electric_scooter", "is_reserved": 0, "lon": -77.05324566666667}, {"fusion_lat": 0.0, "name": "aa487f6a81c77f0602993ab5ca12fad9", "is_disabled": 0, "rental_uris": {"android": "https://dc.lft.to/lastmile_qr_scan", "ios": "https://dc.lft.to/lastmile_qr_scan"}, "fusion_lon": 0.0, "lat": 38.907183, "bike_id": "aa487f6a81c77f0602993ab5ca12fad9", "type": "electric_scooter", "is_reserved": 0, "lon": -77.02413666666666}, {"fusion_lat": 0.0, "name": "9df4970f42adb88188724b81d13d8926", "is_disabled": 0, "rental_uris": {"android": "https://dc.lft.to/lastmile_qr_scan", "ios": "https://dc.lft.to/lastmile_qr_scan"}, "fusion_lon": 0.0, "lat": 38.906207333333334, "bike_id": "9df4970f42adb88188724b81d13d8926", "type": "electric_scooter", "is_reserved": 0, "lon": -77.00582433333334}, {"fusion_lat": 0.0, "name": "0203a540ec2e8eaa1fd52a32ece54e8a", "is_disabled": 0, "rental_uris": {"android": "https://dc.lft.to/lastmile_qr_scan", "ios": "https://dc.lft.to/lastmile_qr_scan"}, "fusion_lon": 0.0, "lat": 38.92144733333333, "bike_id": "0203a540ec2e8eaa1fd52a32ece54e8a", "type": "electric_scooter", "is_reserved": 0, "lon": -77.01947016666666}, {"fusion_lat": 0.0, "name": "86c520902acc68c50d6918b1f7ac9565", "is_disabled": 0, "rental_uris": {"android": "https://dc.lft.to/lastmile_qr_scan", "ios": "https://dc.lft.to/lastmile_qr_scan"}, "fusion_lon": 0.0, "lat": 38.89720066666667, "bike_id": "86c520902acc68c50d6918b1f7ac9565", "type": "electric_scooter", "is_reserved": 0, "lon": -77.044242}, {"fusion_lat": 0.0, "name": "5409ce2e477ff0c73086eed4c5ddc160", "is_disabled": 0, "rental_uris": {"android": "https://dc.lft.to/lastmile_qr_scan", "ios": "https://dc.lft.to/lastmile_qr_scan"}, "fusion_lon": 0.0, "lat": 38.9197415, "bike_id": "5409ce2e477ff0c73086eed4c5ddc160", "type": "electric_scooter", "is_reserved": 0, "lon": -77.02376883333334}, {"fusion_lat": 0.0, "name": "d7b3d0f41593a7aaa7e34d0a700ad6e4", "is_disabled": 0, "rental_uris": {"android": "https://dc.lft.to/lastmile_qr_scan", "ios": "https://dc.lft.to/lastmile_qr_scan"}, "fusion_lon": 0.0, "lat": 38.902396333333336, "bike_id": "d7b3d0f41593a7aaa7e34d0a700ad6e4", "type": "electric_scooter", "is_reserved": 0, "lon": -77.01892933333333}, {"fusion_lat": 0.0, "name": "25b0d4936e89ae5f59d97c07d29153f1", "is_disabled": 0, "rental_uris": {"android": "https://dc.lft.to/lastmile_qr_scan", "ios": "https://dc.lft.to/lastmile_qr_scan"}, "fusion_lon": 0.0, "lat": 38.90965583333333, "bike_id": "25b0d4936e89ae5f59d97c07d29153f1", "type": "electric_scooter", "is_reserved": 0, "lon": -77.03424233333334}, {"fusion_lat": 0.0, "name": "7e394141d4ddc32ee5d33f708fadd6f9", "is_disabled": 0, "rental_uris": {"android": "https://dc.lft.to/lastmile_qr_scan", "ios": "https://dc.lft.to/lastmile_qr_scan"}, "fusion_lon": 0.0, "lat": 38.901132833333335, "bike_id": "7e394141d4ddc32ee5d33f708fadd6f9", "type": "electric_scooter", "is_reserved": 0, "lon": -77.0260695}, {"fusion_lat": 0.0, "name": "d5a9223e1dd4c23fc25e60f0c198246b", "is_disabled": 0, "rental_uris": {"android": "https://dc.lft.to/lastmile_qr_scan", "ios": "https://dc.lft.to/lastmile_qr_scan"}, "fusion_lon": 0.0, "lat": 38.904696666666666, "bike_id": "d5a9223e1dd4c23fc25e60f0c198246b", "type": "electric_scooter", "is_reserved": 0, "lon": -77.03579933333333}, {"fusion_lat": 0.0, "name": "35191bf28c80e4c2071f49832e0a3baa", "is_disabled": 0, "rental_uris": {"android": "https://dc.lft.to/lastmile_qr_scan", "ios": "https://dc.lft.to/lastmile_qr_scan"}, "fusion_lon": 0.0, "lat": 38.93201533333333, "bike_id": "35191bf28c80e4c2071f49832e0a3baa", "type": "electric_scooter", "is_reserved": 0, "lon": -77.03505266666667}, {"fusion_lat": 0.0, "name": "f8450a109a3b1ecf0c9e0642cc84fa39", "is_disabled": 0, "rental_uris": {"android": "https://dc.lft.to/lastmile_qr_scan", "ios": "https://dc.lft.to/lastmile_qr_scan"}, "fusion_lon": 0.0, "lat": 38.924603166666664, "bike_id": "f8450a109a3b1ecf0c9e0642cc84fa39", "type": "electric_scooter", "is_reserved": 0, "lon": -77.05209216666667}, {"fusion_lat": 0.0, "name": "ff0f3d8e2aaea91e5e86331746cc1bc2", "is_disabled": 0, "rental_uris": {"android": "https://dc.lft.to/lastmile_qr_scan", "ios": "https://dc.lft.to/lastmile_qr_scan"}, "fusion_lon": 0.0, "lat": 38.90957733333333, "bike_id": "ff0f3d8e2aaea91e5e86331746cc1bc2", "type": "electric_scooter", "is_reserved": 0, "lon": -77.03479733333333}, {"fusion_lat": 0.0, "name": "295ee5b00561e14782e98aa7f861126b", "is_disabled": 0, "rental_uris": {"android": "https://dc.lft.to/lastmile_qr_scan", "ios": "https://dc.lft.to/lastmile_qr_scan"}, "fusion_lon": 0.0, "lat": 38.89834, "bike_id": "295ee5b00561e14782e98aa7f861126b", "type": "electric_scooter", "is_reserved": 0, "lon": -77.024829}, {"fusion_lat": 0.0, "name": "be6fa6e2736e5f5f7147dca365583bd1", "is_disabled": 0, "rental_uris": {"android": "https://dc.lft.to/lastmile_qr_scan", "ios": "https://dc.lft.to/lastmile_qr_scan"}, "fusion_lon": 0.0, "lat": 38.91807683333333, "bike_id": "be6fa6e2736e5f5f7147dca365583bd1", "type": "electric_scooter", "is_reserved": 0, "lon": -77.03196933333334}, {"fusion_lat": 0.0, "name": "fab73b32c8fc4d320cab35bb576de8ce", "is_disabled": 0, "rental_uris": {"android": "https://dc.lft.to/lastmile_qr_scan", "ios": "https://dc.lft.to/lastmile_qr_scan"}, "fusion_lon": 0.0, "lat": 38.9302305, "bike_id": "fab73b32c8fc4d320cab35bb576de8ce", "type": "electric_scooter", "is_reserved": 0, "lon": -77.03800666666666}, {"fusion_lat": 0.0, "name": "c7cf6e49af571b3c7dd93acf925294da", "is_disabled": 0, "rental_uris": {"android": "https://dc.lft.to/lastmile_qr_scan", "ios": "https://dc.lft.to/lastmile_qr_scan"}, "fusion_lon": 0.0, "lat": 38.90384, "bike_id": "c7cf6e49af571b3c7dd93acf925294da", "type": "electric_scooter", "is_reserved": 0, "lon": -76.97619066666667}, {"fusion_lat": 0.0, "name": "9bb83cdc790fec685068dd59fd663f59", "is_disabled": 0, "rental_uris": {"android": "https://dc.lft.to/lastmile_qr_scan", "ios": "https://dc.lft.to/lastmile_qr_scan"}, "fusion_lon": 0.0, "lat": 38.879517166666666, "bike_id": "9bb83cdc790fec685068dd59fd663f59", "type": "electric_scooter", "is_reserved": 0, "lon": -77.00593533333333}, {"fusion_lat": 0.0, "name": "f876570c935cffe46edbe1599879d211", "is_disabled": 0, "rental_uris": {"android": "https://dc.lft.to/lastmile_qr_scan", "ios": "https://dc.lft.to/lastmile_qr_scan"}, "fusion_lon": 0.0, "lat": 38.893663333333336, "bike_id": "f876570c935cffe46edbe1599879d211", "type": "electric_scooter", "is_reserved": 0, "lon": -77.01081083333334}, {"fusion_lat": 0.0, "name": "a51c459e830f3f8a278df5855be9254d", "is_disabled": 0, "rental_uris": {"android": "https://dc.lft.to/lastmile_qr_scan", "ios": "https://dc.lft.to/lastmile_qr_scan"}, "fusion_lon": 0.0, "lat": 38.9117425, "bike_id": "a51c459e830f3f8a278df5855be9254d", "type": "electric_scooter", "is_reserved": 0, "lon": -77.03199283333333}, {"fusion_lat": 0.0, "name": "53f1522483d642825e88120696d20317", "is_disabled": 0, "rental_uris": {"android": "https://dc.lft.to/lastmile_qr_scan", "ios": "https://dc.lft.to/lastmile_qr_scan"}, "fusion_lon": 0.0, "lat": 38.899325833333336, "bike_id": "53f1522483d642825e88120696d20317", "type": "electric_scooter", "is_reserved": 0, "lon": -77.0392915}, {"fusion_lat": 0.0, "name": "f0cf481dd8ec09c3c38ff02f5c811578", "is_disabled": 0, "rental_uris": {"android": "https://dc.lft.to/lastmile_qr_scan", "ios": "https://dc.lft.to/lastmile_qr_scan"}, "fusion_lon": 0.0, "lat": 38.921730833333335, "bike_id": "f0cf481dd8ec09c3c38ff02f5c811578", "type": "electric_scooter", "is_reserved": 0, "lon": -77.035196}, {"fusion_lat": 0.0, "name": "7f1ee2e782bd9c7e86aec84c409d414a", "is_disabled": 0, "rental_uris": {"android": "https://dc.lft.to/lastmile_qr_scan", "ios": "https://dc.lft.to/lastmile_qr_scan"}, "fusion_lon": 0.0, "lat": 38.938629666666664, "bike_id": "7f1ee2e782bd9c7e86aec84c409d414a", "type": "electric_scooter", "is_reserved": 0, "lon": -77.0317025}, {"fusion_lat": 0.0, "name": "7567cda0f479febb0dc8fb1ad579eaeb", "is_disabled": 0, "rental_uris": {"android": "https://dc.lft.to/lastmile_qr_scan", "ios": "https://dc.lft.to/lastmile_qr_scan"}, "fusion_lon": 0.0, "lat": 38.8819, "bike_id": "7567cda0f479febb0dc8fb1ad579eaeb", "type": "electric_scooter", "is_reserved": 0, "lon": -77.00353783333334}, {"fusion_lat": 0.0, "name": "8b04a86c3c2ce6aea497118421b9ff2d", "is_disabled": 0, "rental_uris": {"android": "https://dc.lft.to/lastmile_qr_scan", "ios": "https://dc.lft.to/lastmile_qr_scan"}, "fusion_lon": 0.0, "lat": 38.916758, "bike_id": "8b04a86c3c2ce6aea497118421b9ff2d", "type": "electric_scooter", "is_reserved": 0, "lon": -77.03205433333333}, {"fusion_lat": 0.0, "name": "944c687f045fc89d648acda9a3d9ceb2", "is_disabled": 0, "rental_uris": {"android": "https://dc.lft.to/lastmile_qr_scan", "ios": "https://dc.lft.to/lastmile_qr_scan"}, "fusion_lon": 0.0, "lat": 38.920150666666665, "bike_id": "944c687f045fc89d648acda9a3d9ceb2", "type": "electric_scooter", "is_reserved": 0, "lon": -77.0388755}, {"fusion_lat": 0.0, "name": "a108775a49dd275f4b9aaf941c80b92f", "is_disabled": 0, "rental_uris": {"android": "https://dc.lft.to/lastmile_qr_scan", "ios": "https://dc.lft.to/lastmile_qr_scan"}, "fusion_lon": 0.0, "lat": 38.904168, "bike_id": "a108775a49dd275f4b9aaf941c80b92f", "type": "electric_scooter", "is_reserved": 0, "lon": -77.05136833333333}, {"fusion_lat": 0.0, "name": "d8d30064bd66fde20a6c390d0b619930", "is_disabled": 0, "rental_uris": {"android": "https://dc.lft.to/lastmile_qr_scan", "ios": "https://dc.lft.to/lastmile_qr_scan"}, "fusion_lon": 0.0, "lat": 38.917888833333336, "bike_id": "d8d30064bd66fde20a6c390d0b619930", "type": "electric_scooter", "is_reserved": 0, "lon": -77.04117116666667}, {"fusion_lat": 0.0, "name": "be547e613fe59e63b341f0e683f9dba5", "is_disabled": 0, "rental_uris": {"android": "https://dc.lft.to/lastmile_qr_scan", "ios": "https://dc.lft.to/lastmile_qr_scan"}, "fusion_lon": 0.0, "lat": 38.91789516666667, "bike_id": "be547e613fe59e63b341f0e683f9dba5", "type": "electric_scooter", "is_reserved": 0, "lon": -77.04047216666666}, {"fusion_lat": 0.0, "name": "5a9d04a0e57ac04358c1c45db4af00b4", "is_disabled": 0, "rental_uris": {"android": "https://dc.lft.to/lastmile_qr_scan", "ios": "https://dc.lft.to/lastmile_qr_scan"}, "fusion_lon": 0.0, "lat": 38.91682633333333, "bike_id": "5a9d04a0e57ac04358c1c45db4af00b4", "type": "electric_scooter", "is_reserved": 0, "lon": -77.029757}, {"fusion_lat": 0.0, "name": "1b2353a0b7f27e700c7d3f168bf455d2", "is_disabled": 0, "rental_uris": {"android": "https://dc.lft.to/lastmile_qr_scan", "ios": "https://dc.lft.to/lastmile_qr_scan"}, "fusion_lon": 0.0, "lat": 38.898537166666664, "bike_id": "1b2353a0b7f27e700c7d3f168bf455d2", "type": "electric_scooter", "is_reserved": 0, "lon": -76.95033516666666}, {"fusion_lat": 0.0, "name": "5072acfd853aea6d7fb08ab7c84f4c6a", "is_disabled": 0, "rental_uris": {"android": "https://dc.lft.to/lastmile_qr_scan", "ios": "https://dc.lft.to/lastmile_qr_scan"}, "fusion_lon": 0.0, "lat": 38.885080333333335, "bike_id": "5072acfd853aea6d7fb08ab7c84f4c6a", "type": "electric_scooter", "is_reserved": 0, "lon": -76.99601066666666}, {"fusion_lat": 0.0, "name": "5698fe40b59c965c379bbe258991fff2", "is_disabled": 0, "rental_uris": {"android": "https://dc.lft.to/lastmile_qr_scan", "ios": "https://dc.lft.to/lastmile_qr_scan"}, "fusion_lon": 0.0, "lat": 38.90600116666667, "bike_id": "5698fe40b59c965c379bbe258991fff2", "type": "electric_scooter", "is_reserved": 0, "lon": -77.0467295}, {"fusion_lat": 0.0, "name": "d89284007bdf5c897003c3845cba901a", "is_disabled": 0, "rental_uris": {"android": "https://dc.lft.to/lastmile_qr_scan", "ios": "https://dc.lft.to/lastmile_qr_scan"}, "fusion_lon": 0.0, "lat": 38.91169466666667, "bike_id": "d89284007bdf5c897003c3845cba901a", "type": "electric_scooter", "is_reserved": 0, "lon": -77.03202733333333}, {"fusion_lat": 0.0, "name": "242dc5cdd018b7f4d75c9053e87b4dab", "is_disabled": 0, "rental_uris": {"android": "https://dc.lft.to/lastmile_qr_scan", "ios": "https://dc.lft.to/lastmile_qr_scan"}, "fusion_lon": 0.0, "lat": 38.899225, "bike_id": "242dc5cdd018b7f4d75c9053e87b4dab", "type": "electric_scooter", "is_reserved": 0, "lon": -77.040389}, {"fusion_lat": 0.0, "name": "989af10ce832f4eb622cc7911b2b4163", "is_disabled": 0, "rental_uris": {"android": "https://dc.lft.to/lastmile_qr_scan", "ios": "https://dc.lft.to/lastmile_qr_scan"}, "fusion_lon": 0.0, "lat": 38.89908483333333, "bike_id": "989af10ce832f4eb622cc7911b2b4163", "type": "electric_scooter", "is_reserved": 0, "lon": -77.02723366666666}, {"fusion_lat": 0.0, "name": "8490a0b13bdc89a6c54fce901b77591e", "is_disabled": 0, "rental_uris": {"android": "https://dc.lft.to/lastmile_qr_scan", "ios": "https://dc.lft.to/lastmile_qr_scan"}, "fusion_lon": 0.0, "lat": 38.94178933333333, "bike_id": "8490a0b13bdc89a6c54fce901b77591e", "type": "electric_scooter", "is_reserved": 0, "lon": -77.024932}, {"fusion_lat": 0.0, "name": "6026aafdee1e979973b942b1b8bbbc59", "is_disabled": 0, "rental_uris": {"android": "https://dc.lft.to/lastmile_qr_scan", "ios": "https://dc.lft.to/lastmile_qr_scan"}, "fusion_lon": 0.0, "lat": 38.9206065, "bike_id": "6026aafdee1e979973b942b1b8bbbc59", "type": "electric_bike", "is_reserved": 0, "lon": -77.23949883333333}, {"fusion_lat": 0.0, "name": "44cd490ad4e1aff50a4246d47db9b859", "is_disabled": 0, "rental_uris": {"android": "https://dc.lft.to/lastmile_qr_scan", "ios": "https://dc.lft.to/lastmile_qr_scan"}, "fusion_lon": 0.0, "lat": 38.92149, "bike_id": "44cd490ad4e1aff50a4246d47db9b859", "type": "electric_scooter", "is_reserved": 0, "lon": -77.04238266666667}, {"fusion_lat": 0.0, "name": "21f22cd56ee836bd50e94015389554f0", "is_disabled": 0, "rental_uris": {"android": "https://dc.lft.to/lastmile_qr_scan", "ios": "https://dc.lft.to/lastmile_qr_scan"}, "fusion_lon": 0.0, "lat": 38.920352666666666, "bike_id": "21f22cd56ee836bd50e94015389554f0", "type": "electric_bike", "is_reserved": 0, "lon": -76.97960016666667}, {"fusion_lat": 0.0, "name": "f7120a398bfec2069bcf9a0be9d1dc36", "is_disabled": 0, "rental_uris": {"android": "https://dc.lft.to/lastmile_qr_scan", "ios": "https://dc.lft.to/lastmile_qr_scan"}, "fusion_lon": 0.0, "lat": 38.807587833333336, "bike_id": "f7120a398bfec2069bcf9a0be9d1dc36", "type": "electric_bike", "is_reserved": 0, "lon": -77.1298745}, {"fusion_lat": 0.0, "name": "a72e30fb931ed6ebac2671be93895364", "is_disabled": 0, "rental_uris": {"android": "https://dc.lft.to/lastmile_qr_scan", "ios": "https://dc.lft.to/lastmile_qr_scan"}, "fusion_lon": 0.0, "lat": 38.919131, "bike_id": "a72e30fb931ed6ebac2671be93895364", "type": "electric_scooter", "is_reserved": 0, "lon": -77.02820983333334}, {"fusion_lat": 0.0, "name": "5aebf8ee446d3b7bed0fa658aafbc0f5", "is_disabled": 0, "rental_uris": {"android": "https://dc.lft.to/lastmile_qr_scan", "ios": "https://dc.lft.to/lastmile_qr_scan"}, "fusion_lon": 0.0, "lat": 38.9006595, "bike_id": "5aebf8ee446d3b7bed0fa658aafbc0f5", "type": "electric_scooter", "is_reserved": 0, "lon": -76.92749666666667}, {"fusion_lat": 0.0, "name": "26ab9a4e2ec83945c2b967870bd8b21e", "is_disabled": 0, "rental_uris": {"android": "https://dc.lft.to/lastmile_qr_scan", "ios": "https://dc.lft.to/lastmile_qr_scan"}, "fusion_lon": 0.0, "lat": 38.88726783333333, "bike_id": "26ab9a4e2ec83945c2b967870bd8b21e", "type": "electric_scooter", "is_reserved": 0, "lon": -77.0320925}, {"fusion_lat": 0.0, "name": "e3bed10d970da6ca8a8eaf26daa7852c", "is_disabled": 0, "rental_uris": {"android": "https://dc.lft.to/lastmile_qr_scan", "ios": "https://dc.lft.to/lastmile_qr_scan"}, "fusion_lon": 0.0, "lat": 38.8964655, "bike_id": "e3bed10d970da6ca8a8eaf26daa7852c", "type": "electric_scooter", "is_reserved": 0, "lon": -77.0510095}, {"fusion_lat": 0.0, "name": "6a9515099a3d08cf8ca6645fc3bad92b", "is_disabled": 0, "rental_uris": {"android": "https://dc.lft.to/lastmile_qr_scan", "ios": "https://dc.lft.to/lastmile_qr_scan"}, "fusion_lon": 0.0, "lat": 38.923531, "bike_id": "6a9515099a3d08cf8ca6645fc3bad92b", "type": "electric_scooter", "is_reserved": 0, "lon": -77.05126233333333}, {"fusion_lat": 0.0, "name": "b5fc7ddbb7830972b480349fb4964341", "is_disabled": 0, "rental_uris": {"android": "https://dc.lft.to/lastmile_qr_scan", "ios": "https://dc.lft.to/lastmile_qr_scan"}, "fusion_lon": 0.0, "lat": 38.90120483333333, "bike_id": "b5fc7ddbb7830972b480349fb4964341", "type": "electric_scooter", "is_reserved": 0, "lon": -77.002171}, {"fusion_lat": 0.0, "name": "c025260a0637e111ac7b90aab9678148", "is_disabled": 0, "rental_uris": {"android": "https://dc.lft.to/lastmile_qr_scan", "ios": "https://dc.lft.to/lastmile_qr_scan"}, "fusion_lon": 0.0, "lat": 38.89546433333334, "bike_id": "c025260a0637e111ac7b90aab9678148", "type": "electric_scooter", "is_reserved": 0, "lon": -76.949676}, {"fusion_lat": 0.0, "name": "7f1b82ce2d021062ac9bd07f1534dfe2", "is_disabled": 0, "rental_uris": {"android": "https://dc.lft.to/lastmile_qr_scan", "ios": "https://dc.lft.to/lastmile_qr_scan"}, "fusion_lon": 0.0, "lat": 38.91802766666667, "bike_id": "7f1b82ce2d021062ac9bd07f1534dfe2", "type": "electric_scooter", "is_reserved": 0, "lon": -77.02881533333333}, {"fusion_lat": 0.0, "name": "69a63a561ffb4d20a3d1ee1e3350455c", "is_disabled": 0, "rental_uris": {"android": "https://dc.lft.to/lastmile_qr_scan", "ios": "https://dc.lft.to/lastmile_qr_scan"}, "fusion_lon": 0.0, "lat": 38.875304, "bike_id": "69a63a561ffb4d20a3d1ee1e3350455c", "type": "electric_scooter", "is_reserved": 0, "lon": -77.00506716666666}, {"fusion_lat": 0.0, "name": "da4dcbb373d345905f8be373bca5d902", "is_disabled": 0, "rental_uris": {"android": "https://dc.lft.to/lastmile_qr_scan", "ios": "https://dc.lft.to/lastmile_qr_scan"}, "fusion_lon": 0.0, "lat": 38.90593766666667, "bike_id": "da4dcbb373d345905f8be373bca5d902", "type": "electric_scooter", "is_reserved": 0, "lon": -77.06305416666666}, {"fusion_lat": 0.0, "name": "3aa693a409bf556796cd9212e99261b5", "is_disabled": 0, "rental_uris": {"android": "https://dc.lft.to/lastmile_qr_scan", "ios": "https://dc.lft.to/lastmile_qr_scan"}, "fusion_lon": 0.0, "lat": 38.92753166666667, "bike_id": "3aa693a409bf556796cd9212e99261b5", "type": "electric_scooter", "is_reserved": 0, "lon": -77.02433466666666}, {"fusion_lat": 0.0, "name": "ba0f597bc86cd41a89e2c7894bd13053", "is_disabled": 0, "rental_uris": {"android": "https://dc.lft.to/lastmile_qr_scan", "ios": "https://dc.lft.to/lastmile_qr_scan"}, "fusion_lon": 0.0, "lat": 38.95755166666667, "bike_id": "ba0f597bc86cd41a89e2c7894bd13053", "type": "electric_scooter", "is_reserved": 0, "lon": -77.02057683333334}, {"fusion_lat": 0.0, "name": "d591afac986e4880eb9eea7e0bf8d537", "is_disabled": 0, "rental_uris": {"android": "https://dc.lft.to/lastmile_qr_scan", "ios": "https://dc.lft.to/lastmile_qr_scan"}, "fusion_lon": 0.0, "lat": 38.923014333333334, "bike_id": "d591afac986e4880eb9eea7e0bf8d537", "type": "electric_scooter", "is_reserved": 0, "lon": -77.0422755}, {"fusion_lat": 0.0, "name": "16eb9f60a802355a995e461ef9ca8035", "is_disabled": 0, "rental_uris": {"android": "https://dc.lft.to/lastmile_qr_scan", "ios": "https://dc.lft.to/lastmile_qr_scan"}, "fusion_lon": 0.0, "lat": 38.91179566666667, "bike_id": "16eb9f60a802355a995e461ef9ca8035", "type": "electric_bike", "is_reserved": 0, "lon": -77.03844366666667}, {"fusion_lat": 0.0, "name": "63a7b5708357383469555a028fa21d7a", "is_disabled": 0, "rental_uris": {"android": "https://dc.lft.to/lastmile_qr_scan", "ios": "https://dc.lft.to/lastmile_qr_scan"}, "fusion_lon": 0.0, "lat": 38.87179016666666, "bike_id": "63a7b5708357383469555a028fa21d7a", "type": "electric_scooter", "is_reserved": 0, "lon": -77.00616983333333}, {"fusion_lat": 0.0, "name": "4946d1058e7ba54611aeeea02ebfa36e", "is_disabled": 0, "rental_uris": {"android": "https://dc.lft.to/lastmile_qr_scan", "ios": "https://dc.lft.to/lastmile_qr_scan"}, "fusion_lon": 0.0, "lat": 38.88725783333334, "bike_id": "4946d1058e7ba54611aeeea02ebfa36e", "type": "electric_scooter", "is_reserved": 0, "lon": -77.01515483333333}, {"fusion_lat": 0.0, "name": "c700386de230d73f9c56ca2ae10f662b", "is_disabled": 0, "rental_uris": {"android": "https://dc.lft.to/lastmile_qr_scan", "ios": "https://dc.lft.to/lastmile_qr_scan"}, "fusion_lon": 0.0, "lat": 38.898285333333334, "bike_id": "c700386de230d73f9c56ca2ae10f662b", "type": "electric_scooter", "is_reserved": 0, "lon": -77.03330683333333}, {"fusion_lat": 0.0, "name": "33a3e4920a060bfaa15e066efa623584", "is_disabled": 0, "rental_uris": {"android": "https://dc.lft.to/lastmile_qr_scan", "ios": "https://dc.lft.to/lastmile_qr_scan"}, "fusion_lon": 0.0, "lat": 38.885015833333334, "bike_id": "33a3e4920a060bfaa15e066efa623584", "type": "electric_scooter", "is_reserved": 0, "lon": -76.98063883333333}, {"fusion_lat": 0.0, "name": "c78a40bb46cf1ff69027f6a0661e54aa", "is_disabled": 0, "rental_uris": {"android": "https://dc.lft.to/lastmile_qr_scan", "ios": "https://dc.lft.to/lastmile_qr_scan"}, "fusion_lon": 0.0, "lat": 38.91983716666667, "bike_id": "c78a40bb46cf1ff69027f6a0661e54aa", "type": "electric_scooter", "is_reserved": 0, "lon": -77.0236885}, {"fusion_lat": 0.0, "name": "a6d321a938616135b6641c1baa54d063", "is_disabled": 0, "rental_uris": {"android": "https://dc.lft.to/lastmile_qr_scan", "ios": "https://dc.lft.to/lastmile_qr_scan"}, "fusion_lon": 0.0, "lat": 38.906784, "bike_id": "a6d321a938616135b6641c1baa54d063", "type": "electric_scooter", "is_reserved": 0, "lon": -77.0757955}, {"fusion_lat": 0.0, "name": "ff12426f20d34b26a97e063253e69a1a", "is_disabled": 0, "rental_uris": {"android": "https://dc.lft.to/lastmile_qr_scan", "ios": "https://dc.lft.to/lastmile_qr_scan"}, "fusion_lon": 0.0, "lat": 38.90762483333334, "bike_id": "ff12426f20d34b26a97e063253e69a1a", "type": "electric_scooter", "is_reserved": 0, "lon": -77.035748}, {"fusion_lat": 0.0, "name": "6ecf7eda901bccc7cace3641868e54e0", "is_disabled": 0, "rental_uris": {"android": "https://dc.lft.to/lastmile_qr_scan", "ios": "https://dc.lft.to/lastmile_qr_scan"}, "fusion_lon": 0.0, "lat": 38.907226666666666, "bike_id": "6ecf7eda901bccc7cace3641868e54e0", "type": "electric_scooter", "is_reserved": 0, "lon": -77.04350966666667}, {"fusion_lat": 0.0, "name": "11b18948e8635dd7fbcfa3ff5904f952", "is_disabled": 0, "rental_uris": {"android": "https://dc.lft.to/lastmile_qr_scan", "ios": "https://dc.lft.to/lastmile_qr_scan"}, "fusion_lon": 0.0, "lat": 38.893501, "bike_id": "11b18948e8635dd7fbcfa3ff5904f952", "type": "electric_scooter", "is_reserved": 0, "lon": -77.03964783333333}, {"fusion_lat": 0.0, "name": "3ac390790030dc83d1509874569530b1", "is_disabled": 0, "rental_uris": {"android": "https://dc.lft.to/lastmile_qr_scan", "ios": "https://dc.lft.to/lastmile_qr_scan"}, "fusion_lon": 0.0, "lat": 38.90718616666667, "bike_id": "3ac390790030dc83d1509874569530b1", "type": "electric_scooter", "is_reserved": 0, "lon": -77.043431}, {"fusion_lat": 0.0, "name": "4077b9ca39b56e90d49e5fb4fa5ac604", "is_disabled": 0, "rental_uris": {"android": "https://dc.lft.to/lastmile_qr_scan", "ios": "https://dc.lft.to/lastmile_qr_scan"}, "fusion_lon": 0.0, "lat": 38.930304166666666, "bike_id": "4077b9ca39b56e90d49e5fb4fa5ac604", "type": "electric_scooter", "is_reserved": 0, "lon": -77.03811266666666}, {"fusion_lat": 0.0, "name": "7eb8502548467496130e347403b65c9a", "is_disabled": 0, "rental_uris": {"android": "https://dc.lft.to/lastmile_qr_scan", "ios": "https://dc.lft.to/lastmile_qr_scan"}, "fusion_lon": 0.0, "lat": 38.92085933333333, "bike_id": "7eb8502548467496130e347403b65c9a", "type": "electric_scooter", "is_reserved": 0, "lon": -77.02396766666666}, {"fusion_lat": 0.0, "name": "9735ffb5ea1c0848556cce8829df7413", "is_disabled": 0, "rental_uris": {"android": "https://dc.lft.to/lastmile_qr_scan", "ios": "https://dc.lft.to/lastmile_qr_scan"}, "fusion_lon": 0.0, "lat": 38.9305915, "bike_id": "9735ffb5ea1c0848556cce8829df7413", "type": "electric_scooter", "is_reserved": 0, "lon": -77.032163}, {"fusion_lat": 0.0, "name": "207cc06953cd1e668041e3bcbedea4b7", "is_disabled": 0, "rental_uris": {"android": "https://dc.lft.to/lastmile_qr_scan", "ios": "https://dc.lft.to/lastmile_qr_scan"}, "fusion_lon": 0.0, "lat": 38.899062, "bike_id": "207cc06953cd1e668041e3bcbedea4b7", "type": "electric_scooter", "is_reserved": 0, "lon": -76.99386716666666}, {"fusion_lat": 0.0, "name": "dc6b8cb74fd1466380dc08217cdef4d3", "is_disabled": 0, "rental_uris": {"android": "https://dc.lft.to/lastmile_qr_scan", "ios": "https://dc.lft.to/lastmile_qr_scan"}, "fusion_lon": 0.0, "lat": 38.9006345, "bike_id": "dc6b8cb74fd1466380dc08217cdef4d3", "type": "electric_scooter", "is_reserved": 0, "lon": -77.04941416666666}, {"fusion_lat": 0.0, "name": "9838ca53a06e2682ef0d45931098fc68", "is_disabled": 0, "rental_uris": {"android": "https://dc.lft.to/lastmile_qr_scan", "ios": "https://dc.lft.to/lastmile_qr_scan"}, "fusion_lon": 0.0, "lat": 38.9010415, "bike_id": "9838ca53a06e2682ef0d45931098fc68", "type": "electric_scooter", "is_reserved": 0, "lon": -77.05905666666666}, {"fusion_lat": 0.0, "name": "42275cf7b1f06023f22afb19223f7c16", "is_disabled": 0, "rental_uris": {"android": "https://dc.lft.to/lastmile_qr_scan", "ios": "https://dc.lft.to/lastmile_qr_scan"}, "fusion_lon": 0.0, "lat": 38.89527266666666, "bike_id": "42275cf7b1f06023f22afb19223f7c16", "type": "electric_scooter", "is_reserved": 0, "lon": -76.9341255}, {"fusion_lat": 0.0, "name": "87cd087c285fc522684b3527bf3589a9", "is_disabled": 0, "rental_uris": {"android": "https://dc.lft.to/lastmile_qr_scan", "ios": "https://dc.lft.to/lastmile_qr_scan"}, "fusion_lon": 0.0, "lat": 38.933376, "bike_id": "87cd087c285fc522684b3527bf3589a9", "type": "electric_scooter", "is_reserved": 0, "lon": -77.02628083333333}, {"fusion_lat": 0.0, "name": "86e3ef410d145c6336d65af2998caee6", "is_disabled": 0, "rental_uris": {"android": "https://dc.lft.to/lastmile_qr_scan", "ios": "https://dc.lft.to/lastmile_qr_scan"}, "fusion_lon": 0.0, "lat": 38.91275683333333, "bike_id": "86e3ef410d145c6336d65af2998caee6", "type": "electric_scooter", "is_reserved": 0, "lon": -77.01984816666666}, {"fusion_lat": 0.0, "name": "419f8d6758e641a0854715f8723790bf", "is_disabled": 0, "rental_uris": {"android": "https://dc.lft.to/lastmile_qr_scan", "ios": "https://dc.lft.to/lastmile_qr_scan"}, "fusion_lon": 0.0, "lat": 38.895580833333334, "bike_id": "419f8d6758e641a0854715f8723790bf", "type": "electric_scooter", "is_reserved": 0, "lon": -77.02164833333333}, {"fusion_lat": 0.0, "name": "b4f609653aa446ec3fba922f7646d690", "is_disabled": 0, "rental_uris": {"android": "https://dc.lft.to/lastmile_qr_scan", "ios": "https://dc.lft.to/lastmile_qr_scan"}, "fusion_lon": 0.0, "lat": 38.9003575, "bike_id": "b4f609653aa446ec3fba922f7646d690", "type": "electric_scooter", "is_reserved": 0, "lon": -76.98562433333333}, {"fusion_lat": 0.0, "name": "0db581e749a07f2759c2f7c0a2fa2cc2", "is_disabled": 0, "rental_uris": {"android": "https://dc.lft.to/lastmile_qr_scan", "ios": "https://dc.lft.to/lastmile_qr_scan"}, "fusion_lon": 0.0, "lat": 38.912646, "bike_id": "0db581e749a07f2759c2f7c0a2fa2cc2", "type": "electric_scooter", "is_reserved": 0, "lon": -77.019318}, {"fusion_lat": 0.0, "name": "6a2b990bfe5aa59ffa2fc172fb2504a8", "is_disabled": 0, "rental_uris": {"android": "https://dc.lft.to/lastmile_qr_scan", "ios": "https://dc.lft.to/lastmile_qr_scan"}, "fusion_lon": 0.0, "lat": 38.95617433333334, "bike_id": "6a2b990bfe5aa59ffa2fc172fb2504a8", "type": "electric_bike", "is_reserved": 0, "lon": -76.93876233333333}, {"fusion_lat": 0.0, "name": "570065a7c9ade495467c3f86c9097e51", "is_disabled": 0, "rental_uris": {"android": "https://dc.lft.to/lastmile_qr_scan", "ios": "https://dc.lft.to/lastmile_qr_scan"}, "fusion_lon": 0.0, "lat": 38.931293833333335, "bike_id": "570065a7c9ade495467c3f86c9097e51", "type": "electric_scooter", "is_reserved": 0, "lon": -77.03855416666667}, {"fusion_lat": 0.0, "name": "a8992ebe18819cb3c1ce779a6493334c", "is_disabled": 0, "rental_uris": {"android": "https://dc.lft.to/lastmile_qr_scan", "ios": "https://dc.lft.to/lastmile_qr_scan"}, "fusion_lon": 0.0, "lat": 38.892223666666666, "bike_id": "a8992ebe18819cb3c1ce779a6493334c", "type": "electric_scooter", "is_reserved": 0, "lon": -77.02052333333333}, {"fusion_lat": 0.0, "name": "f8e6614e1abb8692a3e82714e0665762", "is_disabled": 0, "rental_uris": {"android": "https://dc.lft.to/lastmile_qr_scan", "ios": "https://dc.lft.to/lastmile_qr_scan"}, "fusion_lon": 0.0, "lat": 38.8862225, "bike_id": "f8e6614e1abb8692a3e82714e0665762", "type": "electric_scooter", "is_reserved": 0, "lon": -77.02833233333334}, {"fusion_lat": 0.0, "name": "556e72af2fa35ff9460c446498f85655", "is_disabled": 0, "rental_uris": {"android": "https://dc.lft.to/lastmile_qr_scan", "ios": "https://dc.lft.to/lastmile_qr_scan"}, "fusion_lon": 0.0, "lat": 38.922206333333335, "bike_id": "556e72af2fa35ff9460c446498f85655", "type": "electric_scooter", "is_reserved": 0, "lon": -77.0424705}, {"fusion_lat": 0.0, "name": "ecf6aaa55d2489eabbd27305bcc2cef0", "is_disabled": 0, "rental_uris": {"android": "https://dc.lft.to/lastmile_qr_scan", "ios": "https://dc.lft.to/lastmile_qr_scan"}, "fusion_lon": 0.0, "lat": 38.91704933333333, "bike_id": "ecf6aaa55d2489eabbd27305bcc2cef0", "type": "electric_scooter", "is_reserved": 0, "lon": -77.02414183333333}, {"fusion_lat": 0.0, "name": "506d76000e31cc559703d5b4b3df8a6e", "is_disabled": 0, "rental_uris": {"android": "https://dc.lft.to/lastmile_qr_scan", "ios": "https://dc.lft.to/lastmile_qr_scan"}, "fusion_lon": 0.0, "lat": 38.91572383333333, "bike_id": "506d76000e31cc559703d5b4b3df8a6e", "type": "electric_scooter", "is_reserved": 0, "lon": -77.03217216666667}, {"fusion_lat": 0.0, "name": "533d3b0e252c5c2b41e01e012c0a93d3", "is_disabled": 0, "rental_uris": {"android": "https://dc.lft.to/lastmile_qr_scan", "ios": "https://dc.lft.to/lastmile_qr_scan"}, "fusion_lon": 0.0, "lat": 38.904976166666664, "bike_id": "533d3b0e252c5c2b41e01e012c0a93d3", "type": "electric_scooter", "is_reserved": 0, "lon": -77.06031033333333}, {"fusion_lat": 0.0, "name": "e6d37c68c3b2943ab607a330b5c77a98", "is_disabled": 0, "rental_uris": {"android": "https://dc.lft.to/lastmile_qr_scan", "ios": "https://dc.lft.to/lastmile_qr_scan"}, "fusion_lon": 0.0, "lat": 38.91564233333333, "bike_id": "e6d37c68c3b2943ab607a330b5c77a98", "type": "electric_scooter", "is_reserved": 0, "lon": -77.03141683333334}, {"fusion_lat": 0.0, "name": "eb558a35867436704e4679cdbbca68a8", "is_disabled": 0, "rental_uris": {"android": "https://dc.lft.to/lastmile_qr_scan", "ios": "https://dc.lft.to/lastmile_qr_scan"}, "fusion_lon": 0.0, "lat": 38.9156025, "bike_id": "eb558a35867436704e4679cdbbca68a8", "type": "electric_scooter", "is_reserved": 0, "lon": -77.01063316666666}, {"fusion_lat": 0.0, "name": "8b417220d0128ae79608204bfa32a1e3", "is_disabled": 0, "rental_uris": {"android": "https://dc.lft.to/lastmile_qr_scan", "ios": "https://dc.lft.to/lastmile_qr_scan"}, "fusion_lon": 0.0, "lat": 38.9196235, "bike_id": "8b417220d0128ae79608204bfa32a1e3", "type": "electric_scooter", "is_reserved": 0, "lon": -77.04159033333333}, {"fusion_lat": 0.0, "name": "d9931e2760b86bd90290ab9388225c94", "is_disabled": 0, "rental_uris": {"android": "https://dc.lft.to/lastmile_qr_scan", "ios": "https://dc.lft.to/lastmile_qr_scan"}, "fusion_lon": 0.0, "lat": 38.931746, "bike_id": "d9931e2760b86bd90290ab9388225c94", "type": "electric_scooter", "is_reserved": 0, "lon": -77.037095}, {"fusion_lat": 0.0, "name": "b4b69b015f94d545c108169b94c9397a", "is_disabled": 0, "rental_uris": {"android": "https://dc.lft.to/lastmile_qr_scan", "ios": "https://dc.lft.to/lastmile_qr_scan"}, "fusion_lon": 0.0, "lat": 38.9057375, "bike_id": "b4b69b015f94d545c108169b94c9397a", "type": "electric_scooter", "is_reserved": 0, "lon": -77.0407695}, {"fusion_lat": 0.0, "name": "572cb06d240504881a9a22a02238ccf3", "is_disabled": 0, "rental_uris": {"android": "https://dc.lft.to/lastmile_qr_scan", "ios": "https://dc.lft.to/lastmile_qr_scan"}, "fusion_lon": 0.0, "lat": 38.934506, "bike_id": "572cb06d240504881a9a22a02238ccf3", "type": "electric_scooter", "is_reserved": 0, "lon": -77.0386815}, {"fusion_lat": 0.0, "name": "62781f6f5a68ed601d00c2ed3cc1b6ac", "is_disabled": 0, "rental_uris": {"android": "https://dc.lft.to/lastmile_qr_scan", "ios": "https://dc.lft.to/lastmile_qr_scan"}, "fusion_lon": 0.0, "lat": 38.928105333333335, "bike_id": "62781f6f5a68ed601d00c2ed3cc1b6ac", "type": "electric_scooter", "is_reserved": 0, "lon": -77.02331183333334}, {"fusion_lat": 0.0, "name": "f0a005eac45492b7e78ab356d4729884", "is_disabled": 0, "rental_uris": {"android": "https://dc.lft.to/lastmile_qr_scan", "ios": "https://dc.lft.to/lastmile_qr_scan"}, "fusion_lon": 0.0, "lat": 38.892725666666664, "bike_id": "f0a005eac45492b7e78ab356d4729884", "type": "electric_scooter", "is_reserved": 0, "lon": -77.0315295}, {"fusion_lat": 0.0, "name": "6b68312e53e29259a528385ae8570236", "is_disabled": 0, "rental_uris": {"android": "https://dc.lft.to/lastmile_qr_scan", "ios": "https://dc.lft.to/lastmile_qr_scan"}, "fusion_lon": 0.0, "lat": 38.89796783333333, "bike_id": "6b68312e53e29259a528385ae8570236", "type": "electric_scooter", "is_reserved": 0, "lon": -76.984609}, {"fusion_lat": 0.0, "name": "3038d576fdc48da8e4d048782a67b0d0", "is_disabled": 0, "rental_uris": {"android": "https://dc.lft.to/lastmile_qr_scan", "ios": "https://dc.lft.to/lastmile_qr_scan"}, "fusion_lon": 0.0, "lat": 38.8952505, "bike_id": "3038d576fdc48da8e4d048782a67b0d0", "type": "electric_scooter", "is_reserved": 0, "lon": -77.02697266666667}, {"fusion_lat": 0.0, "name": "ca5c117573aed0104f56c2fee664e058", "is_disabled": 0, "rental_uris": {"android": "https://dc.lft.to/lastmile_qr_scan", "ios": "https://dc.lft.to/lastmile_qr_scan"}, "fusion_lon": 0.0, "lat": 38.91661033333333, "bike_id": "ca5c117573aed0104f56c2fee664e058", "type": "electric_scooter", "is_reserved": 0, "lon": -77.03859683333333}, {"fusion_lat": 0.0, "name": "9df8132f21894802c722bf922b787c47", "is_disabled": 0, "rental_uris": {"android": "https://dc.lft.to/lastmile_qr_scan", "ios": "https://dc.lft.to/lastmile_qr_scan"}, "fusion_lon": 0.0, "lat": 38.892273333333335, "bike_id": "9df8132f21894802c722bf922b787c47", "type": "electric_scooter", "is_reserved": 0, "lon": -77.0239475}, {"fusion_lat": 0.0, "name": "bb6aa6a629d17da2d01b67590a054596", "is_disabled": 0, "rental_uris": {"android": "https://dc.lft.to/lastmile_qr_scan", "ios": "https://dc.lft.to/lastmile_qr_scan"}, "fusion_lon": 0.0, "lat": 38.8715995, "bike_id": "bb6aa6a629d17da2d01b67590a054596", "type": "electric_scooter", "is_reserved": 0, "lon": -77.00579616666667}, {"fusion_lat": 0.0, "name": "39801fbb8df4932da38d1b349883f37e", "is_disabled": 0, "rental_uris": {"android": "https://dc.lft.to/lastmile_qr_scan", "ios": "https://dc.lft.to/lastmile_qr_scan"}, "fusion_lon": 0.0, "lat": 38.92811066666667, "bike_id": "39801fbb8df4932da38d1b349883f37e", "type": "electric_scooter", "is_reserved": 0, "lon": -77.04337866666667}, {"fusion_lat": 0.0, "name": "76a8029c584ce2172926abcbdd0889e0", "is_disabled": 0, "rental_uris": {"android": "https://dc.lft.to/lastmile_qr_scan", "ios": "https://dc.lft.to/lastmile_qr_scan"}, "fusion_lon": 0.0, "lat": 38.902973, "bike_id": "76a8029c584ce2172926abcbdd0889e0", "type": "electric_scooter", "is_reserved": 0, "lon": -77.04959316666667}, {"fusion_lat": 0.0, "name": "ee453ff2d083dcaddffd4f7b25efe63c", "is_disabled": 0, "rental_uris": {"android": "https://dc.lft.to/lastmile_qr_scan", "ios": "https://dc.lft.to/lastmile_qr_scan"}, "fusion_lon": 0.0, "lat": 38.8586865, "bike_id": "ee453ff2d083dcaddffd4f7b25efe63c", "type": "electric_bike", "is_reserved": 0, "lon": -77.09554516666667}, {"fusion_lat": 0.0, "name": "735180096e72fb8456d40c91473abef8", "is_disabled": 0, "rental_uris": {"android": "https://dc.lft.to/lastmile_qr_scan", "ios": "https://dc.lft.to/lastmile_qr_scan"}, "fusion_lon": 0.0, "lat": 38.90222083333333, "bike_id": "735180096e72fb8456d40c91473abef8", "type": "electric_scooter", "is_reserved": 0, "lon": -77.01849033333333}, {"fusion_lat": 0.0, "name": "1cc220f37b8c0ffbd8e486e0e84aa175", "is_disabled": 0, "rental_uris": {"android": "https://dc.lft.to/lastmile_qr_scan", "ios": "https://dc.lft.to/lastmile_qr_scan"}, "fusion_lon": 0.0, "lat": 38.9669865, "bike_id": "1cc220f37b8c0ffbd8e486e0e84aa175", "type": "electric_bike", "is_reserved": 0, "lon": -77.02833116666666}, {"fusion_lat": 0.0, "name": "03b55538926aae735aad58b1769f0f46", "is_disabled": 0, "rental_uris": {"android": "https://dc.lft.to/lastmile_qr_scan", "ios": "https://dc.lft.to/lastmile_qr_scan"}, "fusion_lon": 0.0, "lat": 38.9206435, "bike_id": "03b55538926aae735aad58b1769f0f46", "type": "electric_scooter", "is_reserved": 0, "lon": -77.02209783333333}, {"fusion_lat": 0.0, "name": "ec919064a063cb98b98fc9db34c12d4a", "is_disabled": 0, "rental_uris": {"android": "https://dc.lft.to/lastmile_qr_scan", "ios": "https://dc.lft.to/lastmile_qr_scan"}, "fusion_lon": 0.0, "lat": 38.87175, "bike_id": "ec919064a063cb98b98fc9db34c12d4a", "type": "electric_scooter", "is_reserved": 0, "lon": -77.00903016666666}, {"fusion_lat": 0.0, "name": "ed02195365ebb07cbbc7c951256c9fe8", "is_disabled": 0, "rental_uris": {"android": "https://dc.lft.to/lastmile_qr_scan", "ios": "https://dc.lft.to/lastmile_qr_scan"}, "fusion_lon": 0.0, "lat": 38.903835666666666, "bike_id": "ed02195365ebb07cbbc7c951256c9fe8", "type": "electric_scooter", "is_reserved": 0, "lon": -77.01645616666667}, {"fusion_lat": 0.0, "name": "c62b23cabfbc49ba09976856b765b58d", "is_disabled": 0, "rental_uris": {"android": "https://dc.lft.to/lastmile_qr_scan", "ios": "https://dc.lft.to/lastmile_qr_scan"}, "fusion_lon": 0.0, "lat": 38.92330883333333, "bike_id": "c62b23cabfbc49ba09976856b765b58d", "type": "electric_scooter", "is_reserved": 0, "lon": -77.03415116666666}, {"fusion_lat": 0.0, "name": "2c517d9f282e2609dcdc131d613d0b6b", "is_disabled": 0, "rental_uris": {"android": "https://dc.lft.to/lastmile_qr_scan", "ios": "https://dc.lft.to/lastmile_qr_scan"}, "fusion_lon": 0.0, "lat": 38.892378666666666, "bike_id": "2c517d9f282e2609dcdc131d613d0b6b", "type": "electric_scooter", "is_reserved": 0, "lon": -77.03960133333334}, {"fusion_lat": 0.0, "name": "2ee74f4b037f37ccddbd61d560f83b73", "is_disabled": 0, "rental_uris": {"android": "https://dc.lft.to/lastmile_qr_scan", "ios": "https://dc.lft.to/lastmile_qr_scan"}, "fusion_lon": 0.0, "lat": 38.904639833333334, "bike_id": "2ee74f4b037f37ccddbd61d560f83b73", "type": "electric_scooter", "is_reserved": 0, "lon": -77.05348}, {"fusion_lat": 0.0, "name": "a2305a1f0fbe7f870a5835005d33fc10", "is_disabled": 0, "rental_uris": {"android": "https://dc.lft.to/lastmile_qr_scan", "ios": "https://dc.lft.to/lastmile_qr_scan"}, "fusion_lon": 0.0, "lat": 38.92211433333333, "bike_id": "a2305a1f0fbe7f870a5835005d33fc10", "type": "electric_scooter", "is_reserved": 0, "lon": -77.02020333333333}, {"fusion_lat": 0.0, "name": "d8706128bc926f81d3a878e68a8120cf", "is_disabled": 0, "rental_uris": {"android": "https://dc.lft.to/lastmile_qr_scan", "ios": "https://dc.lft.to/lastmile_qr_scan"}, "fusion_lon": 0.0, "lat": 38.920661833333334, "bike_id": "d8706128bc926f81d3a878e68a8120cf", "type": "electric_scooter", "is_reserved": 0, "lon": -77.01477383333334}, {"fusion_lat": 0.0, "name": "94dc7db719cfbb8ee6f1606c1b724574", "is_disabled": 0, "rental_uris": {"android": "https://dc.lft.to/lastmile_qr_scan", "ios": "https://dc.lft.to/lastmile_qr_scan"}, "fusion_lon": 0.0, "lat": 38.89230933333333, "bike_id": "94dc7db719cfbb8ee6f1606c1b724574", "type": "electric_scooter", "is_reserved": 0, "lon": -77.02386383333334}, {"fusion_lat": 0.0, "name": "048bc6c1a1bfdc2ea1ba7e97127d23a8", "is_disabled": 0, "rental_uris": {"android": "https://dc.lft.to/lastmile_qr_scan", "ios": "https://dc.lft.to/lastmile_qr_scan"}, "fusion_lon": 0.0, "lat": 38.8766035, "bike_id": "048bc6c1a1bfdc2ea1ba7e97127d23a8", "type": "electric_scooter", "is_reserved": 0, "lon": -77.00331533333333}, {"fusion_lat": 0.0, "name": "1e74a900287a46647a2eb17b619e0085", "is_disabled": 0, "rental_uris": {"android": "https://dc.lft.to/lastmile_qr_scan", "ios": "https://dc.lft.to/lastmile_qr_scan"}, "fusion_lon": 0.0, "lat": 38.93075366666667, "bike_id": "1e74a900287a46647a2eb17b619e0085", "type": "electric_scooter", "is_reserved": 0, "lon": -77.0200465}, {"fusion_lat": 0.0, "name": "536f9fbef486158c37d651fd0f7f3b82", "is_disabled": 0, "rental_uris": {"android": "https://dc.lft.to/lastmile_qr_scan", "ios": "https://dc.lft.to/lastmile_qr_scan"}, "fusion_lon": 0.0, "lat": 38.99384166666667, "bike_id": "536f9fbef486158c37d651fd0f7f3b82", "type": "electric_bike", "is_reserved": 0, "lon": -76.92889983333333}, {"fusion_lat": 0.0, "name": "a91c4d9dce347bb45454a971e2e30b1b", "is_disabled": 0, "rental_uris": {"android": "https://dc.lft.to/lastmile_qr_scan", "ios": "https://dc.lft.to/lastmile_qr_scan"}, "fusion_lon": 0.0, "lat": 38.90798766666666, "bike_id": "a91c4d9dce347bb45454a971e2e30b1b", "type": "electric_scooter", "is_reserved": 0, "lon": -77.03484016666667}, {"fusion_lat": 0.0, "name": "1ede9de96515fba257c4c33779ed08b4", "is_disabled": 0, "rental_uris": {"android": "https://dc.lft.to/lastmile_qr_scan", "ios": "https://dc.lft.to/lastmile_qr_scan"}, "fusion_lon": 0.0, "lat": 38.917567166666664, "bike_id": "1ede9de96515fba257c4c33779ed08b4", "type": "electric_scooter", "is_reserved": 0, "lon": -77.016113}, {"fusion_lat": 0.0, "name": "1122fb76a4660ac685331874ce9459db", "is_disabled": 0, "rental_uris": {"android": "https://dc.lft.to/lastmile_qr_scan", "ios": "https://dc.lft.to/lastmile_qr_scan"}, "fusion_lon": 0.0, "lat": 38.91672283333333, "bike_id": "1122fb76a4660ac685331874ce9459db", "type": "electric_scooter", "is_reserved": 0, "lon": -77.02718816666666}, {"fusion_lat": 0.0, "name": "aee46bd5e3de62b7fa4ba8d900ace726", "is_disabled": 0, "rental_uris": {"android": "https://dc.lft.to/lastmile_qr_scan", "ios": "https://dc.lft.to/lastmile_qr_scan"}, "fusion_lon": 0.0, "lat": 38.90136916666667, "bike_id": "aee46bd5e3de62b7fa4ba8d900ace726", "type": "electric_scooter", "is_reserved": 0, "lon": -77.04485016666666}, {"fusion_lat": 0.0, "name": "db18d949a871bf2123f0209f78afe8c7", "is_disabled": 0, "rental_uris": {"android": "https://dc.lft.to/lastmile_qr_scan", "ios": "https://dc.lft.to/lastmile_qr_scan"}, "fusion_lon": 0.0, "lat": 38.92036683333333, "bike_id": "db18d949a871bf2123f0209f78afe8c7", "type": "electric_scooter", "is_reserved": 0, "lon": -77.034145}, {"fusion_lat": 0.0, "name": "8beba56b1a1eeb0865eeda1f4623b9fb", "is_disabled": 0, "rental_uris": {"android": "https://dc.lft.to/lastmile_qr_scan", "ios": "https://dc.lft.to/lastmile_qr_scan"}, "fusion_lon": 0.0, "lat": 38.898479, "bike_id": "8beba56b1a1eeb0865eeda1f4623b9fb", "type": "electric_scooter", "is_reserved": 0, "lon": -76.99035216666667}, {"fusion_lat": 0.0, "name": "36b05e347e903434624f91fc90b1c12b", "is_disabled": 0, "rental_uris": {"android": "https://dc.lft.to/lastmile_qr_scan", "ios": "https://dc.lft.to/lastmile_qr_scan"}, "fusion_lon": 0.0, "lat": 38.878200666666665, "bike_id": "36b05e347e903434624f91fc90b1c12b", "type": "electric_scooter", "is_reserved": 0, "lon": -77.001383}, {"fusion_lat": 0.0, "name": "bd528cf7df979169182f4e0bf88cac75", "is_disabled": 0, "rental_uris": {"android": "https://dc.lft.to/lastmile_qr_scan", "ios": "https://dc.lft.to/lastmile_qr_scan"}, "fusion_lon": 0.0, "lat": 38.931085333333336, "bike_id": "bd528cf7df979169182f4e0bf88cac75", "type": "electric_scooter", "is_reserved": 0, "lon": -77.03027966666667}, {"fusion_lat": 0.0, "name": "96dc46b5f9cb5b2f2666bf955f48de77", "is_disabled": 0, "rental_uris": {"android": "https://dc.lft.to/lastmile_qr_scan", "ios": "https://dc.lft.to/lastmile_qr_scan"}, "fusion_lon": 0.0, "lat": 38.919154666666664, "bike_id": "96dc46b5f9cb5b2f2666bf955f48de77", "type": "electric_scooter", "is_reserved": 0, "lon": -77.031938}, {"fusion_lat": 0.0, "name": "33173e12a4ad8aed32e8771c4c279cea", "is_disabled": 0, "rental_uris": {"android": "https://dc.lft.to/lastmile_qr_scan", "ios": "https://dc.lft.to/lastmile_qr_scan"}, "fusion_lon": 0.0, "lat": 38.865093333333334, "bike_id": "33173e12a4ad8aed32e8771c4c279cea", "type": "electric_bike", "is_reserved": 0, "lon": -76.97331666666666}, {"fusion_lat": 0.0, "name": "a706bba8c620da64f6a91ef83732be6d", "is_disabled": 0, "rental_uris": {"android": "https://dc.lft.to/lastmile_qr_scan", "ios": "https://dc.lft.to/lastmile_qr_scan"}, "fusion_lon": 0.0, "lat": 38.917177, "bike_id": "a706bba8c620da64f6a91ef83732be6d", "type": "electric_scooter", "is_reserved": 0, "lon": -77.03208416666666}, {"fusion_lat": 0.0, "name": "1abdb98948f481f7ce3468c6721cc894", "is_disabled": 0, "rental_uris": {"android": "https://dc.lft.to/lastmile_qr_scan", "ios": "https://dc.lft.to/lastmile_qr_scan"}, "fusion_lon": 0.0, "lat": 38.918457, "bike_id": "1abdb98948f481f7ce3468c6721cc894", "type": "electric_scooter", "is_reserved": 0, "lon": -77.02393033333334}, {"fusion_lat": 0.0, "name": "c74720e38a4d40a52905e0c2c2be6644", "is_disabled": 0, "rental_uris": {"android": "https://dc.lft.to/lastmile_qr_scan", "ios": "https://dc.lft.to/lastmile_qr_scan"}, "fusion_lon": 0.0, "lat": 38.88743616666667, "bike_id": "c74720e38a4d40a52905e0c2c2be6644", "type": "electric_scooter", "is_reserved": 0, "lon": -77.02267483333334}, {"fusion_lat": 0.0, "name": "42736d9ef21240cfe005ed7e5d2d5f9d", "is_disabled": 0, "rental_uris": {"android": "https://dc.lft.to/lastmile_qr_scan", "ios": "https://dc.lft.to/lastmile_qr_scan"}, "fusion_lon": 0.0, "lat": 38.84911783333333, "bike_id": "42736d9ef21240cfe005ed7e5d2d5f9d", "type": "electric_bike", "is_reserved": 0, "lon": -77.09984333333334}, {"fusion_lat": 0.0, "name": "5391f7a27984bd45ea109bf21f859476", "is_disabled": 0, "rental_uris": {"android": "https://dc.lft.to/lastmile_qr_scan", "ios": "https://dc.lft.to/lastmile_qr_scan"}, "fusion_lon": 0.0, "lat": 38.901050166666664, "bike_id": "5391f7a27984bd45ea109bf21f859476", "type": "electric_scooter", "is_reserved": 0, "lon": -77.03177383333333}, {"fusion_lat": 0.0, "name": "fd4bc4e5068d334934ba32d93a2445e9", "is_disabled": 0, "rental_uris": {"android": "https://dc.lft.to/lastmile_qr_scan", "ios": "https://dc.lft.to/lastmile_qr_scan"}, "fusion_lon": 0.0, "lat": 38.91660783333333, "bike_id": "fd4bc4e5068d334934ba32d93a2445e9", "type": "electric_scooter", "is_reserved": 0, "lon": -77.03864333333334}, {"fusion_lat": 0.0, "name": "304df43e6cd08ded81f2e3488f8d6a37", "is_disabled": 0, "rental_uris": {"android": "https://dc.lft.to/lastmile_qr_scan", "ios": "https://dc.lft.to/lastmile_qr_scan"}, "fusion_lon": 0.0, "lat": 38.919881, "bike_id": "304df43e6cd08ded81f2e3488f8d6a37", "type": "electric_scooter", "is_reserved": 0, "lon": -77.041945}, {"fusion_lat": 0.0, "name": "0077631ee6c2027445dd1ac67f7866bd", "is_disabled": 0, "rental_uris": {"android": "https://dc.lft.to/lastmile_qr_scan", "ios": "https://dc.lft.to/lastmile_qr_scan"}, "fusion_lon": 0.0, "lat": 38.915911666666666, "bike_id": "0077631ee6c2027445dd1ac67f7866bd", "type": "electric_scooter", "is_reserved": 0, "lon": -77.04495733333333}, {"fusion_lat": 0.0, "name": "2d01f7b4369ab0be241e5fab0c0559cb", "is_disabled": 0, "rental_uris": {"android": "https://dc.lft.to/lastmile_qr_scan", "ios": "https://dc.lft.to/lastmile_qr_scan"}, "fusion_lon": 0.0, "lat": 38.88898566666667, "bike_id": "2d01f7b4369ab0be241e5fab0c0559cb", "type": "electric_scooter", "is_reserved": 0, "lon": -76.99206216666667}, {"fusion_lat": 0.0, "name": "abae3c31f8f7faa4e34ecf7e638edce8", "is_disabled": 0, "rental_uris": {"android": "https://dc.lft.to/lastmile_qr_scan", "ios": "https://dc.lft.to/lastmile_qr_scan"}, "fusion_lon": 0.0, "lat": 38.90848366666667, "bike_id": "abae3c31f8f7faa4e34ecf7e638edce8", "type": "electric_scooter", "is_reserved": 0, "lon": -77.02397833333333}, {"fusion_lat": 0.0, "name": "0f9d833428d0c3d58aabc3b02edad5e1", "is_disabled": 0, "rental_uris": {"android": "https://dc.lft.to/lastmile_qr_scan", "ios": "https://dc.lft.to/lastmile_qr_scan"}, "fusion_lon": 0.0, "lat": 38.917086166666664, "bike_id": "0f9d833428d0c3d58aabc3b02edad5e1", "type": "electric_scooter", "is_reserved": 0, "lon": -77.02972}, {"fusion_lat": 0.0, "name": "fc7ca80bd031fba8933b943fc1f0436d", "is_disabled": 0, "rental_uris": {"android": "https://dc.lft.to/lastmile_qr_scan", "ios": "https://dc.lft.to/lastmile_qr_scan"}, "fusion_lon": 0.0, "lat": 38.940802166666664, "bike_id": "fc7ca80bd031fba8933b943fc1f0436d", "type": "electric_bike", "is_reserved": 0, "lon": -77.000239}, {"fusion_lat": 0.0, "name": "b7c082ea362e7c7096b7489c731a0ad8", "is_disabled": 0, "rental_uris": {"android": "https://dc.lft.to/lastmile_qr_scan", "ios": "https://dc.lft.to/lastmile_qr_scan"}, "fusion_lon": 0.0, "lat": 38.88718566666667, "bike_id": "b7c082ea362e7c7096b7489c731a0ad8", "type": "electric_scooter", "is_reserved": 0, "lon": -77.02582383333333}, {"fusion_lat": 0.0, "name": "9eb5253203d5953f3571a88afae6fe3c", "is_disabled": 0, "rental_uris": {"android": "https://dc.lft.to/lastmile_qr_scan", "ios": "https://dc.lft.to/lastmile_qr_scan"}, "fusion_lon": 0.0, "lat": 38.90442483333333, "bike_id": "9eb5253203d5953f3571a88afae6fe3c", "type": "electric_scooter", "is_reserved": 0, "lon": -77.058828}, {"fusion_lat": 0.0, "name": "86117bef2292dfacf098344a40fb8a63", "is_disabled": 0, "rental_uris": {"android": "https://dc.lft.to/lastmile_qr_scan", "ios": "https://dc.lft.to/lastmile_qr_scan"}, "fusion_lon": 0.0, "lat": 38.941593833333336, "bike_id": "86117bef2292dfacf098344a40fb8a63", "type": "electric_bike", "is_reserved": 0, "lon": -76.966509}, {"fusion_lat": 0.0, "name": "de4360cc675301c6023b97bfa4835c91", "is_disabled": 0, "rental_uris": {"android": "https://dc.lft.to/lastmile_qr_scan", "ios": "https://dc.lft.to/lastmile_qr_scan"}, "fusion_lon": 0.0, "lat": 38.984195166666666, "bike_id": "de4360cc675301c6023b97bfa4835c91", "type": "electric_scooter", "is_reserved": 0, "lon": -77.0354415}, {"fusion_lat": 0.0, "name": "cfc611dfb12ba574c0e1e5ef663c9045", "is_disabled": 0, "rental_uris": {"android": "https://dc.lft.to/lastmile_qr_scan", "ios": "https://dc.lft.to/lastmile_qr_scan"}, "fusion_lon": 0.0, "lat": 38.895407, "bike_id": "cfc611dfb12ba574c0e1e5ef663c9045", "type": "electric_scooter", "is_reserved": 0, "lon": -77.02403416666667}, {"fusion_lat": 0.0, "name": "1a122bd7f6ef0b7932fd48a21bc764b7", "is_disabled": 0, "rental_uris": {"android": "https://dc.lft.to/lastmile_qr_scan", "ios": "https://dc.lft.to/lastmile_qr_scan"}, "fusion_lon": 0.0, "lat": 38.8735975, "bike_id": "1a122bd7f6ef0b7932fd48a21bc764b7", "type": "electric_scooter", "is_reserved": 0, "lon": -77.00129883333334}, {"fusion_lat": 0.0, "name": "4127d678dc841a8b2ab5e43915b66d19", "is_disabled": 0, "rental_uris": {"android": "https://dc.lft.to/lastmile_qr_scan", "ios": "https://dc.lft.to/lastmile_qr_scan"}, "fusion_lon": 0.0, "lat": 38.9878575, "bike_id": "4127d678dc841a8b2ab5e43915b66d19", "type": "electric_bike", "is_reserved": 0, "lon": -77.14104633333334}, {"fusion_lat": 0.0, "name": "ef5910ba8e93fa4538eb6a6805f1c0e5", "is_disabled": 0, "rental_uris": {"android": "https://dc.lft.to/lastmile_qr_scan", "ios": "https://dc.lft.to/lastmile_qr_scan"}, "fusion_lon": 0.0, "lat": 38.95272666666666, "bike_id": "ef5910ba8e93fa4538eb6a6805f1c0e5", "type": "electric_scooter", "is_reserved": 0, "lon": -77.0021935}, {"fusion_lat": 0.0, "name": "87ea397f53f5e3da34f388f7924de2be", "is_disabled": 0, "rental_uris": {"android": "https://dc.lft.to/lastmile_qr_scan", "ios": "https://dc.lft.to/lastmile_qr_scan"}, "fusion_lon": 0.0, "lat": 38.892148, "bike_id": "87ea397f53f5e3da34f388f7924de2be", "type": "electric_scooter", "is_reserved": 0, "lon": -76.957485}, {"fusion_lat": 0.0, "name": "38e1031fb969a1bb068e921e2b5e65d7", "is_disabled": 0, "rental_uris": {"android": "https://dc.lft.to/lastmile_qr_scan", "ios": "https://dc.lft.to/lastmile_qr_scan"}, "fusion_lon": 0.0, "lat": 38.89569816666667, "bike_id": "38e1031fb969a1bb068e921e2b5e65d7", "type": "electric_scooter", "is_reserved": 0, "lon": -76.98322583333334}, {"fusion_lat": 0.0, "name": "b4fbd75e8eca79d59f634e11cbf868bb", "is_disabled": 0, "rental_uris": {"android": "https://dc.lft.to/lastmile_qr_scan", "ios": "https://dc.lft.to/lastmile_qr_scan"}, "fusion_lon": 0.0, "lat": 38.91705783333333, "bike_id": "b4fbd75e8eca79d59f634e11cbf868bb", "type": "electric_scooter", "is_reserved": 0, "lon": -77.02417733333333}, {"fusion_lat": 0.0, "name": "193595eedb386d4cce9ad4245edb4341", "is_disabled": 0, "rental_uris": {"android": "https://dc.lft.to/lastmile_qr_scan", "ios": "https://dc.lft.to/lastmile_qr_scan"}, "fusion_lon": 0.0, "lat": 38.88760716666667, "bike_id": "193595eedb386d4cce9ad4245edb4341", "type": "electric_scooter", "is_reserved": 0, "lon": -76.9558105}, {"fusion_lat": 0.0, "name": "43e75389f6b22769f9ee3285d6250e5e", "is_disabled": 0, "rental_uris": {"android": "https://dc.lft.to/lastmile_qr_scan", "ios": "https://dc.lft.to/lastmile_qr_scan"}, "fusion_lon": 0.0, "lat": 38.92076333333333, "bike_id": "43e75389f6b22769f9ee3285d6250e5e", "type": "electric_scooter", "is_reserved": 0, "lon": -77.0242745}, {"fusion_lat": 0.0, "name": "26ffb5ebdfc04666978efd3eb676d0d0", "is_disabled": 0, "rental_uris": {"android": "https://dc.lft.to/lastmile_qr_scan", "ios": "https://dc.lft.to/lastmile_qr_scan"}, "fusion_lon": 0.0, "lat": 38.933579, "bike_id": "26ffb5ebdfc04666978efd3eb676d0d0", "type": "electric_scooter", "is_reserved": 0, "lon": -77.073203}, {"fusion_lat": 0.0, "name": "721188823cf1d309b2bb01948b2ed1ba", "is_disabled": 0, "rental_uris": {"android": "https://dc.lft.to/lastmile_qr_scan", "ios": "https://dc.lft.to/lastmile_qr_scan"}, "fusion_lon": 0.0, "lat": 38.919307833333335, "bike_id": "721188823cf1d309b2bb01948b2ed1ba", "type": "electric_scooter", "is_reserved": 0, "lon": -77.04160366666666}, {"fusion_lat": 0.0, "name": "3bca2b3193e77c6a8fdbe71e57ad230a", "is_disabled": 0, "rental_uris": {"android": "https://dc.lft.to/lastmile_qr_scan", "ios": "https://dc.lft.to/lastmile_qr_scan"}, "fusion_lon": 0.0, "lat": 38.91232483333334, "bike_id": "3bca2b3193e77c6a8fdbe71e57ad230a", "type": "electric_scooter", "is_reserved": 0, "lon": -77.04489033333333}, {"fusion_lat": 0.0, "name": "d50f205d00f79673b4d74b1a4639545c", "is_disabled": 0, "rental_uris": {"android": "https://dc.lft.to/lastmile_qr_scan", "ios": "https://dc.lft.to/lastmile_qr_scan"}, "fusion_lon": 0.0, "lat": 38.963834166666665, "bike_id": "d50f205d00f79673b4d74b1a4639545c", "type": "electric_bike", "is_reserved": 0, "lon": -76.950454}, {"fusion_lat": 0.0, "name": "0c2ee2e90a0a08fb02eb61385131500f", "is_disabled": 0, "rental_uris": {"android": "https://dc.lft.to/lastmile_qr_scan", "ios": "https://dc.lft.to/lastmile_qr_scan"}, "fusion_lon": 0.0, "lat": 38.91833183333333, "bike_id": "0c2ee2e90a0a08fb02eb61385131500f", "type": "electric_scooter", "is_reserved": 0, "lon": -77.03538383333333}, {"fusion_lat": 0.0, "name": "6efb1babb04582a838eab5b13df0f51a", "is_disabled": 0, "rental_uris": {"android": "https://dc.lft.to/lastmile_qr_scan", "ios": "https://dc.lft.to/lastmile_qr_scan"}, "fusion_lon": 0.0, "lat": 38.89221716666667, "bike_id": "6efb1babb04582a838eab5b13df0f51a", "type": "electric_scooter", "is_reserved": 0, "lon": -77.03341033333334}, {"fusion_lat": 0.0, "name": "f701c0252e169296c88ad6965645e563", "is_disabled": 0, "rental_uris": {"android": "https://dc.lft.to/lastmile_qr_scan", "ios": "https://dc.lft.to/lastmile_qr_scan"}, "fusion_lon": 0.0, "lat": 38.924802, "bike_id": "f701c0252e169296c88ad6965645e563", "type": "electric_scooter", "is_reserved": 0, "lon": -77.0355705}, {"fusion_lat": 0.0, "name": "47d5308e672bf66f2c712928e0e03d1b", "is_disabled": 0, "rental_uris": {"android": "https://dc.lft.to/lastmile_qr_scan", "ios": "https://dc.lft.to/lastmile_qr_scan"}, "fusion_lon": 0.0, "lat": 38.8973235, "bike_id": "47d5308e672bf66f2c712928e0e03d1b", "type": "electric_scooter", "is_reserved": 0, "lon": -76.94724983333333}, {"fusion_lat": 0.0, "name": "01c0a23eb66b80bfd88d7fee0ee4ee23", "is_disabled": 0, "rental_uris": {"android": "https://dc.lft.to/lastmile_qr_scan", "ios": "https://dc.lft.to/lastmile_qr_scan"}, "fusion_lon": 0.0, "lat": 38.933391, "bike_id": "01c0a23eb66b80bfd88d7fee0ee4ee23", "type": "electric_scooter", "is_reserved": 0, "lon": -77.06199366666667}, {"fusion_lat": 0.0, "name": "3c83d99d3bd6ae5f48609bd4479b40da", "is_disabled": 0, "rental_uris": {"android": "https://dc.lft.to/lastmile_qr_scan", "ios": "https://dc.lft.to/lastmile_qr_scan"}, "fusion_lon": 0.0, "lat": 38.8746575, "bike_id": "3c83d99d3bd6ae5f48609bd4479b40da", "type": "electric_scooter", "is_reserved": 0, "lon": -77.00489916666666}, {"fusion_lat": 0.0, "name": "091ec472f692dd99fd81703f6814a64c", "is_disabled": 0, "rental_uris": {"android": "https://dc.lft.to/lastmile_qr_scan", "ios": "https://dc.lft.to/lastmile_qr_scan"}, "fusion_lon": 0.0, "lat": 38.892180333333336, "bike_id": "091ec472f692dd99fd81703f6814a64c", "type": "electric_scooter", "is_reserved": 0, "lon": -77.02654833333334}, {"fusion_lat": 0.0, "name": "70a6c4d81e76db1cb92dad159b131006", "is_disabled": 0, "rental_uris": {"android": "https://dc.lft.to/lastmile_qr_scan", "ios": "https://dc.lft.to/lastmile_qr_scan"}, "fusion_lon": 0.0, "lat": 38.969900833333334, "bike_id": "70a6c4d81e76db1cb92dad159b131006", "type": "electric_scooter", "is_reserved": 0, "lon": -77.01167116666667}, {"fusion_lat": 0.0, "name": "71781572426dd2d7a292cff374551a1b", "is_disabled": 0, "rental_uris": {"android": "https://dc.lft.to/lastmile_qr_scan", "ios": "https://dc.lft.to/lastmile_qr_scan"}, "fusion_lon": 0.0, "lat": 38.907125666666666, "bike_id": "71781572426dd2d7a292cff374551a1b", "type": "electric_scooter", "is_reserved": 0, "lon": -77.02508866666666}, {"fusion_lat": 0.0, "name": "0a9cfb79bb367e4cd4a15c29b364a55f", "is_disabled": 0, "rental_uris": {"android": "https://dc.lft.to/lastmile_qr_scan", "ios": "https://dc.lft.to/lastmile_qr_scan"}, "fusion_lon": 0.0, "lat": 38.87430616666666, "bike_id": "0a9cfb79bb367e4cd4a15c29b364a55f", "type": "electric_scooter", "is_reserved": 0, "lon": -77.01856833333333}, {"fusion_lat": 0.0, "name": "f970912f411c8b6296883dd2544f3749", "is_disabled": 0, "rental_uris": {"android": "https://dc.lft.to/lastmile_qr_scan", "ios": "https://dc.lft.to/lastmile_qr_scan"}, "fusion_lon": 0.0, "lat": 38.94090816666667, "bike_id": "f970912f411c8b6296883dd2544f3749", "type": "electric_scooter", "is_reserved": 0, "lon": -77.023209}, {"fusion_lat": 0.0, "name": "44acb5412c3f0200273f0d0b984a274c", "is_disabled": 0, "rental_uris": {"android": "https://dc.lft.to/lastmile_qr_scan", "ios": "https://dc.lft.to/lastmile_qr_scan"}, "fusion_lon": 0.0, "lat": 38.92599466666667, "bike_id": "44acb5412c3f0200273f0d0b984a274c", "type": "electric_scooter", "is_reserved": 0, "lon": -77.03750383333333}, {"fusion_lat": 0.0, "name": "d8bcf718b9c590d5db1910c78fb1af53", "is_disabled": 0, "rental_uris": {"android": "https://dc.lft.to/lastmile_qr_scan", "ios": "https://dc.lft.to/lastmile_qr_scan"}, "fusion_lon": 0.0, "lat": 38.8968435, "bike_id": "d8bcf718b9c590d5db1910c78fb1af53", "type": "electric_scooter", "is_reserved": 0, "lon": -77.05054166666666}, {"fusion_lat": 0.0, "name": "3570afc718e59f50233b8c374e82ba5c", "is_disabled": 0, "rental_uris": {"android": "https://dc.lft.to/lastmile_qr_scan", "ios": "https://dc.lft.to/lastmile_qr_scan"}, "fusion_lon": 0.0, "lat": 38.887276, "bike_id": "3570afc718e59f50233b8c374e82ba5c", "type": "electric_scooter", "is_reserved": 0, "lon": -77.01340333333333}, {"fusion_lat": 0.0, "name": "4b328adbec4c791dd5ee2aedc83fe3f0", "is_disabled": 0, "rental_uris": {"android": "https://dc.lft.to/lastmile_qr_scan", "ios": "https://dc.lft.to/lastmile_qr_scan"}, "fusion_lon": 0.0, "lat": 38.8841415, "bike_id": "4b328adbec4c791dd5ee2aedc83fe3f0", "type": "electric_scooter", "is_reserved": 0, "lon": -77.02900283333334}, {"fusion_lat": 0.0, "name": "d0e23e71ebb3b3dda8aa508beae696fb", "is_disabled": 0, "rental_uris": {"android": "https://dc.lft.to/lastmile_qr_scan", "ios": "https://dc.lft.to/lastmile_qr_scan"}, "fusion_lon": 0.0, "lat": 38.9006835, "bike_id": "d0e23e71ebb3b3dda8aa508beae696fb", "type": "electric_scooter", "is_reserved": 0, "lon": -77.02204683333333}, {"fusion_lat": 0.0, "name": "0c634d7a42d7d5634e1396f71f7e4371", "is_disabled": 0, "rental_uris": {"android": "https://dc.lft.to/lastmile_qr_scan", "ios": "https://dc.lft.to/lastmile_qr_scan"}, "fusion_lon": 0.0, "lat": 38.92054233333333, "bike_id": "0c634d7a42d7d5634e1396f71f7e4371", "type": "electric_scooter", "is_reserved": 0, "lon": -77.04354083333334}, {"fusion_lat": 0.0, "name": "cd9a7e7fd6c83cd82f188d81f1b56223", "is_disabled": 0, "rental_uris": {"android": "https://dc.lft.to/lastmile_qr_scan", "ios": "https://dc.lft.to/lastmile_qr_scan"}, "fusion_lon": 0.0, "lat": 38.895887333333334, "bike_id": "cd9a7e7fd6c83cd82f188d81f1b56223", "type": "electric_scooter", "is_reserved": 0, "lon": -77.02190916666666}, {"fusion_lat": 0.0, "name": "d0bdf3b6d72dd578153125cbf530087d", "is_disabled": 0, "rental_uris": {"android": "https://dc.lft.to/lastmile_qr_scan", "ios": "https://dc.lft.to/lastmile_qr_scan"}, "fusion_lon": 0.0, "lat": 38.9061605, "bike_id": "d0bdf3b6d72dd578153125cbf530087d", "type": "electric_scooter", "is_reserved": 0, "lon": -77.0500605}, {"fusion_lat": 0.0, "name": "cf9c40daf78a98a063a2aef12af033aa", "is_disabled": 0, "rental_uris": {"android": "https://dc.lft.to/lastmile_qr_scan", "ios": "https://dc.lft.to/lastmile_qr_scan"}, "fusion_lon": 0.0, "lat": 38.90550266666666, "bike_id": "cf9c40daf78a98a063a2aef12af033aa", "type": "electric_scooter", "is_reserved": 0, "lon": -77.00212416666666}, {"fusion_lat": 0.0, "name": "adfdd64d2fd0750b4d23c99f3710b042", "is_disabled": 0, "rental_uris": {"android": "https://dc.lft.to/lastmile_qr_scan", "ios": "https://dc.lft.to/lastmile_qr_scan"}, "fusion_lon": 0.0, "lat": 38.87738483333333, "bike_id": "adfdd64d2fd0750b4d23c99f3710b042", "type": "electric_scooter", "is_reserved": 0, "lon": -77.00262166666667}, {"fusion_lat": 0.0, "name": "33e5235baaca073da3530cfa74cf4799", "is_disabled": 0, "rental_uris": {"android": "https://dc.lft.to/lastmile_qr_scan", "ios": "https://dc.lft.to/lastmile_qr_scan"}, "fusion_lon": 0.0, "lat": 38.914005333333336, "bike_id": "33e5235baaca073da3530cfa74cf4799", "type": "electric_scooter", "is_reserved": 0, "lon": -77.00850083333333}, {"fusion_lat": 0.0, "name": "35b40b3b9d1940ada91e42b59e79b688", "is_disabled": 0, "rental_uris": {"android": "https://dc.lft.to/lastmile_qr_scan", "ios": "https://dc.lft.to/lastmile_qr_scan"}, "fusion_lon": 0.0, "lat": 38.94406766666667, "bike_id": "35b40b3b9d1940ada91e42b59e79b688", "type": "electric_scooter", "is_reserved": 0, "lon": -77.0386805}, {"fusion_lat": 0.0, "name": "89c5fef73a8a828abd78e0d909b687fc", "is_disabled": 0, "rental_uris": {"android": "https://dc.lft.to/lastmile_qr_scan", "ios": "https://dc.lft.to/lastmile_qr_scan"}, "fusion_lon": 0.0, "lat": 38.947357833333335, "bike_id": "89c5fef73a8a828abd78e0d909b687fc", "type": "electric_scooter", "is_reserved": 0, "lon": -77.0161785}, {"fusion_lat": 0.0, "name": "d284a14d7882337b46206ef64a8ea1f7", "is_disabled": 0, "rental_uris": {"android": "https://dc.lft.to/lastmile_qr_scan", "ios": "https://dc.lft.to/lastmile_qr_scan"}, "fusion_lon": 0.0, "lat": 38.90436183333333, "bike_id": "d284a14d7882337b46206ef64a8ea1f7", "type": "electric_scooter", "is_reserved": 0, "lon": -77.0601415}, {"fusion_lat": 0.0, "name": "079590b67a7cd2db74ac1e5cef87b023", "is_disabled": 0, "rental_uris": {"android": "https://dc.lft.to/lastmile_qr_scan", "ios": "https://dc.lft.to/lastmile_qr_scan"}, "fusion_lon": 0.0, "lat": 38.89598616666667, "bike_id": "079590b67a7cd2db74ac1e5cef87b023", "type": "electric_scooter", "is_reserved": 0, "lon": -77.00954633333333}, {"fusion_lat": 0.0, "name": "bf6cdf512540d13568863a7bb57ab526", "is_disabled": 0, "rental_uris": {"android": "https://dc.lft.to/lastmile_qr_scan", "ios": "https://dc.lft.to/lastmile_qr_scan"}, "fusion_lon": 0.0, "lat": 38.92106183333333, "bike_id": "bf6cdf512540d13568863a7bb57ab526", "type": "electric_scooter", "is_reserved": 0, "lon": -77.06334816666667}, {"fusion_lat": 0.0, "name": "b2b1779b4c175a188dce40302218a8c6", "is_disabled": 0, "rental_uris": {"android": "https://dc.lft.to/lastmile_qr_scan", "ios": "https://dc.lft.to/lastmile_qr_scan"}, "fusion_lon": 0.0, "lat": 38.8800715, "bike_id": "b2b1779b4c175a188dce40302218a8c6", "type": "electric_scooter", "is_reserved": 0, "lon": -76.93118633333333}, {"fusion_lat": 0.0, "name": "c442fce7d3436bd8dd29d710d3721eda", "is_disabled": 0, "rental_uris": {"android": "https://dc.lft.to/lastmile_qr_scan", "ios": "https://dc.lft.to/lastmile_qr_scan"}, "fusion_lon": 0.0, "lat": 38.82457566666667, "bike_id": "c442fce7d3436bd8dd29d710d3721eda", "type": "electric_bike", "is_reserved": 0, "lon": -77.00797066666667}, {"fusion_lat": 0.0, "name": "41bbadb0b6aa14e7bd457478be897034", "is_disabled": 0, "rental_uris": {"android": "https://dc.lft.to/lastmile_qr_scan", "ios": "https://dc.lft.to/lastmile_qr_scan"}, "fusion_lon": 0.0, "lat": 38.9026785, "bike_id": "41bbadb0b6aa14e7bd457478be897034", "type": "electric_scooter", "is_reserved": 0, "lon": -77.03977266666666}, {"fusion_lat": 0.0, "name": "da28a90ea8ec3d5823c1c595d41a9396", "is_disabled": 0, "rental_uris": {"android": "https://dc.lft.to/lastmile_qr_scan", "ios": "https://dc.lft.to/lastmile_qr_scan"}, "fusion_lon": 0.0, "lat": 38.92958, "bike_id": "da28a90ea8ec3d5823c1c595d41a9396", "type": "electric_scooter", "is_reserved": 0, "lon": -77.01969883333334}, {"fusion_lat": 0.0, "name": "6da4383f6ea7301bed0a5110d02b0a19", "is_disabled": 0, "rental_uris": {"android": "https://dc.lft.to/lastmile_qr_scan", "ios": "https://dc.lft.to/lastmile_qr_scan"}, "fusion_lon": 0.0, "lat": 38.898977333333335, "bike_id": "6da4383f6ea7301bed0a5110d02b0a19", "type": "electric_scooter", "is_reserved": 0, "lon": -76.94547433333334}, {"fusion_lat": 0.0, "name": "ccaf4277e5f7f6dc644b3c23afa3e799", "is_disabled": 0, "rental_uris": {"android": "https://dc.lft.to/lastmile_qr_scan", "ios": "https://dc.lft.to/lastmile_qr_scan"}, "fusion_lon": 0.0, "lat": 38.842940666666664, "bike_id": "ccaf4277e5f7f6dc644b3c23afa3e799", "type": "electric_bike", "is_reserved": 0, "lon": -77.108729}, {"fusion_lat": 0.0, "name": "5395a2c0a01838ed648261c3ae101b10", "is_disabled": 0, "rental_uris": {"android": "https://dc.lft.to/lastmile_qr_scan", "ios": "https://dc.lft.to/lastmile_qr_scan"}, "fusion_lon": 0.0, "lat": 38.9181275, "bike_id": "5395a2c0a01838ed648261c3ae101b10", "type": "electric_scooter", "is_reserved": 0, "lon": -77.03273116666666}, {"fusion_lat": 0.0, "name": "37528dab6844f9d7b3605ef72b74d81e", "is_disabled": 0, "rental_uris": {"android": "https://dc.lft.to/lastmile_qr_scan", "ios": "https://dc.lft.to/lastmile_qr_scan"}, "fusion_lon": 0.0, "lat": 38.932620666666665, "bike_id": "37528dab6844f9d7b3605ef72b74d81e", "type": "electric_scooter", "is_reserved": 0, "lon": -77.02094116666666}, {"fusion_lat": 0.0, "name": "c2c977a90d01cc7f911590d1da7d2ac1", "is_disabled": 0, "rental_uris": {"android": "https://dc.lft.to/lastmile_qr_scan", "ios": "https://dc.lft.to/lastmile_qr_scan"}, "fusion_lon": 0.0, "lat": 38.9216615, "bike_id": "c2c977a90d01cc7f911590d1da7d2ac1", "type": "electric_scooter", "is_reserved": 0, "lon": -77.04235583333333},