{"data": {"bikes": [{"rental_uris": {"android": "https://dc.lft.to/lastmile_qr_scan", "ios": "https://dc.lft.to/lastmile_qr_scan"}, "is_reserved": 0, "is_disabled": 0, "name": "24e9c778f23b646c8910de2801d58c1a", "bike_id": "24e9c778f23b646c8910de2801d58c1a", "fusion_lat": 0.0, "lon": -77.00296216666666, "type": "electric_scooter", "fusion_lon": 0.0, "lat": 38.8920155}, {"rental_uris": {"android": "https://dc.lft.to/lastmile_qr_scan", "ios": "https://dc.lft.to/lastmile_qr_scan"}, "is_reserved": 0, "is_disabled": 0, "name": "2ca3acef1636d873824da1c9e410a2cf", "bike_id": "2ca3acef1636d873824da1c9e410a2cf", "fusion_lat": 0.0, "lon": -77.03070533333333, "type": "electric_scooter", "fusion_lon": 0.0, "lat": 38.89850366666667}, {"rental_uris": {"android": "https://dc.lft.to/lastmile_qr_scan", "ios": "https://dc.lft.to/lastmile_qr_scan"}, "is_reserved": 0, "is_disabled": 0, "name": "f76dfd49afaedc211a38598981d48aaf", "bike_id": "f76dfd49afaedc211a38598981d48aaf", "fusion_lat": 0.0, "lon": -77.002935, "type": "electric_scooter", "fusion_lon": 0.0, "lat": 38.9036455}, {"rental_uris": {"android": "https://dc.lft.to/lastmile_qr_scan", "ios": "https://dc.lft.to/lastmile_qr_scan"}, "is_reserved": 0, "is_disabled": 0, "name": "2ffcffaa98bc70b83986fafeec07da83", "bike_id": "2ffcffaa98bc70b83986fafeec07da83", "fusion_lat": 0.0, "lon": -77.0642685, "type": "electric_scooter", "fusion_lon": 0.0, "lat": 38.935619333333335}, {"rental_uris": {"android": "https://dc.lft.to/lastmile_qr_scan", "ios": "https://dc.lft.to/lastmile_qr_scan"}, "is_reserved": 0, "is_disabled": 0, "name": "8df10ed7abed0dd2661f4a501473aab2", "bike_id": "8df10ed7abed0dd2661f4a501473aab2", "fusion_lat": 0.0, "lon": -77.00596316666666, "type": "electric_scooter", "fusion_lon": 0.0, "lat": 38.905575}, {"rental_uris": {"android": "https://dc.lft.to/lastmile_qr_scan", "ios": "https://dc.lft.to/lastmile_qr_scan"}, "is_reserved": 0, "is_disabled": 0, "name": "f5a1993197db4714bf684af10cf1c8d5", "bike_id": "f5a1993197db4714bf684af10cf1c8d5", "fusion_lat": 0.0, "lon": -76.93597866666667, "type": "electric_scooter", "fusion_lon": 0.0, "lat": 38.90945833333333}, {"rental_uris": {"android": "https://dc.lft.to/lastmile_qr_scan", "ios": "https://dc.lft.to/lastmile_qr_scan"}, "is_reserved": 0, "is_disabled": 0, "name": "3e960d1f9100711113d1c47b9c5cfecd", "bike_id": "3e960d1f9100711113d1c47b9c5cfecd", "fusion_lat": 0.0, "lon": -77.02230483333334, "type": "electric_scooter", "fusion_lon": 0.0, "lat": 38.91250183333333}, {"rental_uris": {"android": "https://dc.lft.to/lastmile_qr_scan", "ios": "https://dc.lft.to/lastmile_qr_scan"}, "is_reserved": 0, "is_disabled": 0, "name": "78841ad36040f783ad6ce8ddd0ba35fa", "bike_id": "78841ad36040f783ad6ce8ddd0ba35fa", "fusion_lat": 0.0, "lon": -76.9516185, "type": "electric_bike", "fusion_lon": 0.0, "lat": 39.08441833333333}, {"rental_uris": {"android": "https://dc.lft.to/lastmile_qr_scan", "ios": "https://dc.lft.to/lastmile_qr_scan"}, "is_reserved": 0, "is_disabled": 0, "name": "2681785bab56a4c5deed5afee4bccdef", "bike_id": "2681785bab56a4c5deed5afee4bccdef", "fusion_lat": 0.0, "lon": -77.05002466666667, "type": "electric_scooter", "fusion_lon": 0.0, "lat": 38.8922965}, {"rental_uris": {"android": "https://dc.lft.to/lastmile_qr_scan", "ios": "https://dc.lft.to/lastmile_qr_scan"}, "is_reserved": 0, "is_disabled": 0, "name": "e37a40d45b30b83350418e44db038dfb", "bike_id": "e37a40d45b30b83350418e44db038dfb", "fusion_lat": 0.0, "lon": -77.01213783333333, "type": "electric_scooter", "fusion_lon": 0.0, "lat": 38.91814866666667}, {"rental_uris": {"android": "https://dc.lft.to/lastmile_qr_scan", "ios": "https://dc.lft.to/lastmile_qr_scan"}, "is_reserved": 0, "is_disabled": 0, "name": "f55cbe5f31b6a66615ba8c5e97195347", "bike_id": "f55cbe5f31b6a66615ba8c5e97195347", "fusion_lat": 0.0, "lon": -77.0279385, "type": "electric_scooter", "fusion_lon": 0.0, "lat": 38.93083083333333}, {"rental_uris": {"android": "https://dc.lft.to/lastmile_qr_scan", "ios": "https://dc.lft.to/lastmile_qr_scan"}, "is_reserved": 0, "is_disabled": 0, "name": "8550b57fe0a29464b636dbf835dbb022", "bike_id": "8550b57fe0a29464b636dbf835dbb022", "fusion_lat": 0.0, "lon": -77.03658516666667, "type": "electric_scooter", "fusion_lon": 0.0, "lat": 38.902703833333334}, {"rental_uris": {"android": "https://dc.lft.to/lastmile_qr_scan", "ios": "https://dc.lft.to/lastmile_qr_scan"}, "is_reserved": 0, "is_disabled": 0, "name": "060c4fdb89230e2a6ff34fed6caf65a2", "bike_id": "060c4fdb89230e2a6ff34fed6caf65a2", "fusion_lat": 0.0, "lon": -77.03249483333333, "type": "electric_scooter", "fusion_lon": 0.0, "lat": 38.917098833333334}, {"rental_uris": {"android": "https://dc.lft.to/lastmile_qr_scan", "ios": "https://dc.lft.to/lastmile_qr_scan"}, "is_reserved": 0, "is_disabled": 0, "name": "a201f8c8a6270fd48ec965bc7ec5222f", "bike_id": "a201f8c8a6270fd48ec965bc7ec5222f", "fusion_lat": 0.0, "lon": -77.00157283333333, "type": "electric_scooter", "fusion_lon": 0.0, "lat": 38.821336}, {"rental_uris": {"android": "https://dc.lft.to/lastmile_qr_scan", "ios": "https://dc.lft.to/lastmile_qr_scan"}, "is_reserved": 0, "is_disabled": 0, "name": "3727e8e1c85f394cce17b939cc177eca", "bike_id": "3727e8e1c85f394cce17b939cc177eca", "fusion_lat": 0.0, "lon": -77.0461635, "type": "electric_scooter", "fusion_lon": 0.0, "lat": 38.922448333333335}, {"rental_uris": {"android": "https://dc.lft.to/lastmile_qr_scan", "ios": "https://dc.lft.to/lastmile_qr_scan"}, "is_reserved": 0, "is_disabled": 0, "name": "c605be6db28df71d8332f078c809f8da", "bike_id": "c605be6db28df71d8332f078c809f8da", "fusion_lat": 0.0, "lon": -77.0295305, "type": "electric_scooter", "fusion_lon": 0.0, "lat": 38.90667933333334}, {"rental_uris": {"android": "https://dc.lft.to/lastmile_qr_scan", "ios": "https://dc.lft.to/lastmile_qr_scan"}, "is_reserved": 0, "is_disabled": 0, "name": "6fdad7a87bda9bb9e45417ab70476d1e", "bike_id": "6fdad7a87bda9bb9e45417ab70476d1e", "fusion_lat": 0.0, "lon": -77.051203, "type": "electric_scooter", "fusion_lon": 0.0, "lat": 38.92341416666667}, {"rental_uris": {"android": "https://dc.lft.to/lastmile_qr_scan", "ios": "https://dc.lft.to/lastmile_qr_scan"}, "is_reserved": 0, "is_disabled": 0, "name": "80989288ebb257b8e1da8f2218cebc50", "bike_id": "80989288ebb257b8e1da8f2218cebc50", "fusion_lat": 0.0, "lon": -77.027185, "type": "electric_scooter", "fusion_lon": 0.0, "lat": 38.94955933333333}, {"rental_uris": {"android": "https://dc.lft.to/lastmile_qr_scan", "ios": "https://dc.lft.to/lastmile_qr_scan"}, "is_reserved": 0, "is_disabled": 0, "name": "745dd0cebadf1839a0bb47cff6297a29", "bike_id": "745dd0cebadf1839a0bb47cff6297a29", "fusion_lat": 0.0, "lon": -77.00245066666666, "type": "electric_bike", "fusion_lon": 0.0, "lat": 38.911236}, {"rental_uris": {"android": "https://dc.lft.to/lastmile_qr_scan", "ios": "https://dc.lft.to/lastmile_qr_scan"}, "is_reserved": 0, "is_disabled": 0, "name": "4d2f19d7fe467ba39dda76dd415730da", "bike_id": "4d2f19d7fe467ba39dda76dd415730da", "fusion_lat": 0.0, "lon": -77.03843066666667, "type": "electric_scooter", "fusion_lon": 0.0, "lat": 38.91002133333333}, {"rental_uris": {"android": "https://dc.lft.to/lastmile_qr_scan", "ios": "https://dc.lft.to/lastmile_qr_scan"}, "is_reserved": 0, "is_disabled": 0, "name": "c1722492f7d2e8a57eec890fa051ae2c", "bike_id": "c1722492f7d2e8a57eec890fa051ae2c", "fusion_lat": 0.0, "lon": -77.0423825, "type": "electric_scooter", "fusion_lon": 0.0, "lat": 38.921527166666664}, {"rental_uris": {"android": "https://dc.lft.to/lastmile_qr_scan", "ios": "https://dc.lft.to/lastmile_qr_scan"}, "is_reserved": 0, "is_disabled": 0, "name": "f4bb1bfed5f524b06981f7fd65c98fdf", "bike_id": "f4bb1bfed5f524b06981f7fd65c98fdf", "fusion_lat": 0.0, "lon": -76.947151, "type": "electric_scooter", "fusion_lon": 0.0, "lat": 38.89086833333333}, {"rental_uris": {"android": "https://dc.lft.to/lastmile_qr_scan", "ios": "https://dc.lft.to/lastmile_qr_scan"}, "is_reserved": 0, "is_disabled": 0, "name": "8fd95c3ea2ac0598e8718bbc36c2c5eb", "bike_id": "8fd95c3ea2ac0598e8718bbc36c2c5eb", "fusion_lat": 0.0, "lon": -77.03686633333334, "type": "electric_scooter", "fusion_lon": 0.0, "lat": 38.9167415}, {"rental_uris": {"android": "https://dc.lft.to/lastmile_qr_scan", "ios": "https://dc.lft.to/lastmile_qr_scan"}, "is_reserved": 0, "is_disabled": 0, "name": "fe6403a35a92aa193d2481156835112d", "bike_id": "fe6403a35a92aa193d2481156835112d", "fusion_lat": 0.0, "lon": -77.01970083333333, "type": "electric_scooter", "fusion_lon": 0.0, "lat": 38.912962666666665}, {"rental_uris": {"android": "https://dc.lft.to/lastmile_qr_scan", "ios": "https://dc.lft.to/lastmile_qr_scan"}, "is_reserved": 0, "is_disabled": 0, "name": "92863e99d8a4bf2f9c4887867af6565c", "bike_id": "92863e99d8a4bf2f9c4887867af6565c", "fusion_lat": 0.0, "lon": -77.04515766666667, "type": "electric_scooter", "fusion_lon": 0.0, "lat": 38.91288683333333}, {"rental_uris": {"android": "https://dc.lft.to/lastmile_qr_scan", "ios": "https://dc.lft.to/lastmile_qr_scan"}, "is_reserved": 0, "is_disabled": 0, "name": "543b571bef38d4938f5f1769d510f986", "bike_id": "543b571bef38d4938f5f1769d510f986", "fusion_lat": 0.0, "lon": -76.95743216666666, "type": "electric_bike", "fusion_lon": 0.0, "lat": 38.8885885}, {"rental_uris": {"android": "https://dc.lft.to/lastmile_qr_scan", "ios": "https://dc.lft.to/lastmile_qr_scan"}, "is_reserved": 0, "is_disabled": 0, "name": "6dcd81bf8220b0dc498a12df7646be51", "bike_id": "6dcd81bf8220b0dc498a12df7646be51", "fusion_lat": 0.0, "lon": -77.08961566666666, "type": "electric_bike", "fusion_lon": 0.0, "lat": 38.84093383333333}, {"rental_uris": {"android": "https://dc.lft.to/lastmile_qr_scan", "ios": "https://dc.lft.to/lastmile_qr_scan"}, "is_reserved": 0, "is_disabled": 0, "name": "49b9e99e1524b4eb19e8cb0b15ba3d5a", "bike_id": "49b9e99e1524b4eb19e8cb0b15ba3d5a", "fusion_lat": 0.0, "lon": -76.9835935, "type": "electric_scooter", "fusion_lon": 0.0, "lat": 38.8873285}, {"rental_uris": {"android": "https://dc.lft.to/lastmile_qr_scan", "ios": "https://dc.lft.to/lastmile_qr_scan"}, "is_reserved": 0, "is_disabled": 0, "name": "838fdee0220929bf2b6918a4fb566062", "bike_id": "838fdee0220929bf2b6918a4fb566062", "fusion_lat": 0.0, "lon": -77.046934, "type": "electric_scooter", "fusion_lon": 0.0, "lat": 38.902244333333336}, {"rental_uris": {"android": "https://dc.lft.to/lastmile_qr_scan", "ios": "https://dc.lft.to/lastmile_qr_scan"}, "is_reserved": 0, "is_disabled": 0, "name": "cb80fe0b6b7a06e6c50669afc4ffe715", "bike_id": "cb80fe0b6b7a06e6c50669afc4ffe715", "fusion_lat": 0.0, "lon": -77.02712833333334, "type": "electric_scooter", "fusion_lon": 0.0, "lat": 38.924698666666664}, {"rental_uris": {"android": "https://dc.lft.to/lastmile_qr_scan", "ios": "https://dc.lft.to/lastmile_qr_scan"}, "is_reserved": 0, "is_disabled": 0, "name": "3370cb86eea90425cd8ac5191360d4ab", "bike_id": "3370cb86eea90425cd8ac5191360d4ab", "fusion_lat": 0.0, "lon": -77.02973383333334, "type": "electric_scooter", "fusion_lon": 0.0, "lat": 38.9037785}, {"rental_uris": {"android": "https://dc.lft.to/lastmile_qr_scan", "ios": "https://dc.lft.to/lastmile_qr_scan"}, "is_reserved": 0, "is_disabled": 0, "name": "5bfe2fb9aea243dd8c6de782947b42da", "bike_id": "5bfe2fb9aea243dd8c6de782947b42da", "fusion_lat": 0.0, "lon": -77.03553316666667, "type": "electric_scooter", "fusion_lon": 0.0, "lat": 38.926512333333335}, {"rental_uris": {"android": "https://dc.lft.to/lastmile_qr_scan", "ios": "https://dc.lft.to/lastmile_qr_scan"}, "is_reserved": 0, "is_disabled": 0, "name": "8581e04a7f08f827d64153919ed8eb8d", "bike_id": "8581e04a7f08f827d64153919ed8eb8d", "fusion_lat": 0.0, "lon": -77.09722183333334, "type": "electric_bike", "fusion_lon": 0.0, "lat": 38.8868775}, {"rental_uris": {"android": "https://dc.lft.to/lastmile_qr_scan", "ios": "https://dc.lft.to/lastmile_qr_scan"}, "is_reserved": 0, "is_disabled": 0, "name": "f1942392161b33bed2aa705bd33aa35a", "bike_id": "f1942392161b33bed2aa705bd33aa35a", "fusion_lat": 0.0, "lon": -77.0531885, "type": "electric_scooter", "fusion_lon": 0.0, "lat": 38.91552383333333}, {"rental_uris": {"android": "https://dc.lft.to/lastmile_qr_scan", "ios": "https://dc.lft.to/lastmile_qr_scan"}, "is_reserved": 0, "is_disabled": 0, "name": "eddf65334ae5b5bfaae9a29a5e74c21e", "bike_id": "eddf65334ae5b5bfaae9a29a5e74c21e", "fusion_lat": 0.0, "lon": -77.035027, "type": "electric_scooter", "fusion_lon": 0.0, "lat": 38.918797}, {"rental_uris": {"android": "https://dc.lft.to/lastmile_qr_scan", "ios": "https://dc.lft.to/lastmile_qr_scan"}, "is_reserved": 0, "is_disabled": 0, "name": "bc105d00665551983f8522dfb2f4d729", "bike_id": "bc105d00665551983f8522dfb2f4d729", "fusion_lat": 0.0, "lon": -77.02061733333333, "type": "electric_scooter", "fusion_lon": 0.0, "lat": 38.923731}, {"rental_uris": {"android": "https://dc.lft.to/lastmile_qr_scan", "ios": "https://dc.lft.to/lastmile_qr_scan"}, "is_reserved": 0, "is_disabled": 0, "name": "bddcd350c3fcaded2417e85050b77057", "bike_id": "bddcd350c3fcaded2417e85050b77057", "fusion_lat": 0.0, "lon": -77.03651433333333, "type": "electric_scooter", "fusion_lon": 0.0, "lat": 38.9269985}, {"rental_uris": {"android": "https://dc.lft.to/lastmile_qr_scan", "ios": "https://dc.lft.to/lastmile_qr_scan"}, "is_reserved": 0, "is_disabled": 0, "name": "633901df93e798f4bf00fa155246134d", "bike_id": "633901df93e798f4bf00fa155246134d", "fusion_lat": 0.0, "lon": -77.03548716666667, "type": "electric_scooter", "fusion_lon": 0.0, "lat": 38.91823183333333}, {"rental_uris": {"android": "https://dc.lft.to/lastmile_qr_scan", "ios": "https://dc.lft.to/lastmile_qr_scan"}, "is_reserved": 0, "is_disabled": 0, "name": "3dec66eda21da5a8cb60042497799017", "bike_id": "3dec66eda21da5a8cb60042497799017", "fusion_lat": 0.0, "lon": -77.03166066666667, "type": "electric_scooter", "fusion_lon": 0.0, "lat": 38.892187166666666}, {"rental_uris": {"android": "https://dc.lft.to/lastmile_qr_scan", "ios": "https://dc.lft.to/lastmile_qr_scan"}, "is_reserved": 0, "is_disabled": 0, "name": "fade28f7daaeb09a9f1acd0ef4125430", "bike_id": "fade28f7daaeb09a9f1acd0ef4125430", "fusion_lat": 0.0, "lon": -77.03415683333333, "type": "electric_scooter", "fusion_lon": 0.0, "lat": 38.923986}, {"rental_uris": {"android": "https://dc.lft.to/lastmile_qr_scan", "ios": "https://dc.lft.to/lastmile_qr_scan"}, "is_reserved": 0, "is_disabled": 0, "name": "e0e569b31d67e1cf13f1337c8286cf03", "bike_id": "e0e569b31d67e1cf13f1337c8286cf03", "fusion_lat": 0.0, "lon": -76.986039, "type": "electric_scooter", "fusion_lon": 0.0, "lat": 38.90859483333333}, {"rental_uris": {"android": "https://dc.lft.to/lastmile_qr_scan", "ios": "https://dc.lft.to/lastmile_qr_scan"}, "is_reserved": 0, "is_disabled": 0, "name": "e8fdcb859a328ee177166c70db863a4f", "bike_id": "e8fdcb859a328ee177166c70db863a4f", "fusion_lat": 0.0, "lon": -77.02544383333333, "type": "electric_scooter", "fusion_lon": 0.0, "lat": 38.899694}, {"rental_uris": {"android": "https://dc.lft.to/lastmile_qr_scan", "ios": "https://dc.lft.to/lastmile_qr_scan"}, "is_reserved": 0, "is_disabled": 0, "name": "b4f2c625e1cb7d79afd71d63cdb32929", "bike_id": "b4f2c625e1cb7d79afd71d63cdb32929", "fusion_lat": 0.0, "lon": -77.03266866666667, "type": "electric_scooter", "fusion_lon": 0.0, "lat": 38.93700333333334}, {"rental_uris": {"android": "https://dc.lft.to/lastmile_qr_scan", "ios": "https://dc.lft.to/lastmile_qr_scan"}, "is_reserved": 0, "is_disabled": 0, "name": "cd34ac7f38cb6706e4f62ecb913a0030", "bike_id": "cd34ac7f38cb6706e4f62ecb913a0030", "fusion_lat": 0.0, "lon": -77.07670033333333, "type": "electric_bike", "fusion_lon": 0.0, "lat": 38.864766333333336}, {"rental_uris": {"android": "https://dc.lft.to/lastmile_qr_scan", "ios": "https://dc.lft.to/lastmile_qr_scan"}, "is_reserved": 0, "is_disabled": 0, "name": "b280a77ac05f9fecefad46f54d833ab1", "bike_id": "b280a77ac05f9fecefad46f54d833ab1", "fusion_lat": 0.0, "lon": -77.045125, "type": "electric_scooter", "fusion_lon": 0.0, "lat": 38.912873833333336}, {"rental_uris": {"android": "https://dc.lft.to/lastmile_qr_scan", "ios": "https://dc.lft.to/lastmile_qr_scan"}, "is_reserved": 0, "is_disabled": 0, "name": "24692a9892ba5f311a3a6292882106da", "bike_id": "24692a9892ba5f311a3a6292882106da", "fusion_lat": 0.0, "lon": -77.033642, "type": "electric_scooter", "fusion_lon": 0.0, "lat": 38.935836}, {"rental_uris": {"android": "https://dc.lft.to/lastmile_qr_scan", "ios": "https://dc.lft.to/lastmile_qr_scan"}, "is_reserved": 0, "is_disabled": 0, "name": "fe7e4c808786b84b9334461d9e7f0b25", "bike_id": "fe7e4c808786b84b9334461d9e7f0b25", "fusion_lat": 0.0, "lon": -77.0853, "type": "electric_bike", "fusion_lon": 0.0, "lat": 38.856450833333334}, {"rental_uris": {"android": "https://dc.lft.to/lastmile_qr_scan", "ios": "https://dc.lft.to/lastmile_qr_scan"}, "is_reserved": 0, "is_disabled": 0, "name": "625346b339a9bccd5e014842029e7e84", "bike_id": "625346b339a9bccd5e014842029e7e84", "fusion_lat": 0.0, "lon": -77.03168933333333, "type": "electric_scooter", "fusion_lon": 0.0, "lat": 38.914178166666666}, {"rental_uris": {"android": "https://dc.lft.to/lastmile_qr_scan", "ios": "https://dc.lft.to/lastmile_qr_scan"}, "is_reserved": 0, "is_disabled": 0, "name": "45502b0216e3eca6eca4f67d50d19052", "bike_id": "45502b0216e3eca6eca4f67d50d19052", "fusion_lat": 0.0, "lon": -77.04025816666666, "type": "electric_scooter", "fusion_lon": 0.0, "lat": 38.918429833333334}, {"rental_uris": {"android": "https://dc.lft.to/lastmile_qr_scan", "ios": "https://dc.lft.to/lastmile_qr_scan"}, "is_reserved": 0, "is_disabled": 0, "name": "3a1728fb03f91a6aa3262cf2e92532c5", "bike_id": "3a1728fb03f91a6aa3262cf2e92532c5", "fusion_lat": 0.0, "lon": -77.006045, "type": "electric_scooter", "fusion_lon": 0.0, "lat": 38.905596}, {"rental_uris": {"android": "https://dc.lft.to/lastmile_qr_scan", "ios": "https://dc.lft.to/lastmile_qr_scan"}, "is_reserved": 0, "is_disabled": 0, "name": "c90ca73caf141407ea5006cfd5d1ac8d", "bike_id": "c90ca73caf141407ea5006cfd5d1ac8d", "fusion_lat": 0.0, "lon": -77.0680485, "type": "electric_scooter", "fusion_lon": 0.0, "lat": 38.9156365}, {"rental_uris": {"android": "https://dc.lft.to/lastmile_qr_scan", "ios": "https://dc.lft.to/lastmile_qr_scan"}, "is_reserved": 0, "is_disabled": 0, "name": "e0046bd212eb5bd5cfd1d6a336122e4b", "bike_id": "e0046bd212eb5bd5cfd1d6a336122e4b", "fusion_lat": 0.0, "lon": -77.02121166666667, "type": "electric_scooter", "fusion_lon": 0.0, "lat": 38.89947166666666}, {"rental_uris": {"android": "https://dc.lft.to/lastmile_qr_scan", "ios": "https://dc.lft.to/lastmile_qr_scan"}, "is_reserved": 0, "is_disabled": 0, "name": "d9b81023e942a8b29b523002ed2251c1", "bike_id": "d9b81023e942a8b29b523002ed2251c1", "fusion_lat": 0.0, "lon": -77.051689, "type": "electric_scooter", "fusion_lon": 0.0, "lat": 38.903241666666666}, {"rental_uris": {"android": "https://dc.lft.to/lastmile_qr_scan", "ios": "https://dc.lft.to/lastmile_qr_scan"}, "is_reserved": 0, "is_disabled": 0, "name": "1ad4a80bd714c9107421d0efb7b01ea6", "bike_id": "1ad4a80bd714c9107421d0efb7b01ea6", "fusion_lat": 0.0, "lon": -76.9906305, "type": "electric_bike", "fusion_lon": 0.0, "lat": 38.8984595}, {"rental_uris": {"android": "https://dc.lft.to/lastmile_qr_scan", "ios": "https://dc.lft.to/lastmile_qr_scan"}, "is_reserved": 0, "is_disabled": 0, "name": "25e759893c5a86ed387be8f0f2ad8a5b", "bike_id": "25e759893c5a86ed387be8f0f2ad8a5b", "fusion_lat": 0.0, "lon": -76.99651233333333, "type": "electric_bike", "fusion_lon": 0.0, "lat": 38.9677775}, {"rental_uris": {"android": "https://dc.lft.to/lastmile_qr_scan", "ios": "https://dc.lft.to/lastmile_qr_scan"}, "is_reserved": 0, "is_disabled": 0, "name": "80d1700b3237fdb5396acb8a958fc4cc", "bike_id": "80d1700b3237fdb5396acb8a958fc4cc", "fusion_lat": 0.0, "lon": -76.931769, "type": "electric_scooter", "fusion_lon": 0.0, "lat": 38.898889}, {"rental_uris": {"android": "https://dc.lft.to/lastmile_qr_scan", "ios": "https://dc.lft.to/lastmile_qr_scan"}, "is_reserved": 0, "is_disabled": 0, "name": "da6df96139635c1d1aa6c1528a34e80b", "bike_id": "da6df96139635c1d1aa6c1528a34e80b", "fusion_lat": 0.0, "lon": -77.024919, "type": "electric_scooter", "fusion_lon": 0.0, "lat": 38.941837666666665}, {"rental_uris": {"android": "https://dc.lft.to/lastmile_qr_scan", "ios": "https://dc.lft.to/lastmile_qr_scan"}, "is_reserved": 0, "is_disabled": 0, "name": "cd8bb58c44a6897c5e030021d7fef233", "bike_id": "cd8bb58c44a6897c5e030021d7fef233", "fusion_lat": 0.0, "lon": -77.0393535, "type": "electric_scooter", "fusion_lon": 0.0, "lat": 38.92496783333333}, {"rental_uris": {"android": "https://dc.lft.to/lastmile_qr_scan", "ios": "https://dc.lft.to/lastmile_qr_scan"}, "is_reserved": 0, "is_disabled": 0, "name": "63cf50de4e15247a79a9a5172b9b8916", "bike_id": "63cf50de4e15247a79a9a5172b9b8916", "fusion_lat": 0.0, "lon": -77.0288135, "type": "electric_bike", "fusion_lon": 0.0, "lat": 38.9215035}, {"rental_uris": {"android": "https://dc.lft.to/lastmile_qr_scan", "ios": "https://dc.lft.to/lastmile_qr_scan"}, "is_reserved": 0, "is_disabled": 0, "name": "2e2f34ebe5c7e676af3997894c7791b4", "bike_id": "2e2f34ebe5c7e676af3997894c7791b4", "fusion_lat": 0.0, "lon": -76.9734555, "type": "electric_scooter", "fusion_lon": 0.0, "lat": 38.86518783333333}, {"rental_uris": {"android": "https://dc.lft.to/lastmile_qr_scan", "ios": "https://dc.lft.to/lastmile_qr_scan"}, "is_reserved": 0, "is_disabled": 0, "name": "0f3934a93f4434b2c07c14bfc1db48ea", "bike_id": "0f3934a93f4434b2c07c14bfc1db48ea", "fusion_lat": 0.0, "lon": -77.04956083333333, "type": "electric_scooter", "fusion_lon": 0.0, "lat": 38.9055195}, {"rental_uris": {"android": "https://dc.lft.to/lastmile_qr_scan", "ios": "https://dc.lft.to/lastmile_qr_scan"}, "is_reserved": 0, "is_disabled": 0, "name": "48f826773ebecf605331b0450627b164", "bike_id": "48f826773ebecf605331b0450627b164", "fusion_lat": 0.0, "lon": -77.0449705, "type": "electric_scooter", "fusion_lon": 0.0, "lat": 38.899696166666665}, {"rental_uris": {"android": "https://dc.lft.to/lastmile_qr_scan", "ios": "https://dc.lft.to/lastmile_qr_scan"}, "is_reserved": 0, "is_disabled": 0, "name": "4dc339698c88a5444affce23ec6fca7c", "bike_id": "4dc339698c88a5444affce23ec6fca7c", "fusion_lat": 0.0, "lon": -77.0090785, "type": "electric_scooter", "fusion_lon": 0.0, "lat": 38.90594983333333}, {"rental_uris": {"android": "https://dc.lft.to/lastmile_qr_scan", "ios": "https://dc.lft.to/lastmile_qr_scan"}, "is_reserved": 0, "is_disabled": 0, "name": "7556931f0d93a98b7b29c5e6d6b9dc39", "bike_id": "7556931f0d93a98b7b29c5e6d6b9dc39", "fusion_lat": 0.0, "lon": -77.036659, "type": "electric_scooter", "fusion_lon": 0.0, "lat": 38.92311566666667}, {"rental_uris": {"android": "https://dc.lft.to/lastmile_qr_scan", "ios": "https://dc.lft.to/lastmile_qr_scan"}, "is_reserved": 0, "is_disabled": 0, "name": "6319733ccd077c0f3bb40b183a1a35ac", "bike_id": "6319733ccd077c0f3bb40b183a1a35ac", "fusion_lat": 0.0, "lon": -77.013353, "type": "electric_scooter", "fusion_lon": 0.0, "lat": 38.881307166666666}, {"rental_uris": {"android": "https://dc.lft.to/lastmile_qr_scan", "ios": "https://dc.lft.to/lastmile_qr_scan"}, "is_reserved": 0, "is_disabled": 0, "name": "78b723e746f448a991886253869f3ff1", "bike_id": "78b723e746f448a991886253869f3ff1", "fusion_lat": 0.0, "lon": -77.053298, "type": "electric_scooter", "fusion_lon": 0.0, "lat": 38.923163833333334}, {"rental_uris": {"android": "https://dc.lft.to/lastmile_qr_scan", "ios": "https://dc.lft.to/lastmile_qr_scan"}, "is_reserved": 0, "is_disabled": 0, "name": "df93804c08f9b55a5ca604093d1b66d1", "bike_id": "df93804c08f9b55a5ca604093d1b66d1", "fusion_lat": 0.0, "lon": -77.03342633333334, "type": "electric_scooter", "fusion_lon": 0.0, "lat": 38.89747416666667}, {"rental_uris": {"android": "https://dc.lft.to/lastmile_qr_scan", "ios": "https://dc.lft.to/lastmile_qr_scan"}, "is_reserved": 0, "is_disabled": 0, "name": "f9ab8955a808c9b15519c0cdd8fa17ad", "bike_id": "f9ab8955a808c9b15519c0cdd8fa17ad", "fusion_lat": 0.0, "lon": -77.01629333333334, "type": "electric_scooter", "fusion_lon": 0.0, "lat": 38.916868666666666}, {"rental_uris": {"android": "https://dc.lft.to/lastmile_qr_scan", "ios": "https://dc.lft.to/lastmile_qr_scan"}, "is_reserved": 0, "is_disabled": 0, "name": "cfa80426d0cd3bf40db7329051bb2cea", "bike_id": "cfa80426d0cd3bf40db7329051bb2cea", "fusion_lat": 0.0, "lon": -76.97895366666667, "type": "electric_bike", "fusion_lon": 0.0, "lat": 38.9269625}, {"rental_uris": {"android": "https://dc.lft.to/lastmile_qr_scan", "ios": "https://dc.lft.to/lastmile_qr_scan"}, "is_reserved": 0, "is_disabled": 0, "name": "449f83314c35933c8bcaf8b47ace4bdf", "bike_id": "449f83314c35933c8bcaf8b47ace4bdf", "fusion_lat": 0.0, "lon": -77.02089716666667, "type": "electric_scooter", "fusion_lon": 0.0, "lat": 38.90728283333333}, {"rental_uris": {"android": "https://dc.lft.to/lastmile_qr_scan", "ios": "https://dc.lft.to/lastmile_qr_scan"}, "is_reserved": 0, "is_disabled": 0, "name": "6560fd73fb05f3d92b748c35e35c80dc", "bike_id": "6560fd73fb05f3d92b748c35e35c80dc", "fusion_lat": 0.0, "lon": -77.04156583333334, "type": "electric_scooter", "fusion_lon": 0.0, "lat": 38.9161055}, {"rental_uris": {"android": "https://dc.lft.to/lastmile_qr_scan", "ios": "https://dc.lft.to/lastmile_qr_scan"}, "is_reserved": 0, "is_disabled": 0, "name": "ac7acbaeb4946c476ec1fbae1608f355", "bike_id": "ac7acbaeb4946c476ec1fbae1608f355", "fusion_lat": 0.0, "lon": -77.02487683333334, "type": "electric_scooter", "fusion_lon": 0.0, "lat": 38.94185983333333}, {"rental_uris": {"android": "https://dc.lft.to/lastmile_qr_scan", "ios": "https://dc.lft.to/lastmile_qr_scan"}, "is_reserved": 0, "is_disabled": 0, "name": "9569a82cfa3ccb44ddb914d2aa0b4fcc", "bike_id": "9569a82cfa3ccb44ddb914d2aa0b4fcc", "fusion_lat": 0.0, "lon": -77.01708033333334, "type": "electric_scooter", "fusion_lon": 0.0, "lat": 38.872964}, {"rental_uris": {"android": "https://dc.lft.to/lastmile_qr_scan", "ios": "https://dc.lft.to/lastmile_qr_scan"}, "is_reserved": 0, "is_disabled": 0, "name": "ff657fc82920fd93bcc1cfbeaa4e2777", "bike_id": "ff657fc82920fd93bcc1cfbeaa4e2777", "fusion_lat": 0.0, "lon": -77.01764616666667, "type": "electric_scooter", "fusion_lon": 0.0, "lat": 38.876887333333336}, {"rental_uris": {"android": "https://dc.lft.to/lastmile_qr_scan", "ios": "https://dc.lft.to/lastmile_qr_scan"}, "is_reserved": 0, "is_disabled": 0, "name": "f44a0369237ccd6cf2c71ec434d06d5e", "bike_id": "f44a0369237ccd6cf2c71ec434d06d5e", "fusion_lat": 0.0, "lon": -76.92504783333334, "type": "electric_scooter", "fusion_lon": 0.0, "lat": 38.885988}, {"rental_uris": {"android": "https://dc.lft.to/lastmile_qr_scan", "ios": "https://dc.lft.to/lastmile_qr_scan"}, "is_reserved": 0, "is_disabled": 0, "name": "fae0f916810a3d5fa37aa11b4d5a7911", "bike_id": "fae0f916810a3d5fa37aa11b4d5a7911", "fusion_lat": 0.0, "lon": -77.03627416666667, "type": "electric_scooter", "fusion_lon": 0.0, "lat": 38.90382916666667}, {"rental_uris": {"android": "https://dc.lft.to/lastmile_qr_scan", "ios": "https://dc.lft.to/lastmile_qr_scan"}, "is_reserved": 0, "is_disabled": 0, "name": "5770d0e5f43eb99a12065a4604820ca7", "bike_id": "5770d0e5f43eb99a12065a4604820ca7", "fusion_lat": 0.0, "lon": -77.03305966666667, "type": "electric_scooter", "fusion_lon": 0.0, "lat": 38.927532666666664}, {"rental_uris": {"android": "https://dc.lft.to/lastmile_qr_scan", "ios": "https://dc.lft.to/lastmile_qr_scan"}, "is_reserved": 0, "is_disabled": 0, "name": "eb6fccce200c2403b005acd444a05cb7", "bike_id": "eb6fccce200c2403b005acd444a05cb7", "fusion_lat": 0.0, "lon": -77.0468395, "type": "electric_scooter", "fusion_lon": 0.0, "lat": 38.8983825}, {"rental_uris": {"android": "https://dc.lft.to/lastmile_qr_scan", "ios": "https://dc.lft.to/lastmile_qr_scan"}, "is_reserved": 0, "is_disabled": 0, "name": "8cbbd85493069e1e543fb2ac57b08c14", "bike_id": "8cbbd85493069e1e543fb2ac57b08c14", "fusion_lat": 0.0, "lon": -76.92628233333333, "type": "electric_scooter", "fusion_lon": 0.0, "lat": 38.88378983333333}, {"rental_uris": {"android": "https://dc.lft.to/lastmile_qr_scan", "ios": "https://dc.lft.to/lastmile_qr_scan"}, "is_reserved": 0, "is_disabled": 0, "name": "38bb5ff3a62fab29f7f4667afdd08537", "bike_id": "38bb5ff3a62fab29f7f4667afdd08537", "fusion_lat": 0.0, "lon": -77.00605866666666, "type": "electric_scooter", "fusion_lon": 0.0, "lat": 38.905547166666665}, {"rental_uris": {"android": "https://dc.lft.to/lastmile_qr_scan", "ios": "https://dc.lft.to/lastmile_qr_scan"}, "is_reserved": 0, "is_disabled": 0, "name": "29010b118a69a0e465dfff07e4933815", "bike_id": "29010b118a69a0e465dfff07e4933815", "fusion_lat": 0.0, "lon": -77.03463033333334, "type": "electric_scooter", "fusion_lon": 0.0, "lat": 38.907428833333334}, {"rental_uris": {"android": "https://dc.lft.to/lastmile_qr_scan", "ios": "https://dc.lft.to/lastmile_qr_scan"}, "is_reserved": 0, "is_disabled": 0, "name": "3a8a2cd49ba341cfe37b1cda277fc0b6", "bike_id": "3a8a2cd49ba341cfe37b1cda277fc0b6", "fusion_lat": 0.0, "lon": -76.982491, "type": "electric_bike", "fusion_lon": 0.0, "lat": 38.9524445}, {"rental_uris": {"android": "https://dc.lft.to/lastmile_qr_scan", "ios": "https://dc.lft.to/lastmile_qr_scan"}, "is_reserved": 0, "is_disabled": 0, "name": "e9d0042f56fa9ed39f2f3cb0128635b8", "bike_id": "e9d0042f56fa9ed39f2f3cb0128635b8", "fusion_lat": 0.0, "lon": -77.03231233333334, "type": "electric_scooter", "fusion_lon": 0.0, "lat": 38.90969416666667}, {"rental_uris": {"android": "https://dc.lft.to/lastmile_qr_scan", "ios": "https://dc.lft.to/lastmile_qr_scan"}, "is_reserved": 0, "is_disabled": 0, "name": "14fac8d4478725b7b88eab44555ef1ff", "bike_id": "14fac8d4478725b7b88eab44555ef1ff", "fusion_lat": 0.0, "lon": -77.05197516666667, "type": "electric_scooter", "fusion_lon": 0.0, "lat": 38.9031685}, {"rental_uris": {"android": "https://dc.lft.to/lastmile_qr_scan", "ios": "https://dc.lft.to/lastmile_qr_scan"}, "is_reserved": 0, "is_disabled": 0, "name": "6bf86066473409f852d70e56fed7aae1", "bike_id": "6bf86066473409f852d70e56fed7aae1", "fusion_lat": 0.0, "lon": -77.045001, "type": "electric_scooter", "fusion_lon": 0.0, "lat": 38.89225166666667}, {"rental_uris": {"android": "https://dc.lft.to/lastmile_qr_scan", "ios": "https://dc.lft.to/lastmile_qr_scan"}, "is_reserved": 0, "is_disabled": 0, "name": "0c44ed6dbf0aa2c38a80f760d355aeb3", "bike_id": "0c44ed6dbf0aa2c38a80f760d355aeb3", "fusion_lat": 0.0, "lon": -77.03322416666667, "type": "electric_scooter", "fusion_lon": 0.0, "lat": 38.900039}, {"rental_uris": {"android": "https://dc.lft.to/lastmile_qr_scan", "ios": "https://dc.lft.to/lastmile_qr_scan"}, "is_reserved": 0, "is_disabled": 0, "name": "4212cf930581954e0dd1de73e73773b1", "bike_id": "4212cf930581954e0dd1de73e73773b1", "fusion_lat": 0.0, "lon": -77.03007433333333, "type": "electric_bike", "fusion_lon": 0.0, "lat": 38.90030483333334}, {"rental_uris": {"android": "https://dc.lft.to/lastmile_qr_scan", "ios": "https://dc.lft.to/lastmile_qr_scan"}, "is_reserved": 0, "is_disabled": 0, "name": "d0aa99870e2707c0e43304986d2bb89d", "bike_id": "d0aa99870e2707c0e43304986d2bb89d", "fusion_lat": 0.0, "lon": -77.02487933333333, "type": "electric_scooter", "fusion_lon": 0.0, "lat": 38.9418415}, {"rental_uris": {"android": "https://dc.lft.to/lastmile_qr_scan", "ios": "https://dc.lft.to/lastmile_qr_scan"}, "is_reserved": 0, "is_disabled": 0, "name": "07a06177d70538a152d1b757bf1711dc", "bike_id": "07a06177d70538a152d1b757bf1711dc", "fusion_lat": 0.0, "lon": -77.0465495, "type": "electric_scooter", "fusion_lon": 0.0, "lat": 38.893427}, {"rental_uris": {"android": "https://dc.lft.to/lastmile_qr_scan", "ios": "https://dc.lft.to/lastmile_qr_scan"}, "is_reserved": 0, "is_disabled": 0, "name": "e849d143a2b115a8a91206268cbbc78f", "bike_id": "e849d143a2b115a8a91206268cbbc78f", "fusion_lat": 0.0, "lon": -77.03170083333333, "type": "electric_scooter", "fusion_lon": 0.0, "lat": 38.9141095}, {"rental_uris": {"android": "https://dc.lft.to/lastmile_qr_scan", "ios": "https://dc.lft.to/lastmile_qr_scan"}, "is_reserved": 0, "is_disabled": 0, "name": "6c081e0cd9ebbe41bf4db435a61d5bbc", "bike_id": "6c081e0cd9ebbe41bf4db435a61d5bbc", "fusion_lat": 0.0, "lon": -77.0503235, "type": "electric_scooter", "fusion_lon": 0.0, "lat": 38.9037035}, {"rental_uris": {"android": "https://dc.lft.to/lastmile_qr_scan", "ios": "https://dc.lft.to/lastmile_qr_scan"}, "is_reserved": 0, "is_disabled": 0, "name": "cf4213240efd70a41f752a34c7c89214", "bike_id": "cf4213240efd70a41f752a34c7c89214", "fusion_lat": 0.0, "lon": -77.020989, "type": "electric_scooter", "fusion_lon": 0.0, "lat": 38.93267566666667}, {"rental_uris": {"android": "https://dc.lft.to/lastmile_qr_scan", "ios": "https://dc.lft.to/lastmile_qr_scan"}, "is_reserved": 0, "is_disabled": 0, "name": "cb72cefbca99d3381245bfaef362e306", "bike_id": "cb72cefbca99d3381245bfaef362e306", "fusion_lat": 0.0, "lon": -77.03319466666666, "type": "electric_scooter", "fusion_lon": 0.0, "lat": 38.8988415}, {"rental_uris": {"android": "https://dc.lft.to/lastmile_qr_scan", "ios": "https://dc.lft.to/lastmile_qr_scan"}, "is_reserved": 0, "is_disabled": 0, "name": "e333e7c057171baf22496f75c7951108", "bike_id": "e333e7c057171baf22496f75c7951108", "fusion_lat": 0.0, "lon": -77.040138, "type": "electric_scooter", "fusion_lon": 0.0, "lat": 38.92181033333333}, {"rental_uris": {"android": "https://dc.lft.to/lastmile_qr_scan", "ios": "https://dc.lft.to/lastmile_qr_scan"}, "is_reserved": 0, "is_disabled": 0, "name": "569d3722426744acc397d9cd14758b9c", "bike_id": "569d3722426744acc397d9cd14758b9c", "fusion_lat": 0.0, "lon": -77.04233666666667, "type": "electric_scooter", "fusion_lon": 0.0, "lat": 38.911126833333334}, {"rental_uris": {"android": "https://dc.lft.to/lastmile_qr_scan", "ios": "https://dc.lft.to/lastmile_qr_scan"}, "is_reserved": 0, "is_disabled": 0, "name": "a68df8cd8b716d5d20137d485b8d8a7c", "bike_id": "a68df8cd8b716d5d20137d485b8d8a7c", "fusion_lat": 0.0, "lon": -77.02273383333333, "type": "electric_scooter", "fusion_lon": 0.0, "lat": 38.89976166666667}, {"rental_uris": {"android": "https://dc.lft.to/lastmile_qr_scan", "ios": "https://dc.lft.to/lastmile_qr_scan"}, "is_reserved": 0, "is_disabled": 0, "name": "75110d4b161a86b96ae93f54a7e90da4", "bike_id": "75110d4b161a86b96ae93f54a7e90da4", "fusion_lat": 0.0, "lon": -76.980159, "type": "electric_bike", "fusion_lon": 0.0, "lat": 38.85317116666667}, {"rental_uris": {"android": "https://dc.lft.to/lastmile_qr_scan", "ios": "https://dc.lft.to/lastmile_qr_scan"}, "is_reserved": 0, "is_disabled": 0, "name": "02b666ce2bd6f56facf530001f6497e4", "bike_id": "02b666ce2bd6f56facf530001f6497e4", "fusion_lat": 0.0, "lon": -77.05001633333333, "type": "electric_scooter", "fusion_lon": 0.0, "lat": 38.90119166666667}, {"rental_uris": {"android": "https://dc.lft.to/lastmile_qr_scan", "ios": "https://dc.lft.to/lastmile_qr_scan"}, "is_reserved": 0, "is_disabled": 0, "name": "4a5a8d819482c1f4747375928846655d", "bike_id": "4a5a8d819482c1f4747375928846655d", "fusion_lat": 0.0, "lon": -77.00627266666666, "type": "electric_scooter", "fusion_lon": 0.0, "lat": 38.871780333333334}, {"rental_uris": {"android": "https://dc.lft.to/lastmile_qr_scan", "ios": "https://dc.lft.to/lastmile_qr_scan"}, "is_reserved": 0, "is_disabled": 0, "name": "ff73a4cf4c9707dee867469f9ef0010f", "bike_id": "ff73a4cf4c9707dee867469f9ef0010f", "fusion_lat": 0.0, "lon": -77.03899466666667, "type": "electric_scooter", "fusion_lon": 0.0, "lat": 38.90124383333333}, {"rental_uris": {"android": "https://dc.lft.to/lastmile_qr_scan", "ios": "https://dc.lft.to/lastmile_qr_scan"}, "is_reserved": 0, "is_disabled": 0, "name": "0d3eaf3292460929d86c2145b821ca0b", "bike_id": "0d3eaf3292460929d86c2145b821ca0b", "fusion_lat": 0.0, "lon": -77.04469083333333, "type": "electric_scooter", "fusion_lon": 0.0, "lat": 38.902864}, {"rental_uris": {"android": "https://dc.lft.to/lastmile_qr_scan", "ios": "https://dc.lft.to/lastmile_qr_scan"}, "is_reserved": 0, "is_disabled": 0, "name": "ddc625b8b038115598ba06fe47813507", "bike_id": "ddc625b8b038115598ba06fe47813507", "fusion_lat": 0.0, "lon": -77.02811233333334, "type": "electric_scooter", "fusion_lon": 0.0, "lat": 38.90569166666667}, {"rental_uris": {"android": "https://dc.lft.to/lastmile_qr_scan", "ios": "https://dc.lft.to/lastmile_qr_scan"}, "is_reserved": 0, "is_disabled": 0, "name": "241b7b87a041f9c9c110ae9bbb99de0a", "bike_id": "241b7b87a041f9c9c110ae9bbb99de0a", "fusion_lat": 0.0, "lon": -77.0634095, "type": "electric_scooter", "fusion_lon": 0.0, "lat": 38.90684133333333}, {"rental_uris": {"android": "https://dc.lft.to/lastmile_qr_scan", "ios": "https://dc.lft.to/lastmile_qr_scan"}, "is_reserved": 0, "is_disabled": 0, "name": "e1015850f5176c1e2265268cfbe469f8", "bike_id": "e1015850f5176c1e2265268cfbe469f8", "fusion_lat": 0.0, "lon": -77.01423683333333, "type": "electric_scooter", "fusion_lon": 0.0, "lat": 38.90568533333333}, {"rental_uris": {"android": "https://dc.lft.to/lastmile_qr_scan", "ios": "https://dc.lft.to/lastmile_qr_scan"}, "is_reserved": 0, "is_disabled": 0, "name": "ea617972cdcad977a2184b8672124bb1", "bike_id": "ea617972cdcad977a2184b8672124bb1", "fusion_lat": 0.0, "lon": -77.04198916666667, "type": "electric_scooter", "fusion_lon": 0.0, "lat": 38.9204225}, {"rental_uris": {"android": "https://dc.lft.to/lastmile_qr_scan", "ios": "https://dc.lft.to/lastmile_qr_scan"}, "is_reserved": 0, "is_disabled": 0, "name": "ab4baa53a4216e8010213a61c37d807a", "bike_id": "ab4baa53a4216e8010213a61c37d807a", "fusion_lat": 0.0, "lon": -76.92965166666667, "type": "electric_scooter", "fusion_lon": 0.0, "lat": 38.896372666666664}, {"rental_uris": {"android": "https://dc.lft.to/lastmile_qr_scan", "ios": "https://dc.lft.to/lastmile_qr_scan"}, "is_reserved": 0, "is_disabled": 0, "name": "6fde57c2a734e961f4d733a539873dc0", "bike_id": "6fde57c2a734e961f4d733a539873dc0", "fusion_lat": 0.0, "lon": -77.129395, "type": "electric_bike", "fusion_lon": 0.0, "lat": 38.865857}, {"rental_uris": {"android": "https://dc.lft.to/lastmile_qr_scan", "ios": "https://dc.lft.to/lastmile_qr_scan"}, "is_reserved": 0, "is_disabled": 0, "name": "539d61f1d98c9670e57a7bda17880dda", "bike_id": "539d61f1d98c9670e57a7bda17880dda", "fusion_lat": 0.0, "lon": -77.02495033333334, "type": "electric_scooter", "fusion_lon": 0.0, "lat": 38.920760333333334}, {"rental_uris": {"android": "https://dc.lft.to/lastmile_qr_scan", "ios": "https://dc.lft.to/lastmile_qr_scan"}, "is_reserved": 0, "is_disabled": 0, "name": "7d3847d5b47b88863eec8be42f3a6490", "bike_id": "7d3847d5b47b88863eec8be42f3a6490", "fusion_lat": 0.0, "lon": -76.98992516666667, "type": "electric_scooter", "fusion_lon": 0.0, "lat": 38.8643945}, {"rental_uris": {"android": "https://dc.lft.to/lastmile_qr_scan", "ios": "https://dc.lft.to/lastmile_qr_scan"}, "is_reserved": 0, "is_disabled": 0, "name": "899599b24c4e1e3d5028593463f532c1", "bike_id": "899599b24c4e1e3d5028593463f532c1", "fusion_lat": 0.0, "lon": -77.00345266666666, "type": "electric_scooter", "fusion_lon": 0.0, "lat": 38.88644683333333}, {"rental_uris": {"android": "https://dc.lft.to/lastmile_qr_scan", "ios": "https://dc.lft.to/lastmile_qr_scan"}, "is_reserved": 0, "is_disabled": 0, "name": "9f3b7973270433134fb55c721b0427b7", "bike_id": "9f3b7973270433134fb55c721b0427b7", "fusion_lat": 0.0, "lon": -76.99423416666667, "type": "electric_scooter", "fusion_lon": 0.0, "lat": 38.933451833333336}, {"rental_uris": {"android": "https://dc.lft.to/lastmile_qr_scan", "ios": "https://dc.lft.to/lastmile_qr_scan"}, "is_reserved": 0, "is_disabled": 0, "name": "5d5b63453dd383195807d4ca341be84a", "bike_id": "5d5b63453dd383195807d4ca341be84a", "fusion_lat": 0.0, "lon": -77.001989, "type": "electric_scooter", "fusion_lon": 0.0, "lat": 38.902393333333336}, {"rental_uris": {"android": "https://dc.lft.to/lastmile_qr_scan", "ios": "https://dc.lft.to/lastmile_qr_scan"}, "is_reserved": 0, "is_disabled": 0, "name": "24dc85639f4d5dda9e5012bd251ab13f", "bike_id": "24dc85639f4d5dda9e5012bd251ab13f", "fusion_lat": 0.0, "lon": -77.03545416666667, "type": "electric_scooter", "fusion_lon": 0.0, "lat": 38.923516666666664}, {"rental_uris": {"android": "https://dc.lft.to/lastmile_qr_scan", "ios": "https://dc.lft.to/lastmile_qr_scan"}, "is_reserved": 0, "is_disabled": 0, "name": "698d660357723ea167c4fca600d3a0fb", "bike_id": "698d660357723ea167c4fca600d3a0fb", "fusion_lat": 0.0, "lon": -77.01848016666666, "type": "electric_scooter", "fusion_lon": 0.0, "lat": 38.909646333333335}, {"rental_uris": {"android": "https://dc.lft.to/lastmile_qr_scan", "ios": "https://dc.lft.to/lastmile_qr_scan"}, "is_reserved": 0, "is_disabled": 0, "name": "aae922e86df92a448397d4fbc8a39b51", "bike_id": "aae922e86df92a448397d4fbc8a39b51", "fusion_lat": 0.0, "lon": -77.03616783333334, "type": "electric_scooter", "fusion_lon": 0.0, "lat": 38.93739683333333}, {"rental_uris": {"android": "https://dc.lft.to/lastmile_qr_scan", "ios": "https://dc.lft.to/lastmile_qr_scan"}, "is_reserved": 0, "is_disabled": 0, "name": "70b1be2b3f394a960b262cf7adde87f7", "bike_id": "70b1be2b3f394a960b262cf7adde87f7", "fusion_lat": 0.0, "lon": -77.02718816666666, "type": "electric_scooter", "fusion_lon": 0.0, "lat": 38.90674816666667}, {"rental_uris": {"android": "https://dc.lft.to/lastmile_qr_scan", "ios": "https://dc.lft.to/lastmile_qr_scan"}, "is_reserved": 0, "is_disabled": 0, "name": "00fbf677a6ec414d9fdb81d0915b8641", "bike_id": "00fbf677a6ec414d9fdb81d0915b8641", "fusion_lat": 0.0, "lon": -77.0281245, "type": "electric_scooter", "fusion_lon": 0.0, "lat": 38.881780166666665}, {"rental_uris": {"android": "https://dc.lft.to/lastmile_qr_scan", "ios": "https://dc.lft.to/lastmile_qr_scan"}, "is_reserved": 0, "is_disabled": 0, "name": "7428bb756c81486b1bfd6a86246bd888", "bike_id": "7428bb756c81486b1bfd6a86246bd888", "fusion_lat": 0.0, "lon": -77.0853435, "type": "electric_bike", "fusion_lon": 0.0, "lat": 38.8566645}, {"rental_uris": {"android": "https://dc.lft.to/lastmile_qr_scan", "ios": "https://dc.lft.to/lastmile_qr_scan"}, "is_reserved": 0, "is_disabled": 0, "name": "db23720f0fe2203021e77566b999497b", "bike_id": "db23720f0fe2203021e77566b999497b", "fusion_lat": 0.0, "lon": -77.00469833333334, "type": "electric_scooter", "fusion_lon": 0.0, "lat": 38.911476}, {"rental_uris": {"android": "https://dc.lft.to/lastmile_qr_scan", "ios": "https://dc.lft.to/lastmile_qr_scan"}, "is_reserved": 0, "is_disabled": 0, "name": "b1ac0eb6464d0af4b60fb33794daa32f", "bike_id": "b1ac0eb6464d0af4b60fb33794daa32f", "fusion_lat": 0.0, "lon": -77.04030883333333, "type": "electric_scooter", "fusion_lon": 0.0, "lat": 38.90138483333333}, {"rental_uris": {"android": "https://dc.lft.to/lastmile_qr_scan", "ios": "https://dc.lft.to/lastmile_qr_scan"}, "is_reserved": 0, "is_disabled": 0, "name": "258695d491c4c0ca220e6e0235ba82ca", "bike_id": "258695d491c4c0ca220e6e0235ba82ca", "fusion_lat": 0.0, "lon": -77.03452516666667, "type": "electric_scooter", "fusion_lon": 0.0, "lat": 38.922271}, {"rental_uris": {"android": "https://dc.lft.to/lastmile_qr_scan", "ios": "https://dc.lft.to/lastmile_qr_scan"}, "is_reserved": 0, "is_disabled": 0, "name": "1e5a27bd554f375d888df5404d330964", "bike_id": "1e5a27bd554f375d888df5404d330964", "fusion_lat": 0.0, "lon": -77.03251766666666, "type": "electric_scooter", "fusion_lon": 0.0, "lat": 38.917192666666665}, {"rental_uris": {"android": "https://dc.lft.to/lastmile_qr_scan", "ios": "https://dc.lft.to/lastmile_qr_scan"}, "is_reserved": 0, "is_disabled": 0, "name": "32041662b0065eed1d59adf7d89e0a73", "bike_id": "32041662b0065eed1d59adf7d89e0a73", "fusion_lat": 0.0, "lon": -77.0021945, "type": "electric_scooter", "fusion_lon": 0.0, "lat": 38.900458666666665}, {"rental_uris": {"android": "https://dc.lft.to/lastmile_qr_scan", "ios": "https://dc.lft.to/lastmile_qr_scan"}, "is_reserved": 0, "is_disabled": 0, "name": "fc9fd8420d654d6a0f4f17fb815f75d7", "bike_id": "fc9fd8420d654d6a0f4f17fb815f75d7", "fusion_lat": 0.0, "lon": -76.97340916666667, "type": "electric_bike", "fusion_lon": 0.0, "lat": 38.86522166666666}, {"rental_uris": {"android": "https://dc.lft.to/lastmile_qr_scan", "ios": "https://dc.lft.to/lastmile_qr_scan"}, "is_reserved": 0, "is_disabled": 0, "name": "a635d44e92329a9dfd078b2521252d7d", "bike_id": "a635d44e92329a9dfd078b2521252d7d", "fusion_lat": 0.0, "lon": -77.0015915, "type": "electric_scooter", "fusion_lon": 0.0, "lat": 38.90771083333333}, {"rental_uris": {"android": "https://dc.lft.to/lastmile_qr_scan", "ios": "https://dc.lft.to/lastmile_qr_scan"}, "is_reserved": 0, "is_disabled": 0, "name": "9808825b052d21e1f29f339a8e9f09f1", "bike_id": "9808825b052d21e1f29f339a8e9f09f1", "fusion_lat": 0.0, "lon": -77.01455, "type": "electric_scooter", "fusion_lon": 0.0, "lat": 38.91772983333333}, {"rental_uris": {"android": "https://dc.lft.to/lastmile_qr_scan", "ios": "https://dc.lft.to/lastmile_qr_scan"}, "is_reserved": 0, "is_disabled": 0, "name": "700ebb130872c0a7cc1961d880d241cb", "bike_id": "700ebb130872c0a7cc1961d880d241cb", "fusion_lat": 0.0, "lon": -77.04328133333334, "type": "electric_scooter", "fusion_lon": 0.0, "lat": 38.89222866666667}, {"rental_uris": {"android": "https://dc.lft.to/lastmile_qr_scan", "ios": "https://dc.lft.to/lastmile_qr_scan"}, "is_reserved": 0, "is_disabled": 0, "name": "f370032d3958125f3987fb7e06637587", "bike_id": "f370032d3958125f3987fb7e06637587", "fusion_lat": 0.0, "lon": -77.02167266666666, "type": "electric_scooter", "fusion_lon": 0.0, "lat": 38.924966833333336}, {"rental_uris": {"android": "https://dc.lft.to/lastmile_qr_scan", "ios": "https://dc.lft.to/lastmile_qr_scan"}, "is_reserved": 0, "is_disabled": 0, "name": "5a4ebe680f9852aa3f6468af81502b00", "bike_id": "5a4ebe680f9852aa3f6468af81502b00", "fusion_lat": 0.0, "lon": -77.0071845, "type": "electric_bike", "fusion_lon": 0.0, "lat": 38.995084166666665}, {"rental_uris": {"android": "https://dc.lft.to/lastmile_qr_scan", "ios": "https://dc.lft.to/lastmile_qr_scan"}, "is_reserved": 0, "is_disabled": 0, "name": "eeb9f2dc9b1defd6a10cf44955418919", "bike_id": "eeb9f2dc9b1defd6a10cf44955418919", "fusion_lat": 0.0, "lon": -77.02473783333333, "type": "electric_scooter", "fusion_lon": 0.0, "lat": 38.938513}, {"rental_uris": {"android": "https://dc.lft.to/lastmile_qr_scan", "ios": "https://dc.lft.to/lastmile_qr_scan"}, "is_reserved": 0, "is_disabled": 0, "name": "6d97ecb4db78a85a3f529fcc74a58769", "bike_id": "6d97ecb4db78a85a3f529fcc74a58769", "fusion_lat": 0.0, "lon": -77.0281185, "type": "electric_scooter", "fusion_lon": 0.0, "lat": 38.9167355}, {"rental_uris": {"android": "https://dc.lft.to/lastmile_qr_scan", "ios": "https://dc.lft.to/lastmile_qr_scan"}, "is_reserved": 0, "is_disabled": 0, "name": "7ed497ff1b49fed73a062e75672e46f9", "bike_id": "7ed497ff1b49fed73a062e75672e46f9", "fusion_lat": 0.0, "lon": -76.9985175, "type": "electric_scooter", "fusion_lon": 0.0, "lat": 38.89197566666667}, {"rental_uris": {"android": "https://dc.lft.to/lastmile_qr_scan", "ios": "https://dc.lft.to/lastmile_qr_scan"}, "is_reserved": 0, "is_disabled": 0, "name": "d78bf177ea1c25e0ff9777e17c546f80", "bike_id": "d78bf177ea1c25e0ff9777e17c546f80", "fusion_lat": 0.0, "lon": -77.0247285, "type": "electric_scooter", "fusion_lon": 0.0, "lat": 38.93859966666667}, {"rental_uris": {"android": "https://dc.lft.to/lastmile_qr_scan", "ios": "https://dc.lft.to/lastmile_qr_scan"}, "is_reserved": 0, "is_disabled": 0, "name": "38a2274cf3a69a7c9e877ba68b89f52c", "bike_id": "38a2274cf3a69a7c9e877ba68b89f52c", "fusion_lat": 0.0, "lon": -77.0297795, "type": "electric_scooter", "fusion_lon": 0.0, "lat": 38.9325625}, {"rental_uris": {"android": "https://dc.lft.to/lastmile_qr_scan", "ios": "https://dc.lft.to/lastmile_qr_scan"}, "is_reserved": 0, "is_disabled": 0, "name": "18caa693afe11ad81690a05fe1316902", "bike_id": "18caa693afe11ad81690a05fe1316902", "fusion_lat": 0.0, "lon": -77.03789266666666, "type": "electric_bike", "fusion_lon": 0.0, "lat": 38.99686116666667}, {"rental_uris": {"android": "https://dc.lft.to/lastmile_qr_scan", "ios": "https://dc.lft.to/lastmile_qr_scan"}, "is_reserved": 0, "is_disabled": 0, "name": "f69f431d01a5bd438848b657e98bd91b", "bike_id": "f69f431d01a5bd438848b657e98bd91b", "fusion_lat": 0.0, "lon": -77.03262066666667, "type": "electric_scooter", "fusion_lon": 0.0, "lat": 38.93523416666667}, {"rental_uris": {"android": "https://dc.lft.to/lastmile_qr_scan", "ios": "https://dc.lft.to/lastmile_qr_scan"}, "is_reserved": 0, "is_disabled": 0, "name": "7c773c29af604715008e369cd31b078e", "bike_id": "7c773c29af604715008e369cd31b078e", "fusion_lat": 0.0, "lon": -77.01165433333334, "type": "electric_scooter", "fusion_lon": 0.0, "lat": 38.917013}, {"rental_uris": {"android": "https://dc.lft.to/lastmile_qr_scan", "ios": "https://dc.lft.to/lastmile_qr_scan"}, "is_reserved": 0, "is_disabled": 0, "name": "7162f3246f2d0b3ff2240d33393ff2f7", "bike_id": "7162f3246f2d0b3ff2240d33393ff2f7", "fusion_lat": 0.0, "lon": -77.05271683333333, "type": "electric_bike", "fusion_lon": 0.0, "lat": 38.940877}, {"rental_uris": {"android": "https://dc.lft.to/lastmile_qr_scan", "ios": "https://dc.lft.to/lastmile_qr_scan"}, "is_reserved": 0, "is_disabled": 0, "name": "f419a09111f8c79c067c492527755c12", "bike_id": "f419a09111f8c79c067c492527755c12", "fusion_lat": 0.0, "lon": -77.052135, "type": "electric_scooter", "fusion_lon": 0.0, "lat": 38.9249105}, {"rental_uris": {"android": "https://dc.lft.to/lastmile_qr_scan", "ios": "https://dc.lft.to/lastmile_qr_scan"}, "is_reserved": 0, "is_disabled": 0, "name": "29849b78076a2fb26f9478bb937cf8f6", "bike_id": "29849b78076a2fb26f9478bb937cf8f6", "fusion_lat": 0.0, "lon": -77.04011633333333, "type": "electric_scooter", "fusion_lon": 0.0, "lat": 38.9180515}, {"rental_uris": {"android": "https://dc.lft.to/lastmile_qr_scan", "ios": "https://dc.lft.to/lastmile_qr_scan"}, "is_reserved": 0, "is_disabled": 0, "name": "bdc68a322478795a4d4f92d6812d8b99", "bike_id": "bdc68a322478795a4d4f92d6812d8b99", "fusion_lat": 0.0, "lon": -77.0083415, "type": "electric_scooter", "fusion_lon": 0.0, "lat": 38.876479333333336}, {"rental_uris": {"android": "https://dc.lft.to/lastmile_qr_scan", "ios": "https://dc.lft.to/lastmile_qr_scan"}, "is_reserved": 0, "is_disabled": 0, "name": "d46b5ff32557a42fa3d119a7f10bb7b6", "bike_id": "d46b5ff32557a42fa3d119a7f10bb7b6", "fusion_lat": 0.0, "lon": -76.932195, "type": "electric_scooter", "fusion_lon": 0.0, "lat": 38.880618166666665}, {"rental_uris": {"android": "https://dc.lft.to/lastmile_qr_scan", "ios": "https://dc.lft.to/lastmile_qr_scan"}, "is_reserved": 0, "is_disabled": 0, "name": "63b323be7f28a019d4e7b7186e4f546e", "bike_id": "63b323be7f28a019d4e7b7186e4f546e", "fusion_lat": 0.0, "lon": -77.016581, "type": "electric_bike", "fusion_lon": 0.0, "lat": 38.953506833333336}, {"rental_uris": {"android": "https://dc.lft.to/lastmile_qr_scan", "ios": "https://dc.lft.to/lastmile_qr_scan"}, "is_reserved": 0, "is_disabled": 0, "name": "189f46d48c592117e6097bb63f3aa496", "bike_id": "189f46d48c592117e6097bb63f3aa496", "fusion_lat": 0.0, "lon": -77.01224483333333, "type": "electric_scooter", "fusion_lon": 0.0, "lat": 38.900808166666664}, {"rental_uris": {"android": "https://dc.lft.to/lastmile_qr_scan", "ios": "https://dc.lft.to/lastmile_qr_scan"}, "is_reserved": 0, "is_disabled": 0, "name": "4e42a3fdbd504de1fe15cc35f33b73eb", "bike_id": "4e42a3fdbd504de1fe15cc35f33b73eb", "fusion_lat": 0.0, "lon": -76.98837333333333, "type": "electric_scooter", "fusion_lon": 0.0, "lat": 38.900282833333335}, {"rental_uris": {"android": "https://dc.lft.to/lastmile_qr_scan", "ios": "https://dc.lft.to/lastmile_qr_scan"}, "is_reserved": 0, "is_disabled": 0, "name": "7c41782a8211f6a839c6cdf95ae662e3", "bike_id": "7c41782a8211f6a839c6cdf95ae662e3", "fusion_lat": 0.0, "lon": -77.0342255, "type": "electric_scooter", "fusion_lon": 0.0, "lat": 38.9074415}, {"rental_uris": {"android": "https://dc.lft.to/lastmile_qr_scan", "ios": "https://dc.lft.to/lastmile_qr_scan"}, "is_reserved": 0, "is_disabled": 0, "name": "b5949d72d8597e1ddb0c0b24e85949ce", "bike_id": "b5949d72d8597e1ddb0c0b24e85949ce", "fusion_lat": 0.0, "lon": -76.98238516666666, "type": "electric_scooter", "fusion_lon": 0.0, "lat": 38.908934333333335}, {"rental_uris": {"android": "https://dc.lft.to/lastmile_qr_scan", "ios": "https://dc.lft.to/lastmile_qr_scan"}, "is_reserved": 0, "is_disabled": 0, "name": "d2f5f4960b074c600b012f2a3d31fcf9", "bike_id": "d2f5f4960b074c600b012f2a3d31fcf9", "fusion_lat": 0.0, "lon": -77.03171116666667, "type": "electric_scooter", "fusion_lon": 0.0, "lat": 38.9156345}, {"rental_uris": {"android": "https://dc.lft.to/lastmile_qr_scan", "ios": "https://dc.lft.to/lastmile_qr_scan"}, "is_reserved": 0, "is_disabled": 0, "name": "b0ecfeb333254acd27ef91ab96826335", "bike_id": "b0ecfeb333254acd27ef91ab96826335", "fusion_lat": 0.0, "lon": -77.02965316666666, "type": "electric_scooter", "fusion_lon": 0.0, "lat": 38.90506933333333}, {"rental_uris": {"android": "https://dc.lft.to/lastmile_qr_scan", "ios": "https://dc.lft.to/lastmile_qr_scan"}, "is_reserved": 0, "is_disabled": 0, "name": "0500ff79819551a157cc4adbdaeedcae", "bike_id": "0500ff79819551a157cc4adbdaeedcae", "fusion_lat": 0.0, "lon": -76.99675133333334, "type": "electric_bike", "fusion_lon": 0.0, "lat": 38.83822083333333}, {"rental_uris": {"android": "https://dc.lft.to/lastmile_qr_scan", "ios": "https://dc.lft.to/lastmile_qr_scan"}, "is_reserved": 0, "is_disabled": 0, "name": "2517b00f160fdf2b63d89b934dcc6ca3", "bike_id": "2517b00f160fdf2b63d89b934dcc6ca3", "fusion_lat": 0.0, "lon": -77.03650333333333, "type": "electric_scooter", "fusion_lon": 0.0, "lat": 38.9359575}, {"rental_uris": {"android": "https://dc.lft.to/lastmile_qr_scan", "ios": "https://dc.lft.to/lastmile_qr_scan"}, "is_reserved": 0, "is_disabled": 0, "name": "ade18c1d85acf892a457da9356a469bd", "bike_id": "ade18c1d85acf892a457da9356a469bd", "fusion_lat": 0.0, "lon": -76.94873833333334, "type": "electric_scooter", "fusion_lon": 0.0, "lat": 38.8949945}, {"rental_uris": {"android": "https://dc.lft.to/lastmile_qr_scan", "ios": "https://dc.lft.to/lastmile_qr_scan"}, "is_reserved": 0, "is_disabled": 0, "name": "05465ab4f1716d849714f9c8e9a43fb1", "bike_id": "05465ab4f1716d849714f9c8e9a43fb1", "fusion_lat": 0.0, "lon": -77.00624033333334, "type": "electric_scooter", "fusion_lon": 0.0, "lat": 38.871735666666666}, {"rental_uris": {"android": "https://dc.lft.to/lastmile_qr_scan", "ios": "https://dc.lft.to/lastmile_qr_scan"}, "is_reserved": 0, "is_disabled": 0, "name": "fa7ea8f0a7f2965d1843faf30917115a", "bike_id": "fa7ea8f0a7f2965d1843faf30917115a", "fusion_lat": 0.0, "lon": -77.057352, "type": "electric_scooter", "fusion_lon": 0.0, "lat": 38.933726}, {"rental_uris": {"android": "https://dc.lft.to/lastmile_qr_scan", "ios": "https://dc.lft.to/lastmile_qr_scan"}, "is_reserved": 0, "is_disabled": 0, "name": "8fe09604b938a8c2aa018e92a0aad338", "bike_id": "8fe09604b938a8c2aa018e92a0aad338", "fusion_lat": 0.0, "lon": -77.02677683333333, "type": "electric_scooter", "fusion_lon": 0.0, "lat": 38.907198666666666}, {"rental_uris": {"android": "https://dc.lft.to/lastmile_qr_scan", "ios": "https://dc.lft.to/lastmile_qr_scan"}, "is_reserved": 0, "is_disabled": 0, "name": "d70c9ddfb39c90f52f0c1645482d54b7", "bike_id": "d70c9ddfb39c90f52f0c1645482d54b7", "fusion_lat": 0.0, "lon": -77.02799833333333, "type": "electric_scooter", "fusion_lon": 0.0, "lat": 38.939199}, {"rental_uris": {"android": "https://dc.lft.to/lastmile_qr_scan", "ios": "https://dc.lft.to/lastmile_qr_scan"}, "is_reserved": 0, "is_disabled": 0, "name": "52548292ccc99151675680ba5cbf8ed1", "bike_id": "52548292ccc99151675680ba5cbf8ed1", "fusion_lat": 0.0, "lon": -77.04884416666667, "type": "electric_scooter", "fusion_lon": 0.0, "lat": 38.900364}, {"rental_uris": {"android": "https://dc.lft.to/lastmile_qr_scan", "ios": "https://dc.lft.to/lastmile_qr_scan"}, "is_reserved": 0, "is_disabled": 0, "name": "8d683eb3158c1e4392410aadb555d64e", "bike_id": "8d683eb3158c1e4392410aadb555d64e", "fusion_lat": 0.0, "lon": -77.01335183333333, "type": "electric_scooter", "fusion_lon": 0.0, "lat": 38.9141785}, {"rental_uris": {"android": "https://dc.lft.to/lastmile_qr_scan", "ios": "https://dc.lft.to/lastmile_qr_scan"}, "is_reserved": 0, "is_disabled": 0, "name": "64891036d9efa0d2731fa61aa471c4a7", "bike_id": "64891036d9efa0d2731fa61aa471c4a7", "fusion_lat": 0.0, "lon": -77.03462133333333, "type": "electric_scooter", "fusion_lon": 0.0, "lat": 38.916657666666666}, {"rental_uris": {"android": "https://dc.lft.to/lastmile_qr_scan", "ios": "https://dc.lft.to/lastmile_qr_scan"}, "is_reserved": 0, "is_disabled": 0, "name": "4d0999154f6c4aa3e4270727afad877c", "bike_id": "4d0999154f6c4aa3e4270727afad877c", "fusion_lat": 0.0, "lon": -77.03632183333333, "type": "electric_scooter", "fusion_lon": 0.0, "lat": 38.93678533333333}, {"rental_uris": {"android": "https://dc.lft.to/lastmile_qr_scan", "ios": "https://dc.lft.to/lastmile_qr_scan"}, "is_reserved": 0, "is_disabled": 0, "name": "cf4f40380f825f58459fca8973ae6879", "bike_id": "cf4f40380f825f58459fca8973ae6879", "fusion_lat": 0.0, "lon": -77.02030233333333, "type": "electric_bike", "fusion_lon": 0.0, "lat": 38.96558133333333}, {"rental_uris": {"android": "https://dc.lft.to/lastmile_qr_scan", "ios": "https://dc.lft.to/lastmile_qr_scan"}, "is_reserved": 0, "is_disabled": 0, "name": "3b15b1272f78614e2efd47bebf1c76d6", "bike_id": "3b15b1272f78614e2efd47bebf1c76d6", "fusion_lat": 0.0, "lon": -77.00630116666666, "type": "electric_scooter", "fusion_lon": 0.0, "lat": 38.8719545}, {"rental_uris": {"android": "https://dc.lft.to/lastmile_qr_scan", "ios": "https://dc.lft.to/lastmile_qr_scan"}, "is_reserved": 0, "is_disabled": 0, "name": "fd8697812c9f1316f42ddfabd68aaad7", "bike_id": "fd8697812c9f1316f42ddfabd68aaad7", "fusion_lat": 0.0, "lon": -77.01443183333333, "type": "electric_scooter", "fusion_lon": 0.0, "lat": 38.91958483333333}, {"rental_uris": {"android": "https://dc.lft.to/lastmile_qr_scan", "ios": "https://dc.lft.to/lastmile_qr_scan"}, "is_reserved": 0, "is_disabled": 0, "name": "dfd1c723cd413378668caa2eb5a1edfd", "bike_id": "dfd1c723cd413378668caa2eb5a1edfd", "fusion_lat": 0.0, "lon": -77.06349016666667, "type": "electric_scooter", "fusion_lon": 0.0, "lat": 38.94435983333333}, {"rental_uris": {"android": "https://dc.lft.to/lastmile_qr_scan", "ios": "https://dc.lft.to/lastmile_qr_scan"}, "is_reserved": 0, "is_disabled": 0, "name": "75a2d08ef5656b57e5239a15e465cb13", "bike_id": "75a2d08ef5656b57e5239a15e465cb13", "fusion_lat": 0.0, "lon": -76.9408745, "type": "electric_scooter", "fusion_lon": 0.0, "lat": 38.891233}, {"rental_uris": {"android": "https://dc.lft.to/lastmile_qr_scan", "ios": "https://dc.lft.to/lastmile_qr_scan"}, "is_reserved": 0, "is_disabled": 0, "name": "72c9fb16d621775638881bfd84bdaa79", "bike_id": "72c9fb16d621775638881bfd84bdaa79", "fusion_lat": 0.0, "lon": -77.053315, "type": "electric_scooter", "fusion_lon": 0.0, "lat": 38.90534666666667}, {"rental_uris": {"android": "https://dc.lft.to/lastmile_qr_scan", "ios": "https://dc.lft.to/lastmile_qr_scan"}, "is_reserved": 0, "is_disabled": 0, "name": "e60b343eac127dc2b492db8fd310dec6", "bike_id": "e60b343eac127dc2b492db8fd310dec6", "fusion_lat": 0.0, "lon": -77.0318635, "type": "electric_scooter", "fusion_lon": 0.0, "lat": 38.91349966666667}, {"rental_uris": {"android": "https://dc.lft.to/lastmile_qr_scan", "ios": "https://dc.lft.to/lastmile_qr_scan"}, "is_reserved": 0, "is_disabled": 0, "name": "22faa8a4e4dcd88e92e68794cce14704", "bike_id": "22faa8a4e4dcd88e92e68794cce14704", "fusion_lat": 0.0, "lon": -77.02317566666666, "type": "electric_scooter", "fusion_lon": 0.0, "lat": 38.91836083333333}, {"rental_uris": {"android": "https://dc.lft.to/lastmile_qr_scan", "ios": "https://dc.lft.to/lastmile_qr_scan"}, "is_reserved": 0, "is_disabled": 0, "name": "950d15c620a6f010cebbfd5153bb4b41", "bike_id": "950d15c620a6f010cebbfd5153bb4b41", "fusion_lat": 0.0, "lon": -77.03450866666667, "type": "electric_scooter", "fusion_lon": 0.0, "lat": 38.902565}, {"rental_uris": {"android": "https://dc.lft.to/lastmile_qr_scan", "ios": "https://dc.lft.to/lastmile_qr_scan"}, "is_reserved": 0, "is_disabled": 0, "name": "0fe50d6ed79eb3cf1de43036c940f4aa", "bike_id": "0fe50d6ed79eb3cf1de43036c940f4aa", "fusion_lat": 0.0, "lon": -77.04052716666666, "type": "electric_scooter", "fusion_lon": 0.0, "lat": 38.908602}, {"rental_uris": {"android": "https://dc.lft.to/lastmile_qr_scan", "ios": "https://dc.lft.to/lastmile_qr_scan"}, "is_reserved": 0, "is_disabled": 0, "name": "aeae803757de89ff3d8741c8c613343f", "bike_id": "aeae803757de89ff3d8741c8c613343f", "fusion_lat": 0.0, "lon": -77.03265016666667, "type": "electric_scooter", "fusion_lon": 0.0, "lat": 38.93738783333333}, {"rental_uris": {"android": "https://dc.lft.to/lastmile_qr_scan", "ios": "https://dc.lft.to/lastmile_qr_scan"}, "is_reserved": 0, "is_disabled": 0, "name": "2f75595722820672e0207eb0b4198f88", "bike_id": "2f75595722820672e0207eb0b4198f88", "fusion_lat": 0.0, "lon": -77.04310866666667, "type": "electric_scooter", "fusion_lon": 0.0, "lat": 38.91872}, {"rental_uris": {"android": "https://dc.lft.to/lastmile_qr_scan", "ios": "https://dc.lft.to/lastmile_qr_scan"}, "is_reserved": 0, "is_disabled": 0, "name": "fd593e38cd5b224fc571554042877d68", "bike_id": "fd593e38cd5b224fc571554042877d68", "fusion_lat": 0.0, "lon": -77.02379683333334, "type": "electric_scooter", "fusion_lon": 0.0, "lat": 38.95269583333334}, {"rental_uris": {"android": "https://dc.lft.to/lastmile_qr_scan", "ios": "https://dc.lft.to/lastmile_qr_scan"}, "is_reserved": 0, "is_disabled": 0, "name": "76f264a9f4d6c20063dbb616a83e1dd6", "bike_id": "76f264a9f4d6c20063dbb616a83e1dd6", "fusion_lat": 0.0, "lon": -77.02216533333333, "type": "electric_scooter", "fusion_lon": 0.0, "lat": 38.905429166666664}, {"rental_uris": {"android": "https://dc.lft.to/lastmile_qr_scan", "ios": "https://dc.lft.to/lastmile_qr_scan"}, "is_reserved": 0, "is_disabled": 0, "name": "a90a41f6617e6005321e46f37e1826f3", "bike_id": "a90a41f6617e6005321e46f37e1826f3", "fusion_lat": 0.0, "lon": -77.04063416666666, "type": "electric_scooter", "fusion_lon": 0.0, "lat": 38.90357183333333}, {"rental_uris": {"android": "https://dc.lft.to/lastmile_qr_scan", "ios": "https://dc.lft.to/lastmile_qr_scan"}, "is_reserved": 0, "is_disabled": 0, "name": "1369d0c549d60ed3fc0af97b60eed0e5", "bike_id": "1369d0c549d60ed3fc0af97b60eed0e5", "fusion_lat": 0.0, "lon": -77.00327233333333, "type": "electric_scooter", "fusion_lon": 0.0, "lat": 38.9027275}, {"rental_uris": {"android": "https://dc.lft.to/lastmile_qr_scan", "ios": "https://dc.lft.to/lastmile_qr_scan"}, "is_reserved": 0, "is_disabled": 0, "name": "139089fde75a559d7520ab286c3083be", "bike_id": "139089fde75a559d7520ab286c3083be", "fusion_lat": 0.0, "lon": -77.03944666666666, "type": "electric_scooter", "fusion_lon": 0.0, "lat": 38.9027745}, {"rental_uris": {"android": "https://dc.lft.to/lastmile_qr_scan", "ios": "https://dc.lft.to/lastmile_qr_scan"}, "is_reserved": 0, "is_disabled": 0, "name": "9164c4b11f1cad3caa93d0500bed0350", "bike_id": "9164c4b11f1cad3caa93d0500bed0350", "fusion_lat": 0.0, "lon": -77.01980183333333, "type": "electric_scooter", "fusion_lon": 0.0, "lat": 38.887156833333336}, {"rental_uris": {"android": "https://dc.lft.to/lastmile_qr_scan", "ios": "https://dc.lft.to/lastmile_qr_scan"}, "is_reserved": 0, "is_disabled": 0, "name": "34ac16315574c651fae954a4658ffeb6", "bike_id": "34ac16315574c651fae954a4658ffeb6", "fusion_lat": 0.0, "lon": -77.014853, "type": "electric_scooter", "fusion_lon": 0.0, "lat": 38.91414433333333}, {"rental_uris": {"android": "https://dc.lft.to/lastmile_qr_scan", "ios": "https://dc.lft.to/lastmile_qr_scan"}, "is_reserved": 0, "is_disabled": 0, "name": "b438a39aba2d40f439f7c6034b1d329d", "bike_id": "b438a39aba2d40f439f7c6034b1d329d", "fusion_lat": 0.0, "lon": -76.955662, "type": "electric_bike", "fusion_lon": 0.0, "lat": 38.98504}, {"rental_uris": {"android": "https://dc.lft.to/lastmile_qr_scan", "ios": "https://dc.lft.to/lastmile_qr_scan"}, "is_reserved": 0, "is_disabled": 0, "name": "21550cb0b8913fd89b8099372d8cc3ec", "bike_id": "21550cb0b8913fd89b8099372d8cc3ec", "fusion_lat": 0.0, "lon": -77.035385, "type": "electric_scooter", "fusion_lon": 0.0, "lat": 38.917019}, {"rental_uris": {"android": "https://dc.lft.to/lastmile_qr_scan", "ios": "https://dc.lft.to/lastmile_qr_scan"}, "is_reserved": 0, "is_disabled": 0, "name": "c0f3511cd98490c09a6aa71e394dd21f", "bike_id": "c0f3511cd98490c09a6aa71e394dd21f", "fusion_lat": 0.0, "lon": -77.01204183333333, "type": "electric_bike", "fusion_lon": 0.0, "lat": 38.9507335}, {"rental_uris": {"android": "https://dc.lft.to/lastmile_qr_scan", "ios": "https://dc.lft.to/lastmile_qr_scan"}, "is_reserved": 0, "is_disabled": 0, "name": "8302717bef36f9b33c166cf2970ae224", "bike_id": "8302717bef36f9b33c166cf2970ae224", "fusion_lat": 0.0, "lon": -77.044676, "type": "electric_scooter", "fusion_lon": 0.0, "lat": 38.924698666666664}, {"rental_uris": {"android": "https://dc.lft.to/lastmile_qr_scan", "ios": "https://dc.lft.to/lastmile_qr_scan"}, "is_reserved": 0, "is_disabled": 0, "name": "8c5f5e2da7379dc53e05d2024f9e3941", "bike_id": "8c5f5e2da7379dc53e05d2024f9e3941", "fusion_lat": 0.0, "lon": -77.02196033333334, "type": "electric_scooter", "fusion_lon": 0.0, "lat": 38.911194}, {"rental_uris": {"android": "https://dc.lft.to/lastmile_qr_scan", "ios": "https://dc.lft.to/lastmile_qr_scan"}, "is_reserved": 0, "is_disabled": 0, "name": "5ec932c0b5a519ad041cd6b64a31d87d", "bike_id": "5ec932c0b5a519ad041cd6b64a31d87d", "fusion_lat": 0.0, "lon": -77.04266416666667, "type": "electric_scooter", "fusion_lon": 0.0, "lat": 38.92233316666667}, {"rental_uris": {"android": "https://dc.lft.to/lastmile_qr_scan", "ios": "https://dc.lft.to/lastmile_qr_scan"}, "is_reserved": 0, "is_disabled": 0, "name": "342299cd05c3d075d22723266eda7639", "bike_id": "342299cd05c3d075d22723266eda7639", "fusion_lat": 0.0, "lon": -77.0629845, "type": "electric_scooter", "fusion_lon": 0.0, "lat": 38.904011833333335}, {"rental_uris": {"android": "https://dc.lft.to/lastmile_qr_scan", "ios": "https://dc.lft.to/lastmile_qr_scan"}, "is_reserved": 0, "is_disabled": 0, "name": "997d683a5d96b2466a0484977bef20b9", "bike_id": "997d683a5d96b2466a0484977bef20b9", "fusion_lat": 0.0, "lon": -77.02816866666667, "type": "electric_scooter", "fusion_lon": 0.0, "lat": 38.91749166666666}, {"rental_uris": {"android": "https://dc.lft.to/lastmile_qr_scan", "ios": "https://dc.lft.to/lastmile_qr_scan"}, "is_reserved": 0, "is_disabled": 0, "name": "b7d2ed7308ec9278fba1fc35dd72c8e8", "bike_id": "b7d2ed7308ec9278fba1fc35dd72c8e8", "fusion_lat": 0.0, "lon": -77.02977216666666, "type": "electric_scooter", "fusion_lon": 0.0, "lat": 38.942937666666666}, {"rental_uris": {"android": "https://dc.lft.to/lastmile_qr_scan", "ios": "https://dc.lft.to/lastmile_qr_scan"}, "is_reserved": 0, "is_disabled": 0, "name": "f3c4aba0767c80c73324a19227c34168", "bike_id": "f3c4aba0767c80c73324a19227c34168", "fusion_lat": 0.0, "lon": -77.02019633333333, "type": "electric_scooter", "fusion_lon": 0.0, "lat": 38.91565933333333}, {"rental_uris": {"android": "https://dc.lft.to/lastmile_qr_scan", "ios": "https://dc.lft.to/lastmile_qr_scan"}, "is_reserved": 0, "is_disabled": 0, "name": "c48f01399d6feb9f6e6b01e13866af3d", "bike_id": "c48f01399d6feb9f6e6b01e13866af3d", "fusion_lat": 0.0, "lon": -77.0106595, "type": "electric_scooter", "fusion_lon": 0.0, "lat": 38.8952365}, {"rental_uris": {"android": "https://dc.lft.to/lastmile_qr_scan", "ios": "https://dc.lft.to/lastmile_qr_scan"}, "is_reserved": 0, "is_disabled": 0, "name": "4d8c1ba3eec3fd9b4366ad8de7d91bc1", "bike_id": "4d8c1ba3eec3fd9b4366ad8de7d91bc1", "fusion_lat": 0.0, "lon": -77.03543816666667, "type": "electric_scooter", "fusion_lon": 0.0, "lat": 38.92410816666667}, {"rental_uris": {"android": "https://dc.lft.to/lastmile_qr_scan", "ios": "https://dc.lft.to/lastmile_qr_scan"}, "is_reserved": 0, "is_disabled": 0, "name": "e613c2ac3f3bb08353c84dbf2d1e29d6", "bike_id": "e613c2ac3f3bb08353c84dbf2d1e29d6", "fusion_lat": 0.0, "lon": -77.023716, "type": "electric_scooter", "fusion_lon": 0.0, "lat": 38.89221516666667}, {"rental_uris": {"android": "https://dc.lft.to/lastmile_qr_scan", "ios": "https://dc.lft.to/lastmile_qr_scan"}, "is_reserved": 0, "is_disabled": 0, "name": "4a1db994d4d5160552863780be946c61", "bike_id": "4a1db994d4d5160552863780be946c61", "fusion_lat": 0.0, "lon": -77.01816066666666, "type": "electric_scooter", "fusion_lon": 0.0, "lat": 38.91986966666666}, {"rental_uris": {"android": "https://dc.lft.to/lastmile_qr_scan", "ios": "https://dc.lft.to/lastmile_qr_scan"}, "is_reserved": 0, "is_disabled": 0, "name": "167351f03eb2d99e55bc8e431aec7ea3", "bike_id": "167351f03eb2d99e55bc8e431aec7ea3", "fusion_lat": 0.0, "lon": -77.020969, "type": "electric_scooter", "fusion_lon": 0.0, "lat": 38.9236245}, {"rental_uris": {"android": "https://dc.lft.to/lastmile_qr_scan", "ios": "https://dc.lft.to/lastmile_qr_scan"}, "is_reserved": 0, "is_disabled": 0, "name": "2e506aa7901a206373fac44eb2278cd0", "bike_id": "2e506aa7901a206373fac44eb2278cd0", "fusion_lat": 0.0, "lon": -77.01228233333333, "type": "electric_scooter", "fusion_lon": 0.0, "lat": 38.91407733333333}, {"rental_uris": {"android": "https://dc.lft.to/lastmile_qr_scan", "ios": "https://dc.lft.to/lastmile_qr_scan"}, "is_reserved": 0, "is_disabled": 0, "name": "be6f547d98011c4628a468255d4538d1", "bike_id": "be6f547d98011c4628a468255d4538d1", "fusion_lat": 0.0, "lon": -77.02414283333333, "type": "electric_scooter", "fusion_lon": 0.0, "lat": 38.9018795}, {"rental_uris": {"android": "https://dc.lft.to/lastmile_qr_scan", "ios": "https://dc.lft.to/lastmile_qr_scan"}, "is_reserved": 0, "is_disabled": 0, "name": "3143c4944e3debe1272ac7959cc5e927", "bike_id": "3143c4944e3debe1272ac7959cc5e927", "fusion_lat": 0.0, "lon": -77.02718166666666, "type": "electric_scooter", "fusion_lon": 0.0, "lat": 38.90687066666667}, {"rental_uris": {"android": "https://dc.lft.to/lastmile_qr_scan", "ios": "https://dc.lft.to/lastmile_qr_scan"}, "is_reserved": 0, "is_disabled": 0, "name": "6233d824addb67b12d329d5a4cd0150f", "bike_id": "6233d824addb67b12d329d5a4cd0150f", "fusion_lat": 0.0, "lon": -77.046621, "type": "electric_scooter", "fusion_lon": 0.0, "lat": 38.909498666666664}, {"rental_uris": {"android": "https://dc.lft.to/lastmile_qr_scan", "ios": "https://dc.lft.to/lastmile_qr_scan"}, "is_reserved": 0, "is_disabled": 0, "name": "d3ec0f3758ccdaf976db546cab2d3dca", "bike_id": "d3ec0f3758ccdaf976db546cab2d3dca", "fusion_lat": 0.0, "lon": -77.0265545, "type": "electric_scooter", "fusion_lon": 0.0, "lat": 38.92380766666667}, {"rental_uris": {"android": "https://dc.lft.to/lastmile_qr_scan", "ios": "https://dc.lft.to/lastmile_qr_scan"}, "is_reserved": 0, "is_disabled": 0, "name": "d8ea4117d786d99b9c237e8b32c8654d", "bike_id": "d8ea4117d786d99b9c237e8b32c8654d", "fusion_lat": 0.0, "lon": -77.008267, "type": "electric_scooter", "fusion_lon": 0.0, "lat": 38.876553333333334}, {"rental_uris": {"android": "https://dc.lft.to/lastmile_qr_scan", "ios": "https://dc.lft.to/lastmile_qr_scan"}, "is_reserved": 0, "is_disabled": 0, "name": "2fd08dcafa96a961460e1256086d31f2", "bike_id": "2fd08dcafa96a961460e1256086d31f2", "fusion_lat": 0.0, "lon": -77.065342, "type": "electric_bike", "fusion_lon": 0.0, "lat": 38.99234516666667}, {"rental_uris": {"android": "https://dc.lft.to/lastmile_qr_scan", "ios": "https://dc.lft.to/lastmile_qr_scan"}, "is_reserved": 0, "is_disabled": 0, "name": "70dca0cc5d16c9d446d372452de2cf85", "bike_id": "70dca0cc5d16c9d446d372452de2cf85", "fusion_lat": 0.0, "lon": -77.02625716666667, "type": "electric_bike", "fusion_lon": 0.0, "lat": 38.96223583333333}, {"rental_uris": {"android": "https://dc.lft.to/lastmile_qr_scan", "ios": "https://dc.lft.to/lastmile_qr_scan"}, "is_reserved": 0, "is_disabled": 0, "name": "0fd9a104e6df7c1378690ec0071ae23b", "bike_id": "0fd9a104e6df7c1378690ec0071ae23b", "fusion_lat": 0.0, "lon": -77.01520666666667, "type": "electric_scooter", "fusion_lon": 0.0, "lat": 38.87225183333334}, {"rental_uris": {"android": "https://dc.lft.to/lastmile_qr_scan", "ios": "https://dc.lft.to/lastmile_qr_scan"}, "is_reserved": 0, "is_disabled": 0, "name": "2abf89c2b64530ad67dd5cf6d955f3c5", "bike_id": "2abf89c2b64530ad67dd5cf6d955f3c5", "fusion_lat": 0.0, "lon": -77.03228866666667, "type": "electric_scooter", "fusion_lon": 0.0, "lat": 38.91783983333333}, {"rental_uris": {"android": "https://dc.lft.to/lastmile_qr_scan", "ios": "https://dc.lft.to/lastmile_qr_scan"}, "is_reserved": 0, "is_disabled": 0, "name": "1afec17e44636a934de1a209ac745b0a", "bike_id": "1afec17e44636a934de1a209ac745b0a", "fusion_lat": 0.0, "lon": -77.04111183333333, "type": "electric_scooter", "fusion_lon": 0.0, "lat": 38.91077883333333}, {"rental_uris": {"android": "https://dc.lft.to/lastmile_qr_scan", "ios": "https://dc.lft.to/lastmile_qr_scan"}, "is_reserved": 0, "is_disabled": 0, "name": "89f7bd94f7c8f3e88001bcc8d63d5d9d", "bike_id": "89f7bd94f7c8f3e88001bcc8d63d5d9d", "fusion_lat": 0.0, "lon": -76.99843583333333, "type": "electric_bike", "fusion_lon": 0.0, "lat": 38.90001183333333}, {"rental_uris": {"android": "https://dc.lft.to/lastmile_qr_scan", "ios": "https://dc.lft.to/lastmile_qr_scan"}, "is_reserved": 0, "is_disabled": 0, "name": "890f72e9a0d00db07f0a3105fa193b5d", "bike_id": "890f72e9a0d00db07f0a3105fa193b5d", "fusion_lat": 0.0, "lon": -77.06589266666667, "type": "electric_scooter", "fusion_lon": 0.0, "lat": 38.90395766666666}, {"rental_uris": {"android": "https://dc.lft.to/lastmile_qr_scan", "ios": "https://dc.lft.to/lastmile_qr_scan"}, "is_reserved": 0, "is_disabled": 0, "name": "ef0db417a74e808fab8d97753767b3b0", "bike_id": "ef0db417a74e808fab8d97753767b3b0", "fusion_lat": 0.0, "lon": -77.05346533333334, "type": "electric_scooter", "fusion_lon": 0.0, "lat": 38.9042315}, {"rental_uris": {"android": "https://dc.lft.to/lastmile_qr_scan", "ios": "https://dc.lft.to/lastmile_qr_scan"}, "is_reserved": 0, "is_disabled": 0, "name": "cb26f1c6bb50998d8d9e7b6ad78a831d", "bike_id": "cb26f1c6bb50998d8d9e7b6ad78a831d", "fusion_lat": 0.0, "lon": -77.04503616666666, "type": "electric_scooter", "fusion_lon": 0.0, "lat": 38.903504833333336}, {"rental_uris": {"android": "https://dc.lft.to/lastmile_qr_scan", "ios": "https://dc.lft.to/lastmile_qr_scan"}, "is_reserved": 0, "is_disabled": 0, "name": "c4bce2ec51c0b1c041df669075111245", "bike_id": "c4bce2ec51c0b1c041df669075111245", "fusion_lat": 0.0, "lon": -77.01066266666666, "type": "electric_scooter", "fusion_lon": 0.0, "lat": 38.918225166666666}, {"rental_uris": {"android": "https://dc.lft.to/lastmile_qr_scan", "ios": "https://dc.lft.to/lastmile_qr_scan"}, "is_reserved": 0, "is_disabled": 0, "name": "6a7d8de1e2d62de9283ea56118a8ecfe", "bike_id": "6a7d8de1e2d62de9283ea56118a8ecfe", "fusion_lat": 0.0, "lon": -77.049279, "type": "electric_scooter", "fusion_lon": 0.0, "lat": 38.895427}, {"rental_uris": {"android": "https://dc.lft.to/lastmile_qr_scan", "ios": "https://dc.lft.to/lastmile_qr_scan"}, "is_reserved": 0, "is_disabled": 0, "name": "26d2024d6ed4c840baa83abd1eab2434", "bike_id": "26d2024d6ed4c840baa83abd1eab2434", "fusion_lat": 0.0, "lon": -77.03858466666667, "type": "electric_scooter", "fusion_lon": 0.0, "lat": 38.91714016666667}, {"rental_uris": {"android": "https://dc.lft.to/lastmile_qr_scan", "ios": "https://dc.lft.to/lastmile_qr_scan"}, "is_reserved": 0, "is_disabled": 0, "name": "26ff2518bc9c8a283ef47a3a22e5229f", "bike_id": "26ff2518bc9c8a283ef47a3a22e5229f", "fusion_lat": 0.0, "lon": -76.98339433333334, "type": "electric_scooter", "fusion_lon": 0.0, "lat": 38.90096283333333}, {"rental_uris": {"android": "https://dc.lft.to/lastmile_qr_scan", "ios": "https://dc.lft.to/lastmile_qr_scan"}, "is_reserved": 0, "is_disabled": 0, "name": "04ec6428355fc83d076d3c5bfcb25ddd", "bike_id": "04ec6428355fc83d076d3c5bfcb25ddd", "fusion_lat": 0.0, "lon": -77.02162416666667, "type": "electric_scooter", "fusion_lon": 0.0, "lat": 38.92615216666667}, {"rental_uris": {"android": "https://dc.lft.to/lastmile_qr_scan", "ios": "https://dc.lft.to/lastmile_qr_scan"}, "is_reserved": 0, "is_disabled": 0, "name": "7fe817cfb503b29be0a44cd62a07a1ce", "bike_id": "7fe817cfb503b29be0a44cd62a07a1ce", "fusion_lat": 0.0, "lon": -77.03211616666667, "type": "electric_scooter", "fusion_lon": 0.0, "lat": 38.91633383333333}, {"rental_uris": {"android": "https://dc.lft.to/lastmile_qr_scan", "ios": "https://dc.lft.to/lastmile_qr_scan"}, "is_reserved": 0, "is_disabled": 0, "name": "fed197bca63c67431118c95a5e18fed9", "bike_id": "fed197bca63c67431118c95a5e18fed9", "fusion_lat": 0.0, "lon": -77.00202483333334, "type": "electric_scooter", "fusion_lon": 0.0, "lat": 38.902810333333335}, {"rental_uris": {"android": "https://dc.lft.to/lastmile_qr_scan", "ios": "https://dc.lft.to/lastmile_qr_scan"}, "is_reserved": 0, "is_disabled": 0, "name": "5b45aadf9fbce31666d84bcb43060d33", "bike_id": "5b45aadf9fbce31666d84bcb43060d33", "fusion_lat": 0.0, "lon": -76.98604066666667, "type": "electric_scooter", "fusion_lon": 0.0, "lat": 38.90655}, {"rental_uris": {"android": "https://dc.lft.to/lastmile_qr_scan", "ios": "https://dc.lft.to/lastmile_qr_scan"}, "is_reserved": 0, "is_disabled": 0, "name": "ffbead7e19324a0014c7de1db493e034", "bike_id": "ffbead7e19324a0014c7de1db493e034", "fusion_lat": 0.0, "lon": -77.01822016666667, "type": "electric_scooter", "fusion_lon": 0.0, "lat": 38.919825833333334}, {"rental_uris": {"android": "https://dc.lft.to/lastmile_qr_scan", "ios": "https://dc.lft.to/lastmile_qr_scan"}, "is_reserved": 0, "is_disabled": 0, "name": "5c7adb9f72305c86b31dd465190fc305", "bike_id": "5c7adb9f72305c86b31dd465190fc305", "fusion_lat": 0.0, "lon": -77.029716, "type": "electric_scooter", "fusion_lon": 0.0, "lat": 38.92442833333333}, {"rental_uris": {"android": "https://dc.lft.to/lastmile_qr_scan", "ios": "https://dc.lft.to/lastmile_qr_scan"}, "is_reserved": 0, "is_disabled": 0, "name": "252b6de3deefe29a791df561ab8f56f9", "bike_id": "252b6de3deefe29a791df561ab8f56f9", "fusion_lat": 0.0, "lon": -77.021805, "type": "electric_scooter", "fusion_lon": 0.0, "lat": 38.92498483333333}, {"rental_uris": {"android": "https://dc.lft.to/lastmile_qr_scan", "ios": "https://dc.lft.to/lastmile_qr_scan"}, "is_reserved": 0, "is_disabled": 0, "name": "7739e25f28a920060e19fd3e85f798ea", "bike_id": "7739e25f28a920060e19fd3e85f798ea", "fusion_lat": 0.0, "lon": -76.9971565, "type": "electric_bike", "fusion_lon": 0.0, "lat": 38.99855216666667}, {"rental_uris": {"android": "https://dc.lft.to/lastmile_qr_scan", "ios": "https://dc.lft.to/lastmile_qr_scan"}, "is_reserved": 0, "is_disabled": 0, "name": "c49cd340eeea686bfb87ee3111313ea5", "bike_id": "c49cd340eeea686bfb87ee3111313ea5", "fusion_lat": 0.0, "lon": -77.03283766666667, "type": "electric_scooter", "fusion_lon": 0.0, "lat": 38.899003666666665}, {"rental_uris": {"android": "https://dc.lft.to/lastmile_qr_scan", "ios": "https://dc.lft.to/lastmile_qr_scan"}, "is_reserved": 0, "is_disabled": 0, "name": "3b31c5e87425c4ed28cce72131e091ca", "bike_id": "3b31c5e87425c4ed28cce72131e091ca", "fusion_lat": 0.0, "lon": -77.02359333333334, "type": "electric_scooter", "fusion_lon": 0.0, "lat": 38.9208255}, {"rental_uris": {"android": "https://dc.lft.to/lastmile_qr_scan", "ios": "https://dc.lft.to/lastmile_qr_scan"}, "is_reserved": 0, "is_disabled": 0, "name": "0f578ba51aabb044fa52a11992f424f7", "bike_id": "0f578ba51aabb044fa52a11992f424f7", "fusion_lat": 0.0, "lon": -77.002006, "type": "electric_scooter", "fusion_lon": 0.0, "lat": 38.9024025}, {"rental_uris": {"android": "https://dc.lft.to/lastmile_qr_scan", "ios": "https://dc.lft.to/lastmile_qr_scan"}, "is_reserved": 0, "is_disabled": 0, "name": "7bf5b23cce245a1598191115916e88ef", "bike_id": "7bf5b23cce245a1598191115916e88ef", "fusion_lat": 0.0, "lon": -77.03201733333333, "type": "electric_scooter", "fusion_lon": 0.0, "lat": 38.907180333333336}, {"rental_uris": {"android": "https://dc.lft.to/lastmile_qr_scan", "ios": "https://dc.lft.to/lastmile_qr_scan"}, "is_reserved": 0, "is_disabled": 0, "name": "aad49fb5fd0f1c26d4a8f89a8c3940cc", "bike_id": "aad49fb5fd0f1c26d4a8f89a8c3940cc", "fusion_lat": 0.0, "lon": -77.02414033333334, "type": "electric_scooter", "fusion_lon": 0.0, "lat": 38.93374683333333}, {"rental_uris": {"android": "https://dc.lft.to/lastmile_qr_scan", "ios": "https://dc.lft.to/lastmile_qr_scan"}, "is_reserved": 0, "is_disabled": 0, "name": "fa09116e13edb3b5741f74fc8aad5e9e", "bike_id": "fa09116e13edb3b5741f74fc8aad5e9e", "fusion_lat": 0.0, "lon": -77.05042033333334, "type": "electric_scooter", "fusion_lon": 0.0, "lat": 38.92362983333334}, {"rental_uris": {"android": "https://dc.lft.to/lastmile_qr_scan", "ios": "https://dc.lft.to/lastmile_qr_scan"}, "is_reserved": 0, "is_disabled": 0, "name": "f48f3df7da3182a8115758899f0a01d8", "bike_id": "f48f3df7da3182a8115758899f0a01d8", "fusion_lat": 0.0, "lon": -77.02128583333334, "type": "electric_bike", "fusion_lon": 0.0, "lat": 38.935801166666664}, {"rental_uris": {"android": "https://dc.lft.to/lastmile_qr_scan", "ios": "https://dc.lft.to/lastmile_qr_scan"}, "is_reserved": 0, "is_disabled": 0, "name": "9e79bb65f26963b46d11a4ff07b42463", "bike_id": "9e79bb65f26963b46d11a4ff07b42463", "fusion_lat": 0.0, "lon": -77.02228883333333, "type": "electric_scooter", "fusion_lon": 0.0, "lat": 38.912516}, {"rental_uris": {"android": "https://dc.lft.to/lastmile_qr_scan", "ios": "https://dc.lft.to/lastmile_qr_scan"}, "is_reserved": 0, "is_disabled": 0, "name": "1916176ac64257f9f818ed6ea535647f", "bike_id": "1916176ac64257f9f818ed6ea535647f", "fusion_lat": 0.0, "lon": -77.03067116666666, "type": "electric_scooter", "fusion_lon": 0.0, "lat": 38.898175333333334}, {"rental_uris": {"android": "https://dc.lft.to/lastmile_qr_scan", "ios": "https://dc.lft.to/lastmile_qr_scan"}, "is_reserved": 0, "is_disabled": 0, "name": "a2d8d3979027ffb47f5da9c53bf540c0", "bike_id": "a2d8d3979027ffb47f5da9c53bf540c0", "fusion_lat": 0.0, "lon": -76.99694333333333, "type": "electric_bike", "fusion_lon": 0.0, "lat": 38.83863383333333}, {"rental_uris": {"android": "https://dc.lft.to/lastmile_qr_scan", "ios": "https://dc.lft.to/lastmile_qr_scan"}, "is_reserved": 0, "is_disabled": 0, "name": "715a1a5e191fd64a705c29b504b5b34c", "bike_id": "715a1a5e191fd64a705c29b504b5b34c", "fusion_lat": 0.0, "lon": -77.021182, "type": "electric_scooter", "fusion_lon": 0.0, "lat": 38.917387833333336}, {"rental_uris": {"android": "https://dc.lft.to/lastmile_qr_scan", "ios": "https://dc.lft.to/lastmile_qr_scan"}, "is_reserved": 0, "is_disabled": 0, "name": "40faea6fa052f8cda2c59208d5fe59d0", "bike_id": "40faea6fa052f8cda2c59208d5fe59d0", "fusion_lat": 0.0, "lon": -76.99280533333334, "type": "electric_bike", "fusion_lon": 0.0, "lat": 38.97265}, {"rental_uris": {"android": "https://dc.lft.to/lastmile_qr_scan", "ios": "https://dc.lft.to/lastmile_qr_scan"}, "is_reserved": 0, "is_disabled": 0, "name": "4e961dcd34ec045b6215fa2ea1189a85", "bike_id": "4e961dcd34ec045b6215fa2ea1189a85", "fusion_lat": 0.0, "lon": -77.04173583333333, "type": "electric_scooter", "fusion_lon": 0.0, "lat": 38.9171275}, {"rental_uris": {"android": "https://dc.lft.to/lastmile_qr_scan", "ios": "https://dc.lft.to/lastmile_qr_scan"}, "is_reserved": 0, "is_disabled": 0, "name": "2aac528b4d5012eef9cde037c02522dd", "bike_id": "2aac528b4d5012eef9cde037c02522dd", "fusion_lat": 0.0, "lon": -77.028819, "type": "electric_scooter", "fusion_lon": 0.0, "lat": 38.9135075}, {"rental_uris": {"android": "https://dc.lft.to/lastmile_qr_scan", "ios": "https://dc.lft.to/lastmile_qr_scan"}, "is_reserved": 0, "is_disabled": 0, "name": "665e3a63ce657ed79a5ccb1bf53ea6ce", "bike_id": "665e3a63ce657ed79a5ccb1bf53ea6ce", "fusion_lat": 0.0, "lon": -77.00346316666666, "type": "electric_scooter", "fusion_lon": 0.0, "lat": 38.9036455}, {"rental_uris": {"android": "https://dc.lft.to/lastmile_qr_scan", "ios": "https://dc.lft.to/lastmile_qr_scan"}, "is_reserved": 0, "is_disabled": 0, "name": "89f46d7568a0bcf4ff5c461b724ae468", "bike_id": "89f46d7568a0bcf4ff5c461b724ae468", "fusion_lat": 0.0, "lon": -77.0218135, "type": "electric_scooter", "fusion_lon": 0.0, "lat": 38.901861}, {"rental_uris": {"android": "https://dc.lft.to/lastmile_qr_scan", "ios": "https://dc.lft.to/lastmile_qr_scan"}, "is_reserved": 0, "is_disabled": 0, "name": "717dd6fa8891e76ff72d240d2c55898e", "bike_id": "717dd6fa8891e76ff72d240d2c55898e", "fusion_lat": 0.0, "lon": -76.9579735, "type": "electric_bike", "fusion_lon": 0.0, "lat": 38.980528166666666}, {"rental_uris": {"android": "https://dc.lft.to/lastmile_qr_scan", "ios": "https://dc.lft.to/lastmile_qr_scan"}, "is_reserved": 0, "is_disabled": 0, "name": "faa386e8bdd441f594eee0fa566e4dea", "bike_id": "faa386e8bdd441f594eee0fa566e4dea", "fusion_lat": 0.0, "lon": -76.9529325, "type": "electric_scooter", "fusion_lon": 0.0, "lat": 38.89028583333333}, {"rental_uris": {"android": "https://dc.lft.to/lastmile_qr_scan", "ios": "https://dc.lft.to/lastmile_qr_scan"}, "is_reserved": 0, "is_disabled": 0, "name": "4f7d84a848ee529042b55437d72d978a", "bike_id": "4f7d84a848ee529042b55437d72d978a", "fusion_lat": 0.0, "lon": -77.02733583333334, "type": "electric_scooter", "fusion_lon": 0.0, "lat": 38.95203433333333}, {"rental_uris": {"android": "https://dc.lft.to/lastmile_qr_scan", "ios": "https://dc.lft.to/lastmile_qr_scan"}, "is_reserved": 0, "is_disabled": 0, "name": "f4564b76230b10a14ef1968ba2dd399d", "bike_id": "f4564b76230b10a14ef1968ba2dd399d", "fusion_lat": 0.0, "lon": -77.05605416666667, "type": "electric_scooter", "fusion_lon": 0.0, "lat": 38.937000166666664}, {"rental_uris": {"android": "https://dc.lft.to/lastmile_qr_scan", "ios": "https://dc.lft.to/lastmile_qr_scan"}, "is_reserved": 0, "is_disabled": 0, "name": "0185f297d78e92903062cfa326cd6139", "bike_id": "0185f297d78e92903062cfa326cd6139", "fusion_lat": 0.0, "lon": -77.0461635, "type": "electric_scooter", "fusion_lon": 0.0, "lat": 38.915145333333335}, {"rental_uris": {"android": "https://dc.lft.to/lastmile_qr_scan", "ios": "https://dc.lft.to/lastmile_qr_scan"}, "is_reserved": 0, "is_disabled": 0, "name": "48da0f5d8fd25cd8425d2ad3d603cedb", "bike_id": "48da0f5d8fd25cd8425d2ad3d603cedb", "fusion_lat": 0.0, "lon": -76.98798133333334, "type": "electric_scooter", "fusion_lon": 0.0, "lat": 38.900338833333336}, {"rental_uris": {"android": "https://dc.lft.to/lastmile_qr_scan", "ios": "https://dc.lft.to/lastmile_qr_scan"}, "is_reserved": 0, "is_disabled": 0, "name": "a6ca61665eda20eec2ce236ff66cb8ae", "bike_id": "a6ca61665eda20eec2ce236ff66cb8ae", "fusion_lat": 0.0, "lon": -77.07662833333333, "type": "electric_scooter", "fusion_lon": 0.0, "lat": 38.91084016666667}, {"rental_uris": {"android": "https://dc.lft.to/lastmile_qr_scan", "ios": "https://dc.lft.to/lastmile_qr_scan"}, "is_reserved": 0, "is_disabled": 0, "name": "dd56563cabf36e40d719351563e4ae06", "bike_id": "dd56563cabf36e40d719351563e4ae06", "fusion_lat": 0.0, "lon": -76.94931583333333, "type": "electric_scooter", "fusion_lon": 0.0, "lat": 38.895292166666664}, {"rental_uris": {"android": "https://dc.lft.to/lastmile_qr_scan", "ios": "https://dc.lft.to/lastmile_qr_scan"}, "is_reserved": 0, "is_disabled": 0, "name": "c04c744b220fd48ac72fb1d6cd31c7e5", "bike_id": "c04c744b220fd48ac72fb1d6cd31c7e5", "fusion_lat": 0.0, "lon": -77.07338166666666, "type": "electric_scooter", "fusion_lon": 0.0, "lat": 38.96091933333334}, {"rental_uris": {"android": "https://dc.lft.to/lastmile_qr_scan", "ios": "https://dc.lft.to/lastmile_qr_scan"}, "is_reserved": 0, "is_disabled": 0, "name": "03844c6c0924c6ff151304942efe534f", "bike_id": "03844c6c0924c6ff151304942efe534f", "fusion_lat": 0.0, "lon": -77.0522205, "type": "electric_scooter", "fusion_lon": 0.0, "lat": 38.88907566666666}, {"rental_uris": {"android": "https://dc.lft.to/lastmile_qr_scan", "ios": "https://dc.lft.to/lastmile_qr_scan"}, "is_reserved": 0, "is_disabled": 0, "name": "578b46683d620fd5183fe4ccfc36451a", "bike_id": "578b46683d620fd5183fe4ccfc36451a", "fusion_lat": 0.0, "lon": -77.001342, "type": "electric_bike", "fusion_lon": 0.0, "lat": 38.9949745}, {"rental_uris": {"android": "https://dc.lft.to/lastmile_qr_scan", "ios": "https://dc.lft.to/lastmile_qr_scan"}, "is_reserved": 0, "is_disabled": 0, "name": "fc093150ea9c6d72a203a5b777465bca", "bike_id": "fc093150ea9c6d72a203a5b777465bca", "fusion_lat": 0.0, "lon": -77.0011715, "type": "electric_scooter", "fusion_lon": 0.0, "lat": 38.8765985}, {"rental_uris": {"android": "https://dc.lft.to/lastmile_qr_scan", "ios": "https://dc.lft.to/lastmile_qr_scan"}, "is_reserved": 0, "is_disabled": 0, "name": "574969e62dc93c03ca4d0f21fc0ab96f", "bike_id": "574969e62dc93c03ca4d0f21fc0ab96f", "fusion_lat": 0.0, "lon": -77.01225983333333, "type": "electric_scooter", "fusion_lon": 0.0, "lat": 38.91517983333333}, {"rental_uris": {"android": "https://dc.lft.to/lastmile_qr_scan", "ios": "https://dc.lft.to/lastmile_qr_scan"}, "is_reserved": 0, "is_disabled": 0, "name": "b5e11b23b4eda7f2a9f2bdf5d34e9eee", "bike_id": "b5e11b23b4eda7f2a9f2bdf5d34e9eee", "fusion_lat": 0.0, "lon": -77.02204716666667, "type": "electric_scooter", "fusion_lon": 0.0, "lat": 38.915453}, {"rental_uris": {"android": "https://dc.lft.to/lastmile_qr_scan", "ios": "https://dc.lft.to/lastmile_qr_scan"}, "is_reserved": 0, "is_disabled": 0, "name": "fc4bdb5504e4adb1e00f2876b8f035ea", "bike_id": "fc4bdb5504e4adb1e00f2876b8f035ea", "fusion_lat": 0.0, "lon": -76.9896995, "type": "electric_bike", "fusion_lon": 0.0, "lat": 38.9306705}, {"rental_uris": {"android": "https://dc.lft.to/lastmile_qr_scan", "ios": "https://dc.lft.to/lastmile_qr_scan"}, "is_reserved": 0, "is_disabled": 0, "name": "78f5650146de4a973a58aba8ae93f6d1", "bike_id": "78f5650146de4a973a58aba8ae93f6d1", "fusion_lat": 0.0, "lon": -77.03775583333334, "type": "electric_scooter", "fusion_lon": 0.0, "lat": 38.902375166666666}, {"rental_uris": {"android": "https://dc.lft.to/lastmile_qr_scan", "ios": "https://dc.lft.to/lastmile_qr_scan"}, "is_reserved": 0, "is_disabled": 0, "name": "b7a19956da74f6b82b0962def65cbdbe", "bike_id": "b7a19956da74f6b82b0962def65cbdbe", "fusion_lat": 0.0, "lon": -76.9250135, "type": "electric_scooter", "fusion_lon": 0.0, "lat": 38.885979}, {"rental_uris": {"android": "https://dc.lft.to/lastmile_qr_scan", "ios": "https://dc.lft.to/lastmile_qr_scan"}, "is_reserved": 0, "is_disabled": 0, "name": "ffe788ff4977a21e76c6827d6785eed2", "bike_id": "ffe788ff4977a21e76c6827d6785eed2", "fusion_lat": 0.0, "lon": -77.0507395, "type": "electric_scooter", "fusion_lon": 0.0, "lat": 38.91131766666667}, {"rental_uris": {"android": "https://dc.lft.to/lastmile_qr_scan", "ios": "https://dc.lft.to/lastmile_qr_scan"}, "is_reserved": 0, "is_disabled": 0, "name": "1bc1794c50dc324b2d4b7b1b45e27dd9", "bike_id": "1bc1794c50dc324b2d4b7b1b45e27dd9", "fusion_lat": 0.0, "lon": -77.01692466666667, "type": "electric_scooter", "fusion_lon": 0.0, "lat": 38.9064795}, {"rental_uris": {"android": "https://dc.lft.to/lastmile_qr_scan", "ios": "https://dc.lft.to/lastmile_qr_scan"}, "is_reserved": 0, "is_disabled": 0, "name": "f89ebfd6c3229c65d650476d6c528466", "bike_id": "f89ebfd6c3229c65d650476d6c528466", "fusion_lat": 0.0, "lon": -77.04501966666666, "type": "electric_scooter", "fusion_lon": 0.0, "lat": 38.892292}, {"rental_uris": {"android": "https://dc.lft.to/lastmile_qr_scan", "ios": "https://dc.lft.to/lastmile_qr_scan"}, "is_reserved": 0, "is_disabled": 0, "name": "ae2de66ef66e5e5082fbe2fa8ab8eea0", "bike_id": "ae2de66ef66e5e5082fbe2fa8ab8eea0", "fusion_lat": 0.0, "lon": -77.01355233333334, "type": "electric_scooter", "fusion_lon": 0.0, "lat": 38.900374}, {"rental_uris": {"android": "https://dc.lft.to/lastmile_qr_scan", "ios": "https://dc.lft.to/lastmile_qr_scan"}, "is_reserved": 0, "is_disabled": 0, "name": "3c1699a8270e0a9ffe40230ed44710c4", "bike_id": "3c1699a8270e0a9ffe40230ed44710c4", "fusion_lat": 0.0, "lon": -77.005475, "type": "electric_scooter", "fusion_lon": 0.0, "lat": 38.8804}, {"rental_uris": {"android": "https://dc.lft.to/lastmile_qr_scan", "ios": "https://dc.lft.to/lastmile_qr_scan"}, "is_reserved": 0, "is_disabled": 0, "name": "6dccc8ee6ab2e50242dfe25fbbb30f34", "bike_id": "6dccc8ee6ab2e50242dfe25fbbb30f34", "fusion_lat": 0.0, "lon": -77.02206883333334, "type": "electric_scooter", "fusion_lon": 0.0, "lat": 38.906576666666666}, {"rental_uris": {"android": "https://dc.lft.to/lastmile_qr_scan", "ios": "https://dc.lft.to/lastmile_qr_scan"}, "is_reserved": 0, "is_disabled": 0, "name": "60dce73246e2aa474b63fd447a2350f6", "bike_id": "60dce73246e2aa474b63fd447a2350f6", "fusion_lat": 0.0, "lon": -77.03168733333334, "type": "electric_scooter", "fusion_lon": 0.0, "lat": 38.892188}, {"rental_uris": {"android": "https://dc.lft.to/lastmile_qr_scan", "ios": "https://dc.lft.to/lastmile_qr_scan"}, "is_reserved": 0, "is_disabled": 0, "name": "03307302c03df250f7fdeda9e6160816", "bike_id": "03307302c03df250f7fdeda9e6160816", "fusion_lat": 0.0, "lon": -76.98358766666666, "type": "electric_scooter", "fusion_lon": 0.0, "lat": 38.88731466666667}, {"rental_uris": {"android": "https://dc.lft.to/lastmile_qr_scan", "ios": "https://dc.lft.to/lastmile_qr_scan"}, "is_reserved": 0, "is_disabled": 0, "name": "b6633203a08989cecc36dc8c4e5bc798", "bike_id": "b6633203a08989cecc36dc8c4e5bc798", "fusion_lat": 0.0, "lon": -77.00215616666667, "type": "electric_scooter", "fusion_lon": 0.0, "lat": 38.911048666666666}, {"rental_uris": {"android": "https://dc.lft.to/lastmile_qr_scan", "ios": "https://dc.lft.to/lastmile_qr_scan"}, "is_reserved": 0, "is_disabled": 0, "name": "82a9e676fec4c70394e470a347a02c9e", "bike_id": "82a9e676fec4c70394e470a347a02c9e", "fusion_lat": 0.0, "lon": -77.06454566666666, "type": "electric_scooter", "fusion_lon": 0.0, "lat": 38.948864666666665}, {"rental_uris": {"android": "https://dc.lft.to/lastmile_qr_scan", "ios": "https://dc.lft.to/lastmile_qr_scan"}, "is_reserved": 0, "is_disabled": 0, "name": "26301f31fe031a45a420264c91a727b9", "bike_id": "26301f31fe031a45a420264c91a727b9", "fusion_lat": 0.0, "lon": -77.04878366666667, "type": "electric_scooter", "fusion_lon": 0.0, "lat": 38.8976155}, {"rental_uris": {"android": "https://dc.lft.to/lastmile_qr_scan", "ios": "https://dc.lft.to/lastmile_qr_scan"}, "is_reserved": 0, "is_disabled": 0, "name": "04e0018f4c3c259d0a657d061ccadb05", "bike_id": "04e0018f4c3c259d0a657d061ccadb05", "fusion_lat": 0.0, "lon": -77.03733566666666, "type": "electric_scooter", "fusion_lon": 0.0, "lat": 38.9126795}, {"rental_uris": {"android": "https://dc.lft.to/lastmile_qr_scan", "ios": "https://dc.lft.to/lastmile_qr_scan"}, "is_reserved": 0, "is_disabled": 0, "name": "8e9cbf130a39335a16cd1b6f59e5d930", "bike_id": "8e9cbf130a39335a16cd1b6f59e5d930", "fusion_lat": 0.0, "lon": -77.04255983333333, "type": "electric_scooter", "fusion_lon": 0.0, "lat": 38.91203333333333}, {"rental_uris": {"android": "https://dc.lft.to/lastmile_qr_scan", "ios": "https://dc.lft.to/lastmile_qr_scan"}, "is_reserved": 0, "is_disabled": 0, "name": "768b69b05d10dcbb4aa22923ec3cec13", "bike_id": "768b69b05d10dcbb4aa22923ec3cec13", "fusion_lat": 0.0, "lon": -77.023599, "type": "electric_scooter", "fusion_lon": 0.0, "lat": 38.93527866666667}, {"rental_uris": {"android": "https://dc.lft.to/lastmile_qr_scan", "ios": "https://dc.lft.to/lastmile_qr_scan"}, "is_reserved": 0, "is_disabled": 0, "name": "8a8a8a75c32d32a12e9be5721211b8cb", "bike_id": "8a8a8a75c32d32a12e9be5721211b8cb", "fusion_lat": 0.0, "lon": -77.021845, "type": "electric_scooter", "fusion_lon": 0.0, "lat": 38.91482633333333}, {"rental_uris": {"android": "https://dc.lft.to/lastmile_qr_scan", "ios": "https://dc.lft.to/lastmile_qr_scan"}, "is_reserved": 0, "is_disabled": 0, "name": "a9f278c75ebac237ee0407107620b6ac", "bike_id": "a9f278c75ebac237ee0407107620b6ac", "fusion_lat": 0.0, "lon": -77.031847, "type": "electric_scooter", "fusion_lon": 0.0, "lat": 38.90744733333333}, {"rental_uris": {"android": "https://dc.lft.to/lastmile_qr_scan", "ios": "https://dc.lft.to/lastmile_qr_scan"}, "is_reserved": 0, "is_disabled": 0, "name": "c9d2dd0dafb3118531afa2b7d35e1129", "bike_id": "c9d2dd0dafb3118531afa2b7d35e1129", "fusion_lat": 0.0, "lon": -77.0259835, "type": "electric_scooter", "fusion_lon": 0.0, "lat": 38.91875866666667}, {"rental_uris": {"android": "https://dc.lft.to/lastmile_qr_scan", "ios": "https://dc.lft.to/lastmile_qr_scan"}, "is_reserved": 0, "is_disabled": 0, "name": "712b2f23f343433d74a771ef0bfe1ecf", "bike_id": "712b2f23f343433d74a771ef0bfe1ecf", "fusion_lat": 0.0, "lon": -77.01952966666667, "type": "electric_scooter", "fusion_lon": 0.0, "lat": 38.9233885}, {"rental_uris": {"android": "https://dc.lft.to/lastmile_qr_scan", "ios": "https://dc.lft.to/lastmile_qr_scan"}, "is_reserved": 0, "is_disabled": 0, "name": "f49bf290e289f79034f90650827255ab", "bike_id": "f49bf290e289f79034f90650827255ab", "fusion_lat": 0.0, "lon": -77.0250945, "type": "electric_scooter", "fusion_lon": 0.0, "lat": 38.93553}, {"rental_uris": {"android": "https://dc.lft.to/lastmile_qr_scan", "ios": "https://dc.lft.to/lastmile_qr_scan"}, "is_reserved": 0, "is_disabled": 0, "name": "419c4651b9a575b9579199499d847f2f", "bike_id": "419c4651b9a575b9579199499d847f2f", "fusion_lat": 0.0, "lon": -77.03525233333333, "type": "electric_scooter", "fusion_lon": 0.0, "lat": 38.932824}, {"rental_uris": {"android": "https://dc.lft.to/lastmile_qr_scan", "ios": "https://dc.lft.to/lastmile_qr_scan"}, "is_reserved": 0, "is_disabled": 0, "name": "d459aee1b66c340c557664453aa98a68", "bike_id": "d459aee1b66c340c557664453aa98a68", "fusion_lat": 0.0, "lon": -77.09660033333333, "type": "electric_bike", "fusion_lon": 0.0, "lat": 38.952217}, {"rental_uris": {"android": "https://dc.lft.to/lastmile_qr_scan", "ios": "https://dc.lft.to/lastmile_qr_scan"}, "is_reserved": 0, "is_disabled": 0, "name": "ce325bc325bf402885d39df4db778756", "bike_id": "ce325bc325bf402885d39df4db778756", "fusion_lat": 0.0, "lon": -77.02419033333334, "type": "electric_scooter", "fusion_lon": 0.0, "lat": 38.9182345}, {"rental_uris": {"android": "https://dc.lft.to/lastmile_qr_scan", "ios": "https://dc.lft.to/lastmile_qr_scan"}, "is_reserved": 0, "is_disabled": 0, "name": "489fa43f3dd1c3af6e36fc1383c9f553", "bike_id": "489fa43f3dd1c3af6e36fc1383c9f553", "fusion_lat": 0.0, "lon": -77.0442815, "type": "electric_scooter", "fusion_lon": 0.0, "lat": 38.9058}, {"rental_uris": {"android": "https://dc.lft.to/lastmile_qr_scan", "ios": "https://dc.lft.to/lastmile_qr_scan"}, "is_reserved": 0, "is_disabled": 0, "name": "b46d04accebfaca1e4d977fc64432278", "bike_id": "b46d04accebfaca1e4d977fc64432278", "fusion_lat": 0.0, "lon": -77.01558533333333, "type": "electric_scooter", "fusion_lon": 0.0, "lat": 38.91854083333333}, {"rental_uris": {"android": "https://dc.lft.to/lastmile_qr_scan", "ios": "https://dc.lft.to/lastmile_qr_scan"}, "is_reserved": 0, "is_disabled": 0, "name": "c5edd3b5af254745f20b30af0454701a", "bike_id": "c5edd3b5af254745f20b30af0454701a", "fusion_lat": 0.0, "lon": -77.01654866666667, "type": "electric_scooter", "fusion_lon": 0.0, "lat": 38.94207133333333}, {"rental_uris": {"android": "https://dc.lft.to/lastmile_qr_scan", "ios": "https://dc.lft.to/lastmile_qr_scan"}, "is_reserved": 0, "is_disabled": 0, "name": "aac596d7d03a3c593fe32fd49d0dc1fd", "bike_id": "aac596d7d03a3c593fe32fd49d0dc1fd", "fusion_lat": 0.0, "lon": -77.003527, "type": "electric_scooter", "fusion_lon": 0.0, "lat": 38.876803}, {"rental_uris": {"android": "https://dc.lft.to/lastmile_qr_scan", "ios": "https://dc.lft.to/lastmile_qr_scan"}, "is_reserved": 0, "is_disabled": 0, "name": "02bf343ff3887a7e00d687bc1f685084", "bike_id": "02bf343ff3887a7e00d687bc1f685084", "fusion_lat": 0.0, "lon": -76.99962966666666, "type": "electric_scooter", "fusion_lon": 0.0, "lat": 38.90706866666667}, {"rental_uris": {"android": "https://dc.lft.to/lastmile_qr_scan", "ios": "https://dc.lft.to/lastmile_qr_scan"}, "is_reserved": 0, "is_disabled": 0, "name": "d2c2fac2e1325c8e1ab712e28e4109eb", "bike_id": "d2c2fac2e1325c8e1ab712e28e4109eb", "fusion_lat": 0.0, "lon": -77.0256735, "type": "electric_scooter", "fusion_lon": 0.0, "lat": 38.941958}, {"rental_uris": {"android": "https://dc.lft.to/lastmile_qr_scan", "ios": "https://dc.lft.to/lastmile_qr_scan"},