{"data": {"bikes": [{"is_reserved": 0, "is_disabled": 0, "fusion_lat": 0.0, "name": "e1cdb5ac81ad5a72010a8309d3000e3d", "lat": 38.935435, "lon": -77.03490383333333, "bike_id": "e1cdb5ac81ad5a72010a8309d3000e3d", "rental_uris": {"ios": "https://dc.lft.to/lastmile_qr_scan", "android": "https://dc.lft.to/lastmile_qr_scan"}, "type": "electric_scooter", "fusion_lon": 0.0}, {"is_reserved": 0, "is_disabled": 0, "fusion_lat": 0.0, "name": "cb944bd9791a027b160ccbdaccd3fb5f", "lat": 38.92411233333333, "lon": -77.02018966666667, "bike_id": "cb944bd9791a027b160ccbdaccd3fb5f", "rental_uris": {"ios": "https://dc.lft.to/lastmile_qr_scan", "android": "https://dc.lft.to/lastmile_qr_scan"}, "type": "electric_scooter", "fusion_lon": 0.0}, {"is_reserved": 0, "is_disabled": 0, "fusion_lat": 0.0, "name": "0a1015e2a534538e64319610afaaf174", "lat": 38.9111715, "lon": -77.03363483333334, "bike_id": "0a1015e2a534538e64319610afaaf174", "rental_uris": {"ios": "https://dc.lft.to/lastmile_qr_scan", "android": "https://dc.lft.to/lastmile_qr_scan"}, "type": "electric_scooter", "fusion_lon": 0.0}, {"is_reserved": 0, "is_disabled": 0, "fusion_lat": 0.0, "name": "cb566a7747ff42b6216ffc78fddb313d", "lat": 38.90466633333333, "lon": -77.05343616666667, "bike_id": "cb566a7747ff42b6216ffc78fddb313d", "rental_uris": {"ios": "https://dc.lft.to/lastmile_qr_scan", "android": "https://dc.lft.to/lastmile_qr_scan"}, "type": "electric_scooter", "fusion_lon": 0.0}, {"is_reserved": 0, "is_disabled": 0, "fusion_lat": 0.0, "name": "1e0bccd1af0eb9288913668339efeb50", "lat": 38.9016885, "lon": -77.02228933333333, "bike_id": "1e0bccd1af0eb9288913668339efeb50", "rental_uris": {"ios": "https://dc.lft.to/lastmile_qr_scan", "android": "https://dc.lft.to/lastmile_qr_scan"}, "type": "electric_scooter", "fusion_lon": 0.0}, {"is_reserved": 0, "is_disabled": 0, "fusion_lat": 0.0, "name": "537cfa40dd9a9353510476a7c9572567", "lat": 38.89621133333333, "lon": -76.90747333333333, "bike_id": "537cfa40dd9a9353510476a7c9572567", "rental_uris": {"ios": "https://dc.lft.to/lastmile_qr_scan", "android": "https://dc.lft.to/lastmile_qr_scan"}, "type": "electric_bike", "fusion_lon": 0.0}, {"is_reserved": 0, "is_disabled": 0, "fusion_lat": 0.0, "name": "531538c3fd7c78b1da6a00fda3eccc49", "lat": 38.90093933333333, "lon": -77.02189516666667, "bike_id": "531538c3fd7c78b1da6a00fda3eccc49", "rental_uris": {"ios": "https://dc.lft.to/lastmile_qr_scan", "android": "https://dc.lft.to/lastmile_qr_scan"}, "type": "electric_scooter", "fusion_lon": 0.0}, {"is_reserved": 0, "is_disabled": 0, "fusion_lat": 0.0, "name": "1138529d4c15ec7bd800566f2d039520", "lat": 38.91800333333333, "lon": -77.0344595, "bike_id": "1138529d4c15ec7bd800566f2d039520", "rental_uris": {"ios": "https://dc.lft.to/lastmile_qr_scan", "android": "https://dc.lft.to/lastmile_qr_scan"}, "type": "electric_scooter", "fusion_lon": 0.0}, {"is_reserved": 0, "is_disabled": 0, "fusion_lat": 0.0, "name": "8188d73a7f0137c8232d52f6b65a1e77", "lat": 38.88517066666667, "lon": -76.92439983333334, "bike_id": "8188d73a7f0137c8232d52f6b65a1e77", "rental_uris": {"ios": "https://dc.lft.to/lastmile_qr_scan", "android": "https://dc.lft.to/lastmile_qr_scan"}, "type": "electric_scooter", "fusion_lon": 0.0}, {"is_reserved": 0, "is_disabled": 0, "fusion_lat": 0.0, "name": "bce5922e626b8f94b2a65f817c2b1dbb", "lat": 38.88535066666667, "lon": -76.98055366666667, "bike_id": "bce5922e626b8f94b2a65f817c2b1dbb", "rental_uris": {"ios": "https://dc.lft.to/lastmile_qr_scan", "android": "https://dc.lft.to/lastmile_qr_scan"}, "type": "electric_scooter", "fusion_lon": 0.0}, {"is_reserved": 0, "is_disabled": 0, "fusion_lat": 0.0, "name": "a6c0929eb6f0646f15d91fe05b8bbd10", "lat": 38.902573333333336, "lon": -76.97704566666667, "bike_id": "a6c0929eb6f0646f15d91fe05b8bbd10", "rental_uris": {"ios": "https://dc.lft.to/lastmile_qr_scan", "android": "https://dc.lft.to/lastmile_qr_scan"}, "type": "electric_scooter", "fusion_lon": 0.0}, {"is_reserved": 0, "is_disabled": 0, "fusion_lat": 0.0, "name": "b78e7740baf33ded283d8b807b80d596", "lat": 38.915975, "lon": -77.03190883333333, "bike_id": "b78e7740baf33ded283d8b807b80d596", "rental_uris": {"ios": "https://dc.lft.to/lastmile_qr_scan", "android": "https://dc.lft.to/lastmile_qr_scan"}, "type": "electric_scooter", "fusion_lon": 0.0}, {"is_reserved": 0, "is_disabled": 0, "fusion_lat": 0.0, "name": "2b0bae19c37c1f9d987e5ba851551220", "lat": 38.914457, "lon": -77.04152333333333, "bike_id": "2b0bae19c37c1f9d987e5ba851551220", "rental_uris": {"ios": "https://dc.lft.to/lastmile_qr_scan", "android": "https://dc.lft.to/lastmile_qr_scan"}, "type": "electric_scooter", "fusion_lon": 0.0}, {"is_reserved": 0, "is_disabled": 0, "fusion_lat": 0.0, "name": "edc57b78fcddaf5d9719c10762596d66", "lat": 38.91072533333333, "lon": -77.01611866666667, "bike_id": "edc57b78fcddaf5d9719c10762596d66", "rental_uris": {"ios": "https://dc.lft.to/lastmile_qr_scan", "android": "https://dc.lft.to/lastmile_qr_scan"}, "type": "electric_scooter", "fusion_lon": 0.0}, {"is_reserved": 0, "is_disabled": 0, "fusion_lat": 0.0, "name": "9b020c05f207f6944cb51f0c4fa989aa", "lat": 38.90471933333333, "lon": -77.06118516666666, "bike_id": "9b020c05f207f6944cb51f0c4fa989aa", "rental_uris": {"ios": "https://dc.lft.to/lastmile_qr_scan", "android": "https://dc.lft.to/lastmile_qr_scan"}, "type": "electric_scooter", "fusion_lon": 0.0}, {"is_reserved": 0, "is_disabled": 0, "fusion_lat": 0.0, "name": "91d4e898e383b77b51cd6c10861d0654", "lat": 38.90690033333333, "lon": -76.95257266666667, "bike_id": "91d4e898e383b77b51cd6c10861d0654", "rental_uris": {"ios": "https://dc.lft.to/lastmile_qr_scan", "android": "https://dc.lft.to/lastmile_qr_scan"}, "type": "electric_bike", "fusion_lon": 0.0}, {"is_reserved": 0, "is_disabled": 0, "fusion_lat": 0.0, "name": "17621eea3e25e748087d2a9ba7dbde64", "lat": 38.898485666666666, "lon": -77.02278566666666, "bike_id": "17621eea3e25e748087d2a9ba7dbde64", "rental_uris": {"ios": "https://dc.lft.to/lastmile_qr_scan", "android": "https://dc.lft.to/lastmile_qr_scan"}, "type": "electric_scooter", "fusion_lon": 0.0}, {"is_reserved": 0, "is_disabled": 0, "fusion_lat": 0.0, "name": "86ef2baa854fca197feb1a72be6d69e0", "lat": 38.91244866666667, "lon": -76.98665833333334, "bike_id": "86ef2baa854fca197feb1a72be6d69e0", "rental_uris": {"ios": "https://dc.lft.to/lastmile_qr_scan", "android": "https://dc.lft.to/lastmile_qr_scan"}, "type": "electric_scooter", "fusion_lon": 0.0}, {"is_reserved": 0, "is_disabled": 0, "fusion_lat": 0.0, "name": "f0df88062894eb08989d399a94509959", "lat": 38.90530066666667, "lon": -77.0571635, "bike_id": "f0df88062894eb08989d399a94509959", "rental_uris": {"ios": "https://dc.lft.to/lastmile_qr_scan", "android": "https://dc.lft.to/lastmile_qr_scan"}, "type": "electric_scooter", "fusion_lon": 0.0}, {"is_reserved": 0, "is_disabled": 0, "fusion_lat": 0.0, "name": "7c93ccfb4da06fedfa5f20950c4cdfb1", "lat": 38.92178666666667, "lon": -77.03836316666667, "bike_id": "7c93ccfb4da06fedfa5f20950c4cdfb1", "rental_uris": {"ios": "https://dc.lft.to/lastmile_qr_scan", "android": "https://dc.lft.to/lastmile_qr_scan"}, "type": "electric_scooter", "fusion_lon": 0.0}, {"is_reserved": 0, "is_disabled": 0, "fusion_lat": 0.0, "name": "9d7f4526c98b1403f89a0c8dfd90577b", "lat": 38.865538666666666, "lon": -76.94150516666667, "bike_id": "9d7f4526c98b1403f89a0c8dfd90577b", "rental_uris": {"ios": "https://dc.lft.to/lastmile_qr_scan", "android": "https://dc.lft.to/lastmile_qr_scan"}, "type": "electric_bike", "fusion_lon": 0.0}, {"is_reserved": 0, "is_disabled": 0, "fusion_lat": 0.0, "name": "758363667625c19e14c37e934cd3dd51", "lat": 38.90143616666667, "lon": -76.931612, "bike_id": "758363667625c19e14c37e934cd3dd51", "rental_uris": {"ios": "https://dc.lft.to/lastmile_qr_scan", "android": "https://dc.lft.to/lastmile_qr_scan"}, "type": "electric_scooter", "fusion_lon": 0.0}, {"is_reserved": 0, "is_disabled": 0, "fusion_lat": 0.0, "name": "e76c6e020479ef2156cf424ff205f0a5", "lat": 38.897801333333334, "lon": -77.04819533333334, "bike_id": "e76c6e020479ef2156cf424ff205f0a5", "rental_uris": {"ios": "https://dc.lft.to/lastmile_qr_scan", "android": "https://dc.lft.to/lastmile_qr_scan"}, "type": "electric_scooter", "fusion_lon": 0.0}, {"is_reserved": 0, "is_disabled": 0, "fusion_lat": 0.0, "name": "6b4cac726657889781a869cd3b5f71d7", "lat": 38.906442, "lon": -77.06910933333333, "bike_id": "6b4cac726657889781a869cd3b5f71d7", "rental_uris": {"ios": "https://dc.lft.to/lastmile_qr_scan", "android": "https://dc.lft.to/lastmile_qr_scan"}, "type": "electric_scooter", "fusion_lon": 0.0}, {"is_reserved": 0, "is_disabled": 0, "fusion_lat": 0.0, "name": "1d04892673339dea8e58faca708019d1", "lat": 38.904901833333334, "lon": -77.04342966666667, "bike_id": "1d04892673339dea8e58faca708019d1", "rental_uris": {"ios": "https://dc.lft.to/lastmile_qr_scan", "android": "https://dc.lft.to/lastmile_qr_scan"}, "type": "electric_scooter", "fusion_lon": 0.0}, {"is_reserved": 0, "is_disabled": 0, "fusion_lat": 0.0, "name": "e529d0eb09608c257c1e012104906e0b", "lat": 38.910749, "lon": -76.9878115, "bike_id": "e529d0eb09608c257c1e012104906e0b", "rental_uris": {"ios": "https://dc.lft.to/lastmile_qr_scan", "android": "https://dc.lft.to/lastmile_qr_scan"}, "type": "electric_scooter", "fusion_lon": 0.0}, {"is_reserved": 0, "is_disabled": 0, "fusion_lat": 0.0, "name": "5148b023db8dfe2fd3564d49e8833ccc", "lat": 38.907808833333334, "lon": -77.07254566666667, "bike_id": "5148b023db8dfe2fd3564d49e8833ccc", "rental_uris": {"ios": "https://dc.lft.to/lastmile_qr_scan", "android": "https://dc.lft.to/lastmile_qr_scan"}, "type": "electric_scooter", "fusion_lon": 0.0}, {"is_reserved": 0, "is_disabled": 0, "fusion_lat": 0.0, "name": "25ab01553719ab4d418a5d18582d235c", "lat": 38.915438333333334, "lon": -77.02969016666667, "bike_id": "25ab01553719ab4d418a5d18582d235c", "rental_uris": {"ios": "https://dc.lft.to/lastmile_qr_scan", "android": "https://dc.lft.to/lastmile_qr_scan"}, "type": "electric_scooter", "fusion_lon": 0.0}, {"is_reserved": 0, "is_disabled": 0, "fusion_lat": 0.0, "name": "1cfa63a7e5ef580db298d77b52a33fdc", "lat": 38.90036083333333, "lon": -77.00180083333333, "bike_id": "1cfa63a7e5ef580db298d77b52a33fdc", "rental_uris": {"ios": "https://dc.lft.to/lastmile_qr_scan", "android": "https://dc.lft.to/lastmile_qr_scan"}, "type": "electric_scooter", "fusion_lon": 0.0}, {"is_reserved": 0, "is_disabled": 0, "fusion_lat": 0.0, "name": "d731e01ad5d85a8df976f3be43e5fe0f", "lat": 38.94462216666667, "lon": -77.00659316666666, "bike_id": "d731e01ad5d85a8df976f3be43e5fe0f", "rental_uris": {"ios": "https://dc.lft.to/lastmile_qr_scan", "android": "https://dc.lft.to/lastmile_qr_scan"}, "type": "electric_scooter", "fusion_lon": 0.0}, {"is_reserved": 0, "is_disabled": 0, "fusion_lat": 0.0, "name": "b0ec555c0ba9ab20498734167795b0d6", "lat": 38.909009166666664, "lon": -77.03150916666667, "bike_id": "b0ec555c0ba9ab20498734167795b0d6", "rental_uris": {"ios": "https://dc.lft.to/lastmile_qr_scan", "android": "https://dc.lft.to/lastmile_qr_scan"}, "type": "electric_scooter", "fusion_lon": 0.0}, {"is_reserved": 0, "is_disabled": 0, "fusion_lat": 0.0, "name": "24bf7054cd3e918b600043eb6c086dac", "lat": 38.9096035, "lon": -77.0238095, "bike_id": "24bf7054cd3e918b600043eb6c086dac", "rental_uris": {"ios": "https://dc.lft.to/lastmile_qr_scan", "android": "https://dc.lft.to/lastmile_qr_scan"}, "type": "electric_scooter", "fusion_lon": 0.0}, {"is_reserved": 0, "is_disabled": 0, "fusion_lat": 0.0, "name": "c1c320097efc28d3f6865312b1c1d063", "lat": 38.9006765, "lon": -76.98826383333333, "bike_id": "c1c320097efc28d3f6865312b1c1d063", "rental_uris": {"ios": "https://dc.lft.to/lastmile_qr_scan", "android": "https://dc.lft.to/lastmile_qr_scan"}, "type": "electric_scooter", "fusion_lon": 0.0}, {"is_reserved": 0, "is_disabled": 0, "fusion_lat": 0.0, "name": "c0f89c1c14c85cb10b6e2d8a4c3e4fa1", "lat": 38.91774683333333, "lon": -77.014969, "bike_id": "c0f89c1c14c85cb10b6e2d8a4c3e4fa1", "rental_uris": {"ios": "https://dc.lft.to/lastmile_qr_scan", "android": "https://dc.lft.to/lastmile_qr_scan"}, "type": "electric_scooter", "fusion_lon": 0.0}, {"is_reserved": 0, "is_disabled": 0, "fusion_lat": 0.0, "name": "cf92c9bb49625c1a2f89674bb6079434", "lat": 38.91362683333333, "lon": -77.0448615, "bike_id": "cf92c9bb49625c1a2f89674bb6079434", "rental_uris": {"ios": "https://dc.lft.to/lastmile_qr_scan", "android": "https://dc.lft.to/lastmile_qr_scan"}, "type": "electric_scooter", "fusion_lon": 0.0}, {"is_reserved": 0, "is_disabled": 0, "fusion_lat": 0.0, "name": "efe2308dfd6f846e5128c2a9ed7d08f7", "lat": 38.912678166666666, "lon": -77.01432883333334, "bike_id": "efe2308dfd6f846e5128c2a9ed7d08f7", "rental_uris": {"ios": "https://dc.lft.to/lastmile_qr_scan", "android": "https://dc.lft.to/lastmile_qr_scan"}, "type": "electric_scooter", "fusion_lon": 0.0}, {"is_reserved": 0, "is_disabled": 0, "fusion_lat": 0.0, "name": "57cdba6576eaea33f00ae739bab976f3", "lat": 38.91954483333333, "lon": -77.02306083333333, "bike_id": "57cdba6576eaea33f00ae739bab976f3", "rental_uris": {"ios": "https://dc.lft.to/lastmile_qr_scan", "android": "https://dc.lft.to/lastmile_qr_scan"}, "type": "electric_scooter", "fusion_lon": 0.0}, {"is_reserved": 0, "is_disabled": 0, "fusion_lat": 0.0, "name": "1c1c848b8c67de2c57b7a2eb5ff6f314", "lat": 38.917745833333335, "lon": -77.04762183333334, "bike_id": "1c1c848b8c67de2c57b7a2eb5ff6f314", "rental_uris": {"ios": "https://dc.lft.to/lastmile_qr_scan", "android": "https://dc.lft.to/lastmile_qr_scan"}, "type": "electric_scooter", "fusion_lon": 0.0}, {"is_reserved": 0, "is_disabled": 0, "fusion_lat": 0.0, "name": "2bb2fbde57272149945beb060a1b62be", "lat": 38.89694683333333, "lon": -76.99270533333333, "bike_id": "2bb2fbde57272149945beb060a1b62be", "rental_uris": {"ios": "https://dc.lft.to/lastmile_qr_scan", "android": "https://dc.lft.to/lastmile_qr_scan"}, "type": "electric_scooter", "fusion_lon": 0.0}, {"is_reserved": 0, "is_disabled": 0, "fusion_lat": 0.0, "name": "2e2f638791fed3962637585ac2b9d866", "lat": 38.91114116666667, "lon": -77.02417983333333, "bike_id": "2e2f638791fed3962637585ac2b9d866", "rental_uris": {"ios": "https://dc.lft.to/lastmile_qr_scan", "android": "https://dc.lft.to/lastmile_qr_scan"}, "type": "electric_scooter", "fusion_lon": 0.0}, {"is_reserved": 0, "is_disabled": 0, "fusion_lat": 0.0, "name": "5e6fafe5ad7ed1340adee85a7ad19df5", "lat": 38.868247833333335, "lon": -76.98022416666667, "bike_id": "5e6fafe5ad7ed1340adee85a7ad19df5", "rental_uris": {"ios": "https://dc.lft.to/lastmile_qr_scan", "android": "https://dc.lft.to/lastmile_qr_scan"}, "type": "electric_bike", "fusion_lon": 0.0}, {"is_reserved": 0, "is_disabled": 0, "fusion_lat": 0.0, "name": "7a5f30f4f61000fea591e4b3d8b60983", "lat": 38.9167435, "lon": -77.02399516666667, "bike_id": "7a5f30f4f61000fea591e4b3d8b60983", "rental_uris": {"ios": "https://dc.lft.to/lastmile_qr_scan", "android": "https://dc.lft.to/lastmile_qr_scan"}, "type": "electric_scooter", "fusion_lon": 0.0}, {"is_reserved": 0, "is_disabled": 0, "fusion_lat": 0.0, "name": "58f94fe5307f6fb337f64f0f9ae9316e", "lat": 38.911419, "lon": -77.04426316666667, "bike_id": "58f94fe5307f6fb337f64f0f9ae9316e", "rental_uris": {"ios": "https://dc.lft.to/lastmile_qr_scan", "android": "https://dc.lft.to/lastmile_qr_scan"}, "type": "electric_scooter", "fusion_lon": 0.0}, {"is_reserved": 0, "is_disabled": 0, "fusion_lat": 0.0, "name": "17657c943b124cacf6de896cb6c15a6d", "lat": 38.917703333333336, "lon": -77.040614, "bike_id": "17657c943b124cacf6de896cb6c15a6d", "rental_uris": {"ios": "https://dc.lft.to/lastmile_qr_scan", "android": "https://dc.lft.to/lastmile_qr_scan"}, "type": "electric_scooter", "fusion_lon": 0.0}, {"is_reserved": 0, "is_disabled": 0, "fusion_lat": 0.0, "name": "ab7356b4ed8608c89e9038f5fad2aa58", "lat": 38.932512833333334, "lon": -76.99715816666667, "bike_id": "ab7356b4ed8608c89e9038f5fad2aa58", "rental_uris": {"ios": "https://dc.lft.to/lastmile_qr_scan", "android": "https://dc.lft.to/lastmile_qr_scan"}, "type": "electric_scooter", "fusion_lon": 0.0}, {"is_reserved": 0, "is_disabled": 0, "fusion_lat": 0.0, "name": "7a526d28c497c9947d1559bf0d48b2b5", "lat": 38.9126525, "lon": -77.038601, "bike_id": "7a526d28c497c9947d1559bf0d48b2b5", "rental_uris": {"ios": "https://dc.lft.to/lastmile_qr_scan", "android": "https://dc.lft.to/lastmile_qr_scan"}, "type": "electric_scooter", "fusion_lon": 0.0}, {"is_reserved": 0, "is_disabled": 0, "fusion_lat": 0.0, "name": "80572140a3a65cd1f8af6b6fa182930c", "lat": 38.917026666666665, "lon": -77.03454983333333, "bike_id": "80572140a3a65cd1f8af6b6fa182930c", "rental_uris": {"ios": "https://dc.lft.to/lastmile_qr_scan", "android": "https://dc.lft.to/lastmile_qr_scan"}, "type": "electric_scooter", "fusion_lon": 0.0}, {"is_reserved": 0, "is_disabled": 0, "fusion_lat": 0.0, "name": "0a844a763149b3fb464ddcc998d4f4f5", "lat": 38.9515105, "lon": -77.01866483333333, "bike_id": "0a844a763149b3fb464ddcc998d4f4f5", "rental_uris": {"ios": "https://dc.lft.to/lastmile_qr_scan", "android": "https://dc.lft.to/lastmile_qr_scan"}, "type": "electric_scooter", "fusion_lon": 0.0}, {"is_reserved": 0, "is_disabled": 0, "fusion_lat": 0.0, "name": "bc368f6b610109e87648010c92c2ce96", "lat": 38.9192455, "lon": -77.0248515, "bike_id": "bc368f6b610109e87648010c92c2ce96", "rental_uris": {"ios": "https://dc.lft.to/lastmile_qr_scan", "android": "https://dc.lft.to/lastmile_qr_scan"}, "type": "electric_scooter", "fusion_lon": 0.0}, {"is_reserved": 0, "is_disabled": 0, "fusion_lat": 0.0, "name": "a8938b1a1dcca2a94cdd358f90930d0c", "lat": 38.928811333333336, "lon": -77.03990783333333, "bike_id": "a8938b1a1dcca2a94cdd358f90930d0c", "rental_uris": {"ios": "https://dc.lft.to/lastmile_qr_scan", "android": "https://dc.lft.to/lastmile_qr_scan"}, "type": "electric_scooter", "fusion_lon": 0.0}, {"is_reserved": 0, "is_disabled": 0, "fusion_lat": 0.0, "name": "46566a80b20ade86ceac9c7f3bbdc7ab", "lat": 38.92276733333333, "lon": -77.07334233333333, "bike_id": "46566a80b20ade86ceac9c7f3bbdc7ab", "rental_uris": {"ios": "https://dc.lft.to/lastmile_qr_scan", "android": "https://dc.lft.to/lastmile_qr_scan"}, "type": "electric_scooter", "fusion_lon": 0.0}, {"is_reserved": 0, "is_disabled": 0, "fusion_lat": 0.0, "name": "806a1e0811606b41901031f5b22f6b92", "lat": 38.92063916666667, "lon": -77.0326195, "bike_id": "806a1e0811606b41901031f5b22f6b92", "rental_uris": {"ios": "https://dc.lft.to/lastmile_qr_scan", "android": "https://dc.lft.to/lastmile_qr_scan"}, "type": "electric_scooter", "fusion_lon": 0.0}, {"is_reserved": 0, "is_disabled": 0, "fusion_lat": 0.0, "name": "07be433abb2f67aacf78730f9c8540c5", "lat": 38.90379216666667, "lon": -77.00987616666667, "bike_id": "07be433abb2f67aacf78730f9c8540c5", "rental_uris": {"ios": "https://dc.lft.to/lastmile_qr_scan", "android": "https://dc.lft.to/lastmile_qr_scan"}, "type": "electric_scooter", "fusion_lon": 0.0}, {"is_reserved": 0, "is_disabled": 0, "fusion_lat": 0.0, "name": "0bdf674bb58175cf28b2ad847eb18f76", "lat": 38.893182833333334, "lon": -77.019859, "bike_id": "0bdf674bb58175cf28b2ad847eb18f76", "rental_uris": {"ios": "https://dc.lft.to/lastmile_qr_scan", "android": "https://dc.lft.to/lastmile_qr_scan"}, "type": "electric_scooter", "fusion_lon": 0.0}, {"is_reserved": 0, "is_disabled": 0, "fusion_lat": 0.0, "name": "39e9ec790c59b97f608907bb7df6ac0f", "lat": 38.9006245, "lon": -77.0393045, "bike_id": "39e9ec790c59b97f608907bb7df6ac0f", "rental_uris": {"ios": "https://dc.lft.to/lastmile_qr_scan", "android": "https://dc.lft.to/lastmile_qr_scan"}, "type": "electric_scooter", "fusion_lon": 0.0}, {"is_reserved": 0, "is_disabled": 0, "fusion_lat": 0.0, "name": "d187ae3ed509af5cc5468dc9351c5c25", "lat": 38.95185816666667, "lon": -76.93543366666667, "bike_id": "d187ae3ed509af5cc5468dc9351c5c25", "rental_uris": {"ios": "https://dc.lft.to/lastmile_qr_scan", "android": "https://dc.lft.to/lastmile_qr_scan"}, "type": "electric_bike", "fusion_lon": 0.0}, {"is_reserved": 0, "is_disabled": 0, "fusion_lat": 0.0, "name": "56bdd9c2794512f829d306a2196cd360", "lat": 38.895518333333335, "lon": -76.983381, "bike_id": "56bdd9c2794512f829d306a2196cd360", "rental_uris": {"ios": "https://dc.lft.to/lastmile_qr_scan", "android": "https://dc.lft.to/lastmile_qr_scan"}, "type": "electric_scooter", "fusion_lon": 0.0}, {"is_reserved": 0, "is_disabled": 0, "fusion_lat": 0.0, "name": "2c2bc80b446141c40ccac7269162eddb", "lat": 38.918988666666664, "lon": -77.03182616666666, "bike_id": "2c2bc80b446141c40ccac7269162eddb", "rental_uris": {"ios": "https://dc.lft.to/lastmile_qr_scan", "android": "https://dc.lft.to/lastmile_qr_scan"}, "type": "electric_scooter", "fusion_lon": 0.0}, {"is_reserved": 0, "is_disabled": 0, "fusion_lat": 0.0, "name": "dc616235c0eb99ab86da89561c51b307", "lat": 38.92339366666667, "lon": -77.0402845, "bike_id": "dc616235c0eb99ab86da89561c51b307", "rental_uris": {"ios": "https://dc.lft.to/lastmile_qr_scan", "android": "https://dc.lft.to/lastmile_qr_scan"}, "type": "electric_scooter", "fusion_lon": 0.0}, {"is_reserved": 0, "is_disabled": 0, "fusion_lat": 0.0, "name": "803f0242348337c459223a6c74052237", "lat": 38.923856666666666, "lon": -77.0806225, "bike_id": "803f0242348337c459223a6c74052237", "rental_uris": {"ios": "https://dc.lft.to/lastmile_qr_scan", "android": "https://dc.lft.to/lastmile_qr_scan"}, "type": "electric_scooter", "fusion_lon": 0.0}, {"is_reserved": 0, "is_disabled": 0, "fusion_lat": 0.0, "name": "3ec19e5693d7067561d70aaad0e9a33d", "lat": 38.916343499999996, "lon": -77.04061733333333, "bike_id": "3ec19e5693d7067561d70aaad0e9a33d", "rental_uris": {"ios": "https://dc.lft.to/lastmile_qr_scan", "android": "https://dc.lft.to/lastmile_qr_scan"}, "type": "electric_scooter", "fusion_lon": 0.0}, {"is_reserved": 0, "is_disabled": 0, "fusion_lat": 0.0, "name": "f2a81f2009162871ad51bbd46135d63f", "lat": 38.8923765, "lon": -77.0301595, "bike_id": "f2a81f2009162871ad51bbd46135d63f", "rental_uris": {"ios": "https://dc.lft.to/lastmile_qr_scan", "android": "https://dc.lft.to/lastmile_qr_scan"}, "type": "electric_scooter", "fusion_lon": 0.0}, {"is_reserved": 0, "is_disabled": 0, "fusion_lat": 0.0, "name": "429cd250256cda3927f5f74c28d11e9b", "lat": 38.91695883333333, "lon": -77.041074, "bike_id": "429cd250256cda3927f5f74c28d11e9b", "rental_uris": {"ios": "https://dc.lft.to/lastmile_qr_scan", "android": "https://dc.lft.to/lastmile_qr_scan"}, "type": "electric_scooter", "fusion_lon": 0.0}, {"is_reserved": 0, "is_disabled": 0, "fusion_lat": 0.0, "name": "337f55daf0de3a0c034d213f6780c8b9", "lat": 38.89432016666667, "lon": -77.03183666666666, "bike_id": "337f55daf0de3a0c034d213f6780c8b9", "rental_uris": {"ios": "https://dc.lft.to/lastmile_qr_scan", "android": "https://dc.lft.to/lastmile_qr_scan"}, "type": "electric_scooter", "fusion_lon": 0.0}, {"is_reserved": 0, "is_disabled": 0, "fusion_lat": 0.0, "name": "29980d399ff3fce107929b75fde74da3", "lat": 38.928104833333336, "lon": -77.0141415, "bike_id": "29980d399ff3fce107929b75fde74da3", "rental_uris": {"ios": "https://dc.lft.to/lastmile_qr_scan", "android": "https://dc.lft.to/lastmile_qr_scan"}, "type": "electric_scooter", "fusion_lon": 0.0}, {"is_reserved": 0, "is_disabled": 0, "fusion_lat": 0.0, "name": "ec45ade3b0c68b29ac36ecab358f6890", "lat": 38.90787733333333, "lon": -77.03206133333333, "bike_id": "ec45ade3b0c68b29ac36ecab358f6890", "rental_uris": {"ios": "https://dc.lft.to/lastmile_qr_scan", "android": "https://dc.lft.to/lastmile_qr_scan"}, "type": "electric_scooter", "fusion_lon": 0.0}, {"is_reserved": 0, "is_disabled": 0, "fusion_lat": 0.0, "name": "20c91ea20f350e434ee0c228dcdb6ce6", "lat": 38.910159, "lon": -77.02855066666666, "bike_id": "20c91ea20f350e434ee0c228dcdb6ce6", "rental_uris": {"ios": "https://dc.lft.to/lastmile_qr_scan", "android": "https://dc.lft.to/lastmile_qr_scan"}, "type": "electric_scooter", "fusion_lon": 0.0}, {"is_reserved": 0, "is_disabled": 0, "fusion_lat": 0.0, "name": "365a1cd05d10d500125e2c485add1981", "lat": 38.846909833333335, "lon": -76.98064966666666, "bike_id": "365a1cd05d10d500125e2c485add1981", "rental_uris": {"ios": "https://dc.lft.to/lastmile_qr_scan", "android": "https://dc.lft.to/lastmile_qr_scan"}, "type": "electric_bike", "fusion_lon": 0.0}, {"is_reserved": 0, "is_disabled": 0, "fusion_lat": 0.0, "name": "20d201f5366821a5a85da6c86f460d17", "lat": 38.9013075, "lon": -77.03848366666666, "bike_id": "20d201f5366821a5a85da6c86f460d17", "rental_uris": {"ios": "https://dc.lft.to/lastmile_qr_scan", "android": "https://dc.lft.to/lastmile_qr_scan"}, "type": "electric_scooter", "fusion_lon": 0.0}, {"is_reserved": 0, "is_disabled": 0, "fusion_lat": 0.0, "name": "b1a00067382f01415636ebf72c61f331", "lat": 38.91805183333334, "lon": -77.044468, "bike_id": "b1a00067382f01415636ebf72c61f331", "rental_uris": {"ios": "https://dc.lft.to/lastmile_qr_scan", "android": "https://dc.lft.to/lastmile_qr_scan"}, "type": "electric_scooter", "fusion_lon": 0.0}, {"is_reserved": 0, "is_disabled": 0, "fusion_lat": 0.0, "name": "3804a920b893cd5920924fae39097625", "lat": 38.90463166666667, "lon": -77.02853616666667, "bike_id": "3804a920b893cd5920924fae39097625", "rental_uris": {"ios": "https://dc.lft.to/lastmile_qr_scan", "android": "https://dc.lft.to/lastmile_qr_scan"}, "type": "electric_scooter", "fusion_lon": 0.0}, {"is_reserved": 0, "is_disabled": 0, "fusion_lat": 0.0, "name": "2d05651a104da83a27f59b3c89d220ef", "lat": 38.90733383333333, "lon": -77.03202333333333, "bike_id": "2d05651a104da83a27f59b3c89d220ef", "rental_uris": {"ios": "https://dc.lft.to/lastmile_qr_scan", "android": "https://dc.lft.to/lastmile_qr_scan"}, "type": "electric_scooter", "fusion_lon": 0.0}, {"is_reserved": 0, "is_disabled": 0, "fusion_lat": 0.0, "name": "7b8a9d66e74f6ca46710df2722fab864", "lat": 38.887638833333334, "lon": -77.15650416666666, "bike_id": "7b8a9d66e74f6ca46710df2722fab864", "rental_uris": {"ios": "https://dc.lft.to/lastmile_qr_scan", "android": "https://dc.lft.to/lastmile_qr_scan"}, "type": "electric_bike", "fusion_lon": 0.0}, {"is_reserved": 0, "is_disabled": 0, "fusion_lat": 0.0, "name": "e7eaaafe29a78748f0d6ccef169e6ff9", "lat": 38.91301883333333, "lon": -76.98692666666666, "bike_id": "e7eaaafe29a78748f0d6ccef169e6ff9", "rental_uris": {"ios": "https://dc.lft.to/lastmile_qr_scan", "android": "https://dc.lft.to/lastmile_qr_scan"}, "type": "electric_scooter", "fusion_lon": 0.0}, {"is_reserved": 0, "is_disabled": 0, "fusion_lat": 0.0, "name": "081e18c3e0d7c418b06a6ada676ede04", "lat": 38.906545333333334, "lon": -77.0719735, "bike_id": "081e18c3e0d7c418b06a6ada676ede04", "rental_uris": {"ios": "https://dc.lft.to/lastmile_qr_scan", "android": "https://dc.lft.to/lastmile_qr_scan"}, "type": "electric_scooter", "fusion_lon": 0.0}, {"is_reserved": 0, "is_disabled": 0, "fusion_lat": 0.0, "name": "3df44ffc2d743cd0c0a207fd979dfc3c", "lat": 38.92513, "lon": -76.99837766666667, "bike_id": "3df44ffc2d743cd0c0a207fd979dfc3c", "rental_uris": {"ios": "https://dc.lft.to/lastmile_qr_scan", "android": "https://dc.lft.to/lastmile_qr_scan"}, "type": "electric_scooter", "fusion_lon": 0.0}, {"is_reserved": 0, "is_disabled": 0, "fusion_lat": 0.0, "name": "e021ddf7473dfc5909be0687c0c550cb", "lat": 38.90356633333333, "lon": -77.0258545, "bike_id": "e021ddf7473dfc5909be0687c0c550cb", "rental_uris": {"ios": "https://dc.lft.to/lastmile_qr_scan", "android": "https://dc.lft.to/lastmile_qr_scan"}, "type": "electric_scooter", "fusion_lon": 0.0}, {"is_reserved": 0, "is_disabled": 0, "fusion_lat": 0.0, "name": "a625e3ac03c99d1bfcfcf00b0417cf88", "lat": 38.92733416666667, "lon": -77.03421666666667, "bike_id": "a625e3ac03c99d1bfcfcf00b0417cf88", "rental_uris": {"ios": "https://dc.lft.to/lastmile_qr_scan", "android": "https://dc.lft.to/lastmile_qr_scan"}, "type": "electric_scooter", "fusion_lon": 0.0}, {"is_reserved": 0, "is_disabled": 0, "fusion_lat": 0.0, "name": "5be057fe92150cc2ed70207be0563a8b", "lat": 38.8985245, "lon": -76.93213016666667, "bike_id": "5be057fe92150cc2ed70207be0563a8b", "rental_uris": {"ios": "https://dc.lft.to/lastmile_qr_scan", "android": "https://dc.lft.to/lastmile_qr_scan"}, "type": "electric_scooter", "fusion_lon": 0.0}, {"is_reserved": 0, "is_disabled": 0, "fusion_lat": 0.0, "name": "687def7df08c6978be584a6b35659484", "lat": 38.855653833333335, "lon": -76.99082283333334, "bike_id": "687def7df08c6978be584a6b35659484", "rental_uris": {"ios": "https://dc.lft.to/lastmile_qr_scan", "android": "https://dc.lft.to/lastmile_qr_scan"}, "type": "electric_scooter", "fusion_lon": 0.0}, {"is_reserved": 0, "is_disabled": 0, "fusion_lat": 0.0, "name": "d3798d827deebdb386b6daf7b96f10b3", "lat": 38.917232, "lon": -77.0220295, "bike_id": "d3798d827deebdb386b6daf7b96f10b3", "rental_uris": {"ios": "https://dc.lft.to/lastmile_qr_scan", "android": "https://dc.lft.to/lastmile_qr_scan"}, "type": "electric_scooter", "fusion_lon": 0.0}, {"is_reserved": 0, "is_disabled": 0, "fusion_lat": 0.0, "name": "45228210d0aceccf1593026fc6b73012", "lat": 38.8935725, "lon": -77.02080616666667, "bike_id": "45228210d0aceccf1593026fc6b73012", "rental_uris": {"ios": "https://dc.lft.to/lastmile_qr_scan", "android": "https://dc.lft.to/lastmile_qr_scan"}, "type": "electric_scooter", "fusion_lon": 0.0}, {"is_reserved": 0, "is_disabled": 0, "fusion_lat": 0.0, "name": "6e9467274be5d5d2cb05ad2c00ab954a", "lat": 38.9182365, "lon": -77.03196433333333, "bike_id": "6e9467274be5d5d2cb05ad2c00ab954a", "rental_uris": {"ios": "https://dc.lft.to/lastmile_qr_scan", "android": "https://dc.lft.to/lastmile_qr_scan"}, "type": "electric_scooter", "fusion_lon": 0.0}, {"is_reserved": 0, "is_disabled": 0, "fusion_lat": 0.0, "name": "3766f68c956e2a622d4be86a9ded5bdd", "lat": 38.931260333333334, "lon": -77.020983, "bike_id": "3766f68c956e2a622d4be86a9ded5bdd", "rental_uris": {"ios": "https://dc.lft.to/lastmile_qr_scan", "android": "https://dc.lft.to/lastmile_qr_scan"}, "type": "electric_scooter", "fusion_lon": 0.0}, {"is_reserved": 0, "is_disabled": 0, "fusion_lat": 0.0, "name": "67652e9e3b30761df13f5f5ca4a1ac27", "lat": 38.92688016666666, "lon": -77.01533666666667, "bike_id": "67652e9e3b30761df13f5f5ca4a1ac27", "rental_uris": {"ios": "https://dc.lft.to/lastmile_qr_scan", "android": "https://dc.lft.to/lastmile_qr_scan"}, "type": "electric_scooter", "fusion_lon": 0.0}, {"is_reserved": 0, "is_disabled": 0, "fusion_lat": 0.0, "name": "285f9173182932970e570a9188ae9f01", "lat": 38.88248983333333, "lon": -76.93331666666667, "bike_id": "285f9173182932970e570a9188ae9f01", "rental_uris": {"ios": "https://dc.lft.to/lastmile_qr_scan", "android": "https://dc.lft.to/lastmile_qr_scan"}, "type": "electric_scooter", "fusion_lon": 0.0}, {"is_reserved": 0, "is_disabled": 0, "fusion_lat": 0.0, "name": "3602fcf1f61c6cd3959e0197bc7fa708", "lat": 38.92391333333333, "lon": -77.05852133333333, "bike_id": "3602fcf1f61c6cd3959e0197bc7fa708", "rental_uris": {"ios": "https://dc.lft.to/lastmile_qr_scan", "android": "https://dc.lft.to/lastmile_qr_scan"}, "type": "electric_bike", "fusion_lon": 0.0}, {"is_reserved": 0, "is_disabled": 0, "fusion_lat": 0.0, "name": "b5fdb03d250a6faa3c8108848d9a49eb", "lat": 38.9072055, "lon": -77.01501, "bike_id": "b5fdb03d250a6faa3c8108848d9a49eb", "rental_uris": {"ios": "https://dc.lft.to/lastmile_qr_scan", "android": "https://dc.lft.to/lastmile_qr_scan"}, "type": "electric_scooter", "fusion_lon": 0.0}, {"is_reserved": 0, "is_disabled": 0, "fusion_lat": 0.0, "name": "10b7380283e443906596f81f79d9006c", "lat": 38.90338116666667, "lon": -77.01106683333333, "bike_id": "10b7380283e443906596f81f79d9006c", "rental_uris": {"ios": "https://dc.lft.to/lastmile_qr_scan", "android": "https://dc.lft.to/lastmile_qr_scan"}, "type": "electric_scooter", "fusion_lon": 0.0}, {"is_reserved": 0, "is_disabled": 0, "fusion_lat": 0.0, "name": "c12bc3dcf6efb7f121bb636b3fc8829f", "lat": 38.909553, "lon": -77.02381183333334, "bike_id": "c12bc3dcf6efb7f121bb636b3fc8829f", "rental_uris": {"ios": "https://dc.lft.to/lastmile_qr_scan", "android": "https://dc.lft.to/lastmile_qr_scan"}, "type": "electric_scooter", "fusion_lon": 0.0}, {"is_reserved": 0, "is_disabled": 0, "fusion_lat": 0.0, "name": "4821d7993d342692b5e08837b32ec90e", "lat": 38.908538666666665, "lon": -76.99971133333334, "bike_id": "4821d7993d342692b5e08837b32ec90e", "rental_uris": {"ios": "https://dc.lft.to/lastmile_qr_scan", "android": "https://dc.lft.to/lastmile_qr_scan"}, "type": "electric_scooter", "fusion_lon": 0.0}, {"is_reserved": 0, "is_disabled": 0, "fusion_lat": 0.0, "name": "785ee9c507e84c1a25592a40d148b088", "lat": 38.9072545, "lon": -77.025038, "bike_id": "785ee9c507e84c1a25592a40d148b088", "rental_uris": {"ios": "https://dc.lft.to/lastmile_qr_scan", "android": "https://dc.lft.to/lastmile_qr_scan"}, "type": "electric_scooter", "fusion_lon": 0.0}, {"is_reserved": 0, "is_disabled": 0, "fusion_lat": 0.0, "name": "e49dd9ec6c52e253924a99eb9df5e897", "lat": 38.91112583333334, "lon": -77.01282583333334, "bike_id": "e49dd9ec6c52e253924a99eb9df5e897", "rental_uris": {"ios": "https://dc.lft.to/lastmile_qr_scan", "android": "https://dc.lft.to/lastmile_qr_scan"}, "type": "electric_scooter", "fusion_lon": 0.0}, {"is_reserved": 0, "is_disabled": 0, "fusion_lat": 0.0, "name": "a52f17b75041c92886aaf0a05ee10bb8", "lat": 38.89973033333333, "lon": -76.93758716666666, "bike_id": "a52f17b75041c92886aaf0a05ee10bb8", "rental_uris": {"ios": "https://dc.lft.to/lastmile_qr_scan", "android": "https://dc.lft.to/lastmile_qr_scan"}, "type": "electric_scooter", "fusion_lon": 0.0}, {"is_reserved": 0, "is_disabled": 0, "fusion_lat": 0.0, "name": "0081eb960e2e597cfe6e4b1e42ff4275", "lat": 38.91419633333334, "lon": -77.0317605, "bike_id": "0081eb960e2e597cfe6e4b1e42ff4275", "rental_uris": {"ios": "https://dc.lft.to/lastmile_qr_scan", "android": "https://dc.lft.to/lastmile_qr_scan"}, "type": "electric_scooter", "fusion_lon": 0.0}, {"is_reserved": 0, "is_disabled": 0, "fusion_lat": 0.0, "name": "c5f41d27208061f463405c540b1ac65f", "lat": 38.87496933333333, "lon": -77.00184866666666, "bike_id": "c5f41d27208061f463405c540b1ac65f", "rental_uris": {"ios": "https://dc.lft.to/lastmile_qr_scan", "android": "https://dc.lft.to/lastmile_qr_scan"}, "type": "electric_scooter", "fusion_lon": 0.0}, {"is_reserved": 0, "is_disabled": 0, "fusion_lat": 0.0, "name": "02ed103d31f8fa508a095a9fd5eca81f", "lat": 38.84629416666667, "lon": -77.06935983333334, "bike_id": "02ed103d31f8fa508a095a9fd5eca81f", "rental_uris": {"ios": "https://dc.lft.to/lastmile_qr_scan", "android": "https://dc.lft.to/lastmile_qr_scan"}, "type": "electric_bike", "fusion_lon": 0.0}, {"is_reserved": 0, "is_disabled": 0, "fusion_lat": 0.0, "name": "f74e9ed7590949110892dc22c030310a", "lat": 38.830107, "lon": -77.00824916666667, "bike_id": "f74e9ed7590949110892dc22c030310a", "rental_uris": {"ios": "https://dc.lft.to/lastmile_qr_scan", "android": "https://dc.lft.to/lastmile_qr_scan"}, "type": "electric_bike", "fusion_lon": 0.0}, {"is_reserved": 0, "is_disabled": 0, "fusion_lat": 0.0, "name": "54fc32db96d875c2499d6d84eea44060", "lat": 38.918144833333336, "lon": -77.03797633333333, "bike_id": "54fc32db96d875c2499d6d84eea44060", "rental_uris": {"ios": "https://dc.lft.to/lastmile_qr_scan", "android": "https://dc.lft.to/lastmile_qr_scan"}, "type": "electric_scooter", "fusion_lon": 0.0}, {"is_reserved": 0, "is_disabled": 0, "fusion_lat": 0.0, "name": "e7635a130a21cadc4d96cd149d517cc8", "lat": 38.914192, "lon": -77.03815366666667, "bike_id": "e7635a130a21cadc4d96cd149d517cc8", "rental_uris": {"ios": "https://dc.lft.to/lastmile_qr_scan", "android": "https://dc.lft.to/lastmile_qr_scan"}, "type": "electric_scooter", "fusion_lon": 0.0}, {"is_reserved": 0, "is_disabled": 0, "fusion_lat": 0.0, "name": "7ecb2ce2bdfc42aad0f7c695903a280c", "lat": 38.89963016666667, "lon": -77.04718533333333, "bike_id": "7ecb2ce2bdfc42aad0f7c695903a280c", "rental_uris": {"ios": "https://dc.lft.to/lastmile_qr_scan", "android": "https://dc.lft.to/lastmile_qr_scan"}, "type": "electric_scooter", "fusion_lon": 0.0}, {"is_reserved": 0, "is_disabled": 0, "fusion_lat": 0.0, "name": "3f1111f56d20e28013662838e89bc155", "lat": 38.89817016666667, "lon": -77.048148, "bike_id": "3f1111f56d20e28013662838e89bc155", "rental_uris": {"ios": "https://dc.lft.to/lastmile_qr_scan", "android": "https://dc.lft.to/lastmile_qr_scan"}, "type": "electric_scooter", "fusion_lon": 0.0}, {"is_reserved": 0, "is_disabled": 0, "fusion_lat": 0.0, "name": "8a71302829e10d2540d049b0997381cb", "lat": 38.905842666666665, "lon": -77.04538566666666, "bike_id": "8a71302829e10d2540d049b0997381cb", "rental_uris": {"ios": "https://dc.lft.to/lastmile_qr_scan", "android": "https://dc.lft.to/lastmile_qr_scan"}, "type": "electric_scooter", "fusion_lon": 0.0}, {"is_reserved": 0, "is_disabled": 0, "fusion_lat": 0.0, "name": "57cb9da11f7edfb69961a26bf68fa06d", "lat": 38.898438666666664, "lon": -77.0285985, "bike_id": "57cb9da11f7edfb69961a26bf68fa06d", "rental_uris": {"ios": "https://dc.lft.to/lastmile_qr_scan", "android": "https://dc.lft.to/lastmile_qr_scan"}, "type": "electric_scooter", "fusion_lon": 0.0}, {"is_reserved": 0, "is_disabled": 0, "fusion_lat": 0.0, "name": "9af3d20bafacc42d890f70c822b5ad2e", "lat": 38.8864535, "lon": -77.01221666666666, "bike_id": "9af3d20bafacc42d890f70c822b5ad2e", "rental_uris": {"ios": "https://dc.lft.to/lastmile_qr_scan", "android": "https://dc.lft.to/lastmile_qr_scan"}, "type": "electric_scooter", "fusion_lon": 0.0}, {"is_reserved": 0, "is_disabled": 0, "fusion_lat": 0.0, "name": "f9b58a2a50bdf34eed3d39861c72533e", "lat": 38.905948333333335, "lon": -77.03370266666667, "bike_id": "f9b58a2a50bdf34eed3d39861c72533e", "rental_uris": {"ios": "https://dc.lft.to/lastmile_qr_scan", "android": "https://dc.lft.to/lastmile_qr_scan"}, "type": "electric_scooter", "fusion_lon": 0.0}, {"is_reserved": 0, "is_disabled": 0, "fusion_lat": 0.0, "name": "70e74838330e3fc8c01f188c4d797d49", "lat": 38.892091666666666, "lon": -76.9611705, "bike_id": "70e74838330e3fc8c01f188c4d797d49", "rental_uris": {"ios": "https://dc.lft.to/lastmile_qr_scan", "android": "https://dc.lft.to/lastmile_qr_scan"}, "type": "electric_scooter", "fusion_lon": 0.0}, {"is_reserved": 0, "is_disabled": 0, "fusion_lat": 0.0, "name": "b9391aeb17385c3ef2144a74c885ea12", "lat": 38.85628033333333, "lon": -76.99071666666667, "bike_id": "b9391aeb17385c3ef2144a74c885ea12", "rental_uris": {"ios": "https://dc.lft.to/lastmile_qr_scan", "android": "https://dc.lft.to/lastmile_qr_scan"}, "type": "electric_scooter", "fusion_lon": 0.0}, {"is_reserved": 0, "is_disabled": 0, "fusion_lat": 0.0, "name": "2b98806f6bdfc7eee1cd2344acd04a32", "lat": 38.92785766666667, "lon": -77.021205, "bike_id": "2b98806f6bdfc7eee1cd2344acd04a32", "rental_uris": {"ios": "https://dc.lft.to/lastmile_qr_scan", "android": "https://dc.lft.to/lastmile_qr_scan"}, "type": "electric_scooter", "fusion_lon": 0.0}, {"is_reserved": 0, "is_disabled": 0, "fusion_lat": 0.0, "name": "56190ee9b9cddc438307c6866760bc35", "lat": 38.928898833333335, "lon": -77.03877916666667, "bike_id": "56190ee9b9cddc438307c6866760bc35", "rental_uris": {"ios": "https://dc.lft.to/lastmile_qr_scan", "android": "https://dc.lft.to/lastmile_qr_scan"}, "type": "electric_scooter", "fusion_lon": 0.0}, {"is_reserved": 0, "is_disabled": 0, "fusion_lat": 0.0, "name": "02d97e3eeb301d18feaef12da50c26d3", "lat": 38.99832633333333, "lon": -76.99726483333333, "bike_id": "02d97e3eeb301d18feaef12da50c26d3", "rental_uris": {"ios": "https://dc.lft.to/lastmile_qr_scan", "android": "https://dc.lft.to/lastmile_qr_scan"}, "type": "electric_bike", "fusion_lon": 0.0}, {"is_reserved": 0, "is_disabled": 0, "fusion_lat": 0.0, "name": "c2861d9e5f8b3f9bfbdab91896f8f55c", "lat": 38.921513, "lon": -77.02847566666667, "bike_id": "c2861d9e5f8b3f9bfbdab91896f8f55c", "rental_uris": {"ios": "https://dc.lft.to/lastmile_qr_scan", "android": "https://dc.lft.to/lastmile_qr_scan"}, "type": "electric_scooter", "fusion_lon": 0.0}, {"is_reserved": 0, "is_disabled": 0, "fusion_lat": 0.0, "name": "f3dce5ad4586f06874069ebbda37c159", "lat": 38.8757595, "lon": -77.0474595, "bike_id": "f3dce5ad4586f06874069ebbda37c159", "rental_uris": {"ios": "https://dc.lft.to/lastmile_qr_scan", "android": "https://dc.lft.to/lastmile_qr_scan"}, "type": "electric_bike", "fusion_lon": 0.0}, {"is_reserved": 0, "is_disabled": 0, "fusion_lat": 0.0, "name": "0bd7d1d201d135ea15434c4e2aa09977", "lat": 38.88383666666667, "lon": -77.04608683333333, "bike_id": "0bd7d1d201d135ea15434c4e2aa09977", "rental_uris": {"ios": "https://dc.lft.to/lastmile_qr_scan", "android": "https://dc.lft.to/lastmile_qr_scan"}, "type": "electric_scooter", "fusion_lon": 0.0}, {"is_reserved": 0, "is_disabled": 0, "fusion_lat": 0.0, "name": "bbe5d3066cf110069646eb32f22367ca", "lat": 38.91026733333333, "lon": -77.03841166666666, "bike_id": "bbe5d3066cf110069646eb32f22367ca", "rental_uris": {"ios": "https://dc.lft.to/lastmile_qr_scan", "android": "https://dc.lft.to/lastmile_qr_scan"}, "type": "electric_scooter", "fusion_lon": 0.0}, {"is_reserved": 0, "is_disabled": 0, "fusion_lat": 0.0, "name": "e8ad2b25729087a87267b6be1e9704e7", "lat": 38.921993666666665, "lon": -77.043207, "bike_id": "e8ad2b25729087a87267b6be1e9704e7", "rental_uris": {"ios": "https://dc.lft.to/lastmile_qr_scan", "android": "https://dc.lft.to/lastmile_qr_scan"}, "type": "electric_scooter", "fusion_lon": 0.0}, {"is_reserved": 0, "is_disabled": 0, "fusion_lat": 0.0, "name": "fae4d5870d407be2bcbb1450769dd989", "lat": 38.944109833333336, "lon": -77.0218465, "bike_id": "fae4d5870d407be2bcbb1450769dd989", "rental_uris": {"ios": "https://dc.lft.to/lastmile_qr_scan", "android": "https://dc.lft.to/lastmile_qr_scan"}, "type": "electric_bike", "fusion_lon": 0.0}, {"is_reserved": 0, "is_disabled": 0, "fusion_lat": 0.0, "name": "eff9abc8bd0eea29bb71f22d5c505628", "lat": 38.9136625, "lon": -77.0205755, "bike_id": "eff9abc8bd0eea29bb71f22d5c505628", "rental_uris": {"ios": "https://dc.lft.to/lastmile_qr_scan", "android": "https://dc.lft.to/lastmile_qr_scan"}, "type": "electric_scooter", "fusion_lon": 0.0}, {"is_reserved": 0, "is_disabled": 0, "fusion_lat": 0.0, "name": "27bfc662ef37c70ba6f2757a7ee75a49", "lat": 38.918131333333335, "lon": -77.02474766666667, "bike_id": "27bfc662ef37c70ba6f2757a7ee75a49", "rental_uris": {"ios": "https://dc.lft.to/lastmile_qr_scan", "android": "https://dc.lft.to/lastmile_qr_scan"}, "type": "electric_scooter", "fusion_lon": 0.0}, {"is_reserved": 0, "is_disabled": 0, "fusion_lat": 0.0, "name": "c70da156df5dbae1f2a0f22224e47947", "lat": 38.92418966666666, "lon": -77.01949083333334, "bike_id": "c70da156df5dbae1f2a0f22224e47947", "rental_uris": {"ios": "https://dc.lft.to/lastmile_qr_scan", "android": "https://dc.lft.to/lastmile_qr_scan"}, "type": "electric_scooter", "fusion_lon": 0.0}, {"is_reserved": 0, "is_disabled": 0, "fusion_lat": 0.0, "name": "763b23f8626be1f96f3174c457328e08", "lat": 38.892565833333336, "lon": -77.0450635, "bike_id": "763b23f8626be1f96f3174c457328e08", "rental_uris": {"ios": "https://dc.lft.to/lastmile_qr_scan", "android": "https://dc.lft.to/lastmile_qr_scan"}, "type": "electric_scooter", "fusion_lon": 0.0}, {"is_reserved": 0, "is_disabled": 0, "fusion_lat": 0.0, "name": "a181e54ac2f643249a6ebe8b60562a0a", "lat": 38.8942005, "lon": -77.010872, "bike_id": "a181e54ac2f643249a6ebe8b60562a0a", "rental_uris": {"ios": "https://dc.lft.to/lastmile_qr_scan", "android": "https://dc.lft.to/lastmile_qr_scan"}, "type": "electric_scooter", "fusion_lon": 0.0}, {"is_reserved": 0, "is_disabled": 0, "fusion_lat": 0.0, "name": "eb0b355f7695b12450836afcf2f13ddc", "lat": 38.917378666666664, "lon": -77.02112616666666, "bike_id": "eb0b355f7695b12450836afcf2f13ddc", "rental_uris": {"ios": "https://dc.lft.to/lastmile_qr_scan", "android": "https://dc.lft.to/lastmile_qr_scan"}, "type": "electric_scooter", "fusion_lon": 0.0}, {"is_reserved": 0, "is_disabled": 0, "fusion_lat": 0.0, "name": "b19cc44dbe110764bf9d5f99ffb8a667", "lat": 38.923405333333335, "lon": -77.02131283333334, "bike_id": "b19cc44dbe110764bf9d5f99ffb8a667", "rental_uris": {"ios": "https://dc.lft.to/lastmile_qr_scan", "android": "https://dc.lft.to/lastmile_qr_scan"}, "type": "electric_scooter", "fusion_lon": 0.0}, {"is_reserved": 0, "is_disabled": 0, "fusion_lat": 0.0, "name": "af194d3d5fd850773ccf2b619467c0f7", "lat": 38.902422333333334, "lon": -77.00202116666667, "bike_id": "af194d3d5fd850773ccf2b619467c0f7", "rental_uris": {"ios": "https://dc.lft.to/lastmile_qr_scan", "android": "https://dc.lft.to/lastmile_qr_scan"}, "type": "electric_scooter", "fusion_lon": 0.0}, {"is_reserved": 0, "is_disabled": 0, "fusion_lat": 0.0, "name": "0789101fa59d4f236e8d1589c0d7aeef", "lat": 38.917792, "lon": -77.047469, "bike_id": "0789101fa59d4f236e8d1589c0d7aeef", "rental_uris": {"ios": "https://dc.lft.to/lastmile_qr_scan", "android": "https://dc.lft.to/lastmile_qr_scan"}, "type": "electric_scooter", "fusion_lon": 0.0}, {"is_reserved": 0, "is_disabled": 0, "fusion_lat": 0.0, "name": "eb475e1e0494546d4e36b14b83ee925d", "lat": 38.915528333333334, "lon": -77.03171416666666, "bike_id": "eb475e1e0494546d4e36b14b83ee925d", "rental_uris": {"ios": "https://dc.lft.to/lastmile_qr_scan", "android": "https://dc.lft.to/lastmile_qr_scan"}, "type": "electric_scooter", "fusion_lon": 0.0}, {"is_reserved": 0, "is_disabled": 0, "fusion_lat": 0.0, "name": "d65d4c71b01d28f33e8bf54b6a964c94", "lat": 38.892327, "lon": -77.033207, "bike_id": "d65d4c71b01d28f33e8bf54b6a964c94", "rental_uris": {"ios": "https://dc.lft.to/lastmile_qr_scan", "android": "https://dc.lft.to/lastmile_qr_scan"}, "type": "electric_scooter", "fusion_lon": 0.0}, {"is_reserved": 0, "is_disabled": 0, "fusion_lat": 0.0, "name": "ae554dc63f7dcee15e213302bd7e2dfb", "lat": 38.90860833333333, "lon": -77.04167966666667, "bike_id": "ae554dc63f7dcee15e213302bd7e2dfb", "rental_uris": {"ios": "https://dc.lft.to/lastmile_qr_scan", "android": "https://dc.lft.to/lastmile_qr_scan"}, "type": "electric_scooter", "fusion_lon": 0.0}, {"is_reserved": 0, "is_disabled": 0, "fusion_lat": 0.0, "name": "980a2a8f975352d18d1ef45e58758baf", "lat": 38.912537, "lon": -77.02811033333333, "bike_id": "980a2a8f975352d18d1ef45e58758baf", "rental_uris": {"ios": "https://dc.lft.to/lastmile_qr_scan", "android": "https://dc.lft.to/lastmile_qr_scan"}, "type": "electric_scooter", "fusion_lon": 0.0}, {"is_reserved": 0, "is_disabled": 0, "fusion_lat": 0.0, "name": "d986ec8955b84a7c854ff24944cf0788", "lat": 38.900952, "lon": -77.038558, "bike_id": "d986ec8955b84a7c854ff24944cf0788", "rental_uris": {"ios": "https://dc.lft.to/lastmile_qr_scan", "android": "https://dc.lft.to/lastmile_qr_scan"}, "type": "electric_scooter", "fusion_lon": 0.0}, {"is_reserved": 0, "is_disabled": 0, "fusion_lat": 0.0, "name": "c32b64d9d5695f0cf7d98bc2584037b4", "lat": 38.899008, "lon": -77.0405145, "bike_id": "c32b64d9d5695f0cf7d98bc2584037b4", "rental_uris": {"ios": "https://dc.lft.to/lastmile_qr_scan", "android": "https://dc.lft.to/lastmile_qr_scan"}, "type": "electric_scooter", "fusion_lon": 0.0}, {"is_reserved": 0, "is_disabled": 0, "fusion_lat": 0.0, "name": "622136dd424cee718c589dab9a6e45b5", "lat": 38.93693233333333, "lon": -77.05598333333333, "bike_id": "622136dd424cee718c589dab9a6e45b5", "rental_uris": {"ios": "https://dc.lft.to/lastmile_qr_scan", "android": "https://dc.lft.to/lastmile_qr_scan"}, "type": "electric_scooter", "fusion_lon": 0.0}, {"is_reserved": 0, "is_disabled": 0, "fusion_lat": 0.0, "name": "19b26a65d810e00bdb0df759e990cf07", "lat": 38.88583533333333, "lon": -77.01229266666667, "bike_id": "19b26a65d810e00bdb0df759e990cf07", "rental_uris": {"ios": "https://dc.lft.to/lastmile_qr_scan", "android": "https://dc.lft.to/lastmile_qr_scan"}, "type": "electric_scooter", "fusion_lon": 0.0}, {"is_reserved": 0, "is_disabled": 0, "fusion_lat": 0.0, "name": "159cb3a699624814949080ebed0cd9f2", "lat": 38.952582, "lon": -77.02075016666667, "bike_id": "159cb3a699624814949080ebed0cd9f2", "rental_uris": {"ios": "https://dc.lft.to/lastmile_qr_scan", "android": "https://dc.lft.to/lastmile_qr_scan"}, "type": "electric_scooter", "fusion_lon": 0.0}, {"is_reserved": 0, "is_disabled": 0, "fusion_lat": 0.0, "name": "efa2ffdbf34106bdeecb5f6b1a2a8501", "lat": 38.91755766666667, "lon": -77.02116583333333, "bike_id": "efa2ffdbf34106bdeecb5f6b1a2a8501", "rental_uris": {"ios": "https://dc.lft.to/lastmile_qr_scan", "android": "https://dc.lft.to/lastmile_qr_scan"}, "type": "electric_scooter", "fusion_lon": 0.0}, {"is_reserved": 0, "is_disabled": 0, "fusion_lat": 0.0, "name": "17936dcf896244972791b90a9f455d1f", "lat": 38.93597033333333, "lon": -77.03199566666666, "bike_id": "17936dcf896244972791b90a9f455d1f", "rental_uris": {"ios": "https://dc.lft.to/lastmile_qr_scan", "android": "https://dc.lft.to/lastmile_qr_scan"}, "type": "electric_scooter", "fusion_lon": 0.0}, {"is_reserved": 0, "is_disabled": 0, "fusion_lat": 0.0, "name": "6ad7b40ec6bdbc38489150ccf634bf2a", "lat": 38.893302, "lon": -76.9392855, "bike_id": "6ad7b40ec6bdbc38489150ccf634bf2a", "rental_uris": {"ios": "https://dc.lft.to/lastmile_qr_scan", "android": "https://dc.lft.to/lastmile_qr_scan"}, "type": "electric_scooter", "fusion_lon": 0.0}, {"is_reserved": 0, "is_disabled": 0, "fusion_lat": 0.0, "name": "5f37ceccb918f86b39afb8fe3548cdda", "lat": 38.8991855, "lon": -77.023326, "bike_id": "5f37ceccb918f86b39afb8fe3548cdda", "rental_uris": {"ios": "https://dc.lft.to/lastmile_qr_scan", "android": "https://dc.lft.to/lastmile_qr_scan"}, "type": "electric_scooter", "fusion_lon": 0.0}, {"is_reserved": 0, "is_disabled": 0, "fusion_lat": 0.0, "name": "0d900865f75ba52b5f2746e8e2e6a263", "lat": 38.9162435, "lon": -77.03273466666667, "bike_id": "0d900865f75ba52b5f2746e8e2e6a263", "rental_uris": {"ios": "https://dc.lft.to/lastmile_qr_scan", "android": "https://dc.lft.to/lastmile_qr_scan"}, "type": "electric_scooter", "fusion_lon": 0.0}, {"is_reserved": 0, "is_disabled": 0, "fusion_lat": 0.0, "name": "b4fb8b2d8ac19cdc37404d4c230aa109", "lat": 38.910261, "lon": -77.03844266666667, "bike_id": "b4fb8b2d8ac19cdc37404d4c230aa109", "rental_uris": {"ios": "https://dc.lft.to/lastmile_qr_scan", "android": "https://dc.lft.to/lastmile_qr_scan"}, "type": "electric_scooter", "fusion_lon": 0.0}, {"is_reserved": 0, "is_disabled": 0, "fusion_lat": 0.0, "name": "37d3b24b4aa10bee536892d08dda5382", "lat": 38.88770266666667, "lon": -76.977367, "bike_id": "37d3b24b4aa10bee536892d08dda5382", "rental_uris": {"ios": "https://dc.lft.to/lastmile_qr_scan", "android": "https://dc.lft.to/lastmile_qr_scan"}, "type": "electric_scooter", "fusion_lon": 0.0}, {"is_reserved": 0, "is_disabled": 0, "fusion_lat": 0.0, "name": "478d1f6a71c4a1f387026a2533235913", "lat": 38.922362166666666, "lon": -77.02830366666667, "bike_id": "478d1f6a71c4a1f387026a2533235913", "rental_uris": {"ios": "https://dc.lft.to/lastmile_qr_scan", "android": "https://dc.lft.to/lastmile_qr_scan"}, "type": "electric_scooter", "fusion_lon": 0.0}, {"is_reserved": 0, "is_disabled": 0, "fusion_lat": 0.0, "name": "5611366e6acc38e07ec3cb6e2dbeb143", "lat": 38.835928833333334, "lon": -76.99016466666667, "bike_id": "5611366e6acc38e07ec3cb6e2dbeb143", "rental_uris": {"ios": "https://dc.lft.to/lastmile_qr_scan", "android": "https://dc.lft.to/lastmile_qr_scan"}, "type": "electric_bike", "fusion_lon": 0.0}, {"is_reserved": 0, "is_disabled": 0, "fusion_lat": 0.0, "name": "e6a40e0a815e342963ec6079fda5ae64", "lat": 38.967375, "lon": -77.0891555, "bike_id": "e6a40e0a815e342963ec6079fda5ae64", "rental_uris": {"ios": "https://dc.lft.to/lastmile_qr_scan", "android": "https://dc.lft.to/lastmile_qr_scan"}, "type": "electric_bike", "fusion_lon": 0.0}, {"is_reserved": 0, "is_disabled": 0, "fusion_lat": 0.0, "name": "669106e98d38b6258d5a90a5ff3486b6", "lat": 38.9174055, "lon": -77.028006, "bike_id": "669106e98d38b6258d5a90a5ff3486b6", "rental_uris": {"ios": "https://dc.lft.to/lastmile_qr_scan", "android": "https://dc.lft.to/lastmile_qr_scan"}, "type": "electric_scooter", "fusion_lon": 0.0}, {"is_reserved": 0, "is_disabled": 0, "fusion_lat": 0.0, "name": "ec8ba7a8cee1f2a983a948473737a214", "lat": 38.93331216666667, "lon": -77.02917433333333, "bike_id": "ec8ba7a8cee1f2a983a948473737a214", "rental_uris": {"ios": "https://dc.lft.to/lastmile_qr_scan", "android": "https://dc.lft.to/lastmile_qr_scan"}, "type": "electric_scooter", "fusion_lon": 0.0}, {"is_reserved": 0, "is_disabled": 0, "fusion_lat": 0.0, "name": "14199cedf5b3f8ea72bbe912a2e191f3", "lat": 38.92019916666667, "lon": -77.04192933333333, "bike_id": "14199cedf5b3f8ea72bbe912a2e191f3", "rental_uris": {"ios": "https://dc.lft.to/lastmile_qr_scan", "android": "https://dc.lft.to/lastmile_qr_scan"}, "type": "electric_scooter", "fusion_lon": 0.0}, {"is_reserved": 0, "is_disabled": 0, "fusion_lat": 0.0, "name": "773b662f05fde1c2f51a0e2cd787e8ae", "lat": 38.887684166666666, "lon": -77.00052566666666, "bike_id": "773b662f05fde1c2f51a0e2cd787e8ae", "rental_uris": {"ios": "https://dc.lft.to/lastmile_qr_scan", "android": "https://dc.lft.to/lastmile_qr_scan"}, "type": "electric_scooter", "fusion_lon": 0.0}, {"is_reserved": 0, "is_disabled": 0, "fusion_lat": 0.0, "name": "71a2b5a55b785cb49f84a8f08d20628c", "lat": 38.92059783333333, "lon": -77.02299883333333, "bike_id": "71a2b5a55b785cb49f84a8f08d20628c", "rental_uris": {"ios": "https://dc.lft.to/lastmile_qr_scan", "android": "https://dc.lft.to/lastmile_qr_scan"}, "type": "electric_scooter", "fusion_lon": 0.0}, {"is_reserved": 0, "is_disabled": 0, "fusion_lat": 0.0, "name": "88ed64b548949417878ecde5ff8867fd", "lat": 38.863689666666666, "lon": -76.97008966666667, "bike_id": "88ed64b548949417878ecde5ff8867fd", "rental_uris": {"ios": "https://dc.lft.to/lastmile_qr_scan", "android": "https://dc.lft.to/lastmile_qr_scan"}, "type": "electric_bike", "fusion_lon": 0.0}, {"is_reserved": 0, "is_disabled": 0, "fusion_lat": 0.0, "name": "387314e768a646b9c7b5d495414c3ba8", "lat": 38.8956285, "lon": -77.02960833333333, "bike_id": "387314e768a646b9c7b5d495414c3ba8", "rental_uris": {"ios": "https://dc.lft.to/lastmile_qr_scan", "android": "https://dc.lft.to/lastmile_qr_scan"}, "type": "electric_scooter", "fusion_lon": 0.0}, {"is_reserved": 0, "is_disabled": 0, "fusion_lat": 0.0, "name": "a63a123d7ed47505588314049605e5ad", "lat": 38.8893925, "lon": -77.07878016666666, "bike_id": "a63a123d7ed47505588314049605e5ad", "rental_uris": {"ios": "https://dc.lft.to/lastmile_qr_scan", "android": "https://dc.lft.to/lastmile_qr_scan"}, "type": "electric_bike", "fusion_lon": 0.0}, {"is_reserved": 0, "is_disabled": 0, "fusion_lat": 0.0, "name": "aad3a9e4c6387c09593579808916fcf8", "lat": 38.91879483333334, "lon": -76.96432383333334, "bike_id": "aad3a9e4c6387c09593579808916fcf8", "rental_uris": {"ios": "https://dc.lft.to/lastmile_qr_scan", "android": "https://dc.lft.to/lastmile_qr_scan"}, "type": "electric_bike", "fusion_lon": 0.0}, {"is_reserved": 0, "is_disabled": 0, "fusion_lat": 0.0, "name": "654d6b2c442e8f46794bbe5fb5c1933f", "lat": 38.9508015, "lon": -77.066578, "bike_id": "654d6b2c442e8f46794bbe5fb5c1933f", "rental_uris": {"ios": "https://dc.lft.to/lastmile_qr_scan", "android": "https://dc.lft.to/lastmile_qr_scan"}, "type": "electric_bike", "fusion_lon": 0.0}, {"is_reserved": 0, "is_disabled": 0, "fusion_lat": 0.0, "name": "a2f3e94fa210d6ff9ce3147138b49999", "lat": 38.926048333333334, "lon": -77.025066, "bike_id": "a2f3e94fa210d6ff9ce3147138b49999", "rental_uris": {"ios": "https://dc.lft.to/lastmile_qr_scan", "android": "https://dc.lft.to/lastmile_qr_scan"}, "type": "electric_scooter", "fusion_lon": 0.0}, {"is_reserved": 0, "is_disabled": 0, "fusion_lat": 0.0, "name": "0368696c01e785d1576e6b296e892ea3", "lat": 38.9112975, "lon": -77.022056, "bike_id": "0368696c01e785d1576e6b296e892ea3", "rental_uris": {"ios": "https://dc.lft.to/lastmile_qr_scan", "android": "https://dc.lft.to/lastmile_qr_scan"}, "type": "electric_scooter", "fusion_lon": 0.0}, {"is_reserved": 0, "is_disabled": 0, "fusion_lat": 0.0, "name": "7df4de1589de70ccd1da1e9e2cd9229a", "lat": 38.8462275, "lon": -76.97838683333333, "bike_id": "7df4de1589de70ccd1da1e9e2cd9229a", "rental_uris": {"ios": "https://dc.lft.to/lastmile_qr_scan", "android": "https://dc.lft.to/lastmile_qr_scan"}, "type": "electric_bike", "fusion_lon": 0.0}, {"is_reserved": 0, "is_disabled": 0, "fusion_lat": 0.0, "name": "3544b19501a29665a5e05ae9778fbb68", "lat": 38.908141666666666, "lon": -77.084268, "bike_id": "3544b19501a29665a5e05ae9778fbb68", "rental_uris": {"ios": "https://dc.lft.to/lastmile_qr_scan", "android": "https://dc.lft.to/lastmile_qr_scan"}, "type": "electric_scooter", "fusion_lon": 0.0}, {"is_reserved": 0, "is_disabled": 0, "fusion_lat": 0.0, "name": "60c2fc9ca8d57f11faa3f6fc58b936b1", "lat": 38.93348616666667, "lon": -77.02852183333333, "bike_id": "60c2fc9ca8d57f11faa3f6fc58b936b1", "rental_uris": {"ios": "https://dc.lft.to/lastmile_qr_scan", "android": "https://dc.lft.to/lastmile_qr_scan"}, "type": "electric_scooter", "fusion_lon": 0.0}, {"is_reserved": 0, "is_disabled": 0, "fusion_lat": 0.0, "name": "634f2166e479db2639f3dbe0ba156adf", "lat": 38.924657333333336, "lon": -77.02212883333333, "bike_id": "634f2166e479db2639f3dbe0ba156adf", "rental_uris": {"ios": "https://dc.lft.to/lastmile_qr_scan", "android": "https://dc.lft.to/lastmile_qr_scan"}, "type": "electric_scooter", "fusion_lon": 0.0}, {"is_reserved": 0, "is_disabled": 0, "fusion_lat": 0.0, "name": "03cf6489e97f48951688620e2be1ff85", "lat": 38.90751433333333, "lon": -77.031787, "bike_id": "03cf6489e97f48951688620e2be1ff85", "rental_uris": {"ios": "https://dc.lft.to/lastmile_qr_scan", "android": "https://dc.lft.to/lastmile_qr_scan"}, "type": "electric_scooter", "fusion_lon": 0.0}, {"is_reserved": 0, "is_disabled": 0, "fusion_lat": 0.0, "name": "0aa678a26b900a9f9bdacd5341db9d97", "lat": 38.92056816666667, "lon": -77.023081, "bike_id": "0aa678a26b900a9f9bdacd5341db9d97", "rental_uris": {"ios": "https://dc.lft.to/lastmile_qr_scan", "android": "https://dc.lft.to/lastmile_qr_scan"}, "type": "electric_scooter", "fusion_lon": 0.0}, {"is_reserved": 0, "is_disabled": 0, "fusion_lat": 0.0, "name": "cea6e5993c35dc2ef224bf9336a05ae7", "lat": 38.90380316666667, "lon": -77.02469916666666, "bike_id": "cea6e5993c35dc2ef224bf9336a05ae7", "rental_uris": {"ios": "https://dc.lft.to/lastmile_qr_scan", "android": "https://dc.lft.to/lastmile_qr_scan"}, "type": "electric_scooter", "fusion_lon": 0.0}, {"is_reserved": 0, "is_disabled": 0, "fusion_lat": 0.0, "name": "6560d5f455f6ca3ea199e79df2b73c92", "lat": 38.904718833333334, "lon": -77.04346966666667, "bike_id": "6560d5f455f6ca3ea199e79df2b73c92", "rental_uris": {"ios": "https://dc.lft.to/lastmile_qr_scan", "android": "https://dc.lft.to/lastmile_qr_scan"}, "type": "electric_scooter", "fusion_lon": 0.0}, {"is_reserved": 0, "is_disabled": 0, "fusion_lat": 0.0, "name": "2055d6ae501dd9fab71e78d0bc5dca5e", "lat": 38.915567333333335, "lon": -77.0326565, "bike_id": "2055d6ae501dd9fab71e78d0bc5dca5e", "rental_uris": {"ios": "https://dc.lft.to/lastmile_qr_scan", "android": "https://dc.lft.to/lastmile_qr_scan"}, "type": "electric_scooter", "fusion_lon": 0.0}, {"is_reserved": 0, "is_disabled": 0, "fusion_lat": 0.0, "name": "ab86641aec9f584a01d23f810d35706b", "lat": 38.885775333333335, "lon": -77.01212866666667, "bike_id": "ab86641aec9f584a01d23f810d35706b", "rental_uris": {"ios": "https://dc.lft.to/lastmile_qr_scan", "android": "https://dc.lft.to/lastmile_qr_scan"}, "type": "electric_scooter", "fusion_lon": 0.0}, {"is_reserved": 0, "is_disabled": 0, "fusion_lat": 0.0, "name": "c84a11c51d62f1d9ce00e858f98cb477", "lat": 38.91601566666667, "lon": -76.9838905, "bike_id": "c84a11c51d62f1d9ce00e858f98cb477", "rental_uris": {"ios": "https://dc.lft.to/lastmile_qr_scan", "android": "https://dc.lft.to/lastmile_qr_scan"}, "type": "electric_scooter", "fusion_lon": 0.0}, {"is_reserved": 0, "is_disabled": 0, "fusion_lat": 0.0, "name": "b8e4f5d5d7cd955d9badfb43fb04bcb3", "lat": 38.887095, "lon": -76.98335383333334, "bike_id": "b8e4f5d5d7cd955d9badfb43fb04bcb3", "rental_uris": {"ios": "https://dc.lft.to/lastmile_qr_scan", "android": "https://dc.lft.to/lastmile_qr_scan"}, "type": "electric_scooter", "fusion_lon": 0.0}, {"is_reserved": 0, "is_disabled": 0, "fusion_lat": 0.0, "name": "fd7e496e33fc80c73831e5378c89fa83", "lat": 38.89963183333333, "lon": -77.01606766666667, "bike_id": "fd7e496e33fc80c73831e5378c89fa83", "rental_uris": {"ios": "https://dc.lft.to/lastmile_qr_scan", "android": "https://dc.lft.to/lastmile_qr_scan"}, "type": "electric_scooter", "fusion_lon": 0.0}, {"is_reserved": 0, "is_disabled": 0, "fusion_lat": 0.0, "name": "5b9f9cf2e66ec2dc80c7e5363f651c94", "lat": 38.897402166666666, "lon": -76.99216483333333, "bike_id": "5b9f9cf2e66ec2dc80c7e5363f651c94", "rental_uris": {"ios": "https://dc.lft.to/lastmile_qr_scan", "android": "https://dc.lft.to/lastmile_qr_scan"}, "type": "electric_scooter", "fusion_lon": 0.0}, {"is_reserved": 0, "is_disabled": 0, "fusion_lat": 0.0, "name": "9e7c5c40bea0fa055c10f1091b7dc4ab", "lat": 38.902666333333336, "lon": -77.04032516666666, "bike_id": "9e7c5c40bea0fa055c10f1091b7dc4ab", "rental_uris": {"ios": "https://dc.lft.to/lastmile_qr_scan", "android": "https://dc.lft.to/lastmile_qr_scan"}, "type": "electric_scooter", "fusion_lon": 0.0}, {"is_reserved": 0, "is_disabled": 0, "fusion_lat": 0.0, "name": "0c79aeaf92e96bf9f72c6cc4ed3408f8", "lat": 38.90130283333333, "lon": -77.002988, "bike_id": "0c79aeaf92e96bf9f72c6cc4ed3408f8", "rental_uris": {"ios": "https://dc.lft.to/lastmile_qr_scan", "android": "https://dc.lft.to/lastmile_qr_scan"}, "type": "electric_scooter", "fusion_lon": 0.0}, {"is_reserved": 0, "is_disabled": 0, "fusion_lat": 0.0, "name": "4981942b031596d5d47703f71cf8efcc", "lat": 38.919524333333335, "lon": -77.04176166666667, "bike_id": "4981942b031596d5d47703f71cf8efcc", "rental_uris": {"ios": "https://dc.lft.to/lastmile_qr_scan", "android": "https://dc.lft.to/lastmile_qr_scan"}, "type": "electric_scooter", "fusion_lon": 0.0}, {"is_reserved": 0, "is_disabled": 0, "fusion_lat": 0.0, "name": "9639ec86c95e1cfe032c73d83bc0aff0", "lat": 38.899649833333335, "lon": -77.01508883333334, "bike_id": "9639ec86c95e1cfe032c73d83bc0aff0", "rental_uris": {"ios": "https://dc.lft.to/lastmile_qr_scan", "android": "https://dc.lft.to/lastmile_qr_scan"}, "type": "electric_scooter", "fusion_lon": 0.0}, {"is_reserved": 0, "is_disabled": 0, "fusion_lat": 0.0, "name": "30602d4651daeb22f859a01a80b41917", "lat": 38.884374, "lon": -77.030039, "bike_id": "30602d4651daeb22f859a01a80b41917", "rental_uris": {"ios": "https://dc.lft.to/lastmile_qr_scan", "android": "https://dc.lft.to/lastmile_qr_scan"}, "type": "electric_scooter", "fusion_lon": 0.0}, {"is_reserved": 0, "is_disabled": 0, "fusion_lat": 0.0, "name": "6176091681ba621ea5c08796721eff88", "lat": 38.904739166666666, "lon": -77.041896, "bike_id": "6176091681ba621ea5c08796721eff88", "rental_uris": {"ios": "https://dc.lft.to/lastmile_qr_scan", "android": "https://dc.lft.to/lastmile_qr_scan"}, "type": "electric_scooter", "fusion_lon": 0.0}, {"is_reserved": 0, "is_disabled": 0, "fusion_lat": 0.0, "name": "45fee8e8d42e4aab3f391b4d60e49e9e", "lat": 38.89918766666667, "lon": -77.00366733333334, "bike_id": "45fee8e8d42e4aab3f391b4d60e49e9e", "rental_uris": {"ios": "https://dc.lft.to/lastmile_qr_scan", "android": "https://dc.lft.to/lastmile_qr_scan"}, "type": "electric_scooter", "fusion_lon": 0.0}, {"is_reserved": 0, "is_disabled": 0, "fusion_lat": 0.0, "name": "e7a7115363010a4c8db9cf74af29b55a", "lat": 38.8997305, "lon": -77.01991716666667, "bike_id": "e7a7115363010a4c8db9cf74af29b55a", "rental_uris": {"ios": "https://dc.lft.to/lastmile_qr_scan", "android": "https://dc.lft.to/lastmile_qr_scan"}, "type": "electric_scooter", "fusion_lon": 0.0}, {"is_reserved": 0, "is_disabled": 0, "fusion_lat": 0.0, "name": "3584308121c1076b0260cb13d1f8a340", "lat": 38.883592666666665, "lon": -76.95770466666667, "bike_id": "3584308121c1076b0260cb13d1f8a340", "rental_uris": {"ios": "https://dc.lft.to/lastmile_qr_scan", "android": "https://dc.lft.to/lastmile_qr_scan"}, "type": "electric_scooter", "fusion_lon": 0.0}, {"is_reserved": 0, "is_disabled": 0, "fusion_lat": 0.0, "name": "1e44d8d2123470b4ed26ef4f7e74ab05", "lat": 38.87956483333333, "lon": -77.01367883333333, "bike_id": "1e44d8d2123470b4ed26ef4f7e74ab05", "rental_uris": {"ios": "https://dc.lft.to/lastmile_qr_scan", "android": "https://dc.lft.to/lastmile_qr_scan"}, "type": "electric_bike", "fusion_lon": 0.0}, {"is_reserved": 0, "is_disabled": 0, "fusion_lat": 0.0, "name": "0acfbc580a70d29af549483fe237efa1", "lat": 38.876347333333335, "lon": -77.004411, "bike_id": "0acfbc580a70d29af549483fe237efa1", "rental_uris": {"ios": "https://dc.lft.to/lastmile_qr_scan", "android": "https://dc.lft.to/lastmile_qr_scan"}, "type": "electric_scooter", "fusion_lon": 0.0}, {"is_reserved": 0, "is_disabled": 0, "fusion_lat": 0.0, "name": "9a7890282e148417d50ea49e890ff9c0", "lat": 38.897374666666664, "lon": -77.019132, "bike_id": "9a7890282e148417d50ea49e890ff9c0", "rental_uris": {"ios": "https://dc.lft.to/lastmile_qr_scan", "android": "https://dc.lft.to/lastmile_qr_scan"}, "type": "electric_scooter", "fusion_lon": 0.0}, {"is_reserved": 0, "is_disabled": 0, "fusion_lat": 0.0, "name": "b53a280f7cfdd851786df4cfd45591d2", "lat": 38.919525166666666, "lon": -77.01392783333333, "bike_id": "b53a280f7cfdd851786df4cfd45591d2", "rental_uris": {"ios": "https://dc.lft.to/lastmile_qr_scan", "android": "https://dc.lft.to/lastmile_qr_scan"}, "type": "electric_scooter", "fusion_lon": 0.0}, {"is_reserved": 0, "is_disabled": 0, "fusion_lat": 0.0, "name": "3cb0da927f9cea98f91905e60fe7a28b", "lat": 38.93848333333333, "lon": -77.01952516666667, "bike_id": "3cb0da927f9cea98f91905e60fe7a28b", "rental_uris": {"ios": "https://dc.lft.to/lastmile_qr_scan", "android": "https://dc.lft.to/lastmile_qr_scan"}, "type": "electric_scooter", "fusion_lon": 0.0}, {"is_reserved": 0, "is_disabled": 0, "fusion_lat": 0.0, "name": "a53e5069114d9745d1a5b4eca1d7b84c", "lat": 38.905090333333334, "lon": -76.9521085, "bike_id": "a53e5069114d9745d1a5b4eca1d7b84c", "rental_uris": {"ios": "https://dc.lft.to/lastmile_qr_scan", "android": "https://dc.lft.to/lastmile_qr_scan"}, "type": "electric_scooter", "fusion_lon": 0.0}, {"is_reserved": 0, "is_disabled": 0, "fusion_lat": 0.0, "name": "9d1027202146fc54bf708fa4517e3e73", "lat": 38.926173666666664, "lon": -77.02169466666666, "bike_id": "9d1027202146fc54bf708fa4517e3e73", "rental_uris": {"ios": "https://dc.lft.to/lastmile_qr_scan", "android": "https://dc.lft.to/lastmile_qr_scan"}, "type": "electric_scooter", "fusion_lon": 0.0}, {"is_reserved": 0, "is_disabled": 0, "fusion_lat": 0.0, "name": "dde8132ff8a3e52591f18b26fca9265f", "lat": 38.8802715, "lon": -77.00478966666667, "bike_id": "dde8132ff8a3e52591f18b26fca9265f", "rental_uris": {"ios": "https://dc.lft.to/lastmile_qr_scan", "android": "https://dc.lft.to/lastmile_qr_scan"}, "type": "electric_scooter", "fusion_lon": 0.0}, {"is_reserved": 0, "is_disabled": 0, "fusion_lat": 0.0, "name": "e6b19701fb62e57e3b39059711aeeb08", "lat": 38.89672566666667, "lon": -76.932025, "bike_id": "e6b19701fb62e57e3b39059711aeeb08", "rental_uris": {"ios": "https://dc.lft.to/lastmile_qr_scan", "android": "https://dc.lft.to/lastmile_qr_scan"}, "type": "electric_scooter", "fusion_lon": 0.0}, {"is_reserved": 0, "is_disabled": 0, "fusion_lat": 0.0, "name": "1bf021e86fd99ddb245a79c463943a44", "lat": 38.861988333333336, "lon": -77.07165433333333, "bike_id": "1bf021e86fd99ddb245a79c463943a44", "rental_uris": {"ios": "https://dc.lft.to/lastmile_qr_scan", "android": "https://dc.lft.to/lastmile_qr_scan"}, "type": "electric_bike", "fusion_lon": 0.0}, {"is_reserved": 0, "is_disabled": 0, "fusion_lat": 0.0, "name": "944ebf198b547ed273e01f8520f0f384", "lat": 38.92241416666667, "lon": -76.9976915, "bike_id": "944ebf198b547ed273e01f8520f0f384", "rental_uris": {"ios": "https://dc.lft.to/lastmile_qr_scan", "android": "https://dc.lft.to/lastmile_qr_scan"}, "type": "electric_scooter", "fusion_lon": 0.0}, {"is_reserved": 0, "is_disabled": 0, "fusion_lat": 0.0, "name": "e763220adcd282b1155560cf4a22fdc2", "lat": 38.89783033333333, "lon": -77.0503445, "bike_id": "e763220adcd282b1155560cf4a22fdc2", "rental_uris": {"ios": "https://dc.lft.to/lastmile_qr_scan", "android": "https://dc.lft.to/lastmile_qr_scan"}, "type": "electric_scooter", "fusion_lon": 0.0}, {"is_reserved": 0, "is_disabled": 0, "fusion_lat": 0.0, "name": "93b44b955aa0109e711b7f6046043349", "lat": 38.95561333333333, "lon": -77.01430016666667, "bike_id": "93b44b955aa0109e711b7f6046043349", "rental_uris": {"ios": "https://dc.lft.to/lastmile_qr_scan", "android": "https://dc.lft.to/lastmile_qr_scan"}, "type": "electric_scooter", "fusion_lon": 0.0}, {"is_reserved": 0, "is_disabled": 0, "fusion_lat": 0.0, "name": "34e1e2792ceceebf36620515b9430027", "lat": 38.9486195, "lon": -77.07885016666667, "bike_id": "34e1e2792ceceebf36620515b9430027", "rental_uris": {"ios": "https://dc.lft.to/lastmile_qr_scan", "android": "https://dc.lft.to/lastmile_qr_scan"}, "type": "electric_scooter", "fusion_lon": 0.0}, {"is_reserved": 0, "is_disabled": 0, "fusion_lat": 0.0, "name": "9b33721286acd57956d9d09c3b7b9157", "lat": 38.934444166666665, "lon": -77.03285433333333, "bike_id": "9b33721286acd57956d9d09c3b7b9157", "rental_uris": {"ios": "https://dc.lft.to/lastmile_qr_scan", "android": "https://dc.lft.to/lastmile_qr_scan"}, "type": "electric_scooter", "fusion_lon": 0.0}, {"is_reserved": 0, "is_disabled": 0, "fusion_lat": 0.0, "name": "7df0f90400fbd34d47bb069f33314bc5", "lat": 38.89739466666666, "lon": -77.030677, "bike_id": "7df0f90400fbd34d47bb069f33314bc5", "rental_uris": {"ios": "https://dc.lft.to/lastmile_qr_scan", "android": "https://dc.lft.to/lastmile_qr_scan"}, "type": "electric_scooter", "fusion_lon": 0.0}, {"is_reserved": 0, "is_disabled": 0, "fusion_lat": 0.0, "name": "e5c4ac5b559d75e565b1ea2f3dd670a5", "lat": 38.910790166666665, "lon": -77.01628583333333, "bike_id": "e5c4ac5b559d75e565b1ea2f3dd670a5", "rental_uris": {"ios": "https://dc.lft.to/lastmile_qr_scan", "android": "https://dc.lft.to/lastmile_qr_scan"}, "type": "electric_scooter", "fusion_lon": 0.0}, {"is_reserved": 0, "is_disabled": 0, "fusion_lat": 0.0, "name": "29f01d86c687ec89e1c6ebe355f019d9", "lat": 38.898818, "lon": -76.931743, "bike_id": "29f01d86c687ec89e1c6ebe355f019d9", "rental_uris": {"ios": "https://dc.lft.to/lastmile_qr_scan", "android": "https://dc.lft.to/lastmile_qr_scan"}, "type": "electric_scooter", "fusion_lon": 0.0}, {"is_reserved": 0, "is_disabled": 0, "fusion_lat": 0.0, "name": "6ed220bc54b2c5dad38967dcc979ec0d", "lat": 38.97372683333333, "lon": -77.01865, "bike_id": "6ed220bc54b2c5dad38967dcc979ec0d", "rental_uris": {"ios": "https://dc.lft.to/lastmile_qr_scan", "android": "https://dc.lft.to/lastmile_qr_scan"}, "type": "electric_scooter", "fusion_lon": 0.0}, {"is_reserved": 0, "is_disabled": 0, "fusion_lat": 0.0, "name": "4435e7ac05c7631914f1b6e9c5f40ac2", "lat": 38.897336833333334, "lon": -77.03093233333334, "bike_id": "4435e7ac05c7631914f1b6e9c5f40ac2", "rental_uris": {"ios": "https://dc.lft.to/lastmile_qr_scan", "android": "https://dc.lft.to/lastmile_qr_scan"}, "type": "electric_scooter", "fusion_lon": 0.0}, {"is_reserved": 0, "is_disabled": 0, "fusion_lat": 0.0, "name": "b39d18f60e9c6b236f138e8a3ed45c90", "lat": 38.9690275, "lon": -76.9558495, "bike_id": "b39d18f60e9c6b236f138e8a3ed45c90", "rental_uris": {"ios": "https://dc.lft.to/lastmile_qr_scan", "android": "https://dc.lft.to/lastmile_qr_scan"}, "type": "electric_bike", "fusion_lon": 0.0}, {"is_reserved": 0, "is_disabled": 0, "fusion_lat": 0.0, "name": "1806552bd8fe6e856c33782a66e394f4", "lat": 38.888769, "lon": -76.98776316666667, "bike_id": "1806552bd8fe6e856c33782a66e394f4", "rental_uris": {"ios": "https://dc.lft.to/lastmile_qr_scan", "android": "https://dc.lft.to/lastmile_qr_scan"}, "type": "electric_scooter", "fusion_lon": 0.0}, {"is_reserved": 0, "is_disabled": 0, "fusion_lat": 0.0, "name": "e73979bddf4804fc2af5b9f1700c8a9c", "lat": 38.9171545, "lon": -77.03210616666667, "bike_id": "e73979bddf4804fc2af5b9f1700c8a9c", "rental_uris": {"ios": "https://dc.lft.to/lastmile_qr_scan", "android": "https://dc.lft.to/lastmile_qr_scan"}, "type": "electric_scooter", "fusion_lon": 0.0}, {"is_reserved": 0, "is_disabled": 0, "fusion_lat": 0.0, "name": "40f6f36bfa2d217387bde2d6f000939e", "lat": 38.90076216666667, "lon": -77.02997983333333, "bike_id": "40f6f36bfa2d217387bde2d6f000939e", "rental_uris": {"ios": "https://dc.lft.to/lastmile_qr_scan", "android": "https://dc.lft.to/lastmile_qr_scan"}, "type": "electric_scooter", "fusion_lon": 0.0}, {"is_reserved": 0, "is_disabled": 0, "fusion_lat": 0.0, "name": "fb22940076fd154cac8adab7958848f4", "lat": 38.903703666666665, "lon": -77.03531766666667, "bike_id": "fb22940076fd154cac8adab7958848f4", "rental_uris": {"ios": "https://dc.lft.to/lastmile_qr_scan", "android": "https://dc.lft.to/lastmile_qr_scan"}, "type": "electric_scooter", "fusion_lon": 0.0}, {"is_reserved": 0, "is_disabled": 0, "fusion_lat": 0.0, "name": "0499cffbba56777e12fa3a88fd8db468", "lat": 38.91138983333333, "lon": -77.03844383333333, "bike_id": "0499cffbba56777e12fa3a88fd8db468", "rental_uris": {"ios": "https://dc.lft.to/lastmile_qr_scan", "android": "https://dc.lft.to/lastmile_qr_scan"}, "type": "electric_scooter", "fusion_lon": 0.0}, {"is_reserved": 0, "is_disabled": 0, "fusion_lat": 0.0, "name": "494a874689e8ded163bdb25f86a4fcd8", "lat": 38.87471, "lon": -77.00535833333333, "bike_id": "494a874689e8ded163bdb25f86a4fcd8", "rental_uris": {"ios": "https://dc.lft.to/lastmile_qr_scan", "android": "https://dc.lft.to/lastmile_qr_scan"}, "type": "electric_scooter", "fusion_lon": 0.0}, {"is_reserved": 0, "is_disabled": 0, "fusion_lat": 0.0, "name": "9e8618c5f233e3025cde8f386b3fdaf0", "lat": 38.900664666666664, "lon": -77.03524916666667, "bike_id": "9e8618c5f233e3025cde8f386b3fdaf0", "rental_uris": {"ios": "https://dc.lft.to/lastmile_qr_scan", "android": "https://dc.lft.to/lastmile_qr_scan"}, "type": "electric_scooter", "fusion_lon": 0.0}, {"is_reserved": 0, "is_disabled": 0, "fusion_lat": 0.0, "name": "6565c1d7df825131744381244faefb55", "lat": 38.92786533333334, "lon": -77.036359, "bike_id": "6565c1d7df825131744381244faefb55", "rental_uris": {"ios": "https://dc.lft.to/lastmile_qr_scan", "android": "https://dc.lft.to/lastmile_qr_scan"}, "type": "electric_scooter", "fusion_lon": 0.0}, {"is_reserved": 0, "is_disabled": 0, "fusion_lat": 0.0, "name": "e45d06a896888851e1b364706b80fd4c", "lat": 38.8392255, "lon": -76.99837916666667, "bike_id": "e45d06a896888851e1b364706b80fd4c", "rental_uris": {"ios": "https://dc.lft.to/lastmile_qr_scan", "android": "https://dc.lft.to/lastmile_qr_scan"}, "type": "electric_bike", "fusion_lon": 0.0}, {"is_reserved": 0, "is_disabled": 0, "fusion_lat": 0.0, "name": "dc4cd49dd6bfc78acfa5dadf6bbe2630", "lat": 38.93101866666667, "lon": -77.02382533333333, "bike_id": "dc4cd49dd6bfc78acfa5dadf6bbe2630", "rental_uris": {"ios": "https://dc.lft.to/lastmile_qr_scan", "android": "https://dc.lft.to/lastmile_qr_scan"}, "type": "electric_scooter", "fusion_lon": 0.0}, {"is_reserved": 0, "is_disabled": 0, "fusion_lat": 0.0, "name": "e266754c2338d3ea74e023641da6d0f7", "lat": 38.881665, "lon": -77.02752366666667, "bike_id": "e266754c2338d3ea74e023641da6d0f7", "rental_uris": {"ios": "https://dc.lft.to/lastmile_qr_scan", "android": "https://dc.lft.to/lastmile_qr_scan"}, "type": "electric_scooter", "fusion_lon": 0.0}, {"is_reserved": 0, "is_disabled": 0, "fusion_lat": 0.0, "name": "574eaf2a4a37ae7aefacf3d44b34c990", "lat": 38.90540683333333, "lon": -77.05695866666667, "bike_id": "574eaf2a4a37ae7aefacf3d44b34c990", "rental_uris": {"ios": "https://dc.lft.to/lastmile_qr_scan", "android": "https://dc.lft.to/lastmile_qr_scan"}, "type": "electric_scooter", "fusion_lon": 0.0}, {"is_reserved": 0, "is_disabled": 0, "fusion_lat": 0.0, "name": "cc378485ec51089245157522c59fe403", "lat": 38.9403545, "lon": -77.083953, "bike_id": "cc378485ec51089245157522c59fe403", "rental_uris": {"ios": "https://dc.lft.to/lastmile_qr_scan", "android": "https://dc.lft.to/lastmile_qr_scan"}, "type": "electric_scooter", "fusion_lon": 0.0}, {"is_reserved": 0, "is_disabled": 0, "fusion_lat": 0.0, "name": "c863f4e71a365eee0e566d7b332f6bf0", "lat": 38.87167816666667, "lon": -77.08818433333333, "bike_id": "c863f4e71a365eee0e566d7b332f6bf0", "rental_uris": {"ios": "https://dc.lft.to/lastmile_qr_scan", "android": "https://dc.lft.to/lastmile_qr_scan"}, "type": "electric_bike", "fusion_lon": 0.0}, {"is_reserved": 0, "is_disabled": 0, "fusion_lat": 0.0, "name": "cebfca09af75f63ddd83e2f759fa2871", "lat": 38.911361, "lon": -77.06574166666667, "bike_id": "cebfca09af75f63ddd83e2f759fa2871", "rental_uris": {"ios": "https://dc.lft.to/lastmile_qr_scan", "android": "https://dc.lft.to/lastmile_qr_scan"}, "type": "electric_bike", "fusion_lon": 0.0}, {"is_reserved": 0, "is_disabled": 0, "fusion_lat": 0.0, "name": "00aafbe6aa4886a926b3caf1c48acb98", "lat": 38.90364366666667, "lon": -77.02586166666667, "bike_id": "00aafbe6aa4886a926b3caf1c48acb98", "rental_uris": {"ios": "https://dc.lft.to/lastmile_qr_scan", "android": "https://dc.lft.to/lastmile_qr_scan"}, "type": "electric_scooter", "fusion_lon": 0.0}, {"is_reserved": 0, "is_disabled": 0, "fusion_lat": 0.0, "name": "cd9e0f52ccbdcd10e7cea26661f0d792", "lat": 38.9037195, "lon": -77.0259365, "bike_id": "cd9e0f52ccbdcd10e7cea26661f0d792", "rental_uris": {"ios": "https://dc.lft.to/lastmile_qr_scan", "android": "https://dc.lft.to/lastmile_qr_scan"}, "type": "electric_scooter", "fusion_lon": 0.0}, {"is_reserved": 0, "is_disabled": 0, "fusion_lat": 0.0, "name": "14f46f8c317d4d1c72d81b3ac3bd5441", "lat": 38.93565016666667, "lon": -77.02851483333333, "bike_id": "14f46f8c317d4d1c72d81b3ac3bd5441", "rental_uris": {"ios": "https://dc.lft.to/lastmile_qr_scan", "android": "https://dc.lft.to/lastmile_qr_scan"}, "type": "electric_scooter", "fusion_lon": 0.0}, {"is_reserved": 0, "is_disabled": 0, "fusion_lat": 0.0, "name": "b9ecf33fd405dbc8ac319274fc9e9e65", "lat": 38.89738333333333, "lon": -77.044263, "bike_id": "b9ecf33fd405dbc8ac319274fc9e9e65", "rental_uris": {"ios": "https://dc.lft.to/lastmile_qr_scan", "android": "https://dc.lft.to/lastmile_qr_scan"}, "type": "electric_scooter", "fusion_lon": 0.0}, {"is_reserved": 0, "is_disabled": 0, "fusion_lat": 0.0, "name": "08f1aedd795eafa98c471a4c243aeebd", "lat": 38.908322166666665, "lon": -76.9970495, "bike_id": "08f1aedd795eafa98c471a4c243aeebd", "rental_uris": {"ios": "https://dc.lft.to/lastmile_qr_scan", "android": "https://dc.lft.to/lastmile_qr_scan"}, "type": "electric_scooter", "fusion_lon": 0.0}, {"is_reserved": 0, "is_disabled": 0, "fusion_lat": 0.0, "name": "731bc3053fbd71a55565b67c525acd02", "lat": 38.830633666666664, "lon": -77.0407785, "bike_id": "731bc3053fbd71a55565b67c525acd02", "rental_uris": {"ios": "https://dc.lft.to/lastmile_qr_scan", "android": "https://dc.lft.to/lastmile_qr_scan"}, "type": "electric_bike", "fusion_lon": 0.0}, {"is_reserved": 0, "is_disabled": 0, "fusion_lat": 0.0, "name": "be76f5ed886da8cf387b740b55d520a5", "lat": 38.88274033333333, "lon": -77.00583066666667, "bike_id": "be76f5ed886da8cf387b740b55d520a5", "rental_uris": {"ios": "https://dc.lft.to/lastmile_qr_scan", "android": "https://dc.lft.to/lastmile_qr_scan"}, "type": "electric_scooter", "fusion_lon": 0.0}, {"is_reserved": 0, "is_disabled": 0, "fusion_lat": 0.0, "name": "043f034f59bb61c59c7e08301fd3e68d", "lat": 38.91773216666667, "lon": -77.04041666666667, "bike_id": "043f034f59bb61c59c7e08301fd3e68d", "rental_uris": {"ios": "https://dc.lft.to/lastmile_qr_scan", "android": "https://dc.lft.to/lastmile_qr_scan"}, "type": "electric_scooter", "fusion_lon": 0.0}, {"is_reserved": 0, "is_disabled": 0, "fusion_lat": 0.0, "name": "efc6d1f4a726a67b896a3bda1260c95a", "lat": 38.898621166666665, "lon": -76.94638283333333, "bike_id": "efc6d1f4a726a67b896a3bda1260c95a", "rental_uris": {"ios": "https://dc.lft.to/lastmile_qr_scan", "android": "https://dc.lft.to/lastmile_qr_scan"}, "type": "electric_scooter", "fusion_lon": 0.0}, {"is_reserved": 0, "is_disabled": 0, "fusion_lat": 0.0, "name": "b6052e993e73abc53b4df9d457abb7cd", "lat": 38.91114866666667, "lon": -77.03264283333333, "bike_id": "b6052e993e73abc53b4df9d457abb7cd", "rental_uris": {"ios": "https://dc.lft.to/lastmile_qr_scan", "android": "https://dc.lft.to/lastmile_qr_scan"}, "type": "electric_scooter", "fusion_lon": 0.0}, {"is_reserved": 0, "is_disabled": 0, "fusion_lat": 0.0, "name": "9b123dee4be7998ad00bd92dd7509fe8", "lat": 38.917299, "lon": -77.02762666666666, "bike_id": "9b123dee4be7998ad00bd92dd7509fe8", "rental_uris": {"ios": "https://dc.lft.to/lastmile_qr_scan", "android": "https://dc.lft.to/lastmile_qr_scan"}, "type": "electric_scooter", "fusion_lon": 0.0}, {"is_reserved": 0, "is_disabled": 0, "fusion_lat": 0.0, "name": "551cc189e2f246ec9b8c9e1bdb8ba4fb", "lat": 38.870721833333334, "lon": -76.97937466666667, "bike_id": "551cc189e2f246ec9b8c9e1bdb8ba4fb", "rental_uris": {"ios": "https://dc.lft.to/lastmile_qr_scan", "android": "https://dc.lft.to/lastmile_qr_scan"}, "type": "electric_scooter", "fusion_lon": 0.0}, {"is_reserved": 0, "is_disabled": 0, "fusion_lat": 0.0, "name": "9b2bad15222e264aa48b46621936226b", "lat": 38.9057825, "lon": -77.06131733333334, "bike_id": "9b2bad15222e264aa48b46621936226b", "rental_uris": {"ios": "https://dc.lft.to/lastmile_qr_scan", "android": "https://dc.lft.to/lastmile_qr_scan"}, "type": "electric_scooter", "fusion_lon": 0.0}, {"is_reserved": 0, "is_disabled": 0, "fusion_lat": 0.0, "name": "703517f79927498dde3fef61dd77e901", "lat": 39.00373866666666, "lon": -77.01279466666666, "bike_id": "703517f79927498dde3fef61dd77e901", "rental_uris": {"ios": "https://dc.lft.to/lastmile_qr_scan", "android": "https://dc.lft.to/lastmile_qr_scan"}, "type": "electric_bike", "fusion_lon": 0.0}, {"is_reserved": 0, "is_disabled": 0, "fusion_lat": 0.0, "name": "ef251ff2d3c98567bde0ec898e61cf4f", "lat": 38.90027633333333, "lon": -77.03347916666667, "bike_id": "ef251ff2d3c98567bde0ec898e61cf4f", "rental_uris": {"ios": "https://dc.lft.to/lastmile_qr_scan", "android": "https://dc.lft.to/lastmile_qr_scan"}, "type": "electric_scooter", "fusion_lon": 0.0}, {"is_reserved": 0, "is_disabled": 0, "fusion_lat": 0.0, "name": "d7ef2abecad05bbcb51bfebf9bd9534e", "lat": 38.85549316666667, "lon": -76.9866085, "bike_id": "d7ef2abecad05bbcb51bfebf9bd9534e", "rental_uris": {"ios": "https://dc.lft.to/lastmile_qr_scan", "android": "https://dc.lft.to/lastmile_qr_scan"}, "type": "electric_scooter", "fusion_lon": 0.0}, {"is_reserved": 0, "is_disabled": 0, "fusion_lat": 0.0, "name": "3e66ffc022000e69e845ef56688d56a4", "lat": 38.91701716666667, "lon": -77.03225966666666, "bike_id": "3e66ffc022000e69e845ef56688d56a4", "rental_uris": {"ios": "https://dc.lft.to/lastmile_qr_scan", "android": "https://dc.lft.to/lastmile_qr_scan"}, "type": "electric_scooter", "fusion_lon": 0.0}, {"is_reserved": 0, "is_disabled": 0, "fusion_lat": 0.0, "name": "46235c76d1de4f09969bd6cc7d9b6f10", "lat": 38.97446583333333, "lon": -77.09610116666667, "bike_id": "46235c76d1de4f09969bd6cc7d9b6f10", "rental_uris": {"ios": "https://dc.lft.to/lastmile_qr_scan", "android": "https://dc.lft.to/lastmile_qr_scan"}, "type": "electric_bike", "fusion_lon": 0.0}, {"is_reserved": 0, "is_disabled": 0, "fusion_lat": 0.0, "name": "4421535c326e04ef88414c0a8a39078b", "lat": 38.90974533333333, "lon": -77.03219316666667, "bike_id": "4421535c326e04ef88414c0a8a39078b", "rental_uris": {"ios": "https://dc.lft.to/lastmile_qr_scan", "android": "https://dc.lft.to/lastmile_qr_scan"}, "type": "electric_scooter", "fusion_lon": 0.0}, {"is_reserved": 0, "is_disabled": 0, "fusion_lat": 0.0, "name": "654858a5136fbff666e61aa551b7f95d", "lat": 38.90033783333333, "lon": -77.04353783333333, "bike_id": "654858a5136fbff666e61aa551b7f95d", "rental_uris": {"ios": "https://dc.lft.to/lastmile_qr_scan", "android": "https://dc.lft.to/lastmile_qr_scan"}, "type": "electric_scooter", "fusion_lon": 0.0}, {"is_reserved": 0, "is_disabled": 0, "fusion_lat": 0.0, "name": "e2ad3242033db82d3c04267ed42ef5ec", "lat": 38.887184833333336, "lon": -76.99610233333334, "bike_id": "e2ad3242033db82d3c04267ed42ef5ec", "rental_uris": {"ios": "https://dc.lft.to/lastmile_qr_scan", "android": "https://dc.lft.to/lastmile_qr_scan"}, "type": "electric_scooter", "fusion_lon": 0.0}, {"is_reserved": 0, "is_disabled": 0, "fusion_lat": 0.0, "name": "29a09e428ada9cc6e2aa5bfcc20a68de", "lat": 38.91209033333333, "lon": -77.03838066666667, "bike_id": "29a09e428ada9cc6e2aa5bfcc20a68de", "rental_uris": {"ios": "https://dc.lft.to/lastmile_qr_scan", "android": "https://dc.lft.to/lastmile_qr_scan"}, "type": "electric_scooter", "fusion_lon": 0.0}, {"is_reserved": 0, "is_disabled": 0, "fusion_lat": 0.0, "name": "899c29d4e3ed8de91633e8f4bf90618a", "lat": 38.898794333333335, "lon": -77.00749566666667, "bike_id": "899c29d4e3ed8de91633e8f4bf90618a", "rental_uris": {"ios": "https://dc.lft.to/lastmile_qr_scan", "android": "https://dc.lft.to/lastmile_qr_scan"}, "type": "electric_scooter", "fusion_lon": 0.0}, {"is_reserved": 0, "is_disabled": 0, "fusion_lat": 0.0, "name": "a02d1f93f68e50fda0bba4267f38c4fe", "lat": 38.88273366666667, "lon": -76.99523333333333, "bike_id": "a02d1f93f68e50fda0bba4267f38c4fe", "rental_uris": {"ios": "https://dc.lft.to/lastmile_qr_scan", "android": "https://dc.lft.to/lastmile_qr_scan"}, "type": "electric_scooter", "fusion_lon": 0.0}, {"is_reserved": 0, "is_disabled": 0, "fusion_lat": 0.0, "name": "d3279fa4c44561e77c4fe6c2979f250d", "lat": 38.89709033333333, "lon": -77.01300483333333, "bike_id": "d3279fa4c44561e77c4fe6c2979f250d", "rental_uris": {"ios": "https://dc.lft.to/lastmile_qr_scan", "android": "https://dc.lft.to/lastmile_qr_scan"}, "type": "electric_scooter", "fusion_lon": 0.0}, {"is_reserved": 0, "is_disabled": 0, "fusion_lat": 0.0, "name": "3e780e92a98832eceeb5969f2d13d323", "lat": 38.91542966666667, "lon": -77.04422116666667, "bike_id": "3e780e92a98832eceeb5969f2d13d323", "rental_uris": {"ios": "https://dc.lft.to/lastmile_qr_scan", "android": "https://dc.lft.to/lastmile_qr_scan"}, "type": "electric_scooter", "fusion_lon": 0.0}, {"is_reserved": 0, "is_disabled": 0, "fusion_lat": 0.0, "name": "6db3afbd301a44404179c3718faf58d5", "lat": 38.90977866666667, "lon": -77.03296366666666, "bike_id": "6db3afbd301a44404179c3718faf58d5", "rental_uris": {"ios": "https://dc.lft.to/lastmile_qr_scan", "android": "https://dc.lft.to/lastmile_qr_scan"}, "type": "electric_scooter", "fusion_lon": 0.0}, {"is_reserved": 0, "is_disabled": 0, "fusion_lat": 0.0, "name": "c7a3a6ba1cb82fc430ddb69c130449c8", "lat": 38.93234283333334, "lon": -77.02978516666667, "bike_id": "c7a3a6ba1cb82fc430ddb69c130449c8", "rental_uris": {"ios": "https://dc.lft.to/lastmile_qr_scan", "android": "https://dc.lft.to/lastmile_qr_scan"}, "type": "electric_scooter", "fusion_lon": 0.0}, {"is_reserved": 0, "is_disabled": 0, "fusion_lat": 0.0, "name": "727446a7be0eb495d8a7e0b5b7ef1b46", "lat": 38.9245485, "lon": -77.020301, "bike_id": "727446a7be0eb495d8a7e0b5b7ef1b46", "rental_uris": {"ios": "https://dc.lft.to/lastmile_qr_scan", "android": "https://dc.lft.to/lastmile_qr_scan"}, "type": "electric_scooter", "fusion_lon": 0.0}, {"is_reserved": 0, "is_disabled": 0, "fusion_lat": 0.0, "name": "355a5099a44231ed2f1dd4d2679c19ce", "lat": 38.932043166666666, "lon": -77.01874416666666, "bike_id": "355a5099a44231ed2f1dd4d2679c19ce", "rental_uris": {"ios": "https://dc.lft.to/lastmile_qr_scan", "android": "https://dc.lft.to/lastmile_qr_scan"}, "type": "electric_scooter", "fusion_lon": 0.0}, {"is_reserved": 0, "is_disabled": 0, "fusion_lat": 0.0, "name": "fd918c028e24d1137209977d26f857d3", "lat": 38.90209433333333, "lon": -77.04822766666666, "bike_id": "fd918c028e24d1137209977d26f857d3", "rental_uris": {"ios": "https://dc.lft.to/lastmile_qr_scan", "android": "https://dc.lft.to/lastmile_qr_scan"}, "type": "electric_scooter", "fusion_lon": 0.0}, {"is_reserved": 0, "is_disabled": 0, "fusion_lat": 0.0, "name": "241b75c81a32bd3288635d4b9974e36b", "lat": 38.928913, "lon": -77.0334425, "bike_id": "241b75c81a32bd3288635d4b9974e36b", "rental_uris": {"ios": "https://dc.lft.to/lastmile_qr_scan", "android": "https://dc.lft.to/lastmile_qr_scan"}, "type": "electric_scooter", "fusion_lon": 0.0}, {"is_reserved": 0, "is_disabled": 0, "fusion_lat": 0.0, "name": "16b7a69d1a58c671c895fa39c30eb424", "lat": 38.8963455, "lon": -77.01084583333333, "bike_id": "16b7a69d1a58c671c895fa39c30eb424", "rental_uris": {"ios": "https://dc.lft.to/lastmile_qr_scan", "android": "https://dc.lft.to/lastmile_qr_scan"}, "type": "electric_scooter", "fusion_lon": 0.0}, {"is_reserved": 0, "is_disabled": 0, "fusion_lat": 0.0, "name": "0878161553d6783f79132aaf9cc6bfad", "lat": 38.90968816666667, "lon": -77.03262383333333, "bike_id": "0878161553d6783f79132aaf9cc6bfad", "rental_uris": {"ios": "https://dc.lft.to/lastmile_qr_scan", "android": "https://dc.lft.to/lastmile_qr_scan"}, "type": "electric_scooter", "fusion_lon": 0.0}, {"is_reserved": 0, "is_disabled": 0, "fusion_lat": 0.0, "name": "ed464d605d8fc3c02850c3f11762aebd", "lat": 38.8857735, "lon": -77.0121575, "bike_id": "ed464d605d8fc3c02850c3f11762aebd", "rental_uris": {"ios": "https://dc.lft.to/lastmile_qr_scan", "android": "https://dc.lft.to/lastmile_qr_scan"}, "type": "electric_scooter", "fusion_lon": 0.0}, {"is_reserved": 0, "is_disabled": 0, "fusion_lat": 0.0, "name": "bc79ff4d4f60dbcda949ff59baf63fc8", "lat": 38.9023935, "lon": -76.9927485, "bike_id": "bc79ff4d4f60dbcda949ff59baf63fc8", "rental_uris": {"ios": "https://dc.lft.to/lastmile_qr_scan", "android": "https://dc.lft.to/lastmile_qr_scan"}, "type": "electric_scooter", "fusion_lon": 0.0}, {"is_reserved": 0, "is_disabled": 0, "fusion_lat": 0.0, "name": "42bf671eca0ad06b4ccc2fed1da5da9b", "lat": 38.9052535, "lon": -77.04828816666667, "bike_id": "42bf671eca0ad06b4ccc2fed1da5da9b", "rental_uris": {"ios": "https://dc.lft.to/lastmile_qr_scan", "android": "https://dc.lft.to/lastmile_qr_scan"}, "type": "electric_scooter", "fusion_lon": 0.0}, {"is_reserved": 0, "is_disabled": 0, "fusion_lat": 0.0, "name": "ff8bdf0151d3ba266b03afa333a38337", "lat": 38.9174105, "lon": -77.03186866666667, "bike_id": "ff8bdf0151d3ba266b03afa333a38337", "rental_uris": {"ios": "https://dc.lft.to/lastmile_qr_scan", "android": "https://dc.lft.to/lastmile_qr_scan"}, "type": "electric_scooter", "fusion_lon": 0.0}, {"is_reserved": 0, "is_disabled": 0, "fusion_lat": 0.0, "name": "98c81255db254d5f25df91c7fd1ee85a", "lat": 38.87869516666667, "lon": -77.00140683333333, "bike_id": "98c81255db254d5f25df91c7fd1ee85a", "rental_uris": {"ios": "https://dc.lft.to/lastmile_qr_scan", "android": "https://dc.lft.to/lastmile_qr_scan"}, "type": "electric_scooter", "fusion_lon": 0.0}, {"is_reserved": 0, "is_disabled": 0, "fusion_lat": 0.0, "name": "6f7ce6351484613a37e48baf2630374f", "lat": 38.907205166666664, "lon": -77.02533966666667, "bike_id": "6f7ce6351484613a37e48baf2630374f", "rental_uris": {"ios": "https://dc.lft.to/lastmile_qr_scan", "android": "https://dc.lft.to/lastmile_qr_scan"}, "type": "electric_scooter", "fusion_lon": 0.0}, {"is_reserved": 0, "is_disabled": 0, "fusion_lat": 0.0, "name": "533b46124e022f70aee4a5517e809dcc", "lat": 38.85066583333333, "lon": -76.958289, "bike_id": "533b46124e022f70aee4a5517e809dcc", "rental_uris": {"ios": "https://dc.lft.to/lastmile_qr_scan", "android": "https://dc.lft.to/lastmile_qr_scan"}, "type": "electric_bike", "fusion_lon": 0.0}, {"is_reserved": 0, "is_disabled": 0, "fusion_lat": 0.0, "name": "59a6d41c814341d9faa3155d9755a447", "lat": 38.90953616666667, "lon": -76.99576883333333, "bike_id": "59a6d41c814341d9faa3155d9755a447", "rental_uris": {"ios": "https://dc.lft.to/lastmile_qr_scan", "android": "https://dc.lft.to/lastmile_qr_scan"}, "type": "electric_scooter", "fusion_lon": 0.0}, {"is_reserved": 0, "is_disabled": 0, "fusion_lat": 0.0, "name": "19e3677f79380468351db5f8d7507be2", "lat": 38.927276, "lon": -77.0355935, "bike_id": "19e3677f79380468351db5f8d7507be2", "rental_uris": {"ios": "https://dc.lft.to/lastmile_qr_scan", "android": "https://dc.lft.to/lastmile_qr_scan"}, "type": "electric_scooter", "fusion_lon": 0.0}, {"is_reserved": 0, "is_disabled": 0, "fusion_lat": 0.0, "name": "2d00959d72f61fc08cebd1b278907c1d", "lat": 38.904294, "lon": -77.02509566666667, "bike_id": "2d00959d72f61fc08cebd1b278907c1d", "rental_uris": {"ios": "https://dc.lft.to/lastmile_qr_scan", "android": "https://dc.lft.to/lastmile_qr_scan"}, "type": "electric_scooter", "fusion_lon": 0.0}, {"is_reserved": 0, "is_disabled": 0, "fusion_lat": 0.0, "name": "191b7f9c99551341f32c93c09c2b30d3", "lat": 38.860858, "lon": -76.98378066666666, "bike_id": "191b7f9c99551341f32c93c09c2b30d3", "rental_uris": {"ios": "https://dc.lft.to/lastmile_qr_scan", "android": "https://dc.lft.to/lastmile_qr_scan"}, "type": "electric_scooter", "fusion_lon": 0.0}, {"is_reserved": 0, "is_disabled": 0, "fusion_lat": 0.0, "name": "bebd54843b9da9554ba027e7bf88488e", "lat": 38.92702533333333, "lon": -77.02086483333333, "bike_id": "bebd54843b9da9554ba027e7bf88488e", "rental_uris": {"ios": "https://dc.lft.to/lastmile_qr_scan", "android": "https://dc.lft.to/lastmile_qr_scan"}, "type": "electric_scooter", "fusion_lon": 0.0}, {"is_reserved": 0, "is_disabled": 0, "fusion_lat": 0.0, "name": "cbf5ec3e165cb535a7b10f0a4d1152c1", "lat": 38.92864316666667, "lon": -77.03307383333333, "bike_id": "cbf5ec3e165cb535a7b10f0a4d1152c1", "rental_uris": {"ios": "https://dc.lft.to/lastmile_qr_scan", "android": "https://dc.lft.to/lastmile_qr_scan"}, "type": "electric_scooter", "fusion_lon": 0.0}, {"is_reserved": 0, "is_disabled": 0, "fusion_lat": 0.0, "name": "71c7cc4489273467267174c0ad5defc3", "lat": 38.8134025, "lon": -77.05088066666667, "bike_id": "71c7cc4489273467267174c0ad5defc3", "rental_uris": {"ios": "https://dc.lft.to/lastmile_qr_scan", "android": "https://dc.lft.to/lastmile_qr_scan"}, "type": "electric_bike", "fusion_lon": 0.0}, {"is_reserved": 0, "is_disabled": 0, "fusion_lat": 0.0, "name": "b0d1dccb40089e3b9e7dea370df83241", "lat": 38.8763355, "lon": -77.00586533333333, "bike_id": "b0d1dccb40089e3b9e7dea370df83241", "rental_uris": {"ios": "https://dc.lft.to/lastmile_qr_scan", "android": "https://dc.lft.to/lastmile_qr_scan"}, "type": "electric_scooter", "fusion_lon": 0.0}, {"is_reserved": 0, "is_disabled": 0, "fusion_lat": 0.0, "name": "f2a1748bbb720b1e5c023a64d69d2ccc", "lat": 38.90727783333333, "lon": -77.03190366666666, "bike_id": "f2a1748bbb720b1e5c023a64d69d2ccc", "rental_uris": {"ios": "https://dc.lft.to/lastmile_qr_scan", "android": "https://dc.lft.to/lastmile_qr_scan"}, "type": "electric_scooter", "fusion_lon": 0.0}, {"is_reserved": 0, "is_disabled": 0, "fusion_lat": 0.0, "name": "d07d1beeab05a9a814f0ddc91be8ecf5", "lat": 38.922964, "lon": -77.02075116666667, "bike_id": "d07d1beeab05a9a814f0ddc91be8ecf5", "rental_uris": {"ios": "https://dc.lft.to/lastmile_qr_scan", "android": "https://dc.lft.to/lastmile_qr_scan"}, "type": "electric_scooter", "fusion_lon": 0.0}, {"is_reserved": 0, "is_disabled": 0, "fusion_lat": 0.0, "name": "b4e315417811919a9ef068a12a335bc8", "lat": 38.89200733333333, "lon": -77.01543283333334, "bike_id": "b4e315417811919a9ef068a12a335bc8", "rental_uris": {"ios": "https://dc.lft.to/lastmile_qr_scan", "android": "https://dc.lft.to/lastmile_qr_scan"}, "type": "electric_scooter", "fusion_lon": 0.0}, {"is_reserved": 0, "is_disabled": 0, "fusion_lat": 0.0, "name": "b183ca1871ccfcd878c11c6c222765e3", "lat": 38.90835633333333, "lon": -76.99703366666667, "bike_id": "b183ca1871ccfcd878c11c6c222765e3", "rental_uris": {"ios": "https://dc.lft.to/lastmile_qr_scan", "android": "https://dc.lft.to/lastmile_qr_scan"}, "type": "electric_scooter", "fusion_lon": 0.0}, {"is_reserved": 0, "is_disabled": 0, "fusion_lat": 0.0, "name": "be78a9b9639392af01991b63d18bf9c1", "lat": 38.90605516666667, "lon": -77.021137, "bike_id": "be78a9b9639392af01991b63d18bf9c1", "rental_uris": {"ios": "https://dc.lft.to/lastmile_qr_scan", "android": "https://dc.lft.to/lastmile_qr_scan"}, "type": "electric_scooter", "fusion_lon": 0.0}, {"is_reserved": 0, "is_disabled": 0, "fusion_lat": 0.0, "name": "246cc87d03cf54892506ec9539829807", "lat": 38.9283025, "lon": -77.0370645, "bike_id": "246cc87d03cf54892506ec9539829807", "rental_uris": {"ios": "https://dc.lft.to/lastmile_qr_scan", "android": "https://dc.lft.to/lastmile_qr_scan"}, "type": "electric_scooter", "fusion_lon": 0.0}, {"is_reserved": 0, "is_disabled": 0, "fusion_lat": 0.0, "name": "7371f6f00358f7955cbd32c22d1e8b20", "lat": 38.922214833333335, "lon": -77.032942, "bike_id": "7371f6f00358f7955cbd32c22d1e8b20", "rental_uris": {"ios": "https://dc.lft.to/lastmile_qr_scan", "android": "https://dc.lft.to/lastmile_qr_scan"}, "type": "electric_scooter", "fusion_lon": 0.0}, {"is_reserved": 0, "is_disabled": 0, "fusion_lat": 0.0, "name": "79214d0dbca9fa90aa3565e64b8e02ce", "lat": 38.89531566666667, "lon": -77.0335105, "bike_id": "79214d0dbca9fa90aa3565e64b8e02ce", "rental_uris": {"ios": "https://dc.lft.to/lastmile_qr_scan", "android": "https://dc.lft.to/lastmile_qr_scan"}, "type": "electric_scooter", "fusion_lon": 0.0}, {"is_reserved": 0, "is_disabled": 0, "fusion_lat": 0.0, "name": "775cd70e1a0e4788f7358c3ac3256b1f", "lat": 38.914839, "lon": -77.02183766666667, "bike_id": "775cd70e1a0e4788f7358c3ac3256b1f", "rental_uris": {"ios": "https://dc.lft.to/lastmile_qr_scan", "android": "https://dc.lft.to/lastmile_qr_scan"}, "type": "electric_scooter", "fusion_lon": 0.0}, {"is_reserved": 0, "is_disabled": 0, "fusion_lat": 0.0, "name": "587578695d258cb9e3e7d03f77130b9d", "lat": 38.874715, "lon": -77.00553983333333, "bike_id": "587578695d258cb9e3e7d03f77130b9d", "rental_uris": {"ios": "https://dc.lft.to/lastmile_qr_scan", "android": "https://dc.lft.to/lastmile_qr_scan"}, "type": "electric_scooter", "fusion_lon": 0.0}, {"is_reserved": 0, "is_disabled": 0, "fusion_lat": 0.0, "name": "a4ac16b8784f1334e1b2aac3332d88da", "lat": 38.904837, "lon": -77.028099, "bike_id": "a4ac16b8784f1334e1b2aac3332d88da", "rental_uris": {"ios": "https://dc.lft.to/lastmile_qr_scan", "android": "https://dc.lft.to/lastmile_qr_scan"}, "type": "electric_scooter", "fusion_lon": 0.0}, {"is_reserved": 0, "is_disabled": 0, "fusion_lat": 0.0, "name": "4b3bed9f2f23afeeb040d6fab26dbbd6", "lat": 38.88031216666667, "lon": -76.98483733333333, "bike_id": "4b3bed9f2f23afeeb040d6fab26dbbd6", "rental_uris": {"ios": "https://dc.lft.to/lastmile_qr_scan", "android": "https://dc.lft.to/lastmile_qr_scan"}, "type": "electric_scooter", "fusion_lon": 0.0}, {"is_reserved": 0, "is_disabled": 0, "fusion_lat": 0.0, "name": "c1b1e5938952b75a3e28aa439cdfb38e", "lat": 38.8552045, "lon": -76.991459, "bike_id": "c1b1e5938952b75a3e28aa439cdfb38e", "rental_uris": {"ios": "https://dc.lft.to/lastmile_qr_scan", "android": "https://dc.lft.to/lastmile_qr_scan"}, "type": "electric_scooter", "fusion_lon": 0.0}, {"is_reserved": 0, "is_disabled": 0, "fusion_lat": 0.0, "name": "a5a6e8e5d32bc753624ef6dc94a783fc", "lat": 38.9281115, "lon": -77.03277583333333, "bike_id": "a5a6e8e5d32bc753624ef6dc94a783fc", "rental_uris": {"ios": "https://dc.lft.to/lastmile_qr_scan", "android": "https://dc.lft.to/lastmile_qr_scan"}, "type": "electric_scooter", "fusion_lon": 0.0}, {"is_reserved": 0, "is_disabled": 0, "fusion_lat": 0.0, "name": "0da42cab367a43bf66d1d51f2e87dbe7", "lat": 38.929722166666664, "lon": -77.0234105, "bike_id": "0da42cab367a43bf66d1d51f2e87dbe7", "rental_uris": {"ios": "https://dc.lft.to/lastmile_qr_scan", "android": "https://dc.lft.to/lastmile_qr_scan"}, "type": "electric_scooter", "fusion_lon": 0.0}, {"is_reserved": 0, "is_disabled": 0, "fusion_lat": 0.0, "name": "f64ab6d14e9e735d4f5460ffa76141b6", "lat": 38.92465416666667, "lon": -77.02280083333333, "bike_id": "f64ab6d14e9e735d4f5460ffa76141b6", "rental_uris": {"ios": "https://dc.lft.to/lastmile_qr_scan", "android": "https://dc.lft.to/lastmile_qr_scan"}, "type": "electric_scooter", "fusion_lon": 0.0}, {"is_reserved": 0, "is_disabled": 0, "fusion_lat": 0.0, "name": "2571cbdafe600f818168b7e5120a403c", "lat": 38.91821633333333, "lon": -77.0319725, "bike_id": "2571cbdafe600f818168b7e5120a403c", "rental_uris": {"ios": "https://dc.lft.to/lastmile_qr_scan", "android": "https://dc.lft.to/lastmile_qr_scan"}, "type": "electric_scooter", "fusion_lon": 0.0},