{"data": {"bikes": [{"name": "604fe092acd981847e183b88da1dbb24", "fusion_lat": 0.0, "type": "electric_scooter", "lat": 38.90636633333333, "is_reserved": 0, "is_disabled": 0, "fusion_lon": 0.0, "bike_id": "604fe092acd981847e183b88da1dbb24", "lon": -77.05343133333334, "rental_uris": {"ios": "https://dc.lft.to/lastmile_qr_scan", "android": "https://dc.lft.to/lastmile_qr_scan"}}, {"name": "85edfa1814fa26b6a7ed1dfd19fab323", "fusion_lat": 0.0, "type": "electric_scooter", "lat": 38.90340333333333, "is_reserved": 0, "is_disabled": 0, "fusion_lon": 0.0, "bike_id": "85edfa1814fa26b6a7ed1dfd19fab323", "lon": -76.9466485, "rental_uris": {"ios": "https://dc.lft.to/lastmile_qr_scan", "android": "https://dc.lft.to/lastmile_qr_scan"}}, {"name": "b0840d559a8237d4a18c90f32d16eb4a", "fusion_lat": 0.0, "type": "electric_bike", "lat": 38.99226916666667, "is_reserved": 0, "is_disabled": 0, "fusion_lon": 0.0, "bike_id": "b0840d559a8237d4a18c90f32d16eb4a", "lon": -76.87826233333334, "rental_uris": {"ios": "https://dc.lft.to/lastmile_qr_scan", "android": "https://dc.lft.to/lastmile_qr_scan"}}, {"name": "7c25b8ed26a21953fffa3c07185b51d9", "fusion_lat": 0.0, "type": "electric_scooter", "lat": 38.9014795, "is_reserved": 0, "is_disabled": 0, "fusion_lon": 0.0, "bike_id": "7c25b8ed26a21953fffa3c07185b51d9", "lon": -77.03975066666666, "rental_uris": {"ios": "https://dc.lft.to/lastmile_qr_scan", "android": "https://dc.lft.to/lastmile_qr_scan"}}, {"name": "f2cad7a3ef489e3135e936f0dc90a86e", "fusion_lat": 0.0, "type": "electric_bike", "lat": 38.94362383333333, "is_reserved": 0, "is_disabled": 0, "fusion_lon": 0.0, "bike_id": "f2cad7a3ef489e3135e936f0dc90a86e", "lon": -77.00343866666667, "rental_uris": {"ios": "https://dc.lft.to/lastmile_qr_scan", "android": "https://dc.lft.to/lastmile_qr_scan"}}, {"name": "24bee4cd075ae0192e1d693ab77604fa", "fusion_lat": 0.0, "type": "electric_scooter", "lat": 38.90137766666667, "is_reserved": 0, "is_disabled": 0, "fusion_lon": 0.0, "bike_id": "24bee4cd075ae0192e1d693ab77604fa", "lon": -77.04497333333333, "rental_uris": {"ios": "https://dc.lft.to/lastmile_qr_scan", "android": "https://dc.lft.to/lastmile_qr_scan"}}, {"name": "d3d0d41c6ded77c82a6776e6d5d52398", "fusion_lat": 0.0, "type": "electric_scooter", "lat": 38.90731666666667, "is_reserved": 0, "is_disabled": 0, "fusion_lon": 0.0, "bike_id": "d3d0d41c6ded77c82a6776e6d5d52398", "lon": -77.03446966666667, "rental_uris": {"ios": "https://dc.lft.to/lastmile_qr_scan", "android": "https://dc.lft.to/lastmile_qr_scan"}}, {"name": "1a91110b04f0ff006b5ce0b3ea2b90d5", "fusion_lat": 0.0, "type": "electric_scooter", "lat": 38.90841066666667, "is_reserved": 0, "is_disabled": 0, "fusion_lon": 0.0, "bike_id": "1a91110b04f0ff006b5ce0b3ea2b90d5", "lon": -77.0318195, "rental_uris": {"ios": "https://dc.lft.to/lastmile_qr_scan", "android": "https://dc.lft.to/lastmile_qr_scan"}}, {"name": "1e97551cae72f6b0e440c90366fce309", "fusion_lat": 0.0, "type": "electric_scooter", "lat": 38.9111, "is_reserved": 0, "is_disabled": 0, "fusion_lon": 0.0, "bike_id": "1e97551cae72f6b0e440c90366fce309", "lon": -77.03739533333334, "rental_uris": {"ios": "https://dc.lft.to/lastmile_qr_scan", "android": "https://dc.lft.to/lastmile_qr_scan"}}, {"name": "dd34b90b1bec5cbf8d102f28dad04b9e", "fusion_lat": 0.0, "type": "electric_scooter", "lat": 38.915615833333334, "is_reserved": 0, "is_disabled": 0, "fusion_lon": 0.0, "bike_id": "dd34b90b1bec5cbf8d102f28dad04b9e", "lon": -77.01411333333333, "rental_uris": {"ios": "https://dc.lft.to/lastmile_qr_scan", "android": "https://dc.lft.to/lastmile_qr_scan"}}, {"name": "5c3dd64a1bf8ceba0ecad6c042242b02", "fusion_lat": 0.0, "type": "electric_scooter", "lat": 38.9164655, "is_reserved": 0, "is_disabled": 0, "fusion_lon": 0.0, "bike_id": "5c3dd64a1bf8ceba0ecad6c042242b02", "lon": -77.022972, "rental_uris": {"ios": "https://dc.lft.to/lastmile_qr_scan", "android": "https://dc.lft.to/lastmile_qr_scan"}}, {"name": "75a7255e9ea725aa372c3ac7d8e0a031", "fusion_lat": 0.0, "type": "electric_scooter", "lat": 38.92284816666667, "is_reserved": 0, "is_disabled": 0, "fusion_lon": 0.0, "bike_id": "75a7255e9ea725aa372c3ac7d8e0a031", "lon": -77.03657783333334, "rental_uris": {"ios": "https://dc.lft.to/lastmile_qr_scan", "android": "https://dc.lft.to/lastmile_qr_scan"}}, {"name": "26684aa33f5feb2e66b2057777d0137d", "fusion_lat": 0.0, "type": "electric_scooter", "lat": 38.909595, "is_reserved": 0, "is_disabled": 0, "fusion_lon": 0.0, "bike_id": "26684aa33f5feb2e66b2057777d0137d", "lon": -77.01131466666666, "rental_uris": {"ios": "https://dc.lft.to/lastmile_qr_scan", "android": "https://dc.lft.to/lastmile_qr_scan"}}, {"name": "d98ba03c09c2af4b36b43f18d9584d87", "fusion_lat": 0.0, "type": "electric_bike", "lat": 38.94604733333333, "is_reserved": 0, "is_disabled": 0, "fusion_lon": 0.0, "bike_id": "d98ba03c09c2af4b36b43f18d9584d87", "lon": -77.02979866666666, "rental_uris": {"ios": "https://dc.lft.to/lastmile_qr_scan", "android": "https://dc.lft.to/lastmile_qr_scan"}}, {"name": "9cc5ef1fcc04648ff7caa1faa3650aba", "fusion_lat": 0.0, "type": "electric_scooter", "lat": 38.9103865, "is_reserved": 0, "is_disabled": 0, "fusion_lon": 0.0, "bike_id": "9cc5ef1fcc04648ff7caa1faa3650aba", "lon": -77.02387183333333, "rental_uris": {"ios": "https://dc.lft.to/lastmile_qr_scan", "android": "https://dc.lft.to/lastmile_qr_scan"}}, {"name": "308fba915ae788bab20a0eb426718bbb", "fusion_lat": 0.0, "type": "electric_bike", "lat": 38.85409883333333, "is_reserved": 0, "is_disabled": 0, "fusion_lon": 0.0, "bike_id": "308fba915ae788bab20a0eb426718bbb", "lon": -77.11832133333333, "rental_uris": {"ios": "https://dc.lft.to/lastmile_qr_scan", "android": "https://dc.lft.to/lastmile_qr_scan"}}, {"name": "17f4bb234759db4f373f04d4e306a011", "fusion_lat": 0.0, "type": "electric_scooter", "lat": 38.92072683333333, "is_reserved": 0, "is_disabled": 0, "fusion_lon": 0.0, "bike_id": "17f4bb234759db4f373f04d4e306a011", "lon": -77.02217216666666, "rental_uris": {"ios": "https://dc.lft.to/lastmile_qr_scan", "android": "https://dc.lft.to/lastmile_qr_scan"}}, {"name": "f02a10c6869f058155995ca3c247ee88", "fusion_lat": 0.0, "type": "electric_scooter", "lat": 38.897659, "is_reserved": 0, "is_disabled": 0, "fusion_lon": 0.0, "bike_id": "f02a10c6869f058155995ca3c247ee88", "lon": -76.97723633333334, "rental_uris": {"ios": "https://dc.lft.to/lastmile_qr_scan", "android": "https://dc.lft.to/lastmile_qr_scan"}}, {"name": "a6ea76fdc164cac82c015527ac762ca9", "fusion_lat": 0.0, "type": "electric_scooter", "lat": 38.94438516666666, "is_reserved": 0, "is_disabled": 0, "fusion_lon": 0.0, "bike_id": "a6ea76fdc164cac82c015527ac762ca9", "lon": -77.03285283333334, "rental_uris": {"ios": "https://dc.lft.to/lastmile_qr_scan", "android": "https://dc.lft.to/lastmile_qr_scan"}}, {"name": "202898d57a82bb52d0b9f72535b83620", "fusion_lat": 0.0, "type": "electric_scooter", "lat": 38.937336333333334, "is_reserved": 0, "is_disabled": 0, "fusion_lon": 0.0, "bike_id": "202898d57a82bb52d0b9f72535b83620", "lon": -77.03262483333333, "rental_uris": {"ios": "https://dc.lft.to/lastmile_qr_scan", "android": "https://dc.lft.to/lastmile_qr_scan"}}, {"name": "2c077e419e2e4f6aef59590f415f9596", "fusion_lat": 0.0, "type": "electric_bike", "lat": 38.91758433333333, "is_reserved": 0, "is_disabled": 0, "fusion_lon": 0.0, "bike_id": "2c077e419e2e4f6aef59590f415f9596", "lon": -77.01605633333334, "rental_uris": {"ios": "https://dc.lft.to/lastmile_qr_scan", "android": "https://dc.lft.to/lastmile_qr_scan"}}, {"name": "15e6816a35879464e4bcf47aefc94363", "fusion_lat": 0.0, "type": "electric_scooter", "lat": 38.93065133333333, "is_reserved": 0, "is_disabled": 0, "fusion_lon": 0.0, "bike_id": "15e6816a35879464e4bcf47aefc94363", "lon": -77.02324466666667, "rental_uris": {"ios": "https://dc.lft.to/lastmile_qr_scan", "android": "https://dc.lft.to/lastmile_qr_scan"}}, {"name": "a15369e9497bfc721f714dc9b51b8cf8", "fusion_lat": 0.0, "type": "electric_scooter", "lat": 38.897307833333336, "is_reserved": 0, "is_disabled": 0, "fusion_lon": 0.0, "bike_id": "a15369e9497bfc721f714dc9b51b8cf8", "lon": -77.04760883333333, "rental_uris": {"ios": "https://dc.lft.to/lastmile_qr_scan", "android": "https://dc.lft.to/lastmile_qr_scan"}}, {"name": "0670d7b9df8292dd5906aa03569c017f", "fusion_lat": 0.0, "type": "electric_scooter", "lat": 38.90894333333333, "is_reserved": 0, "is_disabled": 0, "fusion_lon": 0.0, "bike_id": "0670d7b9df8292dd5906aa03569c017f", "lon": -77.03210766666666, "rental_uris": {"ios": "https://dc.lft.to/lastmile_qr_scan", "android": "https://dc.lft.to/lastmile_qr_scan"}}, {"name": "24ff30348316b603ec6c955d409be0b9", "fusion_lat": 0.0, "type": "electric_scooter", "lat": 38.912512, "is_reserved": 0, "is_disabled": 0, "fusion_lon": 0.0, "bike_id": "24ff30348316b603ec6c955d409be0b9", "lon": -77.00765866666667, "rental_uris": {"ios": "https://dc.lft.to/lastmile_qr_scan", "android": "https://dc.lft.to/lastmile_qr_scan"}}, {"name": "280ef50efd5deb654e65d8fbb7575cf8", "fusion_lat": 0.0, "type": "electric_scooter", "lat": 38.924450666666665, "is_reserved": 0, "is_disabled": 0, "fusion_lon": 0.0, "bike_id": "280ef50efd5deb654e65d8fbb7575cf8", "lon": -77.02983966666666, "rental_uris": {"ios": "https://dc.lft.to/lastmile_qr_scan", "android": "https://dc.lft.to/lastmile_qr_scan"}}, {"name": "6759ff5bdba78203687a9d9cf19d8c69", "fusion_lat": 0.0, "type": "electric_scooter", "lat": 38.88352583333333, "is_reserved": 0, "is_disabled": 0, "fusion_lon": 0.0, "bike_id": "6759ff5bdba78203687a9d9cf19d8c69", "lon": -76.949398, "rental_uris": {"ios": "https://dc.lft.to/lastmile_qr_scan", "android": "https://dc.lft.to/lastmile_qr_scan"}}, {"name": "e56e2d3564e1149b376310695aceba03", "fusion_lat": 0.0, "type": "electric_scooter", "lat": 38.92559766666667, "is_reserved": 0, "is_disabled": 0, "fusion_lon": 0.0, "bike_id": "e56e2d3564e1149b376310695aceba03", "lon": -77.062837, "rental_uris": {"ios": "https://dc.lft.to/lastmile_qr_scan", "android": "https://dc.lft.to/lastmile_qr_scan"}}, {"name": "be3855d7645fbb885ab8ae295d309d51", "fusion_lat": 0.0, "type": "electric_bike", "lat": 38.928540166666664, "is_reserved": 0, "is_disabled": 0, "fusion_lon": 0.0, "bike_id": "be3855d7645fbb885ab8ae295d309d51", "lon": -77.10678333333334, "rental_uris": {"ios": "https://dc.lft.to/lastmile_qr_scan", "android": "https://dc.lft.to/lastmile_qr_scan"}}, {"name": "83c7400fa2ec4266e0a1ac8eb936e269", "fusion_lat": 0.0, "type": "electric_scooter", "lat": 38.902813, "is_reserved": 0, "is_disabled": 0, "fusion_lon": 0.0, "bike_id": "83c7400fa2ec4266e0a1ac8eb936e269", "lon": -77.042811, "rental_uris": {"ios": "https://dc.lft.to/lastmile_qr_scan", "android": "https://dc.lft.to/lastmile_qr_scan"}}, {"name": "6345345987c61ff15a336f8115552674", "fusion_lat": 0.0, "type": "electric_scooter", "lat": 38.89489066666667, "is_reserved": 0, "is_disabled": 0, "fusion_lon": 0.0, "bike_id": "6345345987c61ff15a336f8115552674", "lon": -77.0107815, "rental_uris": {"ios": "https://dc.lft.to/lastmile_qr_scan", "android": "https://dc.lft.to/lastmile_qr_scan"}}, {"name": "3cd2488f53a42a038cf4d6d1c0cd1b09", "fusion_lat": 0.0, "type": "electric_scooter", "lat": 38.897264666666665, "is_reserved": 0, "is_disabled": 0, "fusion_lon": 0.0, "bike_id": "3cd2488f53a42a038cf4d6d1c0cd1b09", "lon": -77.04340483333333, "rental_uris": {"ios": "https://dc.lft.to/lastmile_qr_scan", "android": "https://dc.lft.to/lastmile_qr_scan"}}, {"name": "5b2cf4d8df3f209783a1d47bff64467b", "fusion_lat": 0.0, "type": "electric_scooter", "lat": 38.86371416666667, "is_reserved": 0, "is_disabled": 0, "fusion_lon": 0.0, "bike_id": "5b2cf4d8df3f209783a1d47bff64467b", "lon": -77.01363316666666, "rental_uris": {"ios": "https://dc.lft.to/lastmile_qr_scan", "android": "https://dc.lft.to/lastmile_qr_scan"}}, {"name": "f756347e696eafcfb2f9176333cdbed4", "fusion_lat": 0.0, "type": "electric_scooter", "lat": 38.91546916666667, "is_reserved": 0, "is_disabled": 0, "fusion_lon": 0.0, "bike_id": "f756347e696eafcfb2f9176333cdbed4", "lon": -77.038501, "rental_uris": {"ios": "https://dc.lft.to/lastmile_qr_scan", "android": "https://dc.lft.to/lastmile_qr_scan"}}, {"name": "5a1a4957713391d25bc0df3c4391d431", "fusion_lat": 0.0, "type": "electric_bike", "lat": 38.945533, "is_reserved": 0, "is_disabled": 0, "fusion_lon": 0.0, "bike_id": "5a1a4957713391d25bc0df3c4391d431", "lon": -76.89539366666666, "rental_uris": {"ios": "https://dc.lft.to/lastmile_qr_scan", "android": "https://dc.lft.to/lastmile_qr_scan"}}, {"name": "c59c0fdb1af43ed040af4c8dd9878866", "fusion_lat": 0.0, "type": "electric_scooter", "lat": 38.883976, "is_reserved": 0, "is_disabled": 0, "fusion_lon": 0.0, "bike_id": "c59c0fdb1af43ed040af4c8dd9878866", "lon": -76.93044416666666, "rental_uris": {"ios": "https://dc.lft.to/lastmile_qr_scan", "android": "https://dc.lft.to/lastmile_qr_scan"}}, {"name": "ce87aa05486661fa429a73894e6dccc0", "fusion_lat": 0.0, "type": "electric_scooter", "lat": 38.9080785, "is_reserved": 0, "is_disabled": 0, "fusion_lon": 0.0, "bike_id": "ce87aa05486661fa429a73894e6dccc0", "lon": -77.02602233333333, "rental_uris": {"ios": "https://dc.lft.to/lastmile_qr_scan", "android": "https://dc.lft.to/lastmile_qr_scan"}}, {"name": "d8c14fca1a5ccf8ea4516047147faa0b", "fusion_lat": 0.0, "type": "electric_scooter", "lat": 38.9183105, "is_reserved": 0, "is_disabled": 0, "fusion_lon": 0.0, "bike_id": "d8c14fca1a5ccf8ea4516047147faa0b", "lon": -77.03175233333333, "rental_uris": {"ios": "https://dc.lft.to/lastmile_qr_scan", "android": "https://dc.lft.to/lastmile_qr_scan"}}, {"name": "48b302012e81ace24069474d895d1533", "fusion_lat": 0.0, "type": "electric_scooter", "lat": 38.92884, "is_reserved": 0, "is_disabled": 0, "fusion_lon": 0.0, "bike_id": "48b302012e81ace24069474d895d1533", "lon": -77.013822, "rental_uris": {"ios": "https://dc.lft.to/lastmile_qr_scan", "android": "https://dc.lft.to/lastmile_qr_scan"}}, {"name": "3f8f56576b1998158e12e9fd92ad15d8", "fusion_lat": 0.0, "type": "electric_scooter", "lat": 38.900363166666665, "is_reserved": 0, "is_disabled": 0, "fusion_lon": 0.0, "bike_id": "3f8f56576b1998158e12e9fd92ad15d8", "lon": -77.04317616666667, "rental_uris": {"ios": "https://dc.lft.to/lastmile_qr_scan", "android": "https://dc.lft.to/lastmile_qr_scan"}}, {"name": "8b463e194e0346712d6e44cb44c318d4", "fusion_lat": 0.0, "type": "electric_scooter", "lat": 38.9076485, "is_reserved": 0, "is_disabled": 0, "fusion_lon": 0.0, "bike_id": "8b463e194e0346712d6e44cb44c318d4", "lon": -77.00049516666667, "rental_uris": {"ios": "https://dc.lft.to/lastmile_qr_scan", "android": "https://dc.lft.to/lastmile_qr_scan"}}, {"name": "bc4d87ae81c27428ad68fa086bea8644", "fusion_lat": 0.0, "type": "electric_scooter", "lat": 38.94185133333333, "is_reserved": 0, "is_disabled": 0, "fusion_lon": 0.0, "bike_id": "bc4d87ae81c27428ad68fa086bea8644", "lon": -77.02490566666667, "rental_uris": {"ios": "https://dc.lft.to/lastmile_qr_scan", "android": "https://dc.lft.to/lastmile_qr_scan"}}, {"name": "00b2bf97f71a523894f7075e35dcaea6", "fusion_lat": 0.0, "type": "electric_scooter", "lat": 38.9161595, "is_reserved": 0, "is_disabled": 0, "fusion_lon": 0.0, "bike_id": "00b2bf97f71a523894f7075e35dcaea6", "lon": -77.03858016666666, "rental_uris": {"ios": "https://dc.lft.to/lastmile_qr_scan", "android": "https://dc.lft.to/lastmile_qr_scan"}}, {"name": "b9797188b2e09f3df6ec22e2c3d660f7", "fusion_lat": 0.0, "type": "electric_scooter", "lat": 38.897732500000004, "is_reserved": 0, "is_disabled": 0, "fusion_lon": 0.0, "bike_id": "b9797188b2e09f3df6ec22e2c3d660f7", "lon": -76.99161716666667, "rental_uris": {"ios": "https://dc.lft.to/lastmile_qr_scan", "android": "https://dc.lft.to/lastmile_qr_scan"}}, {"name": "e2702e2302beb7adb0c6051facdc6766", "fusion_lat": 0.0, "type": "electric_bike", "lat": 38.973271, "is_reserved": 0, "is_disabled": 0, "fusion_lon": 0.0, "bike_id": "e2702e2302beb7adb0c6051facdc6766", "lon": -77.02146416666666, "rental_uris": {"ios": "https://dc.lft.to/lastmile_qr_scan", "android": "https://dc.lft.to/lastmile_qr_scan"}}, {"name": "63685e36b39e8784cd1da4b11985a090", "fusion_lat": 0.0, "type": "electric_scooter", "lat": 38.9399185, "is_reserved": 0, "is_disabled": 0, "fusion_lon": 0.0, "bike_id": "63685e36b39e8784cd1da4b11985a090", "lon": -77.02953916666667, "rental_uris": {"ios": "https://dc.lft.to/lastmile_qr_scan", "android": "https://dc.lft.to/lastmile_qr_scan"}}, {"name": "8a0bd4c86dfab855e34bd38d4a525bee", "fusion_lat": 0.0, "type": "electric_scooter", "lat": 38.89855766666667, "is_reserved": 0, "is_disabled": 0, "fusion_lon": 0.0, "bike_id": "8a0bd4c86dfab855e34bd38d4a525bee", "lon": -76.99033033333333, "rental_uris": {"ios": "https://dc.lft.to/lastmile_qr_scan", "android": "https://dc.lft.to/lastmile_qr_scan"}}, {"name": "30f46b1179208bf76548a28c62bc43d9", "fusion_lat": 0.0, "type": "electric_scooter", "lat": 38.9325415, "is_reserved": 0, "is_disabled": 0, "fusion_lon": 0.0, "bike_id": "30f46b1179208bf76548a28c62bc43d9", "lon": -77.04005, "rental_uris": {"ios": "https://dc.lft.to/lastmile_qr_scan", "android": "https://dc.lft.to/lastmile_qr_scan"}}, {"name": "981c136356685a65cbb2e8015a886b56", "fusion_lat": 0.0, "type": "electric_scooter", "lat": 38.89483383333334, "is_reserved": 0, "is_disabled": 0, "fusion_lon": 0.0, "bike_id": "981c136356685a65cbb2e8015a886b56", "lon": -76.94874883333334, "rental_uris": {"ios": "https://dc.lft.to/lastmile_qr_scan", "android": "https://dc.lft.to/lastmile_qr_scan"}}, {"name": "709dfc11312153e218b8623063f8a8c2", "fusion_lat": 0.0, "type": "electric_scooter", "lat": 38.90083383333333, "is_reserved": 0, "is_disabled": 0, "fusion_lon": 0.0, "bike_id": "709dfc11312153e218b8623063f8a8c2", "lon": -77.05032133333333, "rental_uris": {"ios": "https://dc.lft.to/lastmile_qr_scan", "android": "https://dc.lft.to/lastmile_qr_scan"}}, {"name": "760f634dd230e4f3fdf72400397ff2d1", "fusion_lat": 0.0, "type": "electric_scooter", "lat": 38.90831816666667, "is_reserved": 0, "is_disabled": 0, "fusion_lon": 0.0, "bike_id": "760f634dd230e4f3fdf72400397ff2d1", "lon": -76.99975966666666, "rental_uris": {"ios": "https://dc.lft.to/lastmile_qr_scan", "android": "https://dc.lft.to/lastmile_qr_scan"}}, {"name": "5bb85e1fec451f4b3795e3b6883e5056", "fusion_lat": 0.0, "type": "electric_scooter", "lat": 38.900902, "is_reserved": 0, "is_disabled": 0, "fusion_lon": 0.0, "bike_id": "5bb85e1fec451f4b3795e3b6883e5056", "lon": -77.01350733333334, "rental_uris": {"ios": "https://dc.lft.to/lastmile_qr_scan", "android": "https://dc.lft.to/lastmile_qr_scan"}}, {"name": "bc75ba433c49339c1e7dbad15abe74d1", "fusion_lat": 0.0, "type": "electric_scooter", "lat": 38.892751833333335, "is_reserved": 0, "is_disabled": 0, "fusion_lon": 0.0, "bike_id": "bc75ba433c49339c1e7dbad15abe74d1", "lon": -77.032128, "rental_uris": {"ios": "https://dc.lft.to/lastmile_qr_scan", "android": "https://dc.lft.to/lastmile_qr_scan"}}, {"name": "1e89fd189e6b67eac88bb718834e0287", "fusion_lat": 0.0, "type": "electric_scooter", "lat": 38.931211833333336, "is_reserved": 0, "is_disabled": 0, "fusion_lon": 0.0, "bike_id": "1e89fd189e6b67eac88bb718834e0287", "lon": -77.03596483333334, "rental_uris": {"ios": "https://dc.lft.to/lastmile_qr_scan", "android": "https://dc.lft.to/lastmile_qr_scan"}}, {"name": "dbfee852e6aea165b2a3993113638b0f", "fusion_lat": 0.0, "type": "electric_bike", "lat": 38.856887666666665, "is_reserved": 0, "is_disabled": 0, "fusion_lon": 0.0, "bike_id": "dbfee852e6aea165b2a3993113638b0f", "lon": -77.08538166666666, "rental_uris": {"ios": "https://dc.lft.to/lastmile_qr_scan", "android": "https://dc.lft.to/lastmile_qr_scan"}}, {"name": "e2ea5e1236bb1d92ca925df8a8ff8e78", "fusion_lat": 0.0, "type": "electric_scooter", "lat": 38.903803333333336, "is_reserved": 0, "is_disabled": 0, "fusion_lon": 0.0, "bike_id": "e2ea5e1236bb1d92ca925df8a8ff8e78", "lon": -77.034165, "rental_uris": {"ios": "https://dc.lft.to/lastmile_qr_scan", "android": "https://dc.lft.to/lastmile_qr_scan"}}, {"name": "fd1de2009b75996b7b574e314b6caaab", "fusion_lat": 0.0, "type": "electric_scooter", "lat": 38.939624, "is_reserved": 0, "is_disabled": 0, "fusion_lon": 0.0, "bike_id": "fd1de2009b75996b7b574e314b6caaab", "lon": -77.02749416666667, "rental_uris": {"ios": "https://dc.lft.to/lastmile_qr_scan", "android": "https://dc.lft.to/lastmile_qr_scan"}}, {"name": "cc8588c9b119493f12c9e84af3412e2a", "fusion_lat": 0.0, "type": "electric_bike", "lat": 38.9994135, "is_reserved": 0, "is_disabled": 0, "fusion_lon": 0.0, "bike_id": "cc8588c9b119493f12c9e84af3412e2a", "lon": -77.017678, "rental_uris": {"ios": "https://dc.lft.to/lastmile_qr_scan", "android": "https://dc.lft.to/lastmile_qr_scan"}}, {"name": "c45640add7b991419ceb13422b9ceaf2", "fusion_lat": 0.0, "type": "electric_scooter", "lat": 38.90966683333333, "is_reserved": 0, "is_disabled": 0, "fusion_lon": 0.0, "bike_id": "c45640add7b991419ceb13422b9ceaf2", "lon": -77.02306733333333, "rental_uris": {"ios": "https://dc.lft.to/lastmile_qr_scan", "android": "https://dc.lft.to/lastmile_qr_scan"}}, {"name": "9bf16658a46e725b9ae33a57df36120f", "fusion_lat": 0.0, "type": "electric_scooter", "lat": 38.92456333333333, "is_reserved": 0, "is_disabled": 0, "fusion_lon": 0.0, "bike_id": "9bf16658a46e725b9ae33a57df36120f", "lon": -77.0328075, "rental_uris": {"ios": "https://dc.lft.to/lastmile_qr_scan", "android": "https://dc.lft.to/lastmile_qr_scan"}}, {"name": "6923b81aac324e00a6a3ac21eb16f116", "fusion_lat": 0.0, "type": "electric_scooter", "lat": 38.93100533333333, "is_reserved": 0, "is_disabled": 0, "fusion_lon": 0.0, "bike_id": "6923b81aac324e00a6a3ac21eb16f116", "lon": -77.02450366666666, "rental_uris": {"ios": "https://dc.lft.to/lastmile_qr_scan", "android": "https://dc.lft.to/lastmile_qr_scan"}}, {"name": "20d686d88da56088544d74501e95e297", "fusion_lat": 0.0, "type": "electric_scooter", "lat": 38.92238183333333, "is_reserved": 0, "is_disabled": 0, "fusion_lon": 0.0, "bike_id": "20d686d88da56088544d74501e95e297", "lon": -77.0365955, "rental_uris": {"ios": "https://dc.lft.to/lastmile_qr_scan", "android": "https://dc.lft.to/lastmile_qr_scan"}}, {"name": "3edb71ae0c41e4240b86f1e821b14a1d", "fusion_lat": 0.0, "type": "electric_bike", "lat": 38.95085316666667, "is_reserved": 0, "is_disabled": 0, "fusion_lon": 0.0, "bike_id": "3edb71ae0c41e4240b86f1e821b14a1d", "lon": -77.01222183333333, "rental_uris": {"ios": "https://dc.lft.to/lastmile_qr_scan", "android": "https://dc.lft.to/lastmile_qr_scan"}}, {"name": "7250c131e5746de135ac97d4eb287d54", "fusion_lat": 0.0, "type": "electric_scooter", "lat": 38.881196833333334, "is_reserved": 0, "is_disabled": 0, "fusion_lon": 0.0, "bike_id": "7250c131e5746de135ac97d4eb287d54", "lon": -76.9901415, "rental_uris": {"ios": "https://dc.lft.to/lastmile_qr_scan", "android": "https://dc.lft.to/lastmile_qr_scan"}}, {"name": "6648449759566f71af4ef6e8dbb2acdb", "fusion_lat": 0.0, "type": "electric_scooter", "lat": 38.921982, "is_reserved": 0, "is_disabled": 0, "fusion_lon": 0.0, "bike_id": "6648449759566f71af4ef6e8dbb2acdb", "lon": -77.024306, "rental_uris": {"ios": "https://dc.lft.to/lastmile_qr_scan", "android": "https://dc.lft.to/lastmile_qr_scan"}}, {"name": "e98b78e8bec79bac770ab0ba34269120", "fusion_lat": 0.0, "type": "electric_scooter", "lat": 38.920547166666665, "is_reserved": 0, "is_disabled": 0, "fusion_lon": 0.0, "bike_id": "e98b78e8bec79bac770ab0ba34269120", "lon": -77.034687, "rental_uris": {"ios": "https://dc.lft.to/lastmile_qr_scan", "android": "https://dc.lft.to/lastmile_qr_scan"}}, {"name": "a7d3a1d28f231371df92c3ff0c9b36e0", "fusion_lat": 0.0, "type": "electric_scooter", "lat": 38.92317333333333, "is_reserved": 0, "is_disabled": 0, "fusion_lon": 0.0, "bike_id": "a7d3a1d28f231371df92c3ff0c9b36e0", "lon": -77.03980133333333, "rental_uris": {"ios": "https://dc.lft.to/lastmile_qr_scan", "android": "https://dc.lft.to/lastmile_qr_scan"}}, {"name": "8b7e7a43356a11a435d5d97815fda88b", "fusion_lat": 0.0, "type": "electric_scooter", "lat": 38.91214383333333, "is_reserved": 0, "is_disabled": 0, "fusion_lon": 0.0, "bike_id": "8b7e7a43356a11a435d5d97815fda88b", "lon": -77.03642616666667, "rental_uris": {"ios": "https://dc.lft.to/lastmile_qr_scan", "android": "https://dc.lft.to/lastmile_qr_scan"}}, {"name": "b56ed22af8e56c834fcff7d33b84caf1", "fusion_lat": 0.0, "type": "electric_scooter", "lat": 38.90614983333333, "is_reserved": 0, "is_disabled": 0, "fusion_lon": 0.0, "bike_id": "b56ed22af8e56c834fcff7d33b84caf1", "lon": -77.02963866666667, "rental_uris": {"ios": "https://dc.lft.to/lastmile_qr_scan", "android": "https://dc.lft.to/lastmile_qr_scan"}}, {"name": "af6735b36af7c8ca0b03afc5343ecb26", "fusion_lat": 0.0, "type": "electric_scooter", "lat": 38.924632833333334, "is_reserved": 0, "is_disabled": 0, "fusion_lon": 0.0, "bike_id": "af6735b36af7c8ca0b03afc5343ecb26", "lon": -77.03639783333334, "rental_uris": {"ios": "https://dc.lft.to/lastmile_qr_scan", "android": "https://dc.lft.to/lastmile_qr_scan"}}, {"name": "c01293c177daf59390cbd2ad3322966d", "fusion_lat": 0.0, "type": "electric_scooter", "lat": 38.92812166666667, "is_reserved": 0, "is_disabled": 0, "fusion_lon": 0.0, "bike_id": "c01293c177daf59390cbd2ad3322966d", "lon": -77.03641033333334, "rental_uris": {"ios": "https://dc.lft.to/lastmile_qr_scan", "android": "https://dc.lft.to/lastmile_qr_scan"}}, {"name": "24407fbca25690a5acd3023c13c0d512", "fusion_lat": 0.0, "type": "electric_scooter", "lat": 38.878643333333336, "is_reserved": 0, "is_disabled": 0, "fusion_lon": 0.0, "bike_id": "24407fbca25690a5acd3023c13c0d512", "lon": -76.965236, "rental_uris": {"ios": "https://dc.lft.to/lastmile_qr_scan", "android": "https://dc.lft.to/lastmile_qr_scan"}}, {"name": "36551623c8fcc6e368d392151553b630", "fusion_lat": 0.0, "type": "electric_scooter", "lat": 38.8951915, "is_reserved": 0, "is_disabled": 0, "fusion_lon": 0.0, "bike_id": "36551623c8fcc6e368d392151553b630", "lon": -76.992086, "rental_uris": {"ios": "https://dc.lft.to/lastmile_qr_scan", "android": "https://dc.lft.to/lastmile_qr_scan"}}, {"name": "d1326fb64d651fdf6d35bec59c8c8d1a", "fusion_lat": 0.0, "type": "electric_scooter", "lat": 38.90331783333333, "is_reserved": 0, "is_disabled": 0, "fusion_lon": 0.0, "bike_id": "d1326fb64d651fdf6d35bec59c8c8d1a", "lon": -77.05431866666666, "rental_uris": {"ios": "https://dc.lft.to/lastmile_qr_scan", "android": "https://dc.lft.to/lastmile_qr_scan"}}, {"name": "9b56d64a8d9ef5b483f54118a1acecfa", "fusion_lat": 0.0, "type": "electric_scooter", "lat": 38.90079633333333, "is_reserved": 0, "is_disabled": 0, "fusion_lon": 0.0, "bike_id": "9b56d64a8d9ef5b483f54118a1acecfa", "lon": -77.05006783333333, "rental_uris": {"ios": "https://dc.lft.to/lastmile_qr_scan", "android": "https://dc.lft.to/lastmile_qr_scan"}}, {"name": "5205a9573b575fb90a24f3c6862b5631", "fusion_lat": 0.0, "type": "electric_scooter", "lat": 38.920965333333335, "is_reserved": 0, "is_disabled": 0, "fusion_lon": 0.0, "bike_id": "5205a9573b575fb90a24f3c6862b5631", "lon": -77.0469155, "rental_uris": {"ios": "https://dc.lft.to/lastmile_qr_scan", "android": "https://dc.lft.to/lastmile_qr_scan"}}, {"name": "153e243d0376d8266e8fda645d2e97ea", "fusion_lat": 0.0, "type": "electric_scooter", "lat": 38.90427066666667, "is_reserved": 0, "is_disabled": 0, "fusion_lon": 0.0, "bike_id": "153e243d0376d8266e8fda645d2e97ea", "lon": -77.03430783333333, "rental_uris": {"ios": "https://dc.lft.to/lastmile_qr_scan", "android": "https://dc.lft.to/lastmile_qr_scan"}}, {"name": "e10510495109c59cfbffcf7756f31a2e", "fusion_lat": 0.0, "type": "electric_scooter", "lat": 38.902357, "is_reserved": 0, "is_disabled": 0, "fusion_lon": 0.0, "bike_id": "e10510495109c59cfbffcf7756f31a2e", "lon": -77.02697283333333, "rental_uris": {"ios": "https://dc.lft.to/lastmile_qr_scan", "android": "https://dc.lft.to/lastmile_qr_scan"}}, {"name": "96abd5c505a8eb949f3dc1f5f3e4f9a1", "fusion_lat": 0.0, "type": "electric_scooter", "lat": 38.914871, "is_reserved": 0, "is_disabled": 0, "fusion_lon": 0.0, "bike_id": "96abd5c505a8eb949f3dc1f5f3e4f9a1", "lon": -77.03253383333333, "rental_uris": {"ios": "https://dc.lft.to/lastmile_qr_scan", "android": "https://dc.lft.to/lastmile_qr_scan"}}, {"name": "c7d7b05c4d6c4f19f9a2fe2823066f9f", "fusion_lat": 0.0, "type": "electric_scooter", "lat": 38.9118615, "is_reserved": 0, "is_disabled": 0, "fusion_lon": 0.0, "bike_id": "c7d7b05c4d6c4f19f9a2fe2823066f9f", "lon": -77.03636333333333, "rental_uris": {"ios": "https://dc.lft.to/lastmile_qr_scan", "android": "https://dc.lft.to/lastmile_qr_scan"}}, {"name": "3a140dced25dff417a78a079eddf620f", "fusion_lat": 0.0, "type": "electric_scooter", "lat": 38.87420783333334, "is_reserved": 0, "is_disabled": 0, "fusion_lon": 0.0, "bike_id": "3a140dced25dff417a78a079eddf620f", "lon": -76.97176766666666, "rental_uris": {"ios": "https://dc.lft.to/lastmile_qr_scan", "android": "https://dc.lft.to/lastmile_qr_scan"}}, {"name": "83267b6944d71c38d82a9e9f35d13864", "fusion_lat": 0.0, "type": "electric_bike", "lat": 38.998186, "is_reserved": 0, "is_disabled": 0, "fusion_lon": 0.0, "bike_id": "83267b6944d71c38d82a9e9f35d13864", "lon": -76.88371133333334, "rental_uris": {"ios": "https://dc.lft.to/lastmile_qr_scan", "android": "https://dc.lft.to/lastmile_qr_scan"}}, {"name": "ae2c18f3787bed2b761f1013a0721695", "fusion_lat": 0.0, "type": "electric_scooter", "lat": 38.836050166666666, "is_reserved": 0, "is_disabled": 0, "fusion_lon": 0.0, "bike_id": "ae2c18f3787bed2b761f1013a0721695", "lon": -76.99359516666667, "rental_uris": {"ios": "https://dc.lft.to/lastmile_qr_scan", "android": "https://dc.lft.to/lastmile_qr_scan"}}, {"name": "67171ba3a374bd03680d44f19272661c", "fusion_lat": 0.0, "type": "electric_bike", "lat": 38.948914, "is_reserved": 0, "is_disabled": 0, "fusion_lon": 0.0, "bike_id": "67171ba3a374bd03680d44f19272661c", "lon": -76.9637825, "rental_uris": {"ios": "https://dc.lft.to/lastmile_qr_scan", "android": "https://dc.lft.to/lastmile_qr_scan"}}, {"name": "c730bc6c9c009b057f85d9f4bc33d3bd", "fusion_lat": 0.0, "type": "electric_scooter", "lat": 38.918404833333334, "is_reserved": 0, "is_disabled": 0, "fusion_lon": 0.0, "bike_id": "c730bc6c9c009b057f85d9f4bc33d3bd", "lon": -77.02605216666667, "rental_uris": {"ios": "https://dc.lft.to/lastmile_qr_scan", "android": "https://dc.lft.to/lastmile_qr_scan"}}, {"name": "799f1e07d1c738a4589040ab1844a6c9", "fusion_lat": 0.0, "type": "electric_scooter", "lat": 38.8987535, "is_reserved": 0, "is_disabled": 0, "fusion_lon": 0.0, "bike_id": "799f1e07d1c738a4589040ab1844a6c9", "lon": -76.93159633333333, "rental_uris": {"ios": "https://dc.lft.to/lastmile_qr_scan", "android": "https://dc.lft.to/lastmile_qr_scan"}}, {"name": "f439b03a9a5c9f300786d9b5eca15b36", "fusion_lat": 0.0, "type": "electric_scooter", "lat": 38.90370433333333, "is_reserved": 0, "is_disabled": 0, "fusion_lon": 0.0, "bike_id": "f439b03a9a5c9f300786d9b5eca15b36", "lon": -77.011044, "rental_uris": {"ios": "https://dc.lft.to/lastmile_qr_scan", "android": "https://dc.lft.to/lastmile_qr_scan"}}, {"name": "4a50b307df9ee84f5eed1b83d4b1bbf7", "fusion_lat": 0.0, "type": "electric_scooter", "lat": 38.9066065, "is_reserved": 0, "is_disabled": 0, "fusion_lon": 0.0, "bike_id": "4a50b307df9ee84f5eed1b83d4b1bbf7", "lon": -77.04167616666666, "rental_uris": {"ios": "https://dc.lft.to/lastmile_qr_scan", "android": "https://dc.lft.to/lastmile_qr_scan"}}, {"name": "b5654008cd3df6b372e0d844bdcc1270", "fusion_lat": 0.0, "type": "electric_scooter", "lat": 38.9034565, "is_reserved": 0, "is_disabled": 0, "fusion_lon": 0.0, "bike_id": "b5654008cd3df6b372e0d844bdcc1270", "lon": -77.06648466666667, "rental_uris": {"ios": "https://dc.lft.to/lastmile_qr_scan", "android": "https://dc.lft.to/lastmile_qr_scan"}}, {"name": "e9ecb56b802309829c0f9738a249e5e1", "fusion_lat": 0.0, "type": "electric_scooter", "lat": 38.9161205, "is_reserved": 0, "is_disabled": 0, "fusion_lon": 0.0, "bike_id": "e9ecb56b802309829c0f9738a249e5e1", "lon": -77.02169516666666, "rental_uris": {"ios": "https://dc.lft.to/lastmile_qr_scan", "android": "https://dc.lft.to/lastmile_qr_scan"}}, {"name": "077aeb9f751c1535fd14852769d4a0c4", "fusion_lat": 0.0, "type": "electric_bike", "lat": 38.86391533333333, "is_reserved": 0, "is_disabled": 0, "fusion_lon": 0.0, "bike_id": "077aeb9f751c1535fd14852769d4a0c4", "lon": -76.9899205, "rental_uris": {"ios": "https://dc.lft.to/lastmile_qr_scan", "android": "https://dc.lft.to/lastmile_qr_scan"}}, {"name": "9c0d16b42a5f3e9f1c28d1f960d38f76", "fusion_lat": 0.0, "type": "electric_scooter", "lat": 38.941776, "is_reserved": 0, "is_disabled": 0, "fusion_lon": 0.0, "bike_id": "9c0d16b42a5f3e9f1c28d1f960d38f76", "lon": -77.04133316666666, "rental_uris": {"ios": "https://dc.lft.to/lastmile_qr_scan", "android": "https://dc.lft.to/lastmile_qr_scan"}}, {"name": "c3c83d9c5d4facb74f5c8474b042f38f", "fusion_lat": 0.0, "type": "electric_bike", "lat": 38.839347, "is_reserved": 0, "is_disabled": 0, "fusion_lon": 0.0, "bike_id": "c3c83d9c5d4facb74f5c8474b042f38f", "lon": -77.0790665, "rental_uris": {"ios": "https://dc.lft.to/lastmile_qr_scan", "android": "https://dc.lft.to/lastmile_qr_scan"}}, {"name": "453c7c07aab1c052a683ce4bb9ab104e", "fusion_lat": 0.0, "type": "electric_scooter", "lat": 38.92154283333333, "is_reserved": 0, "is_disabled": 0, "fusion_lon": 0.0, "bike_id": "453c7c07aab1c052a683ce4bb9ab104e", "lon": -77.03466333333333, "rental_uris": {"ios": "https://dc.lft.to/lastmile_qr_scan", "android": "https://dc.lft.to/lastmile_qr_scan"}}, {"name": "cfdbbe5fb3f09d8359c9f5391655f8a5", "fusion_lat": 0.0, "type": "electric_scooter", "lat": 38.89242333333333, "is_reserved": 0, "is_disabled": 0, "fusion_lon": 0.0, "bike_id": "cfdbbe5fb3f09d8359c9f5391655f8a5", "lon": -77.03383716666667, "rental_uris": {"ios": "https://dc.lft.to/lastmile_qr_scan", "android": "https://dc.lft.to/lastmile_qr_scan"}}, {"name": "ded6f35b90b9cf8426c19118ba3b9d55", "fusion_lat": 0.0, "type": "electric_scooter", "lat": 38.91806966666667, "is_reserved": 0, "is_disabled": 0, "fusion_lon": 0.0, "bike_id": "ded6f35b90b9cf8426c19118ba3b9d55", "lon": -77.04623233333334, "rental_uris": {"ios": "https://dc.lft.to/lastmile_qr_scan", "android": "https://dc.lft.to/lastmile_qr_scan"}}, {"name": "4da0befddb4f6d3547d3cba4bff76c77", "fusion_lat": 0.0, "type": "electric_scooter", "lat": 38.905453, "is_reserved": 0, "is_disabled": 0, "fusion_lon": 0.0, "bike_id": "4da0befddb4f6d3547d3cba4bff76c77", "lon": -77.04561933333333, "rental_uris": {"ios": "https://dc.lft.to/lastmile_qr_scan", "android": "https://dc.lft.to/lastmile_qr_scan"}}, {"name": "231173fb594fcd1d3399703f0a95dd88", "fusion_lat": 0.0, "type": "electric_scooter", "lat": 38.921830666666665, "is_reserved": 0, "is_disabled": 0, "fusion_lon": 0.0, "bike_id": "231173fb594fcd1d3399703f0a95dd88", "lon": -77.0428205, "rental_uris": {"ios": "https://dc.lft.to/lastmile_qr_scan", "android": "https://dc.lft.to/lastmile_qr_scan"}}, {"name": "ce5b5326e34e00f570fa42c0b0f99b82", "fusion_lat": 0.0, "type": "electric_scooter", "lat": 38.907394, "is_reserved": 0, "is_disabled": 0, "fusion_lon": 0.0, "bike_id": "ce5b5326e34e00f570fa42c0b0f99b82", "lon": -77.02690716666666, "rental_uris": {"ios": "https://dc.lft.to/lastmile_qr_scan", "android": "https://dc.lft.to/lastmile_qr_scan"}}, {"name": "48f9983011c3a42c413754132f15fdec", "fusion_lat": 0.0, "type": "electric_scooter", "lat": 38.918153, "is_reserved": 0, "is_disabled": 0, "fusion_lon": 0.0, "bike_id": "48f9983011c3a42c413754132f15fdec", "lon": -77.025044, "rental_uris": {"ios": "https://dc.lft.to/lastmile_qr_scan", "android": "https://dc.lft.to/lastmile_qr_scan"}}, {"name": "a7e991609b01c4f17ba7bf0e9281e686", "fusion_lat": 0.0, "type": "electric_scooter", "lat": 38.910172333333335, "is_reserved": 0, "is_disabled": 0, "fusion_lon": 0.0, "bike_id": "a7e991609b01c4f17ba7bf0e9281e686", "lon": -77.04868583333334, "rental_uris": {"ios": "https://dc.lft.to/lastmile_qr_scan", "android": "https://dc.lft.to/lastmile_qr_scan"}}, {"name": "af2fcdcc08fd07406c01dee3a50b56a1", "fusion_lat": 0.0, "type": "electric_scooter", "lat": 38.931929333333336, "is_reserved": 0, "is_disabled": 0, "fusion_lon": 0.0, "bike_id": "af2fcdcc08fd07406c01dee3a50b56a1", "lon": -77.03450483333333, "rental_uris": {"ios": "https://dc.lft.to/lastmile_qr_scan", "android": "https://dc.lft.to/lastmile_qr_scan"}}, {"name": "7bdf46d4cbf61ccf3d722151ee8e9366", "fusion_lat": 0.0, "type": "electric_scooter", "lat": 38.89758966666667, "is_reserved": 0, "is_disabled": 0, "fusion_lon": 0.0, "bike_id": "7bdf46d4cbf61ccf3d722151ee8e9366", "lon": -77.03167533333334, "rental_uris": {"ios": "https://dc.lft.to/lastmile_qr_scan", "android": "https://dc.lft.to/lastmile_qr_scan"}}, {"name": "251df2f16bb48121741c47f840801506", "fusion_lat": 0.0, "type": "electric_scooter", "lat": 38.919290833333335, "is_reserved": 0, "is_disabled": 0, "fusion_lon": 0.0, "bike_id": "251df2f16bb48121741c47f840801506", "lon": -77.0240435, "rental_uris": {"ios": "https://dc.lft.to/lastmile_qr_scan", "android": "https://dc.lft.to/lastmile_qr_scan"}}, {"name": "d33e79551c76cec780ad8cccfce6ea44", "fusion_lat": 0.0, "type": "electric_scooter", "lat": 38.90558, "is_reserved": 0, "is_disabled": 0, "fusion_lon": 0.0, "bike_id": "d33e79551c76cec780ad8cccfce6ea44", "lon": -77.03234166666667, "rental_uris": {"ios": "https://dc.lft.to/lastmile_qr_scan", "android": "https://dc.lft.to/lastmile_qr_scan"}}, {"name": "802dad09f1cf1a34775fa3e7047ecae8", "fusion_lat": 0.0, "type": "electric_scooter", "lat": 38.9331465, "is_reserved": 0, "is_disabled": 0, "fusion_lon": 0.0, "bike_id": "802dad09f1cf1a34775fa3e7047ecae8", "lon": -77.03441483333333, "rental_uris": {"ios": "https://dc.lft.to/lastmile_qr_scan", "android": "https://dc.lft.to/lastmile_qr_scan"}}, {"name": "b4c3add72c6fae2a775504dfefe350dc", "fusion_lat": 0.0, "type": "electric_scooter", "lat": 38.94960183333333, "is_reserved": 0, "is_disabled": 0, "fusion_lon": 0.0, "bike_id": "b4c3add72c6fae2a775504dfefe350dc", "lon": -77.0272565, "rental_uris": {"ios": "https://dc.lft.to/lastmile_qr_scan", "android": "https://dc.lft.to/lastmile_qr_scan"}}, {"name": "044406fe4dd8512a3477b55e1bdde1bb", "fusion_lat": 0.0, "type": "electric_scooter", "lat": 38.900891666666666, "is_reserved": 0, "is_disabled": 0, "fusion_lon": 0.0, "bike_id": "044406fe4dd8512a3477b55e1bdde1bb", "lon": -77.02447316666667, "rental_uris": {"ios": "https://dc.lft.to/lastmile_qr_scan", "android": "https://dc.lft.to/lastmile_qr_scan"}}, {"name": "8be6f4b0f68be14ad506cb76e7365294", "fusion_lat": 0.0, "type": "electric_scooter", "lat": 38.890862166666665, "is_reserved": 0, "is_disabled": 0, "fusion_lon": 0.0, "bike_id": "8be6f4b0f68be14ad506cb76e7365294", "lon": -76.99142066666667, "rental_uris": {"ios": "https://dc.lft.to/lastmile_qr_scan", "android": "https://dc.lft.to/lastmile_qr_scan"}}, {"name": "48d674f51787834347fc5667a7b90188", "fusion_lat": 0.0, "type": "electric_scooter", "lat": 38.90985033333333, "is_reserved": 0, "is_disabled": 0, "fusion_lon": 0.0, "bike_id": "48d674f51787834347fc5667a7b90188", "lon": -77.04874766666667, "rental_uris": {"ios": "https://dc.lft.to/lastmile_qr_scan", "android": "https://dc.lft.to/lastmile_qr_scan"}}, {"name": "476d348220934cd8260297034ad93d1d", "fusion_lat": 0.0, "type": "electric_scooter", "lat": 38.90792066666667, "is_reserved": 0, "is_disabled": 0, "fusion_lon": 0.0, "bike_id": "476d348220934cd8260297034ad93d1d", "lon": -77.03849483333333, "rental_uris": {"ios": "https://dc.lft.to/lastmile_qr_scan", "android": "https://dc.lft.to/lastmile_qr_scan"}}, {"name": "733e726791d3ac9733a73e6402c8a8ce", "fusion_lat": 0.0, "type": "electric_scooter", "lat": 38.939631166666665, "is_reserved": 0, "is_disabled": 0, "fusion_lon": 0.0, "bike_id": "733e726791d3ac9733a73e6402c8a8ce", "lon": -77.02752033333333, "rental_uris": {"ios": "https://dc.lft.to/lastmile_qr_scan", "android": "https://dc.lft.to/lastmile_qr_scan"}}, {"name": "030ac947fc3e57e3d64233c041d78518", "fusion_lat": 0.0, "type": "electric_scooter", "lat": 38.89296433333333, "is_reserved": 0, "is_disabled": 0, "fusion_lon": 0.0, "bike_id": "030ac947fc3e57e3d64233c041d78518", "lon": -76.9392615, "rental_uris": {"ios": "https://dc.lft.to/lastmile_qr_scan", "android": "https://dc.lft.to/lastmile_qr_scan"}}, {"name": "6443af84d9572ad324b833ca038b7fc6", "fusion_lat": 0.0, "type": "electric_scooter", "lat": 38.9261465, "is_reserved": 0, "is_disabled": 0, "fusion_lon": 0.0, "bike_id": "6443af84d9572ad324b833ca038b7fc6", "lon": -77.021612, "rental_uris": {"ios": "https://dc.lft.to/lastmile_qr_scan", "android": "https://dc.lft.to/lastmile_qr_scan"}}, {"name": "88f820d3ef9280448036f4faa873b266", "fusion_lat": 0.0, "type": "electric_bike", "lat": 38.832357, "is_reserved": 0, "is_disabled": 0, "fusion_lon": 0.0, "bike_id": "88f820d3ef9280448036f4faa873b266", "lon": -76.94617383333333, "rental_uris": {"ios": "https://dc.lft.to/lastmile_qr_scan", "android": "https://dc.lft.to/lastmile_qr_scan"}}, {"name": "b8e18055a37a7ba9b5af80be473ea12a", "fusion_lat": 0.0, "type": "electric_scooter", "lat": 38.9091105, "is_reserved": 0, "is_disabled": 0, "fusion_lon": 0.0, "bike_id": "b8e18055a37a7ba9b5af80be473ea12a", "lon": -77.03195033333333, "rental_uris": {"ios": "https://dc.lft.to/lastmile_qr_scan", "android": "https://dc.lft.to/lastmile_qr_scan"}}, {"name": "1877d7e47b3d2a455d3b8de4b8db773c", "fusion_lat": 0.0, "type": "electric_scooter", "lat": 38.90161283333333, "is_reserved": 0, "is_disabled": 0, "fusion_lon": 0.0, "bike_id": "1877d7e47b3d2a455d3b8de4b8db773c", "lon": -76.98076033333334, "rental_uris": {"ios": "https://dc.lft.to/lastmile_qr_scan", "android": "https://dc.lft.to/lastmile_qr_scan"}}, {"name": "73a4e573afbefd6de5655b74bd5380ac", "fusion_lat": 0.0, "type": "electric_scooter", "lat": 38.9348965, "is_reserved": 0, "is_disabled": 0, "fusion_lon": 0.0, "bike_id": "73a4e573afbefd6de5655b74bd5380ac", "lon": -77.03386816666666, "rental_uris": {"ios": "https://dc.lft.to/lastmile_qr_scan", "android": "https://dc.lft.to/lastmile_qr_scan"}}, {"name": "43fa6724b3efaa5b62f76815fa158c60", "fusion_lat": 0.0, "type": "electric_scooter", "lat": 38.917498, "is_reserved": 0, "is_disabled": 0, "fusion_lon": 0.0, "bike_id": "43fa6724b3efaa5b62f76815fa158c60", "lon": -77.04151816666666, "rental_uris": {"ios": "https://dc.lft.to/lastmile_qr_scan", "android": "https://dc.lft.to/lastmile_qr_scan"}}, {"name": "fc92dc0c5aff79438c1e1b8ba977aa8e", "fusion_lat": 0.0, "type": "electric_scooter", "lat": 38.915439166666665, "is_reserved": 0, "is_disabled": 0, "fusion_lon": 0.0, "bike_id": "fc92dc0c5aff79438c1e1b8ba977aa8e", "lon": -77.03856483333334, "rental_uris": {"ios": "https://dc.lft.to/lastmile_qr_scan", "android": "https://dc.lft.to/lastmile_qr_scan"}}, {"name": "4864c1fdba95b1318ac904657980c347", "fusion_lat": 0.0, "type": "electric_scooter", "lat": 38.92153783333333, "is_reserved": 0, "is_disabled": 0, "fusion_lon": 0.0, "bike_id": "4864c1fdba95b1318ac904657980c347", "lon": -77.03384566666666, "rental_uris": {"ios": "https://dc.lft.to/lastmile_qr_scan", "android": "https://dc.lft.to/lastmile_qr_scan"}}, {"name": "b60295a89dac705f67347940a62ff544", "fusion_lat": 0.0, "type": "electric_scooter", "lat": 38.9002565, "is_reserved": 0, "is_disabled": 0, "fusion_lon": 0.0, "bike_id": "b60295a89dac705f67347940a62ff544", "lon": -77.009085, "rental_uris": {"ios": "https://dc.lft.to/lastmile_qr_scan", "android": "https://dc.lft.to/lastmile_qr_scan"}}, {"name": "a88e3b84e13b4044555132df0a3312f9", "fusion_lat": 0.0, "type": "electric_scooter", "lat": 38.90039766666666, "is_reserved": 0, "is_disabled": 0, "fusion_lon": 0.0, "bike_id": "a88e3b84e13b4044555132df0a3312f9", "lon": -77.0402995, "rental_uris": {"ios": "https://dc.lft.to/lastmile_qr_scan", "android": "https://dc.lft.to/lastmile_qr_scan"}}, {"name": "0587763735a1625d54644d4a32e9e1fd", "fusion_lat": 0.0, "type": "electric_scooter", "lat": 38.921683, "is_reserved": 0, "is_disabled": 0, "fusion_lon": 0.0, "bike_id": "0587763735a1625d54644d4a32e9e1fd", "lon": -77.0338465, "rental_uris": {"ios": "https://dc.lft.to/lastmile_qr_scan", "android": "https://dc.lft.to/lastmile_qr_scan"}}, {"name": "d7011cb589b9bf052d78efbc66a0e349", "fusion_lat": 0.0, "type": "electric_bike", "lat": 38.92846383333333, "is_reserved": 0, "is_disabled": 0, "fusion_lon": 0.0, "bike_id": "d7011cb589b9bf052d78efbc66a0e349", "lon": -77.020551, "rental_uris": {"ios": "https://dc.lft.to/lastmile_qr_scan", "android": "https://dc.lft.to/lastmile_qr_scan"}}, {"name": "9b270e990861c555ceda44f41725d560", "fusion_lat": 0.0, "type": "electric_scooter", "lat": 38.93093966666667, "is_reserved": 0, "is_disabled": 0, "fusion_lon": 0.0, "bike_id": "9b270e990861c555ceda44f41725d560", "lon": -77.0248575, "rental_uris": {"ios": "https://dc.lft.to/lastmile_qr_scan", "android": "https://dc.lft.to/lastmile_qr_scan"}}, {"name": "dad6aac2b0fc9286b9520c75b56aa379", "fusion_lat": 0.0, "type": "electric_scooter", "lat": 38.902373833333336, "is_reserved": 0, "is_disabled": 0, "fusion_lon": 0.0, "bike_id": "dad6aac2b0fc9286b9520c75b56aa379", "lon": -77.0197585, "rental_uris": {"ios": "https://dc.lft.to/lastmile_qr_scan", "android": "https://dc.lft.to/lastmile_qr_scan"}}, {"name": "c032a777074824ae176af8bb838a559f", "fusion_lat": 0.0, "type": "electric_scooter", "lat": 38.937311, "is_reserved": 0, "is_disabled": 0, "fusion_lon": 0.0, "bike_id": "c032a777074824ae176af8bb838a559f", "lon": -77.0328035, "rental_uris": {"ios": "https://dc.lft.to/lastmile_qr_scan", "android": "https://dc.lft.to/lastmile_qr_scan"}}, {"name": "754f17b1f88193737f7b4f5776a56118", "fusion_lat": 0.0, "type": "electric_scooter", "lat": 38.912943166666665, "is_reserved": 0, "is_disabled": 0, "fusion_lon": 0.0, "bike_id": "754f17b1f88193737f7b4f5776a56118", "lon": -77.0611715, "rental_uris": {"ios": "https://dc.lft.to/lastmile_qr_scan", "android": "https://dc.lft.to/lastmile_qr_scan"}}, {"name": "9124865764789f43c95caf2e6a1c914f", "fusion_lat": 0.0, "type": "electric_scooter", "lat": 38.87719766666667, "is_reserved": 0, "is_disabled": 0, "fusion_lon": 0.0, "bike_id": "9124865764789f43c95caf2e6a1c914f", "lon": -76.993852, "rental_uris": {"ios": "https://dc.lft.to/lastmile_qr_scan", "android": "https://dc.lft.to/lastmile_qr_scan"}}, {"name": "e49b9e4404e795ead9f7eb006992af29", "fusion_lat": 0.0, "type": "electric_scooter", "lat": 38.907228833333335, "is_reserved": 0, "is_disabled": 0, "fusion_lon": 0.0, "bike_id": "e49b9e4404e795ead9f7eb006992af29", "lon": -77.04341766666667, "rental_uris": {"ios": "https://dc.lft.to/lastmile_qr_scan", "android": "https://dc.lft.to/lastmile_qr_scan"}}, {"name": "fbecffca0f47c57f3641b8e14fbf1c22", "fusion_lat": 0.0, "type": "electric_scooter", "lat": 38.905466, "is_reserved": 0, "is_disabled": 0, "fusion_lon": 0.0, "bike_id": "fbecffca0f47c57f3641b8e14fbf1c22", "lon": -77.0524125, "rental_uris": {"ios": "https://dc.lft.to/lastmile_qr_scan", "android": "https://dc.lft.to/lastmile_qr_scan"}}, {"name": "7065ecffd4c9cc5fdfe74f2fb5c76b22", "fusion_lat": 0.0, "type": "electric_scooter", "lat": 38.90245083333333, "is_reserved": 0, "is_disabled": 0, "fusion_lon": 0.0, "bike_id": "7065ecffd4c9cc5fdfe74f2fb5c76b22", "lon": -77.026447, "rental_uris": {"ios": "https://dc.lft.to/lastmile_qr_scan", "android": "https://dc.lft.to/lastmile_qr_scan"}}, {"name": "8c6cb97df9825cf9c60b963149bf9b16", "fusion_lat": 0.0, "type": "electric_scooter", "lat": 38.90725416666667, "is_reserved": 0, "is_disabled": 0, "fusion_lon": 0.0, "bike_id": "8c6cb97df9825cf9c60b963149bf9b16", "lon": -77.010647, "rental_uris": {"ios": "https://dc.lft.to/lastmile_qr_scan", "android": "https://dc.lft.to/lastmile_qr_scan"}}, {"name": "6dee2bc3ae4c49c980b842983258d1f6", "fusion_lat": 0.0, "type": "electric_scooter", "lat": 38.92244816666667, "is_reserved": 0, "is_disabled": 0, "fusion_lon": 0.0, "bike_id": "6dee2bc3ae4c49c980b842983258d1f6", "lon": -77.03075383333334, "rental_uris": {"ios": "https://dc.lft.to/lastmile_qr_scan", "android": "https://dc.lft.to/lastmile_qr_scan"}}, {"name": "7c62550e5afc788a94bab235ed6a5a5a", "fusion_lat": 0.0, "type": "electric_scooter", "lat": 38.86249216666667, "is_reserved": 0, "is_disabled": 0, "fusion_lon": 0.0, "bike_id": "7c62550e5afc788a94bab235ed6a5a5a", "lon": -76.9953195, "rental_uris": {"ios": "https://dc.lft.to/lastmile_qr_scan", "android": "https://dc.lft.to/lastmile_qr_scan"}}, {"name": "f51a48ab43c9253e94ebee94861d4f6f", "fusion_lat": 0.0, "type": "electric_scooter", "lat": 38.942501166666666, "is_reserved": 0, "is_disabled": 0, "fusion_lon": 0.0, "bike_id": "f51a48ab43c9253e94ebee94861d4f6f", "lon": -77.0413465, "rental_uris": {"ios": "https://dc.lft.to/lastmile_qr_scan", "android": "https://dc.lft.to/lastmile_qr_scan"}}, {"name": "35b2264176ed9e24ae8e1e78242079b7", "fusion_lat": 0.0, "type": "electric_scooter", "lat": 38.9095715, "is_reserved": 0, "is_disabled": 0, "fusion_lon": 0.0, "bike_id": "35b2264176ed9e24ae8e1e78242079b7", "lon": -77.03864483333334, "rental_uris": {"ios": "https://dc.lft.to/lastmile_qr_scan", "android": "https://dc.lft.to/lastmile_qr_scan"}}, {"name": "13aac279e2aa97dd306a725482f9595a", "fusion_lat": 0.0, "type": "electric_scooter", "lat": 38.938990833333335, "is_reserved": 0, "is_disabled": 0, "fusion_lon": 0.0, "bike_id": "13aac279e2aa97dd306a725482f9595a", "lon": -77.03282333333334, "rental_uris": {"ios": "https://dc.lft.to/lastmile_qr_scan", "android": "https://dc.lft.to/lastmile_qr_scan"}}, {"name": "94433c90f8c03d678c851586902b42dd", "fusion_lat": 0.0, "type": "electric_scooter", "lat": 38.872893833333336, "is_reserved": 0, "is_disabled": 0, "fusion_lon": 0.0, "bike_id": "94433c90f8c03d678c851586902b42dd", "lon": -77.00987816666667, "rental_uris": {"ios": "https://dc.lft.to/lastmile_qr_scan", "android": "https://dc.lft.to/lastmile_qr_scan"}}, {"name": "fb02266df20d18b47e6938b86048588b", "fusion_lat": 0.0, "type": "electric_scooter", "lat": 38.9037875, "is_reserved": 0, "is_disabled": 0, "fusion_lon": 0.0, "bike_id": "fb02266df20d18b47e6938b86048588b", "lon": -77.0428555, "rental_uris": {"ios": "https://dc.lft.to/lastmile_qr_scan", "android": "https://dc.lft.to/lastmile_qr_scan"}}, {"name": "bb450fa91327b66005a3591d437668f4", "fusion_lat": 0.0, "type": "electric_scooter", "lat": 38.908479, "is_reserved": 0, "is_disabled": 0, "fusion_lon": 0.0, "bike_id": "bb450fa91327b66005a3591d437668f4", "lon": -77.03177433333333, "rental_uris": {"ios": "https://dc.lft.to/lastmile_qr_scan", "android": "https://dc.lft.to/lastmile_qr_scan"}}, {"name": "667225f2b42064fbe3f7ff7996de6634", "fusion_lat": 0.0, "type": "electric_scooter", "lat": 38.909377666666664, "is_reserved": 0, "is_disabled": 0, "fusion_lon": 0.0, "bike_id": "667225f2b42064fbe3f7ff7996de6634", "lon": -77.046627, "rental_uris": {"ios": "https://dc.lft.to/lastmile_qr_scan", "android": "https://dc.lft.to/lastmile_qr_scan"}}, {"name": "646e3b3a98761fa8d13e91966e4fbb56", "fusion_lat": 0.0, "type": "electric_scooter", "lat": 38.911799333333335, "is_reserved": 0, "is_disabled": 0, "fusion_lon": 0.0, "bike_id": "646e3b3a98761fa8d13e91966e4fbb56", "lon": -77.04154283333334, "rental_uris": {"ios": "https://dc.lft.to/lastmile_qr_scan", "android": "https://dc.lft.to/lastmile_qr_scan"}}, {"name": "3501de1f2f863f60d3adf623fe8f417c", "fusion_lat": 0.0, "type": "electric_bike", "lat": 38.993333166666666, "is_reserved": 0, "is_disabled": 0, "fusion_lon": 0.0, "bike_id": "3501de1f2f863f60d3adf623fe8f417c", "lon": -77.02673933333334, "rental_uris": {"ios": "https://dc.lft.to/lastmile_qr_scan", "android": "https://dc.lft.to/lastmile_qr_scan"}}, {"name": "db84047d3b20e8e10071d235805a017a", "fusion_lat": 0.0, "type": "electric_scooter", "lat": 38.93700916666667, "is_reserved": 0, "is_disabled": 0, "fusion_lon": 0.0, "bike_id": "db84047d3b20e8e10071d235805a017a", "lon": -77.02410416666666, "rental_uris": {"ios": "https://dc.lft.to/lastmile_qr_scan", "android": "https://dc.lft.to/lastmile_qr_scan"}}, {"name": "2a775f9823e4ede9697ace005bbf84b2", "fusion_lat": 0.0, "type": "electric_scooter", "lat": 38.89882816666667, "is_reserved": 0, "is_disabled": 0, "fusion_lon": 0.0, "bike_id": "2a775f9823e4ede9697ace005bbf84b2", "lon": -77.03338133333334, "rental_uris": {"ios": "https://dc.lft.to/lastmile_qr_scan", "android": "https://dc.lft.to/lastmile_qr_scan"}}, {"name": "fe5650865948edc92e12e954bab7b61c", "fusion_lat": 0.0, "type": "electric_scooter", "lat": 38.9356515, "is_reserved": 0, "is_disabled": 0, "fusion_lon": 0.0, "bike_id": "fe5650865948edc92e12e954bab7b61c", "lon": -77.02134666666667, "rental_uris": {"ios": "https://dc.lft.to/lastmile_qr_scan", "android": "https://dc.lft.to/lastmile_qr_scan"}}, {"name": "8cb75b3ca6f5ebcb7a756f433c842a94", "fusion_lat": 0.0, "type": "electric_scooter", "lat": 38.94462566666667, "is_reserved": 0, "is_disabled": 0, "fusion_lon": 0.0, "bike_id": "8cb75b3ca6f5ebcb7a756f433c842a94", "lon": -77.006571, "rental_uris": {"ios": "https://dc.lft.to/lastmile_qr_scan", "android": "https://dc.lft.to/lastmile_qr_scan"}}, {"name": "0c0dcf4d9b96115e35c3e3d1f685ebc0", "fusion_lat": 0.0, "type": "electric_scooter", "lat": 38.93110866666667, "is_reserved": 0, "is_disabled": 0, "fusion_lon": 0.0, "bike_id": "0c0dcf4d9b96115e35c3e3d1f685ebc0", "lon": -77.02403266666667, "rental_uris": {"ios": "https://dc.lft.to/lastmile_qr_scan", "android": "https://dc.lft.to/lastmile_qr_scan"}}, {"name": "0f3e0dcce36d2a5dee4f2ba9ff996801", "fusion_lat": 0.0, "type": "electric_scooter", "lat": 38.909602166666666, "is_reserved": 0, "is_disabled": 0, "fusion_lon": 0.0, "bike_id": "0f3e0dcce36d2a5dee4f2ba9ff996801", "lon": -77.02681966666667, "rental_uris": {"ios": "https://dc.lft.to/lastmile_qr_scan", "android": "https://dc.lft.to/lastmile_qr_scan"}}, {"name": "3d58a4df5febba70c3167b6f1e9d5784", "fusion_lat": 0.0, "type": "electric_bike", "lat": 38.8976615, "is_reserved": 0, "is_disabled": 0, "fusion_lon": 0.0, "bike_id": "3d58a4df5febba70c3167b6f1e9d5784", "lon": -76.90430216666667, "rental_uris": {"ios": "https://dc.lft.to/lastmile_qr_scan", "android": "https://dc.lft.to/lastmile_qr_scan"}}, {"name": "0496be8f007d009bee16a781d6c8456e", "fusion_lat": 0.0, "type": "electric_scooter", "lat": 38.895907333333334, "is_reserved": 0, "is_disabled": 0, "fusion_lon": 0.0, "bike_id": "0496be8f007d009bee16a781d6c8456e", "lon": -77.05097783333333, "rental_uris": {"ios": "https://dc.lft.to/lastmile_qr_scan", "android": "https://dc.lft.to/lastmile_qr_scan"}}, {"name": "78940722dc111656254d10a5e5764e0b", "fusion_lat": 0.0, "type": "electric_scooter", "lat": 38.905316, "is_reserved": 0, "is_disabled": 0, "fusion_lon": 0.0, "bike_id": "78940722dc111656254d10a5e5764e0b", "lon": -77.06230083333334, "rental_uris": {"ios": "https://dc.lft.to/lastmile_qr_scan", "android": "https://dc.lft.to/lastmile_qr_scan"}}, {"name": "27e009a82bfa11399022f554f95e01a5", "fusion_lat": 0.0, "type": "electric_bike", "lat": 38.8194, "is_reserved": 0, "is_disabled": 0, "fusion_lon": 0.0, "bike_id": "27e009a82bfa11399022f554f95e01a5", "lon": -77.00208366666666, "rental_uris": {"ios": "https://dc.lft.to/lastmile_qr_scan", "android": "https://dc.lft.to/lastmile_qr_scan"}}, {"name": "e2a164ad2334d79ba70a2fc29692b006", "fusion_lat": 0.0, "type": "electric_scooter", "lat": 38.935407166666664, "is_reserved": 0, "is_disabled": 0, "fusion_lon": 0.0, "bike_id": "e2a164ad2334d79ba70a2fc29692b006", "lon": -77.08202766666666, "rental_uris": {"ios": "https://dc.lft.to/lastmile_qr_scan", "android": "https://dc.lft.to/lastmile_qr_scan"}}, {"name": "9e3b83067f34afc8f607794064e44a4b", "fusion_lat": 0.0, "type": "electric_scooter", "lat": 38.907342, "is_reserved": 0, "is_disabled": 0, "fusion_lon": 0.0, "bike_id": "9e3b83067f34afc8f607794064e44a4b", "lon": -77.02960316666666, "rental_uris": {"ios": "https://dc.lft.to/lastmile_qr_scan", "android": "https://dc.lft.to/lastmile_qr_scan"}}, {"name": "773e05c9fa2ff5fc766ee72603e252a8", "fusion_lat": 0.0, "type": "electric_scooter", "lat": 38.90568616666667, "is_reserved": 0, "is_disabled": 0, "fusion_lon": 0.0, "bike_id": "773e05c9fa2ff5fc766ee72603e252a8", "lon": -77.04498916666667, "rental_uris": {"ios": "https://dc.lft.to/lastmile_qr_scan", "android": "https://dc.lft.to/lastmile_qr_scan"}}, {"name": "42428b701bf1a9d615d1eb2f5386b3d8", "fusion_lat": 0.0, "type": "electric_scooter", "lat": 38.89503416666667, "is_reserved": 0, "is_disabled": 0, "fusion_lon": 0.0, "bike_id": "42428b701bf1a9d615d1eb2f5386b3d8", "lon": -77.0201845, "rental_uris": {"ios": "https://dc.lft.to/lastmile_qr_scan", "android": "https://dc.lft.to/lastmile_qr_scan"}}, {"name": "857a523203be1bd7869eff4945deef33", "fusion_lat": 0.0, "type": "electric_scooter", "lat": 38.88413583333333, "is_reserved": 0, "is_disabled": 0, "fusion_lon": 0.0, "bike_id": "857a523203be1bd7869eff4945deef33", "lon": -76.9760515, "rental_uris": {"ios": "https://dc.lft.to/lastmile_qr_scan", "android": "https://dc.lft.to/lastmile_qr_scan"}}, {"name": "f6a85db8db5cea77aba67c48d3f54b48", "fusion_lat": 0.0, "type": "electric_scooter", "lat": 38.9180555, "is_reserved": 0, "is_disabled": 0, "fusion_lon": 0.0, "bike_id": "f6a85db8db5cea77aba67c48d3f54b48", "lon": -77.0321015, "rental_uris": {"ios": "https://dc.lft.to/lastmile_qr_scan", "android": "https://dc.lft.to/lastmile_qr_scan"}}, {"name": "1c9d1248b4e9c81b93c99e8e71532b09", "fusion_lat": 0.0, "type": "electric_scooter", "lat": 38.917574333333334, "is_reserved": 0, "is_disabled": 0, "fusion_lon": 0.0, "bike_id": "1c9d1248b4e9c81b93c99e8e71532b09", "lon": -77.014989, "rental_uris": {"ios": "https://dc.lft.to/lastmile_qr_scan", "android": "https://dc.lft.to/lastmile_qr_scan"}}, {"name": "b6abe2f233fb388b399d70a7f10977da", "fusion_lat": 0.0, "type": "electric_bike", "lat": 38.9172005, "is_reserved": 0, "is_disabled": 0, "fusion_lon": 0.0, "bike_id": "b6abe2f233fb388b399d70a7f10977da", "lon": -76.988721, "rental_uris": {"ios": "https://dc.lft.to/lastmile_qr_scan", "android": "https://dc.lft.to/lastmile_qr_scan"}}, {"name": "118a316132fa943f016ceed7f908a6a6", "fusion_lat": 0.0, "type": "electric_scooter", "lat": 38.903244666666666, "is_reserved": 0, "is_disabled": 0, "fusion_lon": 0.0, "bike_id": "118a316132fa943f016ceed7f908a6a6", "lon": -77.053329, "rental_uris": {"ios": "https://dc.lft.to/lastmile_qr_scan", "android": "https://dc.lft.to/lastmile_qr_scan"}}, {"name": "9944e66242bacdee83b402f9e0b4db86", "fusion_lat": 0.0, "type": "electric_bike", "lat": 38.9653985, "is_reserved": 0, "is_disabled": 0, "fusion_lon": 0.0, "bike_id": "9944e66242bacdee83b402f9e0b4db86", "lon": -77.03516566666667, "rental_uris": {"ios": "https://dc.lft.to/lastmile_qr_scan", "android": "https://dc.lft.to/lastmile_qr_scan"}}, {"name": "e3c23004d2a34dc06e9215e4ba67fdfe", "fusion_lat": 0.0, "type": "electric_bike", "lat": 38.863643833333334, "is_reserved": 0, "is_disabled": 0, "fusion_lon": 0.0, "bike_id": "e3c23004d2a34dc06e9215e4ba67fdfe", "lon": -76.97003033333333, "rental_uris": {"ios": "https://dc.lft.to/lastmile_qr_scan", "android": "https://dc.lft.to/lastmile_qr_scan"}}, {"name": "41ddad1c7843a655707bf3be9e1abdfc", "fusion_lat": 0.0, "type": "electric_scooter", "lat": 38.91545516666667, "is_reserved": 0, "is_disabled": 0, "fusion_lon": 0.0, "bike_id": "41ddad1c7843a655707bf3be9e1abdfc", "lon": -77.03858133333334, "rental_uris": {"ios": "https://dc.lft.to/lastmile_qr_scan", "android": "https://dc.lft.to/lastmile_qr_scan"}}, {"name": "9a786e4cdd2b52f03839de45f4ed9f99", "fusion_lat": 0.0, "type": "electric_scooter", "lat": 38.942039, "is_reserved": 0, "is_disabled": 0, "fusion_lon": 0.0, "bike_id": "9a786e4cdd2b52f03839de45f4ed9f99", "lon": -77.0251455, "rental_uris": {"ios": "https://dc.lft.to/lastmile_qr_scan", "android": "https://dc.lft.to/lastmile_qr_scan"}}, {"name": "62112ef0c1b3cd0d29dfa38bacb985ef", "fusion_lat": 0.0, "type": "electric_scooter", "lat": 38.93701933333333, "is_reserved": 0, "is_disabled": 0, "fusion_lon": 0.0, "bike_id": "62112ef0c1b3cd0d29dfa38bacb985ef", "lon": -77.06100983333333, "rental_uris": {"ios": "https://dc.lft.to/lastmile_qr_scan", "android": "https://dc.lft.to/lastmile_qr_scan"}}, {"name": "c65cffa882ff11a9fbd0390c96281e08", "fusion_lat": 0.0, "type": "electric_bike", "lat": 38.999099, "is_reserved": 0, "is_disabled": 0, "fusion_lon": 0.0, "bike_id": "c65cffa882ff11a9fbd0390c96281e08", "lon": -77.0461715, "rental_uris": {"ios": "https://dc.lft.to/lastmile_qr_scan", "android": "https://dc.lft.to/lastmile_qr_scan"}}, {"name": "99ec50b85f499a9b8f5363d812049b24", "fusion_lat": 0.0, "type": "electric_scooter", "lat": 38.90728633333333, "is_reserved": 0, "is_disabled": 0, "fusion_lon": 0.0, "bike_id": "99ec50b85f499a9b8f5363d812049b24", "lon": -77.0344815, "rental_uris": {"ios": "https://dc.lft.to/lastmile_qr_scan", "android": "https://dc.lft.to/lastmile_qr_scan"}}, {"name": "42eb6b041cc5ccd22949c998135859f4", "fusion_lat": 0.0, "type": "electric_bike", "lat": 38.84572433333334, "is_reserved": 0, "is_disabled": 0, "fusion_lon": 0.0, "bike_id": "42eb6b041cc5ccd22949c998135859f4", "lon": -77.09623816666667, "rental_uris": {"ios": "https://dc.lft.to/lastmile_qr_scan", "android": "https://dc.lft.to/lastmile_qr_scan"}}, {"name": "dfc73a8f90f615ed3a35e0a34a7d9ee4", "fusion_lat": 0.0, "type": "electric_scooter", "lat": 38.9110775, "is_reserved": 0, "is_disabled": 0, "fusion_lon": 0.0, "bike_id": "dfc73a8f90f615ed3a35e0a34a7d9ee4", "lon": -77.04478, "rental_uris": {"ios": "https://dc.lft.to/lastmile_qr_scan", "android": "https://dc.lft.to/lastmile_qr_scan"}}, {"name": "1b595d3f4350b54ff13c424020eff2ec", "fusion_lat": 0.0, "type": "electric_scooter", "lat": 38.892848, "is_reserved": 0, "is_disabled": 0, "fusion_lon": 0.0, "bike_id": "1b595d3f4350b54ff13c424020eff2ec", "lon": -77.02012666666667, "rental_uris": {"ios": "https://dc.lft.to/lastmile_qr_scan", "android": "https://dc.lft.to/lastmile_qr_scan"}}, {"name": "c7b1305d9f859a229229cf26d59ceab3", "fusion_lat": 0.0, "type": "electric_scooter", "lat": 38.898535333333335, "is_reserved": 0, "is_disabled": 0, "fusion_lon": 0.0, "bike_id": "c7b1305d9f859a229229cf26d59ceab3", "lon": -76.99034633333333, "rental_uris": {"ios": "https://dc.lft.to/lastmile_qr_scan", "android": "https://dc.lft.to/lastmile_qr_scan"}}, {"name": "08aef3eafeb0ab9de41f2ca7a16d507f", "fusion_lat": 0.0, "type": "electric_scooter", "lat": 38.961115666666664, "is_reserved": 0, "is_disabled": 0, "fusion_lon": 0.0, "bike_id": "08aef3eafeb0ab9de41f2ca7a16d507f", "lon": -77.0281205, "rental_uris": {"ios": "https://dc.lft.to/lastmile_qr_scan", "android": "https://dc.lft.to/lastmile_qr_scan"}}, {"name": "eb9e3db3ea7e5a2fd03cef1b57c5b338", "fusion_lat": 0.0, "type": "electric_scooter", "lat": 38.922286166666666, "is_reserved": 0, "is_disabled": 0, "fusion_lon": 0.0, "bike_id": "eb9e3db3ea7e5a2fd03cef1b57c5b338", "lon": -77.04716383333333, "rental_uris": {"ios": "https://dc.lft.to/lastmile_qr_scan", "android": "https://dc.lft.to/lastmile_qr_scan"}}, {"name": "85b74ab43430d90ad4f15a00e5e4f9b0", "fusion_lat": 0.0, "type": "electric_scooter", "lat": 38.898435, "is_reserved": 0, "is_disabled": 0, "fusion_lon": 0.0, "bike_id": "85b74ab43430d90ad4f15a00e5e4f9b0", "lon": -76.99270983333334, "rental_uris": {"ios": "https://dc.lft.to/lastmile_qr_scan", "android": "https://dc.lft.to/lastmile_qr_scan"}}, {"name": "48869728b30f9df2f4db149234061c94", "fusion_lat": 0.0, "type": "electric_scooter", "lat": 38.9302035, "is_reserved": 0, "is_disabled": 0, "fusion_lon": 0.0, "bike_id": "48869728b30f9df2f4db149234061c94", "lon": -77.023154, "rental_uris": {"ios": "https://dc.lft.to/lastmile_qr_scan", "android": "https://dc.lft.to/lastmile_qr_scan"}}, {"name": "1955244ff4e445c374633310f4fdfcde", "fusion_lat": 0.0, "type": "electric_scooter", "lat": 38.884301666666666, "is_reserved": 0, "is_disabled": 0, "fusion_lon": 0.0, "bike_id": "1955244ff4e445c374633310f4fdfcde", "lon": -77.03047833333333, "rental_uris": {"ios": "https://dc.lft.to/lastmile_qr_scan", "android": "https://dc.lft.to/lastmile_qr_scan"}}, {"name": "e76a2f012dd9e50993f5dbab89255445", "fusion_lat": 0.0, "type": "electric_scooter", "lat": 38.93253216666667, "is_reserved": 0, "is_disabled": 0, "fusion_lon": 0.0, "bike_id": "e76a2f012dd9e50993f5dbab89255445", "lon": -77.02380266666667, "rental_uris": {"ios": "https://dc.lft.to/lastmile_qr_scan", "android": "https://dc.lft.to/lastmile_qr_scan"}}, {"name": "7fabfd8e2115a1f14693dd9c03e88088", "fusion_lat": 0.0, "type": "electric_scooter", "lat": 38.907507333333335, "is_reserved": 0, "is_disabled": 0, "fusion_lon": 0.0, "bike_id": "7fabfd8e2115a1f14693dd9c03e88088", "lon": -77.0281205, "rental_uris": {"ios": "https://dc.lft.to/lastmile_qr_scan", "android": "https://dc.lft.to/lastmile_qr_scan"}}, {"name": "842af03896b0c8dcd4f43f048cfc2b81", "fusion_lat": 0.0, "type": "electric_scooter", "lat": 38.902899, "is_reserved": 0, "is_disabled": 0, "fusion_lon": 0.0, "bike_id": "842af03896b0c8dcd4f43f048cfc2b81", "lon": -77.04006583333333, "rental_uris": {"ios": "https://dc.lft.to/lastmile_qr_scan", "android": "https://dc.lft.to/lastmile_qr_scan"}}, {"name": "abb2e74bf7209d138ea4b8a760c7637f", "fusion_lat": 0.0, "type": "electric_scooter", "lat": 38.91720216666667, "is_reserved": 0, "is_disabled": 0, "fusion_lon": 0.0, "bike_id": "abb2e74bf7209d138ea4b8a760c7637f", "lon": -77.03836916666667, "rental_uris": {"ios": "https://dc.lft.to/lastmile_qr_scan", "android": "https://dc.lft.to/lastmile_qr_scan"}}, {"name": "4e135c701dd4aaebf30160b7034b48ff", "fusion_lat": 0.0, "type": "electric_scooter", "lat": 38.89733716666667, "is_reserved": 0, "is_disabled": 0, "fusion_lon": 0.0, "bike_id": "4e135c701dd4aaebf30160b7034b48ff", "lon": -77.04659083333334, "rental_uris": {"ios": "https://dc.lft.to/lastmile_qr_scan", "android": "https://dc.lft.to/lastmile_qr_scan"}}, {"name": "cd4ba618cc0bce6796b7511e20c95ddd", "fusion_lat": 0.0, "type": "electric_scooter", "lat": 38.89917966666667, "is_reserved": 0, "is_disabled": 0, "fusion_lon": 0.0, "bike_id": "cd4ba618cc0bce6796b7511e20c95ddd", "lon": -76.93382966666667, "rental_uris": {"ios": "https://dc.lft.to/lastmile_qr_scan", "android": "https://dc.lft.to/lastmile_qr_scan"}}, {"name": "47828c4ed771ef35eccc875486c2d063", "fusion_lat": 0.0, "type": "electric_scooter", "lat": 38.9233975, "is_reserved": 0, "is_disabled": 0, "fusion_lon": 0.0, "bike_id": "47828c4ed771ef35eccc875486c2d063", "lon": -77.035274, "rental_uris": {"ios": "https://dc.lft.to/lastmile_qr_scan", "android": "https://dc.lft.to/lastmile_qr_scan"}}, {"name": "239d6bbc6206ecf9462ef3b18a356e5c", "fusion_lat": 0.0, "type": "electric_bike", "lat": 38.8244655, "is_reserved": 0, "is_disabled": 0, "fusion_lon": 0.0, "bike_id": "239d6bbc6206ecf9462ef3b18a356e5c", "lon": -77.07049066666667, "rental_uris": {"ios": "https://dc.lft.to/lastmile_qr_scan", "android": "https://dc.lft.to/lastmile_qr_scan"}}, {"name": "d9e2268e6ad6b765669a1ef62ac8963c", "fusion_lat": 0.0, "type": "electric_bike", "lat": 38.8811335, "is_reserved": 0, "is_disabled": 0, "fusion_lon": 0.0, "bike_id": "d9e2268e6ad6b765669a1ef62ac8963c", "lon": -77.01649033333334, "rental_uris": {"ios": "https://dc.lft.to/lastmile_qr_scan", "android": "https://dc.lft.to/lastmile_qr_scan"}}, {"name": "9a56fcb4103b900e88dd91dd335494b8", "fusion_lat": 0.0, "type": "electric_scooter", "lat": 38.90159083333333, "is_reserved": 0, "is_disabled": 0, "fusion_lon": 0.0, "bike_id": "9a56fcb4103b900e88dd91dd335494b8", "lon": -77.02182166666667, "rental_uris": {"ios": "https://dc.lft.to/lastmile_qr_scan", "android": "https://dc.lft.to/lastmile_qr_scan"}}, {"name": "72b3da03d78c9814fc495f3dde224bc1", "fusion_lat": 0.0, "type": "electric_scooter", "lat": 38.92311683333333, "is_reserved": 0, "is_disabled": 0, "fusion_lon": 0.0, "bike_id": "72b3da03d78c9814fc495f3dde224bc1", "lon": -77.029772, "rental_uris": {"ios": "https://dc.lft.to/lastmile_qr_scan", "android": "https://dc.lft.to/lastmile_qr_scan"}}, {"name": "f1000e483465a80aeff938531ccc7df9", "fusion_lat": 0.0, "type": "electric_bike", "lat": 38.91867366666666, "is_reserved": 0, "is_disabled": 0, "fusion_lon": 0.0, "bike_id": "f1000e483465a80aeff938531ccc7df9", "lon": -76.96094416666666, "rental_uris": {"ios": "https://dc.lft.to/lastmile_qr_scan", "android": "https://dc.lft.to/lastmile_qr_scan"}}, {"name": "050314f60e49beeb56c94013dce7a794", "fusion_lat": 0.0, "type": "electric_scooter", "lat": 38.90319133333333, "is_reserved": 0, "is_disabled": 0, "fusion_lon": 0.0, "bike_id": "050314f60e49beeb56c94013dce7a794", "lon": -77.051705, "rental_uris": {"ios": "https://dc.lft.to/lastmile_qr_scan", "android": "https://dc.lft.to/lastmile_qr_scan"}}, {"name": "ffa4ca2092a46f46c5212c2bd8b4a5da", "fusion_lat": 0.0, "type": "electric_scooter", "lat": 38.8983915, "is_reserved": 0, "is_disabled": 0, "fusion_lon": 0.0, "bike_id": "ffa4ca2092a46f46c5212c2bd8b4a5da", "lon": -77.007477, "rental_uris": {"ios": "https://dc.lft.to/lastmile_qr_scan", "android": "https://dc.lft.to/lastmile_qr_scan"}}, {"name": "1ea5f0d983cf8933d08ecd6766108739", "fusion_lat": 0.0, "type": "electric_scooter", "lat": 38.865128, "is_reserved": 0, "is_disabled": 0, "fusion_lon": 0.0, "bike_id": "1ea5f0d983cf8933d08ecd6766108739", "lon": -76.97341733333333, "rental_uris": {"ios": "https://dc.lft.to/lastmile_qr_scan", "android": "https://dc.lft.to/lastmile_qr_scan"}}, {"name": "7acd758b44dc96d806ee28c0006cedaf", "fusion_lat": 0.0, "type": "electric_scooter", "lat": 38.883429, "is_reserved": 0, "is_disabled": 0, "fusion_lon": 0.0, "bike_id": "7acd758b44dc96d806ee28c0006cedaf", "lon": -77.03170033333333, "rental_uris": {"ios": "https://dc.lft.to/lastmile_qr_scan", "android": "https://dc.lft.to/lastmile_qr_scan"}}, {"name": "969b5f328293bfd8710bd641c927064f", "fusion_lat": 0.0, "type": "electric_scooter", "lat": 38.930818333333335, "is_reserved": 0, "is_disabled": 0, "fusion_lon": 0.0, "bike_id": "969b5f328293bfd8710bd641c927064f", "lon": -77.03401833333334, "rental_uris": {"ios": "https://dc.lft.to/lastmile_qr_scan", "android": "https://dc.lft.to/lastmile_qr_scan"}}, {"name": "60843fa39c1ce88dceffcb461460762e", "fusion_lat": 0.0, "type": "electric_bike", "lat": 38.85158083333334, "is_reserved": 0, "is_disabled": 0, "fusion_lon": 0.0, "bike_id": "60843fa39c1ce88dceffcb461460762e", "lon": -77.12876583333333, "rental_uris": {"ios": "https://dc.lft.to/lastmile_qr_scan", "android": "https://dc.lft.to/lastmile_qr_scan"}}, {"name": "704b17e478210eccc336366d76d1423e", "fusion_lat": 0.0, "type": "electric_bike", "lat": 38.93975533333333, "is_reserved": 0, "is_disabled": 0, "fusion_lon": 0.0, "bike_id": "704b17e478210eccc336366d76d1423e", "lon": -76.986536, "rental_uris": {"ios": "https://dc.lft.to/lastmile_qr_scan", "android": "https://dc.lft.to/lastmile_qr_scan"}}, {"name": "27142ddf971bb3bbfa317fa7270f6b4d", "fusion_lat": 0.0, "type": "electric_scooter", "lat": 38.910359666666665, "is_reserved": 0, "is_disabled": 0, "fusion_lon": 0.0, "bike_id": "27142ddf971bb3bbfa317fa7270f6b4d", "lon": -77.04870833333334, "rental_uris": {"ios": "https://dc.lft.to/lastmile_qr_scan", "android": "https://dc.lft.to/lastmile_qr_scan"}}, {"name": "4d0e6d6971a8748ec2671243380f037f", "fusion_lat": 0.0, "type": "electric_scooter", "lat": 38.9014, "is_reserved": 0, "is_disabled": 0, "fusion_lon": 0.0, "bike_id": "4d0e6d6971a8748ec2671243380f037f", "lon": -77.044962, "rental_uris": {"ios": "https://dc.lft.to/lastmile_qr_scan", "android": "https://dc.lft.to/lastmile_qr_scan"}}, {"name": "95c9cfb3c2deab69f701cdcd630217d7", "fusion_lat": 0.0, "type": "electric_scooter", "lat": 38.894733, "is_reserved": 0, "is_disabled": 0, "fusion_lon": 0.0, "bike_id": "95c9cfb3c2deab69f701cdcd630217d7", "lon": -76.98403433333333, "rental_uris": {"ios": "https://dc.lft.to/lastmile_qr_scan", "android": "https://dc.lft.to/lastmile_qr_scan"}}, {"name": "81f99215bc0990b556e22b5929c034e1", "fusion_lat": 0.0, "type": "electric_scooter", "lat": 38.925784166666666, "is_reserved": 0, "is_disabled": 0, "fusion_lon": 0.0, "bike_id": "81f99215bc0990b556e22b5929c034e1", "lon": -77.0283545, "rental_uris": {"ios": "https://dc.lft.to/lastmile_qr_scan", "android": "https://dc.lft.to/lastmile_qr_scan"}}, {"name": "ec1fc4a359484b523cf9b17d93559f4e", "fusion_lat": 0.0, "type": "electric_scooter", "lat": 38.96106066666667, "is_reserved": 0, "is_disabled": 0, "fusion_lon": 0.0, "bike_id": "ec1fc4a359484b523cf9b17d93559f4e", "lon": -77.02816716666666, "rental_uris": {"ios": "https://dc.lft.to/lastmile_qr_scan", "android": "https://dc.lft.to/lastmile_qr_scan"}}, {"name": "53525081fd090673b98eae9ab8a7b675", "fusion_lat": 0.0, "type": "electric_scooter", "lat": 38.902097166666664, "is_reserved": 0, "is_disabled": 0, "fusion_lon": 0.0, "bike_id": "53525081fd090673b98eae9ab8a7b675", "lon": -76.98186483333333, "rental_uris": {"ios": "https://dc.lft.to/lastmile_qr_scan", "android": "https://dc.lft.to/lastmile_qr_scan"}}, {"name": "66b25c68c069c45c878343db8dea47df", "fusion_lat": 0.0, "type": "electric_scooter", "lat": 38.94317366666667, "is_reserved": 0, "is_disabled": 0, "fusion_lon": 0.0, "bike_id": "66b25c68c069c45c878343db8dea47df", "lon": -77.05913383333333, "rental_uris": {"ios": "https://dc.lft.to/lastmile_qr_scan", "android": "https://dc.lft.to/lastmile_qr_scan"}}, {"name": "e82c7e147f6fd52b70b80e0c331aca56", "fusion_lat": 0.0, "type": "electric_scooter", "lat": 38.89853383333333, "is_reserved": 0, "is_disabled": 0, "fusion_lon": 0.0, "bike_id": "e82c7e147f6fd52b70b80e0c331aca56", "lon": -76.97560116666666, "rental_uris": {"ios": "https://dc.lft.to/lastmile_qr_scan", "android": "https://dc.lft.to/lastmile_qr_scan"}}, {"name": "c8b667781cbe5f7b2880953d40e7d55a", "fusion_lat": 0.0, "type": "electric_scooter", "lat": 38.89918616666667, "is_reserved": 0, "is_disabled": 0, "fusion_lon": 0.0, "bike_id": "c8b667781cbe5f7b2880953d40e7d55a", "lon": -76.93382016666666, "rental_uris": {"ios": "https://dc.lft.to/lastmile_qr_scan", "android": "https://dc.lft.to/lastmile_qr_scan"}}, {"name": "79bfb39aa75fd950363dc33a911f9085", "fusion_lat": 0.0, "type": "electric_scooter", "lat": 38.895791333333335, "is_reserved": 0, "is_disabled": 0, "fusion_lon": 0.0, "bike_id": "79bfb39aa75fd950363dc33a911f9085", "lon": -76.948893, "rental_uris": {"ios": "https://dc.lft.to/lastmile_qr_scan", "android": "https://dc.lft.to/lastmile_qr_scan"}}, {"name": "c29322cdf9c71b05344f8b40af36fb08", "fusion_lat": 0.0, "type": "electric_scooter", "lat": 38.90071016666667, "is_reserved": 0, "is_disabled": 0, "fusion_lon": 0.0, "bike_id": "c29322cdf9c71b05344f8b40af36fb08", "lon": -77.0500785, "rental_uris": {"ios": "https://dc.lft.to/lastmile_qr_scan", "android": "https://dc.lft.to/lastmile_qr_scan"}}, {"name": "4e3229358dd3716d2bb0cd1c5270afea", "fusion_lat": 0.0, "type": "electric_bike", "lat": 38.9584005, "is_reserved": 0, "is_disabled": 0, "fusion_lon": 0.0, "bike_id": "4e3229358dd3716d2bb0cd1c5270afea", "lon": -76.998703, "rental_uris": {"ios": "https://dc.lft.to/lastmile_qr_scan", "android": "https://dc.lft.to/lastmile_qr_scan"}}, {"name": "b7858497a34b78371a3c14291fc0bf2a", "fusion_lat": 0.0, "type": "electric_scooter", "lat": 38.905766166666666, "is_reserved": 0, "is_disabled": 0, "fusion_lon": 0.0, "bike_id": "b7858497a34b78371a3c14291fc0bf2a", "lon": -77.03267433333333, "rental_uris": {"ios": "https://dc.lft.to/lastmile_qr_scan", "android": "https://dc.lft.to/lastmile_qr_scan"}}, {"name": "b1f8f443bb106d677ae67aa4f295df74", "fusion_lat": 0.0, "type": "electric_scooter", "lat": 38.899839666666665, "is_reserved": 0, "is_disabled": 0, "fusion_lon": 0.0, "bike_id": "b1f8f443bb106d677ae67aa4f295df74", "lon": -77.03136266666667, "rental_uris": {"ios": "https://dc.lft.to/lastmile_qr_scan", "android": "https://dc.lft.to/lastmile_qr_scan"}}, {"name": "dda98013b4cb86da625b935bdfb5d78e", "fusion_lat": 0.0, "type": "electric_scooter", "lat": 38.9275705, "is_reserved": 0, "is_disabled": 0, "fusion_lon": 0.0, "bike_id": "dda98013b4cb86da625b935bdfb5d78e", "lon": -77.03269333333333, "rental_uris": {"ios": "https://dc.lft.to/lastmile_qr_scan", "android": "https://dc.lft.to/lastmile_qr_scan"}}, {"name": "ed703ee7e96a369a425771cb6f04d09e", "fusion_lat": 0.0, "type": "electric_scooter", "lat": 38.911180333333334, "is_reserved": 0, "is_disabled": 0, "fusion_lon": 0.0, "bike_id": "ed703ee7e96a369a425771cb6f04d09e", "lon": -77.024098, "rental_uris": {"ios": "https://dc.lft.to/lastmile_qr_scan", "android": "https://dc.lft.to/lastmile_qr_scan"}}, {"name": "ea73737e672cd904e077bf40f0c4a052", "fusion_lat": 0.0, "type": "electric_scooter", "lat": 38.9223855, "is_reserved": 0, "is_disabled": 0, "fusion_lon": 0.0, "bike_id": "ea73737e672cd904e077bf40f0c4a052", "lon": -77.03663733333333, "rental_uris": {"ios": "https://dc.lft.to/lastmile_qr_scan", "android": "https://dc.lft.to/lastmile_qr_scan"}}, {"name": "94702c3c2b2c772e358ed4604d540be7", "fusion_lat": 0.0, "type": "electric_scooter", "lat": 38.8974755, "is_reserved": 0, "is_disabled": 0, "fusion_lon": 0.0, "bike_id": "94702c3c2b2c772e358ed4604d540be7", "lon": -77.032665, "rental_uris": {"ios": "https://dc.lft.to/lastmile_qr_scan", "android": "https://dc.lft.to/lastmile_qr_scan"}}, {"name": "eecb02171c2a2fd0b620a309966363c2", "fusion_lat": 0.0, "type": "electric_scooter", "lat": 38.914885, "is_reserved": 0, "is_disabled": 0, "fusion_lon": 0.0, "bike_id": "eecb02171c2a2fd0b620a309966363c2", "lon": -77.03243583333334, "rental_uris": {"ios": "https://dc.lft.to/lastmile_qr_scan", "android": "https://dc.lft.to/lastmile_qr_scan"}}, {"name": "e164f5d7cab6f6c3903d420ca3437c07", "fusion_lat": 0.0, "type": "electric_scooter", "lat": 38.91802283333333, "is_reserved": 0, "is_disabled": 0, "fusion_lon": 0.0, "bike_id": "e164f5d7cab6f6c3903d420ca3437c07", "lon": -77.03216583333334, "rental_uris": {"ios": "https://dc.lft.to/lastmile_qr_scan", "android": "https://dc.lft.to/lastmile_qr_scan"}}, {"name": "239090cede2db19478058e6e55caf2a5", "fusion_lat": 0.0, "type": "electric_bike", "lat": 38.96869066666667, "is_reserved": 0, "is_disabled": 0, "fusion_lon": 0.0, "bike_id": "239090cede2db19478058e6e55caf2a5", "lon": -77.03329333333333, "rental_uris": {"ios": "https://dc.lft.to/lastmile_qr_scan", "android": "https://dc.lft.to/lastmile_qr_scan"}}, {"name": "23529311c49f4cb6f3f958dd1f422f75", "fusion_lat": 0.0, "type": "electric_scooter", "lat": 38.918778333333336, "is_reserved": 0, "is_disabled": 0, "fusion_lon": 0.0, "bike_id": "23529311c49f4cb6f3f958dd1f422f75", "lon": -77.04349233333333, "rental_uris": {"ios": "https://dc.lft.to/lastmile_qr_scan", "android": "https://dc.lft.to/lastmile_qr_scan"}}, {"name": "5051751429cd5feedad2b044b72f0715", "fusion_lat": 0.0, "type": "electric_scooter", "lat": 38.91707266666667, "is_reserved": 0, "is_disabled": 0, "fusion_lon": 0.0, "bike_id": "5051751429cd5feedad2b044b72f0715", "lon": -77.04273783333333, "rental_uris": {"ios": "https://dc.lft.to/lastmile_qr_scan", "android": "https://dc.lft.to/lastmile_qr_scan"}}, {"name": "591d23616feeb9b92ceb83899a4bb779", "fusion_lat": 0.0, "type": "electric_scooter", "lat": 38.92314916666667, "is_reserved": 0, "is_disabled": 0, "fusion_lon": 0.0, "bike_id": "591d23616feeb9b92ceb83899a4bb779", "lon": -77.04513066666667, "rental_uris": {"ios": "https://dc.lft.to/lastmile_qr_scan", "android": "https://dc.lft.to/lastmile_qr_scan"}}, {"name": "8210183864ba571fcaa7412cb20c501b", "fusion_lat": 0.0, "type": "electric_scooter", "lat": 38.961125833333334, "is_reserved": 0, "is_disabled": 0, "fusion_lon": 0.0, "bike_id": "8210183864ba571fcaa7412cb20c501b", "lon": -77.02814983333333, "rental_uris": {"ios": "https://dc.lft.to/lastmile_qr_scan", "android": "https://dc.lft.to/lastmile_qr_scan"}}, {"name": "fe9abd9f7df363b91dad48ba0257d407", "fusion_lat": 0.0, "type": "electric_scooter", "lat": 38.935478833333335, "is_reserved": 0, "is_disabled": 0, "fusion_lon": 0.0, "bike_id": "fe9abd9f7df363b91dad48ba0257d407", "lon": -77.0345285, "rental_uris": {"ios": "https://dc.lft.to/lastmile_qr_scan", "android": "https://dc.lft.to/lastmile_qr_scan"}}, {"name": "407b2efa03519bf74abde181b88e13e7", "fusion_lat": 0.0, "type": "electric_scooter", "lat": 38.9023885, "is_reserved": 0, "is_disabled": 0, "fusion_lon": 0.0, "bike_id": "407b2efa03519bf74abde181b88e13e7", "lon": -77.01757333333333, "rental_uris": {"ios": "https://dc.lft.to/lastmile_qr_scan", "android": "https://dc.lft.to/lastmile_qr_scan"}}, {"name": "d10b101a5988e6b4ab74b39d08ca5b58", "fusion_lat": 0.0, "type": "electric_scooter", "lat": 38.91188533333333, "is_reserved": 0, "is_disabled": 0, "fusion_lon": 0.0, "bike_id": "d10b101a5988e6b4ab74b39d08ca5b58", "lon": -76.99619466666667, "rental_uris": {"ios": "https://dc.lft.to/lastmile_qr_scan", "android": "https://dc.lft.to/lastmile_qr_scan"}}, {"name": "5aca73cc5a0564efcf74f10dbcfafaa2", "fusion_lat": 0.0, "type": "electric_scooter", "lat": 38.89833216666667, "is_reserved": 0, "is_disabled": 0, "fusion_lon": 0.0, "bike_id": "5aca73cc5a0564efcf74f10dbcfafaa2", "lon": -76.94642366666666, "rental_uris": {"ios": "https://dc.lft.to/lastmile_qr_scan", "android": "https://dc.lft.to/lastmile_qr_scan"}}, {"name": "4057959b603267fa02ac8cb3329a2678", "fusion_lat": 0.0, "type": "electric_scooter", "lat": 38.916039166666664, "is_reserved": 0, "is_disabled": 0, "fusion_lon": 0.0, "bike_id": "4057959b603267fa02ac8cb3329a2678", "lon": -77.02297683333333, "rental_uris": {"ios": "https://dc.lft.to/lastmile_qr_scan", "android": "https://dc.lft.to/lastmile_qr_scan"}}, {"name": "d7234f47019eb3d228583b5cb3bba238", "fusion_lat": 0.0, "type": "electric_scooter", "lat": 38.91261466666667, "is_reserved": 0, "is_disabled": 0, "fusion_lon": 0.0, "bike_id": "d7234f47019eb3d228583b5cb3bba238", "lon": -77.03452766666666, "rental_uris": {"ios": "https://dc.lft.to/lastmile_qr_scan", "android": "https://dc.lft.to/lastmile_qr_scan"}}, {"name": "493743a13c79d9e48caef8ef71acfe92", "fusion_lat": 0.0, "type": "electric_scooter", "lat": 38.900234166666664, "is_reserved": 0, "is_disabled": 0, "fusion_lon": 0.0, "bike_id": "493743a13c79d9e48caef8ef71acfe92", "lon": -77.01108566666667, "rental_uris": {"ios": "https://dc.lft.to/lastmile_qr_scan", "android": "https://dc.lft.to/lastmile_qr_scan"}}, {"name": "eb4634ccf50049df608c34bfd8d90a10", "fusion_lat": 0.0, "type": "electric_scooter", "lat": 38.90032583333333, "is_reserved": 0, "is_disabled": 0, "fusion_lon": 0.0, "bike_id": "eb4634ccf50049df608c34bfd8d90a10", "lon": -76.988247, "rental_uris": {"ios": "https://dc.lft.to/lastmile_qr_scan", "android": "https://dc.lft.to/lastmile_qr_scan"}}, {"name": "6b716e5774ee61a4f1aa01a7b24950a5", "fusion_lat": 0.0, "type": "electric_scooter", "lat": 38.93255583333333, "is_reserved": 0, "is_disabled": 0, "fusion_lon": 0.0, "bike_id": "6b716e5774ee61a4f1aa01a7b24950a5", "lon": -77.0401205, "rental_uris": {"ios": "https://dc.lft.to/lastmile_qr_scan", "android": "https://dc.lft.to/lastmile_qr_scan"}}, {"name": "a2163ce38b0bbac7fe1af9cdcdb7c69e", "fusion_lat": 0.0, "type": "electric_scooter", "lat": 38.91659633333333, "is_reserved": 0, "is_disabled": 0, "fusion_lon": 0.0, "bike_id": "a2163ce38b0bbac7fe1af9cdcdb7c69e", "lon": -77.0257045, "rental_uris": {"ios": "https://dc.lft.to/lastmile_qr_scan", "android": "https://dc.lft.to/lastmile_qr_scan"}}, {"name": "25c02bed42fa71d409b8c54f747437a7", "fusion_lat": 0.0, "type": "electric_scooter", "lat": 38.9111455, "is_reserved": 0, "is_disabled": 0, "fusion_lon": 0.0, "bike_id": "25c02bed42fa71d409b8c54f747437a7", "lon": -77.03296133333333, "rental_uris": {"ios": "https://dc.lft.to/lastmile_qr_scan", "android": "https://dc.lft.to/lastmile_qr_scan"}}, {"name": "579880dc467ba9f93e8638f6990f997f", "fusion_lat": 0.0, "type": "electric_scooter", "lat": 38.91729133333333, "is_reserved": 0, "is_disabled": 0, "fusion_lon": 0.0, "bike_id": "579880dc467ba9f93e8638f6990f997f", "lon": -77.03838666666667, "rental_uris": {"ios": "https://dc.lft.to/lastmile_qr_scan", "android": "https://dc.lft.to/lastmile_qr_scan"}}, {"name": "d7e471f8a44b4cac7e3c7048522d1adb", "fusion_lat": 0.0, "type": "electric_scooter", "lat": 38.900148, "is_reserved": 0, "is_disabled": 0, "fusion_lon": 0.0, "bike_id": "d7e471f8a44b4cac7e3c7048522d1adb", "lon": -77.0333135, "rental_uris": {"ios": "https://dc.lft.to/lastmile_qr_scan", "android": "https://dc.lft.to/lastmile_qr_scan"}}, {"name": "dafa38572dbfbed390430b7b9174f70a", "fusion_lat": 0.0, "type": "electric_scooter", "lat": 38.916940333333336, "is_reserved": 0, "is_disabled": 0, "fusion_lon": 0.0, "bike_id": "dafa38572dbfbed390430b7b9174f70a", "lon": -77.024364, "rental_uris": {"ios": "https://dc.lft.to/lastmile_qr_scan", "android": "https://dc.lft.to/lastmile_qr_scan"}}, {"name": "f0d21956c3fcff1f61935e1a293611f4", "fusion_lat": 0.0, "type": "electric_scooter", "lat": 38.906148333333334, "is_reserved": 0, "is_disabled": 0, "fusion_lon": 0.0, "bike_id": "f0d21956c3fcff1f61935e1a293611f4", "lon": -77.04682216666667, "rental_uris": {"ios": "https://dc.lft.to/lastmile_qr_scan", "android": "https://dc.lft.to/lastmile_qr_scan"}}, {"name": "50520c234a2a21bc9100848faa38cdf1", "fusion_lat": 0.0, "type": "electric_scooter", "lat": 38.8666355, "is_reserved": 0, "is_disabled": 0, "fusion_lon": 0.0, "bike_id": "50520c234a2a21bc9100848faa38cdf1", "lon": -76.98886633333333, "rental_uris": {"ios": "https://dc.lft.to/lastmile_qr_scan", "android": "https://dc.lft.to/lastmile_qr_scan"}}, {"name": "e643fc7f9c018863ca28c000ac7f5609", "fusion_lat": 0.0, "type": "electric_scooter", "lat": 38.9248285, "is_reserved": 0, "is_disabled": 0, "fusion_lon": 0.0, "bike_id": "e643fc7f9c018863ca28c000ac7f5609", "lon": -77.02898633333334, "rental_uris": {"ios": "https://dc.lft.to/lastmile_qr_scan", "android": "https://dc.lft.to/lastmile_qr_scan"}}, {"name": "2a9ee6d07d55d8caa8a2949798793a6c", "fusion_lat": 0.0, "type": "electric_scooter", "lat": 38.88598733333333, "is_reserved": 0, "is_disabled": 0, "fusion_lon": 0.0, "bike_id": "2a9ee6d07d55d8caa8a2949798793a6c", "lon": -77.01982433333333, "rental_uris": {"ios": "https://dc.lft.to/lastmile_qr_scan", "android": "https://dc.lft.to/lastmile_qr_scan"}}, {"name": "21b4be0f00914f750b7ba7d514b545ad", "fusion_lat": 0.0, "type": "electric_scooter", "lat": 38.91131, "is_reserved": 0, "is_disabled": 0, "fusion_lon": 0.0, "bike_id": "21b4be0f00914f750b7ba7d514b545ad", "lon": -77.021848, "rental_uris": {"ios": "https://dc.lft.to/lastmile_qr_scan", "android": "https://dc.lft.to/lastmile_qr_scan"}}, {"name": "7ebe58895a38bc2543388fcef8b19fea", "fusion_lat": 0.0, "type": "electric_scooter", "lat": 38.920661, "is_reserved": 0, "is_disabled": 0, "fusion_lon": 0.0, "bike_id": "7ebe58895a38bc2543388fcef8b19fea", "lon": -77.04248166666666, "rental_uris": {"ios": "https://dc.lft.to/lastmile_qr_scan", "android": "https://dc.lft.to/lastmile_qr_scan"}}, {"name": "2a66d3e9987e9619e2c7cd3251b90353", "fusion_lat": 0.0, "type": "electric_scooter", "lat": 38.917148166666664, "is_reserved": 0, "is_disabled": 0, "fusion_lon": 0.0, "bike_id": "2a66d3e9987e9619e2c7cd3251b90353", "lon": -77.03346566666667, "rental_uris": {"ios": "https://dc.lft.to/lastmile_qr_scan", "android": "https://dc.lft.to/lastmile_qr_scan"}}, {"name": "dcfe1cfc1875d95fc9d2c8609a93435d", "fusion_lat": 0.0, "type": "electric_scooter", "lat": 38.910098833333336, "is_reserved": 0, "is_disabled": 0, "fusion_lon": 0.0, "bike_id": "dcfe1cfc1875d95fc9d2c8609a93435d", "lon": -76.993899, "rental_uris": {"ios": "https://dc.lft.to/lastmile_qr_scan", "android": "https://dc.lft.to/lastmile_qr_scan"}}, {"name": "a9ddab4338044324edf466793902a146", "fusion_lat": 0.0, "type": "electric_bike", "lat": 38.95685566666667, "is_reserved": 0, "is_disabled": 0, "fusion_lon": 0.0, "bike_id": "a9ddab4338044324edf466793902a146", "lon": -77.0222515, "rental_uris": {"ios": "https://dc.lft.to/lastmile_qr_scan", "android": "https://dc.lft.to/lastmile_qr_scan"}}, {"name": "3394c000084fa27b77ba40cccac856d4", "fusion_lat": 0.0, "type": "electric_scooter", "lat": 38.9051895, "is_reserved": 0, "is_disabled": 0, "fusion_lon": 0.0, "bike_id": "3394c000084fa27b77ba40cccac856d4", "lon": -77.06626616666667, "rental_uris": {"ios": "https://dc.lft.to/lastmile_qr_scan", "android": "https://dc.lft.to/lastmile_qr_scan"}}, {"name": "b608c2307c434d704a1e510404a2289b", "fusion_lat": 0.0, "type": "electric_bike", "lat": 38.942748, "is_reserved": 0, "is_disabled": 0, "fusion_lon": 0.0, "bike_id": "b608c2307c434d704a1e510404a2289b", "lon": -76.98072216666667, "rental_uris": {"ios": "https://dc.lft.to/lastmile_qr_scan", "android": "https://dc.lft.to/lastmile_qr_scan"}}, {"name": "b8ec237b9398c3b814855a92a216175b", "fusion_lat": 0.0, "type": "electric_bike", "lat": 38.874806666666665, "is_reserved": 0, "is_disabled": 0, "fusion_lon": 0.0, "bike_id": "b8ec237b9398c3b814855a92a216175b", "lon": -76.965292, "rental_uris": {"ios": "https://dc.lft.to/lastmile_qr_scan", "android": "https://dc.lft.to/lastmile_qr_scan"}}, {"name": "6bb0fad7471abb8f4b9e598a5d7e730b", "fusion_lat": 0.0, "type": "electric_scooter", "lat": 38.89630916666667, "is_reserved": 0, "is_disabled": 0, "fusion_lon": 0.0, "bike_id": "6bb0fad7471abb8f4b9e598a5d7e730b", "lon": -77.010338, "rental_uris": {"ios": "https://dc.lft.to/lastmile_qr_scan", "android": "https://dc.lft.to/lastmile_qr_scan"}}, {"name": "9ffe05e1b7067383c7eb9d98935de5e5", "fusion_lat": 0.0, "type": "electric_bike", "lat": 38.89219416666667, "is_reserved": 0, "is_disabled": 0, "fusion_lon": 0.0, "bike_id": "9ffe05e1b7067383c7eb9d98935de5e5", "lon": -77.107821, "rental_uris": {"ios": "https://dc.lft.to/lastmile_qr_scan", "android": "https://dc.lft.to/lastmile_qr_scan"}}, {"name": "a28eb7a04a5589e5de0ee55ee10702b9", "fusion_lat": 0.0, "type": "electric_scooter", "lat": 38.91185083333333, "is_reserved": 0, "is_disabled": 0, "fusion_lon": 0.0, "bike_id": "a28eb7a04a5589e5de0ee55ee10702b9", "lon": -77.038636, "rental_uris": {"ios": "https://dc.lft.to/lastmile_qr_scan", "android": "https://dc.lft.to/lastmile_qr_scan"}}, {"name": "b312400d43525b77827faa34500e3d9d", "fusion_lat": 0.0, "type": "electric_scooter", "lat": 38.882979666666664, "is_reserved": 0, "is_disabled": 0, "fusion_lon": 0.0, "bike_id": "b312400d43525b77827faa34500e3d9d", "lon": -77.02357833333333, "rental_uris": {"ios": "https://dc.lft.to/lastmile_qr_scan", "android": "https://dc.lft.to/lastmile_qr_scan"}}, {"name": "6fe3c2dc4b248c8424b3cc15cdb06044", "fusion_lat": 0.0, "type": "electric_scooter", "lat": 38.911058833333335, "is_reserved": 0, "is_disabled": 0, "fusion_lon": 0.0, "bike_id": "6fe3c2dc4b248c8424b3cc15cdb06044", "lon": -77.07355133333333, "rental_uris": {"ios": "https://dc.lft.to/lastmile_qr_scan", "android": "https://dc.lft.to/lastmile_qr_scan"}}, {"name": "5092c721c53b0a21a6efc333bcc23c44", "fusion_lat": 0.0, "type": "electric_scooter", "lat": 38.87917183333333, "is_reserved": 0, "is_disabled": 0, "fusion_lon": 0.0, "bike_id": "5092c721c53b0a21a6efc333bcc23c44", "lon": -76.9950645, "rental_uris": {"ios": "https://dc.lft.to/lastmile_qr_scan", "android": "https://dc.lft.to/lastmile_qr_scan"}}, {"name": "b7ab3ae1eaef7ea5eae8ab4963d8e975", "fusion_lat": 0.0, "type": "electric_scooter", "lat": 38.95286633333333, "is_reserved": 0, "is_disabled": 0, "fusion_lon": 0.0, "bike_id": "b7ab3ae1eaef7ea5eae8ab4963d8e975", "lon": -77.00359333333333, "rental_uris": {"ios": "https://dc.lft.to/lastmile_qr_scan", "android": "https://dc.lft.to/lastmile_qr_scan"}}, {"name": "953b039ee13943632ac88d530f54dd15", "fusion_lat": 0.0, "type": "electric_scooter", "lat": 38.905814666666664, "is_reserved": 0, "is_disabled": 0, "fusion_lon": 0.0, "bike_id": "953b039ee13943632ac88d530f54dd15", "lon": -77.02603033333334, "rental_uris": {"ios": "https://dc.lft.to/lastmile_qr_scan", "android": "https://dc.lft.to/lastmile_qr_scan"}}, {"name": "42dc64512e3961185edc268a5bb7ee96", "fusion_lat": 0.0, "type": "electric_scooter", "lat": 38.9037455, "is_reserved": 0, "is_disabled": 0, "fusion_lon": 0.0, "bike_id": "42dc64512e3961185edc268a5bb7ee96", "lon": -77.04506933333333, "rental_uris": {"ios": "https://dc.lft.to/lastmile_qr_scan", "android": "https://dc.lft.to/lastmile_qr_scan"}}, {"name": "9e7527b9eb258d6c5de61a68f02111da", "fusion_lat": 0.0, "type": "electric_scooter", "lat": 38.91294166666667, "is_reserved": 0, "is_disabled": 0, "fusion_lon": 0.0, "bike_id": "9e7527b9eb258d6c5de61a68f02111da", "lon": -77.06158066666667, "rental_uris": {"ios": "https://dc.lft.to/lastmile_qr_scan", "android": "https://dc.lft.to/lastmile_qr_scan"}}, {"name": "861dd5f898b58f439954c647d5d3b445", "fusion_lat": 0.0, "type": "electric_scooter", "lat": 38.94291966666667, "is_reserved": 0, "is_disabled": 0, "fusion_lon": 0.0, "bike_id": "861dd5f898b58f439954c647d5d3b445", "lon": -77.021713, "rental_uris": {"ios": "https://dc.lft.to/lastmile_qr_scan", "android": "https://dc.lft.to/lastmile_qr_scan"}}, {"name": "9fc390c97d6caa144566e32e0a560b82", "fusion_lat": 0.0, "type": "electric_scooter", "lat": 38.912693833333336, "is_reserved": 0, "is_disabled": 0, "fusion_lon": 0.0, "bike_id": "9fc390c97d6caa144566e32e0a560b82", "lon": -77.0382355, "rental_uris": {"ios": "https://dc.lft.to/lastmile_qr_scan", "android": "https://dc.lft.to/lastmile_qr_scan"}}, {"name": "954e2f3f54b2d2609e82e302602fdef2", "fusion_lat": 0.0, "type": "electric_scooter", "lat": 38.912802166666665, "is_reserved": 0, "is_disabled": 0, "fusion_lon": 0.0, "bike_id": "954e2f3f54b2d2609e82e302602fdef2", "lon": -77.03159983333333, "rental_uris": {"ios": "https://dc.lft.to/lastmile_qr_scan", "android": "https://dc.lft.to/lastmile_qr_scan"}}, {"name": "e825bd1e06b07bcd5c95a30c27c7ca42", "fusion_lat": 0.0, "type": "electric_scooter", "lat": 38.93004083333334, "is_reserved": 0, "is_disabled": 0, "fusion_lon": 0.0, "bike_id": "e825bd1e06b07bcd5c95a30c27c7ca42", "lon": -77.0552255, "rental_uris": {"ios": "https://dc.lft.to/lastmile_qr_scan", "android": "https://dc.lft.to/lastmile_qr_scan"}}, {"name": "2a2ac53927b91b6bd044b2c3e2b495e9", "fusion_lat": 0.0, "type": "electric_scooter", "lat": 38.9366035, "is_reserved": 0, "is_disabled": 0, "fusion_lon": 0.0, "bike_id": "2a2ac53927b91b6bd044b2c3e2b495e9", "lon": -77.05498066666667, "rental_uris": {"ios": "https://dc.lft.to/lastmile_qr_scan", "android": "https://dc.lft.to/lastmile_qr_scan"}}, {"name": "e12a38e0b0688d61c3bb488ead83e969", "fusion_lat": 0.0, "type": "electric_bike", "lat": 38.9363995, "is_reserved": 0, "is_disabled": 0, "fusion_lon": 0.0, "bike_id": "e12a38e0b0688d61c3bb488ead83e969", "lon": -77.03659783333333, "rental_uris": {"ios": "https://dc.lft.to/lastmile_qr_scan", "android": "https://dc.lft.to/lastmile_qr_scan"}}, {"name": "274e651f5189633b5e0aa262ff2404cb", "fusion_lat": 0.0, "type": "electric_scooter", "lat": 38.917107, "is_reserved": 0, "is_disabled": 0, "fusion_lon": 0.0, "bike_id": "274e651f5189633b5e0aa262ff2404cb", "lon": -77.040846, "rental_uris": {"ios": "https://dc.lft.to/lastmile_qr_scan", "android": "https://dc.lft.to/lastmile_qr_scan"}}, {"name": "c5fc2cdbedc30e4a02d3e5c8d57bed8d", "fusion_lat": 0.0, "type": "electric_scooter", "lat": 38.93390133333333, "is_reserved": 0, "is_disabled": 0, "fusion_lon": 0.0, "bike_id": "c5fc2cdbedc30e4a02d3e5c8d57bed8d", "lon": -77.035816, "rental_uris": {"ios": "https://dc.lft.to/lastmile_qr_scan", "android": "https://dc.lft.to/lastmile_qr_scan"}}, {"name": "09a8eefe612b31540a16ec464bdc4659", "fusion_lat": 0.0, "type": "electric_bike", "lat": 38.95954866666667, "is_reserved": 0, "is_disabled": 0, "fusion_lon": 0.0, "bike_id": "09a8eefe612b31540a16ec464bdc4659", "lon": -77.100889, "rental_uris": {"ios": "https://dc.lft.to/lastmile_qr_scan", "android": "https://dc.lft.to/lastmile_qr_scan"}}, {"name": "24a1d3d5da43854b4698490e355af40e", "fusion_lat": 0.0, "type": "electric_scooter", "lat": 38.916891166666666, "is_reserved": 0, "is_disabled": 0, "fusion_lon": 0.0, "bike_id": "24a1d3d5da43854b4698490e355af40e", "lon": -77.03171233333333, "rental_uris": {"ios": "https://dc.lft.to/lastmile_qr_scan", "android": "https://dc.lft.to/lastmile_qr_scan"}}, {"name": "bacc2bbff9e3cc5539ef034a408867c8", "fusion_lat": 0.0, "type": "electric_scooter", "lat": 38.914901, "is_reserved": 0, "is_disabled": 0, "fusion_lon": 0.0, "bike_id": "bacc2bbff9e3cc5539ef034a408867c8", "lon": -77.04067833333333, "rental_uris": {"ios": "https://dc.lft.to/lastmile_qr_scan", "android": "https://dc.lft.to/lastmile_qr_scan"}}, {"name": "d448d689551ab25ffcc1c25932213fb5", "fusion_lat": 0.0, "type": "electric_scooter", "lat": 38.906180166666665, "is_reserved": 0, "is_disabled": 0, "fusion_lon": 0.0, "bike_id": "d448d689551ab25ffcc1c25932213fb5", "lon": -77.0412225, "rental_uris": {"ios": "https://dc.lft.to/lastmile_qr_scan", "android": "https://dc.lft.to/lastmile_qr_scan"}}, {"name": "71b3ada866fb864766c0f2d67541f17e", "fusion_lat": 0.0, "type": "electric_scooter", "lat": 38.90019983333333, "is_reserved": 0, "is_disabled": 0, "fusion_lon": 0.0, "bike_id": "71b3ada866fb864766c0f2d67541f17e", "lon": -76.99832983333333, "rental_uris": {"ios": "https://dc.lft.to/lastmile_qr_scan", "android": "https://dc.lft.to/lastmile_qr_scan"}}, {"name": "e1c247c8c8067f799f6d564b92668e4a", "fusion_lat": 0.0, "type": "electric_scooter", "lat": 38.904159166666666, "is_reserved": 0, "is_disabled": 0, "fusion_lon": 0.0, "bike_id": "e1c247c8c8067f799f6d564b92668e4a", "lon": -76.9789065, "rental_uris": {"ios": "https://dc.lft.to/lastmile_qr_scan", "android": "https://dc.lft.to/lastmile_qr_scan"}}, {"name": "96384500e34f225bbe9d967463b1d3ff", "fusion_lat": 0.0, "type": "electric_scooter", "lat": 38.921427666666666, "is_reserved": 0, "is_disabled": 0, "fusion_lon": 0.0, "bike_id": "96384500e34f225bbe9d967463b1d3ff", "lon": -77.04023266666667, "rental_uris": {"ios": "https://dc.lft.to/lastmile_qr_scan", "android": "https://dc.lft.to/lastmile_qr_scan"}}, {"name": "5c62c3ce5aefbf878520f067f8f33a52", "fusion_lat": 0.0, "type": "electric_scooter", "lat": 38.9087905, "is_reserved": 0, "is_disabled": 0, "fusion_lon": 0.0, "bike_id": "5c62c3ce5aefbf878520f067f8f33a52", "lon": -77.018999, "rental_uris": {"ios": "https://dc.lft.to/lastmile_qr_scan", "android": "https://dc.lft.to/lastmile_qr_scan"}}, {"name": "6dd0bed16565f819b5d362e7b62ad337", "fusion_lat": 0.0, "type": "electric_scooter", "lat": 38.911278333333335, "is_reserved": 0, "is_disabled": 0, "fusion_lon": 0.0, "bike_id": "6dd0bed16565f819b5d362e7b62ad337", "lon": -77.02386916666667, "rental_uris": {"ios": "https://dc.lft.to/lastmile_qr_scan", "android": "https://dc.lft.to/lastmile_qr_scan"}}, {"name": "b8842a6f50c662a1ad955d9c0c094a93", "fusion_lat": 0.0, "type": "electric_bike", "lat": 38.929883333333336, "is_reserved": 0, "is_disabled": 0, "fusion_lon": 0.0, "bike_id": "b8842a6f50c662a1ad955d9c0c094a93", "lon": -77.01965216666666, "rental_uris": {"ios": "https://dc.lft.to/lastmile_qr_scan", "android": "https://dc.lft.to/lastmile_qr_scan"}}, {"name": "40c6661e3b09f4af99870f284a073b57", "fusion_lat": 0.0, "type": "electric_scooter", "lat": 38.92123433333333, "is_reserved": 0, "is_disabled": 0, "fusion_lon": 0.0, "bike_id": "40c6661e3b09f4af99870f284a073b57", "lon": -77.04218583333333, "rental_uris": {"ios": "https://dc.lft.to/lastmile_qr_scan", "android": "https://dc.lft.to/lastmile_qr_scan"}}, {"name": "cd6b7ca41e0b35aa9d5efbcd96a5f7a3", "fusion_lat": 0.0, "type": "electric_scooter", "lat": 38.907203, "is_reserved": 0, "is_disabled": 0, "fusion_lon": 0.0, "bike_id": "cd6b7ca41e0b35aa9d5efbcd96a5f7a3", "lon": -77.00536416666667, "rental_uris": {"ios": "https://dc.lft.to/lastmile_qr_scan", "android": "https://dc.lft.to/lastmile_qr_scan"}}, {"name": "d71d8fdd445120397402be210266d0e7", "fusion_lat": 0.0, "type": "electric_bike", "lat": 38.92981733333333, "is_reserved": 0, "is_disabled": 0, "fusion_lon": 0.0, "bike_id": "d71d8fdd445120397402be210266d0e7", "lon": -77.01977916666667, "rental_uris": {"ios": "https://dc.lft.to/lastmile_qr_scan", "android": "https://dc.lft.to/lastmile_qr_scan"}}, {"name": "3bc66a10f8733769be033acb18756047", "fusion_lat": 0.0, "type": "electric_scooter", "lat": 38.9354105, "is_reserved": 0, "is_disabled": 0, "fusion_lon": 0.0, "bike_id": "3bc66a10f8733769be033acb18756047", "lon": -77.03419633333333, "rental_uris": {"ios": "https://dc.lft.to/lastmile_qr_scan", "android": "https://dc.lft.to/lastmile_qr_scan"}},