{"data": {"bikes": [{"lat": 38.86281483333333, "is_disabled": 0, "type": "electric_scooter", "lon": -76.99246466666666, "bike_id": "b50b2ca75bedcaf0676a5e9b7f54ddaf", "fusion_lat": 0.0, "name": "b50b2ca75bedcaf0676a5e9b7f54ddaf", "is_reserved": 0, "rental_uris": {"android": "https://dc.lft.to/lastmile_qr_scan", "ios": "https://dc.lft.to/lastmile_qr_scan"}, "fusion_lon": 0.0}, {"lat": 38.931416166666665, "is_disabled": 0, "type": "electric_scooter", "lon": -77.02827433333333, "bike_id": "5020ffb3c44eeec4030a4417d96ad8fe", "fusion_lat": 0.0, "name": "5020ffb3c44eeec4030a4417d96ad8fe", "is_reserved": 0, "rental_uris": {"android": "https://dc.lft.to/lastmile_qr_scan", "ios": "https://dc.lft.to/lastmile_qr_scan"}, "fusion_lon": 0.0}, {"lat": 38.92170216666667, "is_disabled": 0, "type": "electric_scooter", "lon": -77.042439, "bike_id": "bf17bef2b61a8f67c56c6cadcc67709d", "fusion_lat": 0.0, "name": "bf17bef2b61a8f67c56c6cadcc67709d", "is_reserved": 0, "rental_uris": {"android": "https://dc.lft.to/lastmile_qr_scan", "ios": "https://dc.lft.to/lastmile_qr_scan"}, "fusion_lon": 0.0}, {"lat": 38.919597, "is_disabled": 0, "type": "electric_scooter", "lon": -77.0319035, "bike_id": "b771fb62057d21ea785b25e51b9c9f1d", "fusion_lat": 0.0, "name": "b771fb62057d21ea785b25e51b9c9f1d", "is_reserved": 0, "rental_uris": {"android": "https://dc.lft.to/lastmile_qr_scan", "ios": "https://dc.lft.to/lastmile_qr_scan"}, "fusion_lon": 0.0}, {"lat": 38.917181, "is_disabled": 0, "type": "electric_scooter", "lon": -77.03218666666666, "bike_id": "5cee266968400f21d4ab077ea38bc3e6", "fusion_lat": 0.0, "name": "5cee266968400f21d4ab077ea38bc3e6", "is_reserved": 0, "rental_uris": {"android": "https://dc.lft.to/lastmile_qr_scan", "ios": "https://dc.lft.to/lastmile_qr_scan"}, "fusion_lon": 0.0}, {"lat": 38.896457166666664, "is_disabled": 0, "type": "electric_scooter", "lon": -77.00783716666666, "bike_id": "4cf561660c85da71cf2c3d369019eb3b", "fusion_lat": 0.0, "name": "4cf561660c85da71cf2c3d369019eb3b", "is_reserved": 0, "rental_uris": {"android": "https://dc.lft.to/lastmile_qr_scan", "ios": "https://dc.lft.to/lastmile_qr_scan"}, "fusion_lon": 0.0}, {"lat": 38.935703, "is_disabled": 0, "type": "electric_scooter", "lon": -77.03262016666666, "bike_id": "3f535caf2597c720e2b9149b31f8037c", "fusion_lat": 0.0, "name": "3f535caf2597c720e2b9149b31f8037c", "is_reserved": 0, "rental_uris": {"android": "https://dc.lft.to/lastmile_qr_scan", "ios": "https://dc.lft.to/lastmile_qr_scan"}, "fusion_lon": 0.0}, {"lat": 38.904776, "is_disabled": 0, "type": "electric_scooter", "lon": -77.05731083333333, "bike_id": "5b770c397ebaacf6fac2d3883e882e97", "fusion_lat": 0.0, "name": "5b770c397ebaacf6fac2d3883e882e97", "is_reserved": 0, "rental_uris": {"android": "https://dc.lft.to/lastmile_qr_scan", "ios": "https://dc.lft.to/lastmile_qr_scan"}, "fusion_lon": 0.0}, {"lat": 38.905546333333334, "is_disabled": 0, "type": "electric_scooter", "lon": -77.00595666666666, "bike_id": "381ece746557232721a2913c16286dfb", "fusion_lat": 0.0, "name": "381ece746557232721a2913c16286dfb", "is_reserved": 0, "rental_uris": {"android": "https://dc.lft.to/lastmile_qr_scan", "ios": "https://dc.lft.to/lastmile_qr_scan"}, "fusion_lon": 0.0}, {"lat": 38.94943116666666, "is_disabled": 0, "type": "electric_scooter", "lon": -77.0201945, "bike_id": "01dee6fab78ff49fd6b60d45dca54f8e", "fusion_lat": 0.0, "name": "01dee6fab78ff49fd6b60d45dca54f8e", "is_reserved": 0, "rental_uris": {"android": "https://dc.lft.to/lastmile_qr_scan", "ios": "https://dc.lft.to/lastmile_qr_scan"}, "fusion_lon": 0.0}, {"lat": 38.872074833333336, "is_disabled": 0, "type": "electric_bike", "lon": -77.01529233333333, "bike_id": "d0d98170753afce65a679728c153a045", "fusion_lat": 0.0, "name": "d0d98170753afce65a679728c153a045", "is_reserved": 0, "rental_uris": {"android": "https://dc.lft.to/lastmile_qr_scan", "ios": "https://dc.lft.to/lastmile_qr_scan"}, "fusion_lon": 0.0}, {"lat": 38.92199633333333, "is_disabled": 0, "type": "electric_scooter", "lon": -76.98370883333334, "bike_id": "c242bf31af7f4fc418226ab82021ddf3", "fusion_lat": 0.0, "name": "c242bf31af7f4fc418226ab82021ddf3", "is_reserved": 0, "rental_uris": {"android": "https://dc.lft.to/lastmile_qr_scan", "ios": "https://dc.lft.to/lastmile_qr_scan"}, "fusion_lon": 0.0}, {"lat": 38.973231166666665, "is_disabled": 0, "type": "electric_bike", "lon": -77.0214475, "bike_id": "129d0e9a6055a647845815097779ab72", "fusion_lat": 0.0, "name": "129d0e9a6055a647845815097779ab72", "is_reserved": 0, "rental_uris": {"android": "https://dc.lft.to/lastmile_qr_scan", "ios": "https://dc.lft.to/lastmile_qr_scan"}, "fusion_lon": 0.0}, {"lat": 38.927347166666664, "is_disabled": 0, "type": "electric_scooter", "lon": -77.04281333333333, "bike_id": "2a0faddb3ad74fa2d492176b48d78d13", "fusion_lat": 0.0, "name": "2a0faddb3ad74fa2d492176b48d78d13", "is_reserved": 0, "rental_uris": {"android": "https://dc.lft.to/lastmile_qr_scan", "ios": "https://dc.lft.to/lastmile_qr_scan"}, "fusion_lon": 0.0}, {"lat": 38.883047166666664, "is_disabled": 0, "type": "electric_bike", "lon": -77.031471, "bike_id": "966910ebd88822a8ff6491efff3de276", "fusion_lat": 0.0, "name": "966910ebd88822a8ff6491efff3de276", "is_reserved": 0, "rental_uris": {"android": "https://dc.lft.to/lastmile_qr_scan", "ios": "https://dc.lft.to/lastmile_qr_scan"}, "fusion_lon": 0.0}, {"lat": 38.92618783333333, "is_disabled": 0, "type": "electric_scooter", "lon": -77.03777683333334, "bike_id": "9a4c7f881c56ddb2933c0627dc933b4e", "fusion_lat": 0.0, "name": "9a4c7f881c56ddb2933c0627dc933b4e", "is_reserved": 0, "rental_uris": {"android": "https://dc.lft.to/lastmile_qr_scan", "ios": "https://dc.lft.to/lastmile_qr_scan"}, "fusion_lon": 0.0}, {"lat": 38.923294166666665, "is_disabled": 0, "type": "electric_scooter", "lon": -77.03665133333334, "bike_id": "5dd7527a7cf6486bb21cba936783f442", "fusion_lat": 0.0, "name": "5dd7527a7cf6486bb21cba936783f442", "is_reserved": 0, "rental_uris": {"android": "https://dc.lft.to/lastmile_qr_scan", "ios": "https://dc.lft.to/lastmile_qr_scan"}, "fusion_lon": 0.0}, {"lat": 38.883614, "is_disabled": 0, "type": "electric_scooter", "lon": -76.94153616666667, "bike_id": "acdb3343b4dcebecf5b15ff7f5a456f1", "fusion_lat": 0.0, "name": "acdb3343b4dcebecf5b15ff7f5a456f1", "is_reserved": 0, "rental_uris": {"android": "https://dc.lft.to/lastmile_qr_scan", "ios": "https://dc.lft.to/lastmile_qr_scan"}, "fusion_lon": 0.0}, {"lat": 38.923444333333336, "is_disabled": 0, "type": "electric_scooter", "lon": -77.05113, "bike_id": "576be511aa598e4ae97c3a3753ab6ffc", "fusion_lat": 0.0, "name": "576be511aa598e4ae97c3a3753ab6ffc", "is_reserved": 0, "rental_uris": {"android": "https://dc.lft.to/lastmile_qr_scan", "ios": "https://dc.lft.to/lastmile_qr_scan"}, "fusion_lon": 0.0}, {"lat": 38.957451666666664, "is_disabled": 0, "type": "electric_scooter", "lon": -77.020705, "bike_id": "3b8eed34e6803176e2b6462e52d0b86c", "fusion_lat": 0.0, "name": "3b8eed34e6803176e2b6462e52d0b86c", "is_reserved": 0, "rental_uris": {"android": "https://dc.lft.to/lastmile_qr_scan", "ios": "https://dc.lft.to/lastmile_qr_scan"}, "fusion_lon": 0.0}, {"lat": 38.958966333333336, "is_disabled": 0, "type": "electric_bike", "lon": -76.92488333333333, "bike_id": "ab19a7b47be9102c858e5034c0691780", "fusion_lat": 0.0, "name": "ab19a7b47be9102c858e5034c0691780", "is_reserved": 0, "rental_uris": {"android": "https://dc.lft.to/lastmile_qr_scan", "ios": "https://dc.lft.to/lastmile_qr_scan"}, "fusion_lon": 0.0}, {"lat": 38.916780333333335, "is_disabled": 0, "type": "electric_scooter", "lon": -77.0019465, "bike_id": "2ce84f8f1016bfe6f8cfa797bad51bee", "fusion_lat": 0.0, "name": "2ce84f8f1016bfe6f8cfa797bad51bee", "is_reserved": 0, "rental_uris": {"android": "https://dc.lft.to/lastmile_qr_scan", "ios": "https://dc.lft.to/lastmile_qr_scan"}, "fusion_lon": 0.0}, {"lat": 38.876246333333334, "is_disabled": 0, "type": "electric_scooter", "lon": -77.01472466666667, "bike_id": "b0c1efa0c1c6e96399b8d62dd21ea630", "fusion_lat": 0.0, "name": "b0c1efa0c1c6e96399b8d62dd21ea630", "is_reserved": 0, "rental_uris": {"android": "https://dc.lft.to/lastmile_qr_scan", "ios": "https://dc.lft.to/lastmile_qr_scan"}, "fusion_lon": 0.0}, {"lat": 38.928938, "is_disabled": 0, "type": "electric_scooter", "lon": -77.07441433333334, "bike_id": "ea9f7cff8bc2dbfe1838bf670bce2532", "fusion_lat": 0.0, "name": "ea9f7cff8bc2dbfe1838bf670bce2532", "is_reserved": 0, "rental_uris": {"android": "https://dc.lft.to/lastmile_qr_scan", "ios": "https://dc.lft.to/lastmile_qr_scan"}, "fusion_lon": 0.0}, {"lat": 38.90294883333333, "is_disabled": 0, "type": "electric_scooter", "lon": -77.020723, "bike_id": "0878b811c3d1d30c7615b7076a11936a", "fusion_lat": 0.0, "name": "0878b811c3d1d30c7615b7076a11936a", "is_reserved": 0, "rental_uris": {"android": "https://dc.lft.to/lastmile_qr_scan", "ios": "https://dc.lft.to/lastmile_qr_scan"}, "fusion_lon": 0.0}, {"lat": 38.88426466666667, "is_disabled": 0, "type": "electric_scooter", "lon": -77.03034533333333, "bike_id": "48573e49559afb2c6493e34f66ec5760", "fusion_lat": 0.0, "name": "48573e49559afb2c6493e34f66ec5760", "is_reserved": 0, "rental_uris": {"android": "https://dc.lft.to/lastmile_qr_scan", "ios": "https://dc.lft.to/lastmile_qr_scan"}, "fusion_lon": 0.0}, {"lat": 38.92583966666667, "is_disabled": 0, "type": "electric_scooter", "lon": -77.05757416666667, "bike_id": "dd0c8337b9697b095aadca036084e05f", "fusion_lat": 0.0, "name": "dd0c8337b9697b095aadca036084e05f", "is_reserved": 0, "rental_uris": {"android": "https://dc.lft.to/lastmile_qr_scan", "ios": "https://dc.lft.to/lastmile_qr_scan"}, "fusion_lon": 0.0}, {"lat": 38.922768, "is_disabled": 0, "type": "electric_scooter", "lon": -77.02971066666667, "bike_id": "15a234fae36c5fd2c5d49b18a25d897c", "fusion_lat": 0.0, "name": "15a234fae36c5fd2c5d49b18a25d897c", "is_reserved": 0, "rental_uris": {"android": "https://dc.lft.to/lastmile_qr_scan", "ios": "https://dc.lft.to/lastmile_qr_scan"}, "fusion_lon": 0.0}, {"lat": 38.9121175, "is_disabled": 0, "type": "electric_scooter", "lon": -77.04133766666666, "bike_id": "4f94346026d7401267d4a15bb3d57f94", "fusion_lat": 0.0, "name": "4f94346026d7401267d4a15bb3d57f94", "is_reserved": 0, "rental_uris": {"android": "https://dc.lft.to/lastmile_qr_scan", "ios": "https://dc.lft.to/lastmile_qr_scan"}, "fusion_lon": 0.0}, {"lat": 38.928824, "is_disabled": 0, "type": "electric_scooter", "lon": -77.03344966666667, "bike_id": "4b03afe9c3bca795c2e1a04059bceeac", "fusion_lat": 0.0, "name": "4b03afe9c3bca795c2e1a04059bceeac", "is_reserved": 0, "rental_uris": {"android": "https://dc.lft.to/lastmile_qr_scan", "ios": "https://dc.lft.to/lastmile_qr_scan"}, "fusion_lon": 0.0}, {"lat": 38.901356166666666, "is_disabled": 0, "type": "electric_scooter", "lon": -77.00067166666666, "bike_id": "053842162acb6661bd8012856b70f0dd", "fusion_lat": 0.0, "name": "053842162acb6661bd8012856b70f0dd", "is_reserved": 0, "rental_uris": {"android": "https://dc.lft.to/lastmile_qr_scan", "ios": "https://dc.lft.to/lastmile_qr_scan"}, "fusion_lon": 0.0}, {"lat": 38.90035783333333, "is_disabled": 0, "type": "electric_scooter", "lon": -76.98833316666666, "bike_id": "f8d2023bbd2466dceeaa906b0a0f9717", "fusion_lat": 0.0, "name": "f8d2023bbd2466dceeaa906b0a0f9717", "is_reserved": 0, "rental_uris": {"android": "https://dc.lft.to/lastmile_qr_scan", "ios": "https://dc.lft.to/lastmile_qr_scan"}, "fusion_lon": 0.0}, {"lat": 38.944316666666666, "is_disabled": 0, "type": "electric_scooter", "lon": -77.0630755, "bike_id": "31dcbd6edc1e4a3d58cf1505909545be", "fusion_lat": 0.0, "name": "31dcbd6edc1e4a3d58cf1505909545be", "is_reserved": 0, "rental_uris": {"android": "https://dc.lft.to/lastmile_qr_scan", "ios": "https://dc.lft.to/lastmile_qr_scan"}, "fusion_lon": 0.0}, {"lat": 38.90613233333333, "is_disabled": 0, "type": "electric_scooter", "lon": -77.0128415, "bike_id": "372cfab399530e86298b2a937c96247f", "fusion_lat": 0.0, "name": "372cfab399530e86298b2a937c96247f", "is_reserved": 0, "rental_uris": {"android": "https://dc.lft.to/lastmile_qr_scan", "ios": "https://dc.lft.to/lastmile_qr_scan"}, "fusion_lon": 0.0}, {"lat": 38.842721, "is_disabled": 0, "type": "electric_bike", "lon": -76.98842816666667, "bike_id": "80e6c4f96ddeeb40f98e548d70d4e3f0", "fusion_lat": 0.0, "name": "80e6c4f96ddeeb40f98e548d70d4e3f0", "is_reserved": 0, "rental_uris": {"android": "https://dc.lft.to/lastmile_qr_scan", "ios": "https://dc.lft.to/lastmile_qr_scan"}, "fusion_lon": 0.0}, {"lat": 38.95635433333333, "is_disabled": 0, "type": "electric_bike", "lon": -76.93886833333333, "bike_id": "cd915ec67b6dfe4e6d4526c8bf1c9de9", "fusion_lat": 0.0, "name": "cd915ec67b6dfe4e6d4526c8bf1c9de9", "is_reserved": 0, "rental_uris": {"android": "https://dc.lft.to/lastmile_qr_scan", "ios": "https://dc.lft.to/lastmile_qr_scan"}, "fusion_lon": 0.0}, {"lat": 38.866292666666666, "is_disabled": 0, "type": "electric_scooter", "lon": -76.9871455, "bike_id": "bb8ee40afa271649a7ab24c9ec899d08", "fusion_lat": 0.0, "name": "bb8ee40afa271649a7ab24c9ec899d08", "is_reserved": 0, "rental_uris": {"android": "https://dc.lft.to/lastmile_qr_scan", "ios": "https://dc.lft.to/lastmile_qr_scan"}, "fusion_lon": 0.0}, {"lat": 38.89235933333333, "is_disabled": 0, "type": "electric_scooter", "lon": -77.02798016666667, "bike_id": "27709b2bfeae17ced1b95ed7cbd5ecab", "fusion_lat": 0.0, "name": "27709b2bfeae17ced1b95ed7cbd5ecab", "is_reserved": 0, "rental_uris": {"android": "https://dc.lft.to/lastmile_qr_scan", "ios": "https://dc.lft.to/lastmile_qr_scan"}, "fusion_lon": 0.0}, {"lat": 38.915327833333336, "is_disabled": 0, "type": "electric_scooter", "lon": -77.01363383333333, "bike_id": "6c14310927dc64af586e359becbe512a", "fusion_lat": 0.0, "name": "6c14310927dc64af586e359becbe512a", "is_reserved": 0, "rental_uris": {"android": "https://dc.lft.to/lastmile_qr_scan", "ios": "https://dc.lft.to/lastmile_qr_scan"}, "fusion_lon": 0.0}, {"lat": 38.899665666666664, "is_disabled": 0, "type": "electric_scooter", "lon": -77.051009, "bike_id": "20e61e84349c00ba922c396e991f20dd", "fusion_lat": 0.0, "name": "20e61e84349c00ba922c396e991f20dd", "is_reserved": 0, "rental_uris": {"android": "https://dc.lft.to/lastmile_qr_scan", "ios": "https://dc.lft.to/lastmile_qr_scan"}, "fusion_lon": 0.0}, {"lat": 38.924641666666666, "is_disabled": 0, "type": "electric_scooter", "lon": -77.05229616666666, "bike_id": "dbc962e825800246a6527364d098fe31", "fusion_lat": 0.0, "name": "dbc962e825800246a6527364d098fe31", "is_reserved": 0, "rental_uris": {"android": "https://dc.lft.to/lastmile_qr_scan", "ios": "https://dc.lft.to/lastmile_qr_scan"}, "fusion_lon": 0.0}, {"lat": 38.9096565, "is_disabled": 0, "type": "electric_scooter", "lon": -77.0231, "bike_id": "4e6eb01e0abe5f0ce63f203bbac65d33", "fusion_lat": 0.0, "name": "4e6eb01e0abe5f0ce63f203bbac65d33", "is_reserved": 0, "rental_uris": {"android": "https://dc.lft.to/lastmile_qr_scan", "ios": "https://dc.lft.to/lastmile_qr_scan"}, "fusion_lon": 0.0}, {"lat": 38.906696333333336, "is_disabled": 0, "type": "electric_scooter", "lon": -77.03655916666666, "bike_id": "17d0bae5c102bd57f9cfdb182154b960", "fusion_lat": 0.0, "name": "17d0bae5c102bd57f9cfdb182154b960", "is_reserved": 0, "rental_uris": {"android": "https://dc.lft.to/lastmile_qr_scan", "ios": "https://dc.lft.to/lastmile_qr_scan"}, "fusion_lon": 0.0}, {"lat": 38.88520583333333, "is_disabled": 0, "type": "electric_scooter", "lon": -77.00273616666666, "bike_id": "8df60cf8930daca23e30ff95b65a62b6", "fusion_lat": 0.0, "name": "8df60cf8930daca23e30ff95b65a62b6", "is_reserved": 0, "rental_uris": {"android": "https://dc.lft.to/lastmile_qr_scan", "ios": "https://dc.lft.to/lastmile_qr_scan"}, "fusion_lon": 0.0}, {"lat": 38.905521666666665, "is_disabled": 0, "type": "electric_scooter", "lon": -77.0059515, "bike_id": "2c394080ffa2528389b0032c45da1777", "fusion_lat": 0.0, "name": "2c394080ffa2528389b0032c45da1777", "is_reserved": 0, "rental_uris": {"android": "https://dc.lft.to/lastmile_qr_scan", "ios": "https://dc.lft.to/lastmile_qr_scan"}, "fusion_lon": 0.0}, {"lat": 38.897728666666666, "is_disabled": 0, "type": "electric_bike", "lon": -76.90435816666667, "bike_id": "070f6e1cf07def6904946d1f6387037c", "fusion_lat": 0.0, "name": "070f6e1cf07def6904946d1f6387037c", "is_reserved": 0, "rental_uris": {"android": "https://dc.lft.to/lastmile_qr_scan", "ios": "https://dc.lft.to/lastmile_qr_scan"}, "fusion_lon": 0.0}, {"lat": 38.85740233333333, "is_disabled": 0, "type": "electric_scooter", "lon": -76.99441833333333, "bike_id": "d6f5fb0834a51f82a27824d2ff89c420", "fusion_lat": 0.0, "name": "d6f5fb0834a51f82a27824d2ff89c420", "is_reserved": 0, "rental_uris": {"android": "https://dc.lft.to/lastmile_qr_scan", "ios": "https://dc.lft.to/lastmile_qr_scan"}, "fusion_lon": 0.0}, {"lat": 38.9096535, "is_disabled": 0, "type": "electric_scooter", "lon": -77.04798866666667, "bike_id": "ebb1ba1ecae6da338703fe70b1246416", "fusion_lat": 0.0, "name": "ebb1ba1ecae6da338703fe70b1246416", "is_reserved": 0, "rental_uris": {"android": "https://dc.lft.to/lastmile_qr_scan", "ios": "https://dc.lft.to/lastmile_qr_scan"}, "fusion_lon": 0.0}, {"lat": 38.90147433333333, "is_disabled": 0, "type": "electric_scooter", "lon": -77.04152466666666, "bike_id": "dd3b1c1b7120e8353624d81d5fae9fbd", "fusion_lat": 0.0, "name": "dd3b1c1b7120e8353624d81d5fae9fbd", "is_reserved": 0, "rental_uris": {"android": "https://dc.lft.to/lastmile_qr_scan", "ios": "https://dc.lft.to/lastmile_qr_scan"}, "fusion_lon": 0.0}, {"lat": 38.9093505, "is_disabled": 0, "type": "electric_scooter", "lon": -77.0384525, "bike_id": "f7521bd31020fa882498d55f58ee98ff", "fusion_lat": 0.0, "name": "f7521bd31020fa882498d55f58ee98ff", "is_reserved": 0, "rental_uris": {"android": "https://dc.lft.to/lastmile_qr_scan", "ios": "https://dc.lft.to/lastmile_qr_scan"}, "fusion_lon": 0.0}, {"lat": 38.94445733333333, "is_disabled": 0, "type": "electric_scooter", "lon": -77.02339183333333, "bike_id": "78f37b9f60c5444ef4f1eb8a26df21ee", "fusion_lat": 0.0, "name": "78f37b9f60c5444ef4f1eb8a26df21ee", "is_reserved": 0, "rental_uris": {"android": "https://dc.lft.to/lastmile_qr_scan", "ios": "https://dc.lft.to/lastmile_qr_scan"}, "fusion_lon": 0.0}, {"lat": 38.92129666666666, "is_disabled": 0, "type": "electric_scooter", "lon": -77.04002566666666, "bike_id": "f272aad62b726645c7888f9c80017343", "fusion_lat": 0.0, "name": "f272aad62b726645c7888f9c80017343", "is_reserved": 0, "rental_uris": {"android": "https://dc.lft.to/lastmile_qr_scan", "ios": "https://dc.lft.to/lastmile_qr_scan"}, "fusion_lon": 0.0}, {"lat": 38.95734983333333, "is_disabled": 0, "type": "electric_bike", "lon": -77.02324033333333, "bike_id": "9ce82f101350c395a048e48334041c0f", "fusion_lat": 0.0, "name": "9ce82f101350c395a048e48334041c0f", "is_reserved": 0, "rental_uris": {"android": "https://dc.lft.to/lastmile_qr_scan", "ios": "https://dc.lft.to/lastmile_qr_scan"}, "fusion_lon": 0.0}, {"lat": 38.9049875, "is_disabled": 0, "type": "electric_scooter", "lon": -77.00933233333333, "bike_id": "170b4cca3401e4c2efbd775471e98f63", "fusion_lat": 0.0, "name": "170b4cca3401e4c2efbd775471e98f63", "is_reserved": 0, "rental_uris": {"android": "https://dc.lft.to/lastmile_qr_scan", "ios": "https://dc.lft.to/lastmile_qr_scan"}, "fusion_lon": 0.0}, {"lat": 38.92481566666667, "is_disabled": 0, "type": "electric_scooter", "lon": -77.02722266666666, "bike_id": "306cf010c5d1c3fdc792ad66cdefb4fa", "fusion_lat": 0.0, "name": "306cf010c5d1c3fdc792ad66cdefb4fa", "is_reserved": 0, "rental_uris": {"android": "https://dc.lft.to/lastmile_qr_scan", "ios": "https://dc.lft.to/lastmile_qr_scan"}, "fusion_lon": 0.0}, {"lat": 38.92155, "is_disabled": 0, "type": "electric_scooter", "lon": -77.042378, "bike_id": "b326ca2b3f4741c039cedaed92a9dac3", "fusion_lat": 0.0, "name": "b326ca2b3f4741c039cedaed92a9dac3", "is_reserved": 0, "rental_uris": {"android": "https://dc.lft.to/lastmile_qr_scan", "ios": "https://dc.lft.to/lastmile_qr_scan"}, "fusion_lon": 0.0}, {"lat": 38.9172985, "is_disabled": 0, "type": "electric_scooter", "lon": -77.04099683333334, "bike_id": "157be6818cceb4196088fe026995008b", "fusion_lat": 0.0, "name": "157be6818cceb4196088fe026995008b", "is_reserved": 0, "rental_uris": {"android": "https://dc.lft.to/lastmile_qr_scan", "ios": "https://dc.lft.to/lastmile_qr_scan"}, "fusion_lon": 0.0}, {"lat": 38.8961325, "is_disabled": 0, "type": "electric_scooter", "lon": -77.02197883333334, "bike_id": "2c8b5fc165e25903047d3444bec6df99", "fusion_lat": 0.0, "name": "2c8b5fc165e25903047d3444bec6df99", "is_reserved": 0, "rental_uris": {"android": "https://dc.lft.to/lastmile_qr_scan", "ios": "https://dc.lft.to/lastmile_qr_scan"}, "fusion_lon": 0.0}, {"lat": 38.866565, "is_disabled": 0, "type": "electric_scooter", "lon": -76.99012333333333, "bike_id": "19937c00f57bc98eb8654ca7c2891bef", "fusion_lat": 0.0, "name": "19937c00f57bc98eb8654ca7c2891bef", "is_reserved": 0, "rental_uris": {"android": "https://dc.lft.to/lastmile_qr_scan", "ios": "https://dc.lft.to/lastmile_qr_scan"}, "fusion_lon": 0.0}, {"lat": 38.908266166666664, "is_disabled": 0, "type": "electric_scooter", "lon": -76.94146416666666, "bike_id": "00d1f6326b8b59f57429b3f9008f9b29", "fusion_lat": 0.0, "name": "00d1f6326b8b59f57429b3f9008f9b29", "is_reserved": 0, "rental_uris": {"android": "https://dc.lft.to/lastmile_qr_scan", "ios": "https://dc.lft.to/lastmile_qr_scan"}, "fusion_lon": 0.0}, {"lat": 38.88731883333333, "is_disabled": 0, "type": "electric_scooter", "lon": -77.0319965, "bike_id": "8e103bce439977cd1f53d0c2023115ec", "fusion_lat": 0.0, "name": "8e103bce439977cd1f53d0c2023115ec", "is_reserved": 0, "rental_uris": {"android": "https://dc.lft.to/lastmile_qr_scan", "ios": "https://dc.lft.to/lastmile_qr_scan"}, "fusion_lon": 0.0}, {"lat": 38.9057695, "is_disabled": 0, "type": "electric_scooter", "lon": -77.03421233333333, "bike_id": "93924d057a648d2f3d9048c3e4aaebc5", "fusion_lat": 0.0, "name": "93924d057a648d2f3d9048c3e4aaebc5", "is_reserved": 0, "rental_uris": {"android": "https://dc.lft.to/lastmile_qr_scan", "ios": "https://dc.lft.to/lastmile_qr_scan"}, "fusion_lon": 0.0}, {"lat": 38.90288183333333, "is_disabled": 0, "type": "electric_scooter", "lon": -77.0260005, "bike_id": "6da3bca89fbc3502d499a57aacfd1786", "fusion_lat": 0.0, "name": "6da3bca89fbc3502d499a57aacfd1786", "is_reserved": 0, "rental_uris": {"android": "https://dc.lft.to/lastmile_qr_scan", "ios": "https://dc.lft.to/lastmile_qr_scan"}, "fusion_lon": 0.0}, {"lat": 38.941761666666665, "is_disabled": 0, "type": "electric_scooter", "lon": -77.02350983333334, "bike_id": "754ee927953e3771b0e1c6dd2a326fc0", "fusion_lat": 0.0, "name": "754ee927953e3771b0e1c6dd2a326fc0", "is_reserved": 0, "rental_uris": {"android": "https://dc.lft.to/lastmile_qr_scan", "ios": "https://dc.lft.to/lastmile_qr_scan"}, "fusion_lon": 0.0}, {"lat": 38.8947715, "is_disabled": 0, "type": "electric_scooter", "lon": -77.0212685, "bike_id": "3d76b89c06f89fb67e828bb975db5e02", "fusion_lat": 0.0, "name": "3d76b89c06f89fb67e828bb975db5e02", "is_reserved": 0, "rental_uris": {"android": "https://dc.lft.to/lastmile_qr_scan", "ios": "https://dc.lft.to/lastmile_qr_scan"}, "fusion_lon": 0.0}, {"lat": 38.905520833333334, "is_disabled": 0, "type": "electric_scooter", "lon": -77.034019, "bike_id": "770b3353ced31d1d2c6b93b3aca7ee1e", "fusion_lat": 0.0, "name": "770b3353ced31d1d2c6b93b3aca7ee1e", "is_reserved": 0, "rental_uris": {"android": "https://dc.lft.to/lastmile_qr_scan", "ios": "https://dc.lft.to/lastmile_qr_scan"}, "fusion_lon": 0.0}, {"lat": 38.869083333333336, "is_disabled": 0, "type": "electric_bike", "lon": -77.13180516666667, "bike_id": "33ae753ce8950439cd992d05eb67eab4", "fusion_lat": 0.0, "name": "33ae753ce8950439cd992d05eb67eab4", "is_reserved": 0, "rental_uris": {"android": "https://dc.lft.to/lastmile_qr_scan", "ios": "https://dc.lft.to/lastmile_qr_scan"}, "fusion_lon": 0.0}, {"lat": 38.91047233333333, "is_disabled": 0, "type": "electric_scooter", "lon": -77.01506, "bike_id": "9391b6279f31e844aff0e0e6dc7f043f", "fusion_lat": 0.0, "name": "9391b6279f31e844aff0e0e6dc7f043f", "is_reserved": 0, "rental_uris": {"android": "https://dc.lft.to/lastmile_qr_scan", "ios": "https://dc.lft.to/lastmile_qr_scan"}, "fusion_lon": 0.0}, {"lat": 38.8465515, "is_disabled": 0, "type": "electric_bike", "lon": -76.97928966666667, "bike_id": "bca1f0db80427d32804eb7601b3c81ff", "fusion_lat": 0.0, "name": "bca1f0db80427d32804eb7601b3c81ff", "is_reserved": 0, "rental_uris": {"android": "https://dc.lft.to/lastmile_qr_scan", "ios": "https://dc.lft.to/lastmile_qr_scan"}, "fusion_lon": 0.0}, {"lat": 38.932835, "is_disabled": 0, "type": "electric_scooter", "lon": -77.03971866666667, "bike_id": "864b42ce5f8f383058b0dee886fc0548", "fusion_lat": 0.0, "name": "864b42ce5f8f383058b0dee886fc0548", "is_reserved": 0, "rental_uris": {"android": "https://dc.lft.to/lastmile_qr_scan", "ios": "https://dc.lft.to/lastmile_qr_scan"}, "fusion_lon": 0.0}, {"lat": 38.9199965, "is_disabled": 0, "type": "electric_scooter", "lon": -77.032331, "bike_id": "0dc384a9ccbfb71c99938ff2f06db482", "fusion_lat": 0.0, "name": "0dc384a9ccbfb71c99938ff2f06db482", "is_reserved": 0, "rental_uris": {"android": "https://dc.lft.to/lastmile_qr_scan", "ios": "https://dc.lft.to/lastmile_qr_scan"}, "fusion_lon": 0.0}, {"lat": 38.9327225, "is_disabled": 0, "type": "electric_scooter", "lon": -77.03637516666667, "bike_id": "3731742a32545f4dbce4f03340593ad4", "fusion_lat": 0.0, "name": "3731742a32545f4dbce4f03340593ad4", "is_reserved": 0, "rental_uris": {"android": "https://dc.lft.to/lastmile_qr_scan", "ios": "https://dc.lft.to/lastmile_qr_scan"}, "fusion_lon": 0.0}, {"lat": 38.90721, "is_disabled": 0, "type": "electric_scooter", "lon": -77.02381116666666, "bike_id": "f24e6ba115b5898b76a5897f05e0d259", "fusion_lat": 0.0, "name": "f24e6ba115b5898b76a5897f05e0d259", "is_reserved": 0, "rental_uris": {"android": "https://dc.lft.to/lastmile_qr_scan", "ios": "https://dc.lft.to/lastmile_qr_scan"}, "fusion_lon": 0.0}, {"lat": 38.924800833333336, "is_disabled": 0, "type": "electric_scooter", "lon": -77.0521005, "bike_id": "9112ddf3666c7c358fe8b25d6bb55b23", "fusion_lat": 0.0, "name": "9112ddf3666c7c358fe8b25d6bb55b23", "is_reserved": 0, "rental_uris": {"android": "https://dc.lft.to/lastmile_qr_scan", "ios": "https://dc.lft.to/lastmile_qr_scan"}, "fusion_lon": 0.0}, {"lat": 38.931723166666664, "is_disabled": 0, "type": "electric_scooter", "lon": -77.02816983333334, "bike_id": "fbf1646c6ab7bf6d0613b42394fce855", "fusion_lat": 0.0, "name": "fbf1646c6ab7bf6d0613b42394fce855", "is_reserved": 0, "rental_uris": {"android": "https://dc.lft.to/lastmile_qr_scan", "ios": "https://dc.lft.to/lastmile_qr_scan"}, "fusion_lon": 0.0}, {"lat": 38.890402333333334, "is_disabled": 0, "type": "electric_scooter", "lon": -76.95138866666667, "bike_id": "32d857777c9a8d3ac973e193cb7a0ada", "fusion_lat": 0.0, "name": "32d857777c9a8d3ac973e193cb7a0ada", "is_reserved": 0, "rental_uris": {"android": "https://dc.lft.to/lastmile_qr_scan", "ios": "https://dc.lft.to/lastmile_qr_scan"}, "fusion_lon": 0.0}, {"lat": 38.89483383333334, "is_disabled": 0, "type": "electric_scooter", "lon": -77.02284383333334, "bike_id": "61868c4822e8f53cd939fc6f4a094947", "fusion_lat": 0.0, "name": "61868c4822e8f53cd939fc6f4a094947", "is_reserved": 0, "rental_uris": {"android": "https://dc.lft.to/lastmile_qr_scan", "ios": "https://dc.lft.to/lastmile_qr_scan"}, "fusion_lon": 0.0}, {"lat": 38.8964715, "is_disabled": 0, "type": "electric_scooter", "lon": -77.02296266666667, "bike_id": "3a9dd1dafcc5f75724937e65847e527d", "fusion_lat": 0.0, "name": "3a9dd1dafcc5f75724937e65847e527d", "is_reserved": 0, "rental_uris": {"android": "https://dc.lft.to/lastmile_qr_scan", "ios": "https://dc.lft.to/lastmile_qr_scan"}, "fusion_lon": 0.0}, {"lat": 38.90203433333333, "is_disabled": 0, "type": "electric_scooter", "lon": -77.0218155, "bike_id": "9275259ea62c17645a0f3afa3b628a43", "fusion_lat": 0.0, "name": "9275259ea62c17645a0f3afa3b628a43", "is_reserved": 0, "rental_uris": {"android": "https://dc.lft.to/lastmile_qr_scan", "ios": "https://dc.lft.to/lastmile_qr_scan"}, "fusion_lon": 0.0}, {"lat": 38.85509033333334, "is_disabled": 0, "type": "electric_bike", "lon": -77.12018216666667, "bike_id": "183acfe156407ba1a993989266201b18", "fusion_lat": 0.0, "name": "183acfe156407ba1a993989266201b18", "is_reserved": 0, "rental_uris": {"android": "https://dc.lft.to/lastmile_qr_scan", "ios": "https://dc.lft.to/lastmile_qr_scan"}, "fusion_lon": 0.0}, {"lat": 38.916056, "is_disabled": 0, "type": "electric_scooter", "lon": -77.048724, "bike_id": "e6dab3e5dfea0feb737fb23b50da6070", "fusion_lat": 0.0, "name": "e6dab3e5dfea0feb737fb23b50da6070", "is_reserved": 0, "rental_uris": {"android": "https://dc.lft.to/lastmile_qr_scan", "ios": "https://dc.lft.to/lastmile_qr_scan"}, "fusion_lon": 0.0}, {"lat": 39.00380233333333, "is_disabled": 0, "type": "electric_bike", "lon": -77.01283533333333, "bike_id": "e494f41f71780716cde7c7f02c79c9ab", "fusion_lat": 0.0, "name": "e494f41f71780716cde7c7f02c79c9ab", "is_reserved": 0, "rental_uris": {"android": "https://dc.lft.to/lastmile_qr_scan", "ios": "https://dc.lft.to/lastmile_qr_scan"}, "fusion_lon": 0.0}, {"lat": 38.926921666666665, "is_disabled": 0, "type": "electric_scooter", "lon": -77.025802, "bike_id": "88945db53a22dbc79766bdee006d604d", "fusion_lat": 0.0, "name": "88945db53a22dbc79766bdee006d604d", "is_reserved": 0, "rental_uris": {"android": "https://dc.lft.to/lastmile_qr_scan", "ios": "https://dc.lft.to/lastmile_qr_scan"}, "fusion_lon": 0.0}, {"lat": 38.923184, "is_disabled": 0, "type": "electric_scooter", "lon": -77.02958516666666, "bike_id": "408e8fcbc91a2c498134b608755eaf2e", "fusion_lat": 0.0, "name": "408e8fcbc91a2c498134b608755eaf2e", "is_reserved": 0, "rental_uris": {"android": "https://dc.lft.to/lastmile_qr_scan", "ios": "https://dc.lft.to/lastmile_qr_scan"}, "fusion_lon": 0.0}, {"lat": 38.933127666666664, "is_disabled": 0, "type": "electric_scooter", "lon": -77.05704083333333, "bike_id": "5955ca09be9b5ef9748be450710a5224", "fusion_lat": 0.0, "name": "5955ca09be9b5ef9748be450710a5224", "is_reserved": 0, "rental_uris": {"android": "https://dc.lft.to/lastmile_qr_scan", "ios": "https://dc.lft.to/lastmile_qr_scan"}, "fusion_lon": 0.0}, {"lat": 38.938303833333336, "is_disabled": 0, "type": "electric_scooter", "lon": -77.06045966666667, "bike_id": "3889ff7c98a7e0d79b158d856f39b8db", "fusion_lat": 0.0, "name": "3889ff7c98a7e0d79b158d856f39b8db", "is_reserved": 0, "rental_uris": {"android": "https://dc.lft.to/lastmile_qr_scan", "ios": "https://dc.lft.to/lastmile_qr_scan"}, "fusion_lon": 0.0}, {"lat": 38.89840016666667, "is_disabled": 0, "type": "electric_scooter", "lon": -76.93103216666667, "bike_id": "75538bce644b53b369c4b1f1bcc62894", "fusion_lat": 0.0, "name": "75538bce644b53b369c4b1f1bcc62894", "is_reserved": 0, "rental_uris": {"android": "https://dc.lft.to/lastmile_qr_scan", "ios": "https://dc.lft.to/lastmile_qr_scan"}, "fusion_lon": 0.0}, {"lat": 38.90232533333333, "is_disabled": 0, "type": "electric_scooter", "lon": -77.05342766666666, "bike_id": "e41fb857a241c025847e8dc432e5b0e6", "fusion_lat": 0.0, "name": "e41fb857a241c025847e8dc432e5b0e6", "is_reserved": 0, "rental_uris": {"android": "https://dc.lft.to/lastmile_qr_scan", "ios": "https://dc.lft.to/lastmile_qr_scan"}, "fusion_lon": 0.0}, {"lat": 38.925709, "is_disabled": 0, "type": "electric_scooter", "lon": -76.97007183333334, "bike_id": "28e187176018c39dad5f9702001181ed", "fusion_lat": 0.0, "name": "28e187176018c39dad5f9702001181ed", "is_reserved": 0, "rental_uris": {"android": "https://dc.lft.to/lastmile_qr_scan", "ios": "https://dc.lft.to/lastmile_qr_scan"}, "fusion_lon": 0.0}, {"lat": 38.933542333333335, "is_disabled": 0, "type": "electric_scooter", "lon": -77.073753, "bike_id": "912cb71402f6b22935e0d7778edd6066", "fusion_lat": 0.0, "name": "912cb71402f6b22935e0d7778edd6066", "is_reserved": 0, "rental_uris": {"android": "https://dc.lft.to/lastmile_qr_scan", "ios": "https://dc.lft.to/lastmile_qr_scan"}, "fusion_lon": 0.0}, {"lat": 38.8997975, "is_disabled": 0, "type": "electric_bike", "lon": -76.98541116666667, "bike_id": "98a0c3f1ef083fd1f91910e901ef5d47", "fusion_lat": 0.0, "name": "98a0c3f1ef083fd1f91910e901ef5d47", "is_reserved": 0, "rental_uris": {"android": "https://dc.lft.to/lastmile_qr_scan", "ios": "https://dc.lft.to/lastmile_qr_scan"}, "fusion_lon": 0.0}, {"lat": 38.8924485, "is_disabled": 0, "type": "electric_scooter", "lon": -77.04892666666667, "bike_id": "00604dd96acf7f2efca82809174695b6", "fusion_lat": 0.0, "name": "00604dd96acf7f2efca82809174695b6", "is_reserved": 0, "rental_uris": {"android": "https://dc.lft.to/lastmile_qr_scan", "ios": "https://dc.lft.to/lastmile_qr_scan"}, "fusion_lon": 0.0}, {"lat": 38.96603016666667, "is_disabled": 0, "type": "electric_bike", "lon": -76.98327983333333, "bike_id": "8054eb95b68454b60e3a0320d46bc5df", "fusion_lat": 0.0, "name": "8054eb95b68454b60e3a0320d46bc5df", "is_reserved": 0, "rental_uris": {"android": "https://dc.lft.to/lastmile_qr_scan", "ios": "https://dc.lft.to/lastmile_qr_scan"}, "fusion_lon": 0.0}, {"lat": 38.936413, "is_disabled": 0, "type": "electric_bike", "lon": -77.032801, "bike_id": "599cb4e18b96e8f5ae45c812af96fa4a", "fusion_lat": 0.0, "name": "599cb4e18b96e8f5ae45c812af96fa4a", "is_reserved": 0, "rental_uris": {"android": "https://dc.lft.to/lastmile_qr_scan", "ios": "https://dc.lft.to/lastmile_qr_scan"}, "fusion_lon": 0.0}, {"lat": 38.92106066666667, "is_disabled": 0, "type": "electric_scooter", "lon": -77.03918116666667, "bike_id": "b170bb30d7348d628340dea718cb5068", "fusion_lat": 0.0, "name": "b170bb30d7348d628340dea718cb5068", "is_reserved": 0, "rental_uris": {"android": "https://dc.lft.to/lastmile_qr_scan", "ios": "https://dc.lft.to/lastmile_qr_scan"}, "fusion_lon": 0.0}, {"lat": 38.889259, "is_disabled": 0, "type": "electric_scooter", "lon": -76.97374, "bike_id": "7cd1af0d519e274a91f768880eb8dd5e", "fusion_lat": 0.0, "name": "7cd1af0d519e274a91f768880eb8dd5e", "is_reserved": 0, "rental_uris": {"android": "https://dc.lft.to/lastmile_qr_scan", "ios": "https://dc.lft.to/lastmile_qr_scan"}, "fusion_lon": 0.0}, {"lat": 38.906363999999996, "is_disabled": 0, "type": "electric_scooter", "lon": -77.06286483333334, "bike_id": "0fb67cbd645ead485ff71087b2138da5", "fusion_lat": 0.0, "name": "0fb67cbd645ead485ff71087b2138da5", "is_reserved": 0, "rental_uris": {"android": "https://dc.lft.to/lastmile_qr_scan", "ios": "https://dc.lft.to/lastmile_qr_scan"}, "fusion_lon": 0.0}, {"lat": 38.925717, "is_disabled": 0, "type": "electric_scooter", "lon": -77.02839566666667, "bike_id": "91474405c2982c7add61e37328a84697", "fusion_lat": 0.0, "name": "91474405c2982c7add61e37328a84697", "is_reserved": 0, "rental_uris": {"android": "https://dc.lft.to/lastmile_qr_scan", "ios": "https://dc.lft.to/lastmile_qr_scan"}, "fusion_lon": 0.0}, {"lat": 38.91441666666667, "is_disabled": 0, "type": "electric_scooter", "lon": -77.045847, "bike_id": "de891443132599c0f4f70807cd94128f", "fusion_lat": 0.0, "name": "de891443132599c0f4f70807cd94128f", "is_reserved": 0, "rental_uris": {"android": "https://dc.lft.to/lastmile_qr_scan", "ios": "https://dc.lft.to/lastmile_qr_scan"}, "fusion_lon": 0.0}, {"lat": 38.914148, "is_disabled": 0, "type": "electric_scooter", "lon": -77.02233433333333, "bike_id": "c749eadb91d2b3d5411f4449a6f6f5ac", "fusion_lat": 0.0, "name": "c749eadb91d2b3d5411f4449a6f6f5ac", "is_reserved": 0, "rental_uris": {"android": "https://dc.lft.to/lastmile_qr_scan", "ios": "https://dc.lft.to/lastmile_qr_scan"}, "fusion_lon": 0.0}, {"lat": 38.90561, "is_disabled": 0, "type": "electric_scooter", "lon": -77.024876, "bike_id": "ea81ffee1a9ba03f02318b1c95289feb", "fusion_lat": 0.0, "name": "ea81ffee1a9ba03f02318b1c95289feb", "is_reserved": 0, "rental_uris": {"android": "https://dc.lft.to/lastmile_qr_scan", "ios": "https://dc.lft.to/lastmile_qr_scan"}, "fusion_lon": 0.0}, {"lat": 38.94200816666667, "is_disabled": 0, "type": "electric_scooter", "lon": -77.01829216666667, "bike_id": "90dfa683a58e64bea88b736929bddfab", "fusion_lat": 0.0, "name": "90dfa683a58e64bea88b736929bddfab", "is_reserved": 0, "rental_uris": {"android": "https://dc.lft.to/lastmile_qr_scan", "ios": "https://dc.lft.to/lastmile_qr_scan"}, "fusion_lon": 0.0}, {"lat": 38.96704583333333, "is_disabled": 0, "type": "electric_bike", "lon": -77.1022055, "bike_id": "d7b3eaa1f3141530edd3c91791434bd0", "fusion_lat": 0.0, "name": "d7b3eaa1f3141530edd3c91791434bd0", "is_reserved": 0, "rental_uris": {"android": "https://dc.lft.to/lastmile_qr_scan", "ios": "https://dc.lft.to/lastmile_qr_scan"}, "fusion_lon": 0.0}, {"lat": 38.909707166666664, "is_disabled": 0, "type": "electric_scooter", "lon": -77.03426116666667, "bike_id": "c38d75b793a8ce9ce066476a3a184fa3", "fusion_lat": 0.0, "name": "c38d75b793a8ce9ce066476a3a184fa3", "is_reserved": 0, "rental_uris": {"android": "https://dc.lft.to/lastmile_qr_scan", "ios": "https://dc.lft.to/lastmile_qr_scan"}, "fusion_lon": 0.0}, {"lat": 38.86160183333333, "is_disabled": 0, "type": "electric_bike", "lon": -77.13092583333334, "bike_id": "8670cf165bb0193933ed5f18526c93b2", "fusion_lat": 0.0, "name": "8670cf165bb0193933ed5f18526c93b2", "is_reserved": 0, "rental_uris": {"android": "https://dc.lft.to/lastmile_qr_scan", "ios": "https://dc.lft.to/lastmile_qr_scan"}, "fusion_lon": 0.0}, {"lat": 38.88726783333333, "is_disabled": 0, "type": "electric_scooter", "lon": -77.01383883333334, "bike_id": "c36b345bf3153dd6f3187fe73dc381a4", "fusion_lat": 0.0, "name": "c36b345bf3153dd6f3187fe73dc381a4", "is_reserved": 0, "rental_uris": {"android": "https://dc.lft.to/lastmile_qr_scan", "ios": "https://dc.lft.to/lastmile_qr_scan"}, "fusion_lon": 0.0}, {"lat": 38.932563333333334, "is_disabled": 0, "type": "electric_scooter", "lon": -77.03261866666666, "bike_id": "6ea971995049b08afe999b3afb585fa0", "fusion_lat": 0.0, "name": "6ea971995049b08afe999b3afb585fa0", "is_reserved": 0, "rental_uris": {"android": "https://dc.lft.to/lastmile_qr_scan", "ios": "https://dc.lft.to/lastmile_qr_scan"}, "fusion_lon": 0.0}, {"lat": 38.920586, "is_disabled": 0, "type": "electric_scooter", "lon": -77.03288233333333, "bike_id": "95f446cb13929e5573bf69b688f2b832", "fusion_lat": 0.0, "name": "95f446cb13929e5573bf69b688f2b832", "is_reserved": 0, "rental_uris": {"android": "https://dc.lft.to/lastmile_qr_scan", "ios": "https://dc.lft.to/lastmile_qr_scan"}, "fusion_lon": 0.0}, {"lat": 38.871394333333335, "is_disabled": 0, "type": "electric_bike", "lon": -76.937049, "bike_id": "07db4f121efd7dd9c39eefb8775cce57", "fusion_lat": 0.0, "name": "07db4f121efd7dd9c39eefb8775cce57", "is_reserved": 0, "rental_uris": {"android": "https://dc.lft.to/lastmile_qr_scan", "ios": "https://dc.lft.to/lastmile_qr_scan"}, "fusion_lon": 0.0}, {"lat": 38.8843045, "is_disabled": 0, "type": "electric_bike", "lon": -76.95752566666667, "bike_id": "2c201f2425fd42018ee5c9cbb59544c6", "fusion_lat": 0.0, "name": "2c201f2425fd42018ee5c9cbb59544c6", "is_reserved": 0, "rental_uris": {"android": "https://dc.lft.to/lastmile_qr_scan", "ios": "https://dc.lft.to/lastmile_qr_scan"}, "fusion_lon": 0.0}, {"lat": 38.9161565, "is_disabled": 0, "type": "electric_scooter", "lon": -77.0326805, "bike_id": "906b87af664e8db14903d811f6dc3d2c", "fusion_lat": 0.0, "name": "906b87af664e8db14903d811f6dc3d2c", "is_reserved": 0, "rental_uris": {"android": "https://dc.lft.to/lastmile_qr_scan", "ios": "https://dc.lft.to/lastmile_qr_scan"}, "fusion_lon": 0.0}, {"lat": 38.93109416666667, "is_disabled": 0, "type": "electric_scooter", "lon": -77.03469116666666, "bike_id": "ca6ba05cb1ca2a547079afadddb17400", "fusion_lat": 0.0, "name": "ca6ba05cb1ca2a547079afadddb17400", "is_reserved": 0, "rental_uris": {"android": "https://dc.lft.to/lastmile_qr_scan", "ios": "https://dc.lft.to/lastmile_qr_scan"}, "fusion_lon": 0.0}, {"lat": 38.90170966666667, "is_disabled": 0, "type": "electric_scooter", "lon": -76.98065616666666, "bike_id": "155aba9af946e2c1ca40ccbd0b9891c0", "fusion_lat": 0.0, "name": "155aba9af946e2c1ca40ccbd0b9891c0", "is_reserved": 0, "rental_uris": {"android": "https://dc.lft.to/lastmile_qr_scan", "ios": "https://dc.lft.to/lastmile_qr_scan"}, "fusion_lon": 0.0}, {"lat": 38.93093783333333, "is_disabled": 0, "type": "electric_scooter", "lon": -77.02512733333333, "bike_id": "cbe8ded7efaf12889d64773c7c7a3963", "fusion_lat": 0.0, "name": "cbe8ded7efaf12889d64773c7c7a3963", "is_reserved": 0, "rental_uris": {"android": "https://dc.lft.to/lastmile_qr_scan", "ios": "https://dc.lft.to/lastmile_qr_scan"}, "fusion_lon": 0.0}, {"lat": 38.8715615, "is_disabled": 0, "type": "electric_scooter", "lon": -77.0131965, "bike_id": "a4d09d073935bd6ff6281b9bb0abe7b5", "fusion_lat": 0.0, "name": "a4d09d073935bd6ff6281b9bb0abe7b5", "is_reserved": 0, "rental_uris": {"android": "https://dc.lft.to/lastmile_qr_scan", "ios": "https://dc.lft.to/lastmile_qr_scan"}, "fusion_lon": 0.0}, {"lat": 38.8457305, "is_disabled": 0, "type": "electric_bike", "lon": -77.09619716666667, "bike_id": "56727b5fbb7f3d003f90b8fad29285b3", "fusion_lat": 0.0, "name": "56727b5fbb7f3d003f90b8fad29285b3", "is_reserved": 0, "rental_uris": {"android": "https://dc.lft.to/lastmile_qr_scan", "ios": "https://dc.lft.to/lastmile_qr_scan"}, "fusion_lon": 0.0}, {"lat": 38.836832, "is_disabled": 0, "type": "electric_scooter", "lon": -77.103009, "bike_id": "71b3946ff618f255a7ed5083711f7b3f", "fusion_lat": 0.0, "name": "71b3946ff618f255a7ed5083711f7b3f", "is_reserved": 0, "rental_uris": {"android": "https://dc.lft.to/lastmile_qr_scan", "ios": "https://dc.lft.to/lastmile_qr_scan"}, "fusion_lon": 0.0}, {"lat": 38.9207625, "is_disabled": 0, "type": "electric_scooter", "lon": -77.02427416666667, "bike_id": "759bc4bb3b706657ea3ab9f5b51ba243", "fusion_lat": 0.0, "name": "759bc4bb3b706657ea3ab9f5b51ba243", "is_reserved": 0, "rental_uris": {"android": "https://dc.lft.to/lastmile_qr_scan", "ios": "https://dc.lft.to/lastmile_qr_scan"}, "fusion_lon": 0.0}, {"lat": 38.9024145, "is_disabled": 0, "type": "electric_scooter", "lon": -77.05335483333333, "bike_id": "3aa440fa3ea2b85043d85fc75173bd0e", "fusion_lat": 0.0, "name": "3aa440fa3ea2b85043d85fc75173bd0e", "is_reserved": 0, "rental_uris": {"android": "https://dc.lft.to/lastmile_qr_scan", "ios": "https://dc.lft.to/lastmile_qr_scan"}, "fusion_lon": 0.0}, {"lat": 38.867056166666664, "is_disabled": 0, "type": "electric_scooter", "lon": -76.98723283333334, "bike_id": "54497c8cab3a8138cf42447d30670b5b", "fusion_lat": 0.0, "name": "54497c8cab3a8138cf42447d30670b5b", "is_reserved": 0, "rental_uris": {"android": "https://dc.lft.to/lastmile_qr_scan", "ios": "https://dc.lft.to/lastmile_qr_scan"}, "fusion_lon": 0.0}, {"lat": 38.90498516666667, "is_disabled": 0, "type": "electric_scooter", "lon": -77.0074075, "bike_id": "331bf8670dfe210644af207d9e212d8f", "fusion_lat": 0.0, "name": "331bf8670dfe210644af207d9e212d8f", "is_reserved": 0, "rental_uris": {"android": "https://dc.lft.to/lastmile_qr_scan", "ios": "https://dc.lft.to/lastmile_qr_scan"}, "fusion_lon": 0.0}, {"lat": 38.911719833333336, "is_disabled": 0, "type": "electric_bike", "lon": -77.00288783333333, "bike_id": "4cd29d2c3ba57de5c4da0c268f6ed244", "fusion_lat": 0.0, "name": "4cd29d2c3ba57de5c4da0c268f6ed244", "is_reserved": 0, "rental_uris": {"android": "https://dc.lft.to/lastmile_qr_scan", "ios": "https://dc.lft.to/lastmile_qr_scan"}, "fusion_lon": 0.0}, {"lat": 38.900149166666665, "is_disabled": 0, "type": "electric_scooter", "lon": -76.98814616666667, "bike_id": "76caa7493bec8fb9b3e45060f93dc1c0", "fusion_lat": 0.0, "name": "76caa7493bec8fb9b3e45060f93dc1c0", "is_reserved": 0, "rental_uris": {"android": "https://dc.lft.to/lastmile_qr_scan", "ios": "https://dc.lft.to/lastmile_qr_scan"}, "fusion_lon": 0.0}, {"lat": 38.8839475, "is_disabled": 0, "type": "electric_scooter", "lon": -77.018915, "bike_id": "8d9354fa10ce6ef6b6f8e3ae0d5d4f32", "fusion_lat": 0.0, "name": "8d9354fa10ce6ef6b6f8e3ae0d5d4f32", "is_reserved": 0, "rental_uris": {"android": "https://dc.lft.to/lastmile_qr_scan", "ios": "https://dc.lft.to/lastmile_qr_scan"}, "fusion_lon": 0.0}, {"lat": 38.924761333333336, "is_disabled": 0, "type": "electric_scooter", "lon": -77.02645366666667, "bike_id": "bd665e764940e6acbfb8956b47ee0541", "fusion_lat": 0.0, "name": "bd665e764940e6acbfb8956b47ee0541", "is_reserved": 0, "rental_uris": {"android": "https://dc.lft.to/lastmile_qr_scan", "ios": "https://dc.lft.to/lastmile_qr_scan"}, "fusion_lon": 0.0}, {"lat": 38.912243, "is_disabled": 0, "type": "electric_scooter", "lon": -77.00223383333334, "bike_id": "db794d9db70db6bc8433a5ad17e045ee", "fusion_lat": 0.0, "name": "db794d9db70db6bc8433a5ad17e045ee", "is_reserved": 0, "rental_uris": {"android": "https://dc.lft.to/lastmile_qr_scan", "ios": "https://dc.lft.to/lastmile_qr_scan"}, "fusion_lon": 0.0}, {"lat": 38.909174, "is_disabled": 0, "type": "electric_scooter", "lon": -77.03645766666666, "bike_id": "b7051d42698d7253fc6eae95075cc5c9", "fusion_lat": 0.0, "name": "b7051d42698d7253fc6eae95075cc5c9", "is_reserved": 0, "rental_uris": {"android": "https://dc.lft.to/lastmile_qr_scan", "ios": "https://dc.lft.to/lastmile_qr_scan"}, "fusion_lon": 0.0}, {"lat": 38.868885166666665, "is_disabled": 0, "type": "electric_scooter", "lon": -76.98310933333333, "bike_id": "394de65ecac9f4555d5255599652214b", "fusion_lat": 0.0, "name": "394de65ecac9f4555d5255599652214b", "is_reserved": 0, "rental_uris": {"android": "https://dc.lft.to/lastmile_qr_scan", "ios": "https://dc.lft.to/lastmile_qr_scan"}, "fusion_lon": 0.0}, {"lat": 38.87339866666667, "is_disabled": 0, "type": "electric_scooter", "lon": -76.99164333333333, "bike_id": "6e7c53ee15487065ceecae7e2fa09d80", "fusion_lat": 0.0, "name": "6e7c53ee15487065ceecae7e2fa09d80", "is_reserved": 0, "rental_uris": {"android": "https://dc.lft.to/lastmile_qr_scan", "ios": "https://dc.lft.to/lastmile_qr_scan"}, "fusion_lon": 0.0}, {"lat": 38.93889183333334, "is_disabled": 0, "type": "electric_scooter", "lon": -77.0282215, "bike_id": "bfa3830a6052e738e7104d589ab5161d", "fusion_lat": 0.0, "name": "bfa3830a6052e738e7104d589ab5161d", "is_reserved": 0, "rental_uris": {"android": "https://dc.lft.to/lastmile_qr_scan", "ios": "https://dc.lft.to/lastmile_qr_scan"}, "fusion_lon": 0.0}, {"lat": 38.9049615, "is_disabled": 0, "type": "electric_scooter", "lon": -77.06827133333333, "bike_id": "887ad0f30db5b6e76a2a4caa2b69b6ca", "fusion_lat": 0.0, "name": "887ad0f30db5b6e76a2a4caa2b69b6ca", "is_reserved": 0, "rental_uris": {"android": "https://dc.lft.to/lastmile_qr_scan", "ios": "https://dc.lft.to/lastmile_qr_scan"}, "fusion_lon": 0.0}, {"lat": 38.91550216666667, "is_disabled": 0, "type": "electric_scooter", "lon": -77.0415555, "bike_id": "e9ba1ff1906b8b9cfbe05fd58408e06e", "fusion_lat": 0.0, "name": "e9ba1ff1906b8b9cfbe05fd58408e06e", "is_reserved": 0, "rental_uris": {"android": "https://dc.lft.to/lastmile_qr_scan", "ios": "https://dc.lft.to/lastmile_qr_scan"}, "fusion_lon": 0.0}, {"lat": 38.94430466666667, "is_disabled": 0, "type": "electric_scooter", "lon": -77.06351116666667, "bike_id": "1b676f6525ab37a3920e57304be45ce5", "fusion_lat": 0.0, "name": "1b676f6525ab37a3920e57304be45ce5", "is_reserved": 0, "rental_uris": {"android": "https://dc.lft.to/lastmile_qr_scan", "ios": "https://dc.lft.to/lastmile_qr_scan"}, "fusion_lon": 0.0}, {"lat": 38.90497033333333, "is_disabled": 0, "type": "electric_scooter", "lon": -76.98714916666667, "bike_id": "4d284ed1dc157409feb510fc8a79c07d", "fusion_lat": 0.0, "name": "4d284ed1dc157409feb510fc8a79c07d", "is_reserved": 0, "rental_uris": {"android": "https://dc.lft.to/lastmile_qr_scan", "ios": "https://dc.lft.to/lastmile_qr_scan"}, "fusion_lon": 0.0}, {"lat": 38.904916166666666, "is_disabled": 0, "type": "electric_scooter", "lon": -77.02003533333334, "bike_id": "70806abc7b2ba823ddb46b821f2dfa28", "fusion_lat": 0.0, "name": "70806abc7b2ba823ddb46b821f2dfa28", "is_reserved": 0, "rental_uris": {"android": "https://dc.lft.to/lastmile_qr_scan", "ios": "https://dc.lft.to/lastmile_qr_scan"}, "fusion_lon": 0.0}, {"lat": 38.89837966666666, "is_disabled": 0, "type": "electric_scooter", "lon": -77.03329266666667, "bike_id": "9698d0d9fa414005b4dec3452f55e988", "fusion_lat": 0.0, "name": "9698d0d9fa414005b4dec3452f55e988", "is_reserved": 0, "rental_uris": {"android": "https://dc.lft.to/lastmile_qr_scan", "ios": "https://dc.lft.to/lastmile_qr_scan"}, "fusion_lon": 0.0}, {"lat": 38.89952666666667, "is_disabled": 0, "type": "electric_scooter", "lon": -77.052004, "bike_id": "4879e09c0b1f030a1105dbe0be15c006", "fusion_lat": 0.0, "name": "4879e09c0b1f030a1105dbe0be15c006", "is_reserved": 0, "rental_uris": {"android": "https://dc.lft.to/lastmile_qr_scan", "ios": "https://dc.lft.to/lastmile_qr_scan"}, "fusion_lon": 0.0}, {"lat": 38.8851295, "is_disabled": 0, "type": "electric_scooter", "lon": -77.020977, "bike_id": "6f3c0b219cd270fe9f52ebeb0d7adc98", "fusion_lat": 0.0, "name": "6f3c0b219cd270fe9f52ebeb0d7adc98", "is_reserved": 0, "rental_uris": {"android": "https://dc.lft.to/lastmile_qr_scan", "ios": "https://dc.lft.to/lastmile_qr_scan"}, "fusion_lon": 0.0}, {"lat": 38.91219316666667, "is_disabled": 0, "type": "electric_scooter", "lon": -77.00449016666667, "bike_id": "9ec08752ac08fbe3047ad95bc14a0ad1", "fusion_lat": 0.0, "name": "9ec08752ac08fbe3047ad95bc14a0ad1", "is_reserved": 0, "rental_uris": {"android": "https://dc.lft.to/lastmile_qr_scan", "ios": "https://dc.lft.to/lastmile_qr_scan"}, "fusion_lon": 0.0}, {"lat": 38.92811666666667, "is_disabled": 0, "type": "electric_bike", "lon": -77.0237715, "bike_id": "36c498a7a51b245853ef6b26197cf3b3", "fusion_lat": 0.0, "name": "36c498a7a51b245853ef6b26197cf3b3", "is_reserved": 0, "rental_uris": {"android": "https://dc.lft.to/lastmile_qr_scan", "ios": "https://dc.lft.to/lastmile_qr_scan"}, "fusion_lon": 0.0}, {"lat": 38.892915333333335, "is_disabled": 0, "type": "electric_scooter", "lon": -77.00209766666667, "bike_id": "9cef09a5f5c5a94fbc06aa97af17f413", "fusion_lat": 0.0, "name": "9cef09a5f5c5a94fbc06aa97af17f413", "is_reserved": 0, "rental_uris": {"android": "https://dc.lft.to/lastmile_qr_scan", "ios": "https://dc.lft.to/lastmile_qr_scan"}, "fusion_lon": 0.0}, {"lat": 38.931145, "is_disabled": 0, "type": "electric_scooter", "lon": -77.0381815, "bike_id": "41e94bb1488c51e4b5bd0ee260e14220", "fusion_lat": 0.0, "name": "41e94bb1488c51e4b5bd0ee260e14220", "is_reserved": 0, "rental_uris": {"android": "https://dc.lft.to/lastmile_qr_scan", "ios": "https://dc.lft.to/lastmile_qr_scan"}, "fusion_lon": 0.0}, {"lat": 38.917596833333334, "is_disabled": 0, "type": "electric_scooter", "lon": -77.03997433333333, "bike_id": "d1fbce92e936b75a4ecb143a0d6cf928", "fusion_lat": 0.0, "name": "d1fbce92e936b75a4ecb143a0d6cf928", "is_reserved": 0, "rental_uris": {"android": "https://dc.lft.to/lastmile_qr_scan", "ios": "https://dc.lft.to/lastmile_qr_scan"}, "fusion_lon": 0.0}, {"lat": 38.9331935, "is_disabled": 0, "type": "electric_scooter", "lon": -77.0439975, "bike_id": "7a3d71186d849e4c5d7d3e0fe60cb870", "fusion_lat": 0.0, "name": "7a3d71186d849e4c5d7d3e0fe60cb870", "is_reserved": 0, "rental_uris": {"android": "https://dc.lft.to/lastmile_qr_scan", "ios": "https://dc.lft.to/lastmile_qr_scan"}, "fusion_lon": 0.0}, {"lat": 38.85790466666667, "is_disabled": 0, "type": "electric_bike", "lon": -76.98743533333334, "bike_id": "3696a6d65a69bc8498d00541273f8d77", "fusion_lat": 0.0, "name": "3696a6d65a69bc8498d00541273f8d77", "is_reserved": 0, "rental_uris": {"android": "https://dc.lft.to/lastmile_qr_scan", "ios": "https://dc.lft.to/lastmile_qr_scan"}, "fusion_lon": 0.0}, {"lat": 38.802253, "is_disabled": 0, "type": "electric_bike", "lon": -77.07917816666667, "bike_id": "91598b99b16395de7cd58a78a054fda7", "fusion_lat": 0.0, "name": "91598b99b16395de7cd58a78a054fda7", "is_reserved": 0, "rental_uris": {"android": "https://dc.lft.to/lastmile_qr_scan", "ios": "https://dc.lft.to/lastmile_qr_scan"}, "fusion_lon": 0.0}, {"lat": 38.94201, "is_disabled": 0, "type": "electric_bike", "lon": -77.01824983333333, "bike_id": "7ed7f95de1f42e541c341f23cf80dcbc", "fusion_lat": 0.0, "name": "7ed7f95de1f42e541c341f23cf80dcbc", "is_reserved": 0, "rental_uris": {"android": "https://dc.lft.to/lastmile_qr_scan", "ios": "https://dc.lft.to/lastmile_qr_scan"}, "fusion_lon": 0.0}, {"lat": 38.934777, "is_disabled": 0, "type": "electric_scooter", "lon": -77.057852, "bike_id": "017d0ee59863c801ecd1c95a83bad7ac", "fusion_lat": 0.0, "name": "017d0ee59863c801ecd1c95a83bad7ac", "is_reserved": 0, "rental_uris": {"android": "https://dc.lft.to/lastmile_qr_scan", "ios": "https://dc.lft.to/lastmile_qr_scan"}, "fusion_lon": 0.0}, {"lat": 38.90025716666667, "is_disabled": 0, "type": "electric_scooter", "lon": -77.00203183333333, "bike_id": "a9127418afa56b1742da8093a0ed4e38", "fusion_lat": 0.0, "name": "a9127418afa56b1742da8093a0ed4e38", "is_reserved": 0, "rental_uris": {"android": "https://dc.lft.to/lastmile_qr_scan", "ios": "https://dc.lft.to/lastmile_qr_scan"}, "fusion_lon": 0.0}, {"lat": 38.8874395, "is_disabled": 0, "type": "electric_scooter", "lon": -77.03148083333333, "bike_id": "2b757fc41e5cc06984bf921abae04f04", "fusion_lat": 0.0, "name": "2b757fc41e5cc06984bf921abae04f04", "is_reserved": 0, "rental_uris": {"android": "https://dc.lft.to/lastmile_qr_scan", "ios": "https://dc.lft.to/lastmile_qr_scan"}, "fusion_lon": 0.0}, {"lat": 38.924844666666665, "is_disabled": 0, "type": "electric_scooter", "lon": -77.03183216666666, "bike_id": "795b9ab280ab4e9c33bf7d3a9651a180", "fusion_lat": 0.0, "name": "795b9ab280ab4e9c33bf7d3a9651a180", "is_reserved": 0, "rental_uris": {"android": "https://dc.lft.to/lastmile_qr_scan", "ios": "https://dc.lft.to/lastmile_qr_scan"}, "fusion_lon": 0.0}, {"lat": 38.925417833333334, "is_disabled": 0, "type": "electric_scooter", "lon": -77.03448616666667, "bike_id": "2b7458809b88302a1b5b54ebf3feafbe", "fusion_lat": 0.0, "name": "2b7458809b88302a1b5b54ebf3feafbe", "is_reserved": 0, "rental_uris": {"android": "https://dc.lft.to/lastmile_qr_scan", "ios": "https://dc.lft.to/lastmile_qr_scan"}, "fusion_lon": 0.0}, {"lat": 38.85807716666667, "is_disabled": 0, "type": "electric_scooter", "lon": -76.98651016666666, "bike_id": "07facee5d5dd6e70dd8780c2eed51af3", "fusion_lat": 0.0, "name": "07facee5d5dd6e70dd8780c2eed51af3", "is_reserved": 0, "rental_uris": {"android": "https://dc.lft.to/lastmile_qr_scan", "ios": "https://dc.lft.to/lastmile_qr_scan"}, "fusion_lon": 0.0}, {"lat": 38.96610483333333, "is_disabled": 0, "type": "electric_scooter", "lon": -77.02048933333333, "bike_id": "1d71d2db0ebf9bd62d894fca1ccb3d91", "fusion_lat": 0.0, "name": "1d71d2db0ebf9bd62d894fca1ccb3d91", "is_reserved": 0, "rental_uris": {"android": "https://dc.lft.to/lastmile_qr_scan", "ios": "https://dc.lft.to/lastmile_qr_scan"}, "fusion_lon": 0.0}, {"lat": 38.9055955, "is_disabled": 0, "type": "electric_scooter", "lon": -77.057027, "bike_id": "93c774d6598a8a6528a7f3364fe2442c", "fusion_lat": 0.0, "name": "93c774d6598a8a6528a7f3364fe2442c", "is_reserved": 0, "rental_uris": {"android": "https://dc.lft.to/lastmile_qr_scan", "ios": "https://dc.lft.to/lastmile_qr_scan"}, "fusion_lon": 0.0}, {"lat": 38.93569983333333, "is_disabled": 0, "type": "electric_scooter", "lon": -77.03728133333334, "bike_id": "35f8cc9c8f0a5c5692c3ae36524df267", "fusion_lat": 0.0, "name": "35f8cc9c8f0a5c5692c3ae36524df267", "is_reserved": 0, "rental_uris": {"android": "https://dc.lft.to/lastmile_qr_scan", "ios": "https://dc.lft.to/lastmile_qr_scan"}, "fusion_lon": 0.0}, {"lat": 38.894803333333336, "is_disabled": 0, "type": "electric_scooter", "lon": -76.9495415, "bike_id": "2967ee5a6b4cdfaf37c7561cc24f2613", "fusion_lat": 0.0, "name": "2967ee5a6b4cdfaf37c7561cc24f2613", "is_reserved": 0, "rental_uris": {"android": "https://dc.lft.to/lastmile_qr_scan", "ios": "https://dc.lft.to/lastmile_qr_scan"}, "fusion_lon": 0.0}, {"lat": 38.8622575, "is_disabled": 0, "type": "electric_scooter", "lon": -76.98369466666666, "bike_id": "c02807c84c5b9d564e92418a27b5093a", "fusion_lat": 0.0, "name": "c02807c84c5b9d564e92418a27b5093a", "is_reserved": 0, "rental_uris": {"android": "https://dc.lft.to/lastmile_qr_scan", "ios": "https://dc.lft.to/lastmile_qr_scan"}, "fusion_lon": 0.0}, {"lat": 38.9169865, "is_disabled": 0, "type": "electric_scooter", "lon": -77.0299565, "bike_id": "0165797a56128b49edbe81a6181fc598", "fusion_lat": 0.0, "name": "0165797a56128b49edbe81a6181fc598", "is_reserved": 0, "rental_uris": {"android": "https://dc.lft.to/lastmile_qr_scan", "ios": "https://dc.lft.to/lastmile_qr_scan"}, "fusion_lon": 0.0}, {"lat": 38.96163516666667, "is_disabled": 0, "type": "electric_scooter", "lon": -77.027859, "bike_id": "2397a10d07bf1269b93947f751211f7e", "fusion_lat": 0.0, "name": "2397a10d07bf1269b93947f751211f7e", "is_reserved": 0, "rental_uris": {"android": "https://dc.lft.to/lastmile_qr_scan", "ios": "https://dc.lft.to/lastmile_qr_scan"}, "fusion_lon": 0.0}, {"lat": 38.91011366666667, "is_disabled": 0, "type": "electric_scooter", "lon": -76.99386816666667, "bike_id": "e39e3e3da47134eb643c388420f318e7", "fusion_lat": 0.0, "name": "e39e3e3da47134eb643c388420f318e7", "is_reserved": 0, "rental_uris": {"android": "https://dc.lft.to/lastmile_qr_scan", "ios": "https://dc.lft.to/lastmile_qr_scan"}, "fusion_lon": 0.0}, {"lat": 38.86617483333333, "is_disabled": 0, "type": "electric_scooter", "lon": -76.98663483333333, "bike_id": "0416663b4e696acbc9e8a27d4caeb637", "fusion_lat": 0.0, "name": "0416663b4e696acbc9e8a27d4caeb637", "is_reserved": 0, "rental_uris": {"android": "https://dc.lft.to/lastmile_qr_scan", "ios": "https://dc.lft.to/lastmile_qr_scan"}, "fusion_lon": 0.0}, {"lat": 38.88275016666667, "is_disabled": 0, "type": "electric_bike", "lon": -76.93238183333334, "bike_id": "321c33cab13e110127ed5dbad444489f", "fusion_lat": 0.0, "name": "321c33cab13e110127ed5dbad444489f", "is_reserved": 0, "rental_uris": {"android": "https://dc.lft.to/lastmile_qr_scan", "ios": "https://dc.lft.to/lastmile_qr_scan"}, "fusion_lon": 0.0}, {"lat": 38.903331333333334, "is_disabled": 0, "type": "electric_scooter", "lon": -76.97056333333333, "bike_id": "888bf52945fbd0b09f4617687d634957", "fusion_lat": 0.0, "name": "888bf52945fbd0b09f4617687d634957", "is_reserved": 0, "rental_uris": {"android": "https://dc.lft.to/lastmile_qr_scan", "ios": "https://dc.lft.to/lastmile_qr_scan"}, "fusion_lon": 0.0}, {"lat": 38.879358333333336, "is_disabled": 0, "type": "electric_scooter", "lon": -77.0074305, "bike_id": "cc7bdf9f17bf405b52d6937fd20a5f3a", "fusion_lat": 0.0, "name": "cc7bdf9f17bf405b52d6937fd20a5f3a", "is_reserved": 0, "rental_uris": {"android": "https://dc.lft.to/lastmile_qr_scan", "ios": "https://dc.lft.to/lastmile_qr_scan"}, "fusion_lon": 0.0}, {"lat": 38.919806333333334, "is_disabled": 0, "type": "electric_scooter", "lon": -77.02382766666666, "bike_id": "f9e94d6fbe16ed5f6db11ec37e6bdc60", "fusion_lat": 0.0, "name": "f9e94d6fbe16ed5f6db11ec37e6bdc60", "is_reserved": 0, "rental_uris": {"android": "https://dc.lft.to/lastmile_qr_scan", "ios": "https://dc.lft.to/lastmile_qr_scan"}, "fusion_lon": 0.0}, {"lat": 38.892231833333334, "is_disabled": 0, "type": "electric_scooter", "lon": -77.048667, "bike_id": "4f29101facd3c219d156cc6f27c6ec4d", "fusion_lat": 0.0, "name": "4f29101facd3c219d156cc6f27c6ec4d", "is_reserved": 0, "rental_uris": {"android": "https://dc.lft.to/lastmile_qr_scan", "ios": "https://dc.lft.to/lastmile_qr_scan"}, "fusion_lon": 0.0}, {"lat": 38.915562, "is_disabled": 0, "type": "electric_scooter", "lon": -77.00974616666667, "bike_id": "15e1b6f6c131c6a120f21e3d4957c71f", "fusion_lat": 0.0, "name": "15e1b6f6c131c6a120f21e3d4957c71f", "is_reserved": 0, "rental_uris": {"android": "https://dc.lft.to/lastmile_qr_scan", "ios": "https://dc.lft.to/lastmile_qr_scan"}, "fusion_lon": 0.0}, {"lat": 38.898733166666666, "is_disabled": 0, "type": "electric_scooter", "lon": -77.02927033333333, "bike_id": "87560b5340bb4e60965c74e4273ed740", "fusion_lat": 0.0, "name": "87560b5340bb4e60965c74e4273ed740", "is_reserved": 0, "rental_uris": {"android": "https://dc.lft.to/lastmile_qr_scan", "ios": "https://dc.lft.to/lastmile_qr_scan"}, "fusion_lon": 0.0}, {"lat": 38.90875466666667, "is_disabled": 0, "type": "electric_scooter", "lon": -77.0363905, "bike_id": "d02d78de6d055d36e8aa43b1cb3d2f16", "fusion_lat": 0.0, "name": "d02d78de6d055d36e8aa43b1cb3d2f16", "is_reserved": 0, "rental_uris": {"android": "https://dc.lft.to/lastmile_qr_scan", "ios": "https://dc.lft.to/lastmile_qr_scan"}, "fusion_lon": 0.0}, {"lat": 38.96139616666667, "is_disabled": 0, "type": "electric_bike", "lon": -77.0322805, "bike_id": "ffd5d0134e68a2f01de09ff43476834b", "fusion_lat": 0.0, "name": "ffd5d0134e68a2f01de09ff43476834b", "is_reserved": 0, "rental_uris": {"android": "https://dc.lft.to/lastmile_qr_scan", "ios": "https://dc.lft.to/lastmile_qr_scan"}, "fusion_lon": 0.0}, {"lat": 38.916787166666666, "is_disabled": 0, "type": "electric_scooter", "lon": -77.02937616666667, "bike_id": "ec19d8cb6ed3f231616b21b0a3565167", "fusion_lat": 0.0, "name": "ec19d8cb6ed3f231616b21b0a3565167", "is_reserved": 0, "rental_uris": {"android": "https://dc.lft.to/lastmile_qr_scan", "ios": "https://dc.lft.to/lastmile_qr_scan"}, "fusion_lon": 0.0}, {"lat": 38.922421166666666, "is_disabled": 0, "type": "electric_scooter", "lon": -77.029102, "bike_id": "c6bc2d404912c4a383273ede0b3bb972", "fusion_lat": 0.0, "name": "c6bc2d404912c4a383273ede0b3bb972", "is_reserved": 0, "rental_uris": {"android": "https://dc.lft.to/lastmile_qr_scan", "ios": "https://dc.lft.to/lastmile_qr_scan"}, "fusion_lon": 0.0}, {"lat": 38.927533333333336, "is_disabled": 0, "type": "electric_scooter", "lon": -77.00588333333333, "bike_id": "69bc1819a95741da64ad859e0d8ee8e0", "fusion_lat": 0.0, "name": "69bc1819a95741da64ad859e0d8ee8e0", "is_reserved": 0, "rental_uris": {"android": "https://dc.lft.to/lastmile_qr_scan", "ios": "https://dc.lft.to/lastmile_qr_scan"}, "fusion_lon": 0.0}, {"lat": 38.92845716666667, "is_disabled": 0, "type": "electric_scooter", "lon": -77.03595233333333, "bike_id": "83504216f96ac9ddbd9386df368d5f99", "fusion_lat": 0.0, "name": "83504216f96ac9ddbd9386df368d5f99", "is_reserved": 0, "rental_uris": {"android": "https://dc.lft.to/lastmile_qr_scan", "ios": "https://dc.lft.to/lastmile_qr_scan"}, "fusion_lon": 0.0}, {"lat": 38.88069733333333, "is_disabled": 0, "type": "electric_scooter", "lon": -77.005754, "bike_id": "2265e8f2d88c494fd9381341624392fd", "fusion_lat": 0.0, "name": "2265e8f2d88c494fd9381341624392fd", "is_reserved": 0, "rental_uris": {"android": "https://dc.lft.to/lastmile_qr_scan", "ios": "https://dc.lft.to/lastmile_qr_scan"}, "fusion_lon": 0.0}, {"lat": 38.89988233333333, "is_disabled": 0, "type": "electric_bike", "lon": -76.9811785, "bike_id": "80452e3a7864bc4c0e17f8871c8f7828", "fusion_lat": 0.0, "name": "80452e3a7864bc4c0e17f8871c8f7828", "is_reserved": 0, "rental_uris": {"android": "https://dc.lft.to/lastmile_qr_scan", "ios": "https://dc.lft.to/lastmile_qr_scan"}, "fusion_lon": 0.0}, {"lat": 38.93327033333333, "is_disabled": 0, "type": "electric_scooter", "lon": -77.02931666666667, "bike_id": "958444e93900ade8b6ab30a7acfa7403", "fusion_lat": 0.0, "name": "958444e93900ade8b6ab30a7acfa7403", "is_reserved": 0, "rental_uris": {"android": "https://dc.lft.to/lastmile_qr_scan", "ios": "https://dc.lft.to/lastmile_qr_scan"}, "fusion_lon": 0.0}, {"lat": 38.900095, "is_disabled": 0, "type": "electric_scooter", "lon": -76.92236666666666, "bike_id": "3e75ccfcbda12e09aa2ad751eb06e959", "fusion_lat": 0.0, "name": "3e75ccfcbda12e09aa2ad751eb06e959", "is_reserved": 0, "rental_uris": {"android": "https://dc.lft.to/lastmile_qr_scan", "ios": "https://dc.lft.to/lastmile_qr_scan"}, "fusion_lon": 0.0}, {"lat": 38.920602833333334, "is_disabled": 0, "type": "electric_scooter", "lon": -77.03286333333334, "bike_id": "6ba3ef81f41e6ddef5ca96541ef8a759", "fusion_lat": 0.0, "name": "6ba3ef81f41e6ddef5ca96541ef8a759", "is_reserved": 0, "rental_uris": {"android": "https://dc.lft.to/lastmile_qr_scan", "ios": "https://dc.lft.to/lastmile_qr_scan"}, "fusion_lon": 0.0}, {"lat": 38.962528666666664, "is_disabled": 0, "type": "electric_scooter", "lon": -77.0382435, "bike_id": "da85bff3e97fb7cd3a0bcbc21ebd8c19", "fusion_lat": 0.0, "name": "da85bff3e97fb7cd3a0bcbc21ebd8c19", "is_reserved": 0, "rental_uris": {"android": "https://dc.lft.to/lastmile_qr_scan", "ios": "https://dc.lft.to/lastmile_qr_scan"}, "fusion_lon": 0.0}, {"lat": 38.93961316666667, "is_disabled": 0, "type": "electric_scooter", "lon": -77.0275295, "bike_id": "4cecb15e3354584cdc159d5c63eaa8db", "fusion_lat": 0.0, "name": "4cecb15e3354584cdc159d5c63eaa8db", "is_reserved": 0, "rental_uris": {"android": "https://dc.lft.to/lastmile_qr_scan", "ios": "https://dc.lft.to/lastmile_qr_scan"}, "fusion_lon": 0.0}, {"lat": 38.9103945, "is_disabled": 0, "type": "electric_scooter", "lon": -77.02814116666667, "bike_id": "a0672f8270dfe728ef9cc4df2104d0c3", "fusion_lat": 0.0, "name": "a0672f8270dfe728ef9cc4df2104d0c3", "is_reserved": 0, "rental_uris": {"android": "https://dc.lft.to/lastmile_qr_scan", "ios": "https://dc.lft.to/lastmile_qr_scan"}, "fusion_lon": 0.0}, {"lat": 38.93345733333334, "is_disabled": 0, "type": "electric_scooter", "lon": -77.07183633333334, "bike_id": "b893f75c3c29bcd149b3a85e921c90c5", "fusion_lat": 0.0, "name": "b893f75c3c29bcd149b3a85e921c90c5", "is_reserved": 0, "rental_uris": {"android": "https://dc.lft.to/lastmile_qr_scan", "ios": "https://dc.lft.to/lastmile_qr_scan"}, "fusion_lon": 0.0}, {"lat": 38.919435166666666, "is_disabled": 0, "type": "electric_scooter", "lon": -77.04796533333334, "bike_id": "1d4393e6ead2e36f37a6b46968a6d12c", "fusion_lat": 0.0, "name": "1d4393e6ead2e36f37a6b46968a6d12c", "is_reserved": 0, "rental_uris": {"android": "https://dc.lft.to/lastmile_qr_scan", "ios": "https://dc.lft.to/lastmile_qr_scan"}, "fusion_lon": 0.0}, {"lat": 38.92164316666667, "is_disabled": 0, "type": "electric_scooter", "lon": -77.0769485, "bike_id": "e100e6684fb142fd88aa2a945c36e40a", "fusion_lat": 0.0, "name": "e100e6684fb142fd88aa2a945c36e40a", "is_reserved": 0, "rental_uris": {"android": "https://dc.lft.to/lastmile_qr_scan", "ios": "https://dc.lft.to/lastmile_qr_scan"}, "fusion_lon": 0.0}, {"lat": 38.904246666666666, "is_disabled": 0, "type": "electric_scooter", "lon": -77.018403, "bike_id": "7a3b34ad5e87638106a1711a9e43f531", "fusion_lat": 0.0, "name": "7a3b34ad5e87638106a1711a9e43f531", "is_reserved": 0, "rental_uris": {"android": "https://dc.lft.to/lastmile_qr_scan", "ios": "https://dc.lft.to/lastmile_qr_scan"}, "fusion_lon": 0.0}, {"lat": 38.83671433333333, "is_disabled": 0, "type": "electric_scooter", "lon": -77.00577816666667, "bike_id": "346156ca05d91b82eff5aec00bf05a6f", "fusion_lat": 0.0, "name": "346156ca05d91b82eff5aec00bf05a6f", "is_reserved": 0, "rental_uris": {"android": "https://dc.lft.to/lastmile_qr_scan", "ios": "https://dc.lft.to/lastmile_qr_scan"}, "fusion_lon": 0.0}, {"lat": 38.908567833333336, "is_disabled": 0, "type": "electric_scooter", "lon": -77.04587366666667, "bike_id": "63e64c592796a21ed70876fe24f1289d", "fusion_lat": 0.0, "name": "63e64c592796a21ed70876fe24f1289d", "is_reserved": 0, "rental_uris": {"android": "https://dc.lft.to/lastmile_qr_scan", "ios": "https://dc.lft.to/lastmile_qr_scan"}, "fusion_lon": 0.0}, {"lat": 38.919117166666666, "is_disabled": 0, "type": "electric_scooter", "lon": -77.01336, "bike_id": "92a87967a7a34687336ff68140a7650b", "fusion_lat": 0.0, "name": "92a87967a7a34687336ff68140a7650b", "is_reserved": 0, "rental_uris": {"android": "https://dc.lft.to/lastmile_qr_scan", "ios": "https://dc.lft.to/lastmile_qr_scan"}, "fusion_lon": 0.0}, {"lat": 38.92159483333333, "is_disabled": 0, "type": "electric_scooter", "lon": -77.0400915, "bike_id": "a6a598c3f3f65dc9d1f899b6eb098470", "fusion_lat": 0.0, "name": "a6a598c3f3f65dc9d1f899b6eb098470", "is_reserved": 0, "rental_uris": {"android": "https://dc.lft.to/lastmile_qr_scan", "ios": "https://dc.lft.to/lastmile_qr_scan"}, "fusion_lon": 0.0}, {"lat": 38.892267333333336, "is_disabled": 0, "type": "electric_scooter", "lon": -77.05005816666667, "bike_id": "bbc90bb00d33c1d9a188ce16a212add7", "fusion_lat": 0.0, "name": "bbc90bb00d33c1d9a188ce16a212add7", "is_reserved": 0, "rental_uris": {"android": "https://dc.lft.to/lastmile_qr_scan", "ios": "https://dc.lft.to/lastmile_qr_scan"}, "fusion_lon": 0.0}, {"lat": 38.93499416666667, "is_disabled": 0, "type": "electric_scooter", "lon": -77.05804566666667, "bike_id": "eda6077f70c2260bdf226ab606b81f93", "fusion_lat": 0.0, "name": "eda6077f70c2260bdf226ab606b81f93", "is_reserved": 0, "rental_uris": {"android": "https://dc.lft.to/lastmile_qr_scan", "ios": "https://dc.lft.to/lastmile_qr_scan"}, "fusion_lon": 0.0}, {"lat": 38.87007833333333, "is_disabled": 0, "type": "electric_bike", "lon": -76.96020983333334, "bike_id": "c06471163a8cd3dd599ee3c8ec9e16dc", "fusion_lat": 0.0, "name": "c06471163a8cd3dd599ee3c8ec9e16dc", "is_reserved": 0, "rental_uris": {"android": "https://dc.lft.to/lastmile_qr_scan", "ios": "https://dc.lft.to/lastmile_qr_scan"}, "fusion_lon": 0.0}, {"lat": 38.90036516666667, "is_disabled": 0, "type": "electric_scooter", "lon": -76.99005933333333, "bike_id": "351072ab4522ea4eade50bba01b87aae", "fusion_lat": 0.0, "name": "351072ab4522ea4eade50bba01b87aae", "is_reserved": 0, "rental_uris": {"android": "https://dc.lft.to/lastmile_qr_scan", "ios": "https://dc.lft.to/lastmile_qr_scan"}, "fusion_lon": 0.0}, {"lat": 38.914158666666665, "is_disabled": 0, "type": "electric_scooter", "lon": -77.0317235, "bike_id": "55565aaf14f80eb5ae0a68cc2487618f", "fusion_lat": 0.0, "name": "55565aaf14f80eb5ae0a68cc2487618f", "is_reserved": 0, "rental_uris": {"android": "https://dc.lft.to/lastmile_qr_scan", "ios": "https://dc.lft.to/lastmile_qr_scan"}, "fusion_lon": 0.0}, {"lat": 38.88554233333333, "is_disabled": 0, "type": "electric_scooter", "lon": -77.01980283333333, "bike_id": "e70ec7a28ea2fd7c9df41df8561450e2", "fusion_lat": 0.0, "name": "e70ec7a28ea2fd7c9df41df8561450e2", "is_reserved": 0, "rental_uris": {"android": "https://dc.lft.to/lastmile_qr_scan", "ios": "https://dc.lft.to/lastmile_qr_scan"}, "fusion_lon": 0.0}, {"lat": 38.9334705, "is_disabled": 0, "type": "electric_scooter", "lon": -77.056986, "bike_id": "2bc60da4ad2c45fc558dbecad801a968", "fusion_lat": 0.0, "name": "2bc60da4ad2c45fc558dbecad801a968", "is_reserved": 0, "rental_uris": {"android": "https://dc.lft.to/lastmile_qr_scan", "ios": "https://dc.lft.to/lastmile_qr_scan"}, "fusion_lon": 0.0}, {"lat": 38.92377716666667, "is_disabled": 0, "type": "electric_scooter", "lon": -77.03648966666667, "bike_id": "e34efdb0da428a7ff1b6a3cf7c16255c", "fusion_lat": 0.0, "name": "e34efdb0da428a7ff1b6a3cf7c16255c", "is_reserved": 0, "rental_uris": {"android": "https://dc.lft.to/lastmile_qr_scan", "ios": "https://dc.lft.to/lastmile_qr_scan"}, "fusion_lon": 0.0}, {"lat": 38.92146016666667, "is_disabled": 0, "type": "electric_scooter", "lon": -76.96919316666667, "bike_id": "d0cbdcf2c3b0243a3a22c91d8ed14287", "fusion_lat": 0.0, "name": "d0cbdcf2c3b0243a3a22c91d8ed14287", "is_reserved": 0, "rental_uris": {"android": "https://dc.lft.to/lastmile_qr_scan", "ios": "https://dc.lft.to/lastmile_qr_scan"}, "fusion_lon": 0.0}, {"lat": 38.90276583333333, "is_disabled": 0, "type": "electric_scooter", "lon": -77.01746466666667, "bike_id": "fd3d039a6374b9f987c54bc9a133cf80", "fusion_lat": 0.0, "name": "fd3d039a6374b9f987c54bc9a133cf80", "is_reserved": 0, "rental_uris": {"android": "https://dc.lft.to/lastmile_qr_scan", "ios": "https://dc.lft.to/lastmile_qr_scan"}, "fusion_lon": 0.0}, {"lat": 38.911854, "is_disabled": 0, "type": "electric_scooter", "lon": -77.00454433333333, "bike_id": "e1438a89feb7133ed5784183fabe1f1b", "fusion_lat": 0.0, "name": "e1438a89feb7133ed5784183fabe1f1b", "is_reserved": 0, "rental_uris": {"android": "https://dc.lft.to/lastmile_qr_scan", "ios": "https://dc.lft.to/lastmile_qr_scan"}, "fusion_lon": 0.0}, {"lat": 38.896856, "is_disabled": 0, "type": "electric_scooter", "lon": -77.02394516666666, "bike_id": "2d18c9a43b9977ad0718acce53b0ffd2", "fusion_lat": 0.0, "name": "2d18c9a43b9977ad0718acce53b0ffd2", "is_reserved": 0, "rental_uris": {"android": "https://dc.lft.to/lastmile_qr_scan", "ios": "https://dc.lft.to/lastmile_qr_scan"}, "fusion_lon": 0.0}, {"lat": 38.9052655, "is_disabled": 0, "type": "electric_scooter", "lon": -77.05935966666667, "bike_id": "0ddb1b4bd508a6bdf807383e0f30d661", "fusion_lat": 0.0, "name": "0ddb1b4bd508a6bdf807383e0f30d661", "is_reserved": 0, "rental_uris": {"android": "https://dc.lft.to/lastmile_qr_scan", "ios": "https://dc.lft.to/lastmile_qr_scan"}, "fusion_lon": 0.0}, {"lat": 38.8616265, "is_disabled": 0, "type": "electric_bike", "lon": -76.95063516666667, "bike_id": "30a9a0d66b00936c14a6141590c62fcb", "fusion_lat": 0.0, "name": "30a9a0d66b00936c14a6141590c62fcb", "is_reserved": 0, "rental_uris": {"android": "https://dc.lft.to/lastmile_qr_scan", "ios": "https://dc.lft.to/lastmile_qr_scan"}, "fusion_lon": 0.0}, {"lat": 38.90724133333333, "is_disabled": 0, "type": "electric_scooter", "lon": -77.0237495, "bike_id": "4febfe38e37c547ac6d60ecf008154d7", "fusion_lat": 0.0, "name": "4febfe38e37c547ac6d60ecf008154d7", "is_reserved": 0, "rental_uris": {"android": "https://dc.lft.to/lastmile_qr_scan", "ios": "https://dc.lft.to/lastmile_qr_scan"}, "fusion_lon": 0.0}, {"lat": 38.892227, "is_disabled": 0, "type": "electric_scooter", "lon": -77.04868633333334, "bike_id": "e2c0a3d2fa9725b287dfda22d431f375", "fusion_lat": 0.0, "name": "e2c0a3d2fa9725b287dfda22d431f375", "is_reserved": 0, "rental_uris": {"android": "https://dc.lft.to/lastmile_qr_scan", "ios": "https://dc.lft.to/lastmile_qr_scan"}, "fusion_lon": 0.0}, {"lat": 38.904915833333334, "is_disabled": 0, "type": "electric_scooter", "lon": -77.00121716666666, "bike_id": "51daf80affce39a6aa95743215fc33f9", "fusion_lat": 0.0, "name": "51daf80affce39a6aa95743215fc33f9", "is_reserved": 0, "rental_uris": {"android": "https://dc.lft.to/lastmile_qr_scan", "ios": "https://dc.lft.to/lastmile_qr_scan"}, "fusion_lon": 0.0}, {"lat": 38.88764366666667, "is_disabled": 0, "type": "electric_scooter", "lon": -76.9559465, "bike_id": "e94c46bf6a4ef55fc8965478a36f515c", "fusion_lat": 0.0, "name": "e94c46bf6a4ef55fc8965478a36f515c", "is_reserved": 0, "rental_uris": {"android": "https://dc.lft.to/lastmile_qr_scan", "ios": "https://dc.lft.to/lastmile_qr_scan"}, "fusion_lon": 0.0}, {"lat": 38.917689333333335, "is_disabled": 0, "type": "electric_scooter", "lon": -77.01493666666667, "bike_id": "ddb57831eac4e7cd3685d8d1fcf18545", "fusion_lat": 0.0, "name": "ddb57831eac4e7cd3685d8d1fcf18545", "is_reserved": 0, "rental_uris": {"android": "https://dc.lft.to/lastmile_qr_scan", "ios": "https://dc.lft.to/lastmile_qr_scan"}, "fusion_lon": 0.0}, {"lat": 38.920541666666665, "is_disabled": 0, "type": "electric_scooter", "lon": -77.0234535, "bike_id": "ab0f4e141a6993efedd7b4ed26bbb354", "fusion_lat": 0.0, "name": "ab0f4e141a6993efedd7b4ed26bbb354", "is_reserved": 0, "rental_uris": {"android": "https://dc.lft.to/lastmile_qr_scan", "ios": "https://dc.lft.to/lastmile_qr_scan"}, "fusion_lon": 0.0}, {"lat": 38.86377016666667, "is_disabled": 0, "type": "electric_scooter", "lon": -76.990619, "bike_id": "be11155c275ba68904a6a9b0e9dd59ec", "fusion_lat": 0.0, "name": "be11155c275ba68904a6a9b0e9dd59ec", "is_reserved": 0, "rental_uris": {"android": "https://dc.lft.to/lastmile_qr_scan", "ios": "https://dc.lft.to/lastmile_qr_scan"}, "fusion_lon": 0.0}, {"lat": 38.91210233333334, "is_disabled": 0, "type": "electric_scooter", "lon": -77.03840466666666, "bike_id": "27531815f4380a8bff09ac12ba98385e", "fusion_lat": 0.0, "name": "27531815f4380a8bff09ac12ba98385e", "is_reserved": 0, "rental_uris": {"android": "https://dc.lft.to/lastmile_qr_scan", "ios": "https://dc.lft.to/lastmile_qr_scan"}, "fusion_lon": 0.0}, {"lat": 38.919089, "is_disabled": 0, "type": "electric_scooter", "lon": -77.04628816666667, "bike_id": "9eb478dbba79c3f5f9ee3224ba476804", "fusion_lat": 0.0, "name": "9eb478dbba79c3f5f9ee3224ba476804", "is_reserved": 0, "rental_uris": {"android": "https://dc.lft.to/lastmile_qr_scan", "ios": "https://dc.lft.to/lastmile_qr_scan"}, "fusion_lon": 0.0}, {"lat": 38.903917666666665, "is_disabled": 0, "type": "electric_scooter", "lon": -77.043183, "bike_id": "dd4391722a4d33ea5994062eb149f74c", "fusion_lat": 0.0, "name": "dd4391722a4d33ea5994062eb149f74c", "is_reserved": 0, "rental_uris": {"android": "https://dc.lft.to/lastmile_qr_scan", "ios": "https://dc.lft.to/lastmile_qr_scan"}, "fusion_lon": 0.0}, {"lat": 38.899607833333334, "is_disabled": 0, "type": "electric_scooter", "lon": -77.0213625, "bike_id": "fcc745af93680541ea31690e7f68a69c", "fusion_lat": 0.0, "name": "fcc745af93680541ea31690e7f68a69c", "is_reserved": 0, "rental_uris": {"android": "https://dc.lft.to/lastmile_qr_scan", "ios": "https://dc.lft.to/lastmile_qr_scan"}, "fusion_lon": 0.0}, {"lat": 38.865209666666665, "is_disabled": 0, "type": "electric_scooter", "lon": -76.9903645, "bike_id": "6c49ae8ab14f25773a008eea53681a24", "fusion_lat": 0.0, "name": "6c49ae8ab14f25773a008eea53681a24", "is_reserved": 0, "rental_uris": {"android": "https://dc.lft.to/lastmile_qr_scan", "ios": "https://dc.lft.to/lastmile_qr_scan"}, "fusion_lon": 0.0}, {"lat": 38.913995, "is_disabled": 0, "type": "electric_scooter", "lon": -77.01801666666667, "bike_id": "d7b99fd87e44c98c6a4be07add5508d1", "fusion_lat": 0.0, "name": "d7b99fd87e44c98c6a4be07add5508d1", "is_reserved": 0, "rental_uris": {"android": "https://dc.lft.to/lastmile_qr_scan", "ios": "https://dc.lft.to/lastmile_qr_scan"}, "fusion_lon": 0.0}, {"lat": 38.898196666666664, "is_disabled": 0, "type": "electric_scooter", "lon": -77.00581316666667, "bike_id": "0a3db8f12fe3db3a07046da7f94919c5", "fusion_lat": 0.0, "name": "0a3db8f12fe3db3a07046da7f94919c5", "is_reserved": 0, "rental_uris": {"android": "https://dc.lft.to/lastmile_qr_scan", "ios": "https://dc.lft.to/lastmile_qr_scan"}, "fusion_lon": 0.0}, {"lat": 38.909614833333336, "is_disabled": 0, "type": "electric_scooter", "lon": -77.0480245, "bike_id": "33b5c57296a83a356e0d9fc7b2b654b7", "fusion_lat": 0.0, "name": "33b5c57296a83a356e0d9fc7b2b654b7", "is_reserved": 0, "rental_uris": {"android": "https://dc.lft.to/lastmile_qr_scan", "ios": "https://dc.lft.to/lastmile_qr_scan"}, "fusion_lon": 0.0}, {"lat": 38.876818166666666, "is_disabled": 0, "type": "electric_scooter", "lon": -77.01788516666667, "bike_id": "bec8159309bdef31ffb5e730289e260f", "fusion_lat": 0.0, "name": "bec8159309bdef31ffb5e730289e260f", "is_reserved": 0, "rental_uris": {"android": "https://dc.lft.to/lastmile_qr_scan", "ios": "https://dc.lft.to/lastmile_qr_scan"}, "fusion_lon": 0.0}, {"lat": 38.9195945, "is_disabled": 0, "type": "electric_scooter", "lon": -77.01438733333333, "bike_id": "70f5d6444a1e58e5d6b7b293d8bd9206", "fusion_lat": 0.0, "name": "70f5d6444a1e58e5d6b7b293d8bd9206", "is_reserved": 0, "rental_uris": {"android": "https://dc.lft.to/lastmile_qr_scan", "ios": "https://dc.lft.to/lastmile_qr_scan"}, "fusion_lon": 0.0}, {"lat": 38.884579, "is_disabled": 0, "type": "electric_scooter", "lon": -76.929598, "bike_id": "6a538b942f3295c98535927d77ec8508", "fusion_lat": 0.0, "name": "6a538b942f3295c98535927d77ec8508", "is_reserved": 0, "rental_uris": {"android": "https://dc.lft.to/lastmile_qr_scan", "ios": "https://dc.lft.to/lastmile_qr_scan"}, "fusion_lon": 0.0}, {"lat": 38.90800183333333, "is_disabled": 0, "type": "electric_scooter", "lon": -77.03483866666667, "bike_id": "ee9d1ddf35b55059fc74b453ae9569b0", "fusion_lat": 0.0, "name": "ee9d1ddf35b55059fc74b453ae9569b0", "is_reserved": 0, "rental_uris": {"android": "https://dc.lft.to/lastmile_qr_scan", "ios": "https://dc.lft.to/lastmile_qr_scan"}, "fusion_lon": 0.0}, {"lat": 38.89837466666667, "is_disabled": 0, "type": "electric_scooter", "lon": -77.03322466666667, "bike_id": "a20db1fe7f76b2969b43626113d0dce3", "fusion_lat": 0.0, "name": "a20db1fe7f76b2969b43626113d0dce3", "is_reserved": 0, "rental_uris": {"android": "https://dc.lft.to/lastmile_qr_scan", "ios": "https://dc.lft.to/lastmile_qr_scan"}, "fusion_lon": 0.0}, {"lat": 38.93431483333333, "is_disabled": 0, "type": "electric_scooter", "lon": -76.96506066666667, "bike_id": "0a01c6eb265e0ecc06270b84fdc7ed97", "fusion_lat": 0.0, "name": "0a01c6eb265e0ecc06270b84fdc7ed97", "is_reserved": 0, "rental_uris": {"android": "https://dc.lft.to/lastmile_qr_scan", "ios": "https://dc.lft.to/lastmile_qr_scan"}, "fusion_lon": 0.0}, {"lat": 38.9986955, "is_disabled": 0, "type": "electric_bike", "lon": -77.02903866666666, "bike_id": "930420a8752b64cc3bcf914a395a476b", "fusion_lat": 0.0, "name": "930420a8752b64cc3bcf914a395a476b", "is_reserved": 0, "rental_uris": {"android": "https://dc.lft.to/lastmile_qr_scan", "ios": "https://dc.lft.to/lastmile_qr_scan"}, "fusion_lon": 0.0}, {"lat": 38.93375483333333, "is_disabled": 0, "type": "electric_scooter", "lon": -77.03552566666667, "bike_id": "53b71029e3877961368a154b76f60f49", "fusion_lat": 0.0, "name": "53b71029e3877961368a154b76f60f49", "is_reserved": 0, "rental_uris": {"android": "https://dc.lft.to/lastmile_qr_scan", "ios": "https://dc.lft.to/lastmile_qr_scan"}, "fusion_lon": 0.0}, {"lat": 38.95708166666667, "is_disabled": 0, "type": "electric_scooter", "lon": -77.024031, "bike_id": "2166aa02f7878f809c5545851c973180", "fusion_lat": 0.0, "name": "2166aa02f7878f809c5545851c973180", "is_reserved": 0, "rental_uris": {"android": "https://dc.lft.to/lastmile_qr_scan", "ios": "https://dc.lft.to/lastmile_qr_scan"}, "fusion_lon": 0.0}, {"lat": 38.887173, "is_disabled": 0, "type": "electric_bike", "lon": -77.13304316666667, "bike_id": "b7c52f5017e28f457d9cddb6be631df4", "fusion_lat": 0.0, "name": "b7c52f5017e28f457d9cddb6be631df4", "is_reserved": 0, "rental_uris": {"android": "https://dc.lft.to/lastmile_qr_scan", "ios": "https://dc.lft.to/lastmile_qr_scan"}, "fusion_lon": 0.0}, {"lat": 38.85846983333333, "is_disabled": 0, "type": "electric_scooter", "lon": -76.99557366666667, "bike_id": "12fe6c2d600d0ac01f49bd31f0eec2a4", "fusion_lat": 0.0, "name": "12fe6c2d600d0ac01f49bd31f0eec2a4", "is_reserved": 0, "rental_uris": {"android": "https://dc.lft.to/lastmile_qr_scan", "ios": "https://dc.lft.to/lastmile_qr_scan"}, "fusion_lon": 0.0}, {"lat": 38.885499833333334, "is_disabled": 0, "type": "electric_bike", "lon": -77.11787433333333, "bike_id": "56d67e351abffb8e4c07768e20b4876f", "fusion_lat": 0.0, "name": "56d67e351abffb8e4c07768e20b4876f", "is_reserved": 0, "rental_uris": {"android": "https://dc.lft.to/lastmile_qr_scan", "ios": "https://dc.lft.to/lastmile_qr_scan"}, "fusion_lon": 0.0}, {"lat": 38.8766885, "is_disabled": 0, "type": "electric_scooter", "lon": -77.01757566666667, "bike_id": "c4ca6754db81b884229c79d941a3bec9", "fusion_lat": 0.0, "name": "c4ca6754db81b884229c79d941a3bec9", "is_reserved": 0, "rental_uris": {"android": "https://dc.lft.to/lastmile_qr_scan", "ios": "https://dc.lft.to/lastmile_qr_scan"}, "fusion_lon": 0.0}, {"lat": 38.89628183333333, "is_disabled": 0, "type": "electric_scooter", "lon": -77.0319985, "bike_id": "03ca2865cc3aa69a5a643d179bc1a541", "fusion_lat": 0.0, "name": "03ca2865cc3aa69a5a643d179bc1a541", "is_reserved": 0, "rental_uris": {"android": "https://dc.lft.to/lastmile_qr_scan", "ios": "https://dc.lft.to/lastmile_qr_scan"}, "fusion_lon": 0.0}, {"lat": 38.902557333333334, "is_disabled": 0, "type": "electric_scooter", "lon": -77.0184645, "bike_id": "c0962e7cff91741fac1396aa7fdccf59", "fusion_lat": 0.0, "name": "c0962e7cff91741fac1396aa7fdccf59", "is_reserved": 0, "rental_uris": {"android": "https://dc.lft.to/lastmile_qr_scan", "ios": "https://dc.lft.to/lastmile_qr_scan"}, "fusion_lon": 0.0}, {"lat": 38.927856166666665, "is_disabled": 0, "type": "electric_scooter", "lon": -77.03150966666666, "bike_id": "32c9470c46bf2216941eac56e620df30", "fusion_lat": 0.0, "name": "32c9470c46bf2216941eac56e620df30", "is_reserved": 0, "rental_uris": {"android": "https://dc.lft.to/lastmile_qr_scan", "ios": "https://dc.lft.to/lastmile_qr_scan"}, "fusion_lon": 0.0}, {"lat": 38.921699833333335, "is_disabled": 0, "type": "electric_scooter", "lon": -77.05137016666667, "bike_id": "3c40886e63625bc0645d1fa826ecc469", "fusion_lat": 0.0, "name": "3c40886e63625bc0645d1fa826ecc469", "is_reserved": 0, "rental_uris": {"android": "https://dc.lft.to/lastmile_qr_scan", "ios": "https://dc.lft.to/lastmile_qr_scan"}, "fusion_lon": 0.0}, {"lat": 38.85221683333333, "is_disabled": 0, "type": "electric_bike", "lon": -77.12964283333334, "bike_id": "1a9db9192c11fa321753b786714e0f5f", "fusion_lat": 0.0, "name": "1a9db9192c11fa321753b786714e0f5f", "is_reserved": 0, "rental_uris": {"android": "https://dc.lft.to/lastmile_qr_scan", "ios": "https://dc.lft.to/lastmile_qr_scan"}, "fusion_lon": 0.0}, {"lat": 38.962156, "is_disabled": 0, "type": "electric_bike", "lon": -77.02780566666667, "bike_id": "c4cf5a1326a78ca4dac513470dca0987", "fusion_lat": 0.0, "name": "c4cf5a1326a78ca4dac513470dca0987", "is_reserved": 0, "rental_uris": {"android": "https://dc.lft.to/lastmile_qr_scan", "ios": "https://dc.lft.to/lastmile_qr_scan"}, "fusion_lon": 0.0}, {"lat": 38.9346115, "is_disabled": 0, "type": "electric_scooter", "lon": -77.03223166666666, "bike_id": "980b403030d9065a6ab1d381b462d883", "fusion_lat": 0.0, "name": "980b403030d9065a6ab1d381b462d883", "is_reserved": 0, "rental_uris": {"android": "https://dc.lft.to/lastmile_qr_scan", "ios": "https://dc.lft.to/lastmile_qr_scan"}, "fusion_lon": 0.0}, {"lat": 38.89904766666667, "is_disabled": 0, "type": "electric_scooter", "lon": -77.00348183333334, "bike_id": "58fb755e1460286163b9b9253cc89ee0", "fusion_lat": 0.0, "name": "58fb755e1460286163b9b9253cc89ee0", "is_reserved": 0, "rental_uris": {"android": "https://dc.lft.to/lastmile_qr_scan", "ios": "https://dc.lft.to/lastmile_qr_scan"}, "fusion_lon": 0.0}, {"lat": 38.93229733333333, "is_disabled": 0, "type": "electric_scooter", "lon": -77.04404783333334, "bike_id": "590dbdea44d4e68528ee858fb5b71483", "fusion_lat": 0.0, "name": "590dbdea44d4e68528ee858fb5b71483", "is_reserved": 0, "rental_uris": {"android": "https://dc.lft.to/lastmile_qr_scan", "ios": "https://dc.lft.to/lastmile_qr_scan"}, "fusion_lon": 0.0}, {"lat": 38.92330166666667, "is_disabled": 0, "type": "electric_scooter", "lon": -77.044632, "bike_id": "bd80992c53b64654c24f27f9adcdcd62", "fusion_lat": 0.0, "name": "bd80992c53b64654c24f27f9adcdcd62", "is_reserved": 0, "rental_uris": {"android": "https://dc.lft.to/lastmile_qr_scan", "ios": "https://dc.lft.to/lastmile_qr_scan"}, "fusion_lon": 0.0}, {"lat": 38.911121, "is_disabled": 0, "type": "electric_scooter", "lon": -77.03708166666667, "bike_id": "0b83460bbe5fb6a31e0e55ee92f1a2f7", "fusion_lat": 0.0, "name": "0b83460bbe5fb6a31e0e55ee92f1a2f7", "is_reserved": 0, "rental_uris": {"android": "https://dc.lft.to/lastmile_qr_scan", "ios": "https://dc.lft.to/lastmile_qr_scan"}, "fusion_lon": 0.0}, {"lat": 38.98593733333333, "is_disabled": 0, "type": "electric_bike", "lon": -77.03754583333334, "bike_id": "d42f1051325aa3b3054ef0a8cc004030", "fusion_lat": 0.0, "name": "d42f1051325aa3b3054ef0a8cc004030", "is_reserved": 0, "rental_uris": {"android": "https://dc.lft.to/lastmile_qr_scan", "ios": "https://dc.lft.to/lastmile_qr_scan"}, "fusion_lon": 0.0}, {"lat": 38.9164835, "is_disabled": 0, "type": "electric_scooter", "lon": -77.0429355, "bike_id": "e1783fcc77d5fab0f3dcb19f496a7bfd", "fusion_lat": 0.0, "name": "e1783fcc77d5fab0f3dcb19f496a7bfd", "is_reserved": 0, "rental_uris": {"android": "https://dc.lft.to/lastmile_qr_scan", "ios": "https://dc.lft.to/lastmile_qr_scan"}, "fusion_lon": 0.0}, {"lat": 38.906448166666664, "is_disabled": 0, "type": "electric_scooter", "lon": -77.01203766666667, "bike_id": "52dbb77da2e26acc41d9c92cae51e55f", "fusion_lat": 0.0, "name": "52dbb77da2e26acc41d9c92cae51e55f", "is_reserved": 0, "rental_uris": {"android": "https://dc.lft.to/lastmile_qr_scan", "ios": "https://dc.lft.to/lastmile_qr_scan"}, "fusion_lon": 0.0}, {"lat": 38.91070366666667, "is_disabled": 0, "type": "electric_scooter", "lon": -77.01639383333334, "bike_id": "d9cc9ce7bb6048176e761123dfa597fb", "fusion_lat": 0.0, "name": "d9cc9ce7bb6048176e761123dfa597fb", "is_reserved": 0, "rental_uris": {"android": "https://dc.lft.to/lastmile_qr_scan", "ios": "https://dc.lft.to/lastmile_qr_scan"}, "fusion_lon": 0.0}, {"lat": 38.952438, "is_disabled": 0, "type": "electric_bike", "lon": -76.98235716666667, "bike_id": "2032ca68f435a151bdf4703aa2beaeaa", "fusion_lat": 0.0, "name": "2032ca68f435a151bdf4703aa2beaeaa", "is_reserved": 0, "rental_uris": {"android": "https://dc.lft.to/lastmile_qr_scan", "ios": "https://dc.lft.to/lastmile_qr_scan"}, "fusion_lon": 0.0}, {"lat": 38.900579666666665, "is_disabled": 0, "type": "electric_scooter", "lon": -77.00746833333334, "bike_id": "88e3ff10c43100ed831011ec1de9858c", "fusion_lat": 0.0, "name": "88e3ff10c43100ed831011ec1de9858c", "is_reserved": 0, "rental_uris": {"android": "https://dc.lft.to/lastmile_qr_scan", "ios": "https://dc.lft.to/lastmile_qr_scan"}, "fusion_lon": 0.0}, {"lat": 38.920265666666666, "is_disabled": 0, "type": "electric_scooter", "lon": -77.04385333333333, "bike_id": "a8325edf1eab0d22ccdadf5e9b3b7303", "fusion_lat": 0.0, "name": "a8325edf1eab0d22ccdadf5e9b3b7303", "is_reserved": 0, "rental_uris": {"android": "https://dc.lft.to/lastmile_qr_scan", "ios": "https://dc.lft.to/lastmile_qr_scan"}, "fusion_lon": 0.0}, {"lat": 38.865948333333336, "is_disabled": 0, "type": "electric_bike", "lon": -76.93229483333333, "bike_id": "714b255d9229541b4baec47e5eb751ba", "fusion_lat": 0.0, "name": "714b255d9229541b4baec47e5eb751ba", "is_reserved": 0, "rental_uris": {"android": "https://dc.lft.to/lastmile_qr_scan", "ios": "https://dc.lft.to/lastmile_qr_scan"}, "fusion_lon": 0.0}, {"lat": 38.908134833333335, "is_disabled": 0, "type": "electric_scooter", "lon": -76.98284583333333, "bike_id": "65c0f5a77825e3c20dd6958344ad1690", "fusion_lat": 0.0, "name": "65c0f5a77825e3c20dd6958344ad1690", "is_reserved": 0, "rental_uris": {"android": "https://dc.lft.to/lastmile_qr_scan", "ios": "https://dc.lft.to/lastmile_qr_scan"}, "fusion_lon": 0.0}, {"lat": 38.905427833333334, "is_disabled": 0, "type": "electric_scooter", "lon": -77.00543783333333, "bike_id": "4400fdda8554cbf16046d506e0ec8dd5", "fusion_lat": 0.0, "name": "4400fdda8554cbf16046d506e0ec8dd5", "is_reserved": 0, "rental_uris": {"android": "https://dc.lft.to/lastmile_qr_scan", "ios": "https://dc.lft.to/lastmile_qr_scan"}, "fusion_lon": 0.0}, {"lat": 38.895942, "is_disabled": 0, "type": "electric_scooter", "lon": -76.95517716666667, "bike_id": "d5295b336796a610d544d0af17ceaf81", "fusion_lat": 0.0, "name": "d5295b336796a610d544d0af17ceaf81", "is_reserved": 0, "rental_uris": {"android": "https://dc.lft.to/lastmile_qr_scan", "ios": "https://dc.lft.to/lastmile_qr_scan"}, "fusion_lon": 0.0}, {"lat": 38.933521166666665, "is_disabled": 0, "type": "electric_scooter", "lon": -77.03725083333333, "bike_id": "1450d724f7373e9f04f0d6562d581669", "fusion_lat": 0.0, "name": "1450d724f7373e9f04f0d6562d581669", "is_reserved": 0, "rental_uris": {"android": "https://dc.lft.to/lastmile_qr_scan", "ios": "https://dc.lft.to/lastmile_qr_scan"}, "fusion_lon": 0.0}, {"lat": 38.884806833333336, "is_disabled": 0, "type": "electric_scooter", "lon": -76.945278, "bike_id": "648057a2d4ee6a485451a76726c0fa24", "fusion_lat": 0.0, "name": "648057a2d4ee6a485451a76726c0fa24", "is_reserved": 0, "rental_uris": {"android": "https://dc.lft.to/lastmile_qr_scan", "ios": "https://dc.lft.to/lastmile_qr_scan"}, "fusion_lon": 0.0}, {"lat": 38.899585333333334, "is_disabled": 0, "type": "electric_scooter", "lon": -77.0160605, "bike_id": "6d3f27e849c88da2b0e446dc0d0b1bd5", "fusion_lat": 0.0, "name": "6d3f27e849c88da2b0e446dc0d0b1bd5", "is_reserved": 0, "rental_uris": {"android": "https://dc.lft.to/lastmile_qr_scan", "ios": "https://dc.lft.to/lastmile_qr_scan"}, "fusion_lon": 0.0}, {"lat": 38.92469033333333, "is_disabled": 0, "type": "electric_scooter", "lon": -77.03377416666666, "bike_id": "10e1f7453f0196529a7b5ac9c322e04f", "fusion_lat": 0.0, "name": "10e1f7453f0196529a7b5ac9c322e04f", "is_reserved": 0, "rental_uris": {"android": "https://dc.lft.to/lastmile_qr_scan", "ios": "https://dc.lft.to/lastmile_qr_scan"}, "fusion_lon": 0.0}, {"lat": 38.887452, "is_disabled": 0, "type": "electric_scooter", "lon": -77.020716, "bike_id": "075d2a0a4ebcf7f396fe15dfd0eb1d3a", "fusion_lat": 0.0, "name": "075d2a0a4ebcf7f396fe15dfd0eb1d3a", "is_reserved": 0, "rental_uris": {"android": "https://dc.lft.to/lastmile_qr_scan", "ios": "https://dc.lft.to/lastmile_qr_scan"}, "fusion_lon": 0.0}, {"lat": 38.902713166666665, "is_disabled": 0, "type": "electric_scooter", "lon": -77.03373083333334, "bike_id": "106c8bfa43f0c20634b5fae931755b89", "fusion_lat": 0.0, "name": "106c8bfa43f0c20634b5fae931755b89", "is_reserved": 0, "rental_uris": {"android": "https://dc.lft.to/lastmile_qr_scan", "ios": "https://dc.lft.to/lastmile_qr_scan"}, "fusion_lon": 0.0}, {"lat": 38.867043333333335, "is_disabled": 0, "type": "electric_scooter", "lon": -76.98728466666667, "bike_id": "7857bd3e841a16b40868d9275bacad3c", "fusion_lat": 0.0, "name": "7857bd3e841a16b40868d9275bacad3c", "is_reserved": 0, "rental_uris": {"android": "https://dc.lft.to/lastmile_qr_scan", "ios": "https://dc.lft.to/lastmile_qr_scan"}, "fusion_lon": 0.0}, {"lat": 38.944361, "is_disabled": 0, "type": "electric_scooter", "lon": -77.06412333333333, "bike_id": "14d668c0554cf9c562326306b3aa911b", "fusion_lat": 0.0, "name": "14d668c0554cf9c562326306b3aa911b", "is_reserved": 0, "rental_uris": {"android": "https://dc.lft.to/lastmile_qr_scan", "ios": "https://dc.lft.to/lastmile_qr_scan"}, "fusion_lon": 0.0}, {"lat": 38.920330666666665, "is_disabled": 0, "type": "electric_scooter", "lon": -76.97804283333333, "bike_id": "ec8beb014a63847835f742bd24934a3f", "fusion_lat": 0.0, "name": "ec8beb014a63847835f742bd24934a3f", "is_reserved": 0, "rental_uris": {"android": "https://dc.lft.to/lastmile_qr_scan", "ios": "https://dc.lft.to/lastmile_qr_scan"}, "fusion_lon": 0.0}, {"lat": 38.90575, "is_disabled": 0, "type": "electric_scooter", "lon": -77.02210266666667, "bike_id": "2adbd1e9531788c5639ef5afac7f2efc", "fusion_lat": 0.0, "name": "2adbd1e9531788c5639ef5afac7f2efc", "is_reserved": 0, "rental_uris": {"android": "https://dc.lft.to/lastmile_qr_scan", "ios": "https://dc.lft.to/lastmile_qr_scan"}, "fusion_lon": 0.0}, {"lat": 38.927958, "is_disabled": 0, "type": "electric_scooter", "lon": -76.9849045, "bike_id": "76d8e25c8c465bbfc4785c4a913d1016", "fusion_lat": 0.0, "name": "76d8e25c8c465bbfc4785c4a913d1016", "is_reserved": 0, "rental_uris": {"android": "https://dc.lft.to/lastmile_qr_scan", "ios": "https://dc.lft.to/lastmile_qr_scan"}, "fusion_lon": 0.0}, {"lat": 38.89222133333333, "is_disabled": 0, "type": "electric_scooter", "lon": -77.03977066666667, "bike_id": "5319de3a8be09141a3c2e33fd72e60a5", "fusion_lat": 0.0, "name": "5319de3a8be09141a3c2e33fd72e60a5", "is_reserved": 0, "rental_uris": {"android": "https://dc.lft.to/lastmile_qr_scan", "ios": "https://dc.lft.to/lastmile_qr_scan"}, "fusion_lon": 0.0}, {"lat": 38.895543, "is_disabled": 0, "type": "electric_scooter", "lon": -76.93075933333333, "bike_id": "b58b11247710b6cfb1e2c78dc33cbf6f", "fusion_lat": 0.0, "name": "b58b11247710b6cfb1e2c78dc33cbf6f", "is_reserved": 0, "rental_uris": {"android": "https://dc.lft.to/lastmile_qr_scan", "ios": "https://dc.lft.to/lastmile_qr_scan"}, "fusion_lon": 0.0}, {"lat": 38.926523, "is_disabled": 0, "type": "electric_scooter", "lon": -77.0243045, "bike_id": "dc7188a3805c44751ffcedb3e4cbf945", "fusion_lat": 0.0, "name": "dc7188a3805c44751ffcedb3e4cbf945", "is_reserved": 0, "rental_uris": {"android": "https://dc.lft.to/lastmile_qr_scan", "ios": "https://dc.lft.to/lastmile_qr_scan"}, "fusion_lon": 0.0}, {"lat": 38.93940933333333, "is_disabled": 0, "type": "electric_scooter", "lon": -77.03680416666667, "bike_id": "eccaa94584e3f19f4379a94567171d41", "fusion_lat": 0.0, "name": "eccaa94584e3f19f4379a94567171d41", "is_reserved": 0, "rental_uris": {"android": "https://dc.lft.to/lastmile_qr_scan", "ios": "https://dc.lft.to/lastmile_qr_scan"}, "fusion_lon": 0.0}, {"lat": 38.920017333333334, "is_disabled": 0, "type": "electric_scooter", "lon": -77.03871266666667, "bike_id": "2e22ea517b657724e43cdc99eec53f3f", "fusion_lat": 0.0, "name": "2e22ea517b657724e43cdc99eec53f3f", "is_reserved": 0, "rental_uris": {"android": "https://dc.lft.to/lastmile_qr_scan", "ios": "https://dc.lft.to/lastmile_qr_scan"}, "fusion_lon": 0.0}, {"lat": 38.93958933333333, "is_disabled": 0, "type": "electric_bike", "lon": -77.36083616666667, "bike_id": "ae96e45fb79b4b0f4089732a5e886ac0", "fusion_lat": 0.0, "name": "ae96e45fb79b4b0f4089732a5e886ac0", "is_reserved": 0, "rental_uris": {"android": "https://dc.lft.to/lastmile_qr_scan", "ios": "https://dc.lft.to/lastmile_qr_scan"}, "fusion_lon": 0.0}, {"lat": 38.899687166666666, "is_disabled": 0, "type": "electric_scooter", "lon": -77.05702366666667, "bike_id": "625f0ba3ed7bdcfbf6cc2c79ab2a5e48", "fusion_lat": 0.0, "name": "625f0ba3ed7bdcfbf6cc2c79ab2a5e48", "is_reserved": 0, "rental_uris": {"android": "https://dc.lft.to/lastmile_qr_scan", "ios": "https://dc.lft.to/lastmile_qr_scan"}, "fusion_lon": 0.0}, {"lat": 38.927572166666664, "is_disabled": 0, "type": "electric_scooter", "lon": -77.03213433333333, "bike_id": "86a18930f4c3206e282c7dd2c75572fd", "fusion_lat": 0.0, "name": "86a18930f4c3206e282c7dd2c75572fd", "is_reserved": 0, "rental_uris": {"android": "https://dc.lft.to/lastmile_qr_scan", "ios": "https://dc.lft.to/lastmile_qr_scan"}, "fusion_lon": 0.0}, {"lat": 38.8973365, "is_disabled": 0, "type": "electric_scooter", "lon": -77.04692566666667, "bike_id": "c28d9409edce1eba241a2eb508974433", "fusion_lat": 0.0, "name": "c28d9409edce1eba241a2eb508974433", "is_reserved": 0, "rental_uris": {"android": "https://dc.lft.to/lastmile_qr_scan", "ios": "https://dc.lft.to/lastmile_qr_scan"}, "fusion_lon": 0.0}, {"lat": 38.952890333333336, "is_disabled": 0, "type": "electric_bike", "lon": -76.94596333333334, "bike_id": "25bc19c2e3cb668044f7b0658fee5fda", "fusion_lat": 0.0, "name": "25bc19c2e3cb668044f7b0658fee5fda", "is_reserved": 0, "rental_uris": {"android": "https://dc.lft.to/lastmile_qr_scan", "ios": "https://dc.lft.to/lastmile_qr_scan"}, "fusion_lon": 0.0}, {"lat": 38.917069166666664, "is_disabled": 0, "type": "electric_scooter", "lon": -77.001189, "bike_id": "0ffaf07993e74dab291b70bd38f8ee20", "fusion_lat": 0.0, "name": "0ffaf07993e74dab291b70bd38f8ee20", "is_reserved": 0, "rental_uris": {"android": "https://dc.lft.to/lastmile_qr_scan", "ios": "https://dc.lft.to/lastmile_qr_scan"}, "fusion_lon": 0.0}, {"lat": 38.89862433333333, "is_disabled": 0, "type": "electric_scooter", "lon": -77.02382516666667, "bike_id": "734cbef9d5d8409661c45d414d5207f1", "fusion_lat": 0.0, "name": "734cbef9d5d8409661c45d414d5207f1", "is_reserved": 0, "rental_uris": {"android": "https://dc.lft.to/lastmile_qr_scan", "ios": "https://dc.lft.to/lastmile_qr_scan"}, "fusion_lon": 0.0}, {"lat": 38.90666366666667, "is_disabled": 0, "type": "electric_scooter", "lon": -77.0385995, "bike_id": "6ae0da8aadb21e2c1b0b07c89a503814", "fusion_lat": 0.0, "name": "6ae0da8aadb21e2c1b0b07c89a503814", "is_reserved": 0, "rental_uris": {"android": "https://dc.lft.to/lastmile_qr_scan", "ios": "https://dc.lft.to/lastmile_qr_scan"}, "fusion_lon": 0.0}, {"lat": 38.91262916666667, "is_disabled": 0, "type": "electric_scooter", "lon": -77.01307666666666, "bike_id": "a0cf041abbe2e29a215b14b578cf217f", "fusion_lat": 0.0, "name": "a0cf041abbe2e29a215b14b578cf217f", "is_reserved": 0, "rental_uris": {"android": "https://dc.lft.to/lastmile_qr_scan", "ios": "https://dc.lft.to/lastmile_qr_scan"}, "fusion_lon": 0.0}, {"lat": 38.880468, "is_disabled": 0, "type": "electric_scooter", "lon": -77.017704, "bike_id": "f5b17c68971efa5dcf4037cd7e9bc220", "fusion_lat": 0.0, "name": "f5b17c68971efa5dcf4037cd7e9bc220", "is_reserved": 0, "rental_uris": {"android": "https://dc.lft.to/lastmile_qr_scan", "ios": "https://dc.lft.to/lastmile_qr_scan"}, "fusion_lon": 0.0}, {"lat": 38.9026165, "is_disabled": 0, "type": "electric_scooter", "lon": -77.01642216666667, "bike_id": "d27990ce6da062d02e88fc3ec2afd27d", "fusion_lat": 0.0, "name": "d27990ce6da062d02e88fc3ec2afd27d", "is_reserved": 0, "rental_uris": {"android": "https://dc.lft.to/lastmile_qr_scan", "ios": "https://dc.lft.to/lastmile_qr_scan"}, "fusion_lon": 0.0},