{"data": {"bikes": [{"name": "4198df877743d3af24b2ed4670a59209", "fusion_lon": 0.0, "lat": 38.8971385, "is_reserved": 0, "type": "electric_scooter", "bike_id": "4198df877743d3af24b2ed4670a59209", "is_disabled": 0, "rental_uris": {"android": "https://dc.lft.to/lastmile_qr_scan", "ios": "https://dc.lft.to/lastmile_qr_scan"}, "lon": -76.9734405, "fusion_lat": 0.0}, {"name": "d6dfc182d955f1b1ae7b36c2a8c03a90", "fusion_lon": 0.0, "lat": 38.907497666666664, "is_reserved": 0, "type": "electric_scooter", "bike_id": "d6dfc182d955f1b1ae7b36c2a8c03a90", "is_disabled": 0, "rental_uris": {"android": "https://dc.lft.to/lastmile_qr_scan", "ios": "https://dc.lft.to/lastmile_qr_scan"}, "lon": -77.03181616666667, "fusion_lat": 0.0}, {"name": "40e1f7084bc31e73a4675faa781ac293", "fusion_lon": 0.0, "lat": 38.8786345, "is_reserved": 0, "type": "electric_scooter", "bike_id": "40e1f7084bc31e73a4675faa781ac293", "is_disabled": 0, "rental_uris": {"android": "https://dc.lft.to/lastmile_qr_scan", "ios": "https://dc.lft.to/lastmile_qr_scan"}, "lon": -77.02307283333333, "fusion_lat": 0.0}, {"name": "5d40a54af8c3fb5e9ed4a9fa1aa25ef3", "fusion_lon": 0.0, "lat": 38.92341916666667, "is_reserved": 0, "type": "electric_scooter", "bike_id": "5d40a54af8c3fb5e9ed4a9fa1aa25ef3", "is_disabled": 0, "rental_uris": {"android": "https://dc.lft.to/lastmile_qr_scan", "ios": "https://dc.lft.to/lastmile_qr_scan"}, "lon": -77.05083133333333, "fusion_lat": 0.0}, {"name": "fccb39f6ffeab80c739103ebb7d47cc8", "fusion_lon": 0.0, "lat": 38.862427, "is_reserved": 0, "type": "electric_scooter", "bike_id": "fccb39f6ffeab80c739103ebb7d47cc8", "is_disabled": 0, "rental_uris": {"android": "https://dc.lft.to/lastmile_qr_scan", "ios": "https://dc.lft.to/lastmile_qr_scan"}, "lon": -76.99499483333334, "fusion_lat": 0.0}, {"name": "800d1d4c39f631b55b862bb1d5871fb7", "fusion_lon": 0.0, "lat": 38.916364, "is_reserved": 0, "type": "electric_scooter", "bike_id": "800d1d4c39f631b55b862bb1d5871fb7", "is_disabled": 0, "rental_uris": {"android": "https://dc.lft.to/lastmile_qr_scan", "ios": "https://dc.lft.to/lastmile_qr_scan"}, "lon": -77.03193183333333, "fusion_lat": 0.0}, {"name": "563d8aa4a850983c5718a949c12129d8", "fusion_lon": 0.0, "lat": 38.9241565, "is_reserved": 0, "type": "electric_scooter", "bike_id": "563d8aa4a850983c5718a949c12129d8", "is_disabled": 0, "rental_uris": {"android": "https://dc.lft.to/lastmile_qr_scan", "ios": "https://dc.lft.to/lastmile_qr_scan"}, "lon": -77.05062716666667, "fusion_lat": 0.0}, {"name": "b95f6693073e0aff322007cf7371d0e0", "fusion_lon": 0.0, "lat": 38.98359283333333, "is_reserved": 0, "type": "electric_bike", "bike_id": "b95f6693073e0aff322007cf7371d0e0", "is_disabled": 0, "rental_uris": {"android": "https://dc.lft.to/lastmile_qr_scan", "ios": "https://dc.lft.to/lastmile_qr_scan"}, "lon": -76.97215633333333, "fusion_lat": 0.0}, {"name": "87860f2f446dca6bc09ef31c577a9964", "fusion_lon": 0.0, "lat": 38.902439, "is_reserved": 0, "type": "electric_scooter", "bike_id": "87860f2f446dca6bc09ef31c577a9964", "is_disabled": 0, "rental_uris": {"android": "https://dc.lft.to/lastmile_qr_scan", "ios": "https://dc.lft.to/lastmile_qr_scan"}, "lon": -77.0439435, "fusion_lat": 0.0}, {"name": "0dda5d1b75e5fae3bd5d022c9173bbe4", "fusion_lon": 0.0, "lat": 38.95739616666667, "is_reserved": 0, "type": "electric_scooter", "bike_id": "0dda5d1b75e5fae3bd5d022c9173bbe4", "is_disabled": 0, "rental_uris": {"android": "https://dc.lft.to/lastmile_qr_scan", "ios": "https://dc.lft.to/lastmile_qr_scan"}, "lon": -77.0206545, "fusion_lat": 0.0}, {"name": "9d8bbc62dc7212db02cf2e18709cee3f", "fusion_lon": 0.0, "lat": 38.831494666666664, "is_reserved": 0, "type": "electric_scooter", "bike_id": "9d8bbc62dc7212db02cf2e18709cee3f", "is_disabled": 0, "rental_uris": {"android": "https://dc.lft.to/lastmile_qr_scan", "ios": "https://dc.lft.to/lastmile_qr_scan"}, "lon": -77.05131366666667, "fusion_lat": 0.0}, {"name": "a5919996d91cc563fd2ac937018aad0a", "fusion_lon": 0.0, "lat": 38.93671366666667, "is_reserved": 0, "type": "electric_scooter", "bike_id": "a5919996d91cc563fd2ac937018aad0a", "is_disabled": 0, "rental_uris": {"android": "https://dc.lft.to/lastmile_qr_scan", "ios": "https://dc.lft.to/lastmile_qr_scan"}, "lon": -77.03567533333333, "fusion_lat": 0.0}, {"name": "e4c480c5efe629417592380fc7dc4c17", "fusion_lon": 0.0, "lat": 38.917093666666666, "is_reserved": 0, "type": "electric_scooter", "bike_id": "e4c480c5efe629417592380fc7dc4c17", "is_disabled": 0, "rental_uris": {"android": "https://dc.lft.to/lastmile_qr_scan", "ios": "https://dc.lft.to/lastmile_qr_scan"}, "lon": -77.03498433333333, "fusion_lat": 0.0}, {"name": "cc83997a4bb55b692749e00ec8e02328", "fusion_lon": 0.0, "lat": 38.8646565, "is_reserved": 0, "type": "electric_scooter", "bike_id": "cc83997a4bb55b692749e00ec8e02328", "is_disabled": 0, "rental_uris": {"android": "https://dc.lft.to/lastmile_qr_scan", "ios": "https://dc.lft.to/lastmile_qr_scan"}, "lon": -76.97741333333333, "fusion_lat": 0.0}, {"name": "50bf3f57cc9de10171e63e7a98e9f9bb", "fusion_lon": 0.0, "lat": 38.89558783333333, "is_reserved": 0, "type": "electric_scooter", "bike_id": "50bf3f57cc9de10171e63e7a98e9f9bb", "is_disabled": 0, "rental_uris": {"android": "https://dc.lft.to/lastmile_qr_scan", "ios": "https://dc.lft.to/lastmile_qr_scan"}, "lon": -77.046736, "fusion_lat": 0.0}, {"name": "f459a8cd5c0c5646180df7e2931b5847", "fusion_lon": 0.0, "lat": 38.930836166666666, "is_reserved": 0, "type": "electric_scooter", "bike_id": "f459a8cd5c0c5646180df7e2931b5847", "is_disabled": 0, "rental_uris": {"android": "https://dc.lft.to/lastmile_qr_scan", "ios": "https://dc.lft.to/lastmile_qr_scan"}, "lon": -76.99611983333334, "fusion_lat": 0.0}, {"name": "5a52c4a55a9637fad0d2903a2a14712e", "fusion_lon": 0.0, "lat": 38.893579, "is_reserved": 0, "type": "electric_scooter", "bike_id": "5a52c4a55a9637fad0d2903a2a14712e", "is_disabled": 0, "rental_uris": {"android": "https://dc.lft.to/lastmile_qr_scan", "ios": "https://dc.lft.to/lastmile_qr_scan"}, "lon": -76.94936516666667, "fusion_lat": 0.0}, {"name": "6616d8678ce7c7a1edac1ce76723da72", "fusion_lon": 0.0, "lat": 38.91681833333333, "is_reserved": 0, "type": "electric_scooter", "bike_id": "6616d8678ce7c7a1edac1ce76723da72", "is_disabled": 0, "rental_uris": {"android": "https://dc.lft.to/lastmile_qr_scan", "ios": "https://dc.lft.to/lastmile_qr_scan"}, "lon": -77.02701233333333, "fusion_lat": 0.0}, {"name": "0368f0b8268926e19aec6a1682240456", "fusion_lon": 0.0, "lat": 38.935419, "is_reserved": 0, "type": "electric_scooter", "bike_id": "0368f0b8268926e19aec6a1682240456", "is_disabled": 0, "rental_uris": {"android": "https://dc.lft.to/lastmile_qr_scan", "ios": "https://dc.lft.to/lastmile_qr_scan"}, "lon": -77.058597, "fusion_lat": 0.0}, {"name": "626460d0d6c0cad80f64477df142385d", "fusion_lon": 0.0, "lat": 38.920522, "is_reserved": 0, "type": "electric_scooter", "bike_id": "626460d0d6c0cad80f64477df142385d", "is_disabled": 0, "rental_uris": {"android": "https://dc.lft.to/lastmile_qr_scan", "ios": "https://dc.lft.to/lastmile_qr_scan"}, "lon": -77.0238605, "fusion_lat": 0.0}, {"name": "1011b5c66c88b38087cdcde2498dfcba", "fusion_lon": 0.0, "lat": 38.91690333333333, "is_reserved": 0, "type": "electric_scooter", "bike_id": "1011b5c66c88b38087cdcde2498dfcba", "is_disabled": 0, "rental_uris": {"android": "https://dc.lft.to/lastmile_qr_scan", "ios": "https://dc.lft.to/lastmile_qr_scan"}, "lon": -77.03764966666667, "fusion_lat": 0.0}, {"name": "b313ef0b64df0a972a8c4593ea339791", "fusion_lon": 0.0, "lat": 38.96959066666667, "is_reserved": 0, "type": "electric_bike", "bike_id": "b313ef0b64df0a972a8c4593ea339791", "is_disabled": 0, "rental_uris": {"android": "https://dc.lft.to/lastmile_qr_scan", "ios": "https://dc.lft.to/lastmile_qr_scan"}, "lon": -76.95750183333334, "fusion_lat": 0.0}, {"name": "15923c8334ff62b60670d5d86f8d3417", "fusion_lon": 0.0, "lat": 38.916901, "is_reserved": 0, "type": "electric_scooter", "bike_id": "15923c8334ff62b60670d5d86f8d3417", "is_disabled": 0, "rental_uris": {"android": "https://dc.lft.to/lastmile_qr_scan", "ios": "https://dc.lft.to/lastmile_qr_scan"}, "lon": -77.03155766666667, "fusion_lat": 0.0}, {"name": "ce4cd6a206837082737952b3dfe2a2b8", "fusion_lon": 0.0, "lat": 38.912635333333334, "is_reserved": 0, "type": "electric_scooter", "bike_id": "ce4cd6a206837082737952b3dfe2a2b8", "is_disabled": 0, "rental_uris": {"android": "https://dc.lft.to/lastmile_qr_scan", "ios": "https://dc.lft.to/lastmile_qr_scan"}, "lon": -77.01694166666667, "fusion_lat": 0.0}, {"name": "3bcc16fd044a4ec439d1148d9a4244e9", "fusion_lon": 0.0, "lat": 38.92316316666667, "is_reserved": 0, "type": "electric_scooter", "bike_id": "3bcc16fd044a4ec439d1148d9a4244e9", "is_disabled": 0, "rental_uris": {"android": "https://dc.lft.to/lastmile_qr_scan", "ios": "https://dc.lft.to/lastmile_qr_scan"}, "lon": -77.04109766666667, "fusion_lat": 0.0}, {"name": "833f02a11cdb473a2939afa2476e0b79", "fusion_lon": 0.0, "lat": 38.923272, "is_reserved": 0, "type": "electric_scooter", "bike_id": "833f02a11cdb473a2939afa2476e0b79", "is_disabled": 0, "rental_uris": {"android": "https://dc.lft.to/lastmile_qr_scan", "ios": "https://dc.lft.to/lastmile_qr_scan"}, "lon": -77.00051066666667, "fusion_lat": 0.0}, {"name": "4763c048b0681391557f143a3be4c9ee", "fusion_lon": 0.0, "lat": 38.884919, "is_reserved": 0, "type": "electric_scooter", "bike_id": "4763c048b0681391557f143a3be4c9ee", "is_disabled": 0, "rental_uris": {"android": "https://dc.lft.to/lastmile_qr_scan", "ios": "https://dc.lft.to/lastmile_qr_scan"}, "lon": -77.0087655, "fusion_lat": 0.0}, {"name": "be685759bb7e71b0b3240ac47a08a5ff", "fusion_lon": 0.0, "lat": 38.9081125, "is_reserved": 0, "type": "electric_scooter", "bike_id": "be685759bb7e71b0b3240ac47a08a5ff", "is_disabled": 0, "rental_uris": {"android": "https://dc.lft.to/lastmile_qr_scan", "ios": "https://dc.lft.to/lastmile_qr_scan"}, "lon": -77.03947383333333, "fusion_lat": 0.0}, {"name": "977cdf9c3847d2228893df08d8106708", "fusion_lon": 0.0, "lat": 38.914028, "is_reserved": 0, "type": "electric_scooter", "bike_id": "977cdf9c3847d2228893df08d8106708", "is_disabled": 0, "rental_uris": {"android": "https://dc.lft.to/lastmile_qr_scan", "ios": "https://dc.lft.to/lastmile_qr_scan"}, "lon": -77.0266095, "fusion_lat": 0.0}, {"name": "e1f80a25efdb2968009d80e01d0bca4a", "fusion_lon": 0.0, "lat": 38.90064666666667, "is_reserved": 0, "type": "electric_scooter", "bike_id": "e1f80a25efdb2968009d80e01d0bca4a", "is_disabled": 0, "rental_uris": {"android": "https://dc.lft.to/lastmile_qr_scan", "ios": "https://dc.lft.to/lastmile_qr_scan"}, "lon": -76.92744666666667, "fusion_lat": 0.0}, {"name": "1a4a39ee82a54ba682128708b4f04fb6", "fusion_lon": 0.0, "lat": 38.931825333333336, "is_reserved": 0, "type": "electric_scooter", "bike_id": "1a4a39ee82a54ba682128708b4f04fb6", "is_disabled": 0, "rental_uris": {"android": "https://dc.lft.to/lastmile_qr_scan", "ios": "https://dc.lft.to/lastmile_qr_scan"}, "lon": -77.03659866666666, "fusion_lat": 0.0}, {"name": "37398f3946e322ed1d7dbb431ec7a6d8", "fusion_lon": 0.0, "lat": 38.95471966666667, "is_reserved": 0, "type": "electric_scooter", "bike_id": "37398f3946e322ed1d7dbb431ec7a6d8", "is_disabled": 0, "rental_uris": {"android": "https://dc.lft.to/lastmile_qr_scan", "ios": "https://dc.lft.to/lastmile_qr_scan"}, "lon": -77.022296, "fusion_lat": 0.0}, {"name": "a51cd1efb4e5a597adfb4b612145c130", "fusion_lon": 0.0, "lat": 38.91102383333333, "is_reserved": 0, "type": "electric_scooter", "bike_id": "a51cd1efb4e5a597adfb4b612145c130", "is_disabled": 0, "rental_uris": {"android": "https://dc.lft.to/lastmile_qr_scan", "ios": "https://dc.lft.to/lastmile_qr_scan"}, "lon": -77.02504416666666, "fusion_lat": 0.0}, {"name": "c3da00b83d039fbdf1445d882fd1b318", "fusion_lon": 0.0, "lat": 38.899513, "is_reserved": 0, "type": "electric_bike", "bike_id": "c3da00b83d039fbdf1445d882fd1b318", "is_disabled": 0, "rental_uris": {"android": "https://dc.lft.to/lastmile_qr_scan", "ios": "https://dc.lft.to/lastmile_qr_scan"}, "lon": -76.98567683333333, "fusion_lat": 0.0}, {"name": "803f2cc5963baa5dc289845f43633b01", "fusion_lon": 0.0, "lat": 38.8819455, "is_reserved": 0, "type": "electric_bike", "bike_id": "803f2cc5963baa5dc289845f43633b01", "is_disabled": 0, "rental_uris": {"android": "https://dc.lft.to/lastmile_qr_scan", "ios": "https://dc.lft.to/lastmile_qr_scan"}, "lon": -77.03616333333333, "fusion_lat": 0.0}, {"name": "eed2e82429acd6f02816ec290fb06648", "fusion_lon": 0.0, "lat": 38.8589215, "is_reserved": 0, "type": "electric_scooter", "bike_id": "eed2e82429acd6f02816ec290fb06648", "is_disabled": 0, "rental_uris": {"android": "https://dc.lft.to/lastmile_qr_scan", "ios": "https://dc.lft.to/lastmile_qr_scan"}, "lon": -76.99722916666667, "fusion_lat": 0.0}, {"name": "2c0eb425f9c63e6b66e560aa5b575f98", "fusion_lon": 0.0, "lat": 38.8991225, "is_reserved": 0, "type": "electric_scooter", "bike_id": "2c0eb425f9c63e6b66e560aa5b575f98", "is_disabled": 0, "rental_uris": {"android": "https://dc.lft.to/lastmile_qr_scan", "ios": "https://dc.lft.to/lastmile_qr_scan"}, "lon": -76.95067383333334, "fusion_lat": 0.0}, {"name": "f05ce4593e46c9a7f4cb4fa3b7409f37", "fusion_lon": 0.0, "lat": 38.862305166666665, "is_reserved": 0, "type": "electric_scooter", "bike_id": "f05ce4593e46c9a7f4cb4fa3b7409f37", "is_disabled": 0, "rental_uris": {"android": "https://dc.lft.to/lastmile_qr_scan", "ios": "https://dc.lft.to/lastmile_qr_scan"}, "lon": -76.995185, "fusion_lat": 0.0}, {"name": "4c711210a8c5c8f18e9a8172c3db5b59", "fusion_lon": 0.0, "lat": 38.916281, "is_reserved": 0, "type": "electric_scooter", "bike_id": "4c711210a8c5c8f18e9a8172c3db5b59", "is_disabled": 0, "rental_uris": {"android": "https://dc.lft.to/lastmile_qr_scan", "ios": "https://dc.lft.to/lastmile_qr_scan"}, "lon": -77.03975833333334, "fusion_lat": 0.0}, {"name": "b1b0b5e1234a30855efe3eb721bd2c06", "fusion_lon": 0.0, "lat": 38.89219766666667, "is_reserved": 0, "type": "electric_scooter", "bike_id": "b1b0b5e1234a30855efe3eb721bd2c06", "is_disabled": 0, "rental_uris": {"android": "https://dc.lft.to/lastmile_qr_scan", "ios": "https://dc.lft.to/lastmile_qr_scan"}, "lon": -77.0263395, "fusion_lat": 0.0}, {"name": "d4a39a9d44edad4c24bbb6f2330422ba", "fusion_lon": 0.0, "lat": 38.92936, "is_reserved": 0, "type": "electric_scooter", "bike_id": "d4a39a9d44edad4c24bbb6f2330422ba", "is_disabled": 0, "rental_uris": {"android": "https://dc.lft.to/lastmile_qr_scan", "ios": "https://dc.lft.to/lastmile_qr_scan"}, "lon": -77.0199105, "fusion_lat": 0.0}, {"name": "4c0888f931b9fabf7e83fba4a072de65", "fusion_lon": 0.0, "lat": 38.92362633333333, "is_reserved": 0, "type": "electric_scooter", "bike_id": "4c0888f931b9fabf7e83fba4a072de65", "is_disabled": 0, "rental_uris": {"android": "https://dc.lft.to/lastmile_qr_scan", "ios": "https://dc.lft.to/lastmile_qr_scan"}, "lon": -76.99537416666666, "fusion_lat": 0.0}, {"name": "20bb64f447220a1f55ddf5dd65b704d3", "fusion_lon": 0.0, "lat": 38.9050885, "is_reserved": 0, "type": "electric_scooter", "bike_id": "20bb64f447220a1f55ddf5dd65b704d3", "is_disabled": 0, "rental_uris": {"android": "https://dc.lft.to/lastmile_qr_scan", "ios": "https://dc.lft.to/lastmile_qr_scan"}, "lon": -77.00211383333334, "fusion_lat": 0.0}, {"name": "9057c72bfd6c812bf853d6ea497ab712", "fusion_lon": 0.0, "lat": 38.906399, "is_reserved": 0, "type": "electric_scooter", "bike_id": "9057c72bfd6c812bf853d6ea497ab712", "is_disabled": 0, "rental_uris": {"android": "https://dc.lft.to/lastmile_qr_scan", "ios": "https://dc.lft.to/lastmile_qr_scan"}, "lon": -77.010075, "fusion_lat": 0.0}, {"name": "27e9608cb04d22dd1942f6a97b977f02", "fusion_lon": 0.0, "lat": 38.95244866666667, "is_reserved": 0, "type": "electric_bike", "bike_id": "27e9608cb04d22dd1942f6a97b977f02", "is_disabled": 0, "rental_uris": {"android": "https://dc.lft.to/lastmile_qr_scan", "ios": "https://dc.lft.to/lastmile_qr_scan"}, "lon": -76.9767585, "fusion_lat": 0.0}, {"name": "fe47eaefb6be861de1d33f8141effa78", "fusion_lon": 0.0, "lat": 38.932630833333334, "is_reserved": 0, "type": "electric_scooter", "bike_id": "fe47eaefb6be861de1d33f8141effa78", "is_disabled": 0, "rental_uris": {"android": "https://dc.lft.to/lastmile_qr_scan", "ios": "https://dc.lft.to/lastmile_qr_scan"}, "lon": -77.01922383333333, "fusion_lat": 0.0}, {"name": "c7590743c049793e5a88419e2237e782", "fusion_lon": 0.0, "lat": 38.930152, "is_reserved": 0, "type": "electric_scooter", "bike_id": "c7590743c049793e5a88419e2237e782", "is_disabled": 0, "rental_uris": {"android": "https://dc.lft.to/lastmile_qr_scan", "ios": "https://dc.lft.to/lastmile_qr_scan"}, "lon": -77.05526433333333, "fusion_lat": 0.0}, {"name": "904b4c4ffca3fab0a5122968a53a7782", "fusion_lon": 0.0, "lat": 38.902105166666665, "is_reserved": 0, "type": "electric_scooter", "bike_id": "904b4c4ffca3fab0a5122968a53a7782", "is_disabled": 0, "rental_uris": {"android": "https://dc.lft.to/lastmile_qr_scan", "ios": "https://dc.lft.to/lastmile_qr_scan"}, "lon": -77.023701, "fusion_lat": 0.0}, {"name": "22d01be913c7feb7fff5774f5349bae7", "fusion_lon": 0.0, "lat": 38.928880166666666, "is_reserved": 0, "type": "electric_bike", "bike_id": "22d01be913c7feb7fff5774f5349bae7", "is_disabled": 0, "rental_uris": {"android": "https://dc.lft.to/lastmile_qr_scan", "ios": "https://dc.lft.to/lastmile_qr_scan"}, "lon": -77.08398566666666, "fusion_lat": 0.0}, {"name": "dbb59d92315dd38c225a5be0c16a19a2", "fusion_lon": 0.0, "lat": 38.90549166666667, "is_reserved": 0, "type": "electric_scooter", "bike_id": "dbb59d92315dd38c225a5be0c16a19a2", "is_disabled": 0, "rental_uris": {"android": "https://dc.lft.to/lastmile_qr_scan", "ios": "https://dc.lft.to/lastmile_qr_scan"}, "lon": -77.001198, "fusion_lat": 0.0}, {"name": "cf8b89b567116be002126b062eb52a2c", "fusion_lon": 0.0, "lat": 38.898769333333334, "is_reserved": 0, "type": "electric_scooter", "bike_id": "cf8b89b567116be002126b062eb52a2c", "is_disabled": 0, "rental_uris": {"android": "https://dc.lft.to/lastmile_qr_scan", "ios": "https://dc.lft.to/lastmile_qr_scan"}, "lon": -77.01258233333333, "fusion_lat": 0.0}, {"name": "2168adbba715414535e86b4f0711b9fd", "fusion_lon": 0.0, "lat": 38.909652, "is_reserved": 0, "type": "electric_scooter", "bike_id": "2168adbba715414535e86b4f0711b9fd", "is_disabled": 0, "rental_uris": {"android": "https://dc.lft.to/lastmile_qr_scan", "ios": "https://dc.lft.to/lastmile_qr_scan"}, "lon": -77.00933916666666, "fusion_lat": 0.0}, {"name": "3c56264078804e3555deda063fef76ed", "fusion_lon": 0.0, "lat": 39.05633266666667, "is_reserved": 0, "type": "electric_bike", "bike_id": "3c56264078804e3555deda063fef76ed", "is_disabled": 0, "rental_uris": {"android": "https://dc.lft.to/lastmile_qr_scan", "ios": "https://dc.lft.to/lastmile_qr_scan"}, "lon": -77.125272, "fusion_lat": 0.0}, {"name": "fb3a4a0cecf85c97bb0bd0c1121ad9c9", "fusion_lon": 0.0, "lat": 38.9662335, "is_reserved": 0, "type": "electric_scooter", "bike_id": "fb3a4a0cecf85c97bb0bd0c1121ad9c9", "is_disabled": 0, "rental_uris": {"android": "https://dc.lft.to/lastmile_qr_scan", "ios": "https://dc.lft.to/lastmile_qr_scan"}, "lon": -77.02249833333333, "fusion_lat": 0.0}, {"name": "751890da86d82096076c8b5875f720ca", "fusion_lon": 0.0, "lat": 38.923390833333336, "is_reserved": 0, "type": "electric_scooter", "bike_id": "751890da86d82096076c8b5875f720ca", "is_disabled": 0, "rental_uris": {"android": "https://dc.lft.to/lastmile_qr_scan", "ios": "https://dc.lft.to/lastmile_qr_scan"}, "lon": -77.03501066666666, "fusion_lat": 0.0}, {"name": "43499d448795ee9b4fcb142b8c1a19ad", "fusion_lon": 0.0, "lat": 38.93701433333333, "is_reserved": 0, "type": "electric_scooter", "bike_id": "43499d448795ee9b4fcb142b8c1a19ad", "is_disabled": 0, "rental_uris": {"android": "https://dc.lft.to/lastmile_qr_scan", "ios": "https://dc.lft.to/lastmile_qr_scan"}, "lon": -77.0610435, "fusion_lat": 0.0}, {"name": "24220727fad215fd7294f4b9d825198d", "fusion_lon": 0.0, "lat": 38.91576283333333, "is_reserved": 0, "type": "electric_scooter", "bike_id": "24220727fad215fd7294f4b9d825198d", "is_disabled": 0, "rental_uris": {"android": "https://dc.lft.to/lastmile_qr_scan", "ios": "https://dc.lft.to/lastmile_qr_scan"}, "lon": -77.01250816666666, "fusion_lat": 0.0}, {"name": "49754d4ab5f5775d4754db87de91d41d", "fusion_lon": 0.0, "lat": 38.906696, "is_reserved": 0, "type": "electric_scooter", "bike_id": "49754d4ab5f5775d4754db87de91d41d", "is_disabled": 0, "rental_uris": {"android": "https://dc.lft.to/lastmile_qr_scan", "ios": "https://dc.lft.to/lastmile_qr_scan"}, "lon": -77.0720305, "fusion_lat": 0.0}, {"name": "e4530019adede789d66f9cf276b1520b", "fusion_lon": 0.0, "lat": 38.89224133333333, "is_reserved": 0, "type": "electric_scooter", "bike_id": "e4530019adede789d66f9cf276b1520b", "is_disabled": 0, "rental_uris": {"android": "https://dc.lft.to/lastmile_qr_scan", "ios": "https://dc.lft.to/lastmile_qr_scan"}, "lon": -77.04649783333333, "fusion_lat": 0.0}, {"name": "59d0c5b1d31db7a63659c75e67023eaa", "fusion_lon": 0.0, "lat": 38.91181516666666, "is_reserved": 0, "type": "electric_scooter", "bike_id": "59d0c5b1d31db7a63659c75e67023eaa", "is_disabled": 0, "rental_uris": {"android": "https://dc.lft.to/lastmile_qr_scan", "ios": "https://dc.lft.to/lastmile_qr_scan"}, "lon": -77.0350235, "fusion_lat": 0.0}, {"name": "a300904d732773958648cfc27e4f0c18", "fusion_lon": 0.0, "lat": 38.900163, "is_reserved": 0, "type": "electric_scooter", "bike_id": "a300904d732773958648cfc27e4f0c18", "is_disabled": 0, "rental_uris": {"android": "https://dc.lft.to/lastmile_qr_scan", "ios": "https://dc.lft.to/lastmile_qr_scan"}, "lon": -77.00182116666667, "fusion_lat": 0.0}, {"name": "7264d2804a6726e999d7c06f5eaeefe8", "fusion_lon": 0.0, "lat": 38.89464016666667, "is_reserved": 0, "type": "electric_scooter", "bike_id": "7264d2804a6726e999d7c06f5eaeefe8", "is_disabled": 0, "rental_uris": {"android": "https://dc.lft.to/lastmile_qr_scan", "ios": "https://dc.lft.to/lastmile_qr_scan"}, "lon": -77.01098633333334, "fusion_lat": 0.0}, {"name": "63a074b827402d4ef37b52012bcc1312", "fusion_lon": 0.0, "lat": 38.905640166666664, "is_reserved": 0, "type": "electric_scooter", "bike_id": "63a074b827402d4ef37b52012bcc1312", "is_disabled": 0, "rental_uris": {"android": "https://dc.lft.to/lastmile_qr_scan", "ios": "https://dc.lft.to/lastmile_qr_scan"}, "lon": -77.03435083333333, "fusion_lat": 0.0}, {"name": "63b2cfd18d43e77940563b680c72b318", "fusion_lon": 0.0, "lat": 38.9332495, "is_reserved": 0, "type": "electric_scooter", "bike_id": "63b2cfd18d43e77940563b680c72b318", "is_disabled": 0, "rental_uris": {"android": "https://dc.lft.to/lastmile_qr_scan", "ios": "https://dc.lft.to/lastmile_qr_scan"}, "lon": -77.0325505, "fusion_lat": 0.0}, {"name": "51095037c3c57dc518088dd5017daf6e", "fusion_lon": 0.0, "lat": 38.934451333333335, "is_reserved": 0, "type": "electric_scooter", "bike_id": "51095037c3c57dc518088dd5017daf6e", "is_disabled": 0, "rental_uris": {"android": "https://dc.lft.to/lastmile_qr_scan", "ios": "https://dc.lft.to/lastmile_qr_scan"}, "lon": -77.02730383333333, "fusion_lat": 0.0}, {"name": "f93b16e066f30dd6f85a8c688359bb8b", "fusion_lon": 0.0, "lat": 38.92418133333334, "is_reserved": 0, "type": "electric_scooter", "bike_id": "f93b16e066f30dd6f85a8c688359bb8b", "is_disabled": 0, "rental_uris": {"android": "https://dc.lft.to/lastmile_qr_scan", "ios": "https://dc.lft.to/lastmile_qr_scan"}, "lon": -77.01949016666667, "fusion_lat": 0.0}, {"name": "15e62650ea2a02505bcb3233632f3638", "fusion_lon": 0.0, "lat": 38.883666166666664, "is_reserved": 0, "type": "electric_scooter", "bike_id": "15e62650ea2a02505bcb3233632f3638", "is_disabled": 0, "rental_uris": {"android": "https://dc.lft.to/lastmile_qr_scan", "ios": "https://dc.lft.to/lastmile_qr_scan"}, "lon": -76.995235, "fusion_lat": 0.0}, {"name": "1e0fb0e19c1b664388566995f6a11baa", "fusion_lon": 0.0, "lat": 38.901348, "is_reserved": 0, "type": "electric_scooter", "bike_id": "1e0fb0e19c1b664388566995f6a11baa", "is_disabled": 0, "rental_uris": {"android": "https://dc.lft.to/lastmile_qr_scan", "ios": "https://dc.lft.to/lastmile_qr_scan"}, "lon": -77.0130925, "fusion_lat": 0.0}, {"name": "e4f3bfa348486fbf60f8aa579ca014f7", "fusion_lon": 0.0, "lat": 38.89308316666666, "is_reserved": 0, "type": "electric_scooter", "bike_id": "e4f3bfa348486fbf60f8aa579ca014f7", "is_disabled": 0, "rental_uris": {"android": "https://dc.lft.to/lastmile_qr_scan", "ios": "https://dc.lft.to/lastmile_qr_scan"}, "lon": -76.9396925, "fusion_lat": 0.0}, {"name": "4aa5f5449fe440c33ac7870086ad74e5", "fusion_lon": 0.0, "lat": 38.92878566666667, "is_reserved": 0, "type": "electric_scooter", "bike_id": "4aa5f5449fe440c33ac7870086ad74e5", "is_disabled": 0, "rental_uris": {"android": "https://dc.lft.to/lastmile_qr_scan", "ios": "https://dc.lft.to/lastmile_qr_scan"}, "lon": -77.04049733333333, "fusion_lat": 0.0}, {"name": "0406c670f70449ad141770db73eb97ac", "fusion_lon": 0.0, "lat": 38.850595, "is_reserved": 0, "type": "electric_scooter", "bike_id": "0406c670f70449ad141770db73eb97ac", "is_disabled": 0, "rental_uris": {"android": "https://dc.lft.to/lastmile_qr_scan", "ios": "https://dc.lft.to/lastmile_qr_scan"}, "lon": -76.970092, "fusion_lat": 0.0}, {"name": "fe10ad8e3d2b90da63b19b96871e08bb", "fusion_lon": 0.0, "lat": 38.891117, "is_reserved": 0, "type": "electric_scooter", "bike_id": "fe10ad8e3d2b90da63b19b96871e08bb", "is_disabled": 0, "rental_uris": {"android": "https://dc.lft.to/lastmile_qr_scan", "ios": "https://dc.lft.to/lastmile_qr_scan"}, "lon": -76.99163816666666, "fusion_lat": 0.0}, {"name": "0679fd1705c8ee53e5a13478e1c04e01", "fusion_lon": 0.0, "lat": 38.92281783333333, "is_reserved": 0, "type": "electric_scooter", "bike_id": "0679fd1705c8ee53e5a13478e1c04e01", "is_disabled": 0, "rental_uris": {"android": "https://dc.lft.to/lastmile_qr_scan", "ios": "https://dc.lft.to/lastmile_qr_scan"}, "lon": -77.04465166666667, "fusion_lat": 0.0}, {"name": "a14bf0e10a000cf3f2683ee4a3625bfe", "fusion_lon": 0.0, "lat": 38.922529833333336, "is_reserved": 0, "type": "electric_bike", "bike_id": "a14bf0e10a000cf3f2683ee4a3625bfe", "is_disabled": 0, "rental_uris": {"android": "https://dc.lft.to/lastmile_qr_scan", "ios": "https://dc.lft.to/lastmile_qr_scan"}, "lon": -77.01949816666666, "fusion_lat": 0.0}, {"name": "2068e35892b2c6490964af03d4871847", "fusion_lon": 0.0, "lat": 38.909008166666666, "is_reserved": 0, "type": "electric_scooter", "bike_id": "2068e35892b2c6490964af03d4871847", "is_disabled": 0, "rental_uris": {"android": "https://dc.lft.to/lastmile_qr_scan", "ios": "https://dc.lft.to/lastmile_qr_scan"}, "lon": -77.04211, "fusion_lat": 0.0}, {"name": "bebd851db9eaa77d5b296c0b4424870e", "fusion_lon": 0.0, "lat": 38.895435666666664, "is_reserved": 0, "type": "electric_scooter", "bike_id": "bebd851db9eaa77d5b296c0b4424870e", "is_disabled": 0, "rental_uris": {"android": "https://dc.lft.to/lastmile_qr_scan", "ios": "https://dc.lft.to/lastmile_qr_scan"}, "lon": -76.94916883333333, "fusion_lat": 0.0}, {"name": "19feff915e1732dee9d69a8ff982465d", "fusion_lon": 0.0, "lat": 38.92902266666667, "is_reserved": 0, "type": "electric_scooter", "bike_id": "19feff915e1732dee9d69a8ff982465d", "is_disabled": 0, "rental_uris": {"android": "https://dc.lft.to/lastmile_qr_scan", "ios": "https://dc.lft.to/lastmile_qr_scan"}, "lon": -77.062682, "fusion_lat": 0.0}, {"name": "1883cabedc48846dc7718e06fc7c8589", "fusion_lon": 0.0, "lat": 38.91605083333334, "is_reserved": 0, "type": "electric_scooter", "bike_id": "1883cabedc48846dc7718e06fc7c8589", "is_disabled": 0, "rental_uris": {"android": "https://dc.lft.to/lastmile_qr_scan", "ios": "https://dc.lft.to/lastmile_qr_scan"}, "lon": -77.03212066666667, "fusion_lat": 0.0}, {"name": "6b7a25f733671bc175335a389f4e65ac", "fusion_lon": 0.0, "lat": 38.93687466666667, "is_reserved": 0, "type": "electric_bike", "bike_id": "6b7a25f733671bc175335a389f4e65ac", "is_disabled": 0, "rental_uris": {"android": "https://dc.lft.to/lastmile_qr_scan", "ios": "https://dc.lft.to/lastmile_qr_scan"}, "lon": -76.9906055, "fusion_lat": 0.0}, {"name": "0763b6f87c5efb496ae2062f1b17555f", "fusion_lon": 0.0, "lat": 38.89687833333333, "is_reserved": 0, "type": "electric_scooter", "bike_id": "0763b6f87c5efb496ae2062f1b17555f", "is_disabled": 0, "rental_uris": {"android": "https://dc.lft.to/lastmile_qr_scan", "ios": "https://dc.lft.to/lastmile_qr_scan"}, "lon": -77.0435845, "fusion_lat": 0.0}, {"name": "931f1f896704a015ec5c375d532d353d", "fusion_lon": 0.0, "lat": 38.892238166666665, "is_reserved": 0, "type": "electric_scooter", "bike_id": "931f1f896704a015ec5c375d532d353d", "is_disabled": 0, "rental_uris": {"android": "https://dc.lft.to/lastmile_qr_scan", "ios": "https://dc.lft.to/lastmile_qr_scan"}, "lon": -77.048028, "fusion_lat": 0.0}, {"name": "35b987f5b8d753c780a89956f58eeb00", "fusion_lon": 0.0, "lat": 38.844242666666666, "is_reserved": 0, "type": "electric_scooter", "bike_id": "35b987f5b8d753c780a89956f58eeb00", "is_disabled": 0, "rental_uris": {"android": "https://dc.lft.to/lastmile_qr_scan", "ios": "https://dc.lft.to/lastmile_qr_scan"}, "lon": -76.997805, "fusion_lat": 0.0}, {"name": "a531ce18c34a5bb0ef380263f5557573", "fusion_lon": 0.0, "lat": 38.887418833333335, "is_reserved": 0, "type": "electric_scooter", "bike_id": "a531ce18c34a5bb0ef380263f5557573", "is_disabled": 0, "rental_uris": {"android": "https://dc.lft.to/lastmile_qr_scan", "ios": "https://dc.lft.to/lastmile_qr_scan"}, "lon": -77.02572266666667, "fusion_lat": 0.0}, {"name": "f8133f509872f7a3093adde6eb8d2dff", "fusion_lon": 0.0, "lat": 38.892308166666666, "is_reserved": 0, "type": "electric_scooter", "bike_id": "f8133f509872f7a3093adde6eb8d2dff", "is_disabled": 0, "rental_uris": {"android": "https://dc.lft.to/lastmile_qr_scan", "ios": "https://dc.lft.to/lastmile_qr_scan"}, "lon": -77.050009, "fusion_lat": 0.0}, {"name": "005fcc9e1476b016e1187c832af50ff6", "fusion_lon": 0.0, "lat": 38.901296, "is_reserved": 0, "type": "electric_scooter", "bike_id": "005fcc9e1476b016e1187c832af50ff6", "is_disabled": 0, "rental_uris": {"android": "https://dc.lft.to/lastmile_qr_scan", "ios": "https://dc.lft.to/lastmile_qr_scan"}, "lon": -77.04147866666666, "fusion_lat": 0.0}, {"name": "4cdb3e51586f135b792be7e69d6e2719", "fusion_lon": 0.0, "lat": 38.919270833333336, "is_reserved": 0, "type": "electric_scooter", "bike_id": "4cdb3e51586f135b792be7e69d6e2719", "is_disabled": 0, "rental_uris": {"android": "https://dc.lft.to/lastmile_qr_scan", "ios": "https://dc.lft.to/lastmile_qr_scan"}, "lon": -77.00217733333334, "fusion_lat": 0.0}, {"name": "9423b1862d2beee3e9e650b34a9cd5d7", "fusion_lon": 0.0, "lat": 38.87831283333333, "is_reserved": 0, "type": "electric_scooter", "bike_id": "9423b1862d2beee3e9e650b34a9cd5d7", "is_disabled": 0, "rental_uris": {"android": "https://dc.lft.to/lastmile_qr_scan", "ios": "https://dc.lft.to/lastmile_qr_scan"}, "lon": -76.96309383333333, "fusion_lat": 0.0}, {"name": "639604e37d729e748e74a8f0522e68f9", "fusion_lon": 0.0, "lat": 38.8669465, "is_reserved": 0, "type": "electric_scooter", "bike_id": "639604e37d729e748e74a8f0522e68f9", "is_disabled": 0, "rental_uris": {"android": "https://dc.lft.to/lastmile_qr_scan", "ios": "https://dc.lft.to/lastmile_qr_scan"}, "lon": -76.9871765, "fusion_lat": 0.0}, {"name": "2a4d37d72d890ef69be2c2f26afba5a5", "fusion_lon": 0.0, "lat": 38.9182675, "is_reserved": 0, "type": "electric_scooter", "bike_id": "2a4d37d72d890ef69be2c2f26afba5a5", "is_disabled": 0, "rental_uris": {"android": "https://dc.lft.to/lastmile_qr_scan", "ios": "https://dc.lft.to/lastmile_qr_scan"}, "lon": -77.03216133333333, "fusion_lat": 0.0}, {"name": "a592add28290d3f25fb34ea0ff2f20f9", "fusion_lon": 0.0, "lat": 38.94784933333333, "is_reserved": 0, "type": "electric_scooter", "bike_id": "a592add28290d3f25fb34ea0ff2f20f9", "is_disabled": 0, "rental_uris": {"android": "https://dc.lft.to/lastmile_qr_scan", "ios": "https://dc.lft.to/lastmile_qr_scan"}, "lon": -77.08021083333334, "fusion_lat": 0.0}, {"name": "14775cca5027d33dd0ad0007bd730c14", "fusion_lon": 0.0, "lat": 38.89955466666667, "is_reserved": 0, "type": "electric_scooter", "bike_id": "14775cca5027d33dd0ad0007bd730c14", "is_disabled": 0, "rental_uris": {"android": "https://dc.lft.to/lastmile_qr_scan", "ios": "https://dc.lft.to/lastmile_qr_scan"}, "lon": -77.01618516666667, "fusion_lat": 0.0}, {"name": "c77750cc419f26b846c3af30d48372e7", "fusion_lon": 0.0, "lat": 39.05278966666667, "is_reserved": 0, "type": "electric_bike", "bike_id": "c77750cc419f26b846c3af30d48372e7", "is_disabled": 0, "rental_uris": {"android": "https://dc.lft.to/lastmile_qr_scan", "ios": "https://dc.lft.to/lastmile_qr_scan"}, "lon": -77.08067783333334, "fusion_lat": 0.0}, {"name": "e6238e2a96bfe6c4439b34f3c15e2c23", "fusion_lon": 0.0, "lat": 38.87102516666667, "is_reserved": 0, "type": "electric_scooter", "bike_id": "e6238e2a96bfe6c4439b34f3c15e2c23", "is_disabled": 0, "rental_uris": {"android": "https://dc.lft.to/lastmile_qr_scan", "ios": "https://dc.lft.to/lastmile_qr_scan"}, "lon": -76.965769, "fusion_lat": 0.0}, {"name": "7ac6e5b335cc2f0b9074976a4e70f459", "fusion_lon": 0.0, "lat": 38.914631, "is_reserved": 0, "type": "electric_scooter", "bike_id": "7ac6e5b335cc2f0b9074976a4e70f459", "is_disabled": 0, "rental_uris": {"android": "https://dc.lft.to/lastmile_qr_scan", "ios": "https://dc.lft.to/lastmile_qr_scan"}, "lon": -76.98413483333333, "fusion_lat": 0.0}, {"name": "589518c82a9743b90f275b5f7967e57f", "fusion_lon": 0.0, "lat": 38.915985666666664, "is_reserved": 0, "type": "electric_scooter", "bike_id": "589518c82a9743b90f275b5f7967e57f", "is_disabled": 0, "rental_uris": {"android": "https://dc.lft.to/lastmile_qr_scan", "ios": "https://dc.lft.to/lastmile_qr_scan"}, "lon": -76.9837725, "fusion_lat": 0.0}, {"name": "46a457de174182e4945864d9e803c108", "fusion_lon": 0.0, "lat": 38.86212583333333, "is_reserved": 0, "type": "electric_scooter", "bike_id": "46a457de174182e4945864d9e803c108", "is_disabled": 0, "rental_uris": {"android": "https://dc.lft.to/lastmile_qr_scan", "ios": "https://dc.lft.to/lastmile_qr_scan"}, "lon": -76.99482883333333, "fusion_lat": 0.0}, {"name": "bccebb34976ff291f568041957a092e2", "fusion_lon": 0.0, "lat": 38.911128833333336, "is_reserved": 0, "type": "electric_scooter", "bike_id": "bccebb34976ff291f568041957a092e2", "is_disabled": 0, "rental_uris": {"android": "https://dc.lft.to/lastmile_qr_scan", "ios": "https://dc.lft.to/lastmile_qr_scan"}, "lon": -77.00364883333333, "fusion_lat": 0.0}, {"name": "9ea69a97e5a0e31f74579f6d4e8376e0", "fusion_lon": 0.0, "lat": 38.866536833333335, "is_reserved": 0, "type": "electric_scooter", "bike_id": "9ea69a97e5a0e31f74579f6d4e8376e0", "is_disabled": 0, "rental_uris": {"android": "https://dc.lft.to/lastmile_qr_scan", "ios": "https://dc.lft.to/lastmile_qr_scan"}, "lon": -76.98881283333333, "fusion_lat": 0.0}, {"name": "0133cfa1beafad4e9c205e7316c4b253", "fusion_lon": 0.0, "lat": 38.911834, "is_reserved": 0, "type": "electric_scooter", "bike_id": "0133cfa1beafad4e9c205e7316c4b253", "is_disabled": 0, "rental_uris": {"android": "https://dc.lft.to/lastmile_qr_scan", "ios": "https://dc.lft.to/lastmile_qr_scan"}, "lon": -77.01783316666666, "fusion_lat": 0.0}, {"name": "46e64eb7b80462a009f3aba7d69b26e4", "fusion_lon": 0.0, "lat": 38.900218333333335, "is_reserved": 0, "type": "electric_scooter", "bike_id": "46e64eb7b80462a009f3aba7d69b26e4", "is_disabled": 0, "rental_uris": {"android": "https://dc.lft.to/lastmile_qr_scan", "ios": "https://dc.lft.to/lastmile_qr_scan"}, "lon": -77.017719, "fusion_lat": 0.0}, {"name": "d82de116ac48761510a7fd148342f2cf", "fusion_lon": 0.0, "lat": 38.903073, "is_reserved": 0, "type": "electric_scooter", "bike_id": "d82de116ac48761510a7fd148342f2cf", "is_disabled": 0, "rental_uris": {"android": "https://dc.lft.to/lastmile_qr_scan", "ios": "https://dc.lft.to/lastmile_qr_scan"}, "lon": -76.9907215, "fusion_lat": 0.0}, {"name": "6440320f44964df1550a8e8ce78a1a6f", "fusion_lon": 0.0, "lat": 38.90477, "is_reserved": 0, "type": "electric_scooter", "bike_id": "6440320f44964df1550a8e8ce78a1a6f", "is_disabled": 0, "rental_uris": {"android": "https://dc.lft.to/lastmile_qr_scan", "ios": "https://dc.lft.to/lastmile_qr_scan"}, "lon": -77.04861283333334, "fusion_lat": 0.0}, {"name": "f580f656205b21f3c37fb6498b6d0955", "fusion_lon": 0.0, "lat": 38.90442683333333, "is_reserved": 0, "type": "electric_scooter", "bike_id": "f580f656205b21f3c37fb6498b6d0955", "is_disabled": 0, "rental_uris": {"android": "https://dc.lft.to/lastmile_qr_scan", "ios": "https://dc.lft.to/lastmile_qr_scan"}, "lon": -76.98493666666667, "fusion_lat": 0.0}, {"name": "668812c50f14c4bf91ecf16e8ac77bd5", "fusion_lon": 0.0, "lat": 38.900277, "is_reserved": 0, "type": "electric_scooter", "bike_id": "668812c50f14c4bf91ecf16e8ac77bd5", "is_disabled": 0, "rental_uris": {"android": "https://dc.lft.to/lastmile_qr_scan", "ios": "https://dc.lft.to/lastmile_qr_scan"}, "lon": -76.980418, "fusion_lat": 0.0}, {"name": "892c2c4bdbdb4c4d8b5c5204accaf8d7", "fusion_lon": 0.0, "lat": 38.951794, "is_reserved": 0, "type": "electric_scooter", "bike_id": "892c2c4bdbdb4c4d8b5c5204accaf8d7", "is_disabled": 0, "rental_uris": {"android": "https://dc.lft.to/lastmile_qr_scan", "ios": "https://dc.lft.to/lastmile_qr_scan"}, "lon": -77.02726083333333, "fusion_lat": 0.0}, {"name": "6f6b86db23f3bf58ce647d08d510612a", "fusion_lon": 0.0, "lat": 38.922715333333336, "is_reserved": 0, "type": "electric_bike", "bike_id": "6f6b86db23f3bf58ce647d08d510612a", "is_disabled": 0, "rental_uris": {"android": "https://dc.lft.to/lastmile_qr_scan", "ios": "https://dc.lft.to/lastmile_qr_scan"}, "lon": -77.02245066666667, "fusion_lat": 0.0}, {"name": "57f1facb702888e53ca313d5ef9e55f4", "fusion_lon": 0.0, "lat": 38.900602, "is_reserved": 0, "type": "electric_scooter", "bike_id": "57f1facb702888e53ca313d5ef9e55f4", "is_disabled": 0, "rental_uris": {"android": "https://dc.lft.to/lastmile_qr_scan", "ios": "https://dc.lft.to/lastmile_qr_scan"}, "lon": -77.03509566666666, "fusion_lat": 0.0}, {"name": "91d0bd4bd47a2e9e87830b07fea9d30a", "fusion_lon": 0.0, "lat": 38.896109333333335, "is_reserved": 0, "type": "electric_scooter", "bike_id": "91d0bd4bd47a2e9e87830b07fea9d30a", "is_disabled": 0, "rental_uris": {"android": "https://dc.lft.to/lastmile_qr_scan", "ios": "https://dc.lft.to/lastmile_qr_scan"}, "lon": -77.0296455, "fusion_lat": 0.0}, {"name": "f7b64306bfcdfdfa93ec1d897b2da62d", "fusion_lon": 0.0, "lat": 38.9017125, "is_reserved": 0, "type": "electric_scooter", "bike_id": "f7b64306bfcdfdfa93ec1d897b2da62d", "is_disabled": 0, "rental_uris": {"android": "https://dc.lft.to/lastmile_qr_scan", "ios": "https://dc.lft.to/lastmile_qr_scan"}, "lon": -77.02487166666667, "fusion_lat": 0.0}, {"name": "4017f5c60732c3a8fe44c19867cc6671", "fusion_lon": 0.0, "lat": 38.95751533333333, "is_reserved": 0, "type": "electric_scooter", "bike_id": "4017f5c60732c3a8fe44c19867cc6671", "is_disabled": 0, "rental_uris": {"android": "https://dc.lft.to/lastmile_qr_scan", "ios": "https://dc.lft.to/lastmile_qr_scan"}, "lon": -77.02094833333334, "fusion_lat": 0.0}, {"name": "df1a175cebf0e64b84e46a479b4c742e", "fusion_lon": 0.0, "lat": 38.90364866666667, "is_reserved": 0, "type": "electric_scooter", "bike_id": "df1a175cebf0e64b84e46a479b4c742e", "is_disabled": 0, "rental_uris": {"android": "https://dc.lft.to/lastmile_qr_scan", "ios": "https://dc.lft.to/lastmile_qr_scan"}, "lon": -77.04023, "fusion_lat": 0.0}, {"name": "4619152c9fba3548e5006226e7236824", "fusion_lon": 0.0, "lat": 38.8344785, "is_reserved": 0, "type": "electric_scooter", "bike_id": "4619152c9fba3548e5006226e7236824", "is_disabled": 0, "rental_uris": {"android": "https://dc.lft.to/lastmile_qr_scan", "ios": "https://dc.lft.to/lastmile_qr_scan"}, "lon": -76.99080016666667, "fusion_lat": 0.0}, {"name": "931ac6dfe022c4bfbf521983d85ad05d", "fusion_lon": 0.0, "lat": 38.916197333333336, "is_reserved": 0, "type": "electric_scooter", "bike_id": "931ac6dfe022c4bfbf521983d85ad05d", "is_disabled": 0, "rental_uris": {"android": "https://dc.lft.to/lastmile_qr_scan", "ios": "https://dc.lft.to/lastmile_qr_scan"}, "lon": -77.03851433333334, "fusion_lat": 0.0}, {"name": "5febd0f3b389ab44fdc9dd1dd47b271d", "fusion_lon": 0.0, "lat": 38.9237495, "is_reserved": 0, "type": "electric_scooter", "bike_id": "5febd0f3b389ab44fdc9dd1dd47b271d", "is_disabled": 0, "rental_uris": {"android": "https://dc.lft.to/lastmile_qr_scan", "ios": "https://dc.lft.to/lastmile_qr_scan"}, "lon": -77.0309165, "fusion_lat": 0.0}, {"name": "73b2e7cf7de0356fdd9088dc684b2c22", "fusion_lon": 0.0, "lat": 38.89920983333333, "is_reserved": 0, "type": "electric_scooter", "bike_id": "73b2e7cf7de0356fdd9088dc684b2c22", "is_disabled": 0, "rental_uris": {"android": "https://dc.lft.to/lastmile_qr_scan", "ios": "https://dc.lft.to/lastmile_qr_scan"}, "lon": -77.07072683333334, "fusion_lat": 0.0}, {"name": "6f73e7c353f357373911ddd8467a59ac", "fusion_lon": 0.0, "lat": 38.86627816666667, "is_reserved": 0, "type": "electric_scooter", "bike_id": "6f73e7c353f357373911ddd8467a59ac", "is_disabled": 0, "rental_uris": {"android": "https://dc.lft.to/lastmile_qr_scan", "ios": "https://dc.lft.to/lastmile_qr_scan"}, "lon": -76.98918033333334, "fusion_lat": 0.0}, {"name": "f35c1f17daff16acd3fe3bf07276a480", "fusion_lon": 0.0, "lat": 38.9037185, "is_reserved": 0, "type": "electric_scooter", "bike_id": "f35c1f17daff16acd3fe3bf07276a480", "is_disabled": 0, "rental_uris": {"android": "https://dc.lft.to/lastmile_qr_scan", "ios": "https://dc.lft.to/lastmile_qr_scan"}, "lon": -77.04507633333333, "fusion_lat": 0.0}, {"name": "0a6f7940ad243772fdbe61160f5433a2", "fusion_lon": 0.0, "lat": 38.92717916666667, "is_reserved": 0, "type": "electric_scooter", "bike_id": "0a6f7940ad243772fdbe61160f5433a2", "is_disabled": 0, "rental_uris": {"android": "https://dc.lft.to/lastmile_qr_scan", "ios": "https://dc.lft.to/lastmile_qr_scan"}, "lon": -77.0150575, "fusion_lat": 0.0}, {"name": "5773a7bc1fb9a90412ceefcf851ba68c", "fusion_lon": 0.0, "lat": 38.90630216666667, "is_reserved": 0, "type": "electric_scooter", "bike_id": "5773a7bc1fb9a90412ceefcf851ba68c", "is_disabled": 0, "rental_uris": {"android": "https://dc.lft.to/lastmile_qr_scan", "ios": "https://dc.lft.to/lastmile_qr_scan"}, "lon": -77.04338733333333, "fusion_lat": 0.0}, {"name": "b06bf7e61c5317d6420ca660890d5fa2", "fusion_lon": 0.0, "lat": 38.91415883333333, "is_reserved": 0, "type": "electric_scooter", "bike_id": "b06bf7e61c5317d6420ca660890d5fa2", "is_disabled": 0, "rental_uris": {"android": "https://dc.lft.to/lastmile_qr_scan", "ios": "https://dc.lft.to/lastmile_qr_scan"}, "lon": -77.037138, "fusion_lat": 0.0}, {"name": "b31eb89868bfcabf1f8535751c6ad391", "fusion_lon": 0.0, "lat": 38.916290833333335, "is_reserved": 0, "type": "electric_scooter", "bike_id": "b31eb89868bfcabf1f8535751c6ad391", "is_disabled": 0, "rental_uris": {"android": "https://dc.lft.to/lastmile_qr_scan", "ios": "https://dc.lft.to/lastmile_qr_scan"}, "lon": -77.02400033333333, "fusion_lat": 0.0}, {"name": "17bef77772627fe3740abbaf5732a3a3", "fusion_lon": 0.0, "lat": 38.91554133333333, "is_reserved": 0, "type": "electric_scooter", "bike_id": "17bef77772627fe3740abbaf5732a3a3", "is_disabled": 0, "rental_uris": {"android": "https://dc.lft.to/lastmile_qr_scan", "ios": "https://dc.lft.to/lastmile_qr_scan"}, "lon": -77.01035816666666, "fusion_lat": 0.0}, {"name": "fe0e0463041d16182a5d4ec5498c29e2", "fusion_lon": 0.0, "lat": 38.897336333333335, "is_reserved": 0, "type": "electric_scooter", "bike_id": "fe0e0463041d16182a5d4ec5498c29e2", "is_disabled": 0, "rental_uris": {"android": "https://dc.lft.to/lastmile_qr_scan", "ios": "https://dc.lft.to/lastmile_qr_scan"}, "lon": -77.026972, "fusion_lat": 0.0}, {"name": "7902549dbc2308569229871f15463200", "fusion_lon": 0.0, "lat": 38.919168166666665, "is_reserved": 0, "type": "electric_bike", "bike_id": "7902549dbc2308569229871f15463200", "is_disabled": 0, "rental_uris": {"android": "https://dc.lft.to/lastmile_qr_scan", "ios": "https://dc.lft.to/lastmile_qr_scan"}, "lon": -77.07029333333334, "fusion_lat": 0.0}, {"name": "753269cd7b124014cf79012b3e955478", "fusion_lon": 0.0, "lat": 38.91105816666666, "is_reserved": 0, "type": "electric_scooter", "bike_id": "753269cd7b124014cf79012b3e955478", "is_disabled": 0, "rental_uris": {"android": "https://dc.lft.to/lastmile_qr_scan", "ios": "https://dc.lft.to/lastmile_qr_scan"}, "lon": -77.03825833333333, "fusion_lat": 0.0}, {"name": "62c5dcb38f69d4c47e2016f189c51f36", "fusion_lon": 0.0, "lat": 38.896992166666664, "is_reserved": 0, "type": "electric_scooter", "bike_id": "62c5dcb38f69d4c47e2016f189c51f36", "is_disabled": 0, "rental_uris": {"android": "https://dc.lft.to/lastmile_qr_scan", "ios": "https://dc.lft.to/lastmile_qr_scan"}, "lon": -76.92997716666666, "fusion_lat": 0.0}, {"name": "b8e31501d817e5024029c1667bf87009", "fusion_lon": 0.0, "lat": 38.911719166666664, "is_reserved": 0, "type": "electric_scooter", "bike_id": "b8e31501d817e5024029c1667bf87009", "is_disabled": 0, "rental_uris": {"android": "https://dc.lft.to/lastmile_qr_scan", "ios": "https://dc.lft.to/lastmile_qr_scan"}, "lon": -77.06093033333333, "fusion_lat": 0.0}, {"name": "c4d61b46fba2e78e4434e086b30b545f", "fusion_lon": 0.0, "lat": 38.87291116666667, "is_reserved": 0, "type": "electric_bike", "bike_id": "c4d61b46fba2e78e4434e086b30b545f", "is_disabled": 0, "rental_uris": {"android": "https://dc.lft.to/lastmile_qr_scan", "ios": "https://dc.lft.to/lastmile_qr_scan"}, "lon": -76.969801, "fusion_lat": 0.0}, {"name": "2e5728527aebcf7d67930d7c87248d43", "fusion_lon": 0.0, "lat": 38.8839875, "is_reserved": 0, "type": "electric_scooter", "bike_id": "2e5728527aebcf7d67930d7c87248d43", "is_disabled": 0, "rental_uris": {"android": "https://dc.lft.to/lastmile_qr_scan", "ios": "https://dc.lft.to/lastmile_qr_scan"}, "lon": -77.02615066666667, "fusion_lat": 0.0}, {"name": "72d76731a61a785635f182ccf5ef2ed3", "fusion_lon": 0.0, "lat": 38.87819733333333, "is_reserved": 0, "type": "electric_scooter", "bike_id": "72d76731a61a785635f182ccf5ef2ed3", "is_disabled": 0, "rental_uris": {"android": "https://dc.lft.to/lastmile_qr_scan", "ios": "https://dc.lft.to/lastmile_qr_scan"}, "lon": -76.93105783333333, "fusion_lat": 0.0}, {"name": "0dd26c69dc401a910f083f3c014899b2", "fusion_lon": 0.0, "lat": 38.904103, "is_reserved": 0, "type": "electric_scooter", "bike_id": "0dd26c69dc401a910f083f3c014899b2", "is_disabled": 0, "rental_uris": {"android": "https://dc.lft.to/lastmile_qr_scan", "ios": "https://dc.lft.to/lastmile_qr_scan"}, "lon": -76.973303, "fusion_lat": 0.0}, {"name": "a5819f9943331f6df523a7be3214b2eb", "fusion_lon": 0.0, "lat": 38.916912333333336, "is_reserved": 0, "type": "electric_scooter", "bike_id": "a5819f9943331f6df523a7be3214b2eb", "is_disabled": 0, "rental_uris": {"android": "https://dc.lft.to/lastmile_qr_scan", "ios": "https://dc.lft.to/lastmile_qr_scan"}, "lon": -77.03499333333333, "fusion_lat": 0.0}, {"name": "59b6d66a37c49cc9e423bbab1e239041", "fusion_lon": 0.0, "lat": 38.928857666666666, "is_reserved": 0, "type": "electric_scooter", "bike_id": "59b6d66a37c49cc9e423bbab1e239041", "is_disabled": 0, "rental_uris": {"android": "https://dc.lft.to/lastmile_qr_scan", "ios": "https://dc.lft.to/lastmile_qr_scan"}, "lon": -77.01362066666667, "fusion_lat": 0.0}, {"name": "065c74aa68b29ca45596a2a9e30d0364", "fusion_lon": 0.0, "lat": 38.915660333333335, "is_reserved": 0, "type": "electric_scooter", "bike_id": "065c74aa68b29ca45596a2a9e30d0364", "is_disabled": 0, "rental_uris": {"android": "https://dc.lft.to/lastmile_qr_scan", "ios": "https://dc.lft.to/lastmile_qr_scan"}, "lon": -77.03171166666667, "fusion_lat": 0.0}, {"name": "658362c2d715db824be478e30c509d02", "fusion_lon": 0.0, "lat": 38.94988566666667, "is_reserved": 0, "type": "electric_scooter", "bike_id": "658362c2d715db824be478e30c509d02", "is_disabled": 0, "rental_uris": {"android": "https://dc.lft.to/lastmile_qr_scan", "ios": "https://dc.lft.to/lastmile_qr_scan"}, "lon": -77.027046, "fusion_lat": 0.0}, {"name": "52b214735cc1433bde13bc0db810c4bf", "fusion_lon": 0.0, "lat": 38.9126435, "is_reserved": 0, "type": "electric_scooter", "bike_id": "52b214735cc1433bde13bc0db810c4bf", "is_disabled": 0, "rental_uris": {"android": "https://dc.lft.to/lastmile_qr_scan", "ios": "https://dc.lft.to/lastmile_qr_scan"}, "lon": -77.03295716666666, "fusion_lat": 0.0}, {"name": "41304139d78c02886cb5e4ec79e5f6ba", "fusion_lon": 0.0, "lat": 38.893432, "is_reserved": 0, "type": "electric_scooter", "bike_id": "41304139d78c02886cb5e4ec79e5f6ba", "is_disabled": 0, "rental_uris": {"android": "https://dc.lft.to/lastmile_qr_scan", "ios": "https://dc.lft.to/lastmile_qr_scan"}, "lon": -77.01718566666666, "fusion_lat": 0.0}, {"name": "55ae4571c84564e4ba860f2200e014e0", "fusion_lon": 0.0, "lat": 38.85770566666667, "is_reserved": 0, "type": "electric_bike", "bike_id": "55ae4571c84564e4ba860f2200e014e0", "is_disabled": 0, "rental_uris": {"android": "https://dc.lft.to/lastmile_qr_scan", "ios": "https://dc.lft.to/lastmile_qr_scan"}, "lon": -76.98774366666666, "fusion_lat": 0.0}, {"name": "26a3fb2f569d7cf0157c85ddf86338fa", "fusion_lon": 0.0, "lat": 38.93011716666667, "is_reserved": 0, "type": "electric_scooter", "bike_id": "26a3fb2f569d7cf0157c85ddf86338fa", "is_disabled": 0, "rental_uris": {"android": "https://dc.lft.to/lastmile_qr_scan", "ios": "https://dc.lft.to/lastmile_qr_scan"}, "lon": -77.06094866666666, "fusion_lat": 0.0}, {"name": "b3e192fa87ace7cf3307757ee4434e69", "fusion_lon": 0.0, "lat": 38.955276, "is_reserved": 0, "type": "electric_scooter", "bike_id": "b3e192fa87ace7cf3307757ee4434e69", "is_disabled": 0, "rental_uris": {"android": "https://dc.lft.to/lastmile_qr_scan", "ios": "https://dc.lft.to/lastmile_qr_scan"}, "lon": -77.02780666666666, "fusion_lat": 0.0}, {"name": "6c15b948895c3486ce5a5c6596e9a391", "fusion_lon": 0.0, "lat": 38.908071666666665, "is_reserved": 0, "type": "electric_scooter", "bike_id": "6c15b948895c3486ce5a5c6596e9a391", "is_disabled": 0, "rental_uris": {"android": "https://dc.lft.to/lastmile_qr_scan", "ios": "https://dc.lft.to/lastmile_qr_scan"}, "lon": -77.036712, "fusion_lat": 0.0}, {"name": "9c0a17426e39d5484384ffc66849f568", "fusion_lon": 0.0, "lat": 38.909939666666666, "is_reserved": 0, "type": "electric_scooter", "bike_id": "9c0a17426e39d5484384ffc66849f568", "is_disabled": 0, "rental_uris": {"android": "https://dc.lft.to/lastmile_qr_scan", "ios": "https://dc.lft.to/lastmile_qr_scan"}, "lon": -77.04426033333333, "fusion_lat": 0.0}, {"name": "167385b05d2359da823323cde685b493", "fusion_lon": 0.0, "lat": 38.8717615, "is_reserved": 0, "type": "electric_scooter", "bike_id": "167385b05d2359da823323cde685b493", "is_disabled": 0, "rental_uris": {"android": "https://dc.lft.to/lastmile_qr_scan", "ios": "https://dc.lft.to/lastmile_qr_scan"}, "lon": -77.00613083333333, "fusion_lat": 0.0}, {"name": "824c945b6e77d1c299d4e916887ff1f3", "fusion_lon": 0.0, "lat": 38.89899483333333, "is_reserved": 0, "type": "electric_scooter", "bike_id": "824c945b6e77d1c299d4e916887ff1f3", "is_disabled": 0, "rental_uris": {"android": "https://dc.lft.to/lastmile_qr_scan", "ios": "https://dc.lft.to/lastmile_qr_scan"}, "lon": -76.9770805, "fusion_lat": 0.0}, {"name": "2fcb303e040cc41d4892bc6355c3204b", "fusion_lon": 0.0, "lat": 38.9228695, "is_reserved": 0, "type": "electric_scooter", "bike_id": "2fcb303e040cc41d4892bc6355c3204b", "is_disabled": 0, "rental_uris": {"android": "https://dc.lft.to/lastmile_qr_scan", "ios": "https://dc.lft.to/lastmile_qr_scan"}, "lon": -77.02967683333334, "fusion_lat": 0.0}, {"name": "4fa3acf99158c036de6863dd21d103a7", "fusion_lon": 0.0, "lat": 38.921187, "is_reserved": 0, "type": "electric_scooter", "bike_id": "4fa3acf99158c036de6863dd21d103a7", "is_disabled": 0, "rental_uris": {"android": "https://dc.lft.to/lastmile_qr_scan", "ios": "https://dc.lft.to/lastmile_qr_scan"}, "lon": -77.043759, "fusion_lat": 0.0}, {"name": "bd2d4f845aa4ceaa019c2db0d540f3e7", "fusion_lon": 0.0, "lat": 38.83809766666667, "is_reserved": 0, "type": "electric_bike", "bike_id": "bd2d4f845aa4ceaa019c2db0d540f3e7", "is_disabled": 0, "rental_uris": {"android": "https://dc.lft.to/lastmile_qr_scan", "ios": "https://dc.lft.to/lastmile_qr_scan"}, "lon": -77.09523616666667, "fusion_lat": 0.0}, {"name": "2b416a1ab40ae5be2216db42b8d0a6b7", "fusion_lon": 0.0, "lat": 38.929687, "is_reserved": 0, "type": "electric_scooter", "bike_id": "2b416a1ab40ae5be2216db42b8d0a6b7", "is_disabled": 0, "rental_uris": {"android": "https://dc.lft.to/lastmile_qr_scan", "ios": "https://dc.lft.to/lastmile_qr_scan"}, "lon": -77.02949233333334, "fusion_lat": 0.0}, {"name": "7116d458c8f28d09400ca6bf303870b6", "fusion_lon": 0.0, "lat": 38.84426583333333, "is_reserved": 0, "type": "electric_scooter", "bike_id": "7116d458c8f28d09400ca6bf303870b6", "is_disabled": 0, "rental_uris": {"android": "https://dc.lft.to/lastmile_qr_scan", "ios": "https://dc.lft.to/lastmile_qr_scan"}, "lon": -76.99813883333333, "fusion_lat": 0.0}, {"name": "5be6b3ca495a159e54631d0053dfa627", "fusion_lon": 0.0, "lat": 38.91389783333333, "is_reserved": 0, "type": "electric_bike", "bike_id": "5be6b3ca495a159e54631d0053dfa627", "is_disabled": 0, "rental_uris": {"android": "https://dc.lft.to/lastmile_qr_scan", "ios": "https://dc.lft.to/lastmile_qr_scan"}, "lon": -77.0893105, "fusion_lat": 0.0}, {"name": "46e1dfed51b03660daab35445eb7d5c3", "fusion_lon": 0.0, "lat": 38.834255666666664, "is_reserved": 0, "type": "electric_bike", "bike_id": "46e1dfed51b03660daab35445eb7d5c3", "is_disabled": 0, "rental_uris": {"android": "https://dc.lft.to/lastmile_qr_scan", "ios": "https://dc.lft.to/lastmile_qr_scan"}, "lon": -77.10356916666667, "fusion_lat": 0.0}, {"name": "59eff0afab2ef73d4556da04827dd7b0", "fusion_lon": 0.0, "lat": 38.91359683333334, "is_reserved": 0, "type": "electric_scooter", "bike_id": "59eff0afab2ef73d4556da04827dd7b0", "is_disabled": 0, "rental_uris": {"android": "https://dc.lft.to/lastmile_qr_scan", "ios": "https://dc.lft.to/lastmile_qr_scan"}, "lon": -77.0693725, "fusion_lat": 0.0}, {"name": "a019097b08f506a894c7f3c710f993f4", "fusion_lon": 0.0, "lat": 38.917261333333336, "is_reserved": 0, "type": "electric_scooter", "bike_id": "a019097b08f506a894c7f3c710f993f4", "is_disabled": 0, "rental_uris": {"android": "https://dc.lft.to/lastmile_qr_scan", "ios": "https://dc.lft.to/lastmile_qr_scan"}, "lon": -77.02506733333334, "fusion_lat": 0.0}, {"name": "9981758c521f0f1c08d5a492652196ec", "fusion_lon": 0.0, "lat": 38.89218233333333, "is_reserved": 0, "type": "electric_bike", "bike_id": "9981758c521f0f1c08d5a492652196ec", "is_disabled": 0, "rental_uris": {"android": "https://dc.lft.to/lastmile_qr_scan", "ios": "https://dc.lft.to/lastmile_qr_scan"}, "lon": -76.970821, "fusion_lat": 0.0}, {"name": "a4a5860c0ce70a1398136e04d48f8159", "fusion_lon": 0.0, "lat": 38.92703766666666, "is_reserved": 0, "type": "electric_scooter", "bike_id": "a4a5860c0ce70a1398136e04d48f8159", "is_disabled": 0, "rental_uris": {"android": "https://dc.lft.to/lastmile_qr_scan", "ios": "https://dc.lft.to/lastmile_qr_scan"}, "lon": -77.02082283333333, "fusion_lat": 0.0}, {"name": "be5195982ef249d542d86160efb8d828", "fusion_lon": 0.0, "lat": 38.9208045, "is_reserved": 0, "type": "electric_scooter", "bike_id": "be5195982ef249d542d86160efb8d828", "is_disabled": 0, "rental_uris": {"android": "https://dc.lft.to/lastmile_qr_scan", "ios": "https://dc.lft.to/lastmile_qr_scan"}, "lon": -77.04211433333333, "fusion_lat": 0.0}, {"name": "efd121a67ee219f32ec5652b1dfa5156", "fusion_lon": 0.0, "lat": 38.907497166666666, "is_reserved": 0, "type": "electric_scooter", "bike_id": "efd121a67ee219f32ec5652b1dfa5156", "is_disabled": 0, "rental_uris": {"android": "https://dc.lft.to/lastmile_qr_scan", "ios": "https://dc.lft.to/lastmile_qr_scan"}, "lon": -76.99887916666667, "fusion_lat": 0.0}, {"name": "a773584b4f14821f798635a9ccd92f1f", "fusion_lon": 0.0, "lat": 38.908328166666664, "is_reserved": 0, "type": "electric_scooter", "bike_id": "a773584b4f14821f798635a9ccd92f1f", "is_disabled": 0, "rental_uris": {"android": "https://dc.lft.to/lastmile_qr_scan", "ios": "https://dc.lft.to/lastmile_qr_scan"}, "lon": -77.0447815, "fusion_lat": 0.0}, {"name": "d5298e0d3e03afcb010cdfda7044132c", "fusion_lon": 0.0, "lat": 38.9565785, "is_reserved": 0, "type": "electric_scooter", "bike_id": "d5298e0d3e03afcb010cdfda7044132c", "is_disabled": 0, "rental_uris": {"android": "https://dc.lft.to/lastmile_qr_scan", "ios": "https://dc.lft.to/lastmile_qr_scan"}, "lon": -77.01032216666667, "fusion_lat": 0.0}, {"name": "c8820a6911b2ceda2ccc75db7cea987e", "fusion_lon": 0.0, "lat": 38.935279666666666, "is_reserved": 0, "type": "electric_scooter", "bike_id": "c8820a6911b2ceda2ccc75db7cea987e", "is_disabled": 0, "rental_uris": {"android": "https://dc.lft.to/lastmile_qr_scan", "ios": "https://dc.lft.to/lastmile_qr_scan"}, "lon": -77.0347455, "fusion_lat": 0.0}, {"name": "07aa33d6d2ad7f375412b1b84e668934", "fusion_lon": 0.0, "lat": 38.92871816666667, "is_reserved": 0, "type": "electric_bike", "bike_id": "07aa33d6d2ad7f375412b1b84e668934", "is_disabled": 0, "rental_uris": {"android": "https://dc.lft.to/lastmile_qr_scan", "ios": "https://dc.lft.to/lastmile_qr_scan"}, "lon": -77.012485, "fusion_lat": 0.0}, {"name": "8f4b5a688e97059c58a86019b519e574", "fusion_lon": 0.0, "lat": 38.92857716666666, "is_reserved": 0, "type": "electric_scooter", "bike_id": "8f4b5a688e97059c58a86019b519e574", "is_disabled": 0, "rental_uris": {"android": "https://dc.lft.to/lastmile_qr_scan", "ios": "https://dc.lft.to/lastmile_qr_scan"}, "lon": -77.01420416666667, "fusion_lat": 0.0}, {"name": "0ca3bb4e6d946453daa2f39c26c7971f", "fusion_lon": 0.0, "lat": 38.9250445, "is_reserved": 0, "type": "electric_scooter", "bike_id": "0ca3bb4e6d946453daa2f39c26c7971f", "is_disabled": 0, "rental_uris": {"android": "https://dc.lft.to/lastmile_qr_scan", "ios": "https://dc.lft.to/lastmile_qr_scan"}, "lon": -77.02702083333334, "fusion_lat": 0.0}, {"name": "ed40a9ed6b84e69acb73856b55b9b5f8", "fusion_lon": 0.0, "lat": 38.9266245, "is_reserved": 0, "type": "electric_scooter", "bike_id": "ed40a9ed6b84e69acb73856b55b9b5f8", "is_disabled": 0, "rental_uris": {"android": "https://dc.lft.to/lastmile_qr_scan", "ios": "https://dc.lft.to/lastmile_qr_scan"}, "lon": -76.99541116666667, "fusion_lat": 0.0}, {"name": "a963f5dea19b08f2285fa783d92e8322", "fusion_lon": 0.0, "lat": 38.9594105, "is_reserved": 0, "type": "electric_scooter", "bike_id": "a963f5dea19b08f2285fa783d92e8322", "is_disabled": 0, "rental_uris": {"android": "https://dc.lft.to/lastmile_qr_scan", "ios": "https://dc.lft.to/lastmile_qr_scan"}, "lon": -77.03049583333333, "fusion_lat": 0.0}, {"name": "ec139dfb6167009043ffee6f0e9a1718", "fusion_lon": 0.0, "lat": 38.89864466666667, "is_reserved": 0, "type": "electric_scooter", "bike_id": "ec139dfb6167009043ffee6f0e9a1718", "is_disabled": 0, "rental_uris": {"android": "https://dc.lft.to/lastmile_qr_scan", "ios": "https://dc.lft.to/lastmile_qr_scan"}, "lon": -76.9274975, "fusion_lat": 0.0}, {"name": "e5107d0f8bcdca17686ac4c027780747", "fusion_lon": 0.0, "lat": 38.855363, "is_reserved": 0, "type": "electric_scooter", "bike_id": "e5107d0f8bcdca17686ac4c027780747", "is_disabled": 0, "rental_uris": {"android": "https://dc.lft.to/lastmile_qr_scan", "ios": "https://dc.lft.to/lastmile_qr_scan"}, "lon": -76.984204, "fusion_lat": 0.0}, {"name": "d7d51b43944c2bfb08cf0249f5b04bf4", "fusion_lon": 0.0, "lat": 38.9245795, "is_reserved": 0, "type": "electric_scooter", "bike_id": "d7d51b43944c2bfb08cf0249f5b04bf4", "is_disabled": 0, "rental_uris": {"android": "https://dc.lft.to/lastmile_qr_scan", "ios": "https://dc.lft.to/lastmile_qr_scan"}, "lon": -77.03993033333333, "fusion_lat": 0.0}, {"name": "db10fd954e9e18c7fd7fc4c2eae681b2", "fusion_lon": 0.0, "lat": 38.900807, "is_reserved": 0, "type": "electric_scooter", "bike_id": "db10fd954e9e18c7fd7fc4c2eae681b2", "is_disabled": 0, "rental_uris": {"android": "https://dc.lft.to/lastmile_qr_scan", "ios": "https://dc.lft.to/lastmile_qr_scan"}, "lon": -76.93021716666667, "fusion_lat": 0.0}, {"name": "4cf02fe4825b5bd42c2b5e2af8c792af", "fusion_lon": 0.0, "lat": 38.91052033333333, "is_reserved": 0, "type": "electric_scooter", "bike_id": "4cf02fe4825b5bd42c2b5e2af8c792af", "is_disabled": 0, "rental_uris": {"android": "https://dc.lft.to/lastmile_qr_scan", "ios": "https://dc.lft.to/lastmile_qr_scan"}, "lon": -77.031351, "fusion_lat": 0.0}, {"name": "25a4d1e999c8b6bc89b0c60ff4838e6d", "fusion_lon": 0.0, "lat": 38.92971683333333, "is_reserved": 0, "type": "electric_scooter", "bike_id": "25a4d1e999c8b6bc89b0c60ff4838e6d", "is_disabled": 0, "rental_uris": {"android": "https://dc.lft.to/lastmile_qr_scan", "ios": "https://dc.lft.to/lastmile_qr_scan"}, "lon": -77.016899, "fusion_lat": 0.0}, {"name": "b07abce7d8b3d76e1e339a1aaf819a26", "fusion_lon": 0.0, "lat": 38.910945166666664, "is_reserved": 0, "type": "electric_scooter", "bike_id": "b07abce7d8b3d76e1e339a1aaf819a26", "is_disabled": 0, "rental_uris": {"android": "https://dc.lft.to/lastmile_qr_scan", "ios": "https://dc.lft.to/lastmile_qr_scan"}, "lon": -77.0036635, "fusion_lat": 0.0}, {"name": "73e74069b30b0301dcb9a2f149830401", "fusion_lon": 0.0, "lat": 38.92149216666667, "is_reserved": 0, "type": "electric_scooter", "bike_id": "73e74069b30b0301dcb9a2f149830401", "is_disabled": 0, "rental_uris": {"android": "https://dc.lft.to/lastmile_qr_scan", "ios": "https://dc.lft.to/lastmile_qr_scan"}, "lon": -77.03507783333333, "fusion_lat": 0.0}, {"name": "cebfcde67f3f694774d523d8c79436f2", "fusion_lon": 0.0, "lat": 38.9086575, "is_reserved": 0, "type": "electric_scooter", "bike_id": "cebfcde67f3f694774d523d8c79436f2", "is_disabled": 0, "rental_uris": {"android": "https://dc.lft.to/lastmile_qr_scan", "ios": "https://dc.lft.to/lastmile_qr_scan"}, "lon": -77.03226516666666, "fusion_lat": 0.0}, {"name": "3d81f8dd187f1c5c4a09bdfd87f98f9e", "fusion_lon": 0.0, "lat": 38.905292833333334, "is_reserved": 0, "type": "electric_scooter", "bike_id": "3d81f8dd187f1c5c4a09bdfd87f98f9e", "is_disabled": 0, "rental_uris": {"android": "https://dc.lft.to/lastmile_qr_scan", "ios": "https://dc.lft.to/lastmile_qr_scan"}, "lon": -77.03078483333333, "fusion_lat": 0.0}, {"name": "b62ea7d7cebbbbec03cb5cd05edd063b", "fusion_lon": 0.0, "lat": 38.89855816666667, "is_reserved": 0, "type": "electric_scooter", "bike_id": "b62ea7d7cebbbbec03cb5cd05edd063b", "is_disabled": 0, "rental_uris": {"android": "https://dc.lft.to/lastmile_qr_scan", "ios": "https://dc.lft.to/lastmile_qr_scan"}, "lon": -77.039537, "fusion_lat": 0.0}, {"name": "9e75d6f8d669e3b972cf011c032723a7", "fusion_lon": 0.0, "lat": 38.842751166666666, "is_reserved": 0, "type": "electric_bike", "bike_id": "9e75d6f8d669e3b972cf011c032723a7", "is_disabled": 0, "rental_uris": {"android": "https://dc.lft.to/lastmile_qr_scan", "ios": "https://dc.lft.to/lastmile_qr_scan"}, "lon": -76.988457, "fusion_lat": 0.0}, {"name": "be02f39e5a303da2f6daf40bb7bc5b96", "fusion_lon": 0.0, "lat": 38.89544566666667, "is_reserved": 0, "type": "electric_scooter", "bike_id": "be02f39e5a303da2f6daf40bb7bc5b96", "is_disabled": 0, "rental_uris": {"android": "https://dc.lft.to/lastmile_qr_scan", "ios": "https://dc.lft.to/lastmile_qr_scan"}, "lon": -77.05669033333334, "fusion_lat": 0.0}, {"name": "f7a0f28d8367f2c999b1ecedc906a93a", "fusion_lon": 0.0, "lat": 38.910859333333335, "is_reserved": 0, "type": "electric_scooter", "bike_id": "f7a0f28d8367f2c999b1ecedc906a93a", "is_disabled": 0, "rental_uris": {"android": "https://dc.lft.to/lastmile_qr_scan", "ios": "https://dc.lft.to/lastmile_qr_scan"}, "lon": -77.07386233333334, "fusion_lat": 0.0}, {"name": "52031c4134e216ade2252e5506483cd3", "fusion_lon": 0.0, "lat": 38.897376666666666, "is_reserved": 0, "type": "electric_scooter", "bike_id": "52031c4134e216ade2252e5506483cd3", "is_disabled": 0, "rental_uris": {"android": "https://dc.lft.to/lastmile_qr_scan", "ios": "https://dc.lft.to/lastmile_qr_scan"}, "lon": -77.0249715, "fusion_lat": 0.0}, {"name": "9aefe91437f478217d9df5309fe6637d", "fusion_lon": 0.0, "lat": 38.908516666666664, "is_reserved": 0, "type": "electric_scooter", "bike_id": "9aefe91437f478217d9df5309fe6637d", "is_disabled": 0, "rental_uris": {"android": "https://dc.lft.to/lastmile_qr_scan", "ios": "https://dc.lft.to/lastmile_qr_scan"}, "lon": -77.0102005, "fusion_lat": 0.0}, {"name": "cd2e0c6a8369a0d4fdf4332503a725ca", "fusion_lon": 0.0, "lat": 38.908266833333336, "is_reserved": 0, "type": "electric_scooter", "bike_id": "cd2e0c6a8369a0d4fdf4332503a725ca", "is_disabled": 0, "rental_uris": {"android": "https://dc.lft.to/lastmile_qr_scan", "ios": "https://dc.lft.to/lastmile_qr_scan"}, "lon": -77.04351383333334, "fusion_lat": 0.0}, {"name": "53567cf9c87cdc155836860f429b9255", "fusion_lon": 0.0, "lat": 38.93879883333334, "is_reserved": 0, "type": "electric_scooter", "bike_id": "53567cf9c87cdc155836860f429b9255", "is_disabled": 0, "rental_uris": {"android": "https://dc.lft.to/lastmile_qr_scan", "ios": "https://dc.lft.to/lastmile_qr_scan"}, "lon": -77.02482616666667, "fusion_lat": 0.0}, {"name": "c66cb9943d76346889d996bdd7b29fd7", "fusion_lon": 0.0, "lat": 38.913434, "is_reserved": 0, "type": "electric_scooter", "bike_id": "c66cb9943d76346889d996bdd7b29fd7", "is_disabled": 0, "rental_uris": {"android": "https://dc.lft.to/lastmile_qr_scan", "ios": "https://dc.lft.to/lastmile_qr_scan"}, "lon": -77.01221966666667, "fusion_lat": 0.0}, {"name": "e7d6c5f29741dc7efbae89073f347931", "fusion_lon": 0.0, "lat": 38.936328333333336, "is_reserved": 0, "type": "electric_scooter", "bike_id": "e7d6c5f29741dc7efbae89073f347931", "is_disabled": 0, "rental_uris": {"android": "https://dc.lft.to/lastmile_qr_scan", "ios": "https://dc.lft.to/lastmile_qr_scan"}, "lon": -77.05886583333333, "fusion_lat": 0.0}, {"name": "d116f7bd8a312d51b4a8f9f7a0d0c5fb", "fusion_lon": 0.0, "lat": 38.916106166666665, "is_reserved": 0, "type": "electric_scooter", "bike_id": "d116f7bd8a312d51b4a8f9f7a0d0c5fb", "is_disabled": 0, "rental_uris": {"android": "https://dc.lft.to/lastmile_qr_scan", "ios": "https://dc.lft.to/lastmile_qr_scan"}, "lon": -77.03206233333333, "fusion_lat": 0.0}, {"name": "1800802a8988f339cf51d7ea87a231ff", "fusion_lon": 0.0, "lat": 38.904992166666666, "is_reserved": 0, "type": "electric_scooter", "bike_id": "1800802a8988f339cf51d7ea87a231ff", "is_disabled": 0, "rental_uris": {"android": "https://dc.lft.to/lastmile_qr_scan", "ios": "https://dc.lft.to/lastmile_qr_scan"}, "lon": -77.0386435, "fusion_lat": 0.0}, {"name": "5d955890203f1a71215bfdb52a0bde89", "fusion_lon": 0.0, "lat": 38.91244833333333, "is_reserved": 0, "type": "electric_scooter", "bike_id": "5d955890203f1a71215bfdb52a0bde89", "is_disabled": 0, "rental_uris": {"android": "https://dc.lft.to/lastmile_qr_scan", "ios": "https://dc.lft.to/lastmile_qr_scan"}, "lon": -77.03415116666666, "fusion_lat": 0.0}, {"name": "e5524a2b1ff411e6ff90a904fd8f13e6", "fusion_lon": 0.0, "lat": 38.90745883333334, "is_reserved": 0, "type": "electric_scooter", "bike_id": "e5524a2b1ff411e6ff90a904fd8f13e6", "is_disabled": 0, "rental_uris": {"android": "https://dc.lft.to/lastmile_qr_scan", "ios": "https://dc.lft.to/lastmile_qr_scan"}, "lon": -77.04346816666667, "fusion_lat": 0.0}, {"name": "eb0d38d387865aa116209d8cae54de2b", "fusion_lon": 0.0, "lat": 38.919091, "is_reserved": 0, "type": "electric_scooter", "bike_id": "eb0d38d387865aa116209d8cae54de2b", "is_disabled": 0, "rental_uris": {"android": "https://dc.lft.to/lastmile_qr_scan", "ios": "https://dc.lft.to/lastmile_qr_scan"}, "lon": -77.021381, "fusion_lat": 0.0}, {"name": "04827ab0572d90d73e1b83c5f3403d9a", "fusion_lon": 0.0, "lat": 38.917796333333335, "is_reserved": 0, "type": "electric_scooter", "bike_id": "04827ab0572d90d73e1b83c5f3403d9a", "is_disabled": 0, "rental_uris": {"android": "https://dc.lft.to/lastmile_qr_scan", "ios": "https://dc.lft.to/lastmile_qr_scan"}, "lon": -77.01791383333334, "fusion_lat": 0.0}, {"name": "f6427af08a32a2a3f11c17254fde029e", "fusion_lon": 0.0, "lat": 38.94280716666667, "is_reserved": 0, "type": "electric_bike", "bike_id": "f6427af08a32a2a3f11c17254fde029e", "is_disabled": 0, "rental_uris": {"android": "https://dc.lft.to/lastmile_qr_scan", "ios": "https://dc.lft.to/lastmile_qr_scan"}, "lon": -76.98788133333333, "fusion_lat": 0.0}, {"name": "2ae849e34a4b1133c5113c05a54ec00a", "fusion_lon": 0.0, "lat": 38.88868816666667, "is_reserved": 0, "type": "electric_scooter", "bike_id": "2ae849e34a4b1133c5113c05a54ec00a", "is_disabled": 0, "rental_uris": {"android": "https://dc.lft.to/lastmile_qr_scan", "ios": "https://dc.lft.to/lastmile_qr_scan"}, "lon": -76.99028883333334, "fusion_lat": 0.0}, {"name": "5e6b6bc8392c86cd47b1038b3f48316e", "fusion_lon": 0.0, "lat": 38.900683, "is_reserved": 0, "type": "electric_scooter", "bike_id": "5e6b6bc8392c86cd47b1038b3f48316e", "is_disabled": 0, "rental_uris": {"android": "https://dc.lft.to/lastmile_qr_scan", "ios": "https://dc.lft.to/lastmile_qr_scan"}, "lon": -77.04751966666667, "fusion_lat": 0.0}, {"name": "2c81fbab6b3b1a80d3e9219a186a390f", "fusion_lon": 0.0, "lat": 38.9097425, "is_reserved": 0, "type": "electric_scooter", "bike_id": "2c81fbab6b3b1a80d3e9219a186a390f", "is_disabled": 0, "rental_uris": {"android": "https://dc.lft.to/lastmile_qr_scan", "ios": "https://dc.lft.to/lastmile_qr_scan"}, "lon": -77.04237316666666, "fusion_lat": 0.0}, {"name": "0488e89d967afcbff92aa0b9bda1cbca", "fusion_lon": 0.0, "lat": 38.90496783333333, "is_reserved": 0, "type": "electric_scooter", "bike_id": "0488e89d967afcbff92aa0b9bda1cbca", "is_disabled": 0, "rental_uris": {"android": "https://dc.lft.to/lastmile_qr_scan", "ios": "https://dc.lft.to/lastmile_qr_scan"}, "lon": -77.029467, "fusion_lat": 0.0}, {"name": "eb88e92bc6b79cbed37a94dfd7400be4", "fusion_lon": 0.0, "lat": 38.919654666666666, "is_reserved": 0, "type": "electric_scooter", "bike_id": "eb88e92bc6b79cbed37a94dfd7400be4", "is_disabled": 0, "rental_uris": {"android": "https://dc.lft.to/lastmile_qr_scan", "ios": "https://dc.lft.to/lastmile_qr_scan"}, "lon": -77.03855633333333, "fusion_lat": 0.0}, {"name": "6beda60448f0103287b0151e262eb675", "fusion_lon": 0.0, "lat": 38.92343233333333, "is_reserved": 0, "type": "electric_scooter", "bike_id": "6beda60448f0103287b0151e262eb675", "is_disabled": 0, "rental_uris": {"android": "https://dc.lft.to/lastmile_qr_scan", "ios": "https://dc.lft.to/lastmile_qr_scan"}, "lon": -77.0508365, "fusion_lat": 0.0}, {"name": "7a6b90643533c424512b7e1081bac324", "fusion_lon": 0.0, "lat": 38.91689783333333, "is_reserved": 0, "type": "electric_scooter", "bike_id": "7a6b90643533c424512b7e1081bac324", "is_disabled": 0, "rental_uris": {"android": "https://dc.lft.to/lastmile_qr_scan", "ios": "https://dc.lft.to/lastmile_qr_scan"}, "lon": -77.02343766666667, "fusion_lat": 0.0}, {"name": "5ef7615c08347fcca3312c19d0163148", "fusion_lon": 0.0, "lat": 38.896597666666665, "is_reserved": 0, "type": "electric_scooter", "bike_id": "5ef7615c08347fcca3312c19d0163148", "is_disabled": 0, "rental_uris": {"android": "https://dc.lft.to/lastmile_qr_scan", "ios": "https://dc.lft.to/lastmile_qr_scan"}, "lon": -77.0271795, "fusion_lat": 0.0}, {"name": "b4a0b764f2efb1d91b150af4463bf779", "fusion_lon": 0.0, "lat": 39.01367333333334, "is_reserved": 0, "type": "electric_bike", "bike_id": "b4a0b764f2efb1d91b150af4463bf779", "is_disabled": 0, "rental_uris": {"android": "https://dc.lft.to/lastmile_qr_scan", "ios": "https://dc.lft.to/lastmile_qr_scan"}, "lon": -76.92137366666667, "fusion_lat": 0.0}, {"name": "d3e40cb5dd36ba8f6e070f0b69ceaa68", "fusion_lon": 0.0, "lat": 38.89220983333333, "is_reserved": 0, "type": "electric_scooter", "bike_id": "d3e40cb5dd36ba8f6e070f0b69ceaa68", "is_disabled": 0, "rental_uris": {"android": "https://dc.lft.to/lastmile_qr_scan", "ios": "https://dc.lft.to/lastmile_qr_scan"}, "lon": -77.048036, "fusion_lat": 0.0}, {"name": "749eefca55d7f68408d00502470fbbde", "fusion_lon": 0.0, "lat": 38.9231555, "is_reserved": 0, "type": "electric_scooter", "bike_id": "749eefca55d7f68408d00502470fbbde", "is_disabled": 0, "rental_uris": {"android": "https://dc.lft.to/lastmile_qr_scan", "ios": "https://dc.lft.to/lastmile_qr_scan"}, "lon": -77.04179583333334, "fusion_lat": 0.0}, {"name": "deffe01217f9aa0a785bacd8e4ab34a3", "fusion_lon": 0.0, "lat": 38.906588166666666, "is_reserved": 0, "type": "electric_scooter", "bike_id": "deffe01217f9aa0a785bacd8e4ab34a3", "is_disabled": 0, "rental_uris": {"android": "https://dc.lft.to/lastmile_qr_scan", "ios": "https://dc.lft.to/lastmile_qr_scan"}, "lon": -77.03523716666666, "fusion_lat": 0.0}, {"name": "39a579e679e2432edff56191e05cb501", "fusion_lon": 0.0, "lat": 38.8972105, "is_reserved": 0, "type": "electric_scooter", "bike_id": "39a579e679e2432edff56191e05cb501", "is_disabled": 0, "rental_uris": {"android": "https://dc.lft.to/lastmile_qr_scan", "ios": "https://dc.lft.to/lastmile_qr_scan"}, "lon": -77.00784516666667, "fusion_lat": 0.0}, {"name": "4ab489bb3fc15171628ce7d934489877", "fusion_lon": 0.0, "lat": 38.91412833333333, "is_reserved": 0, "type": "electric_scooter", "bike_id": "4ab489bb3fc15171628ce7d934489877", "is_disabled": 0, "rental_uris": {"android": "https://dc.lft.to/lastmile_qr_scan", "ios": "https://dc.lft.to/lastmile_qr_scan"}, "lon": -77.03439183333333, "fusion_lat": 0.0}, {"name": "587127a3398395e5ce2257f0e27ec40e", "fusion_lon": 0.0, "lat": 38.901731166666664, "is_reserved": 0, "type": "electric_scooter", "bike_id": "587127a3398395e5ce2257f0e27ec40e", "is_disabled": 0, "rental_uris": {"android": "https://dc.lft.to/lastmile_qr_scan", "ios": "https://dc.lft.to/lastmile_qr_scan"}, "lon": -76.9830455, "fusion_lat": 0.0}, {"name": "235c2d3c7df0f514e04b9fbba763e593", "fusion_lon": 0.0, "lat": 38.86517533333333, "is_reserved": 0, "type": "electric_bike", "bike_id": "235c2d3c7df0f514e04b9fbba763e593", "is_disabled": 0, "rental_uris": {"android": "https://dc.lft.to/lastmile_qr_scan", "ios": "https://dc.lft.to/lastmile_qr_scan"}, "lon": -76.97342416666666, "fusion_lat": 0.0}, {"name": "7d4bb6528937241b46eb38522bf241c1", "fusion_lon": 0.0, "lat": 38.8981595, "is_reserved": 0, "type": "electric_scooter", "bike_id": "7d4bb6528937241b46eb38522bf241c1", "is_disabled": 0, "rental_uris": {"android": "https://dc.lft.to/lastmile_qr_scan", "ios": "https://dc.lft.to/lastmile_qr_scan"}, "lon": -77.02954466666667, "fusion_lat": 0.0}, {"name": "3b938789bbc220954c675f8fb9581245", "fusion_lon": 0.0, "lat": 38.900262166666664, "is_reserved": 0, "type": "electric_scooter", "bike_id": "3b938789bbc220954c675f8fb9581245", "is_disabled": 0, "rental_uris": {"android": "https://dc.lft.to/lastmile_qr_scan", "ios": "https://dc.lft.to/lastmile_qr_scan"}, "lon": -77.01236183333333, "fusion_lat": 0.0}, {"name": "c104f149490f402c115c1d264736fc29", "fusion_lon": 0.0, "lat": 38.9215825, "is_reserved": 0, "type": "electric_scooter", "bike_id": "c104f149490f402c115c1d264736fc29", "is_disabled": 0, "rental_uris": {"android": "https://dc.lft.to/lastmile_qr_scan", "ios": "https://dc.lft.to/lastmile_qr_scan"}, "lon": -77.03513516666666, "fusion_lat": 0.0}, {"name": "e541cb64d980ecd7685a476e84744b89", "fusion_lon": 0.0, "lat": 38.919886, "is_reserved": 0, "type": "electric_scooter", "bike_id": "e541cb64d980ecd7685a476e84744b89", "is_disabled": 0, "rental_uris": {"android": "https://dc.lft.to/lastmile_qr_scan", "ios": "https://dc.lft.to/lastmile_qr_scan"}, "lon": -77.02389, "fusion_lat": 0.0}, {"name": "ba0f7ca78909bfd1ae95f88417ff2906", "fusion_lon": 0.0, "lat": 38.91112183333333, "is_reserved": 0, "type": "electric_scooter", "bike_id": "ba0f7ca78909bfd1ae95f88417ff2906", "is_disabled": 0, "rental_uris": {"android": "https://dc.lft.to/lastmile_qr_scan", "ios": "https://dc.lft.to/lastmile_qr_scan"}, "lon": -77.043571, "fusion_lat": 0.0}, {"name": "547f36001181dfbf3e8a016c7a8f3f92", "fusion_lon": 0.0, "lat": 38.90305266666667, "is_reserved": 0, "type": "electric_scooter", "bike_id": "547f36001181dfbf3e8a016c7a8f3f92", "is_disabled": 0, "rental_uris": {"android": "https://dc.lft.to/lastmile_qr_scan", "ios": "https://dc.lft.to/lastmile_qr_scan"}, "lon": -77.02367433333333, "fusion_lat": 0.0}, {"name": "450855801a8c535504921873625fb5ba", "fusion_lon": 0.0, "lat": 38.90376916666666, "is_reserved": 0, "type": "electric_scooter", "bike_id": "450855801a8c535504921873625fb5ba", "is_disabled": 0, "rental_uris": {"android": "https://dc.lft.to/lastmile_qr_scan", "ios": "https://dc.lft.to/lastmile_qr_scan"}, "lon": -77.04298866666667, "fusion_lat": 0.0}, {"name": "b176af385a7b691ffe2bd6980fca2f20", "fusion_lon": 0.0, "lat": 38.98444833333333, "is_reserved": 0, "type": "electric_bike", "bike_id": "b176af385a7b691ffe2bd6980fca2f20", "is_disabled": 0, "rental_uris": {"android": "https://dc.lft.to/lastmile_qr_scan", "ios": "https://dc.lft.to/lastmile_qr_scan"}, "lon": -77.02673983333334, "fusion_lat": 0.0}, {"name": "ee12867128e042af2b75c07b57674de7", "fusion_lon": 0.0, "lat": 38.9148595, "is_reserved": 0, "type": "electric_scooter", "bike_id": "ee12867128e042af2b75c07b57674de7", "is_disabled": 0, "rental_uris": {"android": "https://dc.lft.to/lastmile_qr_scan", "ios": "https://dc.lft.to/lastmile_qr_scan"}, "lon": -77.04551133333334, "fusion_lat": 0.0}, {"name": "2c64001a7ac9ceeaeab973cd38d9dc47", "fusion_lon": 0.0, "lat": 38.915711333333334, "is_reserved": 0, "type": "electric_scooter", "bike_id": "2c64001a7ac9ceeaeab973cd38d9dc47", "is_disabled": 0, "rental_uris": {"android": "https://dc.lft.to/lastmile_qr_scan", "ios": "https://dc.lft.to/lastmile_qr_scan"}, "lon": -77.03799566666666, "fusion_lat": 0.0}, {"name": "66fd58d96ac846ed1a71ed5358e030fb", "fusion_lon": 0.0, "lat": 38.91081966666667, "is_reserved": 0, "type": "electric_scooter", "bike_id": "66fd58d96ac846ed1a71ed5358e030fb", "is_disabled": 0, "rental_uris": {"android": "https://dc.lft.to/lastmile_qr_scan", "ios": "https://dc.lft.to/lastmile_qr_scan"}, "lon": -77.008573, "fusion_lat": 0.0}, {"name": "675f6b1008959d1e821686f1868cf3d3", "fusion_lon": 0.0, "lat": 38.924178, "is_reserved": 0, "type": "electric_scooter", "bike_id": "675f6b1008959d1e821686f1868cf3d3", "is_disabled": 0, "rental_uris": {"android": "https://dc.lft.to/lastmile_qr_scan", "ios": "https://dc.lft.to/lastmile_qr_scan"}, "lon": -77.05058466666667, "fusion_lat": 0.0}, {"name": "c0e54a01d9980b0edac18a42785d70fd", "fusion_lon": 0.0, "lat": 38.9024385, "is_reserved": 0, "type": "electric_scooter", "bike_id": "c0e54a01d9980b0edac18a42785d70fd", "is_disabled": 0, "rental_uris": {"android": "https://dc.lft.to/lastmile_qr_scan", "ios": "https://dc.lft.to/lastmile_qr_scan"}, "lon": -77.018373, "fusion_lat": 0.0}, {"name": "dcefdd1a357227125648111634bc9384", "fusion_lon": 0.0, "lat": 38.925009, "is_reserved": 0, "type": "electric_scooter", "bike_id": "dcefdd1a357227125648111634bc9384", "is_disabled": 0, "rental_uris": {"android": "https://dc.lft.to/lastmile_qr_scan", "ios": "https://dc.lft.to/lastmile_qr_scan"}, "lon": -77.03884366666666, "fusion_lat": 0.0}, {"name": "1be013cf104fde39c9a367365ed9c31e", "fusion_lon": 0.0, "lat": 38.899133666666664, "is_reserved": 0, "type": "electric_scooter", "bike_id": "1be013cf104fde39c9a367365ed9c31e", "is_disabled": 0, "rental_uris": {"android": "https://dc.lft.to/lastmile_qr_scan", "ios": "https://dc.lft.to/lastmile_qr_scan"}, "lon": -76.93408466666666, "fusion_lat": 0.0}, {"name": "96ea239044c316d20c3945b523ca6d6f", "fusion_lon": 0.0, "lat": 38.83368333333333, "is_reserved": 0, "type": "electric_scooter", "bike_id": "96ea239044c316d20c3945b523ca6d6f", "is_disabled": 0, "rental_uris": {"android": "https://dc.lft.to/lastmile_qr_scan", "ios": "https://dc.lft.to/lastmile_qr_scan"}, "lon": -76.996636, "fusion_lat": 0.0}, {"name": "e4b90a9f9637a995bbe92e4a1b9a1a42", "fusion_lon": 0.0, "lat": 38.902380666666666, "is_reserved": 0, "type": "electric_scooter", "bike_id": "e4b90a9f9637a995bbe92e4a1b9a1a42", "is_disabled": 0, "rental_uris": {"android": "https://dc.lft.to/lastmile_qr_scan", "ios": "https://dc.lft.to/lastmile_qr_scan"}, "lon": -77.0269025, "fusion_lat": 0.0}, {"name": "ed763bd776154adced545640e7748664", "fusion_lon": 0.0, "lat": 38.911283166666664, "is_reserved": 0, "type": "electric_scooter", "bike_id": "ed763bd776154adced545640e7748664", "is_disabled": 0, "rental_uris": {"android": "https://dc.lft.to/lastmile_qr_scan", "ios": "https://dc.lft.to/lastmile_qr_scan"}, "lon": -77.0384485, "fusion_lat": 0.0}, {"name": "45107ae046efff079dd0007e0038e75c", "fusion_lon": 0.0, "lat": 38.9271995, "is_reserved": 0, "type": "electric_scooter", "bike_id": "45107ae046efff079dd0007e0038e75c", "is_disabled": 0, "rental_uris": {"android": "https://dc.lft.to/lastmile_qr_scan", "ios": "https://dc.lft.to/lastmile_qr_scan"}, "lon": -77.02282833333334, "fusion_lat": 0.0}, {"name": "b465331e7b7e97584fe5e16914438a0a", "fusion_lon": 0.0, "lat": 39.024286833333335, "is_reserved": 0, "type": "electric_bike", "bike_id": "b465331e7b7e97584fe5e16914438a0a", "is_disabled": 0, "rental_uris": {"android": "https://dc.lft.to/lastmile_qr_scan", "ios": "https://dc.lft.to/lastmile_qr_scan"}, "lon": -77.131004, "fusion_lat": 0.0}, {"name": "f1df40839667459847808c1666ed356d", "fusion_lon": 0.0, "lat": 38.864275666666664, "is_reserved": 0, "type": "electric_scooter", "bike_id": "f1df40839667459847808c1666ed356d", "is_disabled": 0, "rental_uris": {"android": "https://dc.lft.to/lastmile_qr_scan", "ios": "https://dc.lft.to/lastmile_qr_scan"}, "lon": -76.97433216666667, "fusion_lat": 0.0}, {"name": "a64c3235edee24066e64afe065cb9d26", "fusion_lon": 0.0, "lat": 38.90548833333333, "is_reserved": 0, "type": "electric_scooter", "bike_id": "a64c3235edee24066e64afe065cb9d26", "is_disabled": 0, "rental_uris": {"android": "https://dc.lft.to/lastmile_qr_scan", "ios": "https://dc.lft.to/lastmile_qr_scan"}, "lon": -77.0465305, "fusion_lat": 0.0}, {"name": "0bd627a45d6f264a8477782c570ffcf5", "fusion_lon": 0.0, "lat": 38.92230966666666, "is_reserved": 0, "type": "electric_scooter", "bike_id": "0bd627a45d6f264a8477782c570ffcf5", "is_disabled": 0, "rental_uris": {"android": "https://dc.lft.to/lastmile_qr_scan", "ios": "https://dc.lft.to/lastmile_qr_scan"}, "lon": -77.02336933333333, "fusion_lat": 0.0}, {"name": "d6afb195304039f45e91b8c55ad231d6", "fusion_lon": 0.0, "lat": 38.90579, "is_reserved": 0, "type": "electric_scooter", "bike_id": "d6afb195304039f45e91b8c55ad231d6", "is_disabled": 0, "rental_uris": {"android": "https://dc.lft.to/lastmile_qr_scan", "ios": "https://dc.lft.to/lastmile_qr_scan"}, "lon": -77.04463216666667, "fusion_lat": 0.0}, {"name": "9dd3d1982b3ba4e0cff54c0e35544331", "fusion_lon": 0.0, "lat": 38.88761733333333, "is_reserved": 0, "type": "electric_scooter", "bike_id": "9dd3d1982b3ba4e0cff54c0e35544331", "is_disabled": 0, "rental_uris": {"android": "https://dc.lft.to/lastmile_qr_scan", "ios": "https://dc.lft.to/lastmile_qr_scan"}, "lon": -76.95601433333333, "fusion_lat": 0.0}, {"name": "30a8acea7295382c9bb3bb08665f5841", "fusion_lon": 0.0, "lat": 38.9142735, "is_reserved": 0, "type": "electric_scooter", "bike_id": "30a8acea7295382c9bb3bb08665f5841", "is_disabled": 0, "rental_uris": {"android": "https://dc.lft.to/lastmile_qr_scan", "ios": "https://dc.lft.to/lastmile_qr_scan"}, "lon": -77.04497766666667, "fusion_lat": 0.0}, {"name": "b84c1a0c8e841a85f58a319335c5f834", "fusion_lon": 0.0, "lat": 38.92906716666667, "is_reserved": 0, "type": "electric_scooter", "bike_id": "b84c1a0c8e841a85f58a319335c5f834", "is_disabled": 0, "rental_uris": {"android": "https://dc.lft.to/lastmile_qr_scan", "ios": "https://dc.lft.to/lastmile_qr_scan"}, "lon": -77.03617916666667, "fusion_lat": 0.0}, {"name": "3688fb54f6696fa4b6b1647f0907d5c9", "fusion_lon": 0.0, "lat": 38.947804, "is_reserved": 0, "type": "electric_bike", "bike_id": "3688fb54f6696fa4b6b1647f0907d5c9", "is_disabled": 0, "rental_uris": {"android": "https://dc.lft.to/lastmile_qr_scan", "ios": "https://dc.lft.to/lastmile_qr_scan"}, "lon": -76.97212633333334, "fusion_lat": 0.0}, {"name": "e3ff96ec202f1e5180b09af444e9789d", "fusion_lon": 0.0, "lat": 38.904679333333334, "is_reserved": 0, "type": "electric_scooter", "bike_id": "e3ff96ec202f1e5180b09af444e9789d", "is_disabled": 0, "rental_uris": {"android": "https://dc.lft.to/lastmile_qr_scan", "ios": "https://dc.lft.to/lastmile_qr_scan"}, "lon": -77.05338083333334, "fusion_lat": 0.0}, {"name": "d9ccd840beb0a52cccb6b589542578fa", "fusion_lon": 0.0, "lat": 38.9024465, "is_reserved": 0, "type": "electric_scooter", "bike_id": "d9ccd840beb0a52cccb6b589542578fa", "is_disabled": 0, "rental_uris": {"android": "https://dc.lft.to/lastmile_qr_scan", "ios": "https://dc.lft.to/lastmile_qr_scan"}, "lon": -77.0396645, "fusion_lat": 0.0}, {"name": "9d262922200f99bc88fd62976417dc66", "fusion_lon": 0.0, "lat": 38.92492166666667, "is_reserved": 0, "type": "electric_scooter", "bike_id": "9d262922200f99bc88fd62976417dc66", "is_disabled": 0, "rental_uris": {"android": "https://dc.lft.to/lastmile_qr_scan", "ios": "https://dc.lft.to/lastmile_qr_scan"}, "lon": -77.05251483333333, "fusion_lat": 0.0}, {"name": "33794518814f919dcaee6f4487a4f70a", "fusion_lon": 0.0, "lat": 38.8904135, "is_reserved": 0, "type": "electric_scooter", "bike_id": "33794518814f919dcaee6f4487a4f70a", "is_disabled": 0, "rental_uris": {"android": "https://dc.lft.to/lastmile_qr_scan", "ios": "https://dc.lft.to/lastmile_qr_scan"}, "lon": -76.95143766666666, "fusion_lat": 0.0}, {"name": "64e5113b1a6c0cd303276383df922fd8", "fusion_lon": 0.0, "lat": 38.891716, "is_reserved": 0, "type": "electric_scooter", "bike_id": "64e5113b1a6c0cd303276383df922fd8", "is_disabled": 0, "rental_uris": {"android": "https://dc.lft.to/lastmile_qr_scan", "ios": "https://dc.lft.to/lastmile_qr_scan"}, "lon": -77.01562766666666, "fusion_lat": 0.0}, {"name": "0a15430235d61fa709897d395d03dad4", "fusion_lon": 0.0, "lat": 38.91272633333333, "is_reserved": 0, "type": "electric_scooter", "bike_id": "0a15430235d61fa709897d395d03dad4", "is_disabled": 0, "rental_uris": {"android": "https://dc.lft.to/lastmile_qr_scan", "ios": "https://dc.lft.to/lastmile_qr_scan"}, "lon": -77.02688616666667, "fusion_lat": 0.0}, {"name": "dd9c85fd9e7543d743eed75c7ab1cbd7", "fusion_lon": 0.0, "lat": 38.900379666666666, "is_reserved": 0, "type": "electric_scooter", "bike_id": "dd9c85fd9e7543d743eed75c7ab1cbd7", "is_disabled": 0, "rental_uris": {"android": "https://dc.lft.to/lastmile_qr_scan", "ios": "https://dc.lft.to/lastmile_qr_scan"}, "lon": -77.02405716666667, "fusion_lat": 0.0}, {"name": "fa03a1667a8fadb756257c64e8e7e92b", "fusion_lon": 0.0, "lat": 38.921436666666665, "is_reserved": 0, "type": "electric_scooter", "bike_id": "fa03a1667a8fadb756257c64e8e7e92b", "is_disabled": 0, "rental_uris": {"android": "https://dc.lft.to/lastmile_qr_scan", "ios": "https://dc.lft.to/lastmile_qr_scan"}, "lon": -77.01813033333333, "fusion_lat": 0.0}, {"name": "6bbbf0e078907f46a404e0bdc0eab581", "fusion_lon": 0.0, "lat": 38.908534333333336, "is_reserved": 0, "type": "electric_bike", "bike_id": "6bbbf0e078907f46a404e0bdc0eab581", "is_disabled": 0, "rental_uris": {"android": "https://dc.lft.to/lastmile_qr_scan", "ios": "https://dc.lft.to/lastmile_qr_scan"}, "lon": -76.991411, "fusion_lat": 0.0}, {"name": "7d07306f4b02c87771f52726d4bebb45", "fusion_lon": 0.0, "lat": 38.90268533333333, "is_reserved": 0, "type": "electric_bike", "bike_id": "7d07306f4b02c87771f52726d4bebb45", "is_disabled": 0, "rental_uris": {"android": "https://dc.lft.to/lastmile_qr_scan", "ios": "https://dc.lft.to/lastmile_qr_scan"}, "lon": -77.03271233333334, "fusion_lat": 0.0}, {"name": "bd7cecdeeef3cd8495fc25f843b5137a", "fusion_lon": 0.0, "lat": 38.934840666666666, "is_reserved": 0, "type": "electric_scooter", "bike_id": "bd7cecdeeef3cd8495fc25f843b5137a", "is_disabled": 0, "rental_uris": {"android": "https://dc.lft.to/lastmile_qr_scan", "ios": "https://dc.lft.to/lastmile_qr_scan"}, "lon": -77.03602266666667, "fusion_lat": 0.0}, {"name": "6e96773e0e965da043ca0effe03ea790", "fusion_lon": 0.0, "lat": 38.95180366666666, "is_reserved": 0, "type": "electric_scooter", "bike_id": "6e96773e0e965da043ca0effe03ea790", "is_disabled": 0, "rental_uris": {"android": "https://dc.lft.to/lastmile_qr_scan", "ios": "https://dc.lft.to/lastmile_qr_scan"}, "lon": -77.02614, "fusion_lat": 0.0}, {"name": "11c9acbc61ab32f22f5053167c367a89", "fusion_lon": 0.0, "lat": 38.91689933333333, "is_reserved": 0, "type": "electric_scooter", "bike_id": "11c9acbc61ab32f22f5053167c367a89", "is_disabled": 0, "rental_uris": {"android": "https://dc.lft.to/lastmile_qr_scan", "ios": "https://dc.lft.to/lastmile_qr_scan"}, "lon": -77.034994, "fusion_lat": 0.0}, {"name": "7b845a1b7e8201cbe853d3c5d37a4fd0", "fusion_lon": 0.0, "lat": 38.89618816666667, "is_reserved": 0, "type": "electric_scooter", "bike_id": "7b845a1b7e8201cbe853d3c5d37a4fd0", "is_disabled": 0, "rental_uris": {"android": "https://dc.lft.to/lastmile_qr_scan", "ios": "https://dc.lft.to/lastmile_qr_scan"}, "lon": -76.98165116666667, "fusion_lat": 0.0}, {"name": "1b53ae570399368a4e92136c80f77c28", "fusion_lon": 0.0, "lat": 38.92676083333333, "is_reserved": 0, "type": "electric_scooter", "bike_id": "1b53ae570399368a4e92136c80f77c28", "is_disabled": 0, "rental_uris": {"android": "https://dc.lft.to/lastmile_qr_scan", "ios": "https://dc.lft.to/lastmile_qr_scan"}, "lon": -77.0435145, "fusion_lat": 0.0}, {"name": "36d4eb400a846123d0d8d280fdd569d7", "fusion_lon": 0.0, "lat": 38.9250035, "is_reserved": 0, "type": "electric_scooter", "bike_id": "36d4eb400a846123d0d8d280fdd569d7", "is_disabled": 0, "rental_uris": {"android": "https://dc.lft.to/lastmile_qr_scan", "ios": "https://dc.lft.to/lastmile_qr_scan"}, "lon": -77.02354266666667, "fusion_lat": 0.0}, {"name": "2b9477876ee18f29d0a4bb0e71a48193", "fusion_lon": 0.0, "lat": 38.907782833333336, "is_reserved": 0, "type": "electric_scooter", "bike_id": "2b9477876ee18f29d0a4bb0e71a48193", "is_disabled": 0, "rental_uris": {"android": "https://dc.lft.to/lastmile_qr_scan", "ios": "https://dc.lft.to/lastmile_qr_scan"}, "lon": -77.038268, "fusion_lat": 0.0}, {"name": "22c5734e0c0162c013f6f47e8c7408a4", "fusion_lon": 0.0, "lat": 38.90084083333333, "is_reserved": 0, "type": "electric_scooter", "bike_id": "22c5734e0c0162c013f6f47e8c7408a4", "is_disabled": 0, "rental_uris": {"android": "https://dc.lft.to/lastmile_qr_scan", "ios": "https://dc.lft.to/lastmile_qr_scan"}, "lon": -77.05074566666667, "fusion_lat": 0.0}, {"name": "f51fef01cb85fa23f7f11f07c9215ead", "fusion_lon": 0.0, "lat": 38.88387916666667, "is_reserved": 0, "type": "electric_scooter", "bike_id": "f51fef01cb85fa23f7f11f07c9215ead", "is_disabled": 0, "rental_uris": {"android": "https://dc.lft.to/lastmile_qr_scan", "ios": "https://dc.lft.to/lastmile_qr_scan"}, "lon": -76.954517, "fusion_lat": 0.0}, {"name": "5129a82a28941f3a5772c5d23fba5695", "fusion_lon": 0.0, "lat": 38.91568783333334, "is_reserved": 0, "type": "electric_scooter", "bike_id": "5129a82a28941f3a5772c5d23fba5695", "is_disabled": 0, "rental_uris": {"android": "https://dc.lft.to/lastmile_qr_scan", "ios": "https://dc.lft.to/lastmile_qr_scan"}, "lon": -77.03464216666667, "fusion_lat": 0.0}, {"name": "7c14347e279e693049fb2803da753272", "fusion_lon": 0.0, "lat": 38.884736333333336, "is_reserved": 0, "type": "electric_scooter", "bike_id": "7c14347e279e693049fb2803da753272", "is_disabled": 0, "rental_uris": {"android": "https://dc.lft.to/lastmile_qr_scan", "ios": "https://dc.lft.to/lastmile_qr_scan"}, "lon": -77.02657433333333, "fusion_lat": 0.0}, {"name": "bc6b717df3a481cbaf9552c51728775d", "fusion_lon": 0.0, "lat": 38.900301666666664, "is_reserved": 0, "type": "electric_scooter", "bike_id": "bc6b717df3a481cbaf9552c51728775d", "is_disabled": 0, "rental_uris": {"android": "https://dc.lft.to/lastmile_qr_scan", "ios": "https://dc.lft.to/lastmile_qr_scan"}, "lon": -77.00189383333333, "fusion_lat": 0.0}, {"name": "fc76f0c623830edef98e7889a5da8d56", "fusion_lon": 0.0, "lat": 38.903861, "is_reserved": 0, "type": "electric_scooter", "bike_id": "fc76f0c623830edef98e7889a5da8d56", "is_disabled": 0, "rental_uris": {"android": "https://dc.lft.to/lastmile_qr_scan", "ios": "https://dc.lft.to/lastmile_qr_scan"}, "lon": -77.041974, "fusion_lat": 0.0}, {"name": "20ef7efcca502586d56ba9c15c404769", "fusion_lon": 0.0, "lat": 38.919514166666666, "is_reserved": 0, "type": "electric_scooter", "bike_id": "20ef7efcca502586d56ba9c15c404769", "is_disabled": 0, "rental_uris": {"android": "https://dc.lft.to/lastmile_qr_scan", "ios": "https://dc.lft.to/lastmile_qr_scan"}, "lon": -77.0417395, "fusion_lat": 0.0}, {"name": "34c81b71ad5b4a453657e21c53221c63", "fusion_lon": 0.0, "lat": 38.874139666666665, "is_reserved": 0, "type": "electric_scooter", "bike_id": "34c81b71ad5b4a453657e21c53221c63", "is_disabled": 0, "rental_uris": {"android": "https://dc.lft.to/lastmile_qr_scan", "ios": "https://dc.lft.to/lastmile_qr_scan"}, "lon": -76.9711715, "fusion_lat": 0.0}, {"name": "e985f1b4fb7d389c826caaefc4a0c2d6", "fusion_lon": 0.0, "lat": 38.916669, "is_reserved": 0, "type": "electric_scooter", "bike_id": "e985f1b4fb7d389c826caaefc4a0c2d6", "is_disabled": 0, "rental_uris": {"android": "https://dc.lft.to/lastmile_qr_scan", "ios": "https://dc.lft.to/lastmile_qr_scan"}, "lon": -77.02969233333333, "fusion_lat": 0.0}, {"name": "699c5cc775cf6b61615e9221baf70d61", "fusion_lon": 0.0, "lat": 38.91548216666666, "is_reserved": 0, "type": "electric_scooter", "bike_id": "699c5cc775cf6b61615e9221baf70d61", "is_disabled": 0, "rental_uris": {"android": "https://dc.lft.to/lastmile_qr_scan", "ios": "https://dc.lft.to/lastmile_qr_scan"}, "lon": -77.04161216666667, "fusion_lat": 0.0}, {"name": "7115a32512c510b4d90f38524e9553a6", "fusion_lon": 0.0, "lat": 38.951506, "is_reserved": 0, "type": "electric_scooter", "bike_id": "7115a32512c510b4d90f38524e9553a6", "is_disabled": 0, "rental_uris": {"android": "https://dc.lft.to/lastmile_qr_scan", "ios": "https://dc.lft.to/lastmile_qr_scan"}, "lon": -77.01868666666667, "fusion_lat": 0.0}, {"name": "01817bb37ee3544025180c88c508ece3", "fusion_lon": 0.0, "lat": 38.902006, "is_reserved": 0, "type": "electric_scooter", "bike_id": "01817bb37ee3544025180c88c508ece3", "is_disabled": 0, "rental_uris": {"android": "https://dc.lft.to/lastmile_qr_scan", "ios": "https://dc.lft.to/lastmile_qr_scan"}, "lon": -77.02367916666667, "fusion_lat": 0.0}, {"name": "192f564901ada2883c5980db649c3c9d", "fusion_lon": 0.0, "lat": 38.90076233333333, "is_reserved": 0, "type": "electric_scooter", "bike_id": "192f564901ada2883c5980db649c3c9d", "is_disabled": 0, "rental_uris": {"android": "https://dc.lft.to/lastmile_qr_scan", "ios": "https://dc.lft.to/lastmile_qr_scan"}, "lon": -77.01858016666667, "fusion_lat": 0.0}, {"name": "b32910a210346469adf41387abc56be8", "fusion_lon": 0.0, "lat": 38.9020365, "is_reserved": 0, "type": "electric_scooter", "bike_id": "b32910a210346469adf41387abc56be8", "is_disabled": 0, "rental_uris": {"android": "https://dc.lft.to/lastmile_qr_scan", "ios": "https://dc.lft.to/lastmile_qr_scan"}, "lon": -77.02372016666666, "fusion_lat": 0.0}, {"name": "b030dfa8cec6f176a93e7ac0c64c698f", "fusion_lon": 0.0, "lat": 38.921615333333335, "is_reserved": 0, "type": "electric_scooter", "bike_id": "b030dfa8cec6f176a93e7ac0c64c698f", "is_disabled": 0, "rental_uris": {"android": "https://dc.lft.to/lastmile_qr_scan", "ios": "https://dc.lft.to/lastmile_qr_scan"}, "lon": -77.04349233333333, "fusion_lat": 0.0}, {"name": "05e27f3df22b33891588b38161831c99", "fusion_lon": 0.0, "lat": 38.89322516666667, "is_reserved": 0, "type": "electric_scooter", "bike_id": "05e27f3df22b33891588b38161831c99", "is_disabled": 0, "rental_uris": {"android": "https://dc.lft.to/lastmile_qr_scan", "ios": "https://dc.lft.to/lastmile_qr_scan"}, "lon": -77.0487915, "fusion_lat": 0.0}, {"name": "0d4d26fddd482c9cda2e5c34cc5b54c3", "fusion_lon": 0.0, "lat": 38.8826855, "is_reserved": 0, "type": "electric_scooter", "bike_id": "0d4d26fddd482c9cda2e5c34cc5b54c3", "is_disabled": 0, "rental_uris": {"android": "https://dc.lft.to/lastmile_qr_scan", "ios": "https://dc.lft.to/lastmile_qr_scan"}, "lon": -76.99252866666667, "fusion_lat": 0.0}, {"name": "48a2f6bed15f0c969838ae64e966d56b", "fusion_lon": 0.0, "lat": 38.92563833333333, "is_reserved": 0, "type": "electric_scooter", "bike_id": "48a2f6bed15f0c969838ae64e966d56b", "is_disabled": 0, "rental_uris": {"android": "https://dc.lft.to/lastmile_qr_scan", "ios": "https://dc.lft.to/lastmile_qr_scan"}, "lon": -77.052674, "fusion_lat": 0.0}, {"name": "2d88570a5f6ef14b2f05e2ed4bc90823", "fusion_lon": 0.0, "lat": 38.91457183333333, "is_reserved": 0, "type": "electric_scooter", "bike_id": "2d88570a5f6ef14b2f05e2ed4bc90823", "is_disabled": 0, "rental_uris": {"android": "https://dc.lft.to/lastmile_qr_scan", "ios": "https://dc.lft.to/lastmile_qr_scan"}, "lon": -77.0713255, "fusion_lat": 0.0}, {"name": "282e578cd539f1c5f1231bd0c8a2fff4", "fusion_lon": 0.0, "lat": 38.924046833333335, "is_reserved": 0, "type": "electric_scooter", "bike_id": "282e578cd539f1c5f1231bd0c8a2fff4", "is_disabled": 0, "rental_uris": {"android": "https://dc.lft.to/lastmile_qr_scan", "ios": "https://dc.lft.to/lastmile_qr_scan"}, "lon": -77.05167183333333, "fusion_lat": 0.0}, {"name": "94d9fbfad303473723ab5bcb95817324", "fusion_lon": 0.0, "lat": 38.908196333333336, "is_reserved": 0, "type": "electric_scooter", "bike_id": "94d9fbfad303473723ab5bcb95817324", "is_disabled": 0, "rental_uris": {"android": "https://dc.lft.to/lastmile_qr_scan", "ios": "https://dc.lft.to/lastmile_qr_scan"}, "lon": -77.0238825, "fusion_lat": 0.0}, {"name": "dba58d0dbb7fad9af0db7b8e45832bd0", "fusion_lon": 0.0, "lat": 38.91935216666667, "is_reserved": 0, "type": "electric_scooter", "bike_id": "dba58d0dbb7fad9af0db7b8e45832bd0", "is_disabled": 0, "rental_uris": {"android": "https://dc.lft.to/lastmile_qr_scan", "ios": "https://dc.lft.to/lastmile_qr_scan"}, "lon": -77.03199666666667, "fusion_lat": 0.0}, {"name": "8522fb69928264afa4ab528b33567653", "fusion_lon": 0.0, "lat": 38.91632333333333, "is_reserved": 0, "type": "electric_scooter", "bike_id": "8522fb69928264afa4ab528b33567653", "is_disabled": 0, "rental_uris": {"android": "https://dc.lft.to/lastmile_qr_scan", "ios": "https://dc.lft.to/lastmile_qr_scan"}, "lon": -77.039929, "fusion_lat": 0.0}, {"name": "9320fa3dca7c49bcd3eda00d75340654", "fusion_lon": 0.0, "lat": 38.905563, "is_reserved": 0, "type": "electric_scooter", "bike_id": "9320fa3dca7c49bcd3eda00d75340654", "is_disabled": 0, "rental_uris": {"android": "https://dc.lft.to/lastmile_qr_scan", "ios": "https://dc.lft.to/lastmile_qr_scan"}, "lon": -77.0029115, "fusion_lat": 0.0}, {"name": "874af25f7d22412321ae438bbd9af6be", "fusion_lon": 0.0, "lat": 38.903724833333335, "is_reserved": 0, "type": "electric_scooter", "bike_id": "874af25f7d22412321ae438bbd9af6be", "is_disabled": 0, "rental_uris": {"android": "https://dc.lft.to/lastmile_qr_scan", "ios": "https://dc.lft.to/lastmile_qr_scan"}, "lon": -77.04341366666667, "fusion_lat": 0.0}, {"name": "14ea8f3403a88517c012044d87b6166a", "fusion_lon": 0.0, "lat": 38.907466166666666, "is_reserved": 0, "type": "electric_scooter", "bike_id": "14ea8f3403a88517c012044d87b6166a", "is_disabled": 0, "rental_uris": {"android": "https://dc.lft.to/lastmile_qr_scan", "ios": "https://dc.lft.to/lastmile_qr_scan"}, "lon": -77.043434, "fusion_lat": 0.0}, {"name": "54a2a6f0568efe7f89cacbb650071624", "fusion_lon": 0.0, "lat": 38.897384333333335, "is_reserved": 0, "type": "electric_scooter", "bike_id": "54a2a6f0568efe7f89cacbb650071624", "is_disabled": 0, "rental_uris": {"android": "https://dc.lft.to/lastmile_qr_scan", "ios": "https://dc.lft.to/lastmile_qr_scan"}, "lon": -77.00775983333334, "fusion_lat": 0.0}, {"name": "e32a6994166a858aa7fd9277d74a9ca6", "fusion_lon": 0.0, "lat": 38.869501166666666, "is_reserved": 0, "type": "electric_scooter", "bike_id": "e32a6994166a858aa7fd9277d74a9ca6", "is_disabled": 0, "rental_uris": {"android": "https://dc.lft.to/lastmile_qr_scan", "ios": "https://dc.lft.to/lastmile_qr_scan"}, "lon": -76.98168766666667, "fusion_lat": 0.0}, {"name": "40172f4b4b33e76ed759c576997b8abf", "fusion_lon": 0.0, "lat": 38.89721633333333, "is_reserved": 0, "type": "electric_scooter", "bike_id": "40172f4b4b33e76ed759c576997b8abf", "is_disabled": 0, "rental_uris": {"android": "https://dc.lft.to/lastmile_qr_scan", "ios": "https://dc.lft.to/lastmile_qr_scan"}, "lon": -77.02138283333333, "fusion_lat": 0.0},