{"data": {"bikes": [{"name": "f54ffdaac33bd1bbbc71860d226538e3", "fusion_lat": 0.0, "type": "electric_scooter", "lat": 38.930885333333336, "is_reserved": 0, "is_disabled": 0, "fusion_lon": 0.0, "bike_id": "f54ffdaac33bd1bbbc71860d226538e3", "lon": -77.02488583333333, "rental_uris": {"ios": "https://dc.lft.to/lastmile_qr_scan", "android": "https://dc.lft.to/lastmile_qr_scan"}}, {"name": "9745c06a7d1a39a85726aca39aab8244", "fusion_lat": 0.0, "type": "electric_scooter", "lat": 38.921617833333336, "is_reserved": 0, "is_disabled": 0, "fusion_lon": 0.0, "bike_id": "9745c06a7d1a39a85726aca39aab8244", "lon": -77.03383333333333, "rental_uris": {"ios": "https://dc.lft.to/lastmile_qr_scan", "android": "https://dc.lft.to/lastmile_qr_scan"}}, {"name": "ac61955b6b19a96e0e05ff591f5e0164", "fusion_lat": 0.0, "type": "electric_scooter", "lat": 38.9003845, "is_reserved": 0, "is_disabled": 0, "fusion_lon": 0.0, "bike_id": "ac61955b6b19a96e0e05ff591f5e0164", "lon": -77.00882983333334, "rental_uris": {"ios": "https://dc.lft.to/lastmile_qr_scan", "android": "https://dc.lft.to/lastmile_qr_scan"}}, {"name": "b10ca83fa93c1b99dd3c167e3e2b2644", "fusion_lat": 0.0, "type": "electric_scooter", "lat": 38.87691866666667, "is_reserved": 0, "is_disabled": 0, "fusion_lon": 0.0, "bike_id": "b10ca83fa93c1b99dd3c167e3e2b2644", "lon": -77.01655733333334, "rental_uris": {"ios": "https://dc.lft.to/lastmile_qr_scan", "android": "https://dc.lft.to/lastmile_qr_scan"}}, {"name": "4e565a7f34b8e8b45d483f778e654b01", "fusion_lat": 0.0, "type": "electric_scooter", "lat": 38.900269, "is_reserved": 0, "is_disabled": 0, "fusion_lon": 0.0, "bike_id": "4e565a7f34b8e8b45d483f778e654b01", "lon": -77.040214, "rental_uris": {"ios": "https://dc.lft.to/lastmile_qr_scan", "android": "https://dc.lft.to/lastmile_qr_scan"}}, {"name": "d5925210443d297f985435f82211d645", "fusion_lat": 0.0, "type": "electric_scooter", "lat": 38.894478666666664, "is_reserved": 0, "is_disabled": 0, "fusion_lon": 0.0, "bike_id": "d5925210443d297f985435f82211d645", "lon": -77.04542266666667, "rental_uris": {"ios": "https://dc.lft.to/lastmile_qr_scan", "android": "https://dc.lft.to/lastmile_qr_scan"}}, {"name": "b147e42c2778211bed5b2df153264416", "fusion_lat": 0.0, "type": "electric_scooter", "lat": 38.917546333333334, "is_reserved": 0, "is_disabled": 0, "fusion_lon": 0.0, "bike_id": "b147e42c2778211bed5b2df153264416", "lon": -77.04156283333333, "rental_uris": {"ios": "https://dc.lft.to/lastmile_qr_scan", "android": "https://dc.lft.to/lastmile_qr_scan"}}, {"name": "558b1ef3245f49a9c950f043d0f2755f", "fusion_lat": 0.0, "type": "electric_scooter", "lat": 38.902745333333336, "is_reserved": 0, "is_disabled": 0, "fusion_lon": 0.0, "bike_id": "558b1ef3245f49a9c950f043d0f2755f", "lon": -77.00349766666666, "rental_uris": {"ios": "https://dc.lft.to/lastmile_qr_scan", "android": "https://dc.lft.to/lastmile_qr_scan"}}, {"name": "70ffcf5f72869484901b64830ba03616", "fusion_lat": 0.0, "type": "electric_scooter", "lat": 38.921588, "is_reserved": 0, "is_disabled": 0, "fusion_lon": 0.0, "bike_id": "70ffcf5f72869484901b64830ba03616", "lon": -77.033831, "rental_uris": {"ios": "https://dc.lft.to/lastmile_qr_scan", "android": "https://dc.lft.to/lastmile_qr_scan"}}, {"name": "c6c61c9dd246f5f22e65c56897adba2f", "fusion_lat": 0.0, "type": "electric_scooter", "lat": 38.89088383333333, "is_reserved": 0, "is_disabled": 0, "fusion_lon": 0.0, "bike_id": "c6c61c9dd246f5f22e65c56897adba2f", "lon": -76.98730866666666, "rental_uris": {"ios": "https://dc.lft.to/lastmile_qr_scan", "android": "https://dc.lft.to/lastmile_qr_scan"}}, {"name": "293ef2deca7f7129f84d3f47397851e2", "fusion_lat": 0.0, "type": "electric_scooter", "lat": 38.905079, "is_reserved": 0, "is_disabled": 0, "fusion_lon": 0.0, "bike_id": "293ef2deca7f7129f84d3f47397851e2", "lon": -77.04481283333334, "rental_uris": {"ios": "https://dc.lft.to/lastmile_qr_scan", "android": "https://dc.lft.to/lastmile_qr_scan"}}, {"name": "c0a0983babf48f98caf51853d8da9eaa", "fusion_lat": 0.0, "type": "electric_scooter", "lat": 38.90534816666667, "is_reserved": 0, "is_disabled": 0, "fusion_lon": 0.0, "bike_id": "c0a0983babf48f98caf51853d8da9eaa", "lon": -77.0294985, "rental_uris": {"ios": "https://dc.lft.to/lastmile_qr_scan", "android": "https://dc.lft.to/lastmile_qr_scan"}}, {"name": "dbd1f7483f4f7cc8080ea49c087855b9", "fusion_lat": 0.0, "type": "electric_scooter", "lat": 38.887621833333334, "is_reserved": 0, "is_disabled": 0, "fusion_lon": 0.0, "bike_id": "dbd1f7483f4f7cc8080ea49c087855b9", "lon": -76.95604733333333, "rental_uris": {"ios": "https://dc.lft.to/lastmile_qr_scan", "android": "https://dc.lft.to/lastmile_qr_scan"}}, {"name": "3e7314cfd2c3890ed416139bc4915a00", "fusion_lat": 0.0, "type": "electric_scooter", "lat": 38.91170833333334, "is_reserved": 0, "is_disabled": 0, "fusion_lon": 0.0, "bike_id": "3e7314cfd2c3890ed416139bc4915a00", "lon": -77.01126266666667, "rental_uris": {"ios": "https://dc.lft.to/lastmile_qr_scan", "android": "https://dc.lft.to/lastmile_qr_scan"}}, {"name": "9740a668d1e8a92a02684a4dbed3a160", "fusion_lat": 0.0, "type": "electric_scooter", "lat": 38.9359405, "is_reserved": 0, "is_disabled": 0, "fusion_lon": 0.0, "bike_id": "9740a668d1e8a92a02684a4dbed3a160", "lon": -76.99117866666667, "rental_uris": {"ios": "https://dc.lft.to/lastmile_qr_scan", "android": "https://dc.lft.to/lastmile_qr_scan"}}, {"name": "89a5be5bb59e218dd60bdefcb7134e66", "fusion_lat": 0.0, "type": "electric_scooter", "lat": 38.912139833333335, "is_reserved": 0, "is_disabled": 0, "fusion_lon": 0.0, "bike_id": "89a5be5bb59e218dd60bdefcb7134e66", "lon": -77.0384005, "rental_uris": {"ios": "https://dc.lft.to/lastmile_qr_scan", "android": "https://dc.lft.to/lastmile_qr_scan"}}, {"name": "9be2b7ec9e4da2c7b50283583050fbeb", "fusion_lat": 0.0, "type": "electric_bike", "lat": 38.87543616666667, "is_reserved": 0, "is_disabled": 0, "fusion_lon": 0.0, "bike_id": "9be2b7ec9e4da2c7b50283583050fbeb", "lon": -77.005987, "rental_uris": {"ios": "https://dc.lft.to/lastmile_qr_scan", "android": "https://dc.lft.to/lastmile_qr_scan"}}, {"name": "0e3d4268bba2f2f26ea25b5d69b03c34", "fusion_lat": 0.0, "type": "electric_scooter", "lat": 38.929111666666664, "is_reserved": 0, "is_disabled": 0, "fusion_lon": 0.0, "bike_id": "0e3d4268bba2f2f26ea25b5d69b03c34", "lon": -77.03264083333333, "rental_uris": {"ios": "https://dc.lft.to/lastmile_qr_scan", "android": "https://dc.lft.to/lastmile_qr_scan"}}, {"name": "f88309a2394f17ccb37dc77143f98b23", "fusion_lat": 0.0, "type": "electric_scooter", "lat": 38.91266983333333, "is_reserved": 0, "is_disabled": 0, "fusion_lon": 0.0, "bike_id": "f88309a2394f17ccb37dc77143f98b23", "lon": -77.03869916666666, "rental_uris": {"ios": "https://dc.lft.to/lastmile_qr_scan", "android": "https://dc.lft.to/lastmile_qr_scan"}}, {"name": "9e5b4226273d13347e492b380876fc57", "fusion_lat": 0.0, "type": "electric_scooter", "lat": 38.90698483333333, "is_reserved": 0, "is_disabled": 0, "fusion_lon": 0.0, "bike_id": "9e5b4226273d13347e492b380876fc57", "lon": -77.0240605, "rental_uris": {"ios": "https://dc.lft.to/lastmile_qr_scan", "android": "https://dc.lft.to/lastmile_qr_scan"}}, {"name": "2ad5e90fb5895748acff9a6bce3f5fce", "fusion_lat": 0.0, "type": "electric_scooter", "lat": 38.936411166666666, "is_reserved": 0, "is_disabled": 0, "fusion_lon": 0.0, "bike_id": "2ad5e90fb5895748acff9a6bce3f5fce", "lon": -77.03459033333333, "rental_uris": {"ios": "https://dc.lft.to/lastmile_qr_scan", "android": "https://dc.lft.to/lastmile_qr_scan"}}, {"name": "254543ba7121dd79a07ebde306bd8d43", "fusion_lat": 0.0, "type": "electric_bike", "lat": 38.9299705, "is_reserved": 0, "is_disabled": 0, "fusion_lon": 0.0, "bike_id": "254543ba7121dd79a07ebde306bd8d43", "lon": -77.02444416666667, "rental_uris": {"ios": "https://dc.lft.to/lastmile_qr_scan", "android": "https://dc.lft.to/lastmile_qr_scan"}}, {"name": "4d2916ccd4f3bc47d420a307051da0aa", "fusion_lat": 0.0, "type": "electric_scooter", "lat": 38.92125133333333, "is_reserved": 0, "is_disabled": 0, "fusion_lon": 0.0, "bike_id": "4d2916ccd4f3bc47d420a307051da0aa", "lon": -77.04578016666666, "rental_uris": {"ios": "https://dc.lft.to/lastmile_qr_scan", "android": "https://dc.lft.to/lastmile_qr_scan"}}, {"name": "eb69b9063c01dd3c5822adce03709230", "fusion_lat": 0.0, "type": "electric_scooter", "lat": 38.906515666666664, "is_reserved": 0, "is_disabled": 0, "fusion_lon": 0.0, "bike_id": "eb69b9063c01dd3c5822adce03709230", "lon": -76.9837055, "rental_uris": {"ios": "https://dc.lft.to/lastmile_qr_scan", "android": "https://dc.lft.to/lastmile_qr_scan"}}, {"name": "bb1e3ff9501debcb5d4d1a6037cdb276", "fusion_lat": 0.0, "type": "electric_scooter", "lat": 38.886112, "is_reserved": 0, "is_disabled": 0, "fusion_lon": 0.0, "bike_id": "bb1e3ff9501debcb5d4d1a6037cdb276", "lon": -76.97813583333334, "rental_uris": {"ios": "https://dc.lft.to/lastmile_qr_scan", "android": "https://dc.lft.to/lastmile_qr_scan"}}, {"name": "f0892131e6f78fe480c8e8d08ce37af6", "fusion_lat": 0.0, "type": "electric_scooter", "lat": 38.9206045, "is_reserved": 0, "is_disabled": 0, "fusion_lon": 0.0, "bike_id": "f0892131e6f78fe480c8e8d08ce37af6", "lon": -77.02937716666666, "rental_uris": {"ios": "https://dc.lft.to/lastmile_qr_scan", "android": "https://dc.lft.to/lastmile_qr_scan"}}, {"name": "238d1ce9031416c84db8af5086852c99", "fusion_lat": 0.0, "type": "electric_scooter", "lat": 38.887418, "is_reserved": 0, "is_disabled": 0, "fusion_lon": 0.0, "bike_id": "238d1ce9031416c84db8af5086852c99", "lon": -77.01530916666667, "rental_uris": {"ios": "https://dc.lft.to/lastmile_qr_scan", "android": "https://dc.lft.to/lastmile_qr_scan"}}, {"name": "bcddd3bce29809601043fa3d6c3e25f0", "fusion_lat": 0.0, "type": "electric_scooter", "lat": 38.900316, "is_reserved": 0, "is_disabled": 0, "fusion_lon": 0.0, "bike_id": "bcddd3bce29809601043fa3d6c3e25f0", "lon": -76.9998875, "rental_uris": {"ios": "https://dc.lft.to/lastmile_qr_scan", "android": "https://dc.lft.to/lastmile_qr_scan"}}, {"name": "30bef572adf3c59865fdefab65a46450", "fusion_lat": 0.0, "type": "electric_scooter", "lat": 38.9319485, "is_reserved": 0, "is_disabled": 0, "fusion_lon": 0.0, "bike_id": "30bef572adf3c59865fdefab65a46450", "lon": -77.02762, "rental_uris": {"ios": "https://dc.lft.to/lastmile_qr_scan", "android": "https://dc.lft.to/lastmile_qr_scan"}}, {"name": "fb6a9acb742a7ae710f1b986bac92610", "fusion_lat": 0.0, "type": "electric_scooter", "lat": 38.916087, "is_reserved": 0, "is_disabled": 0, "fusion_lon": 0.0, "bike_id": "fb6a9acb742a7ae710f1b986bac92610", "lon": -77.03191133333333, "rental_uris": {"ios": "https://dc.lft.to/lastmile_qr_scan", "android": "https://dc.lft.to/lastmile_qr_scan"}}, {"name": "7de27b0600caf33e0dfb185172c4b03f", "fusion_lat": 0.0, "type": "electric_scooter", "lat": 38.912572833333336, "is_reserved": 0, "is_disabled": 0, "fusion_lon": 0.0, "bike_id": "7de27b0600caf33e0dfb185172c4b03f", "lon": -77.0077405, "rental_uris": {"ios": "https://dc.lft.to/lastmile_qr_scan", "android": "https://dc.lft.to/lastmile_qr_scan"}}, {"name": "f07b7b648fbd85d238f3c0aa55c823eb", "fusion_lat": 0.0, "type": "electric_scooter", "lat": 38.93372183333334, "is_reserved": 0, "is_disabled": 0, "fusion_lon": 0.0, "bike_id": "f07b7b648fbd85d238f3c0aa55c823eb", "lon": -77.05720433333333, "rental_uris": {"ios": "https://dc.lft.to/lastmile_qr_scan", "android": "https://dc.lft.to/lastmile_qr_scan"}}, {"name": "f2f5271c8d94adc804cbf056c18e2c42", "fusion_lat": 0.0, "type": "electric_bike", "lat": 38.896817166666665, "is_reserved": 0, "is_disabled": 0, "fusion_lon": 0.0, "bike_id": "f2f5271c8d94adc804cbf056c18e2c42", "lon": -76.9406505, "rental_uris": {"ios": "https://dc.lft.to/lastmile_qr_scan", "android": "https://dc.lft.to/lastmile_qr_scan"}}, {"name": "31d86b3eb132db186312074121219bfa", "fusion_lat": 0.0, "type": "electric_bike", "lat": 38.8983495, "is_reserved": 0, "is_disabled": 0, "fusion_lon": 0.0, "bike_id": "31d86b3eb132db186312074121219bfa", "lon": -77.11802383333334, "rental_uris": {"ios": "https://dc.lft.to/lastmile_qr_scan", "android": "https://dc.lft.to/lastmile_qr_scan"}}, {"name": "0a3679a062ad77933fb46f9a0216bab2", "fusion_lat": 0.0, "type": "electric_scooter", "lat": 38.96802616666667, "is_reserved": 0, "is_disabled": 0, "fusion_lon": 0.0, "bike_id": "0a3679a062ad77933fb46f9a0216bab2", "lon": -77.02110566666667, "rental_uris": {"ios": "https://dc.lft.to/lastmile_qr_scan", "android": "https://dc.lft.to/lastmile_qr_scan"}}, {"name": "51e1d38119225d647d2e7c37e447a391", "fusion_lat": 0.0, "type": "electric_bike", "lat": 38.88639166666667, "is_reserved": 0, "is_disabled": 0, "fusion_lon": 0.0, "bike_id": "51e1d38119225d647d2e7c37e447a391", "lon": -76.95459416666667, "rental_uris": {"ios": "https://dc.lft.to/lastmile_qr_scan", "android": "https://dc.lft.to/lastmile_qr_scan"}}, {"name": "2f157539dbe2b46226ba3d572e97c632", "fusion_lat": 0.0, "type": "electric_scooter", "lat": 38.9236525, "is_reserved": 0, "is_disabled": 0, "fusion_lon": 0.0, "bike_id": "2f157539dbe2b46226ba3d572e97c632", "lon": -77.01911266666667, "rental_uris": {"ios": "https://dc.lft.to/lastmile_qr_scan", "android": "https://dc.lft.to/lastmile_qr_scan"}}, {"name": "8dccec3222aa761091954491a32bd2f1", "fusion_lat": 0.0, "type": "electric_scooter", "lat": 38.901404166666666, "is_reserved": 0, "is_disabled": 0, "fusion_lon": 0.0, "bike_id": "8dccec3222aa761091954491a32bd2f1", "lon": -76.99120516666666, "rental_uris": {"ios": "https://dc.lft.to/lastmile_qr_scan", "android": "https://dc.lft.to/lastmile_qr_scan"}}, {"name": "819cf1f40fe6a80508f05e79a32fa2ec", "fusion_lat": 0.0, "type": "electric_bike", "lat": 38.841528333333336, "is_reserved": 0, "is_disabled": 0, "fusion_lon": 0.0, "bike_id": "819cf1f40fe6a80508f05e79a32fa2ec", "lon": -77.08892, "rental_uris": {"ios": "https://dc.lft.to/lastmile_qr_scan", "android": "https://dc.lft.to/lastmile_qr_scan"}}, {"name": "f8ea0470d529d118f913a3595fb42008", "fusion_lat": 0.0, "type": "electric_scooter", "lat": 38.87940183333333, "is_reserved": 0, "is_disabled": 0, "fusion_lon": 0.0, "bike_id": "f8ea0470d529d118f913a3595fb42008", "lon": -77.008181, "rental_uris": {"ios": "https://dc.lft.to/lastmile_qr_scan", "android": "https://dc.lft.to/lastmile_qr_scan"}}, {"name": "cdc76bf663bf4a31bc7480c2dfb80786", "fusion_lat": 0.0, "type": "electric_scooter", "lat": 38.858070833333336, "is_reserved": 0, "is_disabled": 0, "fusion_lon": 0.0, "bike_id": "cdc76bf663bf4a31bc7480c2dfb80786", "lon": -76.98655033333333, "rental_uris": {"ios": "https://dc.lft.to/lastmile_qr_scan", "android": "https://dc.lft.to/lastmile_qr_scan"}}, {"name": "ec5ba40aedd98385972b7a4d6899f1e0", "fusion_lat": 0.0, "type": "electric_scooter", "lat": 38.90061216666667, "is_reserved": 0, "is_disabled": 0, "fusion_lon": 0.0, "bike_id": "ec5ba40aedd98385972b7a4d6899f1e0", "lon": -77.01385116666667, "rental_uris": {"ios": "https://dc.lft.to/lastmile_qr_scan", "android": "https://dc.lft.to/lastmile_qr_scan"}}, {"name": "9d60f9c6bb10cd4ae97074b456d1ffb3", "fusion_lat": 0.0, "type": "electric_bike", "lat": 39.05204966666667, "is_reserved": 0, "is_disabled": 0, "fusion_lon": 0.0, "bike_id": "9d60f9c6bb10cd4ae97074b456d1ffb3", "lon": -77.10909166666667, "rental_uris": {"ios": "https://dc.lft.to/lastmile_qr_scan", "android": "https://dc.lft.to/lastmile_qr_scan"}}, {"name": "b49d498f933c77e9a22d010984c9b461", "fusion_lat": 0.0, "type": "electric_bike", "lat": 38.876778, "is_reserved": 0, "is_disabled": 0, "fusion_lon": 0.0, "bike_id": "b49d498f933c77e9a22d010984c9b461", "lon": -77.00054416666667, "rental_uris": {"ios": "https://dc.lft.to/lastmile_qr_scan", "android": "https://dc.lft.to/lastmile_qr_scan"}}, {"name": "82f1e207a9500203018c877aaeb11cf5", "fusion_lat": 0.0, "type": "electric_scooter", "lat": 38.89625216666666, "is_reserved": 0, "is_disabled": 0, "fusion_lon": 0.0, "bike_id": "82f1e207a9500203018c877aaeb11cf5", "lon": -77.02674933333333, "rental_uris": {"ios": "https://dc.lft.to/lastmile_qr_scan", "android": "https://dc.lft.to/lastmile_qr_scan"}}, {"name": "a58e03003a30998875f0643351705bf9", "fusion_lat": 0.0, "type": "electric_scooter", "lat": 38.90844, "is_reserved": 0, "is_disabled": 0, "fusion_lon": 0.0, "bike_id": "a58e03003a30998875f0643351705bf9", "lon": -77.054892, "rental_uris": {"ios": "https://dc.lft.to/lastmile_qr_scan", "android": "https://dc.lft.to/lastmile_qr_scan"}}, {"name": "77a7bc3a715f9415fd5f238d21295b35", "fusion_lat": 0.0, "type": "electric_scooter", "lat": 38.898814, "is_reserved": 0, "is_disabled": 0, "fusion_lon": 0.0, "bike_id": "77a7bc3a715f9415fd5f238d21295b35", "lon": -77.03929516666666, "rental_uris": {"ios": "https://dc.lft.to/lastmile_qr_scan", "android": "https://dc.lft.to/lastmile_qr_scan"}}, {"name": "78523f8e4abf0db5e03f2bb9b8ce559a", "fusion_lat": 0.0, "type": "electric_scooter", "lat": 38.91188233333333, "is_reserved": 0, "is_disabled": 0, "fusion_lon": 0.0, "bike_id": "78523f8e4abf0db5e03f2bb9b8ce559a", "lon": -77.03140116666667, "rental_uris": {"ios": "https://dc.lft.to/lastmile_qr_scan", "android": "https://dc.lft.to/lastmile_qr_scan"}}, {"name": "0afa726af475b2d3435e6cb2cd362e37", "fusion_lat": 0.0, "type": "electric_scooter", "lat": 38.899268666666664, "is_reserved": 0, "is_disabled": 0, "fusion_lon": 0.0, "bike_id": "0afa726af475b2d3435e6cb2cd362e37", "lon": -77.03227883333334, "rental_uris": {"ios": "https://dc.lft.to/lastmile_qr_scan", "android": "https://dc.lft.to/lastmile_qr_scan"}}, {"name": "143b7e2a9b22af785ca3b5a2d4bcaba1", "fusion_lat": 0.0, "type": "electric_scooter", "lat": 38.906523166666666, "is_reserved": 0, "is_disabled": 0, "fusion_lon": 0.0, "bike_id": "143b7e2a9b22af785ca3b5a2d4bcaba1", "lon": -77.053127, "rental_uris": {"ios": "https://dc.lft.to/lastmile_qr_scan", "android": "https://dc.lft.to/lastmile_qr_scan"}}, {"name": "7fb0c2b8b1b4f18ac81688547444b5f0", "fusion_lat": 0.0, "type": "electric_scooter", "lat": 38.90725583333333, "is_reserved": 0, "is_disabled": 0, "fusion_lon": 0.0, "bike_id": "7fb0c2b8b1b4f18ac81688547444b5f0", "lon": -77.0061435, "rental_uris": {"ios": "https://dc.lft.to/lastmile_qr_scan", "android": "https://dc.lft.to/lastmile_qr_scan"}}, {"name": "d35c71525d345a0527c284624c676328", "fusion_lat": 0.0, "type": "electric_scooter", "lat": 38.92664116666667, "is_reserved": 0, "is_disabled": 0, "fusion_lon": 0.0, "bike_id": "d35c71525d345a0527c284624c676328", "lon": -76.99541133333334, "rental_uris": {"ios": "https://dc.lft.to/lastmile_qr_scan", "android": "https://dc.lft.to/lastmile_qr_scan"}}, {"name": "d8c349c723e875fae92db38557192aaa", "fusion_lat": 0.0, "type": "electric_scooter", "lat": 38.89850716666667, "is_reserved": 0, "is_disabled": 0, "fusion_lon": 0.0, "bike_id": "d8c349c723e875fae92db38557192aaa", "lon": -77.016162, "rental_uris": {"ios": "https://dc.lft.to/lastmile_qr_scan", "android": "https://dc.lft.to/lastmile_qr_scan"}}, {"name": "37b9d853bc2521a5c82719689084bfa0", "fusion_lat": 0.0, "type": "electric_scooter", "lat": 38.91831416666667, "is_reserved": 0, "is_disabled": 0, "fusion_lon": 0.0, "bike_id": "37b9d853bc2521a5c82719689084bfa0", "lon": -77.02300233333334, "rental_uris": {"ios": "https://dc.lft.to/lastmile_qr_scan", "android": "https://dc.lft.to/lastmile_qr_scan"}}, {"name": "090c0fe13dca24dda6bcc1d87d5e480b", "fusion_lat": 0.0, "type": "electric_scooter", "lat": 38.88056683333333, "is_reserved": 0, "is_disabled": 0, "fusion_lon": 0.0, "bike_id": "090c0fe13dca24dda6bcc1d87d5e480b", "lon": -77.0132845, "rental_uris": {"ios": "https://dc.lft.to/lastmile_qr_scan", "android": "https://dc.lft.to/lastmile_qr_scan"}}, {"name": "1245470f34432351c1eaf776b943a4a0", "fusion_lat": 0.0, "type": "electric_scooter", "lat": 38.9057965, "is_reserved": 0, "is_disabled": 0, "fusion_lon": 0.0, "bike_id": "1245470f34432351c1eaf776b943a4a0", "lon": -77.00708033333333, "rental_uris": {"ios": "https://dc.lft.to/lastmile_qr_scan", "android": "https://dc.lft.to/lastmile_qr_scan"}}, {"name": "c9c7828b09b0b7140596ced1d94efa98", "fusion_lat": 0.0, "type": "electric_bike", "lat": 38.876007333333334, "is_reserved": 0, "is_disabled": 0, "fusion_lon": 0.0, "bike_id": "c9c7828b09b0b7140596ced1d94efa98", "lon": -77.00083583333333, "rental_uris": {"ios": "https://dc.lft.to/lastmile_qr_scan", "android": "https://dc.lft.to/lastmile_qr_scan"}}, {"name": "c6df351625ac84bef24c313da2984407", "fusion_lat": 0.0, "type": "electric_scooter", "lat": 38.92068483333333, "is_reserved": 0, "is_disabled": 0, "fusion_lon": 0.0, "bike_id": "c6df351625ac84bef24c313da2984407", "lon": -76.99851383333333, "rental_uris": {"ios": "https://dc.lft.to/lastmile_qr_scan", "android": "https://dc.lft.to/lastmile_qr_scan"}}, {"name": "c80fbb15aee430b4f69c7e54264ff5d9", "fusion_lat": 0.0, "type": "electric_scooter", "lat": 38.903619, "is_reserved": 0, "is_disabled": 0, "fusion_lon": 0.0, "bike_id": "c80fbb15aee430b4f69c7e54264ff5d9", "lon": -77.03540816666667, "rental_uris": {"ios": "https://dc.lft.to/lastmile_qr_scan", "android": "https://dc.lft.to/lastmile_qr_scan"}}, {"name": "86316a0a4021fdd3d804a4163b022655", "fusion_lat": 0.0, "type": "electric_scooter", "lat": 38.89976983333333, "is_reserved": 0, "is_disabled": 0, "fusion_lon": 0.0, "bike_id": "86316a0a4021fdd3d804a4163b022655", "lon": -77.05529333333334, "rental_uris": {"ios": "https://dc.lft.to/lastmile_qr_scan", "android": "https://dc.lft.to/lastmile_qr_scan"}}, {"name": "65f72dfb2c29f9a2a914072de91e2381", "fusion_lat": 0.0, "type": "electric_scooter", "lat": 38.911321, "is_reserved": 0, "is_disabled": 0, "fusion_lon": 0.0, "bike_id": "65f72dfb2c29f9a2a914072de91e2381", "lon": -77.036596, "rental_uris": {"ios": "https://dc.lft.to/lastmile_qr_scan", "android": "https://dc.lft.to/lastmile_qr_scan"}}, {"name": "d08d4ec7b7307a92c0b67dddd1fa5f22", "fusion_lat": 0.0, "type": "electric_scooter", "lat": 38.8919895, "is_reserved": 0, "is_disabled": 0, "fusion_lon": 0.0, "bike_id": "d08d4ec7b7307a92c0b67dddd1fa5f22", "lon": -77.00293983333333, "rental_uris": {"ios": "https://dc.lft.to/lastmile_qr_scan", "android": "https://dc.lft.to/lastmile_qr_scan"}}, {"name": "4995bdad699133207ae9951766c08682", "fusion_lat": 0.0, "type": "electric_scooter", "lat": 38.909558833333335, "is_reserved": 0, "is_disabled": 0, "fusion_lon": 0.0, "bike_id": "4995bdad699133207ae9951766c08682", "lon": -77.023765, "rental_uris": {"ios": "https://dc.lft.to/lastmile_qr_scan", "android": "https://dc.lft.to/lastmile_qr_scan"}}, {"name": "8e2461fdb79b5a6c090797d53b71559a", "fusion_lat": 0.0, "type": "electric_scooter", "lat": 38.8980515, "is_reserved": 0, "is_disabled": 0, "fusion_lon": 0.0, "bike_id": "8e2461fdb79b5a6c090797d53b71559a", "lon": -76.9949275, "rental_uris": {"ios": "https://dc.lft.to/lastmile_qr_scan", "android": "https://dc.lft.to/lastmile_qr_scan"}}, {"name": "74a619cf61f8db8c467b4f4b728ee047", "fusion_lat": 0.0, "type": "electric_bike", "lat": 38.9377335, "is_reserved": 0, "is_disabled": 0, "fusion_lon": 0.0, "bike_id": "74a619cf61f8db8c467b4f4b728ee047", "lon": -77.01911766666667, "rental_uris": {"ios": "https://dc.lft.to/lastmile_qr_scan", "android": "https://dc.lft.to/lastmile_qr_scan"}}, {"name": "956370709f516b4f7d94de280b7afa78", "fusion_lat": 0.0, "type": "electric_scooter", "lat": 38.889668, "is_reserved": 0, "is_disabled": 0, "fusion_lon": 0.0, "bike_id": "956370709f516b4f7d94de280b7afa78", "lon": -76.927738, "rental_uris": {"ios": "https://dc.lft.to/lastmile_qr_scan", "android": "https://dc.lft.to/lastmile_qr_scan"}}, {"name": "8bc3c0f0bdddfcf444d4eb0b6d748144", "fusion_lat": 0.0, "type": "electric_scooter", "lat": 38.923459666666666, "is_reserved": 0, "is_disabled": 0, "fusion_lon": 0.0, "bike_id": "8bc3c0f0bdddfcf444d4eb0b6d748144", "lon": -77.05099, "rental_uris": {"ios": "https://dc.lft.to/lastmile_qr_scan", "android": "https://dc.lft.to/lastmile_qr_scan"}}, {"name": "c556f0c78c49cece7f16a7de2a6663b3", "fusion_lat": 0.0, "type": "electric_scooter", "lat": 38.876459, "is_reserved": 0, "is_disabled": 0, "fusion_lon": 0.0, "bike_id": "c556f0c78c49cece7f16a7de2a6663b3", "lon": -76.96506533333333, "rental_uris": {"ios": "https://dc.lft.to/lastmile_qr_scan", "android": "https://dc.lft.to/lastmile_qr_scan"}}, {"name": "24ea81d2bc34a1a11a8aef69847cc80c", "fusion_lat": 0.0, "type": "electric_scooter", "lat": 38.9127545, "is_reserved": 0, "is_disabled": 0, "fusion_lon": 0.0, "bike_id": "24ea81d2bc34a1a11a8aef69847cc80c", "lon": -77.01613633333334, "rental_uris": {"ios": "https://dc.lft.to/lastmile_qr_scan", "android": "https://dc.lft.to/lastmile_qr_scan"}}, {"name": "46f7966813bd64280c03930ed2d58395", "fusion_lat": 0.0, "type": "electric_scooter", "lat": 38.93391783333333, "is_reserved": 0, "is_disabled": 0, "fusion_lon": 0.0, "bike_id": "46f7966813bd64280c03930ed2d58395", "lon": -77.03157066666667, "rental_uris": {"ios": "https://dc.lft.to/lastmile_qr_scan", "android": "https://dc.lft.to/lastmile_qr_scan"}}, {"name": "eba6f81c1b68a4b1e72f03eda741f254", "fusion_lat": 0.0, "type": "electric_scooter", "lat": 38.903267166666666, "is_reserved": 0, "is_disabled": 0, "fusion_lon": 0.0, "bike_id": "eba6f81c1b68a4b1e72f03eda741f254", "lon": -77.0385605, "rental_uris": {"ios": "https://dc.lft.to/lastmile_qr_scan", "android": "https://dc.lft.to/lastmile_qr_scan"}}, {"name": "279abc18feaa77440318a8f06357f6d2", "fusion_lat": 0.0, "type": "electric_scooter", "lat": 38.90041083333333, "is_reserved": 0, "is_disabled": 0, "fusion_lon": 0.0, "bike_id": "279abc18feaa77440318a8f06357f6d2", "lon": -76.919204, "rental_uris": {"ios": "https://dc.lft.to/lastmile_qr_scan", "android": "https://dc.lft.to/lastmile_qr_scan"}}, {"name": "f5e384e189bf21b935668c5d901cdc64", "fusion_lat": 0.0, "type": "electric_scooter", "lat": 38.90571683333334, "is_reserved": 0, "is_disabled": 0, "fusion_lon": 0.0, "bike_id": "f5e384e189bf21b935668c5d901cdc64", "lon": -77.0218475, "rental_uris": {"ios": "https://dc.lft.to/lastmile_qr_scan", "android": "https://dc.lft.to/lastmile_qr_scan"}}, {"name": "93d84110984bb8e4962684f7af38cc90", "fusion_lat": 0.0, "type": "electric_scooter", "lat": 38.920075, "is_reserved": 0, "is_disabled": 0, "fusion_lon": 0.0, "bike_id": "93d84110984bb8e4962684f7af38cc90", "lon": -76.98499216666667, "rental_uris": {"ios": "https://dc.lft.to/lastmile_qr_scan", "android": "https://dc.lft.to/lastmile_qr_scan"}}, {"name": "f0d8b71371ace2c814d0db48df67d398", "fusion_lat": 0.0, "type": "electric_scooter", "lat": 38.92537183333334, "is_reserved": 0, "is_disabled": 0, "fusion_lon": 0.0, "bike_id": "f0d8b71371ace2c814d0db48df67d398", "lon": -77.02633033333333, "rental_uris": {"ios": "https://dc.lft.to/lastmile_qr_scan", "android": "https://dc.lft.to/lastmile_qr_scan"}}, {"name": "0a2021b4a00cbb26996f9c28c1bc6614", "fusion_lat": 0.0, "type": "electric_scooter", "lat": 38.9161405, "is_reserved": 0, "is_disabled": 0, "fusion_lon": 0.0, "bike_id": "0a2021b4a00cbb26996f9c28c1bc6614", "lon": -77.022996, "rental_uris": {"ios": "https://dc.lft.to/lastmile_qr_scan", "android": "https://dc.lft.to/lastmile_qr_scan"}}, {"name": "55c83147fe8aec113a9c25a185e88212", "fusion_lat": 0.0, "type": "electric_scooter", "lat": 38.91266233333333, "is_reserved": 0, "is_disabled": 0, "fusion_lon": 0.0, "bike_id": "55c83147fe8aec113a9c25a185e88212", "lon": -77.041528, "rental_uris": {"ios": "https://dc.lft.to/lastmile_qr_scan", "android": "https://dc.lft.to/lastmile_qr_scan"}}, {"name": "52c0c73adc984ee004efdf38775b1b76", "fusion_lat": 0.0, "type": "electric_bike", "lat": 38.85061783333333, "is_reserved": 0, "is_disabled": 0, "fusion_lon": 0.0, "bike_id": "52c0c73adc984ee004efdf38775b1b76", "lon": -76.97327716666666, "rental_uris": {"ios": "https://dc.lft.to/lastmile_qr_scan", "android": "https://dc.lft.to/lastmile_qr_scan"}}, {"name": "64b35c9a1224f1c0844ae241a5699c58", "fusion_lat": 0.0, "type": "electric_bike", "lat": 38.9235545, "is_reserved": 0, "is_disabled": 0, "fusion_lon": 0.0, "bike_id": "64b35c9a1224f1c0844ae241a5699c58", "lon": -76.97137916666667, "rental_uris": {"ios": "https://dc.lft.to/lastmile_qr_scan", "android": "https://dc.lft.to/lastmile_qr_scan"}}, {"name": "6471d80f8482d156916ef062a30b9efe", "fusion_lat": 0.0, "type": "electric_scooter", "lat": 38.89227366666667, "is_reserved": 0, "is_disabled": 0, "fusion_lon": 0.0, "bike_id": "6471d80f8482d156916ef062a30b9efe", "lon": -77.0464125, "rental_uris": {"ios": "https://dc.lft.to/lastmile_qr_scan", "android": "https://dc.lft.to/lastmile_qr_scan"}}, {"name": "861f2fe9c72f968f543a51d5a964e7b1", "fusion_lat": 0.0, "type": "electric_bike", "lat": 38.97343883333333, "is_reserved": 0, "is_disabled": 0, "fusion_lon": 0.0, "bike_id": "861f2fe9c72f968f543a51d5a964e7b1", "lon": -77.1004265, "rental_uris": {"ios": "https://dc.lft.to/lastmile_qr_scan", "android": "https://dc.lft.to/lastmile_qr_scan"}}, {"name": "e5de51bf9d68f4c660cdea0637ed9c7e", "fusion_lat": 0.0, "type": "electric_scooter", "lat": 38.9455015, "is_reserved": 0, "is_disabled": 0, "fusion_lon": 0.0, "bike_id": "e5de51bf9d68f4c660cdea0637ed9c7e", "lon": -77.04237366666666, "rental_uris": {"ios": "https://dc.lft.to/lastmile_qr_scan", "android": "https://dc.lft.to/lastmile_qr_scan"}}, {"name": "a4ba55f1f458c99240d1ab9c024f2360", "fusion_lat": 0.0, "type": "electric_scooter", "lat": 38.89611283333333, "is_reserved": 0, "is_disabled": 0, "fusion_lon": 0.0, "bike_id": "a4ba55f1f458c99240d1ab9c024f2360", "lon": -77.04685483333333, "rental_uris": {"ios": "https://dc.lft.to/lastmile_qr_scan", "android": "https://dc.lft.to/lastmile_qr_scan"}}, {"name": "46632e6c0708fdb0ffc61eb928b324e0", "fusion_lat": 0.0, "type": "electric_scooter", "lat": 38.9173835, "is_reserved": 0, "is_disabled": 0, "fusion_lon": 0.0, "bike_id": "46632e6c0708fdb0ffc61eb928b324e0", "lon": -77.041578, "rental_uris": {"ios": "https://dc.lft.to/lastmile_qr_scan", "android": "https://dc.lft.to/lastmile_qr_scan"}}, {"name": "96dfc22b09850e7a4eba43da44b0c35a", "fusion_lat": 0.0, "type": "electric_scooter", "lat": 38.92345066666667, "is_reserved": 0, "is_disabled": 0, "fusion_lon": 0.0, "bike_id": "96dfc22b09850e7a4eba43da44b0c35a", "lon": -77.050943, "rental_uris": {"ios": "https://dc.lft.to/lastmile_qr_scan", "android": "https://dc.lft.to/lastmile_qr_scan"}}, {"name": "42e429d3bb8a537b33b650472ad451c3", "fusion_lat": 0.0, "type": "electric_scooter", "lat": 38.874823166666665, "is_reserved": 0, "is_disabled": 0, "fusion_lon": 0.0, "bike_id": "42e429d3bb8a537b33b650472ad451c3", "lon": -77.00116966666667, "rental_uris": {"ios": "https://dc.lft.to/lastmile_qr_scan", "android": "https://dc.lft.to/lastmile_qr_scan"}}, {"name": "fc731ed86b4f5a86e10a545d15ff08d3", "fusion_lat": 0.0, "type": "electric_scooter", "lat": 38.91361283333333, "is_reserved": 0, "is_disabled": 0, "fusion_lon": 0.0, "bike_id": "fc731ed86b4f5a86e10a545d15ff08d3", "lon": -77.04564016666667, "rental_uris": {"ios": "https://dc.lft.to/lastmile_qr_scan", "android": "https://dc.lft.to/lastmile_qr_scan"}}, {"name": "43ddf15a097afdf99eb4315c814d06e6", "fusion_lat": 0.0, "type": "electric_scooter", "lat": 38.902432, "is_reserved": 0, "is_disabled": 0, "fusion_lon": 0.0, "bike_id": "43ddf15a097afdf99eb4315c814d06e6", "lon": -77.0019865, "rental_uris": {"ios": "https://dc.lft.to/lastmile_qr_scan", "android": "https://dc.lft.to/lastmile_qr_scan"}}, {"name": "da87d6fe0cbc777adc72e9cd69bf1584", "fusion_lat": 0.0, "type": "electric_scooter", "lat": 38.924878166666666, "is_reserved": 0, "is_disabled": 0, "fusion_lon": 0.0, "bike_id": "da87d6fe0cbc777adc72e9cd69bf1584", "lon": -77.0521245, "rental_uris": {"ios": "https://dc.lft.to/lastmile_qr_scan", "android": "https://dc.lft.to/lastmile_qr_scan"}}, {"name": "471d64358a8f2cabba52a0264014a882", "fusion_lat": 0.0, "type": "electric_scooter", "lat": 38.9617625, "is_reserved": 0, "is_disabled": 0, "fusion_lon": 0.0, "bike_id": "471d64358a8f2cabba52a0264014a882", "lon": -77.03225833333333, "rental_uris": {"ios": "https://dc.lft.to/lastmile_qr_scan", "android": "https://dc.lft.to/lastmile_qr_scan"}}, {"name": "e7cdbf04523bee9cca97d3596fa1fb8f", "fusion_lat": 0.0, "type": "electric_scooter", "lat": 38.910453333333336, "is_reserved": 0, "is_disabled": 0, "fusion_lon": 0.0, "bike_id": "e7cdbf04523bee9cca97d3596fa1fb8f", "lon": -77.04371566666667, "rental_uris": {"ios": "https://dc.lft.to/lastmile_qr_scan", "android": "https://dc.lft.to/lastmile_qr_scan"}}, {"name": "595f829dbfab8f5af3ecc5f044f4e026", "fusion_lat": 0.0, "type": "electric_bike", "lat": 38.88345833333333, "is_reserved": 0, "is_disabled": 0, "fusion_lon": 0.0, "bike_id": "595f829dbfab8f5af3ecc5f044f4e026", "lon": -77.18298266666666, "rental_uris": {"ios": "https://dc.lft.to/lastmile_qr_scan", "android": "https://dc.lft.to/lastmile_qr_scan"}}, {"name": "254f5c0d9c05e872536cc7fea51ecd59", "fusion_lat": 0.0, "type": "electric_scooter", "lat": 38.900281, "is_reserved": 0, "is_disabled": 0, "fusion_lon": 0.0, "bike_id": "254f5c0d9c05e872536cc7fea51ecd59", "lon": -76.99861083333333, "rental_uris": {"ios": "https://dc.lft.to/lastmile_qr_scan", "android": "https://dc.lft.to/lastmile_qr_scan"}}, {"name": "595b17412628b7215f785b0b3189df31", "fusion_lat": 0.0, "type": "electric_scooter", "lat": 38.885964666666666, "is_reserved": 0, "is_disabled": 0, "fusion_lon": 0.0, "bike_id": "595b17412628b7215f785b0b3189df31", "lon": -77.0219925, "rental_uris": {"ios": "https://dc.lft.to/lastmile_qr_scan", "android": "https://dc.lft.to/lastmile_qr_scan"}}, {"name": "8d98cee09ed3e8cecc935a02b80a807c", "fusion_lat": 0.0, "type": "electric_scooter", "lat": 38.898533666666665, "is_reserved": 0, "is_disabled": 0, "fusion_lon": 0.0, "bike_id": "8d98cee09ed3e8cecc935a02b80a807c", "lon": -77.01614883333333, "rental_uris": {"ios": "https://dc.lft.to/lastmile_qr_scan", "android": "https://dc.lft.to/lastmile_qr_scan"}}, {"name": "ed76af588f4c3d37cfcea544e07fcbb3", "fusion_lat": 0.0, "type": "electric_scooter", "lat": 38.9200695, "is_reserved": 0, "is_disabled": 0, "fusion_lon": 0.0, "bike_id": "ed76af588f4c3d37cfcea544e07fcbb3", "lon": -77.08195583333334, "rental_uris": {"ios": "https://dc.lft.to/lastmile_qr_scan", "android": "https://dc.lft.to/lastmile_qr_scan"}}, {"name": "8b7335344c14b88b8246c404d14f3f17", "fusion_lat": 0.0, "type": "electric_scooter", "lat": 38.927235, "is_reserved": 0, "is_disabled": 0, "fusion_lon": 0.0, "bike_id": "8b7335344c14b88b8246c404d14f3f17", "lon": -77.0714325, "rental_uris": {"ios": "https://dc.lft.to/lastmile_qr_scan", "android": "https://dc.lft.to/lastmile_qr_scan"}}, {"name": "afd073ef546df889e7d6605da1914056", "fusion_lat": 0.0, "type": "electric_scooter", "lat": 38.89371116666667, "is_reserved": 0, "is_disabled": 0, "fusion_lon": 0.0, "bike_id": "afd073ef546df889e7d6605da1914056", "lon": -76.95000433333334, "rental_uris": {"ios": "https://dc.lft.to/lastmile_qr_scan", "android": "https://dc.lft.to/lastmile_qr_scan"}}, {"name": "c820e57d3e80632f3978bc4dbabcbc02", "fusion_lat": 0.0, "type": "electric_scooter", "lat": 38.93412716666667, "is_reserved": 0, "is_disabled": 0, "fusion_lon": 0.0, "bike_id": "c820e57d3e80632f3978bc4dbabcbc02", "lon": -77.04183583333334, "rental_uris": {"ios": "https://dc.lft.to/lastmile_qr_scan", "android": "https://dc.lft.to/lastmile_qr_scan"}}, {"name": "2f6e071e2b2938d199c29d9def88065c", "fusion_lat": 0.0, "type": "electric_scooter", "lat": 38.907020333333335, "is_reserved": 0, "is_disabled": 0, "fusion_lon": 0.0, "bike_id": "2f6e071e2b2938d199c29d9def88065c", "lon": -77.0239985, "rental_uris": {"ios": "https://dc.lft.to/lastmile_qr_scan", "android": "https://dc.lft.to/lastmile_qr_scan"}}, {"name": "31fcb141365c0eb611db50ef9c6bdd32", "fusion_lat": 0.0, "type": "electric_scooter", "lat": 38.892212, "is_reserved": 0, "is_disabled": 0, "fusion_lon": 0.0, "bike_id": "31fcb141365c0eb611db50ef9c6bdd32", "lon": -77.01373066666666, "rental_uris": {"ios": "https://dc.lft.to/lastmile_qr_scan", "android": "https://dc.lft.to/lastmile_qr_scan"}}, {"name": "9983f0b34500027471f4169bcef11b69", "fusion_lat": 0.0, "type": "electric_scooter", "lat": 38.89629716666666, "is_reserved": 0, "is_disabled": 0, "fusion_lon": 0.0, "bike_id": "9983f0b34500027471f4169bcef11b69", "lon": -77.02821733333333, "rental_uris": {"ios": "https://dc.lft.to/lastmile_qr_scan", "android": "https://dc.lft.to/lastmile_qr_scan"}}, {"name": "09ed16a758d59d208388478a0948c829", "fusion_lat": 0.0, "type": "electric_bike", "lat": 38.86912916666667, "is_reserved": 0, "is_disabled": 0, "fusion_lon": 0.0, "bike_id": "09ed16a758d59d208388478a0948c829", "lon": -77.13180816666667, "rental_uris": {"ios": "https://dc.lft.to/lastmile_qr_scan", "android": "https://dc.lft.to/lastmile_qr_scan"}}, {"name": "20efb2e0dcc8408959a10529ab5463bc", "fusion_lat": 0.0, "type": "electric_scooter", "lat": 38.84426, "is_reserved": 0, "is_disabled": 0, "fusion_lon": 0.0, "bike_id": "20efb2e0dcc8408959a10529ab5463bc", "lon": -76.99779666666667, "rental_uris": {"ios": "https://dc.lft.to/lastmile_qr_scan", "android": "https://dc.lft.to/lastmile_qr_scan"}}, {"name": "8ff53c2d19ac62d4ec56c89e1a9d1723", "fusion_lat": 0.0, "type": "electric_scooter", "lat": 38.8960895, "is_reserved": 0, "is_disabled": 0, "fusion_lon": 0.0, "bike_id": "8ff53c2d19ac62d4ec56c89e1a9d1723", "lon": -77.0231925, "rental_uris": {"ios": "https://dc.lft.to/lastmile_qr_scan", "android": "https://dc.lft.to/lastmile_qr_scan"}}, {"name": "7be1982a23c91c9c6a3089f603830c89", "fusion_lat": 0.0, "type": "electric_bike", "lat": 38.90694216666667, "is_reserved": 0, "is_disabled": 0, "fusion_lon": 0.0, "bike_id": "7be1982a23c91c9c6a3089f603830c89", "lon": -77.03589683333334, "rental_uris": {"ios": "https://dc.lft.to/lastmile_qr_scan", "android": "https://dc.lft.to/lastmile_qr_scan"}}, {"name": "fe9ee4b8b735eb5c5ed9e206437a15d4", "fusion_lat": 0.0, "type": "electric_scooter", "lat": 38.89361316666667, "is_reserved": 0, "is_disabled": 0, "fusion_lon": 0.0, "bike_id": "fe9ee4b8b735eb5c5ed9e206437a15d4", "lon": -76.949837, "rental_uris": {"ios": "https://dc.lft.to/lastmile_qr_scan", "android": "https://dc.lft.to/lastmile_qr_scan"}}, {"name": "da96806c8894aa02499b3534bc047395", "fusion_lat": 0.0, "type": "electric_scooter", "lat": 38.91777916666667, "is_reserved": 0, "is_disabled": 0, "fusion_lon": 0.0, "bike_id": "da96806c8894aa02499b3534bc047395", "lon": -77.0270165, "rental_uris": {"ios": "https://dc.lft.to/lastmile_qr_scan", "android": "https://dc.lft.to/lastmile_qr_scan"}}, {"name": "3f8bf0d706d53bb5f283d4a06eb03202", "fusion_lat": 0.0, "type": "electric_bike", "lat": 38.834385, "is_reserved": 0, "is_disabled": 0, "fusion_lon": 0.0, "bike_id": "3f8bf0d706d53bb5f283d4a06eb03202", "lon": -77.00830716666667, "rental_uris": {"ios": "https://dc.lft.to/lastmile_qr_scan", "android": "https://dc.lft.to/lastmile_qr_scan"}}, {"name": "2e7f2cc25b2cf8849b1d3b5a7cc53282", "fusion_lat": 0.0, "type": "electric_scooter", "lat": 38.90050516666667, "is_reserved": 0, "is_disabled": 0, "fusion_lon": 0.0, "bike_id": "2e7f2cc25b2cf8849b1d3b5a7cc53282", "lon": -76.98827316666667, "rental_uris": {"ios": "https://dc.lft.to/lastmile_qr_scan", "android": "https://dc.lft.to/lastmile_qr_scan"}}, {"name": "d44e5da336d87a69c9514f1b8c7e2bc7", "fusion_lat": 0.0, "type": "electric_scooter", "lat": 38.91108216666667, "is_reserved": 0, "is_disabled": 0, "fusion_lon": 0.0, "bike_id": "d44e5da336d87a69c9514f1b8c7e2bc7", "lon": -77.039176, "rental_uris": {"ios": "https://dc.lft.to/lastmile_qr_scan", "android": "https://dc.lft.to/lastmile_qr_scan"}}, {"name": "84334bd9bdbf8b3bd93c484167fb186f", "fusion_lat": 0.0, "type": "electric_scooter", "lat": 38.93153066666667, "is_reserved": 0, "is_disabled": 0, "fusion_lon": 0.0, "bike_id": "84334bd9bdbf8b3bd93c484167fb186f", "lon": -77.0296625, "rental_uris": {"ios": "https://dc.lft.to/lastmile_qr_scan", "android": "https://dc.lft.to/lastmile_qr_scan"}}, {"name": "507e2f87240385d99aa51636832bbfb7", "fusion_lat": 0.0, "type": "electric_scooter", "lat": 38.895299, "is_reserved": 0, "is_disabled": 0, "fusion_lon": 0.0, "bike_id": "507e2f87240385d99aa51636832bbfb7", "lon": -77.01607183333333, "rental_uris": {"ios": "https://dc.lft.to/lastmile_qr_scan", "android": "https://dc.lft.to/lastmile_qr_scan"}}, {"name": "a670f45f2dc57d31f244ce547e5b32d3", "fusion_lat": 0.0, "type": "electric_scooter", "lat": 38.917178666666665, "is_reserved": 0, "is_disabled": 0, "fusion_lon": 0.0, "bike_id": "a670f45f2dc57d31f244ce547e5b32d3", "lon": -77.03549916666667, "rental_uris": {"ios": "https://dc.lft.to/lastmile_qr_scan", "android": "https://dc.lft.to/lastmile_qr_scan"}}, {"name": "ccdacf4b1792449d0c7ced5ab3d2b199", "fusion_lat": 0.0, "type": "electric_bike", "lat": 38.8587565, "is_reserved": 0, "is_disabled": 0, "fusion_lon": 0.0, "bike_id": "ccdacf4b1792449d0c7ced5ab3d2b199", "lon": -77.09557266666667, "rental_uris": {"ios": "https://dc.lft.to/lastmile_qr_scan", "android": "https://dc.lft.to/lastmile_qr_scan"}}, {"name": "6a32a33a9d9bc2d20686317d53d91b2d", "fusion_lat": 0.0, "type": "electric_scooter", "lat": 38.913596, "is_reserved": 0, "is_disabled": 0, "fusion_lon": 0.0, "bike_id": "6a32a33a9d9bc2d20686317d53d91b2d", "lon": -77.04167, "rental_uris": {"ios": "https://dc.lft.to/lastmile_qr_scan", "android": "https://dc.lft.to/lastmile_qr_scan"}}, {"name": "f52cce1eb0018f929954b6583e492ae2", "fusion_lat": 0.0, "type": "electric_scooter", "lat": 38.906818333333334, "is_reserved": 0, "is_disabled": 0, "fusion_lon": 0.0, "bike_id": "f52cce1eb0018f929954b6583e492ae2", "lon": -77.0488765, "rental_uris": {"ios": "https://dc.lft.to/lastmile_qr_scan", "android": "https://dc.lft.to/lastmile_qr_scan"}}, {"name": "d7ecfd445d607846fa2a66d1fe863149", "fusion_lat": 0.0, "type": "electric_scooter", "lat": 38.917725833333336, "is_reserved": 0, "is_disabled": 0, "fusion_lon": 0.0, "bike_id": "d7ecfd445d607846fa2a66d1fe863149", "lon": -77.04749216666667, "rental_uris": {"ios": "https://dc.lft.to/lastmile_qr_scan", "android": "https://dc.lft.to/lastmile_qr_scan"}}, {"name": "d9735b57d7460f20ef06394a13b29ebe", "fusion_lat": 0.0, "type": "electric_scooter", "lat": 38.91701066666667, "is_reserved": 0, "is_disabled": 0, "fusion_lon": 0.0, "bike_id": "d9735b57d7460f20ef06394a13b29ebe", "lon": -77.02891016666666, "rental_uris": {"ios": "https://dc.lft.to/lastmile_qr_scan", "android": "https://dc.lft.to/lastmile_qr_scan"}}, {"name": "36551d6041d922ab7a45e4cf7b5b5d83", "fusion_lat": 0.0, "type": "electric_bike", "lat": 38.852164333333334, "is_reserved": 0, "is_disabled": 0, "fusion_lon": 0.0, "bike_id": "36551d6041d922ab7a45e4cf7b5b5d83", "lon": -77.10124666666667, "rental_uris": {"ios": "https://dc.lft.to/lastmile_qr_scan", "android": "https://dc.lft.to/lastmile_qr_scan"}}, {"name": "fbaf0b2a9f92be2016f6e633b76c6d82", "fusion_lat": 0.0, "type": "electric_scooter", "lat": 38.878125833333335, "is_reserved": 0, "is_disabled": 0, "fusion_lon": 0.0, "bike_id": "fbaf0b2a9f92be2016f6e633b76c6d82", "lon": -77.00357983333333, "rental_uris": {"ios": "https://dc.lft.to/lastmile_qr_scan", "android": "https://dc.lft.to/lastmile_qr_scan"}}, {"name": "1ff0fb970d897c4ec7ab58f59fa15e23", "fusion_lat": 0.0, "type": "electric_scooter", "lat": 38.93199833333333, "is_reserved": 0, "is_disabled": 0, "fusion_lon": 0.0, "bike_id": "1ff0fb970d897c4ec7ab58f59fa15e23", "lon": -77.03653583333333, "rental_uris": {"ios": "https://dc.lft.to/lastmile_qr_scan", "android": "https://dc.lft.to/lastmile_qr_scan"}}, {"name": "2a597f552eef838d7ed5a8105bfa30e7", "fusion_lat": 0.0, "type": "electric_scooter", "lat": 38.929154833333335, "is_reserved": 0, "is_disabled": 0, "fusion_lon": 0.0, "bike_id": "2a597f552eef838d7ed5a8105bfa30e7", "lon": -77.01956066666666, "rental_uris": {"ios": "https://dc.lft.to/lastmile_qr_scan", "android": "https://dc.lft.to/lastmile_qr_scan"}}, {"name": "a1b3ca537c686d83b83a15c65de07b70", "fusion_lat": 0.0, "type": "electric_bike", "lat": 38.94797833333333, "is_reserved": 0, "is_disabled": 0, "fusion_lon": 0.0, "bike_id": "a1b3ca537c686d83b83a15c65de07b70", "lon": -77.021459, "rental_uris": {"ios": "https://dc.lft.to/lastmile_qr_scan", "android": "https://dc.lft.to/lastmile_qr_scan"}}, {"name": "b9736a0782684790f807be071d7678fa", "fusion_lat": 0.0, "type": "electric_scooter", "lat": 38.90656283333333, "is_reserved": 0, "is_disabled": 0, "fusion_lon": 0.0, "bike_id": "b9736a0782684790f807be071d7678fa", "lon": -77.00596, "rental_uris": {"ios": "https://dc.lft.to/lastmile_qr_scan", "android": "https://dc.lft.to/lastmile_qr_scan"}}, {"name": "9a0d92e8a28708d479449507fcb04247", "fusion_lat": 0.0, "type": "electric_scooter", "lat": 38.90845233333334, "is_reserved": 0, "is_disabled": 0, "fusion_lon": 0.0, "bike_id": "9a0d92e8a28708d479449507fcb04247", "lon": -77.03274466666667, "rental_uris": {"ios": "https://dc.lft.to/lastmile_qr_scan", "android": "https://dc.lft.to/lastmile_qr_scan"}}, {"name": "de3bb53276ee9afb0d3e95e8a528cc5d", "fusion_lat": 0.0, "type": "electric_bike", "lat": 38.94633316666667, "is_reserved": 0, "is_disabled": 0, "fusion_lon": 0.0, "bike_id": "de3bb53276ee9afb0d3e95e8a528cc5d", "lon": -77.0184205, "rental_uris": {"ios": "https://dc.lft.to/lastmile_qr_scan", "android": "https://dc.lft.to/lastmile_qr_scan"}}, {"name": "9e8a4285f0cef54aad65c5bb29160251", "fusion_lat": 0.0, "type": "electric_scooter", "lat": 38.9234495, "is_reserved": 0, "is_disabled": 0, "fusion_lon": 0.0, "bike_id": "9e8a4285f0cef54aad65c5bb29160251", "lon": -77.050954, "rental_uris": {"ios": "https://dc.lft.to/lastmile_qr_scan", "android": "https://dc.lft.to/lastmile_qr_scan"}}, {"name": "c1524ff7ed8b9046f7b46381fab6b3fd", "fusion_lat": 0.0, "type": "electric_scooter", "lat": 38.925674666666666, "is_reserved": 0, "is_disabled": 0, "fusion_lon": 0.0, "bike_id": "c1524ff7ed8b9046f7b46381fab6b3fd", "lon": -77.02842016666666, "rental_uris": {"ios": "https://dc.lft.to/lastmile_qr_scan", "android": "https://dc.lft.to/lastmile_qr_scan"}}, {"name": "f5a112b79299f4d8192d12303a7ec510", "fusion_lat": 0.0, "type": "electric_scooter", "lat": 38.90011966666667, "is_reserved": 0, "is_disabled": 0, "fusion_lon": 0.0, "bike_id": "f5a112b79299f4d8192d12303a7ec510", "lon": -77.0293515, "rental_uris": {"ios": "https://dc.lft.to/lastmile_qr_scan", "android": "https://dc.lft.to/lastmile_qr_scan"}}, {"name": "ed6dc83ccf72b78f4e67e23637441493", "fusion_lat": 0.0, "type": "electric_scooter", "lat": 38.90273333333333, "is_reserved": 0, "is_disabled": 0, "fusion_lon": 0.0, "bike_id": "ed6dc83ccf72b78f4e67e23637441493", "lon": -76.998556, "rental_uris": {"ios": "https://dc.lft.to/lastmile_qr_scan", "android": "https://dc.lft.to/lastmile_qr_scan"}}, {"name": "45c7eba89028eac55ebe3744b05cc6af", "fusion_lat": 0.0, "type": "electric_scooter", "lat": 38.905000333333334, "is_reserved": 0, "is_disabled": 0, "fusion_lon": 0.0, "bike_id": "45c7eba89028eac55ebe3744b05cc6af", "lon": -77.02823283333333, "rental_uris": {"ios": "https://dc.lft.to/lastmile_qr_scan", "android": "https://dc.lft.to/lastmile_qr_scan"}}, {"name": "3a153b042d2656905434aba02cf66479", "fusion_lat": 0.0, "type": "electric_scooter", "lat": 38.91991083333333, "is_reserved": 0, "is_disabled": 0, "fusion_lon": 0.0, "bike_id": "3a153b042d2656905434aba02cf66479", "lon": -77.03176466666666, "rental_uris": {"ios": "https://dc.lft.to/lastmile_qr_scan", "android": "https://dc.lft.to/lastmile_qr_scan"}}, {"name": "60f204b3f5093d7ac504e605557c173f", "fusion_lat": 0.0, "type": "electric_scooter", "lat": 38.90778133333333, "is_reserved": 0, "is_disabled": 0, "fusion_lon": 0.0, "bike_id": "60f204b3f5093d7ac504e605557c173f", "lon": -77.06938833333334, "rental_uris": {"ios": "https://dc.lft.to/lastmile_qr_scan", "android": "https://dc.lft.to/lastmile_qr_scan"}}, {"name": "8a3418aeb9bb88755277b1040463c853", "fusion_lat": 0.0, "type": "electric_scooter", "lat": 38.90144316666667, "is_reserved": 0, "is_disabled": 0, "fusion_lon": 0.0, "bike_id": "8a3418aeb9bb88755277b1040463c853", "lon": -77.02995016666667, "rental_uris": {"ios": "https://dc.lft.to/lastmile_qr_scan", "android": "https://dc.lft.to/lastmile_qr_scan"}}, {"name": "d6bfba9b8329d4aecd4b506d38508644", "fusion_lat": 0.0, "type": "electric_scooter", "lat": 38.9070955, "is_reserved": 0, "is_disabled": 0, "fusion_lon": 0.0, "bike_id": "d6bfba9b8329d4aecd4b506d38508644", "lon": -77.04163966666667, "rental_uris": {"ios": "https://dc.lft.to/lastmile_qr_scan", "android": "https://dc.lft.to/lastmile_qr_scan"}}, {"name": "eeb8629f56d02029568e631cc2c2d4e5", "fusion_lat": 0.0, "type": "electric_bike", "lat": 38.964963833333336, "is_reserved": 0, "is_disabled": 0, "fusion_lon": 0.0, "bike_id": "eeb8629f56d02029568e631cc2c2d4e5", "lon": -77.064939, "rental_uris": {"ios": "https://dc.lft.to/lastmile_qr_scan", "android": "https://dc.lft.to/lastmile_qr_scan"}}, {"name": "27e2ea9f810e294a0c41df88f7b705ac", "fusion_lat": 0.0, "type": "electric_scooter", "lat": 38.89794783333333, "is_reserved": 0, "is_disabled": 0, "fusion_lon": 0.0, "bike_id": "27e2ea9f810e294a0c41df88f7b705ac", "lon": -76.944151, "rental_uris": {"ios": "https://dc.lft.to/lastmile_qr_scan", "android": "https://dc.lft.to/lastmile_qr_scan"}}, {"name": "fba400737dbf453622f96ef6417bc12a", "fusion_lat": 0.0, "type": "electric_scooter", "lat": 38.9123825, "is_reserved": 0, "is_disabled": 0, "fusion_lon": 0.0, "bike_id": "fba400737dbf453622f96ef6417bc12a", "lon": -77.00919816666666, "rental_uris": {"ios": "https://dc.lft.to/lastmile_qr_scan", "android": "https://dc.lft.to/lastmile_qr_scan"}}, {"name": "4907601a7df14037c4fd6baeaf703c08", "fusion_lat": 0.0, "type": "electric_scooter", "lat": 38.935283166666665, "is_reserved": 0, "is_disabled": 0, "fusion_lon": 0.0, "bike_id": "4907601a7df14037c4fd6baeaf703c08", "lon": -77.023544, "rental_uris": {"ios": "https://dc.lft.to/lastmile_qr_scan", "android": "https://dc.lft.to/lastmile_qr_scan"}}, {"name": "25fdff4ab541cc090f0dc696c2ba575b", "fusion_lat": 0.0, "type": "electric_scooter", "lat": 38.91430166666667, "is_reserved": 0, "is_disabled": 0, "fusion_lon": 0.0, "bike_id": "25fdff4ab541cc090f0dc696c2ba575b", "lon": -77.04588533333333, "rental_uris": {"ios": "https://dc.lft.to/lastmile_qr_scan", "android": "https://dc.lft.to/lastmile_qr_scan"}}, {"name": "48a7477f9671ecf6488d278300404cc1", "fusion_lat": 0.0, "type": "electric_scooter", "lat": 38.913438, "is_reserved": 0, "is_disabled": 0, "fusion_lon": 0.0, "bike_id": "48a7477f9671ecf6488d278300404cc1", "lon": -77.04226083333333, "rental_uris": {"ios": "https://dc.lft.to/lastmile_qr_scan", "android": "https://dc.lft.to/lastmile_qr_scan"}}, {"name": "8e59492aa6770e408b0a915740fed6a9", "fusion_lat": 0.0, "type": "electric_scooter", "lat": 38.911238, "is_reserved": 0, "is_disabled": 0, "fusion_lon": 0.0, "bike_id": "8e59492aa6770e408b0a915740fed6a9", "lon": -77.04772333333334, "rental_uris": {"ios": "https://dc.lft.to/lastmile_qr_scan", "android": "https://dc.lft.to/lastmile_qr_scan"}}, {"name": "da229e428fecf7ee876eec0d3ef2f7de", "fusion_lat": 0.0, "type": "electric_scooter", "lat": 38.89553566666667, "is_reserved": 0, "is_disabled": 0, "fusion_lon": 0.0, "bike_id": "da229e428fecf7ee876eec0d3ef2f7de", "lon": -76.94874466666667, "rental_uris": {"ios": "https://dc.lft.to/lastmile_qr_scan", "android": "https://dc.lft.to/lastmile_qr_scan"}}, {"name": "2d09a1aefa299df4a79d4c5eef69a958", "fusion_lat": 0.0, "type": "electric_scooter", "lat": 38.927054, "is_reserved": 0, "is_disabled": 0, "fusion_lon": 0.0, "bike_id": "2d09a1aefa299df4a79d4c5eef69a958", "lon": -77.03729016666666, "rental_uris": {"ios": "https://dc.lft.to/lastmile_qr_scan", "android": "https://dc.lft.to/lastmile_qr_scan"}}, {"name": "5632dc23274324d3136670e63bddcae3", "fusion_lat": 0.0, "type": "electric_scooter", "lat": 38.91192183333333, "is_reserved": 0, "is_disabled": 0, "fusion_lon": 0.0, "bike_id": "5632dc23274324d3136670e63bddcae3", "lon": -77.03249566666666, "rental_uris": {"ios": "https://dc.lft.to/lastmile_qr_scan", "android": "https://dc.lft.to/lastmile_qr_scan"}}, {"name": "cd4cc3e9e1f5c51fbde0f13c5d64c077", "fusion_lat": 0.0, "type": "electric_bike", "lat": 38.81517866666667, "is_reserved": 0, "is_disabled": 0, "fusion_lon": 0.0, "bike_id": "cd4cc3e9e1f5c51fbde0f13c5d64c077", "lon": -77.126624, "rental_uris": {"ios": "https://dc.lft.to/lastmile_qr_scan", "android": "https://dc.lft.to/lastmile_qr_scan"}}, {"name": "02474cd3413ef760b8362d20b79e0993", "fusion_lat": 0.0, "type": "electric_scooter", "lat": 38.8977995, "is_reserved": 0, "is_disabled": 0, "fusion_lon": 0.0, "bike_id": "02474cd3413ef760b8362d20b79e0993", "lon": -77.02599816666667, "rental_uris": {"ios": "https://dc.lft.to/lastmile_qr_scan", "android": "https://dc.lft.to/lastmile_qr_scan"}}, {"name": "80074c5728248d3bb073c546af288a07", "fusion_lat": 0.0, "type": "electric_scooter", "lat": 38.91259316666667, "is_reserved": 0, "is_disabled": 0, "fusion_lon": 0.0, "bike_id": "80074c5728248d3bb073c546af288a07", "lon": -77.03863966666667, "rental_uris": {"ios": "https://dc.lft.to/lastmile_qr_scan", "android": "https://dc.lft.to/lastmile_qr_scan"}}, {"name": "23c40eeb3f3aee12fe01e453a0cd4bea", "fusion_lat": 0.0, "type": "electric_scooter", "lat": 38.931028, "is_reserved": 0, "is_disabled": 0, "fusion_lon": 0.0, "bike_id": "23c40eeb3f3aee12fe01e453a0cd4bea", "lon": -77.03514966666667, "rental_uris": {"ios": "https://dc.lft.to/lastmile_qr_scan", "android": "https://dc.lft.to/lastmile_qr_scan"}}, {"name": "898ce4dda40aba1129a21130ad8baca3", "fusion_lat": 0.0, "type": "electric_scooter", "lat": 38.901173666666665, "is_reserved": 0, "is_disabled": 0, "fusion_lon": 0.0, "bike_id": "898ce4dda40aba1129a21130ad8baca3", "lon": -77.030445, "rental_uris": {"ios": "https://dc.lft.to/lastmile_qr_scan", "android": "https://dc.lft.to/lastmile_qr_scan"}}, {"name": "894f0543b378d7067093b7e2678da688", "fusion_lat": 0.0, "type": "electric_scooter", "lat": 38.90324316666667, "is_reserved": 0, "is_disabled": 0, "fusion_lon": 0.0, "bike_id": "894f0543b378d7067093b7e2678da688", "lon": -77.02888483333334, "rental_uris": {"ios": "https://dc.lft.to/lastmile_qr_scan", "android": "https://dc.lft.to/lastmile_qr_scan"}}, {"name": "cf00f4e60183683619a1efe3ddc8906f", "fusion_lat": 0.0, "type": "electric_scooter", "lat": 38.920324666666666, "is_reserved": 0, "is_disabled": 0, "fusion_lon": 0.0, "bike_id": "cf00f4e60183683619a1efe3ddc8906f", "lon": -77.03125066666666, "rental_uris": {"ios": "https://dc.lft.to/lastmile_qr_scan", "android": "https://dc.lft.to/lastmile_qr_scan"}}, {"name": "b45ed4d4af088fbed31ab076d3d9c34d", "fusion_lat": 0.0, "type": "electric_scooter", "lat": 38.86004716666667, "is_reserved": 0, "is_disabled": 0, "fusion_lon": 0.0, "bike_id": "b45ed4d4af088fbed31ab076d3d9c34d", "lon": -76.96755566666667, "rental_uris": {"ios": "https://dc.lft.to/lastmile_qr_scan", "android": "https://dc.lft.to/lastmile_qr_scan"}}, {"name": "f1445f571185383b0f45e0d9d1a9e17e", "fusion_lat": 0.0, "type": "electric_bike", "lat": 38.94091316666667, "is_reserved": 0, "is_disabled": 0, "fusion_lon": 0.0, "bike_id": "f1445f571185383b0f45e0d9d1a9e17e", "lon": -77.03262883333333, "rental_uris": {"ios": "https://dc.lft.to/lastmile_qr_scan", "android": "https://dc.lft.to/lastmile_qr_scan"}}, {"name": "beab870493bdb4d923f302332035da98", "fusion_lat": 0.0, "type": "electric_scooter", "lat": 38.8941845, "is_reserved": 0, "is_disabled": 0, "fusion_lon": 0.0, "bike_id": "beab870493bdb4d923f302332035da98", "lon": -76.9395985, "rental_uris": {"ios": "https://dc.lft.to/lastmile_qr_scan", "android": "https://dc.lft.to/lastmile_qr_scan"}}, {"name": "45e3f0108653dd99963fa385c32ffbd2", "fusion_lat": 0.0, "type": "electric_bike", "lat": 38.87935733333333, "is_reserved": 0, "is_disabled": 0, "fusion_lon": 0.0, "bike_id": "45e3f0108653dd99963fa385c32ffbd2", "lon": -77.006251, "rental_uris": {"ios": "https://dc.lft.to/lastmile_qr_scan", "android": "https://dc.lft.to/lastmile_qr_scan"}}, {"name": "2d20598e90d482c90231c71484d5fe09", "fusion_lat": 0.0, "type": "electric_scooter", "lat": 38.9171, "is_reserved": 0, "is_disabled": 0, "fusion_lon": 0.0, "bike_id": "2d20598e90d482c90231c71484d5fe09", "lon": -77.04688716666666, "rental_uris": {"ios": "https://dc.lft.to/lastmile_qr_scan", "android": "https://dc.lft.to/lastmile_qr_scan"}}, {"name": "f00fd3be6efe835764a783bcf4662875", "fusion_lat": 0.0, "type": "electric_bike", "lat": 38.936726666666665, "is_reserved": 0, "is_disabled": 0, "fusion_lon": 0.0, "bike_id": "f00fd3be6efe835764a783bcf4662875", "lon": -76.95208383333333, "rental_uris": {"ios": "https://dc.lft.to/lastmile_qr_scan", "android": "https://dc.lft.to/lastmile_qr_scan"}}, {"name": "26584c127ad89b26c1c3f7fef8cd4798", "fusion_lat": 0.0, "type": "electric_scooter", "lat": 38.901463166666666, "is_reserved": 0, "is_disabled": 0, "fusion_lon": 0.0, "bike_id": "26584c127ad89b26c1c3f7fef8cd4798", "lon": -77.02876, "rental_uris": {"ios": "https://dc.lft.to/lastmile_qr_scan", "android": "https://dc.lft.to/lastmile_qr_scan"}}, {"name": "0788abe97a6102fe9b06e35e68d18266", "fusion_lat": 0.0, "type": "electric_scooter", "lat": 38.87712466666667, "is_reserved": 0, "is_disabled": 0, "fusion_lon": 0.0, "bike_id": "0788abe97a6102fe9b06e35e68d18266", "lon": -77.017599, "rental_uris": {"ios": "https://dc.lft.to/lastmile_qr_scan", "android": "https://dc.lft.to/lastmile_qr_scan"}}, {"name": "e69d8660baf4aa91e0380fc6a3c99ac1", "fusion_lat": 0.0, "type": "electric_bike", "lat": 38.89649383333333, "is_reserved": 0, "is_disabled": 0, "fusion_lon": 0.0, "bike_id": "e69d8660baf4aa91e0380fc6a3c99ac1", "lon": -77.0863635, "rental_uris": {"ios": "https://dc.lft.to/lastmile_qr_scan", "android": "https://dc.lft.to/lastmile_qr_scan"}}, {"name": "55356086fcf283589af6bab18c0497ca", "fusion_lat": 0.0, "type": "electric_scooter", "lat": 38.88572766666667, "is_reserved": 0, "is_disabled": 0, "fusion_lon": 0.0, "bike_id": "55356086fcf283589af6bab18c0497ca", "lon": -76.99626033333334, "rental_uris": {"ios": "https://dc.lft.to/lastmile_qr_scan", "android": "https://dc.lft.to/lastmile_qr_scan"}}, {"name": "f69d7ff3dae4be522e7453d7a42fca97", "fusion_lat": 0.0, "type": "electric_scooter", "lat": 38.886860166666665, "is_reserved": 0, "is_disabled": 0, "fusion_lon": 0.0, "bike_id": "f69d7ff3dae4be522e7453d7a42fca97", "lon": -76.95760166666666, "rental_uris": {"ios": "https://dc.lft.to/lastmile_qr_scan", "android": "https://dc.lft.to/lastmile_qr_scan"}}, {"name": "9b6c8b9a093fd5758207e64a3f847f6f", "fusion_lat": 0.0, "type": "electric_scooter", "lat": 38.91150416666667, "is_reserved": 0, "is_disabled": 0, "fusion_lon": 0.0, "bike_id": "9b6c8b9a093fd5758207e64a3f847f6f", "lon": -77.0442805, "rental_uris": {"ios": "https://dc.lft.to/lastmile_qr_scan", "android": "https://dc.lft.to/lastmile_qr_scan"}}, {"name": "a259da68e8e8475b32a9ab9054630345", "fusion_lat": 0.0, "type": "electric_scooter", "lat": 38.897442833333336, "is_reserved": 0, "is_disabled": 0, "fusion_lon": 0.0, "bike_id": "a259da68e8e8475b32a9ab9054630345", "lon": -76.93848833333334, "rental_uris": {"ios": "https://dc.lft.to/lastmile_qr_scan", "android": "https://dc.lft.to/lastmile_qr_scan"}}, {"name": "f2d7220f2ab51982237b02e6dc7969d1", "fusion_lat": 0.0, "type": "electric_scooter", "lat": 38.8584975, "is_reserved": 0, "is_disabled": 0, "fusion_lon": 0.0, "bike_id": "f2d7220f2ab51982237b02e6dc7969d1", "lon": -76.958861, "rental_uris": {"ios": "https://dc.lft.to/lastmile_qr_scan", "android": "https://dc.lft.to/lastmile_qr_scan"}}, {"name": "ab83c11fa6881470e1f355f100f08b1c", "fusion_lat": 0.0, "type": "electric_scooter", "lat": 38.89525016666666, "is_reserved": 0, "is_disabled": 0, "fusion_lon": 0.0, "bike_id": "ab83c11fa6881470e1f355f100f08b1c", "lon": -77.025749, "rental_uris": {"ios": "https://dc.lft.to/lastmile_qr_scan", "android": "https://dc.lft.to/lastmile_qr_scan"}}, {"name": "7b322bef4142dfac594885a682705ccc", "fusion_lat": 0.0, "type": "electric_scooter", "lat": 38.907781, "is_reserved": 0, "is_disabled": 0, "fusion_lon": 0.0, "bike_id": "7b322bef4142dfac594885a682705ccc", "lon": -77.07167666666666, "rental_uris": {"ios": "https://dc.lft.to/lastmile_qr_scan", "android": "https://dc.lft.to/lastmile_qr_scan"}}, {"name": "6a51231fd114f2ca3156ab4507800822", "fusion_lat": 0.0, "type": "electric_scooter", "lat": 38.9216265, "is_reserved": 0, "is_disabled": 0, "fusion_lon": 0.0, "bike_id": "6a51231fd114f2ca3156ab4507800822", "lon": -77.04216666666666, "rental_uris": {"ios": "https://dc.lft.to/lastmile_qr_scan", "android": "https://dc.lft.to/lastmile_qr_scan"}}, {"name": "26ca220589c367df8801514a1d9f000a", "fusion_lat": 0.0, "type": "electric_bike", "lat": 38.94227983333333, "is_reserved": 0, "is_disabled": 0, "fusion_lon": 0.0, "bike_id": "26ca220589c367df8801514a1d9f000a", "lon": -77.01387616666666, "rental_uris": {"ios": "https://dc.lft.to/lastmile_qr_scan", "android": "https://dc.lft.to/lastmile_qr_scan"}}, {"name": "2caffa99177afbb34bfa9a1835bbf9a2", "fusion_lat": 0.0, "type": "electric_scooter", "lat": 38.91479533333333, "is_reserved": 0, "is_disabled": 0, "fusion_lon": 0.0, "bike_id": "2caffa99177afbb34bfa9a1835bbf9a2", "lon": -77.04504216666666, "rental_uris": {"ios": "https://dc.lft.to/lastmile_qr_scan", "android": "https://dc.lft.to/lastmile_qr_scan"}}, {"name": "da3dd9fe33a5c350faf9ab93b9bf3b2f", "fusion_lat": 0.0, "type": "electric_scooter", "lat": 38.91113283333333, "is_reserved": 0, "is_disabled": 0, "fusion_lon": 0.0, "bike_id": "da3dd9fe33a5c350faf9ab93b9bf3b2f", "lon": -77.03147566666667, "rental_uris": {"ios": "https://dc.lft.to/lastmile_qr_scan", "android": "https://dc.lft.to/lastmile_qr_scan"}}, {"name": "019c9c33ed563e00f3328b7ae6a8307d", "fusion_lat": 0.0, "type": "electric_scooter", "lat": 38.894522333333335, "is_reserved": 0, "is_disabled": 0, "fusion_lon": 0.0, "bike_id": "019c9c33ed563e00f3328b7ae6a8307d", "lon": -77.01923333333333, "rental_uris": {"ios": "https://dc.lft.to/lastmile_qr_scan", "android": "https://dc.lft.to/lastmile_qr_scan"}}, {"name": "0430ca91847a6a29fd842248882dd7ef", "fusion_lat": 0.0, "type": "electric_scooter", "lat": 38.93782066666667, "is_reserved": 0, "is_disabled": 0, "fusion_lon": 0.0, "bike_id": "0430ca91847a6a29fd842248882dd7ef", "lon": -77.06001, "rental_uris": {"ios": "https://dc.lft.to/lastmile_qr_scan", "android": "https://dc.lft.to/lastmile_qr_scan"}}, {"name": "3357b6cdb3ef95c43c3263ea9e4151a3", "fusion_lat": 0.0, "type": "electric_bike", "lat": 38.799860333333335, "is_reserved": 0, "is_disabled": 0, "fusion_lon": 0.0, "bike_id": "3357b6cdb3ef95c43c3263ea9e4151a3", "lon": -77.12980733333333, "rental_uris": {"ios": "https://dc.lft.to/lastmile_qr_scan", "android": "https://dc.lft.to/lastmile_qr_scan"}}, {"name": "83bae3c0a053952fce0814f24b6d07b5", "fusion_lat": 0.0, "type": "electric_bike", "lat": 38.83829466666667, "is_reserved": 0, "is_disabled": 0, "fusion_lon": 0.0, "bike_id": "83bae3c0a053952fce0814f24b6d07b5", "lon": -76.99684633333334, "rental_uris": {"ios": "https://dc.lft.to/lastmile_qr_scan", "android": "https://dc.lft.to/lastmile_qr_scan"}}, {"name": "28f4e09a592c38ed100ae019c4c288b3", "fusion_lat": 0.0, "type": "electric_bike", "lat": 38.9116155, "is_reserved": 0, "is_disabled": 0, "fusion_lon": 0.0, "bike_id": "28f4e09a592c38ed100ae019c4c288b3", "lon": -77.0029085, "rental_uris": {"ios": "https://dc.lft.to/lastmile_qr_scan", "android": "https://dc.lft.to/lastmile_qr_scan"}}, {"name": "6efd580bd3dbd7aa3c811e32bbf2e28a", "fusion_lat": 0.0, "type": "electric_scooter", "lat": 38.8985405, "is_reserved": 0, "is_disabled": 0, "fusion_lon": 0.0, "bike_id": "6efd580bd3dbd7aa3c811e32bbf2e28a", "lon": -76.97564733333333, "rental_uris": {"ios": "https://dc.lft.to/lastmile_qr_scan", "android": "https://dc.lft.to/lastmile_qr_scan"}}, {"name": "4bb82d5cd4407dd54e49ba2d48dabf7f", "fusion_lat": 0.0, "type": "electric_scooter", "lat": 38.89473983333333, "is_reserved": 0, "is_disabled": 0, "fusion_lon": 0.0, "bike_id": "4bb82d5cd4407dd54e49ba2d48dabf7f", "lon": -76.98399766666667, "rental_uris": {"ios": "https://dc.lft.to/lastmile_qr_scan", "android": "https://dc.lft.to/lastmile_qr_scan"}}, {"name": "a4f410530d5dd34984cc4eea82384831", "fusion_lat": 0.0, "type": "electric_scooter", "lat": 38.89919066666667, "is_reserved": 0, "is_disabled": 0, "fusion_lon": 0.0, "bike_id": "a4f410530d5dd34984cc4eea82384831", "lon": -76.93381016666666, "rental_uris": {"ios": "https://dc.lft.to/lastmile_qr_scan", "android": "https://dc.lft.to/lastmile_qr_scan"}}, {"name": "4c4cfe60e41423b1b1742d3a3282878b", "fusion_lat": 0.0, "type": "electric_bike", "lat": 38.88135966666667, "is_reserved": 0, "is_disabled": 0, "fusion_lon": 0.0, "bike_id": "4c4cfe60e41423b1b1742d3a3282878b", "lon": -76.9809205, "rental_uris": {"ios": "https://dc.lft.to/lastmile_qr_scan", "android": "https://dc.lft.to/lastmile_qr_scan"}}, {"name": "f41caefdd21611b49ce266df401cf818", "fusion_lat": 0.0, "type": "electric_scooter", "lat": 38.88502533333333, "is_reserved": 0, "is_disabled": 0, "fusion_lon": 0.0, "bike_id": "f41caefdd21611b49ce266df401cf818", "lon": -77.00566683333334, "rental_uris": {"ios": "https://dc.lft.to/lastmile_qr_scan", "android": "https://dc.lft.to/lastmile_qr_scan"}}, {"name": "fc6d9b1a47b831dec086cf1d7dccfe52", "fusion_lat": 0.0, "type": "electric_scooter", "lat": 38.9431395, "is_reserved": 0, "is_disabled": 0, "fusion_lon": 0.0, "bike_id": "fc6d9b1a47b831dec086cf1d7dccfe52", "lon": -77.0591625, "rental_uris": {"ios": "https://dc.lft.to/lastmile_qr_scan", "android": "https://dc.lft.to/lastmile_qr_scan"}}, {"name": "ff2d7f93a83acfbce180854515118cec", "fusion_lat": 0.0, "type": "electric_scooter", "lat": 38.87636466666667, "is_reserved": 0, "is_disabled": 0, "fusion_lon": 0.0, "bike_id": "ff2d7f93a83acfbce180854515118cec", "lon": -77.008355, "rental_uris": {"ios": "https://dc.lft.to/lastmile_qr_scan", "android": "https://dc.lft.to/lastmile_qr_scan"}}, {"name": "325beeffda75fd86b44b44d5d847fff9", "fusion_lat": 0.0, "type": "electric_scooter", "lat": 38.930755, "is_reserved": 0, "is_disabled": 0, "fusion_lon": 0.0, "bike_id": "325beeffda75fd86b44b44d5d847fff9", "lon": -77.03403033333333, "rental_uris": {"ios": "https://dc.lft.to/lastmile_qr_scan", "android": "https://dc.lft.to/lastmile_qr_scan"}}, {"name": "8f76d366b7d39d785e0d3b0f629ef639", "fusion_lat": 0.0, "type": "electric_bike", "lat": 38.8723335, "is_reserved": 0, "is_disabled": 0, "fusion_lon": 0.0, "bike_id": "8f76d366b7d39d785e0d3b0f629ef639", "lon": -77.0116455, "rental_uris": {"ios": "https://dc.lft.to/lastmile_qr_scan", "android": "https://dc.lft.to/lastmile_qr_scan"}}, {"name": "a0a34ff121f91e609b67e57ae8e6c80e", "fusion_lat": 0.0, "type": "electric_scooter", "lat": 38.90685466666667, "is_reserved": 0, "is_disabled": 0, "fusion_lon": 0.0, "bike_id": "a0a34ff121f91e609b67e57ae8e6c80e", "lon": -77.04159566666667, "rental_uris": {"ios": "https://dc.lft.to/lastmile_qr_scan", "android": "https://dc.lft.to/lastmile_qr_scan"}}, {"name": "0928e2db043776451d84a96ae2b545c0", "fusion_lat": 0.0, "type": "electric_bike", "lat": 38.939691, "is_reserved": 0, "is_disabled": 0, "fusion_lon": 0.0, "bike_id": "0928e2db043776451d84a96ae2b545c0", "lon": -76.98659883333333, "rental_uris": {"ios": "https://dc.lft.to/lastmile_qr_scan", "android": "https://dc.lft.to/lastmile_qr_scan"}}, {"name": "5abedfe60a7390af5e5ac6c0ecec1b35", "fusion_lat": 0.0, "type": "electric_scooter", "lat": 38.8834235, "is_reserved": 0, "is_disabled": 0, "fusion_lon": 0.0, "bike_id": "5abedfe60a7390af5e5ac6c0ecec1b35", "lon": -77.0316865, "rental_uris": {"ios": "https://dc.lft.to/lastmile_qr_scan", "android": "https://dc.lft.to/lastmile_qr_scan"}}, {"name": "3f4d89b36bba61632036bf1cb834a3cf", "fusion_lat": 0.0, "type": "electric_scooter", "lat": 38.86512666666667, "is_reserved": 0, "is_disabled": 0, "fusion_lon": 0.0, "bike_id": "3f4d89b36bba61632036bf1cb834a3cf", "lon": -76.9733885, "rental_uris": {"ios": "https://dc.lft.to/lastmile_qr_scan", "android": "https://dc.lft.to/lastmile_qr_scan"}}, {"name": "fce0f46801eeebd8a0cf5bddaa1bd055", "fusion_lat": 0.0, "type": "electric_scooter", "lat": 38.9031725, "is_reserved": 0, "is_disabled": 0, "fusion_lon": 0.0, "bike_id": "fce0f46801eeebd8a0cf5bddaa1bd055", "lon": -77.0534485, "rental_uris": {"ios": "https://dc.lft.to/lastmile_qr_scan", "android": "https://dc.lft.to/lastmile_qr_scan"}}, {"name": "0da2b00a4bf9cf349ecb22be606b4bb0", "fusion_lat": 0.0, "type": "electric_scooter", "lat": 38.894801, "is_reserved": 0, "is_disabled": 0, "fusion_lon": 0.0, "bike_id": "0da2b00a4bf9cf349ecb22be606b4bb0", "lon": -77.02010016666667, "rental_uris": {"ios": "https://dc.lft.to/lastmile_qr_scan", "android": "https://dc.lft.to/lastmile_qr_scan"}}, {"name": "1a820745f72d2b79996171302eb43754", "fusion_lat": 0.0, "type": "electric_scooter", "lat": 38.876374, "is_reserved": 0, "is_disabled": 0, "fusion_lon": 0.0, "bike_id": "1a820745f72d2b79996171302eb43754", "lon": -77.00366233333334, "rental_uris": {"ios": "https://dc.lft.to/lastmile_qr_scan", "android": "https://dc.lft.to/lastmile_qr_scan"}}, {"name": "244388f021e2ca633d857ba736cf1d88", "fusion_lat": 0.0, "type": "electric_bike", "lat": 38.86368133333333, "is_reserved": 0, "is_disabled": 0, "fusion_lon": 0.0, "bike_id": "244388f021e2ca633d857ba736cf1d88", "lon": -76.9700675, "rental_uris": {"ios": "https://dc.lft.to/lastmile_qr_scan", "android": "https://dc.lft.to/lastmile_qr_scan"}}, {"name": "88555a9c24c6e1f2c0a85fe8f0d4f406", "fusion_lat": 0.0, "type": "electric_scooter", "lat": 38.92051033333333, "is_reserved": 0, "is_disabled": 0, "fusion_lon": 0.0, "bike_id": "88555a9c24c6e1f2c0a85fe8f0d4f406", "lon": -77.02440383333334, "rental_uris": {"ios": "https://dc.lft.to/lastmile_qr_scan", "android": "https://dc.lft.to/lastmile_qr_scan"}}, {"name": "d1d36352719630b50c9bac4c0d96e879", "fusion_lat": 0.0, "type": "electric_bike", "lat": 38.81937466666667, "is_reserved": 0, "is_disabled": 0, "fusion_lon": 0.0, "bike_id": "d1d36352719630b50c9bac4c0d96e879", "lon": -77.002109, "rental_uris": {"ios": "https://dc.lft.to/lastmile_qr_scan", "android": "https://dc.lft.to/lastmile_qr_scan"}}, {"name": "23f414e1641af5279970d822ef3fc4d5", "fusion_lat": 0.0, "type": "electric_scooter", "lat": 38.90567583333333, "is_reserved": 0, "is_disabled": 0, "fusion_lon": 0.0, "bike_id": "23f414e1641af5279970d822ef3fc4d5", "lon": -77.0450645, "rental_uris": {"ios": "https://dc.lft.to/lastmile_qr_scan", "android": "https://dc.lft.to/lastmile_qr_scan"}}, {"name": "bdf1f59aaa29f79f2d272c8da650180e", "fusion_lat": 0.0, "type": "electric_scooter", "lat": 38.90700916666667, "is_reserved": 0, "is_disabled": 0, "fusion_lon": 0.0, "bike_id": "bdf1f59aaa29f79f2d272c8da650180e", "lon": -76.98699033333334, "rental_uris": {"ios": "https://dc.lft.to/lastmile_qr_scan", "android": "https://dc.lft.to/lastmile_qr_scan"}}, {"name": "5473df1945e65fa59cb6b975d37e71b5", "fusion_lat": 0.0, "type": "electric_bike", "lat": 38.96540666666667, "is_reserved": 0, "is_disabled": 0, "fusion_lon": 0.0, "bike_id": "5473df1945e65fa59cb6b975d37e71b5", "lon": -77.03515733333333, "rental_uris": {"ios": "https://dc.lft.to/lastmile_qr_scan", "android": "https://dc.lft.to/lastmile_qr_scan"}}, {"name": "f6a6e3d063c8e774e1cce8fbdf6f9e9b", "fusion_lat": 0.0, "type": "electric_scooter", "lat": 38.90986433333333, "is_reserved": 0, "is_disabled": 0, "fusion_lon": 0.0, "bike_id": "f6a6e3d063c8e774e1cce8fbdf6f9e9b", "lon": -77.03374583333333, "rental_uris": {"ios": "https://dc.lft.to/lastmile_qr_scan", "android": "https://dc.lft.to/lastmile_qr_scan"}}, {"name": "f50da5d363d5a19fa811a1f3c9029f46", "fusion_lat": 0.0, "type": "electric_scooter", "lat": 38.93482266666667, "is_reserved": 0, "is_disabled": 0, "fusion_lon": 0.0, "bike_id": "f50da5d363d5a19fa811a1f3c9029f46", "lon": -77.07285633333333, "rental_uris": {"ios": "https://dc.lft.to/lastmile_qr_scan", "android": "https://dc.lft.to/lastmile_qr_scan"}}, {"name": "1c0fd7f2ca647d2f8b9f05204522303c", "fusion_lat": 0.0, "type": "electric_scooter", "lat": 38.900653166666665, "is_reserved": 0, "is_disabled": 0, "fusion_lon": 0.0, "bike_id": "1c0fd7f2ca647d2f8b9f05204522303c", "lon": -76.94765816666667, "rental_uris": {"ios": "https://dc.lft.to/lastmile_qr_scan", "android": "https://dc.lft.to/lastmile_qr_scan"}}, {"name": "d5b4432eb10a60c62945872503b317c8", "fusion_lat": 0.0, "type": "electric_bike", "lat": 38.98455883333333, "is_reserved": 0, "is_disabled": 0, "fusion_lon": 0.0, "bike_id": "d5b4432eb10a60c62945872503b317c8", "lon": -76.95523033333333, "rental_uris": {"ios": "https://dc.lft.to/lastmile_qr_scan", "android": "https://dc.lft.to/lastmile_qr_scan"}}, {"name": "0de6f2562ee4230378b23ecd23564cb5", "fusion_lat": 0.0, "type": "electric_bike", "lat": 38.865955666666665, "is_reserved": 0, "is_disabled": 0, "fusion_lon": 0.0, "bike_id": "0de6f2562ee4230378b23ecd23564cb5", "lon": -76.93230416666667, "rental_uris": {"ios": "https://dc.lft.to/lastmile_qr_scan", "android": "https://dc.lft.to/lastmile_qr_scan"}}, {"name": "a36a1b4991bc72f1488596c2b1816b90", "fusion_lat": 0.0, "type": "electric_scooter", "lat": 38.919483666666665, "is_reserved": 0, "is_disabled": 0, "fusion_lon": 0.0, "bike_id": "a36a1b4991bc72f1488596c2b1816b90", "lon": -77.014054, "rental_uris": {"ios": "https://dc.lft.to/lastmile_qr_scan", "android": "https://dc.lft.to/lastmile_qr_scan"}}, {"name": "272ba227b988e469aedd4fe357323f02", "fusion_lat": 0.0, "type": "electric_scooter", "lat": 38.915627, "is_reserved": 0, "is_disabled": 0, "fusion_lon": 0.0, "bike_id": "272ba227b988e469aedd4fe357323f02", "lon": -77.037672, "rental_uris": {"ios": "https://dc.lft.to/lastmile_qr_scan", "android": "https://dc.lft.to/lastmile_qr_scan"}}, {"name": "cf3407f3555e841276a5e7e390d9bde5", "fusion_lat": 0.0, "type": "electric_scooter", "lat": 38.883121, "is_reserved": 0, "is_disabled": 0, "fusion_lon": 0.0, "bike_id": "cf3407f3555e841276a5e7e390d9bde5", "lon": -77.015458, "rental_uris": {"ios": "https://dc.lft.to/lastmile_qr_scan", "android": "https://dc.lft.to/lastmile_qr_scan"}}, {"name": "6a2fb5a98b55ccc7b4260d6c4c71b570", "fusion_lat": 0.0, "type": "electric_scooter", "lat": 38.880484, "is_reserved": 0, "is_disabled": 0, "fusion_lon": 0.0, "bike_id": "6a2fb5a98b55ccc7b4260d6c4c71b570", "lon": -76.95986866666667, "rental_uris": {"ios": "https://dc.lft.to/lastmile_qr_scan", "android": "https://dc.lft.to/lastmile_qr_scan"}}, {"name": "db9becfe1cbc9b4de9d9bf6787aa0688", "fusion_lat": 0.0, "type": "electric_scooter", "lat": 38.93054866666667, "is_reserved": 0, "is_disabled": 0, "fusion_lon": 0.0, "bike_id": "db9becfe1cbc9b4de9d9bf6787aa0688", "lon": -77.02319716666666, "rental_uris": {"ios": "https://dc.lft.to/lastmile_qr_scan", "android": "https://dc.lft.to/lastmile_qr_scan"}}, {"name": "563fe2577bcd6335de2706cf08f9c587", "fusion_lat": 0.0, "type": "electric_scooter", "lat": 38.885102333333336, "is_reserved": 0, "is_disabled": 0, "fusion_lon": 0.0, "bike_id": "563fe2577bcd6335de2706cf08f9c587", "lon": -77.03367783333333, "rental_uris": {"ios": "https://dc.lft.to/lastmile_qr_scan", "android": "https://dc.lft.to/lastmile_qr_scan"}}, {"name": "e9c39171d471f115e2237f4082cd5cfa", "fusion_lat": 0.0, "type": "electric_scooter", "lat": 38.90668466666666, "is_reserved": 0, "is_disabled": 0, "fusion_lon": 0.0, "bike_id": "e9c39171d471f115e2237f4082cd5cfa", "lon": -77.04167816666667, "rental_uris": {"ios": "https://dc.lft.to/lastmile_qr_scan", "android": "https://dc.lft.to/lastmile_qr_scan"}}, {"name": "3dd1c34038c05e9a5bb5d4e684a7b52f", "fusion_lat": 0.0, "type": "electric_scooter", "lat": 38.917276, "is_reserved": 0, "is_disabled": 0, "fusion_lon": 0.0, "bike_id": "3dd1c34038c05e9a5bb5d4e684a7b52f", "lon": -77.03842666666667, "rental_uris": {"ios": "https://dc.lft.to/lastmile_qr_scan", "android": "https://dc.lft.to/lastmile_qr_scan"}}, {"name": "403ac71ada882453a85fb869ff78601d", "fusion_lat": 0.0, "type": "electric_bike", "lat": 38.852229333333334, "is_reserved": 0, "is_disabled": 0, "fusion_lon": 0.0, "bike_id": "403ac71ada882453a85fb869ff78601d", "lon": -77.1295255, "rental_uris": {"ios": "https://dc.lft.to/lastmile_qr_scan", "android": "https://dc.lft.to/lastmile_qr_scan"}}, {"name": "eb81c6c886af44e27475013f4e434df3", "fusion_lat": 0.0, "type": "electric_scooter", "lat": 38.876489166666666, "is_reserved": 0, "is_disabled": 0, "fusion_lon": 0.0, "bike_id": "eb81c6c886af44e27475013f4e434df3", "lon": -77.00333916666666, "rental_uris": {"ios": "https://dc.lft.to/lastmile_qr_scan", "android": "https://dc.lft.to/lastmile_qr_scan"}}, {"name": "7c40f94ace5f7fe3df4202df48f6d9ef", "fusion_lat": 0.0, "type": "electric_scooter", "lat": 38.895523, "is_reserved": 0, "is_disabled": 0, "fusion_lon": 0.0, "bike_id": "7c40f94ace5f7fe3df4202df48f6d9ef", "lon": -76.98374366666667, "rental_uris": {"ios": "https://dc.lft.to/lastmile_qr_scan", "android": "https://dc.lft.to/lastmile_qr_scan"}}, {"name": "0be663caf434e3ac8b632c2896567e16", "fusion_lat": 0.0, "type": "electric_scooter", "lat": 38.876498, "is_reserved": 0, "is_disabled": 0, "fusion_lon": 0.0, "bike_id": "0be663caf434e3ac8b632c2896567e16", "lon": -76.96503666666666, "rental_uris": {"ios": "https://dc.lft.to/lastmile_qr_scan", "android": "https://dc.lft.to/lastmile_qr_scan"}}, {"name": "bd532744655b9c756ca763aa1238e53a", "fusion_lat": 0.0, "type": "electric_scooter", "lat": 38.909721166666664, "is_reserved": 0, "is_disabled": 0, "fusion_lon": 0.0, "bike_id": "bd532744655b9c756ca763aa1238e53a", "lon": -77.03672166666666, "rental_uris": {"ios": "https://dc.lft.to/lastmile_qr_scan", "android": "https://dc.lft.to/lastmile_qr_scan"}}, {"name": "0b9e18274dbe2c005b631b1baeb4f599", "fusion_lat": 0.0, "type": "electric_scooter", "lat": 38.89731883333333, "is_reserved": 0, "is_disabled": 0, "fusion_lon": 0.0, "bike_id": "0b9e18274dbe2c005b631b1baeb4f599", "lon": -77.04644333333333, "rental_uris": {"ios": "https://dc.lft.to/lastmile_qr_scan", "android": "https://dc.lft.to/lastmile_qr_scan"}}, {"name": "98447f59c96a7f115fe42170379352d9", "fusion_lat": 0.0, "type": "electric_scooter", "lat": 38.911952, "is_reserved": 0, "is_disabled": 0, "fusion_lon": 0.0, "bike_id": "98447f59c96a7f115fe42170379352d9", "lon": -77.04500616666667, "rental_uris": {"ios": "https://dc.lft.to/lastmile_qr_scan", "android": "https://dc.lft.to/lastmile_qr_scan"}}, {"name": "c8a5fcd0f0269bf8450aff44553fcb1f", "fusion_lat": 0.0, "type": "electric_scooter", "lat": 38.90560766666667, "is_reserved": 0, "is_disabled": 0, "fusion_lon": 0.0, "bike_id": "c8a5fcd0f0269bf8450aff44553fcb1f", "lon": -77.02972933333334, "rental_uris": {"ios": "https://dc.lft.to/lastmile_qr_scan", "android": "https://dc.lft.to/lastmile_qr_scan"}}, {"name": "08d407e2196e4ff5b015c754c92236b3", "fusion_lat": 0.0, "type": "electric_bike", "lat": 38.9555045, "is_reserved": 0, "is_disabled": 0, "fusion_lon": 0.0, "bike_id": "08d407e2196e4ff5b015c754c92236b3", "lon": -77.01617316666666, "rental_uris": {"ios": "https://dc.lft.to/lastmile_qr_scan", "android": "https://dc.lft.to/lastmile_qr_scan"}}, {"name": "d45d5dab856fccba9efb5ff99dce5d21", "fusion_lat": 0.0, "type": "electric_scooter", "lat": 38.8953875, "is_reserved": 0, "is_disabled": 0, "fusion_lon": 0.0, "bike_id": "d45d5dab856fccba9efb5ff99dce5d21", "lon": -76.94932133333333, "rental_uris": {"ios": "https://dc.lft.to/lastmile_qr_scan", "android": "https://dc.lft.to/lastmile_qr_scan"}}, {"name": "56115702a87edafeae64be6ec3301aa1", "fusion_lat": 0.0, "type": "electric_scooter", "lat": 38.896064333333335, "is_reserved": 0, "is_disabled": 0, "fusion_lon": 0.0, "bike_id": "56115702a87edafeae64be6ec3301aa1", "lon": -77.04114516666667, "rental_uris": {"ios": "https://dc.lft.to/lastmile_qr_scan", "android": "https://dc.lft.to/lastmile_qr_scan"}}, {"name": "98f66511990f27f9d8027c7f1c5236cf", "fusion_lat": 0.0, "type": "electric_scooter", "lat": 38.90238183333334, "is_reserved": 0, "is_disabled": 0, "fusion_lon": 0.0, "bike_id": "98f66511990f27f9d8027c7f1c5236cf", "lon": -77.02693883333333, "rental_uris": {"ios": "https://dc.lft.to/lastmile_qr_scan", "android": "https://dc.lft.to/lastmile_qr_scan"}}, {"name": "184be41bf427cf1ccaff73ce12c1f3ed", "fusion_lat": 0.0, "type": "electric_bike", "lat": 39.10565616666667, "is_reserved": 0, "is_disabled": 0, "fusion_lon": 0.0, "bike_id": "184be41bf427cf1ccaff73ce12c1f3ed", "lon": -77.15267016666667, "rental_uris": {"ios": "https://dc.lft.to/lastmile_qr_scan", "android": "https://dc.lft.to/lastmile_qr_scan"}}, {"name": "4e389316ed305da2362f9966612a0fbf", "fusion_lat": 0.0, "type": "electric_scooter", "lat": 38.91929733333333, "is_reserved": 0, "is_disabled": 0, "fusion_lon": 0.0, "bike_id": "4e389316ed305da2362f9966612a0fbf", "lon": -77.04493966666666, "rental_uris": {"ios": "https://dc.lft.to/lastmile_qr_scan", "android": "https://dc.lft.to/lastmile_qr_scan"}}, {"name": "74fa960159f520f70ecdb624011e54b2", "fusion_lat": 0.0, "type": "electric_bike", "lat": 38.88663016666667, "is_reserved": 0, "is_disabled": 0, "fusion_lon": 0.0, "bike_id": "74fa960159f520f70ecdb624011e54b2", "lon": -77.162286, "rental_uris": {"ios": "https://dc.lft.to/lastmile_qr_scan", "android": "https://dc.lft.to/lastmile_qr_scan"}}, {"name": "d8c9a7959de8f5e458670b3775dd9961", "fusion_lat": 0.0, "type": "electric_scooter", "lat": 38.902606666666664, "is_reserved": 0, "is_disabled": 0, "fusion_lon": 0.0, "bike_id": "d8c9a7959de8f5e458670b3775dd9961", "lon": -77.0295305, "rental_uris": {"ios": "https://dc.lft.to/lastmile_qr_scan", "android": "https://dc.lft.to/lastmile_qr_scan"}}, {"name": "a600df7fdaf6d20426bb5de330ddadec", "fusion_lat": 0.0, "type": "electric_scooter", "lat": 38.9169045, "is_reserved": 0, "is_disabled": 0, "fusion_lon": 0.0, "bike_id": "a600df7fdaf6d20426bb5de330ddadec", "lon": -77.02906166666666, "rental_uris": {"ios": "https://dc.lft.to/lastmile_qr_scan", "android": "https://dc.lft.to/lastmile_qr_scan"}}, {"name": "d41cb5bd36d0d4f9d51fa32f5e40137d", "fusion_lat": 0.0, "type": "electric_scooter", "lat": 38.8988745, "is_reserved": 0, "is_disabled": 0, "fusion_lon": 0.0, "bike_id": "d41cb5bd36d0d4f9d51fa32f5e40137d", "lon": -76.98571833333334, "rental_uris": {"ios": "https://dc.lft.to/lastmile_qr_scan", "android": "https://dc.lft.to/lastmile_qr_scan"}}, {"name": "a218bcdae3c354e67836f9d61284b675", "fusion_lat": 0.0, "type": "electric_scooter", "lat": 38.93906233333333, "is_reserved": 0, "is_disabled": 0, "fusion_lon": 0.0, "bike_id": "a218bcdae3c354e67836f9d61284b675", "lon": -77.06046933333333, "rental_uris": {"ios": "https://dc.lft.to/lastmile_qr_scan", "android": "https://dc.lft.to/lastmile_qr_scan"}}, {"name": "f97a6e4f405ea4769ee778df44f14812", "fusion_lat": 0.0, "type": "electric_scooter", "lat": 38.89876233333333, "is_reserved": 0, "is_disabled": 0, "fusion_lon": 0.0, "bike_id": "f97a6e4f405ea4769ee778df44f14812", "lon": -76.933057, "rental_uris": {"ios": "https://dc.lft.to/lastmile_qr_scan", "android": "https://dc.lft.to/lastmile_qr_scan"}}, {"name": "62fde07a10653d24d095293047352e69", "fusion_lat": 0.0, "type": "electric_scooter", "lat": 38.915202666666666, "is_reserved": 0, "is_disabled": 0, "fusion_lon": 0.0, "bike_id": "62fde07a10653d24d095293047352e69", "lon": -77.0142535, "rental_uris": {"ios": "https://dc.lft.to/lastmile_qr_scan", "android": "https://dc.lft.to/lastmile_qr_scan"}}, {"name": "51dcaab050bd815d2a11445b88985859", "fusion_lat": 0.0, "type": "electric_scooter", "lat": 38.92965983333333, "is_reserved": 0, "is_disabled": 0, "fusion_lon": 0.0, "bike_id": "51dcaab050bd815d2a11445b88985859", "lon": -77.00533483333334, "rental_uris": {"ios": "https://dc.lft.to/lastmile_qr_scan", "android": "https://dc.lft.to/lastmile_qr_scan"}}, {"name": "2220d15f41a608aed08e4c9f6f46b779", "fusion_lat": 0.0, "type": "electric_scooter", "lat": 38.902877833333335, "is_reserved": 0, "is_disabled": 0, "fusion_lon": 0.0, "bike_id": "2220d15f41a608aed08e4c9f6f46b779", "lon": -77.03674033333333, "rental_uris": {"ios": "https://dc.lft.to/lastmile_qr_scan", "android": "https://dc.lft.to/lastmile_qr_scan"}}, {"name": "e049251b7a68c0e23331105392ea66bf", "fusion_lat": 0.0, "type": "electric_scooter", "lat": 38.9223865, "is_reserved": 0, "is_disabled": 0, "fusion_lon": 0.0, "bike_id": "e049251b7a68c0e23331105392ea66bf", "lon": -77.02239466666667, "rental_uris": {"ios": "https://dc.lft.to/lastmile_qr_scan", "android": "https://dc.lft.to/lastmile_qr_scan"}}, {"name": "b114c5a2301415d0e6d60eb3809a28bb", "fusion_lat": 0.0, "type": "electric_scooter", "lat": 38.907280166666666, "is_reserved": 0, "is_disabled": 0, "fusion_lon": 0.0, "bike_id": "b114c5a2301415d0e6d60eb3809a28bb", "lon": -77.04015, "rental_uris": {"ios": "https://dc.lft.to/lastmile_qr_scan", "android": "https://dc.lft.to/lastmile_qr_scan"}}, {"name": "43cd2a7c711fe04dba4c3a617ddd0586", "fusion_lat": 0.0, "type": "electric_scooter", "lat": 38.906576333333334, "is_reserved": 0, "is_disabled": 0, "fusion_lon": 0.0, "bike_id": "43cd2a7c711fe04dba4c3a617ddd0586", "lon": -76.986003, "rental_uris": {"ios": "https://dc.lft.to/lastmile_qr_scan", "android": "https://dc.lft.to/lastmile_qr_scan"}}, {"name": "77353bd1da52d9808b2b79866ce3d11e", "fusion_lat": 0.0, "type": "electric_scooter", "lat": 38.9345355, "is_reserved": 0, "is_disabled": 0, "fusion_lon": 0.0, "bike_id": "77353bd1da52d9808b2b79866ce3d11e", "lon": -77.08639566666666, "rental_uris": {"ios": "https://dc.lft.to/lastmile_qr_scan", "android": "https://dc.lft.to/lastmile_qr_scan"}}, {"name": "cf2effa881d20087f06764e3759db733", "fusion_lat": 0.0, "type": "electric_scooter", "lat": 38.87082, "is_reserved": 0, "is_disabled": 0, "fusion_lon": 0.0, "bike_id": "cf2effa881d20087f06764e3759db733", "lon": -77.011247, "rental_uris": {"ios": "https://dc.lft.to/lastmile_qr_scan", "android": "https://dc.lft.to/lastmile_qr_scan"}}, {"name": "07c2b1b821e3f7bccbff8d700c0841cc", "fusion_lat": 0.0, "type": "electric_scooter", "lat": 38.88794083333333, "is_reserved": 0, "is_disabled": 0, "fusion_lon": 0.0, "bike_id": "07c2b1b821e3f7bccbff8d700c0841cc", "lon": -76.955324, "rental_uris": {"ios": "https://dc.lft.to/lastmile_qr_scan", "android": "https://dc.lft.to/lastmile_qr_scan"}}, {"name": "abdc9fa915d480e290f6309a863b87f5", "fusion_lat": 0.0, "type": "electric_scooter", "lat": 38.869223833333336, "is_reserved": 0, "is_disabled": 0, "fusion_lon": 0.0, "bike_id": "abdc9fa915d480e290f6309a863b87f5", "lon": -76.97507033333333, "rental_uris": {"ios": "https://dc.lft.to/lastmile_qr_scan", "android": "https://dc.lft.to/lastmile_qr_scan"}}, {"name": "014a441076136fac73d4fc7c68693dd0", "fusion_lat": 0.0, "type": "electric_scooter", "lat": 38.899543333333334, "is_reserved": 0, "is_disabled": 0, "fusion_lon": 0.0, "bike_id": "014a441076136fac73d4fc7c68693dd0", "lon": -77.05272883333333, "rental_uris": {"ios": "https://dc.lft.to/lastmile_qr_scan", "android": "https://dc.lft.to/lastmile_qr_scan"}}, {"name": "18d777ecf93b1110f9a9530928ac65e0", "fusion_lat": 0.0, "type": "electric_scooter", "lat": 38.89564633333333, "is_reserved": 0, "is_disabled": 0, "fusion_lon": 0.0, "bike_id": "18d777ecf93b1110f9a9530928ac65e0", "lon": -77.046749, "rental_uris": {"ios": "https://dc.lft.to/lastmile_qr_scan", "android": "https://dc.lft.to/lastmile_qr_scan"}}, {"name": "cdfb64896eca7581204d83d21896e865", "fusion_lat": 0.0, "type": "electric_scooter", "lat": 38.943345, "is_reserved": 0, "is_disabled": 0, "fusion_lon": 0.0, "bike_id": "cdfb64896eca7581204d83d21896e865", "lon": -77.06049316666666, "rental_uris": {"ios": "https://dc.lft.to/lastmile_qr_scan", "android": "https://dc.lft.to/lastmile_qr_scan"}}, {"name": "49f099d513dfbb8c766479b573107563", "fusion_lat": 0.0, "type": "electric_scooter", "lat": 38.923375666666665, "is_reserved": 0, "is_disabled": 0, "fusion_lon": 0.0, "bike_id": "49f099d513dfbb8c766479b573107563", "lon": -77.04186033333333, "rental_uris": {"ios": "https://dc.lft.to/lastmile_qr_scan", "android": "https://dc.lft.to/lastmile_qr_scan"}}, {"name": "417d061e0d94afebeabce5a93ec5f496", "fusion_lat": 0.0, "type": "electric_scooter", "lat": 38.8804455, "is_reserved": 0, "is_disabled": 0, "fusion_lon": 0.0, "bike_id": "417d061e0d94afebeabce5a93ec5f496", "lon": -77.0051965, "rental_uris": {"ios": "https://dc.lft.to/lastmile_qr_scan", "android": "https://dc.lft.to/lastmile_qr_scan"}}, {"name": "52bc34a7ae3d698030834b597907722a", "fusion_lat": 0.0, "type": "electric_scooter", "lat": 38.90152233333333, "is_reserved": 0, "is_disabled": 0, "fusion_lon": 0.0, "bike_id": "52bc34a7ae3d698030834b597907722a", "lon": -77.042045, "rental_uris": {"ios": "https://dc.lft.to/lastmile_qr_scan", "android": "https://dc.lft.to/lastmile_qr_scan"}}, {"name": "96ab4ea102acc87452b399deebec2920", "fusion_lat": 0.0, "type": "electric_scooter", "lat": 38.904761666666666, "is_reserved": 0, "is_disabled": 0, "fusion_lon": 0.0, "bike_id": "96ab4ea102acc87452b399deebec2920", "lon": -77.035398, "rental_uris": {"ios": "https://dc.lft.to/lastmile_qr_scan", "android": "https://dc.lft.to/lastmile_qr_scan"}}, {"name": "3ca665f599ba0f677dde98eaa7ff5a11", "fusion_lat": 0.0, "type": "electric_scooter", "lat": 38.909525333333335, "is_reserved": 0, "is_disabled": 0, "fusion_lon": 0.0, "bike_id": "3ca665f599ba0f677dde98eaa7ff5a11", "lon": -77.03199666666667, "rental_uris": {"ios": "https://dc.lft.to/lastmile_qr_scan", "android": "https://dc.lft.to/lastmile_qr_scan"}}, {"name": "db6accc85c0d502733e1218a9fdf0004", "fusion_lat": 0.0, "type": "electric_scooter", "lat": 38.929447833333334, "is_reserved": 0, "is_disabled": 0, "fusion_lon": 0.0, "bike_id": "db6accc85c0d502733e1218a9fdf0004", "lon": -77.03679033333333, "rental_uris": {"ios": "https://dc.lft.to/lastmile_qr_scan", "android": "https://dc.lft.to/lastmile_qr_scan"}}, {"name": "3d3dc5f45509af088b7c0897ebc63479", "fusion_lat": 0.0, "type": "electric_scooter", "lat": 38.9360885, "is_reserved": 0, "is_disabled": 0, "fusion_lon": 0.0, "bike_id": "3d3dc5f45509af088b7c0897ebc63479", "lon": -77.0586085, "rental_uris": {"ios": "https://dc.lft.to/lastmile_qr_scan", "android": "https://dc.lft.to/lastmile_qr_scan"}}, {"name": "7b221539092a24f0b26bcdcdb897be17", "fusion_lat": 0.0, "type": "electric_scooter", "lat": 38.905036, "is_reserved": 0, "is_disabled": 0, "fusion_lon": 0.0, "bike_id": "7b221539092a24f0b26bcdcdb897be17", "lon": -77.06531, "rental_uris": {"ios": "https://dc.lft.to/lastmile_qr_scan", "android": "https://dc.lft.to/lastmile_qr_scan"}}, {"name": "2fc0e719efacc8a4c4ec62888f0fa70d", "fusion_lat": 0.0, "type": "electric_scooter", "lat": 38.92333816666667, "is_reserved": 0, "is_disabled": 0, "fusion_lon": 0.0, "bike_id": "2fc0e719efacc8a4c4ec62888f0fa70d", "lon": -77.01956183333333, "rental_uris": {"ios": "https://dc.lft.to/lastmile_qr_scan", "android": "https://dc.lft.to/lastmile_qr_scan"}}, {"name": "89606ec3d1c52ed58a661104a9cb4d7a", "fusion_lat": 0.0, "type": "electric_scooter", "lat": 38.90049533333333, "is_reserved": 0, "is_disabled": 0, "fusion_lon": 0.0, "bike_id": "89606ec3d1c52ed58a661104a9cb4d7a", "lon": -77.0006915, "rental_uris": {"ios": "https://dc.lft.to/lastmile_qr_scan", "android": "https://dc.lft.to/lastmile_qr_scan"}}, {"name": "5551a73f8df7cec17ff0ea6fc0c1bf95", "fusion_lat": 0.0, "type": "electric_scooter", "lat": 38.887378, "is_reserved": 0, "is_disabled": 0, "fusion_lon": 0.0, "bike_id": "5551a73f8df7cec17ff0ea6fc0c1bf95", "lon": -77.03222683333334, "rental_uris": {"ios": "https://dc.lft.to/lastmile_qr_scan", "android": "https://dc.lft.to/lastmile_qr_scan"}}, {"name": "2a786097cc5dbf385b770a3f254337d7", "fusion_lat": 0.0, "type": "electric_scooter", "lat": 38.909625166666665, "is_reserved": 0, "is_disabled": 0, "fusion_lon": 0.0, "bike_id": "2a786097cc5dbf385b770a3f254337d7", "lon": -77.02379366666666, "rental_uris": {"ios": "https://dc.lft.to/lastmile_qr_scan", "android": "https://dc.lft.to/lastmile_qr_scan"}}, {"name": "50c82c11710a0ce24239e60f6abe5639", "fusion_lat": 0.0, "type": "electric_scooter", "lat": 38.88358066666667, "is_reserved": 0, "is_disabled": 0, "fusion_lon": 0.0, "bike_id": "50c82c11710a0ce24239e60f6abe5639", "lon": -76.99612966666666, "rental_uris": {"ios": "https://dc.lft.to/lastmile_qr_scan", "android": "https://dc.lft.to/lastmile_qr_scan"}}, {"name": "faf8ee448e21284f235a93759c25d7e0", "fusion_lat": 0.0, "type": "electric_scooter", "lat": 38.91682433333333, "is_reserved": 0, "is_disabled": 0, "fusion_lon": 0.0, "bike_id": "faf8ee448e21284f235a93759c25d7e0", "lon": -77.02896916666667, "rental_uris": {"ios": "https://dc.lft.to/lastmile_qr_scan", "android": "https://dc.lft.to/lastmile_qr_scan"}}, {"name": "966f55bd7624932bd31919936a78c6e9", "fusion_lat": 0.0, "type": "electric_scooter", "lat": 38.90916683333333, "is_reserved": 0, "is_disabled": 0, "fusion_lon": 0.0, "bike_id": "966f55bd7624932bd31919936a78c6e9", "lon": -77.06422483333333, "rental_uris": {"ios": "https://dc.lft.to/lastmile_qr_scan", "android": "https://dc.lft.to/lastmile_qr_scan"}}, {"name": "e3f40da4c39ac3ed560d0e9503ece9bf", "fusion_lat": 0.0, "type": "electric_scooter", "lat": 38.91495483333333, "is_reserved": 0, "is_disabled": 0, "fusion_lon": 0.0, "bike_id": "e3f40da4c39ac3ed560d0e9503ece9bf", "lon": -77.03258916666667, "rental_uris": {"ios": "https://dc.lft.to/lastmile_qr_scan", "android": "https://dc.lft.to/lastmile_qr_scan"}}, {"name": "a63d2edc2cc145597805a89e19cc903b", "fusion_lat": 0.0, "type": "electric_scooter", "lat": 38.89224983333333, "is_reserved": 0, "is_disabled": 0, "fusion_lon": 0.0, "bike_id": "a63d2edc2cc145597805a89e19cc903b", "lon": -77.046482, "rental_uris": {"ios": "https://dc.lft.to/lastmile_qr_scan", "android": "https://dc.lft.to/lastmile_qr_scan"}}, {"name": "61eee73c6aea8c4bc4f1299dcd675bf1", "fusion_lat": 0.0, "type": "electric_scooter", "lat": 38.90339266666667, "is_reserved": 0, "is_disabled": 0, "fusion_lon": 0.0, "bike_id": "61eee73c6aea8c4bc4f1299dcd675bf1", "lon": -77.06650183333333, "rental_uris": {"ios": "https://dc.lft.to/lastmile_qr_scan", "android": "https://dc.lft.to/lastmile_qr_scan"}}, {"name": "3d76eab6e5b27a66b32a72a0b6d75f3b", "fusion_lat": 0.0, "type": "electric_scooter", "lat": 38.91682683333333, "is_reserved": 0, "is_disabled": 0, "fusion_lon": 0.0, "bike_id": "3d76eab6e5b27a66b32a72a0b6d75f3b", "lon": -77.02964366666667, "rental_uris": {"ios": "https://dc.lft.to/lastmile_qr_scan", "android": "https://dc.lft.to/lastmile_qr_scan"}}, {"name": "c0902fd2ff422d8c142537246bcde7c0", "fusion_lat": 0.0, "type": "electric_scooter", "lat": 38.87421466666667, "is_reserved": 0, "is_disabled": 0, "fusion_lon": 0.0, "bike_id": "c0902fd2ff422d8c142537246bcde7c0", "lon": -76.971811, "rental_uris": {"ios": "https://dc.lft.to/lastmile_qr_scan", "android": "https://dc.lft.to/lastmile_qr_scan"}}, {"name": "2a334a8e760d3bba63975de673e5fee3", "fusion_lat": 0.0, "type": "electric_scooter", "lat": 38.918410333333334, "is_reserved": 0, "is_disabled": 0, "fusion_lon": 0.0, "bike_id": "2a334a8e760d3bba63975de673e5fee3", "lon": -77.02607666666667, "rental_uris": {"ios": "https://dc.lft.to/lastmile_qr_scan", "android": "https://dc.lft.to/lastmile_qr_scan"}}, {"name": "8d426bb025854efaa8ee993752be915c", "fusion_lat": 0.0, "type": "electric_scooter", "lat": 38.90361083333333, "is_reserved": 0, "is_disabled": 0, "fusion_lon": 0.0, "bike_id": "8d426bb025854efaa8ee993752be915c", "lon": -77.01105033333333, "rental_uris": {"ios": "https://dc.lft.to/lastmile_qr_scan", "android": "https://dc.lft.to/lastmile_qr_scan"}}, {"name": "952b5eab513f0e1e3b84696f7a062750", "fusion_lat": 0.0, "type": "electric_scooter", "lat": 38.884817, "is_reserved": 0, "is_disabled": 0, "fusion_lon": 0.0, "bike_id": "952b5eab513f0e1e3b84696f7a062750", "lon": -77.01519516666667, "rental_uris": {"ios": "https://dc.lft.to/lastmile_qr_scan", "android": "https://dc.lft.to/lastmile_qr_scan"}}, {"name": "d54eb56ae8c847a9e9de571817d765c4", "fusion_lat": 0.0, "type": "electric_bike", "lat": 38.948966, "is_reserved": 0, "is_disabled": 0, "fusion_lon": 0.0, "bike_id": "d54eb56ae8c847a9e9de571817d765c4", "lon": -76.963744, "rental_uris": {"ios": "https://dc.lft.to/lastmile_qr_scan", "android": "https://dc.lft.to/lastmile_qr_scan"}}, {"name": "dcdeb722bc9b1fb859c8c7747f05c0a8", "fusion_lat": 0.0, "type": "electric_scooter", "lat": 38.898767166666666, "is_reserved": 0, "is_disabled": 0, "fusion_lon": 0.0, "bike_id": "dcdeb722bc9b1fb859c8c7747f05c0a8", "lon": -76.9315865, "rental_uris": {"ios": "https://dc.lft.to/lastmile_qr_scan", "android": "https://dc.lft.to/lastmile_qr_scan"}}, {"name": "6c8f6a8657bcf4222a7a3c8e4c498702", "fusion_lat": 0.0, "type": "electric_scooter", "lat": 38.94178083333333, "is_reserved": 0, "is_disabled": 0, "fusion_lon": 0.0, "bike_id": "6c8f6a8657bcf4222a7a3c8e4c498702", "lon": -77.041348, "rental_uris": {"ios": "https://dc.lft.to/lastmile_qr_scan", "android": "https://dc.lft.to/lastmile_qr_scan"}}, {"name": "705f38f5463979a6565eab29cb4698bc", "fusion_lat": 0.0, "type": "electric_bike", "lat": 38.863861, "is_reserved": 0, "is_disabled": 0, "fusion_lon": 0.0, "bike_id": "705f38f5463979a6565eab29cb4698bc", "lon": -76.989903, "rental_uris": {"ios": "https://dc.lft.to/lastmile_qr_scan", "android": "https://dc.lft.to/lastmile_qr_scan"}}, {"name": "2074a8a11ff49ea52229040d60cf1c87", "fusion_lat": 0.0, "type": "electric_scooter", "lat": 38.911834, "is_reserved": 0, "is_disabled": 0, "fusion_lon": 0.0, "bike_id": "2074a8a11ff49ea52229040d60cf1c87", "lon": -77.03968283333333, "rental_uris": {"ios": "https://dc.lft.to/lastmile_qr_scan", "android": "https://dc.lft.to/lastmile_qr_scan"}}, {"name": "63e5de347d191862c14aa83cd8981552", "fusion_lat": 0.0, "type": "electric_scooter", "lat": 38.923635833333336, "is_reserved": 0, "is_disabled": 0, "fusion_lon": 0.0, "bike_id": "63e5de347d191862c14aa83cd8981552", "lon": -77.05044266666667, "rental_uris": {"ios": "https://dc.lft.to/lastmile_qr_scan", "android": "https://dc.lft.to/lastmile_qr_scan"}}, {"name": "ec23992ac92b11968d744fe093476507", "fusion_lat": 0.0, "type": "electric_bike", "lat": 38.911759333333336, "is_reserved": 0, "is_disabled": 0, "fusion_lon": 0.0, "bike_id": "ec23992ac92b11968d744fe093476507", "lon": -77.01148716666667, "rental_uris": {"ios": "https://dc.lft.to/lastmile_qr_scan", "android": "https://dc.lft.to/lastmile_qr_scan"}}, {"name": "ffc9ddbc2cdacfdfcb6cc64fceb47f6e", "fusion_lat": 0.0, "type": "electric_scooter", "lat": 38.90268316666667, "is_reserved": 0, "is_disabled": 0, "fusion_lon": 0.0, "bike_id": "ffc9ddbc2cdacfdfcb6cc64fceb47f6e", "lon": -76.987081, "rental_uris": {"ios": "https://dc.lft.to/lastmile_qr_scan", "android": "https://dc.lft.to/lastmile_qr_scan"}}, {"name": "be99b8feb3ade04ca7c5f82cfa2fdb7f", "fusion_lat": 0.0, "type": "electric_bike", "lat": 39.0532025, "is_reserved": 0, "is_disabled": 0, "fusion_lon": 0.0, "bike_id": "be99b8feb3ade04ca7c5f82cfa2fdb7f", "lon": -77.0477145, "rental_uris": {"ios": "https://dc.lft.to/lastmile_qr_scan", "android": "https://dc.lft.to/lastmile_qr_scan"}}, {"name": "1e91314fead9fc7988ad418c7fb35266", "fusion_lat": 0.0, "type": "electric_scooter", "lat": 38.8653615, "is_reserved": 0, "is_disabled": 0, "fusion_lon": 0.0, "bike_id": "1e91314fead9fc7988ad418c7fb35266", "lon": -76.98708416666666, "rental_uris": {"ios": "https://dc.lft.to/lastmile_qr_scan", "android": "https://dc.lft.to/lastmile_qr_scan"}}, {"name": "4e6ae8d37196efe8a31a1e495edda55c", "fusion_lat": 0.0, "type": "electric_scooter", "lat": 38.922528, "is_reserved": 0, "is_disabled": 0, "fusion_lon": 0.0, "bike_id": "4e6ae8d37196efe8a31a1e495edda55c", "lon": -76.9938865, "rental_uris": {"ios": "https://dc.lft.to/lastmile_qr_scan", "android": "https://dc.lft.to/lastmile_qr_scan"}}, {"name": "82948f89a2f948f6ad4a533887dd844b", "fusion_lat": 0.0, "type": "electric_scooter", "lat": 38.90585, "is_reserved": 0, "is_disabled": 0, "fusion_lon": 0.0, "bike_id": "82948f89a2f948f6ad4a533887dd844b", "lon": -77.02401883333333, "rental_uris": {"ios": "https://dc.lft.to/lastmile_qr_scan", "android": "https://dc.lft.to/lastmile_qr_scan"}}, {"name": "65b6d2a03ee41b5aef3c1dbdca7d1ceb", "fusion_lat": 0.0, "type": "electric_scooter", "lat": 38.901219, "is_reserved": 0, "is_disabled": 0, "fusion_lon": 0.0, "bike_id": "65b6d2a03ee41b5aef3c1dbdca7d1ceb", "lon": -77.04202383333333, "rental_uris": {"ios": "https://dc.lft.to/lastmile_qr_scan", "android": "https://dc.lft.to/lastmile_qr_scan"}},