{"data": {"bikes": [{"fusion_lat": 0.0, "name": "151b22d38a84f290c919fea7f00d511d", "is_disabled": 0, "rental_uris": {"android": "https://dc.lft.to/lastmile_qr_scan", "ios": "https://dc.lft.to/lastmile_qr_scan"}, "fusion_lon": 0.0, "lat": 38.911123333333336, "bike_id": "151b22d38a84f290c919fea7f00d511d", "type": "electric_scooter", "is_reserved": 0, "lon": -77.0440195}, {"fusion_lat": 0.0, "name": "b7b4ebc64babd2c22c9a21de4117fdd8", "is_disabled": 0, "rental_uris": {"android": "https://dc.lft.to/lastmile_qr_scan", "ios": "https://dc.lft.to/lastmile_qr_scan"}, "fusion_lon": 0.0, "lat": 38.918268833333336, "bike_id": "b7b4ebc64babd2c22c9a21de4117fdd8", "type": "electric_scooter", "is_reserved": 0, "lon": -77.03210666666666}, {"fusion_lat": 0.0, "name": "193a5a23c8cd2d51aa20c35a11a6fcf3", "is_disabled": 0, "rental_uris": {"android": "https://dc.lft.to/lastmile_qr_scan", "ios": "https://dc.lft.to/lastmile_qr_scan"}, "fusion_lon": 0.0, "lat": 38.8926365, "bike_id": "193a5a23c8cd2d51aa20c35a11a6fcf3", "type": "electric_scooter", "is_reserved": 0, "lon": -77.0503025}, {"fusion_lat": 0.0, "name": "762e05f8244dcd3843006d06ab3b3fce", "is_disabled": 0, "rental_uris": {"android": "https://dc.lft.to/lastmile_qr_scan", "ios": "https://dc.lft.to/lastmile_qr_scan"}, "fusion_lon": 0.0, "lat": 38.92704883333333, "bike_id": "762e05f8244dcd3843006d06ab3b3fce", "type": "electric_scooter", "is_reserved": 0, "lon": -77.02077883333334}, {"fusion_lat": 0.0, "name": "27d3ecd8687a33eb4e6ce53bc7e25c9e", "is_disabled": 0, "rental_uris": {"android": "https://dc.lft.to/lastmile_qr_scan", "ios": "https://dc.lft.to/lastmile_qr_scan"}, "fusion_lon": 0.0, "lat": 38.902443, "bike_id": "27d3ecd8687a33eb4e6ce53bc7e25c9e", "type": "electric_scooter", "is_reserved": 0, "lon": -77.03462833333333}, {"fusion_lat": 0.0, "name": "418eb4fea69238a8e7891ca67a3f0296", "is_disabled": 0, "rental_uris": {"android": "https://dc.lft.to/lastmile_qr_scan", "ios": "https://dc.lft.to/lastmile_qr_scan"}, "fusion_lon": 0.0, "lat": 38.887118, "bike_id": "418eb4fea69238a8e7891ca67a3f0296", "type": "electric_scooter", "is_reserved": 0, "lon": -76.99674566666667}, {"fusion_lat": 0.0, "name": "71fa508ccfac9d6636929402ae69b029", "is_disabled": 0, "rental_uris": {"android": "https://dc.lft.to/lastmile_qr_scan", "ios": "https://dc.lft.to/lastmile_qr_scan"}, "fusion_lon": 0.0, "lat": 38.923199333333336, "bike_id": "71fa508ccfac9d6636929402ae69b029", "type": "electric_scooter", "is_reserved": 0, "lon": -77.05787933333333}, {"fusion_lat": 0.0, "name": "50d5666605905872260d3611d00cc9bb", "is_disabled": 0, "rental_uris": {"android": "https://dc.lft.to/lastmile_qr_scan", "ios": "https://dc.lft.to/lastmile_qr_scan"}, "fusion_lon": 0.0, "lat": 38.913992, "bike_id": "50d5666605905872260d3611d00cc9bb", "type": "electric_scooter", "is_reserved": 0, "lon": -77.0318305}, {"fusion_lat": 0.0, "name": "1bc7a1aabb3dec40a63edd15ba64804f", "is_disabled": 0, "rental_uris": {"android": "https://dc.lft.to/lastmile_qr_scan", "ios": "https://dc.lft.to/lastmile_qr_scan"}, "fusion_lon": 0.0, "lat": 38.934478, "bike_id": "1bc7a1aabb3dec40a63edd15ba64804f", "type": "electric_scooter", "is_reserved": 0, "lon": -77.03872733333333}, {"fusion_lat": 0.0, "name": "66067ffec8f72ea1da247210964d2144", "is_disabled": 0, "rental_uris": {"android": "https://dc.lft.to/lastmile_qr_scan", "ios": "https://dc.lft.to/lastmile_qr_scan"}, "fusion_lon": 0.0, "lat": 38.9306365, "bike_id": "66067ffec8f72ea1da247210964d2144", "type": "electric_scooter", "is_reserved": 0, "lon": -77.03193233333333}, {"fusion_lat": 0.0, "name": "15ca529b92632b362390639a243e1ea8", "is_disabled": 0, "rental_uris": {"android": "https://dc.lft.to/lastmile_qr_scan", "ios": "https://dc.lft.to/lastmile_qr_scan"}, "fusion_lon": 0.0, "lat": 38.935366, "bike_id": "15ca529b92632b362390639a243e1ea8", "type": "electric_scooter", "is_reserved": 0, "lon": -77.0452355}, {"fusion_lat": 0.0, "name": "d4688972d941617ed638a47c0b877185", "is_disabled": 0, "rental_uris": {"android": "https://dc.lft.to/lastmile_qr_scan", "ios": "https://dc.lft.to/lastmile_qr_scan"}, "fusion_lon": 0.0, "lat": 38.90349716666667, "bike_id": "d4688972d941617ed638a47c0b877185", "type": "electric_scooter", "is_reserved": 0, "lon": -76.974753}, {"fusion_lat": 0.0, "name": "d95fe452aeee245430edffb0631be236", "is_disabled": 0, "rental_uris": {"android": "https://dc.lft.to/lastmile_qr_scan", "ios": "https://dc.lft.to/lastmile_qr_scan"}, "fusion_lon": 0.0, "lat": 38.93821333333333, "bike_id": "d95fe452aeee245430edffb0631be236", "type": "electric_scooter", "is_reserved": 0, "lon": -77.02649833333334}, {"fusion_lat": 0.0, "name": "ced88513bd1e76cf42d2c201ff5e52d5", "is_disabled": 0, "rental_uris": {"android": "https://dc.lft.to/lastmile_qr_scan", "ios": "https://dc.lft.to/lastmile_qr_scan"}, "fusion_lon": 0.0, "lat": 38.897305833333334, "bike_id": "ced88513bd1e76cf42d2c201ff5e52d5", "type": "electric_scooter", "is_reserved": 0, "lon": -77.00759616666667}, {"fusion_lat": 0.0, "name": "f4ca1242e7d5efb87c9826289cf419e4", "is_disabled": 0, "rental_uris": {"android": "https://dc.lft.to/lastmile_qr_scan", "ios": "https://dc.lft.to/lastmile_qr_scan"}, "fusion_lon": 0.0, "lat": 38.90934283333333, "bike_id": "f4ca1242e7d5efb87c9826289cf419e4", "type": "electric_scooter", "is_reserved": 0, "lon": -77.06260933333333}, {"fusion_lat": 0.0, "name": "b42fc8580b14003e6187f816a1fdd79e", "is_disabled": 0, "rental_uris": {"android": "https://dc.lft.to/lastmile_qr_scan", "ios": "https://dc.lft.to/lastmile_qr_scan"}, "fusion_lon": 0.0, "lat": 38.8981955, "bike_id": "b42fc8580b14003e6187f816a1fdd79e", "type": "electric_scooter", "is_reserved": 0, "lon": -77.0467775}, {"fusion_lat": 0.0, "name": "9551ece253df1f5d2585bb13bab74e60", "is_disabled": 0, "rental_uris": {"android": "https://dc.lft.to/lastmile_qr_scan", "ios": "https://dc.lft.to/lastmile_qr_scan"}, "fusion_lon": 0.0, "lat": 38.88404583333333, "bike_id": "9551ece253df1f5d2585bb13bab74e60", "type": "electric_scooter", "is_reserved": 0, "lon": -77.008429}, {"fusion_lat": 0.0, "name": "7657f6b949b7f70479e3a5443b80bfa0", "is_disabled": 0, "rental_uris": {"android": "https://dc.lft.to/lastmile_qr_scan", "ios": "https://dc.lft.to/lastmile_qr_scan"}, "fusion_lon": 0.0, "lat": 38.918420833333336, "bike_id": "7657f6b949b7f70479e3a5443b80bfa0", "type": "electric_scooter", "is_reserved": 0, "lon": -77.06379366666667}, {"fusion_lat": 0.0, "name": "1164e7cd9e651d7988591b2eefa590b6", "is_disabled": 0, "rental_uris": {"android": "https://dc.lft.to/lastmile_qr_scan", "ios": "https://dc.lft.to/lastmile_qr_scan"}, "fusion_lon": 0.0, "lat": 38.9207295, "bike_id": "1164e7cd9e651d7988591b2eefa590b6", "type": "electric_scooter", "is_reserved": 0, "lon": -77.0232615}, {"fusion_lat": 0.0, "name": "86a5f64f8a93c72ca09ae64d4d711fdd", "is_disabled": 0, "rental_uris": {"android": "https://dc.lft.to/lastmile_qr_scan", "ios": "https://dc.lft.to/lastmile_qr_scan"}, "fusion_lon": 0.0, "lat": 38.9009885, "bike_id": "86a5f64f8a93c72ca09ae64d4d711fdd", "type": "electric_scooter", "is_reserved": 0, "lon": -77.05067433333333}, {"fusion_lat": 0.0, "name": "3cdc83658a5476a4007233a92308993e", "is_disabled": 0, "rental_uris": {"android": "https://dc.lft.to/lastmile_qr_scan", "ios": "https://dc.lft.to/lastmile_qr_scan"}, "fusion_lon": 0.0, "lat": 38.9736415, "bike_id": "3cdc83658a5476a4007233a92308993e", "type": "electric_scooter", "is_reserved": 0, "lon": -77.012917}, {"fusion_lat": 0.0, "name": "b23bf661fb6f3bd651867595044f4d62", "is_disabled": 0, "rental_uris": {"android": "https://dc.lft.to/lastmile_qr_scan", "ios": "https://dc.lft.to/lastmile_qr_scan"}, "fusion_lon": 0.0, "lat": 38.90668383333333, "bike_id": "b23bf661fb6f3bd651867595044f4d62", "type": "electric_bike", "is_reserved": 0, "lon": -77.02798083333333}, {"fusion_lat": 0.0, "name": "1cb55f60419d3f28127f05c2bcca1b0f", "is_disabled": 0, "rental_uris": {"android": "https://dc.lft.to/lastmile_qr_scan", "ios": "https://dc.lft.to/lastmile_qr_scan"}, "fusion_lon": 0.0, "lat": 38.91938016666667, "bike_id": "1cb55f60419d3f28127f05c2bcca1b0f", "type": "electric_scooter", "is_reserved": 0, "lon": -77.0250275}, {"fusion_lat": 0.0, "name": "e1a5ecb1ded213aadd88099e938b62a3", "is_disabled": 0, "rental_uris": {"android": "https://dc.lft.to/lastmile_qr_scan", "ios": "https://dc.lft.to/lastmile_qr_scan"}, "fusion_lon": 0.0, "lat": 38.9213185, "bike_id": "e1a5ecb1ded213aadd88099e938b62a3", "type": "electric_scooter", "is_reserved": 0, "lon": -77.0442335}, {"fusion_lat": 0.0, "name": "027d00b6ac0fa26a27e17e63a59f7f63", "is_disabled": 0, "rental_uris": {"android": "https://dc.lft.to/lastmile_qr_scan", "ios": "https://dc.lft.to/lastmile_qr_scan"}, "fusion_lon": 0.0, "lat": 38.868301333333335, "bike_id": "027d00b6ac0fa26a27e17e63a59f7f63", "type": "electric_scooter", "is_reserved": 0, "lon": -77.0112525}, {"fusion_lat": 0.0, "name": "73ad9a8b5d88d801be8339e1633b4222", "is_disabled": 0, "rental_uris": {"android": "https://dc.lft.to/lastmile_qr_scan", "ios": "https://dc.lft.to/lastmile_qr_scan"}, "fusion_lon": 0.0, "lat": 38.91958833333333, "bike_id": "73ad9a8b5d88d801be8339e1633b4222", "type": "electric_bike", "is_reserved": 0, "lon": -77.1011165}, {"fusion_lat": 0.0, "name": "8913af6ab9618eef04ad156fa3224afb", "is_disabled": 0, "rental_uris": {"android": "https://dc.lft.to/lastmile_qr_scan", "ios": "https://dc.lft.to/lastmile_qr_scan"}, "fusion_lon": 0.0, "lat": 38.9167625, "bike_id": "8913af6ab9618eef04ad156fa3224afb", "type": "electric_scooter", "is_reserved": 0, "lon": -77.02954966666667}, {"fusion_lat": 0.0, "name": "e48dc56b54970ad3d1fc3f0939fc35d8", "is_disabled": 0, "rental_uris": {"android": "https://dc.lft.to/lastmile_qr_scan", "ios": "https://dc.lft.to/lastmile_qr_scan"}, "fusion_lon": 0.0, "lat": 38.917170666666664, "bike_id": "e48dc56b54970ad3d1fc3f0939fc35d8", "type": "electric_scooter", "is_reserved": 0, "lon": -77.03102583333333}, {"fusion_lat": 0.0, "name": "202faa83d3b799b0b49c3a7330a5b05f", "is_disabled": 0, "rental_uris": {"android": "https://dc.lft.to/lastmile_qr_scan", "ios": "https://dc.lft.to/lastmile_qr_scan"}, "fusion_lon": 0.0, "lat": 38.9003725, "bike_id": "202faa83d3b799b0b49c3a7330a5b05f", "type": "electric_scooter", "is_reserved": 0, "lon": -77.03325666666667}, {"fusion_lat": 0.0, "name": "545fd231ce0d0d20ca09571a222957f4", "is_disabled": 0, "rental_uris": {"android": "https://dc.lft.to/lastmile_qr_scan", "ios": "https://dc.lft.to/lastmile_qr_scan"}, "fusion_lon": 0.0, "lat": 38.937444166666666, "bike_id": "545fd231ce0d0d20ca09571a222957f4", "type": "electric_scooter", "is_reserved": 0, "lon": -77.0359325}, {"fusion_lat": 0.0, "name": "d23a4a4d6597c995542568f66c08d771", "is_disabled": 0, "rental_uris": {"android": "https://dc.lft.to/lastmile_qr_scan", "ios": "https://dc.lft.to/lastmile_qr_scan"}, "fusion_lon": 0.0, "lat": 38.913392, "bike_id": "d23a4a4d6597c995542568f66c08d771", "type": "electric_scooter", "is_reserved": 0, "lon": -77.01031733333333}, {"fusion_lat": 0.0, "name": "967bc30295c3df1542f67858da5da135", "is_disabled": 0, "rental_uris": {"android": "https://dc.lft.to/lastmile_qr_scan", "ios": "https://dc.lft.to/lastmile_qr_scan"}, "fusion_lon": 0.0, "lat": 38.905007833333336, "bike_id": "967bc30295c3df1542f67858da5da135", "type": "electric_scooter", "is_reserved": 0, "lon": -77.0094075}, {"fusion_lat": 0.0, "name": "8ffcf99e0ef5c4b707c84cff8d3a6833", "is_disabled": 0, "rental_uris": {"android": "https://dc.lft.to/lastmile_qr_scan", "ios": "https://dc.lft.to/lastmile_qr_scan"}, "fusion_lon": 0.0, "lat": 38.884502833333336, "bike_id": "8ffcf99e0ef5c4b707c84cff8d3a6833", "type": "electric_scooter", "is_reserved": 0, "lon": -76.99390116666666}, {"fusion_lat": 0.0, "name": "610f2360bf25e7a2b8e03594df11c8d8", "is_disabled": 0, "rental_uris": {"android": "https://dc.lft.to/lastmile_qr_scan", "ios": "https://dc.lft.to/lastmile_qr_scan"}, "fusion_lon": 0.0, "lat": 38.90719166666667, "bike_id": "610f2360bf25e7a2b8e03594df11c8d8", "type": "electric_scooter", "is_reserved": 0, "lon": -77.05051366666666}, {"fusion_lat": 0.0, "name": "8e0b87b8f7f3d614ba429a57cf412af2", "is_disabled": 0, "rental_uris": {"android": "https://dc.lft.to/lastmile_qr_scan", "ios": "https://dc.lft.to/lastmile_qr_scan"}, "fusion_lon": 0.0, "lat": 38.8711735, "bike_id": "8e0b87b8f7f3d614ba429a57cf412af2", "type": "electric_scooter", "is_reserved": 0, "lon": -77.00572266666667}, {"fusion_lat": 0.0, "name": "ffbe36e8d8dff4136fb5350c0f73089d", "is_disabled": 0, "rental_uris": {"android": "https://dc.lft.to/lastmile_qr_scan", "ios": "https://dc.lft.to/lastmile_qr_scan"}, "fusion_lon": 0.0, "lat": 38.921221833333334, "bike_id": "ffbe36e8d8dff4136fb5350c0f73089d", "type": "electric_scooter", "is_reserved": 0, "lon": -77.07223783333333}, {"fusion_lat": 0.0, "name": "a89e467bf9e6b3387859877d12d8845b", "is_disabled": 0, "rental_uris": {"android": "https://dc.lft.to/lastmile_qr_scan", "ios": "https://dc.lft.to/lastmile_qr_scan"}, "fusion_lon": 0.0, "lat": 38.920796833333334, "bike_id": "a89e467bf9e6b3387859877d12d8845b", "type": "electric_scooter", "is_reserved": 0, "lon": -77.02306133333333}, {"fusion_lat": 0.0, "name": "e7f7ee9360dd64aa2bc1db2d7c0d6262", "is_disabled": 0, "rental_uris": {"android": "https://dc.lft.to/lastmile_qr_scan", "ios": "https://dc.lft.to/lastmile_qr_scan"}, "fusion_lon": 0.0, "lat": 38.90169316666667, "bike_id": "e7f7ee9360dd64aa2bc1db2d7c0d6262", "type": "electric_scooter", "is_reserved": 0, "lon": -76.99262}, {"fusion_lat": 0.0, "name": "eadbaa88837113dfe3396142925d4abf", "is_disabled": 0, "rental_uris": {"android": "https://dc.lft.to/lastmile_qr_scan", "ios": "https://dc.lft.to/lastmile_qr_scan"}, "fusion_lon": 0.0, "lat": 38.806813, "bike_id": "eadbaa88837113dfe3396142925d4abf", "type": "electric_bike", "is_reserved": 0, "lon": -77.06917966666667}, {"fusion_lat": 0.0, "name": "edb39606beb80aa14b4ba9f48570c356", "is_disabled": 0, "rental_uris": {"android": "https://dc.lft.to/lastmile_qr_scan", "ios": "https://dc.lft.to/lastmile_qr_scan"}, "fusion_lon": 0.0, "lat": 38.90693233333333, "bike_id": "edb39606beb80aa14b4ba9f48570c356", "type": "electric_scooter", "is_reserved": 0, "lon": -77.00057483333333}, {"fusion_lat": 0.0, "name": "65b8d3b46b5885d65c9cf3771a8bae86", "is_disabled": 0, "rental_uris": {"android": "https://dc.lft.to/lastmile_qr_scan", "ios": "https://dc.lft.to/lastmile_qr_scan"}, "fusion_lon": 0.0, "lat": 38.94276516666667, "bike_id": "65b8d3b46b5885d65c9cf3771a8bae86", "type": "electric_scooter", "is_reserved": 0, "lon": -77.03264816666666}, {"fusion_lat": 0.0, "name": "7c1ea0a12d1a11c580e4c6f6d8e4df64", "is_disabled": 0, "rental_uris": {"android": "https://dc.lft.to/lastmile_qr_scan", "ios": "https://dc.lft.to/lastmile_qr_scan"}, "fusion_lon": 0.0, "lat": 38.83516266666667, "bike_id": "7c1ea0a12d1a11c580e4c6f6d8e4df64", "type": "electric_bike", "is_reserved": 0, "lon": -76.986832}, {"fusion_lat": 0.0, "name": "9a4dc45a71256a6f6332d6193b8b7168", "is_disabled": 0, "rental_uris": {"android": "https://dc.lft.to/lastmile_qr_scan", "ios": "https://dc.lft.to/lastmile_qr_scan"}, "fusion_lon": 0.0, "lat": 38.907738333333334, "bike_id": "9a4dc45a71256a6f6332d6193b8b7168", "type": "electric_scooter", "is_reserved": 0, "lon": -77.05598433333333}, {"fusion_lat": 0.0, "name": "90db9ea29d93c07efb10f2e5cdbe1985", "is_disabled": 0, "rental_uris": {"android": "https://dc.lft.to/lastmile_qr_scan", "ios": "https://dc.lft.to/lastmile_qr_scan"}, "fusion_lon": 0.0, "lat": 38.900612833333334, "bike_id": "90db9ea29d93c07efb10f2e5cdbe1985", "type": "electric_scooter", "is_reserved": 0, "lon": -76.9338895}, {"fusion_lat": 0.0, "name": "9fb95a20f0e26d5bac0b7419ed62e54f", "is_disabled": 0, "rental_uris": {"android": "https://dc.lft.to/lastmile_qr_scan", "ios": "https://dc.lft.to/lastmile_qr_scan"}, "fusion_lon": 0.0, "lat": 38.94008983333333, "bike_id": "9fb95a20f0e26d5bac0b7419ed62e54f", "type": "electric_scooter", "is_reserved": 0, "lon": -77.08417633333333}, {"fusion_lat": 0.0, "name": "16a7f9a049931318f17dad81125f01b7", "is_disabled": 0, "rental_uris": {"android": "https://dc.lft.to/lastmile_qr_scan", "ios": "https://dc.lft.to/lastmile_qr_scan"}, "fusion_lon": 0.0, "lat": 38.906901, "bike_id": "16a7f9a049931318f17dad81125f01b7", "type": "electric_scooter", "is_reserved": 0, "lon": -77.07216133333333}, {"fusion_lat": 0.0, "name": "5ba2d5631701d7d551fa6f284f8d8b17", "is_disabled": 0, "rental_uris": {"android": "https://dc.lft.to/lastmile_qr_scan", "ios": "https://dc.lft.to/lastmile_qr_scan"}, "fusion_lon": 0.0, "lat": 38.901636, "bike_id": "5ba2d5631701d7d551fa6f284f8d8b17", "type": "electric_scooter", "is_reserved": 0, "lon": -77.0202075}, {"fusion_lat": 0.0, "name": "7b818159f58fd49db274fb42c7604a73", "is_disabled": 0, "rental_uris": {"android": "https://dc.lft.to/lastmile_qr_scan", "ios": "https://dc.lft.to/lastmile_qr_scan"}, "fusion_lon": 0.0, "lat": 38.90257, "bike_id": "7b818159f58fd49db274fb42c7604a73", "type": "electric_scooter", "is_reserved": 0, "lon": -77.02122116666666}, {"fusion_lat": 0.0, "name": "0673a800c7d88b6a59d1af8bde60984c", "is_disabled": 0, "rental_uris": {"android": "https://dc.lft.to/lastmile_qr_scan", "ios": "https://dc.lft.to/lastmile_qr_scan"}, "fusion_lon": 0.0, "lat": 38.91560166666667, "bike_id": "0673a800c7d88b6a59d1af8bde60984c", "type": "electric_scooter", "is_reserved": 0, "lon": -77.01133433333334}, {"fusion_lat": 0.0, "name": "9a411c15f7b883d8291be89e9564ebdd", "is_disabled": 0, "rental_uris": {"android": "https://dc.lft.to/lastmile_qr_scan", "ios": "https://dc.lft.to/lastmile_qr_scan"}, "fusion_lon": 0.0, "lat": 38.89594066666667, "bike_id": "9a411c15f7b883d8291be89e9564ebdd", "type": "electric_scooter", "is_reserved": 0, "lon": -77.0257995}, {"fusion_lat": 0.0, "name": "c89d607bc7be87386aa69c4f718167f1", "is_disabled": 0, "rental_uris": {"android": "https://dc.lft.to/lastmile_qr_scan", "ios": "https://dc.lft.to/lastmile_qr_scan"}, "fusion_lon": 0.0, "lat": 38.902649833333335, "bike_id": "c89d607bc7be87386aa69c4f718167f1", "type": "electric_scooter", "is_reserved": 0, "lon": -77.04480533333333}, {"fusion_lat": 0.0, "name": "2c77775223b904e070c04af3120c6a12", "is_disabled": 0, "rental_uris": {"android": "https://dc.lft.to/lastmile_qr_scan", "ios": "https://dc.lft.to/lastmile_qr_scan"}, "fusion_lon": 0.0, "lat": 38.8793935, "bike_id": "2c77775223b904e070c04af3120c6a12", "type": "electric_scooter", "is_reserved": 0, "lon": -77.00819916666667}, {"fusion_lat": 0.0, "name": "08673dc62347bbc71fe5faf500e7eac7", "is_disabled": 0, "rental_uris": {"android": "https://dc.lft.to/lastmile_qr_scan", "ios": "https://dc.lft.to/lastmile_qr_scan"}, "fusion_lon": 0.0, "lat": 38.89713666666667, "bike_id": "08673dc62347bbc71fe5faf500e7eac7", "type": "electric_scooter", "is_reserved": 0, "lon": -77.02635133333334}, {"fusion_lat": 0.0, "name": "bc73221ee368a37cad0aa144330ddf39", "is_disabled": 0, "rental_uris": {"android": "https://dc.lft.to/lastmile_qr_scan", "ios": "https://dc.lft.to/lastmile_qr_scan"}, "fusion_lon": 0.0, "lat": 38.887717, "bike_id": "bc73221ee368a37cad0aa144330ddf39", "type": "electric_scooter", "is_reserved": 0, "lon": -76.97755766666667}, {"fusion_lat": 0.0, "name": "ac37ac5f4979b6f6187d05718a3fe510", "is_disabled": 0, "rental_uris": {"android": "https://dc.lft.to/lastmile_qr_scan", "ios": "https://dc.lft.to/lastmile_qr_scan"}, "fusion_lon": 0.0, "lat": 38.8545815, "bike_id": "ac37ac5f4979b6f6187d05718a3fe510", "type": "electric_scooter", "is_reserved": 0, "lon": -76.97234633333333}, {"fusion_lat": 0.0, "name": "af527e0009dab6a3e4c23da3302a0d1f", "is_disabled": 0, "rental_uris": {"android": "https://dc.lft.to/lastmile_qr_scan", "ios": "https://dc.lft.to/lastmile_qr_scan"}, "fusion_lon": 0.0, "lat": 38.92975333333333, "bike_id": "af527e0009dab6a3e4c23da3302a0d1f", "type": "electric_scooter", "is_reserved": 0, "lon": -77.03229316666666}, {"fusion_lat": 0.0, "name": "bd7c7f555f8d4d95ec0d92bc8cef9868", "is_disabled": 0, "rental_uris": {"android": "https://dc.lft.to/lastmile_qr_scan", "ios": "https://dc.lft.to/lastmile_qr_scan"}, "fusion_lon": 0.0, "lat": 38.919807, "bike_id": "bd7c7f555f8d4d95ec0d92bc8cef9868", "type": "electric_scooter", "is_reserved": 0, "lon": -77.04141016666667}, {"fusion_lat": 0.0, "name": "86d622fdc4f5bbcf2e8149eb3713a54d", "is_disabled": 0, "rental_uris": {"android": "https://dc.lft.to/lastmile_qr_scan", "ios": "https://dc.lft.to/lastmile_qr_scan"}, "fusion_lon": 0.0, "lat": 38.9170435, "bike_id": "86d622fdc4f5bbcf2e8149eb3713a54d", "type": "electric_scooter", "is_reserved": 0, "lon": -77.03472066666667}, {"fusion_lat": 0.0, "name": "8223a369399150fbf608a5b27c69d9db", "is_disabled": 0, "rental_uris": {"android": "https://dc.lft.to/lastmile_qr_scan", "ios": "https://dc.lft.to/lastmile_qr_scan"}, "fusion_lon": 0.0, "lat": 38.92885233333333, "bike_id": "8223a369399150fbf608a5b27c69d9db", "type": "electric_scooter", "is_reserved": 0, "lon": -77.03359366666666}, {"fusion_lat": 0.0, "name": "d67fbbc6a2389a6eb1b1657d90248c0b", "is_disabled": 0, "rental_uris": {"android": "https://dc.lft.to/lastmile_qr_scan", "ios": "https://dc.lft.to/lastmile_qr_scan"}, "fusion_lon": 0.0, "lat": 38.926571, "bike_id": "d67fbbc6a2389a6eb1b1657d90248c0b", "type": "electric_scooter", "is_reserved": 0, "lon": -77.02432833333333}, {"fusion_lat": 0.0, "name": "60332dffaa50b467d134dc2953d59e84", "is_disabled": 0, "rental_uris": {"android": "https://dc.lft.to/lastmile_qr_scan", "ios": "https://dc.lft.to/lastmile_qr_scan"}, "fusion_lon": 0.0, "lat": 38.88226733333333, "bike_id": "60332dffaa50b467d134dc2953d59e84", "type": "electric_scooter", "is_reserved": 0, "lon": -77.02942333333333}, {"fusion_lat": 0.0, "name": "00c5a13b02e279231ed0e5df8a24bdef", "is_disabled": 0, "rental_uris": {"android": "https://dc.lft.to/lastmile_qr_scan", "ios": "https://dc.lft.to/lastmile_qr_scan"}, "fusion_lon": 0.0, "lat": 38.931495166666664, "bike_id": "00c5a13b02e279231ed0e5df8a24bdef", "type": "electric_scooter", "is_reserved": 0, "lon": -77.03962383333334}, {"fusion_lat": 0.0, "name": "6e09b40b20b4654c284c5b6eeb9ca2ef", "is_disabled": 0, "rental_uris": {"android": "https://dc.lft.to/lastmile_qr_scan", "ios": "https://dc.lft.to/lastmile_qr_scan"}, "fusion_lon": 0.0, "lat": 38.919984166666666, "bike_id": "6e09b40b20b4654c284c5b6eeb9ca2ef", "type": "electric_scooter", "is_reserved": 0, "lon": -77.07197883333333}, {"fusion_lat": 0.0, "name": "decf7c9976beb35860bc82750219ddad", "is_disabled": 0, "rental_uris": {"android": "https://dc.lft.to/lastmile_qr_scan", "ios": "https://dc.lft.to/lastmile_qr_scan"}, "fusion_lon": 0.0, "lat": 38.882991, "bike_id": "decf7c9976beb35860bc82750219ddad", "type": "electric_scooter", "is_reserved": 0, "lon": -76.94858966666666}, {"fusion_lat": 0.0, "name": "eecb7d8c870fa778dfcb34dea4af53bd", "is_disabled": 0, "rental_uris": {"android": "https://dc.lft.to/lastmile_qr_scan", "ios": "https://dc.lft.to/lastmile_qr_scan"}, "fusion_lon": 0.0, "lat": 38.911170166666665, "bike_id": "eecb7d8c870fa778dfcb34dea4af53bd", "type": "electric_scooter", "is_reserved": 0, "lon": -77.03835}, {"fusion_lat": 0.0, "name": "2c7deb791226175db66fd6b0a15617e3", "is_disabled": 0, "rental_uris": {"android": "https://dc.lft.to/lastmile_qr_scan", "ios": "https://dc.lft.to/lastmile_qr_scan"}, "fusion_lon": 0.0, "lat": 38.94082516666667, "bike_id": "2c7deb791226175db66fd6b0a15617e3", "type": "electric_scooter", "is_reserved": 0, "lon": -77.052199}, {"fusion_lat": 0.0, "name": "c80ed1df3ad035f6f01d50751e184062", "is_disabled": 0, "rental_uris": {"android": "https://dc.lft.to/lastmile_qr_scan", "ios": "https://dc.lft.to/lastmile_qr_scan"}, "fusion_lon": 0.0, "lat": 38.90269, "bike_id": "c80ed1df3ad035f6f01d50751e184062", "type": "electric_scooter", "is_reserved": 0, "lon": -77.03382933333333}, {"fusion_lat": 0.0, "name": "33f7bc3290787bd611c1b60f1c8455df", "is_disabled": 0, "rental_uris": {"android": "https://dc.lft.to/lastmile_qr_scan", "ios": "https://dc.lft.to/lastmile_qr_scan"}, "fusion_lon": 0.0, "lat": 38.95223166666667, "bike_id": "33f7bc3290787bd611c1b60f1c8455df", "type": "electric_scooter", "is_reserved": 0, "lon": -77.082194}, {"fusion_lat": 0.0, "name": "183ec4a508b5d42f4a7b502cf91fd096", "is_disabled": 0, "rental_uris": {"android": "https://dc.lft.to/lastmile_qr_scan", "ios": "https://dc.lft.to/lastmile_qr_scan"}, "fusion_lon": 0.0, "lat": 38.80758266666667, "bike_id": "183ec4a508b5d42f4a7b502cf91fd096", "type": "electric_bike", "is_reserved": 0, "lon": -77.09462166666667}, {"fusion_lat": 0.0, "name": "c756f0bdd71aad59bcb451a9d181c476", "is_disabled": 0, "rental_uris": {"android": "https://dc.lft.to/lastmile_qr_scan", "ios": "https://dc.lft.to/lastmile_qr_scan"}, "fusion_lon": 0.0, "lat": 38.854093, "bike_id": "c756f0bdd71aad59bcb451a9d181c476", "type": "electric_bike", "is_reserved": 0, "lon": -77.12080983333334}, {"fusion_lat": 0.0, "name": "7efbcd3617c7f8e20d2d0e17609e10a9", "is_disabled": 0, "rental_uris": {"android": "https://dc.lft.to/lastmile_qr_scan", "ios": "https://dc.lft.to/lastmile_qr_scan"}, "fusion_lon": 0.0, "lat": 38.898816, "bike_id": "7efbcd3617c7f8e20d2d0e17609e10a9", "type": "electric_scooter", "is_reserved": 0, "lon": -77.0294865}, {"fusion_lat": 0.0, "name": "89c9ded31e9c7da6e4bd88fa4c8f541e", "is_disabled": 0, "rental_uris": {"android": "https://dc.lft.to/lastmile_qr_scan", "ios": "https://dc.lft.to/lastmile_qr_scan"}, "fusion_lon": 0.0, "lat": 38.90093133333333, "bike_id": "89c9ded31e9c7da6e4bd88fa4c8f541e", "type": "electric_scooter", "is_reserved": 0, "lon": -77.0188535}, {"fusion_lat": 0.0, "name": "467cc10b9bdf6f03affce874bf00274a", "is_disabled": 0, "rental_uris": {"android": "https://dc.lft.to/lastmile_qr_scan", "ios": "https://dc.lft.to/lastmile_qr_scan"}, "fusion_lon": 0.0, "lat": 38.9299655, "bike_id": "467cc10b9bdf6f03affce874bf00274a", "type": "electric_scooter", "is_reserved": 0, "lon": -77.03239516666666}, {"fusion_lat": 0.0, "name": "b91a6ffa9cb558a5647d14857be6c294", "is_disabled": 0, "rental_uris": {"android": "https://dc.lft.to/lastmile_qr_scan", "ios": "https://dc.lft.to/lastmile_qr_scan"}, "fusion_lon": 0.0, "lat": 38.89034016666667, "bike_id": "b91a6ffa9cb558a5647d14857be6c294", "type": "electric_scooter", "is_reserved": 0, "lon": -76.93750283333333}, {"fusion_lat": 0.0, "name": "0517b695f9d3bd339e853835ffcd7530", "is_disabled": 0, "rental_uris": {"android": "https://dc.lft.to/lastmile_qr_scan", "ios": "https://dc.lft.to/lastmile_qr_scan"}, "fusion_lon": 0.0, "lat": 38.92323283333333, "bike_id": "0517b695f9d3bd339e853835ffcd7530", "type": "electric_scooter", "is_reserved": 0, "lon": -77.02054516666666}, {"fusion_lat": 0.0, "name": "15455d2a6266b580eca23790317cf9d5", "is_disabled": 0, "rental_uris": {"android": "https://dc.lft.to/lastmile_qr_scan", "ios": "https://dc.lft.to/lastmile_qr_scan"}, "fusion_lon": 0.0, "lat": 38.92387133333333, "bike_id": "15455d2a6266b580eca23790317cf9d5", "type": "electric_scooter", "is_reserved": 0, "lon": -77.022655}, {"fusion_lat": 0.0, "name": "2aad14259a0414036869df3344a286b9", "is_disabled": 0, "rental_uris": {"android": "https://dc.lft.to/lastmile_qr_scan", "ios": "https://dc.lft.to/lastmile_qr_scan"}, "fusion_lon": 0.0, "lat": 38.928781666666666, "bike_id": "2aad14259a0414036869df3344a286b9", "type": "electric_scooter", "is_reserved": 0, "lon": -77.03361366666667}, {"fusion_lat": 0.0, "name": "2b4355372f7ca50aafbd7ef7b0f3361f", "is_disabled": 0, "rental_uris": {"android": "https://dc.lft.to/lastmile_qr_scan", "ios": "https://dc.lft.to/lastmile_qr_scan"}, "fusion_lon": 0.0, "lat": 38.95827466666667, "bike_id": "2b4355372f7ca50aafbd7ef7b0f3361f", "type": "electric_scooter", "is_reserved": 0, "lon": -77.0018465}, {"fusion_lat": 0.0, "name": "3376627094f629f30ed0a17fdcc6877d", "is_disabled": 0, "rental_uris": {"android": "https://dc.lft.to/lastmile_qr_scan", "ios": "https://dc.lft.to/lastmile_qr_scan"}, "fusion_lon": 0.0, "lat": 38.882441166666666, "bike_id": "3376627094f629f30ed0a17fdcc6877d", "type": "electric_scooter", "is_reserved": 0, "lon": -77.00364633333334}, {"fusion_lat": 0.0, "name": "89f41e9c9d75889247d5aa3451c0bef0", "is_disabled": 0, "rental_uris": {"android": "https://dc.lft.to/lastmile_qr_scan", "ios": "https://dc.lft.to/lastmile_qr_scan"}, "fusion_lon": 0.0, "lat": 38.931849166666666, "bike_id": "89f41e9c9d75889247d5aa3451c0bef0", "type": "electric_scooter", "is_reserved": 0, "lon": -77.0430615}, {"fusion_lat": 0.0, "name": "747e1b0d37a54a3b1150529d70e5c577", "is_disabled": 0, "rental_uris": {"android": "https://dc.lft.to/lastmile_qr_scan", "ios": "https://dc.lft.to/lastmile_qr_scan"}, "fusion_lon": 0.0, "lat": 38.9207605, "bike_id": "747e1b0d37a54a3b1150529d70e5c577", "type": "electric_scooter", "is_reserved": 0, "lon": -77.0232115}, {"fusion_lat": 0.0, "name": "7e9c3b158ef5a17b5580ff94aab0f79d", "is_disabled": 0, "rental_uris": {"android": "https://dc.lft.to/lastmile_qr_scan", "ios": "https://dc.lft.to/lastmile_qr_scan"}, "fusion_lon": 0.0, "lat": 38.87648883333333, "bike_id": "7e9c3b158ef5a17b5580ff94aab0f79d", "type": "electric_scooter", "is_reserved": 0, "lon": -77.00326766666667}, {"fusion_lat": 0.0, "name": "ed49d85f597a14470134af7cb0cd9695", "is_disabled": 0, "rental_uris": {"android": "https://dc.lft.to/lastmile_qr_scan", "ios": "https://dc.lft.to/lastmile_qr_scan"}, "fusion_lon": 0.0, "lat": 38.9003315, "bike_id": "ed49d85f597a14470134af7cb0cd9695", "type": "electric_scooter", "is_reserved": 0, "lon": -76.991439}, {"fusion_lat": 0.0, "name": "6e20cf6a308c584e4a49529942971e6b", "is_disabled": 0, "rental_uris": {"android": "https://dc.lft.to/lastmile_qr_scan", "ios": "https://dc.lft.to/lastmile_qr_scan"}, "fusion_lon": 0.0, "lat": 38.93907683333333, "bike_id": "6e20cf6a308c584e4a49529942971e6b", "type": "electric_scooter", "is_reserved": 0, "lon": -77.02503216666666}, {"fusion_lat": 0.0, "name": "960f88b04d17eb61be0f528e54dc6b08", "is_disabled": 0, "rental_uris": {"android": "https://dc.lft.to/lastmile_qr_scan", "ios": "https://dc.lft.to/lastmile_qr_scan"}, "fusion_lon": 0.0, "lat": 38.96680166666667, "bike_id": "960f88b04d17eb61be0f528e54dc6b08", "type": "electric_bike", "is_reserved": 0, "lon": -77.0217205}, {"fusion_lat": 0.0, "name": "ab6b443fa0c4e2575c0b52a1b6cb6281", "is_disabled": 0, "rental_uris": {"android": "https://dc.lft.to/lastmile_qr_scan", "ios": "https://dc.lft.to/lastmile_qr_scan"}, "fusion_lon": 0.0, "lat": 38.935855, "bike_id": "ab6b443fa0c4e2575c0b52a1b6cb6281", "type": "electric_scooter", "is_reserved": 0, "lon": -77.0236485}, {"fusion_lat": 0.0, "name": "da6019e95188464910292cb42cfa11fe", "is_disabled": 0, "rental_uris": {"android": "https://dc.lft.to/lastmile_qr_scan", "ios": "https://dc.lft.to/lastmile_qr_scan"}, "fusion_lon": 0.0, "lat": 38.91929616666667, "bike_id": "da6019e95188464910292cb42cfa11fe", "type": "electric_scooter", "is_reserved": 0, "lon": -77.02439016666666}, {"fusion_lat": 0.0, "name": "38869015ec3789134a01e54e310c7665", "is_disabled": 0, "rental_uris": {"android": "https://dc.lft.to/lastmile_qr_scan", "ios": "https://dc.lft.to/lastmile_qr_scan"}, "fusion_lon": 0.0, "lat": 38.912116833333336, "bike_id": "38869015ec3789134a01e54e310c7665", "type": "electric_scooter", "is_reserved": 0, "lon": -77.04503216666667}, {"fusion_lat": 0.0, "name": "ac3a98e7d0c2ed0268d72f5589486604", "is_disabled": 0, "rental_uris": {"android": "https://dc.lft.to/lastmile_qr_scan", "ios": "https://dc.lft.to/lastmile_qr_scan"}, "fusion_lon": 0.0, "lat": 38.899970333333336, "bike_id": "ac3a98e7d0c2ed0268d72f5589486604", "type": "electric_scooter", "is_reserved": 0, "lon": -77.02936516666666}, {"fusion_lat": 0.0, "name": "883ab15ba5ef834d295c384d1b5c48b6", "is_disabled": 0, "rental_uris": {"android": "https://dc.lft.to/lastmile_qr_scan", "ios": "https://dc.lft.to/lastmile_qr_scan"}, "fusion_lon": 0.0, "lat": 38.91864783333333, "bike_id": "883ab15ba5ef834d295c384d1b5c48b6", "type": "electric_bike", "is_reserved": 0, "lon": -76.96093533333334}, {"fusion_lat": 0.0, "name": "1223fcc0474a3541b4c44b51a3f552fb", "is_disabled": 0, "rental_uris": {"android": "https://dc.lft.to/lastmile_qr_scan", "ios": "https://dc.lft.to/lastmile_qr_scan"}, "fusion_lon": 0.0, "lat": 38.910952, "bike_id": "1223fcc0474a3541b4c44b51a3f552fb", "type": "electric_scooter", "is_reserved": 0, "lon": -77.02412966666667}, {"fusion_lat": 0.0, "name": "f28b6b5f1fa146c941c3b37853a2686c", "is_disabled": 0, "rental_uris": {"android": "https://dc.lft.to/lastmile_qr_scan", "ios": "https://dc.lft.to/lastmile_qr_scan"}, "fusion_lon": 0.0, "lat": 38.89494466666667, "bike_id": "f28b6b5f1fa146c941c3b37853a2686c", "type": "electric_scooter", "is_reserved": 0, "lon": -77.0195465}, {"fusion_lat": 0.0, "name": "1ef8219aefda24413f9ccc130bc2eb94", "is_disabled": 0, "rental_uris": {"android": "https://dc.lft.to/lastmile_qr_scan", "ios": "https://dc.lft.to/lastmile_qr_scan"}, "fusion_lon": 0.0, "lat": 38.913362, "bike_id": "1ef8219aefda24413f9ccc130bc2eb94", "type": "electric_scooter", "is_reserved": 0, "lon": -77.0317735}, {"fusion_lat": 0.0, "name": "dc4f0a242270ad3d32363f5cee72fec2", "is_disabled": 0, "rental_uris": {"android": "https://dc.lft.to/lastmile_qr_scan", "ios": "https://dc.lft.to/lastmile_qr_scan"}, "fusion_lon": 0.0, "lat": 38.91552733333333, "bike_id": "dc4f0a242270ad3d32363f5cee72fec2", "type": "electric_scooter", "is_reserved": 0, "lon": -77.03259683333333}, {"fusion_lat": 0.0, "name": "d500f47924f243c438c51800ae406dbe", "is_disabled": 0, "rental_uris": {"android": "https://dc.lft.to/lastmile_qr_scan", "ios": "https://dc.lft.to/lastmile_qr_scan"}, "fusion_lon": 0.0, "lat": 38.813331, "bike_id": "d500f47924f243c438c51800ae406dbe", "type": "electric_bike", "is_reserved": 0, "lon": -77.05102516666666}, {"fusion_lat": 0.0, "name": "83740f271a0fd8ebf3f1eec5aeab97eb", "is_disabled": 0, "rental_uris": {"android": "https://dc.lft.to/lastmile_qr_scan", "ios": "https://dc.lft.to/lastmile_qr_scan"}, "fusion_lon": 0.0, "lat": 38.906053166666666, "bike_id": "83740f271a0fd8ebf3f1eec5aeab97eb", "type": "electric_scooter", "is_reserved": 0, "lon": -77.02687833333333}, {"fusion_lat": 0.0, "name": "d4bb1d794dbb5ffee6b971e3d1c96a33", "is_disabled": 0, "rental_uris": {"android": "https://dc.lft.to/lastmile_qr_scan", "ios": "https://dc.lft.to/lastmile_qr_scan"}, "fusion_lon": 0.0, "lat": 38.890130166666665, "bike_id": "d4bb1d794dbb5ffee6b971e3d1c96a33", "type": "electric_scooter", "is_reserved": 0, "lon": -77.02113916666667}, {"fusion_lat": 0.0, "name": "33879356fbb20b4f8790cd9bd600a501", "is_disabled": 0, "rental_uris": {"android": "https://dc.lft.to/lastmile_qr_scan", "ios": "https://dc.lft.to/lastmile_qr_scan"}, "fusion_lon": 0.0, "lat": 38.90863183333333, "bike_id": "33879356fbb20b4f8790cd9bd600a501", "type": "electric_bike", "is_reserved": 0, "lon": -76.99965233333333}, {"fusion_lat": 0.0, "name": "be1cb8a5ea88768c3f0a6061590ac4a1", "is_disabled": 0, "rental_uris": {"android": "https://dc.lft.to/lastmile_qr_scan", "ios": "https://dc.lft.to/lastmile_qr_scan"}, "fusion_lon": 0.0, "lat": 38.924612333333336, "bike_id": "be1cb8a5ea88768c3f0a6061590ac4a1", "type": "electric_scooter", "is_reserved": 0, "lon": -76.993301}, {"fusion_lat": 0.0, "name": "8c0e631a98a9122fa71ae6bc99270106", "is_disabled": 0, "rental_uris": {"android": "https://dc.lft.to/lastmile_qr_scan", "ios": "https://dc.lft.to/lastmile_qr_scan"}, "fusion_lon": 0.0, "lat": 38.90091916666667, "bike_id": "8c0e631a98a9122fa71ae6bc99270106", "type": "electric_scooter", "is_reserved": 0, "lon": -77.01945733333334}, {"fusion_lat": 0.0, "name": "fc8e85b260d88045229f119be410283a", "is_disabled": 0, "rental_uris": {"android": "https://dc.lft.to/lastmile_qr_scan", "ios": "https://dc.lft.to/lastmile_qr_scan"}, "fusion_lon": 0.0, "lat": 38.92019066666667, "bike_id": "fc8e85b260d88045229f119be410283a", "type": "electric_scooter", "is_reserved": 0, "lon": -76.99558066666667}, {"fusion_lat": 0.0, "name": "13900c59a0d8667120da0a4603eb0906", "is_disabled": 0, "rental_uris": {"android": "https://dc.lft.to/lastmile_qr_scan", "ios": "https://dc.lft.to/lastmile_qr_scan"}, "fusion_lon": 0.0, "lat": 38.9056595, "bike_id": "13900c59a0d8667120da0a4603eb0906", "type": "electric_scooter", "is_reserved": 0, "lon": -77.03123433333333}, {"fusion_lat": 0.0, "name": "52b7e04d1ed56b393238c8673ca65a49", "is_disabled": 0, "rental_uris": {"android": "https://dc.lft.to/lastmile_qr_scan", "ios": "https://dc.lft.to/lastmile_qr_scan"}, "fusion_lon": 0.0, "lat": 38.9236615, "bike_id": "52b7e04d1ed56b393238c8673ca65a49", "type": "electric_scooter", "is_reserved": 0, "lon": -77.04250433333333}, {"fusion_lat": 0.0, "name": "4e05095e8be565f2023caee2fe5083e0", "is_disabled": 0, "rental_uris": {"android": "https://dc.lft.to/lastmile_qr_scan", "ios": "https://dc.lft.to/lastmile_qr_scan"}, "fusion_lon": 0.0, "lat": 38.89705466666667, "bike_id": "4e05095e8be565f2023caee2fe5083e0", "type": "electric_scooter", "is_reserved": 0, "lon": -77.043549}, {"fusion_lat": 0.0, "name": "9de344b0723d951dddec86d9f5a73b26", "is_disabled": 0, "rental_uris": {"android": "https://dc.lft.to/lastmile_qr_scan", "ios": "https://dc.lft.to/lastmile_qr_scan"}, "fusion_lon": 0.0, "lat": 38.915559333333334, "bike_id": "9de344b0723d951dddec86d9f5a73b26", "type": "electric_scooter", "is_reserved": 0, "lon": -77.03864683333333}, {"fusion_lat": 0.0, "name": "4a066ad5e9681cc28bf9632673327693", "is_disabled": 0, "rental_uris": {"android": "https://dc.lft.to/lastmile_qr_scan", "ios": "https://dc.lft.to/lastmile_qr_scan"}, "fusion_lon": 0.0, "lat": 38.920591333333334, "bike_id": "4a066ad5e9681cc28bf9632673327693", "type": "electric_scooter", "is_reserved": 0, "lon": -76.9986825}, {"fusion_lat": 0.0, "name": "6c5bf433f25fa6ebf5d461e5685c831b", "is_disabled": 0, "rental_uris": {"android": "https://dc.lft.to/lastmile_qr_scan", "ios": "https://dc.lft.to/lastmile_qr_scan"}, "fusion_lon": 0.0, "lat": 38.92100883333333, "bike_id": "6c5bf433f25fa6ebf5d461e5685c831b", "type": "electric_scooter", "is_reserved": 0, "lon": -77.02202116666666}, {"fusion_lat": 0.0, "name": "2776274e93c85ec1cbeca83ffe343d9f", "is_disabled": 0, "rental_uris": {"android": "https://dc.lft.to/lastmile_qr_scan", "ios": "https://dc.lft.to/lastmile_qr_scan"}, "fusion_lon": 0.0, "lat": 38.85797633333333, "bike_id": "2776274e93c85ec1cbeca83ffe343d9f", "type": "electric_bike", "is_reserved": 0, "lon": -76.98734883333333}, {"fusion_lat": 0.0, "name": "60fbddc3fcf2d812ee025af272de99ec", "is_disabled": 0, "rental_uris": {"android": "https://dc.lft.to/lastmile_qr_scan", "ios": "https://dc.lft.to/lastmile_qr_scan"}, "fusion_lon": 0.0, "lat": 38.917238166666664, "bike_id": "60fbddc3fcf2d812ee025af272de99ec", "type": "electric_scooter", "is_reserved": 0, "lon": -77.00816966666666}, {"fusion_lat": 0.0, "name": "788487675aad02ebef18cf735be00c90", "is_disabled": 0, "rental_uris": {"android": "https://dc.lft.to/lastmile_qr_scan", "ios": "https://dc.lft.to/lastmile_qr_scan"}, "fusion_lon": 0.0, "lat": 38.86257633333334, "bike_id": "788487675aad02ebef18cf735be00c90", "type": "electric_bike", "is_reserved": 0, "lon": -76.98340433333334}, {"fusion_lat": 0.0, "name": "86d8540284f8bec201b1846280640120", "is_disabled": 0, "rental_uris": {"android": "https://dc.lft.to/lastmile_qr_scan", "ios": "https://dc.lft.to/lastmile_qr_scan"}, "fusion_lon": 0.0, "lat": 38.914508, "bike_id": "86d8540284f8bec201b1846280640120", "type": "electric_scooter", "is_reserved": 0, "lon": -77.04160583333334}, {"fusion_lat": 0.0, "name": "23d322b4d69f0cdd367aa20c7124adc3", "is_disabled": 0, "rental_uris": {"android": "https://dc.lft.to/lastmile_qr_scan", "ios": "https://dc.lft.to/lastmile_qr_scan"}, "fusion_lon": 0.0, "lat": 38.95632533333333, "bike_id": "23d322b4d69f0cdd367aa20c7124adc3", "type": "electric_scooter", "is_reserved": 0, "lon": -77.03304833333333}, {"fusion_lat": 0.0, "name": "129bc3e12a7e86b1e246364edd182311", "is_disabled": 0, "rental_uris": {"android": "https://dc.lft.to/lastmile_qr_scan", "ios": "https://dc.lft.to/lastmile_qr_scan"}, "fusion_lon": 0.0, "lat": 38.905504, "bike_id": "129bc3e12a7e86b1e246364edd182311", "type": "electric_scooter", "is_reserved": 0, "lon": -77.04656733333333}, {"fusion_lat": 0.0, "name": "7d1ba1a69b47c46fc9a0394f65b1b152", "is_disabled": 0, "rental_uris": {"android": "https://dc.lft.to/lastmile_qr_scan", "ios": "https://dc.lft.to/lastmile_qr_scan"}, "fusion_lon": 0.0, "lat": 38.902958166666664, "bike_id": "7d1ba1a69b47c46fc9a0394f65b1b152", "type": "electric_scooter", "is_reserved": 0, "lon": -77.02013116666667}, {"fusion_lat": 0.0, "name": "a9d05545564ab82f704ffc833a1dda75", "is_disabled": 0, "rental_uris": {"android": "https://dc.lft.to/lastmile_qr_scan", "ios": "https://dc.lft.to/lastmile_qr_scan"}, "fusion_lon": 0.0, "lat": 38.94205016666667, "bike_id": "a9d05545564ab82f704ffc833a1dda75", "type": "electric_scooter", "is_reserved": 0, "lon": -77.02597583333333}, {"fusion_lat": 0.0, "name": "64a7880d055e5e9baa8e0fe7489a47c5", "is_disabled": 0, "rental_uris": {"android": "https://dc.lft.to/lastmile_qr_scan", "ios": "https://dc.lft.to/lastmile_qr_scan"}, "fusion_lon": 0.0, "lat": 38.863354666666666, "bike_id": "64a7880d055e5e9baa8e0fe7489a47c5", "type": "electric_bike", "is_reserved": 0, "lon": -76.98731016666666}, {"fusion_lat": 0.0, "name": "571442d087cef8c6ea33862c0df18eee", "is_disabled": 0, "rental_uris": {"android": "https://dc.lft.to/lastmile_qr_scan", "ios": "https://dc.lft.to/lastmile_qr_scan"}, "fusion_lon": 0.0, "lat": 38.90242283333333, "bike_id": "571442d087cef8c6ea33862c0df18eee", "type": "electric_scooter", "is_reserved": 0, "lon": -77.059516}, {"fusion_lat": 0.0, "name": "df11489aee9602035947c24ab00d8c16", "is_disabled": 0, "rental_uris": {"android": "https://dc.lft.to/lastmile_qr_scan", "ios": "https://dc.lft.to/lastmile_qr_scan"}, "fusion_lon": 0.0, "lat": 38.910551166666664, "bike_id": "df11489aee9602035947c24ab00d8c16", "type": "electric_scooter", "is_reserved": 0, "lon": -77.04578683333334}, {"fusion_lat": 0.0, "name": "6a2d5eb48b0fa4f0fce704c71a19aabd", "is_disabled": 0, "rental_uris": {"android": "https://dc.lft.to/lastmile_qr_scan", "ios": "https://dc.lft.to/lastmile_qr_scan"}, "fusion_lon": 0.0, "lat": 38.913262833333334, "bike_id": "6a2d5eb48b0fa4f0fce704c71a19aabd", "type": "electric_scooter", "is_reserved": 0, "lon": -77.04536333333333}, {"fusion_lat": 0.0, "name": "84abe3ca0f4f15c99b4e7b552d0d36d5", "is_disabled": 0, "rental_uris": {"android": "https://dc.lft.to/lastmile_qr_scan", "ios": "https://dc.lft.to/lastmile_qr_scan"}, "fusion_lon": 0.0, "lat": 38.903795, "bike_id": "84abe3ca0f4f15c99b4e7b552d0d36d5", "type": "electric_scooter", "is_reserved": 0, "lon": -77.06134816666666}, {"fusion_lat": 0.0, "name": "4d8b36048c71091ccf94136f440e9e4b", "is_disabled": 0, "rental_uris": {"android": "https://dc.lft.to/lastmile_qr_scan", "ios": "https://dc.lft.to/lastmile_qr_scan"}, "fusion_lon": 0.0, "lat": 38.905708833333335, "bike_id": "4d8b36048c71091ccf94136f440e9e4b", "type": "electric_scooter", "is_reserved": 0, "lon": -77.00798083333333}, {"fusion_lat": 0.0, "name": "6e12f9b709ade05ad50e9f344efecc31", "is_disabled": 0, "rental_uris": {"android": "https://dc.lft.to/lastmile_qr_scan", "ios": "https://dc.lft.to/lastmile_qr_scan"}, "fusion_lon": 0.0, "lat": 38.97490366666667, "bike_id": "6e12f9b709ade05ad50e9f344efecc31", "type": "electric_scooter", "is_reserved": 0, "lon": -77.014227}, {"fusion_lat": 0.0, "name": "ae605dbfa2ed400395482e19c30476e4", "is_disabled": 0, "rental_uris": {"android": "https://dc.lft.to/lastmile_qr_scan", "ios": "https://dc.lft.to/lastmile_qr_scan"}, "fusion_lon": 0.0, "lat": 38.90064233333333, "bike_id": "ae605dbfa2ed400395482e19c30476e4", "type": "electric_scooter", "is_reserved": 0, "lon": -76.93385483333333}, {"fusion_lat": 0.0, "name": "5db39f9b612991aac2d52281d9f0b536", "is_disabled": 0, "rental_uris": {"android": "https://dc.lft.to/lastmile_qr_scan", "ios": "https://dc.lft.to/lastmile_qr_scan"}, "fusion_lon": 0.0, "lat": 38.84050533333333, "bike_id": "5db39f9b612991aac2d52281d9f0b536", "type": "electric_scooter", "is_reserved": 0, "lon": -76.976712}, {"fusion_lat": 0.0, "name": "3647f98ba7deb3c93ee797cd611fbb5c", "is_disabled": 0, "rental_uris": {"android": "https://dc.lft.to/lastmile_qr_scan", "ios": "https://dc.lft.to/lastmile_qr_scan"}, "fusion_lon": 0.0, "lat": 38.89420583333333, "bike_id": "3647f98ba7deb3c93ee797cd611fbb5c", "type": "electric_scooter", "is_reserved": 0, "lon": -77.01233133333334}, {"fusion_lat": 0.0, "name": "4ce4174153bd7b40e2c9e30ff769798a", "is_disabled": 0, "rental_uris": {"android": "https://dc.lft.to/lastmile_qr_scan", "ios": "https://dc.lft.to/lastmile_qr_scan"}, "fusion_lon": 0.0, "lat": 38.88200916666667, "bike_id": "4ce4174153bd7b40e2c9e30ff769798a", "type": "electric_scooter", "is_reserved": 0, "lon": -77.02867616666667}, {"fusion_lat": 0.0, "name": "d18391a801745f2f7c8087c7aee26d20", "is_disabled": 0, "rental_uris": {"android": "https://dc.lft.to/lastmile_qr_scan", "ios": "https://dc.lft.to/lastmile_qr_scan"}, "fusion_lon": 0.0, "lat": 38.87929466666667, "bike_id": "d18391a801745f2f7c8087c7aee26d20", "type": "electric_scooter", "is_reserved": 0, "lon": -77.01379266666666}, {"fusion_lat": 0.0, "name": "c93348f8fe914d3cbb433e78ef7f4a14", "is_disabled": 0, "rental_uris": {"android": "https://dc.lft.to/lastmile_qr_scan", "ios": "https://dc.lft.to/lastmile_qr_scan"}, "fusion_lon": 0.0, "lat": 38.96141083333333, "bike_id": "c93348f8fe914d3cbb433e78ef7f4a14", "type": "electric_bike", "is_reserved": 0, "lon": -77.02808516666667}, {"fusion_lat": 0.0, "name": "229a72f1f1237c281d6e30b92d96be0e", "is_disabled": 0, "rental_uris": {"android": "https://dc.lft.to/lastmile_qr_scan", "ios": "https://dc.lft.to/lastmile_qr_scan"}, "fusion_lon": 0.0, "lat": 38.92873783333334, "bike_id": "229a72f1f1237c281d6e30b92d96be0e", "type": "electric_scooter", "is_reserved": 0, "lon": -77.013564}, {"fusion_lat": 0.0, "name": "0c0cd6d4441e59d6436e73402eb359d1", "is_disabled": 0, "rental_uris": {"android": "https://dc.lft.to/lastmile_qr_scan", "ios": "https://dc.lft.to/lastmile_qr_scan"}, "fusion_lon": 0.0, "lat": 38.874082333333334, "bike_id": "0c0cd6d4441e59d6436e73402eb359d1", "type": "electric_scooter", "is_reserved": 0, "lon": -77.0008095}, {"fusion_lat": 0.0, "name": "6a315d1549b11ffa84091e46e34d2aff", "is_disabled": 0, "rental_uris": {"android": "https://dc.lft.to/lastmile_qr_scan", "ios": "https://dc.lft.to/lastmile_qr_scan"}, "fusion_lon": 0.0, "lat": 38.922996833333336, "bike_id": "6a315d1549b11ffa84091e46e34d2aff", "type": "electric_scooter", "is_reserved": 0, "lon": -77.01824483333333}, {"fusion_lat": 0.0, "name": "52ae1747fb72f0e9acde7dc25be17dad", "is_disabled": 0, "rental_uris": {"android": "https://dc.lft.to/lastmile_qr_scan", "ios": "https://dc.lft.to/lastmile_qr_scan"}, "fusion_lon": 0.0, "lat": 38.921745666666666, "bike_id": "52ae1747fb72f0e9acde7dc25be17dad", "type": "electric_scooter", "is_reserved": 0, "lon": -77.03840583333333}, {"fusion_lat": 0.0, "name": "b0e7e398979173ef807c301efb374e08", "is_disabled": 0, "rental_uris": {"android": "https://dc.lft.to/lastmile_qr_scan", "ios": "https://dc.lft.to/lastmile_qr_scan"}, "fusion_lon": 0.0, "lat": 38.91555783333333, "bike_id": "b0e7e398979173ef807c301efb374e08", "type": "electric_scooter", "is_reserved": 0, "lon": -77.03869066666667}, {"fusion_lat": 0.0, "name": "0d35da5d798fe814a19dcd8d81b54a1f", "is_disabled": 0, "rental_uris": {"android": "https://dc.lft.to/lastmile_qr_scan", "ios": "https://dc.lft.to/lastmile_qr_scan"}, "fusion_lon": 0.0, "lat": 38.9232405, "bike_id": "0d35da5d798fe814a19dcd8d81b54a1f", "type": "electric_scooter", "is_reserved": 0, "lon": -77.038283}, {"fusion_lat": 0.0, "name": "ad6f49762fb47ec6b7629fe6bbe511fd", "is_disabled": 0, "rental_uris": {"android": "https://dc.lft.to/lastmile_qr_scan", "ios": "https://dc.lft.to/lastmile_qr_scan"}, "fusion_lon": 0.0, "lat": 38.90019216666666, "bike_id": "ad6f49762fb47ec6b7629fe6bbe511fd", "type": "electric_scooter", "is_reserved": 0, "lon": -77.0119225}, {"fusion_lat": 0.0, "name": "f244d6d215325f39fa8703cfe8ec2f06", "is_disabled": 0, "rental_uris": {"android": "https://dc.lft.to/lastmile_qr_scan", "ios": "https://dc.lft.to/lastmile_qr_scan"}, "fusion_lon": 0.0, "lat": 38.90247883333333, "bike_id": "f244d6d215325f39fa8703cfe8ec2f06", "type": "electric_scooter", "is_reserved": 0, "lon": -77.0179525}, {"fusion_lat": 0.0, "name": "a8b291fbde9d8eac06441b59810c6999", "is_disabled": 0, "rental_uris": {"android": "https://dc.lft.to/lastmile_qr_scan", "ios": "https://dc.lft.to/lastmile_qr_scan"}, "fusion_lon": 0.0, "lat": 38.91629066666667, "bike_id": "a8b291fbde9d8eac06441b59810c6999", "type": "electric_scooter", "is_reserved": 0, "lon": -77.03139383333334}, {"fusion_lat": 0.0, "name": "97be23f0e7694fd50e70743dc0601611", "is_disabled": 0, "rental_uris": {"android": "https://dc.lft.to/lastmile_qr_scan", "ios": "https://dc.lft.to/lastmile_qr_scan"}, "fusion_lon": 0.0, "lat": 38.948963166666665, "bike_id": "97be23f0e7694fd50e70743dc0601611", "type": "electric_bike", "is_reserved": 0, "lon": -76.96376366666667}, {"fusion_lat": 0.0, "name": "0d6408eab6ddb6a6ddd8487ba5d5a3bb", "is_disabled": 0, "rental_uris": {"android": "https://dc.lft.to/lastmile_qr_scan", "ios": "https://dc.lft.to/lastmile_qr_scan"}, "fusion_lon": 0.0, "lat": 38.93593833333333, "bike_id": "0d6408eab6ddb6a6ddd8487ba5d5a3bb", "type": "electric_scooter", "is_reserved": 0, "lon": -77.02385083333333}, {"fusion_lat": 0.0, "name": "35ec02ac112e780965a413cd3f84c24b", "is_disabled": 0, "rental_uris": {"android": "https://dc.lft.to/lastmile_qr_scan", "ios": "https://dc.lft.to/lastmile_qr_scan"}, "fusion_lon": 0.0, "lat": 38.90051733333333, "bike_id": "35ec02ac112e780965a413cd3f84c24b", "type": "electric_scooter", "is_reserved": 0, "lon": -77.04481}, {"fusion_lat": 0.0, "name": "0b5f815fa520ec1c7daa09858a991ff5", "is_disabled": 0, "rental_uris": {"android": "https://dc.lft.to/lastmile_qr_scan", "ios": "https://dc.lft.to/lastmile_qr_scan"}, "fusion_lon": 0.0, "lat": 38.9016515, "bike_id": "0b5f815fa520ec1c7daa09858a991ff5", "type": "electric_scooter", "is_reserved": 0, "lon": -76.992612}, {"fusion_lat": 0.0, "name": "d97dc9ad4b9c1aaedd80aa5cb4d3b0d3", "is_disabled": 0, "rental_uris": {"android": "https://dc.lft.to/lastmile_qr_scan", "ios": "https://dc.lft.to/lastmile_qr_scan"}, "fusion_lon": 0.0, "lat": 38.936287666666665, "bike_id": "d97dc9ad4b9c1aaedd80aa5cb4d3b0d3", "type": "electric_scooter", "is_reserved": 0, "lon": -77.07313683333334}, {"fusion_lat": 0.0, "name": "39d9b1615c81a3c5ab09c175e1513bb1", "is_disabled": 0, "rental_uris": {"android": "https://dc.lft.to/lastmile_qr_scan", "ios": "https://dc.lft.to/lastmile_qr_scan"}, "fusion_lon": 0.0, "lat": 38.94522966666667, "bike_id": "39d9b1615c81a3c5ab09c175e1513bb1", "type": "electric_scooter", "is_reserved": 0, "lon": -77.03890583333333}, {"fusion_lat": 0.0, "name": "af08607b4cd2f22d44532cb7c52f74e9", "is_disabled": 0, "rental_uris": {"android": "https://dc.lft.to/lastmile_qr_scan", "ios": "https://dc.lft.to/lastmile_qr_scan"}, "fusion_lon": 0.0, "lat": 38.911221166666664, "bike_id": "af08607b4cd2f22d44532cb7c52f74e9", "type": "electric_scooter", "is_reserved": 0, "lon": -77.03838683333333}, {"fusion_lat": 0.0, "name": "bfe753e48f7211c769270fbf4ca4e376", "is_disabled": 0, "rental_uris": {"android": "https://dc.lft.to/lastmile_qr_scan", "ios": "https://dc.lft.to/lastmile_qr_scan"}, "fusion_lon": 0.0, "lat": 38.847553833333336, "bike_id": "bfe753e48f7211c769270fbf4ca4e376", "type": "electric_scooter", "is_reserved": 0, "lon": -76.995011}, {"fusion_lat": 0.0, "name": "8fb375d471b1771401a6c2e3241f4fea", "is_disabled": 0, "rental_uris": {"android": "https://dc.lft.to/lastmile_qr_scan", "ios": "https://dc.lft.to/lastmile_qr_scan"}, "fusion_lon": 0.0, "lat": 38.923573166666664, "bike_id": "8fb375d471b1771401a6c2e3241f4fea", "type": "electric_scooter", "is_reserved": 0, "lon": -76.99253866666666}, {"fusion_lat": 0.0, "name": "1a5660edb6389cb766e8266e073219d7", "is_disabled": 0, "rental_uris": {"android": "https://dc.lft.to/lastmile_qr_scan", "ios": "https://dc.lft.to/lastmile_qr_scan"}, "fusion_lon": 0.0, "lat": 38.887549, "bike_id": "1a5660edb6389cb766e8266e073219d7", "type": "electric_scooter", "is_reserved": 0, "lon": -76.99790116666667}, {"fusion_lat": 0.0, "name": "296f394cc6155b6c4a2629e91003f157", "is_disabled": 0, "rental_uris": {"android": "https://dc.lft.to/lastmile_qr_scan", "ios": "https://dc.lft.to/lastmile_qr_scan"}, "fusion_lon": 0.0, "lat": 38.899664333333334, "bike_id": "296f394cc6155b6c4a2629e91003f157", "type": "electric_bike", "is_reserved": 0, "lon": -77.04536566666667}, {"fusion_lat": 0.0, "name": "cafe53e7cb978401f48c74d32ec4fa60", "is_disabled": 0, "rental_uris": {"android": "https://dc.lft.to/lastmile_qr_scan", "ios": "https://dc.lft.to/lastmile_qr_scan"}, "fusion_lon": 0.0, "lat": 38.945300833333334, "bike_id": "cafe53e7cb978401f48c74d32ec4fa60", "type": "electric_scooter", "is_reserved": 0, "lon": -77.02093483333333}, {"fusion_lat": 0.0, "name": "c5e029ea7cc5b5589d426882bb59383b", "is_disabled": 0, "rental_uris": {"android": "https://dc.lft.to/lastmile_qr_scan", "ios": "https://dc.lft.to/lastmile_qr_scan"}, "fusion_lon": 0.0, "lat": 38.92121783333333, "bike_id": "c5e029ea7cc5b5589d426882bb59383b", "type": "electric_scooter", "is_reserved": 0, "lon": -77.01031183333333}, {"fusion_lat": 0.0, "name": "3021ea1c45ceba4882255a59d9cbc8c3", "is_disabled": 0, "rental_uris": {"android": "https://dc.lft.to/lastmile_qr_scan", "ios": "https://dc.lft.to/lastmile_qr_scan"}, "fusion_lon": 0.0, "lat": 39.010785, "bike_id": "3021ea1c45ceba4882255a59d9cbc8c3", "type": "electric_bike", "is_reserved": 0, "lon": -76.9106595}, {"fusion_lat": 0.0, "name": "3145810187247f971771d1732b944113", "is_disabled": 0, "rental_uris": {"android": "https://dc.lft.to/lastmile_qr_scan", "ios": "https://dc.lft.to/lastmile_qr_scan"}, "fusion_lon": 0.0, "lat": 38.930509, "bike_id": "3145810187247f971771d1732b944113", "type": "electric_scooter", "is_reserved": 0, "lon": -77.04061883333334}, {"fusion_lat": 0.0, "name": "193a394d8c81aaeefad88317011f7231", "is_disabled": 0, "rental_uris": {"android": "https://dc.lft.to/lastmile_qr_scan", "ios": "https://dc.lft.to/lastmile_qr_scan"}, "fusion_lon": 0.0, "lat": 38.9214585, "bike_id": "193a394d8c81aaeefad88317011f7231", "type": "electric_scooter", "is_reserved": 0, "lon": -77.04228966666666}, {"fusion_lat": 0.0, "name": "4abdde418e9858cde258d11637aa2719", "is_disabled": 0, "rental_uris": {"android": "https://dc.lft.to/lastmile_qr_scan", "ios": "https://dc.lft.to/lastmile_qr_scan"}, "fusion_lon": 0.0, "lat": 38.91932333333333, "bike_id": "4abdde418e9858cde258d11637aa2719", "type": "electric_scooter", "is_reserved": 0, "lon": -77.024326}, {"fusion_lat": 0.0, "name": "2d3cd585426348f4b7579476095f0214", "is_disabled": 0, "rental_uris": {"android": "https://dc.lft.to/lastmile_qr_scan", "ios": "https://dc.lft.to/lastmile_qr_scan"}, "fusion_lon": 0.0, "lat": 38.9236995, "bike_id": "2d3cd585426348f4b7579476095f0214", "type": "electric_scooter", "is_reserved": 0, "lon": -77.02921366666666}, {"fusion_lat": 0.0, "name": "e8cce0c202ed3c44539cd8cc98fc3b7a", "is_disabled": 0, "rental_uris": {"android": "https://dc.lft.to/lastmile_qr_scan", "ios": "https://dc.lft.to/lastmile_qr_scan"}, "fusion_lon": 0.0, "lat": 38.90729416666667, "bike_id": "e8cce0c202ed3c44539cd8cc98fc3b7a", "type": "electric_scooter", "is_reserved": 0, "lon": -77.04013866666666}, {"fusion_lat": 0.0, "name": "3c73a60a9936da4e44e1548c6b04df91", "is_disabled": 0, "rental_uris": {"android": "https://dc.lft.to/lastmile_qr_scan", "ios": "https://dc.lft.to/lastmile_qr_scan"}, "fusion_lon": 0.0, "lat": 38.92284083333333, "bike_id": "3c73a60a9936da4e44e1548c6b04df91", "type": "electric_scooter", "is_reserved": 0, "lon": -77.03661833333334}, {"fusion_lat": 0.0, "name": "96343f0e91c10fa83eb924a2105abcb5", "is_disabled": 0, "rental_uris": {"android": "https://dc.lft.to/lastmile_qr_scan", "ios": "https://dc.lft.to/lastmile_qr_scan"}, "fusion_lon": 0.0, "lat": 38.919265833333334, "bike_id": "96343f0e91c10fa83eb924a2105abcb5", "type": "electric_scooter", "is_reserved": 0, "lon": -77.01210566666667}, {"fusion_lat": 0.0, "name": "e37aebae085b04c02078eeb6331e0f9f", "is_disabled": 0, "rental_uris": {"android": "https://dc.lft.to/lastmile_qr_scan", "ios": "https://dc.lft.to/lastmile_qr_scan"}, "fusion_lon": 0.0, "lat": 38.894882333333335, "bike_id": "e37aebae085b04c02078eeb6331e0f9f", "type": "electric_scooter", "is_reserved": 0, "lon": -77.010854}, {"fusion_lat": 0.0, "name": "5cebdd3eabd76a092a14a9ff46302203", "is_disabled": 0, "rental_uris": {"android": "https://dc.lft.to/lastmile_qr_scan", "ios": "https://dc.lft.to/lastmile_qr_scan"}, "fusion_lon": 0.0, "lat": 38.881594666666665, "bike_id": "5cebdd3eabd76a092a14a9ff46302203", "type": "electric_scooter", "is_reserved": 0, "lon": -77.027659}, {"fusion_lat": 0.0, "name": "d670e1e412028de78d2c8dbbc081a491", "is_disabled": 0, "rental_uris": {"android": "https://dc.lft.to/lastmile_qr_scan", "ios": "https://dc.lft.to/lastmile_qr_scan"}, "fusion_lon": 0.0, "lat": 38.923217666666666, "bike_id": "d670e1e412028de78d2c8dbbc081a491", "type": "electric_scooter", "is_reserved": 0, "lon": -77.03525666666667}, {"fusion_lat": 0.0, "name": "d6153ecd166c89eadbc1f0ed9756128c", "is_disabled": 0, "rental_uris": {"android": "https://dc.lft.to/lastmile_qr_scan", "ios": "https://dc.lft.to/lastmile_qr_scan"}, "fusion_lon": 0.0, "lat": 38.906845, "bike_id": "d6153ecd166c89eadbc1f0ed9756128c", "type": "electric_scooter", "is_reserved": 0, "lon": -77.02719266666666}, {"fusion_lat": 0.0, "name": "fe2d9a73368f114083474ae87a31228f", "is_disabled": 0, "rental_uris": {"android": "https://dc.lft.to/lastmile_qr_scan", "ios": "https://dc.lft.to/lastmile_qr_scan"}, "fusion_lon": 0.0, "lat": 38.90284583333333, "bike_id": "fe2d9a73368f114083474ae87a31228f", "type": "electric_scooter", "is_reserved": 0, "lon": -77.0363995}, {"fusion_lat": 0.0, "name": "9e0fdc1eacfc9c9f1001eefeb7e0fda2", "is_disabled": 0, "rental_uris": {"android": "https://dc.lft.to/lastmile_qr_scan", "ios": "https://dc.lft.to/lastmile_qr_scan"}, "fusion_lon": 0.0, "lat": 38.905883333333335, "bike_id": "9e0fdc1eacfc9c9f1001eefeb7e0fda2", "type": "electric_scooter", "is_reserved": 0, "lon": -77.0400725}, {"fusion_lat": 0.0, "name": "53dde0c6bec77e9f2e073ed4ae918b9a", "is_disabled": 0, "rental_uris": {"android": "https://dc.lft.to/lastmile_qr_scan", "ios": "https://dc.lft.to/lastmile_qr_scan"}, "fusion_lon": 0.0, "lat": 38.956387166666666, "bike_id": "53dde0c6bec77e9f2e073ed4ae918b9a", "type": "electric_bike", "is_reserved": 0, "lon": -76.93870616666666}, {"fusion_lat": 0.0, "name": "fa36af5bd279b33804ab048bed24d379", "is_disabled": 0, "rental_uris": {"android": "https://dc.lft.to/lastmile_qr_scan", "ios": "https://dc.lft.to/lastmile_qr_scan"}, "fusion_lon": 0.0, "lat": 38.90609283333333, "bike_id": "fa36af5bd279b33804ab048bed24d379", "type": "electric_scooter", "is_reserved": 0, "lon": -77.026789}, {"fusion_lat": 0.0, "name": "166fd6050fc87ae9512a3842abca2e50", "is_disabled": 0, "rental_uris": {"android": "https://dc.lft.to/lastmile_qr_scan", "ios": "https://dc.lft.to/lastmile_qr_scan"}, "fusion_lon": 0.0, "lat": 38.91814816666667, "bike_id": "166fd6050fc87ae9512a3842abca2e50", "type": "electric_scooter", "is_reserved": 0, "lon": -77.03933783333333}, {"fusion_lat": 0.0, "name": "527241e6a105c8e732a60bb33768964f", "is_disabled": 0, "rental_uris": {"android": "https://dc.lft.to/lastmile_qr_scan", "ios": "https://dc.lft.to/lastmile_qr_scan"}, "fusion_lon": 0.0, "lat": 38.93296133333333, "bike_id": "527241e6a105c8e732a60bb33768964f", "type": "electric_scooter", "is_reserved": 0, "lon": -77.02445266666666}, {"fusion_lat": 0.0, "name": "c00b7a3053bfccef93bd64f5e17a227b", "is_disabled": 0, "rental_uris": {"android": "https://dc.lft.to/lastmile_qr_scan", "ios": "https://dc.lft.to/lastmile_qr_scan"}, "fusion_lon": 0.0, "lat": 38.934517, "bike_id": "c00b7a3053bfccef93bd64f5e17a227b", "type": "electric_scooter", "is_reserved": 0, "lon": -77.03866033333334}, {"fusion_lat": 0.0, "name": "ba7c3f4531415591dd3bf09d7f20d702", "is_disabled": 0, "rental_uris": {"android": "https://dc.lft.to/lastmile_qr_scan", "ios": "https://dc.lft.to/lastmile_qr_scan"}, "fusion_lon": 0.0, "lat": 38.959504, "bike_id": "ba7c3f4531415591dd3bf09d7f20d702", "type": "electric_scooter", "is_reserved": 0, "lon": -77.0089815}, {"fusion_lat": 0.0, "name": "8312c0f8c25b241abec284f9a1d8f95b", "is_disabled": 0, "rental_uris": {"android": "https://dc.lft.to/lastmile_qr_scan", "ios": "https://dc.lft.to/lastmile_qr_scan"}, "fusion_lon": 0.0, "lat": 38.956694, "bike_id": "8312c0f8c25b241abec284f9a1d8f95b", "type": "electric_bike", "is_reserved": 0, "lon": -77.01133533333334}, {"fusion_lat": 0.0, "name": "e4319254b663b010bedffa09f7294789", "is_disabled": 0, "rental_uris": {"android": "https://dc.lft.to/lastmile_qr_scan", "ios": "https://dc.lft.to/lastmile_qr_scan"}, "fusion_lon": 0.0, "lat": 38.906045166666665, "bike_id": "e4319254b663b010bedffa09f7294789", "type": "electric_scooter", "is_reserved": 0, "lon": -77.04143183333333}, {"fusion_lat": 0.0, "name": "e947e8ae466260bf4c9ca8225fdd7102", "is_disabled": 0, "rental_uris": {"android": "https://dc.lft.to/lastmile_qr_scan", "ios": "https://dc.lft.to/lastmile_qr_scan"}, "fusion_lon": 0.0, "lat": 38.913194, "bike_id": "e947e8ae466260bf4c9ca8225fdd7102", "type": "electric_scooter", "is_reserved": 0, "lon": -77.0457505}, {"fusion_lat": 0.0, "name": "dd1c807b9272f79aa0529356680d5d06", "is_disabled": 0, "rental_uris": {"android": "https://dc.lft.to/lastmile_qr_scan", "ios": "https://dc.lft.to/lastmile_qr_scan"}, "fusion_lon": 0.0, "lat": 38.916184666666666, "bike_id": "dd1c807b9272f79aa0529356680d5d06", "type": "electric_scooter", "is_reserved": 0, "lon": -77.0217195}, {"fusion_lat": 0.0, "name": "d7277ec119be44d6409bd443f6d34f0f", "is_disabled": 0, "rental_uris": {"android": "https://dc.lft.to/lastmile_qr_scan", "ios": "https://dc.lft.to/lastmile_qr_scan"}, "fusion_lon": 0.0, "lat": 38.90664866666667, "bike_id": "d7277ec119be44d6409bd443f6d34f0f", "type": "electric_scooter", "is_reserved": 0, "lon": -77.009245}, {"fusion_lat": 0.0, "name": "400bc0d8f1ac24f97b067c21ae33544c", "is_disabled": 0, "rental_uris": {"android": "https://dc.lft.to/lastmile_qr_scan", "ios": "https://dc.lft.to/lastmile_qr_scan"}, "fusion_lon": 0.0, "lat": 38.924840333333336, "bike_id": "400bc0d8f1ac24f97b067c21ae33544c", "type": "electric_scooter", "is_reserved": 0, "lon": -77.02655833333333}, {"fusion_lat": 0.0, "name": "dc6d0ae58a9ffb708f3035fa1fab8ebf", "is_disabled": 0, "rental_uris": {"android": "https://dc.lft.to/lastmile_qr_scan", "ios": "https://dc.lft.to/lastmile_qr_scan"}, "fusion_lon": 0.0, "lat": 38.879539666666666, "bike_id": "dc6d0ae58a9ffb708f3035fa1fab8ebf", "type": "electric_scooter", "is_reserved": 0, "lon": -77.008349}, {"fusion_lat": 0.0, "name": "9d30e01eb986662f2c213075871cc386", "is_disabled": 0, "rental_uris": {"android": "https://dc.lft.to/lastmile_qr_scan", "ios": "https://dc.lft.to/lastmile_qr_scan"}, "fusion_lon": 0.0, "lat": 38.906523, "bike_id": "9d30e01eb986662f2c213075871cc386", "type": "electric_scooter", "is_reserved": 0, "lon": -77.023808}, {"fusion_lat": 0.0, "name": "bf40a14cab9ff403f9d972cdc5d94d73", "is_disabled": 0, "rental_uris": {"android": "https://dc.lft.to/lastmile_qr_scan", "ios": "https://dc.lft.to/lastmile_qr_scan"}, "fusion_lon": 0.0, "lat": 38.9201525, "bike_id": "bf40a14cab9ff403f9d972cdc5d94d73", "type": "electric_scooter", "is_reserved": 0, "lon": -77.017599}, {"fusion_lat": 0.0, "name": "8e604d71ed6ae444b16aab5c9fefac25", "is_disabled": 0, "rental_uris": {"android": "https://dc.lft.to/lastmile_qr_scan", "ios": "https://dc.lft.to/lastmile_qr_scan"}, "fusion_lon": 0.0, "lat": 38.90369583333333, "bike_id": "8e604d71ed6ae444b16aab5c9fefac25", "type": "electric_scooter", "is_reserved": 0, "lon": -77.017661}, {"fusion_lat": 0.0, "name": "c71011c5bb4e6df66b82904ef0becb72", "is_disabled": 0, "rental_uris": {"android": "https://dc.lft.to/lastmile_qr_scan", "ios": "https://dc.lft.to/lastmile_qr_scan"}, "fusion_lon": 0.0, "lat": 38.9623615, "bike_id": "c71011c5bb4e6df66b82904ef0becb72", "type": "electric_bike", "is_reserved": 0, "lon": -76.92802866666666}, {"fusion_lat": 0.0, "name": "795bbdbdbf1472903caed464b932c3c0", "is_disabled": 0, "rental_uris": {"android": "https://dc.lft.to/lastmile_qr_scan", "ios": "https://dc.lft.to/lastmile_qr_scan"}, "fusion_lon": 0.0, "lat": 38.90028983333333, "bike_id": "795bbdbdbf1472903caed464b932c3c0", "type": "electric_scooter", "is_reserved": 0, "lon": -76.99140783333333}, {"fusion_lat": 0.0, "name": "437e4f83691b63a05ee14db1479f485d", "is_disabled": 0, "rental_uris": {"android": "https://dc.lft.to/lastmile_qr_scan", "ios": "https://dc.lft.to/lastmile_qr_scan"}, "fusion_lon": 0.0, "lat": 38.9072695, "bike_id": "437e4f83691b63a05ee14db1479f485d", "type": "electric_scooter", "is_reserved": 0, "lon": -77.0250665}, {"fusion_lat": 0.0, "name": "2d770a06acebc19f250ee72f20c9dba2", "is_disabled": 0, "rental_uris": {"android": "https://dc.lft.to/lastmile_qr_scan", "ios": "https://dc.lft.to/lastmile_qr_scan"}, "fusion_lon": 0.0, "lat": 38.87598966666667, "bike_id": "2d770a06acebc19f250ee72f20c9dba2", "type": "electric_scooter", "is_reserved": 0, "lon": -77.0058075}, {"fusion_lat": 0.0, "name": "d6b22aec43fbe8204a8fb7c0f9bd6dd7", "is_disabled": 0, "rental_uris": {"android": "https://dc.lft.to/lastmile_qr_scan", "ios": "https://dc.lft.to/lastmile_qr_scan"}, "fusion_lon": 0.0, "lat": 38.8746215, "bike_id": "d6b22aec43fbe8204a8fb7c0f9bd6dd7", "type": "electric_scooter", "is_reserved": 0, "lon": -77.0187065}, {"fusion_lat": 0.0, "name": "c009bfe00582a5359865413c7eaf68b8", "is_disabled": 0, "rental_uris": {"android": "https://dc.lft.to/lastmile_qr_scan", "ios": "https://dc.lft.to/lastmile_qr_scan"}, "fusion_lon": 0.0, "lat": 38.8973765, "bike_id": "c009bfe00582a5359865413c7eaf68b8", "type": "electric_scooter", "is_reserved": 0, "lon": -76.94728716666667}, {"fusion_lat": 0.0, "name": "a25aeda24e71106f7d3ba84816441dd8", "is_disabled": 0, "rental_uris": {"android": "https://dc.lft.to/lastmile_qr_scan", "ios": "https://dc.lft.to/lastmile_qr_scan"}, "fusion_lon": 0.0, "lat": 38.923655833333335, "bike_id": "a25aeda24e71106f7d3ba84816441dd8", "type": "electric_scooter", "is_reserved": 0, "lon": -77.08152483333333}, {"fusion_lat": 0.0, "name": "d157b0b8b6e94e774ee5662ac195fc54", "is_disabled": 0, "rental_uris": {"android": "https://dc.lft.to/lastmile_qr_scan", "ios": "https://dc.lft.to/lastmile_qr_scan"}, "fusion_lon": 0.0, "lat": 38.902626833333336, "bike_id": "d157b0b8b6e94e774ee5662ac195fc54", "type": "electric_scooter", "is_reserved": 0, "lon": -76.99615316666667}, {"fusion_lat": 0.0, "name": "a3c4cd03894da7ee649c92f3de8fc3fe", "is_disabled": 0, "rental_uris": {"android": "https://dc.lft.to/lastmile_qr_scan", "ios": "https://dc.lft.to/lastmile_qr_scan"}, "fusion_lon": 0.0, "lat": 38.93673066666667, "bike_id": "a3c4cd03894da7ee649c92f3de8fc3fe", "type": "electric_scooter", "is_reserved": 0, "lon": -77.03635266666667}, {"fusion_lat": 0.0, "name": "aa3abda637e378a535faa3d79491b831", "is_disabled": 0, "rental_uris": {"android": "https://dc.lft.to/lastmile_qr_scan", "ios": "https://dc.lft.to/lastmile_qr_scan"}, "fusion_lon": 0.0, "lat": 38.92316116666667, "bike_id": "aa3abda637e378a535faa3d79491b831", "type": "electric_scooter", "is_reserved": 0, "lon": -76.99399283333334}, {"fusion_lat": 0.0, "name": "83374f3297a85065a04de4887da92dee", "is_disabled": 0, "rental_uris": {"android": "https://dc.lft.to/lastmile_qr_scan", "ios": "https://dc.lft.to/lastmile_qr_scan"}, "fusion_lon": 0.0, "lat": 38.9272415, "bike_id": "83374f3297a85065a04de4887da92dee", "type": "electric_scooter", "is_reserved": 0, "lon": -77.03156383333334}, {"fusion_lat": 0.0, "name": "b49270d22766437a5f18d827ee228b79", "is_disabled": 0, "rental_uris": {"android": "https://dc.lft.to/lastmile_qr_scan", "ios": "https://dc.lft.to/lastmile_qr_scan"}, "fusion_lon": 0.0, "lat": 38.900318166666665, "bike_id": "b49270d22766437a5f18d827ee228b79", "type": "electric_scooter", "is_reserved": 0, "lon": -76.9992885}, {"fusion_lat": 0.0, "name": "18c13ed03bc3ba702d17261e1e67fb04", "is_disabled": 0, "rental_uris": {"android": "https://dc.lft.to/lastmile_qr_scan", "ios": "https://dc.lft.to/lastmile_qr_scan"}, "fusion_lon": 0.0, "lat": 38.9107935, "bike_id": "18c13ed03bc3ba702d17261e1e67fb04", "type": "electric_scooter", "is_reserved": 0, "lon": -77.06549033333333}, {"fusion_lat": 0.0, "name": "1f45f301435515fc74d0fbd76d99cb2b", "is_disabled": 0, "rental_uris": {"android": "https://dc.lft.to/lastmile_qr_scan", "ios": "https://dc.lft.to/lastmile_qr_scan"}, "fusion_lon": 0.0, "lat": 38.9232405, "bike_id": "1f45f301435515fc74d0fbd76d99cb2b", "type": "electric_scooter", "is_reserved": 0, "lon": -77.04621133333333}, {"fusion_lat": 0.0, "name": "d830f2b36b2adf8ca532520fb8c983cc", "is_disabled": 0, "rental_uris": {"android": "https://dc.lft.to/lastmile_qr_scan", "ios": "https://dc.lft.to/lastmile_qr_scan"}, "fusion_lon": 0.0, "lat": 38.904660666666665, "bike_id": "d830f2b36b2adf8ca532520fb8c983cc", "type": "electric_scooter", "is_reserved": 0, "lon": -77.01273633333334}, {"fusion_lat": 0.0, "name": "a8111710a6c477d9ad10cc1cfb1e4595", "is_disabled": 0, "rental_uris": {"android": "https://dc.lft.to/lastmile_qr_scan", "ios": "https://dc.lft.to/lastmile_qr_scan"}, "fusion_lon": 0.0, "lat": 38.91650283333333, "bike_id": "a8111710a6c477d9ad10cc1cfb1e4595", "type": "electric_scooter", "is_reserved": 0, "lon": -77.04582416666666}, {"fusion_lat": 0.0, "name": "a5667814304b93056e10729ff2040a74", "is_disabled": 0, "rental_uris": {"android": "https://dc.lft.to/lastmile_qr_scan", "ios": "https://dc.lft.to/lastmile_qr_scan"}, "fusion_lon": 0.0, "lat": 38.930363166666666, "bike_id": "a5667814304b93056e10729ff2040a74", "type": "electric_scooter", "is_reserved": 0, "lon": -77.03307383333333}, {"fusion_lat": 0.0, "name": "5a80e350fc824c1d1aee01fe61fb0708", "is_disabled": 0, "rental_uris": {"android": "https://dc.lft.to/lastmile_qr_scan", "ios": "https://dc.lft.to/lastmile_qr_scan"}, "fusion_lon": 0.0, "lat": 38.9208765, "bike_id": "5a80e350fc824c1d1aee01fe61fb0708", "type": "electric_scooter", "is_reserved": 0, "lon": -77.040708}, {"fusion_lat": 0.0, "name": "95d95676370410096d8b859dc2c5cdeb", "is_disabled": 0, "rental_uris": {"android": "https://dc.lft.to/lastmile_qr_scan", "ios": "https://dc.lft.to/lastmile_qr_scan"}, "fusion_lon": 0.0, "lat": 38.8973655, "bike_id": "95d95676370410096d8b859dc2c5cdeb", "type": "electric_scooter", "is_reserved": 0, "lon": -77.026034}, {"fusion_lat": 0.0, "name": "ac257a53295024318df264fcf91735d5", "is_disabled": 0, "rental_uris": {"android": "https://dc.lft.to/lastmile_qr_scan", "ios": "https://dc.lft.to/lastmile_qr_scan"}, "fusion_lon": 0.0, "lat": 38.926965833333334, "bike_id": "ac257a53295024318df264fcf91735d5", "type": "electric_scooter", "is_reserved": 0, "lon": -77.0209435}, {"fusion_lat": 0.0, "name": "911ac90579df07bec2426a47b74d994a", "is_disabled": 0, "rental_uris": {"android": "https://dc.lft.to/lastmile_qr_scan", "ios": "https://dc.lft.to/lastmile_qr_scan"}, "fusion_lon": 0.0, "lat": 38.900269, "bike_id": "911ac90579df07bec2426a47b74d994a", "type": "electric_scooter", "is_reserved": 0, "lon": -77.00036133333333}, {"fusion_lat": 0.0, "name": "237bcda4982a2458d8fb2ceb62d56dd2", "is_disabled": 0, "rental_uris": {"android": "https://dc.lft.to/lastmile_qr_scan", "ios": "https://dc.lft.to/lastmile_qr_scan"}, "fusion_lon": 0.0, "lat": 38.95386283333333, "bike_id": "237bcda4982a2458d8fb2ceb62d56dd2", "type": "electric_bike", "is_reserved": 0, "lon": -76.97963683333333}, {"fusion_lat": 0.0, "name": "75f2e41ca3e31ace2565e43765cb537d", "is_disabled": 0, "rental_uris": {"android": "https://dc.lft.to/lastmile_qr_scan", "ios": "https://dc.lft.to/lastmile_qr_scan"}, "fusion_lon": 0.0, "lat": 38.8970555, "bike_id": "75f2e41ca3e31ace2565e43765cb537d", "type": "electric_scooter", "is_reserved": 0, "lon": -77.0241625}, {"fusion_lat": 0.0, "name": "c64cb69fea926be2fa899e134bb61aea", "is_disabled": 0, "rental_uris": {"android": "https://dc.lft.to/lastmile_qr_scan", "ios": "https://dc.lft.to/lastmile_qr_scan"}, "fusion_lon": 0.0, "lat": 38.925466166666666, "bike_id": "c64cb69fea926be2fa899e134bb61aea", "type": "electric_scooter", "is_reserved": 0, "lon": -77.04302666666666}, {"fusion_lat": 0.0, "name": "f13114fab57dbc195d5396cf98eeb271", "is_disabled": 0, "rental_uris": {"android": "https://dc.lft.to/lastmile_qr_scan", "ios": "https://dc.lft.to/lastmile_qr_scan"}, "fusion_lon": 0.0, "lat": 38.92618316666667, "bike_id": "f13114fab57dbc195d5396cf98eeb271", "type": "electric_scooter", "is_reserved": 0, "lon": -77.04322783333333}, {"fusion_lat": 0.0, "name": "b53087a12ef398b83199c1fd8725a9de", "is_disabled": 0, "rental_uris": {"android": "https://dc.lft.to/lastmile_qr_scan", "ios": "https://dc.lft.to/lastmile_qr_scan"}, "fusion_lon": 0.0, "lat": 38.919927, "bike_id": "b53087a12ef398b83199c1fd8725a9de", "type": "electric_scooter", "is_reserved": 0, "lon": -77.07140066666666}, {"fusion_lat": 0.0, "name": "5698ac13397653e3ec7b6a8ff931fa4a", "is_disabled": 0, "rental_uris": {"android": "https://dc.lft.to/lastmile_qr_scan", "ios": "https://dc.lft.to/lastmile_qr_scan"}, "fusion_lon": 0.0, "lat": 38.913388833333336, "bike_id": "5698ac13397653e3ec7b6a8ff931fa4a", "type": "electric_scooter", "is_reserved": 0, "lon": -77.04793616666667}, {"fusion_lat": 0.0, "name": "7c0dd3b32f08426e9e60a22afe77a63d", "is_disabled": 0, "rental_uris": {"android": "https://dc.lft.to/lastmile_qr_scan", "ios": "https://dc.lft.to/lastmile_qr_scan"}, "fusion_lon": 0.0, "lat": 38.93117133333333, "bike_id": "7c0dd3b32f08426e9e60a22afe77a63d", "type": "electric_scooter", "is_reserved": 0, "lon": -77.02100016666667}, {"fusion_lat": 0.0, "name": "46e12f0ddc4499e2fce233867e830321", "is_disabled": 0, "rental_uris": {"android": "https://dc.lft.to/lastmile_qr_scan", "ios": "https://dc.lft.to/lastmile_qr_scan"}, "fusion_lon": 0.0, "lat": 38.9158395, "bike_id": "46e12f0ddc4499e2fce233867e830321", "type": "electric_scooter", "is_reserved": 0, "lon": -77.012387}, {"fusion_lat": 0.0, "name": "814c777bdb9cf816639913103f8f6617", "is_disabled": 0, "rental_uris": {"android": "https://dc.lft.to/lastmile_qr_scan", "ios": "https://dc.lft.to/lastmile_qr_scan"}, "fusion_lon": 0.0, "lat": 38.928616166666664, "bike_id": "814c777bdb9cf816639913103f8f6617", "type": "electric_scooter", "is_reserved": 0, "lon": -77.0305775}, {"fusion_lat": 0.0, "name": "48ef867fb875ce552bf029d4b33f4fd0", "is_disabled": 0, "rental_uris": {"android": "https://dc.lft.to/lastmile_qr_scan", "ios": "https://dc.lft.to/lastmile_qr_scan"}, "fusion_lon": 0.0, "lat": 38.9227215, "bike_id": "48ef867fb875ce552bf029d4b33f4fd0", "type": "electric_scooter", "is_reserved": 0, "lon": -77.04240383333334}, {"fusion_lat": 0.0, "name": "755f20d7539550d4b2c49a486a664a23", "is_disabled": 0, "rental_uris": {"android": "https://dc.lft.to/lastmile_qr_scan", "ios": "https://dc.lft.to/lastmile_qr_scan"}, "fusion_lon": 0.0, "lat": 38.910870833333334, "bike_id": "755f20d7539550d4b2c49a486a664a23", "type": "electric_scooter", "is_reserved": 0, "lon": -77.02101383333333}, {"fusion_lat": 0.0, "name": "7f3dbaa7f2a947abf02507b916863e64", "is_disabled": 0, "rental_uris": {"android": "https://dc.lft.to/lastmile_qr_scan", "ios": "https://dc.lft.to/lastmile_qr_scan"}, "fusion_lon": 0.0, "lat": 38.89841466666667, "bike_id": "7f3dbaa7f2a947abf02507b916863e64", "type": "electric_scooter", "is_reserved": 0, "lon": -77.027896}, {"fusion_lat": 0.0, "name": "c7538a779368f16489c6779727ab65f7", "is_disabled": 0, "rental_uris": {"android": "https://dc.lft.to/lastmile_qr_scan", "ios": "https://dc.lft.to/lastmile_qr_scan"}, "fusion_lon": 0.0, "lat": 38.847543, "bike_id": "c7538a779368f16489c6779727ab65f7", "type": "electric_scooter", "is_reserved": 0, "lon": -76.995035}, {"fusion_lat": 0.0, "name": "248686022403f3afd5dca9597feae1c5", "is_disabled": 0, "rental_uris": {"android": "https://dc.lft.to/lastmile_qr_scan", "ios": "https://dc.lft.to/lastmile_qr_scan"}, "fusion_lon": 0.0, "lat": 38.914853666666666, "bike_id": "248686022403f3afd5dca9597feae1c5", "type": "electric_scooter", "is_reserved": 0, "lon": -77.0132945}, {"fusion_lat": 0.0, "name": "34d8f656e79fa8ad0d27e1bff321d194", "is_disabled": 0, "rental_uris": {"android": "https://dc.lft.to/lastmile_qr_scan", "ios": "https://dc.lft.to/lastmile_qr_scan"}, "fusion_lon": 0.0, "lat": 38.85356566666667, "bike_id": "34d8f656e79fa8ad0d27e1bff321d194", "type": "electric_bike", "is_reserved": 0, "lon": -77.1346845}, {"fusion_lat": 0.0, "name": "688f2e249ae55ae655cd57e79223ad29", "is_disabled": 0, "rental_uris": {"android": "https://dc.lft.to/lastmile_qr_scan", "ios": "https://dc.lft.to/lastmile_qr_scan"}, "fusion_lon": 0.0, "lat": 38.915610666666666, "bike_id": "688f2e249ae55ae655cd57e79223ad29", "type": "electric_scooter", "is_reserved": 0, "lon": -77.03866966666666}, {"fusion_lat": 0.0, "name": "18fa4aa2edc4a0b28233383dae8cf4a6", "is_disabled": 0, "rental_uris": {"android": "https://dc.lft.to/lastmile_qr_scan", "ios": "https://dc.lft.to/lastmile_qr_scan"}, "fusion_lon": 0.0, "lat": 38.87492116666667, "bike_id": "18fa4aa2edc4a0b28233383dae8cf4a6", "type": "electric_scooter", "is_reserved": 0, "lon": -77.0003465}, {"fusion_lat": 0.0, "name": "d86a39e93711d8e802adbaad2f426c48", "is_disabled": 0, "rental_uris": {"android": "https://dc.lft.to/lastmile_qr_scan", "ios": "https://dc.lft.to/lastmile_qr_scan"}, "fusion_lon": 0.0, "lat": 38.913432, "bike_id": "d86a39e93711d8e802adbaad2f426c48", "type": "electric_scooter", "is_reserved": 0, "lon": -77.02386116666666}, {"fusion_lat": 0.0, "name": "3c725b296d9631578026ed82fa116590", "is_disabled": 0, "rental_uris": {"android": "https://dc.lft.to/lastmile_qr_scan", "ios": "https://dc.lft.to/lastmile_qr_scan"}, "fusion_lon": 0.0, "lat": 38.91061083333334, "bike_id": "3c725b296d9631578026ed82fa116590", "type": "electric_scooter", "is_reserved": 0, "lon": -77.04267133333333}, {"fusion_lat": 0.0, "name": "0115dbcd2361d4203ea002b191c66239", "is_disabled": 0, "rental_uris": {"android": "https://dc.lft.to/lastmile_qr_scan", "ios": "https://dc.lft.to/lastmile_qr_scan"}, "fusion_lon": 0.0, "lat": 38.924268833333336, "bike_id": "0115dbcd2361d4203ea002b191c66239", "type": "electric_scooter", "is_reserved": 0, "lon": -77.02719866666666}, {"fusion_lat": 0.0, "name": "85b5861fca36a7915239e4d9e8bc5de8", "is_disabled": 0, "rental_uris": {"android": "https://dc.lft.to/lastmile_qr_scan", "ios": "https://dc.lft.to/lastmile_qr_scan"}, "fusion_lon": 0.0, "lat": 38.88230333333333, "bike_id": "85b5861fca36a7915239e4d9e8bc5de8", "type": "electric_scooter", "is_reserved": 0, "lon": -77.02620566666667}, {"fusion_lat": 0.0, "name": "6caded6204d2399df6ad3683b996c626", "is_disabled": 0, "rental_uris": {"android": "https://dc.lft.to/lastmile_qr_scan", "ios": "https://dc.lft.to/lastmile_qr_scan"}, "fusion_lon": 0.0, "lat": 38.90149483333333, "bike_id": "6caded6204d2399df6ad3683b996c626", "type": "electric_scooter", "is_reserved": 0, "lon": -77.02311083333333}, {"fusion_lat": 0.0, "name": "9b3aa8a1cd78a490ed64c2d5a8a57cb4", "is_disabled": 0, "rental_uris": {"android": "https://dc.lft.to/lastmile_qr_scan", "ios": "https://dc.lft.to/lastmile_qr_scan"}, "fusion_lon": 0.0, "lat": 38.9056675, "bike_id": "9b3aa8a1cd78a490ed64c2d5a8a57cb4", "type": "electric_scooter", "is_reserved": 0, "lon": -77.02225633333333}, {"fusion_lat": 0.0, "name": "81068c097df9bc08ba465808a2171eaa", "is_disabled": 0, "rental_uris": {"android": "https://dc.lft.to/lastmile_qr_scan", "ios": "https://dc.lft.to/lastmile_qr_scan"}, "fusion_lon": 0.0, "lat": 38.9003535, "bike_id": "81068c097df9bc08ba465808a2171eaa", "type": "electric_scooter", "is_reserved": 0, "lon": -77.03212333333333}, {"fusion_lat": 0.0, "name": "875ee20261ef3f41026b8318d6664d6c", "is_disabled": 0, "rental_uris": {"android": "https://dc.lft.to/lastmile_qr_scan", "ios": "https://dc.lft.to/lastmile_qr_scan"}, "fusion_lon": 0.0, "lat": 38.8781295, "bike_id": "875ee20261ef3f41026b8318d6664d6c", "type": "electric_scooter", "is_reserved": 0, "lon": -77.013278}, {"fusion_lat": 0.0, "name": "c1e09210b9b7a0402abe91f4c28c3bbd", "is_disabled": 0, "rental_uris": {"android": "https://dc.lft.to/lastmile_qr_scan", "ios": "https://dc.lft.to/lastmile_qr_scan"}, "fusion_lon": 0.0, "lat": 38.8848895, "bike_id": "c1e09210b9b7a0402abe91f4c28c3bbd", "type": "electric_scooter", "is_reserved": 0, "lon": -77.00725033333333}, {"fusion_lat": 0.0, "name": "a60c690b8f700d923ada0f99cf76c9be", "is_disabled": 0, "rental_uris": {"android": "https://dc.lft.to/lastmile_qr_scan", "ios": "https://dc.lft.to/lastmile_qr_scan"}, "fusion_lon": 0.0, "lat": 38.9225435, "bike_id": "a60c690b8f700d923ada0f99cf76c9be", "type": "electric_scooter", "is_reserved": 0, "lon": -77.03524666666667}, {"fusion_lat": 0.0, "name": "d0dde5b4b1df1f3bc5d394cc79828aa9", "is_disabled": 0, "rental_uris": {"android": "https://dc.lft.to/lastmile_qr_scan", "ios": "https://dc.lft.to/lastmile_qr_scan"}, "fusion_lon": 0.0, "lat": 38.90981016666667, "bike_id": "d0dde5b4b1df1f3bc5d394cc79828aa9", "type": "electric_scooter", "is_reserved": 0, "lon": -77.03217016666666}, {"fusion_lat": 0.0, "name": "47691f0bedec36db47e6033472bb97f0", "is_disabled": 0, "rental_uris": {"android": "https://dc.lft.to/lastmile_qr_scan", "ios": "https://dc.lft.to/lastmile_qr_scan"}, "fusion_lon": 0.0, "lat": 38.89876983333333, "bike_id": "47691f0bedec36db47e6033472bb97f0", "type": "electric_scooter", "is_reserved": 0, "lon": -76.93188783333333}, {"fusion_lat": 0.0, "name": "85a1e7db1f2ce48fd924b1ae69219a6b", "is_disabled": 0, "rental_uris": {"android": "https://dc.lft.to/lastmile_qr_scan", "ios": "https://dc.lft.to/lastmile_qr_scan"}, "fusion_lon": 0.0, "lat": 38.924506, "bike_id": "85a1e7db1f2ce48fd924b1ae69219a6b", "type": "electric_scooter", "is_reserved": 0, "lon": -77.02011333333333}, {"fusion_lat": 0.0, "name": "268ba0b80c7a4fd8216aca90a70356ce", "is_disabled": 0, "rental_uris": {"android": "https://dc.lft.to/lastmile_qr_scan", "ios": "https://dc.lft.to/lastmile_qr_scan"}, "fusion_lon": 0.0, "lat": 38.9268675, "bike_id": "268ba0b80c7a4fd8216aca90a70356ce", "type": "electric_scooter", "is_reserved": 0, "lon": -77.02280966666666}, {"fusion_lat": 0.0, "name": "78464ec83917997d0565410023fd9ecf", "is_disabled": 0, "rental_uris": {"android": "https://dc.lft.to/lastmile_qr_scan", "ios": "https://dc.lft.to/lastmile_qr_scan"}, "fusion_lon": 0.0, "lat": 38.96493533333334, "bike_id": "78464ec83917997d0565410023fd9ecf", "type": "electric_bike", "is_reserved": 0, "lon": -77.02213483333334}, {"fusion_lat": 0.0, "name": "15e426c03e04078544152a95be0576f8", "is_disabled": 0, "rental_uris": {"android": "https://dc.lft.to/lastmile_qr_scan", "ios": "https://dc.lft.to/lastmile_qr_scan"}, "fusion_lon": 0.0, "lat": 38.8999605, "bike_id": "15e426c03e04078544152a95be0576f8", "type": "electric_scooter", "is_reserved": 0, "lon": -76.99013866666667}, {"fusion_lat": 0.0, "name": "440c23f6fd73cb7d72453c6147e43b5f", "is_disabled": 0, "rental_uris": {"android": "https://dc.lft.to/lastmile_qr_scan", "ios": "https://dc.lft.to/lastmile_qr_scan"}, "fusion_lon": 0.0, "lat": 38.87688, "bike_id": "440c23f6fd73cb7d72453c6147e43b5f", "type": "electric_scooter", "is_reserved": 0, "lon": -77.0072975}, {"fusion_lat": 0.0, "name": "9ba063dff71c38d081f0c28df6fa7641", "is_disabled": 0, "rental_uris": {"android": "https://dc.lft.to/lastmile_qr_scan", "ios": "https://dc.lft.to/lastmile_qr_scan"}, "fusion_lon": 0.0, "lat": 38.91889183333333, "bike_id": "9ba063dff71c38d081f0c28df6fa7641", "type": "electric_scooter", "is_reserved": 0, "lon": -77.02303566666667}, {"fusion_lat": 0.0, "name": "78835e71ecc195228283699f125dfcb3", "is_disabled": 0, "rental_uris": {"android": "https://dc.lft.to/lastmile_qr_scan", "ios": "https://dc.lft.to/lastmile_qr_scan"}, "fusion_lon": 0.0, "lat": 38.901605833333335, "bike_id": "78835e71ecc195228283699f125dfcb3", "type": "electric_scooter", "is_reserved": 0, "lon": -77.023174}, {"fusion_lat": 0.0, "name": "3b718a58b3928a4d82d446205c9635e5", "is_disabled": 0, "rental_uris": {"android": "https://dc.lft.to/lastmile_qr_scan", "ios": "https://dc.lft.to/lastmile_qr_scan"}, "fusion_lon": 0.0, "lat": 38.90765583333334, "bike_id": "3b718a58b3928a4d82d446205c9635e5", "type": "electric_scooter", "is_reserved": 0, "lon": -77.04241816666666}, {"fusion_lat": 0.0, "name": "e75c9e25cfcc4c8afbd2753167a6c531", "is_disabled": 0, "rental_uris": {"android": "https://dc.lft.to/lastmile_qr_scan", "ios": "https://dc.lft.to/lastmile_qr_scan"}, "fusion_lon": 0.0, "lat": 38.92319716666667, "bike_id": "e75c9e25cfcc4c8afbd2753167a6c531", "type": "electric_scooter", "is_reserved": 0, "lon": -77.02047033333334}, {"fusion_lat": 0.0, "name": "08c1bb5cc18aa5806a18ae69857a56fa", "is_disabled": 0, "rental_uris": {"android": "https://dc.lft.to/lastmile_qr_scan", "ios": "https://dc.lft.to/lastmile_qr_scan"}, "fusion_lon": 0.0, "lat": 38.904827166666664, "bike_id": "08c1bb5cc18aa5806a18ae69857a56fa", "type": "electric_scooter", "is_reserved": 0, "lon": -77.03260333333333}, {"fusion_lat": 0.0, "name": "1e19e2ca9792f151a1a255be496e2153", "is_disabled": 0, "rental_uris": {"android": "https://dc.lft.to/lastmile_qr_scan", "ios": "https://dc.lft.to/lastmile_qr_scan"}, "fusion_lon": 0.0, "lat": 38.9352575, "bike_id": "1e19e2ca9792f151a1a255be496e2153", "type": "electric_scooter", "is_reserved": 0, "lon": -77.03273233333333}, {"fusion_lat": 0.0, "name": "557852f547d6ad2920f00837be0bdefb", "is_disabled": 0, "rental_uris": {"android": "https://dc.lft.to/lastmile_qr_scan", "ios": "https://dc.lft.to/lastmile_qr_scan"}, "fusion_lon": 0.0, "lat": 38.93450383333333, "bike_id": "557852f547d6ad2920f00837be0bdefb", "type": "electric_scooter", "is_reserved": 0, "lon": -77.02980833333334}, {"fusion_lat": 0.0, "name": "ad4c8769cbe9f8d49a1c493042fd7eac", "is_disabled": 0, "rental_uris": {"android": "https://dc.lft.to/lastmile_qr_scan", "ios": "https://dc.lft.to/lastmile_qr_scan"}, "fusion_lon": 0.0, "lat": 38.93078366666667, "bike_id": "ad4c8769cbe9f8d49a1c493042fd7eac", "type": "electric_scooter", "is_reserved": 0, "lon": -77.07761966666666}, {"fusion_lat": 0.0, "name": "f7db60e95b48c764620cf58d989276e9", "is_disabled": 0, "rental_uris": {"android": "https://dc.lft.to/lastmile_qr_scan", "ios": "https://dc.lft.to/lastmile_qr_scan"}, "fusion_lon": 0.0, "lat": 38.91333266666667, "bike_id": "f7db60e95b48c764620cf58d989276e9", "type": "electric_scooter", "is_reserved": 0, "lon": -77.03182033333333}, {"fusion_lat": 0.0, "name": "c97ef6bfed0949b92cd037ec346dd57c", "is_disabled": 0, "rental_uris": {"android": "https://dc.lft.to/lastmile_qr_scan", "ios": "https://dc.lft.to/lastmile_qr_scan"}, "fusion_lon": 0.0, "lat": 38.8602125, "bike_id": "c97ef6bfed0949b92cd037ec346dd57c", "type": "electric_bike", "is_reserved": 0, "lon": -77.12810233333333}, {"fusion_lat": 0.0, "name": "d507540292a2bc259d43e60a407d37f9", "is_disabled": 0, "rental_uris": {"android": "https://dc.lft.to/lastmile_qr_scan", "ios": "https://dc.lft.to/lastmile_qr_scan"}, "fusion_lon": 0.0, "lat": 38.90266583333333, "bike_id": "d507540292a2bc259d43e60a407d37f9", "type": "electric_scooter", "is_reserved": 0, "lon": -76.974598}, {"fusion_lat": 0.0, "name": "657a4f2d1492a0497b57ce7332a20784", "is_disabled": 0, "rental_uris": {"android": "https://dc.lft.to/lastmile_qr_scan", "ios": "https://dc.lft.to/lastmile_qr_scan"}, "fusion_lon": 0.0, "lat": 38.906973666666666, "bike_id": "657a4f2d1492a0497b57ce7332a20784", "type": "electric_scooter", "is_reserved": 0, "lon": -77.06522783333334}, {"fusion_lat": 0.0, "name": "6befb38c8138fd70a91442c48d5b03ea", "is_disabled": 0, "rental_uris": {"android": "https://dc.lft.to/lastmile_qr_scan", "ios": "https://dc.lft.to/lastmile_qr_scan"}, "fusion_lon": 0.0, "lat": 38.916981666666665, "bike_id": "6befb38c8138fd70a91442c48d5b03ea", "type": "electric_scooter", "is_reserved": 0, "lon": -77.022807}, {"fusion_lat": 0.0, "name": "a95972d083a8c7cf6725d40aebf996e2", "is_disabled": 0, "rental_uris": {"android": "https://dc.lft.to/lastmile_qr_scan", "ios": "https://dc.lft.to/lastmile_qr_scan"}, "fusion_lon": 0.0, "lat": 38.9044785, "bike_id": "a95972d083a8c7cf6725d40aebf996e2", "type": "electric_scooter", "is_reserved": 0, "lon": -77.03465516666667}, {"fusion_lat": 0.0, "name": "ed666024e2428b112d78203ef322ef6c", "is_disabled": 0, "rental_uris": {"android": "https://dc.lft.to/lastmile_qr_scan", "ios": "https://dc.lft.to/lastmile_qr_scan"}, "fusion_lon": 0.0, "lat": 38.91817916666667, "bike_id": "ed666024e2428b112d78203ef322ef6c", "type": "electric_scooter", "is_reserved": 0, "lon": -77.02510733333334}, {"fusion_lat": 0.0, "name": "6be26de7eed65ad134e895a78e066030", "is_disabled": 0, "rental_uris": {"android": "https://dc.lft.to/lastmile_qr_scan", "ios": "https://dc.lft.to/lastmile_qr_scan"}, "fusion_lon": 0.0, "lat": 38.91103233333333, "bike_id": "6be26de7eed65ad134e895a78e066030", "type": "electric_scooter", "is_reserved": 0, "lon": -77.01670066666667}, {"fusion_lat": 0.0, "name": "c6e7ea9115aff3df79d0658ea0f34582", "is_disabled": 0, "rental_uris": {"android": "https://dc.lft.to/lastmile_qr_scan", "ios": "https://dc.lft.to/lastmile_qr_scan"}, "fusion_lon": 0.0, "lat": 38.91991, "bike_id": "c6e7ea9115aff3df79d0658ea0f34582", "type": "electric_scooter", "is_reserved": 0, "lon": -76.97305033333333}, {"fusion_lat": 0.0, "name": "7bb95a1b109a465121084225f42dbb95", "is_disabled": 0, "rental_uris": {"android": "https://dc.lft.to/lastmile_qr_scan", "ios": "https://dc.lft.to/lastmile_qr_scan"}, "fusion_lon": 0.0, "lat": 38.8983245, "bike_id": "7bb95a1b109a465121084225f42dbb95", "type": "electric_scooter", "is_reserved": 0, "lon": -77.02421633333333}, {"fusion_lat": 0.0, "name": "621589bbe2d5b2d043df8b34980b6275", "is_disabled": 0, "rental_uris": {"android": "https://dc.lft.to/lastmile_qr_scan", "ios": "https://dc.lft.to/lastmile_qr_scan"}, "fusion_lon": 0.0, "lat": 38.949193666666666, "bike_id": "621589bbe2d5b2d043df8b34980b6275", "type": "electric_scooter", "is_reserved": 0, "lon": -77.01851216666667}, {"fusion_lat": 0.0, "name": "32ca23068d44a342fdddefed259d3d77", "is_disabled": 0, "rental_uris": {"android": "https://dc.lft.to/lastmile_qr_scan", "ios": "https://dc.lft.to/lastmile_qr_scan"}, "fusion_lon": 0.0, "lat": 38.9306315, "bike_id": "32ca23068d44a342fdddefed259d3d77", "type": "electric_scooter", "is_reserved": 0, "lon": -77.033469}, {"fusion_lat": 0.0, "name": "eda751633892deb82dbb1ab3a9f6d8ab", "is_disabled": 0, "rental_uris": {"android": "https://dc.lft.to/lastmile_qr_scan", "ios": "https://dc.lft.to/lastmile_qr_scan"}, "fusion_lon": 0.0, "lat": 38.8969575, "bike_id": "eda751633892deb82dbb1ab3a9f6d8ab", "type": "electric_scooter", "is_reserved": 0, "lon": -77.00493766666666}, {"fusion_lat": 0.0, "name": "8176a2910a226da390c867f526816355", "is_disabled": 0, "rental_uris": {"android": "https://dc.lft.to/lastmile_qr_scan", "ios": "https://dc.lft.to/lastmile_qr_scan"}, "fusion_lon": 0.0, "lat": 38.91623233333333, "bike_id": "8176a2910a226da390c867f526816355", "type": "electric_scooter", "is_reserved": 0, "lon": -77.03860666666667}, {"fusion_lat": 0.0, "name": "810bec1bdb105aed3266552772535148", "is_disabled": 0, "rental_uris": {"android": "https://dc.lft.to/lastmile_qr_scan", "ios": "https://dc.lft.to/lastmile_qr_scan"}, "fusion_lon": 0.0, "lat": 38.88129633333333, "bike_id": "810bec1bdb105aed3266552772535148", "type": "electric_scooter", "is_reserved": 0, "lon": -76.99512816666666}, {"fusion_lat": 0.0, "name": "19b9f94255e4d484a3deef655c025ede", "is_disabled": 0, "rental_uris": {"android": "https://dc.lft.to/lastmile_qr_scan", "ios": "https://dc.lft.to/lastmile_qr_scan"}, "fusion_lon": 0.0, "lat": 38.872887, "bike_id": "19b9f94255e4d484a3deef655c025ede", "type": "electric_scooter", "is_reserved": 0, "lon": -76.99958833333334}, {"fusion_lat": 0.0, "name": "1539907afaed6cc91a11df10ca187c5e", "is_disabled": 0, "rental_uris": {"android": "https://dc.lft.to/lastmile_qr_scan", "ios": "https://dc.lft.to/lastmile_qr_scan"}, "fusion_lon": 0.0, "lat": 38.93829233333334, "bike_id": "1539907afaed6cc91a11df10ca187c5e", "type": "electric_scooter", "is_reserved": 0, "lon": -76.99191983333333}, {"fusion_lat": 0.0, "name": "5574a7e5fc0b5456fb55291a29e33724", "is_disabled": 0, "rental_uris": {"android": "https://dc.lft.to/lastmile_qr_scan", "ios": "https://dc.lft.to/lastmile_qr_scan"}, "fusion_lon": 0.0, "lat": 38.90023566666667, "bike_id": "5574a7e5fc0b5456fb55291a29e33724", "type": "electric_scooter", "is_reserved": 0, "lon": -77.03585083333333}, {"fusion_lat": 0.0, "name": "0467e955b2588df12e3b66602bd6af77", "is_disabled": 0, "rental_uris": {"android": "https://dc.lft.to/lastmile_qr_scan", "ios": "https://dc.lft.to/lastmile_qr_scan"}, "fusion_lon": 0.0, "lat": 38.916276833333335, "bike_id": "0467e955b2588df12e3b66602bd6af77", "type": "electric_scooter", "is_reserved": 0, "lon": -77.02169}, {"fusion_lat": 0.0, "name": "8338505e1585e3b1043c9284066c88f2", "is_disabled": 0, "rental_uris": {"android": "https://dc.lft.to/lastmile_qr_scan", "ios": "https://dc.lft.to/lastmile_qr_scan"}, "fusion_lon": 0.0, "lat": 38.89345766666667, "bike_id": "8338505e1585e3b1043c9284066c88f2", "type": "electric_scooter", "is_reserved": 0, "lon": -76.99161966666667}, {"fusion_lat": 0.0, "name": "dd102030e9e0ffa430682992353f86d0", "is_disabled": 0, "rental_uris": {"android": "https://dc.lft.to/lastmile_qr_scan", "ios": "https://dc.lft.to/lastmile_qr_scan"}, "fusion_lon": 0.0, "lat": 38.922935, "bike_id": "dd102030e9e0ffa430682992353f86d0", "type": "electric_scooter", "is_reserved": 0, "lon": -77.073343}, {"fusion_lat": 0.0, "name": "0736dff94436bfa53a75d0634d75f1c8", "is_disabled": 0, "rental_uris": {"android": "https://dc.lft.to/lastmile_qr_scan", "ios": "https://dc.lft.to/lastmile_qr_scan"}, "fusion_lon": 0.0, "lat": 38.89963916666667, "bike_id": "0736dff94436bfa53a75d0634d75f1c8", "type": "electric_bike", "is_reserved": 0, "lon": -77.01465833333333}, {"fusion_lat": 0.0, "name": "d76d4f3bd3b7137feea69b6c586b15b0", "is_disabled": 0, "rental_uris": {"android": "https://dc.lft.to/lastmile_qr_scan", "ios": "https://dc.lft.to/lastmile_qr_scan"}, "fusion_lon": 0.0, "lat": 38.90291583333333, "bike_id": "d76d4f3bd3b7137feea69b6c586b15b0", "type": "electric_scooter", "is_reserved": 0, "lon": -76.99041716666666}, {"fusion_lat": 0.0, "name": "1e2739ee2148ac9795d5c5b4233e21fe", "is_disabled": 0, "rental_uris": {"android": "https://dc.lft.to/lastmile_qr_scan", "ios": "https://dc.lft.to/lastmile_qr_scan"}, "fusion_lon": 0.0, "lat": 38.91708966666667, "bike_id": "1e2739ee2148ac9795d5c5b4233e21fe", "type": "electric_scooter", "is_reserved": 0, "lon": -77.04149383333333}, {"fusion_lat": 0.0, "name": "1d8bb1735931ac97c5305f68152db1f1", "is_disabled": 0, "rental_uris": {"android": "https://dc.lft.to/lastmile_qr_scan", "ios": "https://dc.lft.to/lastmile_qr_scan"}, "fusion_lon": 0.0, "lat": 38.877028333333335, "bike_id": "1d8bb1735931ac97c5305f68152db1f1", "type": "electric_scooter", "is_reserved": 0, "lon": -77.0077015}, {"fusion_lat": 0.0, "name": "4c59c8400712ea7eea378fa6cfbd3f93", "is_disabled": 0, "rental_uris": {"android": "https://dc.lft.to/lastmile_qr_scan", "ios": "https://dc.lft.to/lastmile_qr_scan"}, "fusion_lon": 0.0, "lat": 38.9249135, "bike_id": "4c59c8400712ea7eea378fa6cfbd3f93", "type": "electric_scooter", "is_reserved": 0, "lon": -77.02711633333334}, {"fusion_lat": 0.0, "name": "c598f751ef18e24c17e9393d0be7e4d8", "is_disabled": 0, "rental_uris": {"android": "https://dc.lft.to/lastmile_qr_scan", "ios": "https://dc.lft.to/lastmile_qr_scan"}, "fusion_lon": 0.0, "lat": 38.8901155, "bike_id": "c598f751ef18e24c17e9393d0be7e4d8", "type": "electric_scooter", "is_reserved": 0, "lon": -76.93739033333334}, {"fusion_lat": 0.0, "name": "8d77bf43e1acec137df0f97a95590895", "is_disabled": 0, "rental_uris": {"android": "https://dc.lft.to/lastmile_qr_scan", "ios": "https://dc.lft.to/lastmile_qr_scan"}, "fusion_lon": 0.0, "lat": 38.8956785, "bike_id": "8d77bf43e1acec137df0f97a95590895", "type": "electric_scooter", "is_reserved": 0, "lon": -77.031467}, {"fusion_lat": 0.0, "name": "c9d3083b2ded7eb18c8c02ee0d60a6f1", "is_disabled": 0, "rental_uris": {"android": "https://dc.lft.to/lastmile_qr_scan", "ios": "https://dc.lft.to/lastmile_qr_scan"}, "fusion_lon": 0.0, "lat": 38.9084125, "bike_id": "c9d3083b2ded7eb18c8c02ee0d60a6f1", "type": "electric_scooter", "is_reserved": 0, "lon": -77.00105766666667}, {"fusion_lat": 0.0, "name": "a39db836731bfb4f5d7aa45bb05870b1", "is_disabled": 0, "rental_uris": {"android": "https://dc.lft.to/lastmile_qr_scan", "ios": "https://dc.lft.to/lastmile_qr_scan"}, "fusion_lon": 0.0, "lat": 38.9072275, "bike_id": "a39db836731bfb4f5d7aa45bb05870b1", "type": "electric_scooter", "is_reserved": 0, "lon": -77.04772066666666}, {"fusion_lat": 0.0, "name": "31e7bc85c346dd4c7db4251b300ad090", "is_disabled": 0, "rental_uris": {"android": "https://dc.lft.to/lastmile_qr_scan", "ios": "https://dc.lft.to/lastmile_qr_scan"}, "fusion_lon": 0.0, "lat": 38.89621116666667, "bike_id": "31e7bc85c346dd4c7db4251b300ad090", "type": "electric_scooter", "is_reserved": 0, "lon": -77.0228195}, {"fusion_lat": 0.0, "name": "d6e57dbe8aeaa6ddc54b156c7aaeb1e0", "is_disabled": 0, "rental_uris": {"android": "https://dc.lft.to/lastmile_qr_scan", "ios": "https://dc.lft.to/lastmile_qr_scan"}, "fusion_lon": 0.0, "lat": 38.94332033333333, "bike_id": "d6e57dbe8aeaa6ddc54b156c7aaeb1e0", "type": "electric_scooter", "is_reserved": 0, "lon": -77.01553933333334}, {"fusion_lat": 0.0, "name": "9a878d714ae3e884aa7878fea17a040c", "is_disabled": 0, "rental_uris": {"android": "https://dc.lft.to/lastmile_qr_scan", "ios": "https://dc.lft.to/lastmile_qr_scan"}, "fusion_lon": 0.0, "lat": 38.91111516666667, "bike_id": "9a878d714ae3e884aa7878fea17a040c", "type": "electric_scooter", "is_reserved": 0, "lon": -77.01005333333333}, {"fusion_lat": 0.0, "name": "08a01b8ff8f3a112f9eda3db2d2f9bbc", "is_disabled": 0, "rental_uris": {"android": "https://dc.lft.to/lastmile_qr_scan", "ios": "https://dc.lft.to/lastmile_qr_scan"}, "fusion_lon": 0.0, "lat": 38.8960985, "bike_id": "08a01b8ff8f3a112f9eda3db2d2f9bbc", "type": "electric_scooter", "is_reserved": 0, "lon": -76.98109166666667}, {"fusion_lat": 0.0, "name": "91547a7ebee861af6bc59ea05854d021", "is_disabled": 0, "rental_uris": {"android": "https://dc.lft.to/lastmile_qr_scan", "ios": "https://dc.lft.to/lastmile_qr_scan"}, "fusion_lon": 0.0, "lat": 38.90380233333333, "bike_id": "91547a7ebee861af6bc59ea05854d021", "type": "electric_scooter", "is_reserved": 0, "lon": -77.0671925}, {"fusion_lat": 0.0, "name": "227edc72c29c02b79efc3fbc1ef4ec1a", "is_disabled": 0, "rental_uris": {"android": "https://dc.lft.to/lastmile_qr_scan", "ios": "https://dc.lft.to/lastmile_qr_scan"}, "fusion_lon": 0.0, "lat": 38.92869533333333, "bike_id": "227edc72c29c02b79efc3fbc1ef4ec1a", "type": "electric_scooter", "is_reserved": 0, "lon": -77.07345266666667}, {"fusion_lat": 0.0, "name": "4cf7ea2b8c700bfe355719d07f6183cf", "is_disabled": 0, "rental_uris": {"android": "https://dc.lft.to/lastmile_qr_scan", "ios": "https://dc.lft.to/lastmile_qr_scan"}, "fusion_lon": 0.0, "lat": 38.91023666666667, "bike_id": "4cf7ea2b8c700bfe355719d07f6183cf", "type": "electric_scooter", "is_reserved": 0, "lon": -77.053045}, {"fusion_lat": 0.0, "name": "172a1955bb580cb66439bb5928a46094", "is_disabled": 0, "rental_uris": {"android": "https://dc.lft.to/lastmile_qr_scan", "ios": "https://dc.lft.to/lastmile_qr_scan"}, "fusion_lon": 0.0, "lat": 38.883780333333334, "bike_id": "172a1955bb580cb66439bb5928a46094", "type": "electric_scooter", "is_reserved": 0, "lon": -77.01368716666667}, {"fusion_lat": 0.0, "name": "5025a62d263ae475bb4c3d073ea25275", "is_disabled": 0, "rental_uris": {"android": "https://dc.lft.to/lastmile_qr_scan", "ios": "https://dc.lft.to/lastmile_qr_scan"}, "fusion_lon": 0.0, "lat": 38.936737666666666, "bike_id": "5025a62d263ae475bb4c3d073ea25275", "type": "electric_scooter", "is_reserved": 0, "lon": -77.03633833333333},