{"data": {"bikes": [{"rental_uris": {"ios": "https://dc.lft.to/lastmile_qr_scan", "android": "https://dc.lft.to/lastmile_qr_scan"}, "lon": -77.00343016666666, "type": "electric_scooter", "fusion_lat": 0.0, "lat": 38.913402166666664, "name": "3b2be6a6455a070503a6c77cf7190449", "fusion_lon": 0.0, "bike_id": "3b2be6a6455a070503a6c77cf7190449", "is_disabled": 0, "is_reserved": 0}, {"rental_uris": {"ios": "https://dc.lft.to/lastmile_qr_scan", "android": "https://dc.lft.to/lastmile_qr_scan"}, "lon": -77.07901633333333, "type": "electric_bike", "fusion_lat": 0.0, "lat": 38.8393185, "name": "07e8c84ed51fd65854fa57c7ac4edcd3", "fusion_lon": 0.0, "bike_id": "07e8c84ed51fd65854fa57c7ac4edcd3", "is_disabled": 0, "is_reserved": 0}, {"rental_uris": {"ios": "https://dc.lft.to/lastmile_qr_scan", "android": "https://dc.lft.to/lastmile_qr_scan"}, "lon": -76.93622183333333, "type": "electric_bike", "fusion_lat": 0.0, "lat": 38.970728666666666, "name": "2be6d3169e8e5545a16e9a3e4ebdb9c9", "fusion_lon": 0.0, "bike_id": "2be6d3169e8e5545a16e9a3e4ebdb9c9", "is_disabled": 0, "is_reserved": 0}, {"rental_uris": {"ios": "https://dc.lft.to/lastmile_qr_scan", "android": "https://dc.lft.to/lastmile_qr_scan"}, "lon": -77.02351916666667, "type": "electric_scooter", "fusion_lat": 0.0, "lat": 38.933815333333335, "name": "f6255250f8a065cf45e7cf14de2afc31", "fusion_lon": 0.0, "bike_id": "f6255250f8a065cf45e7cf14de2afc31", "is_disabled": 0, "is_reserved": 0}, {"rental_uris": {"ios": "https://dc.lft.to/lastmile_qr_scan", "android": "https://dc.lft.to/lastmile_qr_scan"}, "lon": -77.00665566666666, "type": "electric_scooter", "fusion_lat": 0.0, "lat": 38.8762165, "name": "9330427b1d4979963b4fcf50d54ab43f", "fusion_lon": 0.0, "bike_id": "9330427b1d4979963b4fcf50d54ab43f", "is_disabled": 0, "is_reserved": 0}, {"rental_uris": {"ios": "https://dc.lft.to/lastmile_qr_scan", "android": "https://dc.lft.to/lastmile_qr_scan"}, "lon": -77.0021625, "type": "electric_scooter", "fusion_lat": 0.0, "lat": 38.91186733333333, "name": "45280fa5488d7cafdbb9a38a784dcd4e", "fusion_lon": 0.0, "bike_id": "45280fa5488d7cafdbb9a38a784dcd4e", "is_disabled": 0, "is_reserved": 0}, {"rental_uris": {"ios": "https://dc.lft.to/lastmile_qr_scan", "android": "https://dc.lft.to/lastmile_qr_scan"}, "lon": -77.02455266666666, "type": "electric_scooter", "fusion_lat": 0.0, "lat": 38.938467, "name": "7dbec7d43f18b27cea1af4000601b722", "fusion_lon": 0.0, "bike_id": "7dbec7d43f18b27cea1af4000601b722", "is_disabled": 0, "is_reserved": 0}, {"rental_uris": {"ios": "https://dc.lft.to/lastmile_qr_scan", "android": "https://dc.lft.to/lastmile_qr_scan"}, "lon": -76.9808965, "type": "electric_bike", "fusion_lat": 0.0, "lat": 38.902876, "name": "9381cc842af474a646ea1ff50f5cc1b6", "fusion_lon": 0.0, "bike_id": "9381cc842af474a646ea1ff50f5cc1b6", "is_disabled": 0, "is_reserved": 0}, {"rental_uris": {"ios": "https://dc.lft.to/lastmile_qr_scan", "android": "https://dc.lft.to/lastmile_qr_scan"}, "lon": -76.9987235, "type": "electric_scooter", "fusion_lat": 0.0, "lat": 38.900209, "name": "6016464064b582621a26ecbc74775f1b", "fusion_lon": 0.0, "bike_id": "6016464064b582621a26ecbc74775f1b", "is_disabled": 0, "is_reserved": 0}, {"rental_uris": {"ios": "https://dc.lft.to/lastmile_qr_scan", "android": "https://dc.lft.to/lastmile_qr_scan"}, "lon": -77.01870816666667, "type": "electric_scooter", "fusion_lat": 0.0, "lat": 38.9489515, "name": "fb27c54acdda79e4914f5503faf45602", "fusion_lon": 0.0, "bike_id": "fb27c54acdda79e4914f5503faf45602", "is_disabled": 0, "is_reserved": 0}, {"rental_uris": {"ios": "https://dc.lft.to/lastmile_qr_scan", "android": "https://dc.lft.to/lastmile_qr_scan"}, "lon": -76.965294, "type": "electric_scooter", "fusion_lat": 0.0, "lat": 38.8762875, "name": "6daf3426138593ccb855cf16267ef542", "fusion_lon": 0.0, "bike_id": "6daf3426138593ccb855cf16267ef542", "is_disabled": 0, "is_reserved": 0}, {"rental_uris": {"ios": "https://dc.lft.to/lastmile_qr_scan", "android": "https://dc.lft.to/lastmile_qr_scan"}, "lon": -76.99735916666667, "type": "electric_scooter", "fusion_lat": 0.0, "lat": 38.90948933333333, "name": "102308a2d348430d6da38cedac74b109", "fusion_lon": 0.0, "bike_id": "102308a2d348430d6da38cedac74b109", "is_disabled": 0, "is_reserved": 0}, {"rental_uris": {"ios": "https://dc.lft.to/lastmile_qr_scan", "android": "https://dc.lft.to/lastmile_qr_scan"}, "lon": -77.06616166666667, "type": "electric_scooter", "fusion_lat": 0.0, "lat": 38.90541483333333, "name": "b068b30d2a2119a35313d812be076a33", "fusion_lon": 0.0, "bike_id": "b068b30d2a2119a35313d812be076a33", "is_disabled": 0, "is_reserved": 0}, {"rental_uris": {"ios": "https://dc.lft.to/lastmile_qr_scan", "android": "https://dc.lft.to/lastmile_qr_scan"}, "lon": -77.08819533333333, "type": "electric_bike", "fusion_lat": 0.0, "lat": 38.911671, "name": "6eb1e35728d1422664e4c9674c2c6f54", "fusion_lon": 0.0, "bike_id": "6eb1e35728d1422664e4c9674c2c6f54", "is_disabled": 0, "is_reserved": 0}, {"rental_uris": {"ios": "https://dc.lft.to/lastmile_qr_scan", "android": "https://dc.lft.to/lastmile_qr_scan"}, "lon": -77.0478725, "type": "electric_scooter", "fusion_lat": 0.0, "lat": 38.8976575, "name": "0587042a804b1d07b4dc35c22b97f28f", "fusion_lon": 0.0, "bike_id": "0587042a804b1d07b4dc35c22b97f28f", "is_disabled": 0, "is_reserved": 0}, {"rental_uris": {"ios": "https://dc.lft.to/lastmile_qr_scan", "android": "https://dc.lft.to/lastmile_qr_scan"}, "lon": -77.044903, "type": "electric_scooter", "fusion_lat": 0.0, "lat": 38.91881733333334, "name": "0a0b63fc801af40a05b2c601a6d584d8", "fusion_lon": 0.0, "bike_id": "0a0b63fc801af40a05b2c601a6d584d8", "is_disabled": 0, "is_reserved": 0}, {"rental_uris": {"ios": "https://dc.lft.to/lastmile_qr_scan", "android": "https://dc.lft.to/lastmile_qr_scan"}, "lon": -77.05932, "type": "electric_scooter", "fusion_lat": 0.0, "lat": 38.909167333333336, "name": "90d424232915618fbf2a35aee44b9992", "fusion_lon": 0.0, "bike_id": "90d424232915618fbf2a35aee44b9992", "is_disabled": 0, "is_reserved": 0}, {"rental_uris": {"ios": "https://dc.lft.to/lastmile_qr_scan", "android": "https://dc.lft.to/lastmile_qr_scan"}, "lon": -77.044516, "type": "electric_scooter", "fusion_lat": 0.0, "lat": 38.918836, "name": "fc0fb9c2b6874aa82e9cfb7a21a3b4ca", "fusion_lon": 0.0, "bike_id": "fc0fb9c2b6874aa82e9cfb7a21a3b4ca", "is_disabled": 0, "is_reserved": 0}, {"rental_uris": {"ios": "https://dc.lft.to/lastmile_qr_scan", "android": "https://dc.lft.to/lastmile_qr_scan"}, "lon": -77.03412266666666, "type": "electric_scooter", "fusion_lat": 0.0, "lat": 38.92320466666666, "name": "6c05216b3e4d1be49bfd127b11727f08", "fusion_lon": 0.0, "bike_id": "6c05216b3e4d1be49bfd127b11727f08", "is_disabled": 0, "is_reserved": 0}, {"rental_uris": {"ios": "https://dc.lft.to/lastmile_qr_scan", "android": "https://dc.lft.to/lastmile_qr_scan"}, "lon": -77.027325, "type": "electric_scooter", "fusion_lat": 0.0, "lat": 38.899292833333334, "name": "bef636d820dbf24718908923b6e2cafe", "fusion_lon": 0.0, "bike_id": "bef636d820dbf24718908923b6e2cafe", "is_disabled": 0, "is_reserved": 0}, {"rental_uris": {"ios": "https://dc.lft.to/lastmile_qr_scan", "android": "https://dc.lft.to/lastmile_qr_scan"}, "lon": -77.00226283333333, "type": "electric_bike", "fusion_lat": 0.0, "lat": 38.8237385, "name": "6bff5215ba488d201bda0ed446f0b5f1", "fusion_lon": 0.0, "bike_id": "6bff5215ba488d201bda0ed446f0b5f1", "is_disabled": 0, "is_reserved": 0}, {"rental_uris": {"ios": "https://dc.lft.to/lastmile_qr_scan", "android": "https://dc.lft.to/lastmile_qr_scan"}, "lon": -77.08063533333333, "type": "electric_scooter", "fusion_lat": 0.0, "lat": 38.959110333333335, "name": "eaa0061572eafca18eb2ece4d2e33b47", "fusion_lon": 0.0, "bike_id": "eaa0061572eafca18eb2ece4d2e33b47", "is_disabled": 0, "is_reserved": 0}, {"rental_uris": {"ios": "https://dc.lft.to/lastmile_qr_scan", "android": "https://dc.lft.to/lastmile_qr_scan"}, "lon": -76.9767025, "type": "electric_bike", "fusion_lat": 0.0, "lat": 38.966264333333335, "name": "412f97e6d8c605faa4ab15a10b64bc5b", "fusion_lon": 0.0, "bike_id": "412f97e6d8c605faa4ab15a10b64bc5b", "is_disabled": 0, "is_reserved": 0}, {"rental_uris": {"ios": "https://dc.lft.to/lastmile_qr_scan", "android": "https://dc.lft.to/lastmile_qr_scan"}, "lon": -77.01999216666667, "type": "electric_scooter", "fusion_lat": 0.0, "lat": 38.9055015, "name": "318b13964e1ff51180bb448521b68647", "fusion_lon": 0.0, "bike_id": "318b13964e1ff51180bb448521b68647", "is_disabled": 0, "is_reserved": 0}, {"rental_uris": {"ios": "https://dc.lft.to/lastmile_qr_scan", "android": "https://dc.lft.to/lastmile_qr_scan"}, "lon": -77.02985483333333, "type": "electric_scooter", "fusion_lat": 0.0, "lat": 38.900573333333334, "name": "8246d8b3b7535e18ecebd51e98812c28", "fusion_lon": 0.0, "bike_id": "8246d8b3b7535e18ecebd51e98812c28", "is_disabled": 0, "is_reserved": 0}, {"rental_uris": {"ios": "https://dc.lft.to/lastmile_qr_scan", "android": "https://dc.lft.to/lastmile_qr_scan"}, "lon": -77.01790866666667, "type": "electric_scooter", "fusion_lat": 0.0, "lat": 38.908240166666666, "name": "98562d76219035e8594a4292e92350d8", "fusion_lon": 0.0, "bike_id": "98562d76219035e8594a4292e92350d8", "is_disabled": 0, "is_reserved": 0}, {"rental_uris": {"ios": "https://dc.lft.to/lastmile_qr_scan", "android": "https://dc.lft.to/lastmile_qr_scan"}, "lon": -77.011136, "type": "electric_scooter", "fusion_lat": 0.0, "lat": 38.89533483333334, "name": "aab62b034009c7df26d6f1c96366953e", "fusion_lon": 0.0, "bike_id": "aab62b034009c7df26d6f1c96366953e", "is_disabled": 0, "is_reserved": 0}, {"rental_uris": {"ios": "https://dc.lft.to/lastmile_qr_scan", "android": "https://dc.lft.to/lastmile_qr_scan"}, "lon": -77.03209733333334, "type": "electric_scooter", "fusion_lat": 0.0, "lat": 38.93753916666667, "name": "b2996299a3bc211e6b171bb4c1d6ea85", "fusion_lon": 0.0, "bike_id": "b2996299a3bc211e6b171bb4c1d6ea85", "is_disabled": 0, "is_reserved": 0}, {"rental_uris": {"ios": "https://dc.lft.to/lastmile_qr_scan", "android": "https://dc.lft.to/lastmile_qr_scan"}, "lon": -76.94653866666667, "type": "electric_scooter", "fusion_lat": 0.0, "lat": 38.898254666666666, "name": "4166d55c6052110ce106c7f9b23fe2a6", "fusion_lon": 0.0, "bike_id": "4166d55c6052110ce106c7f9b23fe2a6", "is_disabled": 0, "is_reserved": 0}, {"rental_uris": {"ios": "https://dc.lft.to/lastmile_qr_scan", "android": "https://dc.lft.to/lastmile_qr_scan"}, "lon": -77.03349666666666, "type": "electric_scooter", "fusion_lat": 0.0, "lat": 38.90633583333333, "name": "034f25ec159251350aa48556c148a001", "fusion_lon": 0.0, "bike_id": "034f25ec159251350aa48556c148a001", "is_disabled": 0, "is_reserved": 0}, {"rental_uris": {"ios": "https://dc.lft.to/lastmile_qr_scan", "android": "https://dc.lft.to/lastmile_qr_scan"}, "lon": -76.98508716666667, "type": "electric_scooter", "fusion_lat": 0.0, "lat": 38.90084516666667, "name": "f00116dd983b1cb4d29147d4ed442229", "fusion_lon": 0.0, "bike_id": "f00116dd983b1cb4d29147d4ed442229", "is_disabled": 0, "is_reserved": 0}, {"rental_uris": {"ios": "https://dc.lft.to/lastmile_qr_scan", "android": "https://dc.lft.to/lastmile_qr_scan"}, "lon": -77.00760916666667, "type": "electric_scooter", "fusion_lat": 0.0, "lat": 38.91029, "name": "ce29f93cc180676f3c1a7f3bca951017", "fusion_lon": 0.0, "bike_id": "ce29f93cc180676f3c1a7f3bca951017", "is_disabled": 0, "is_reserved": 0}, {"rental_uris": {"ios": "https://dc.lft.to/lastmile_qr_scan", "android": "https://dc.lft.to/lastmile_qr_scan"}, "lon": -77.054106, "type": "electric_scooter", "fusion_lat": 0.0, "lat": 38.903998, "name": "ab7f9546298f2c00194058f303c76569", "fusion_lon": 0.0, "bike_id": "ab7f9546298f2c00194058f303c76569", "is_disabled": 0, "is_reserved": 0}, {"rental_uris": {"ios": "https://dc.lft.to/lastmile_qr_scan", "android": "https://dc.lft.to/lastmile_qr_scan"}, "lon": -77.042017, "type": "electric_scooter", "fusion_lat": 0.0, "lat": 38.9110665, "name": "df42484393cc24c85d99e45feac06540", "fusion_lon": 0.0, "bike_id": "df42484393cc24c85d99e45feac06540", "is_disabled": 0, "is_reserved": 0}, {"rental_uris": {"ios": "https://dc.lft.to/lastmile_qr_scan", "android": "https://dc.lft.to/lastmile_qr_scan"}, "lon": -76.99069883333334, "type": "electric_scooter", "fusion_lat": 0.0, "lat": 38.90423233333333, "name": "63c5ba3b04c5077e9156759c83a4efb9", "fusion_lon": 0.0, "bike_id": "63c5ba3b04c5077e9156759c83a4efb9", "is_disabled": 0, "is_reserved": 0}, {"rental_uris": {"ios": "https://dc.lft.to/lastmile_qr_scan", "android": "https://dc.lft.to/lastmile_qr_scan"}, "lon": -77.0258895, "type": "electric_scooter", "fusion_lat": 0.0, "lat": 38.915527, "name": "1f6417f2f24525589f6ddc0baf8645bd", "fusion_lon": 0.0, "bike_id": "1f6417f2f24525589f6ddc0baf8645bd", "is_disabled": 0, "is_reserved": 0}, {"rental_uris": {"ios": "https://dc.lft.to/lastmile_qr_scan", "android": "https://dc.lft.to/lastmile_qr_scan"}, "lon": -77.039688, "type": "electric_scooter", "fusion_lat": 0.0, "lat": 38.901376666666664, "name": "bc2d46acce05f085b45830ef60131e9a", "fusion_lon": 0.0, "bike_id": "bc2d46acce05f085b45830ef60131e9a", "is_disabled": 0, "is_reserved": 0}, {"rental_uris": {"ios": "https://dc.lft.to/lastmile_qr_scan", "android": "https://dc.lft.to/lastmile_qr_scan"}, "lon": -77.09163516666666, "type": "electric_bike", "fusion_lat": 0.0, "lat": 38.96760966666667, "name": "612f0f21cec6124a0f206d5abd3b0c9c", "fusion_lon": 0.0, "bike_id": "612f0f21cec6124a0f206d5abd3b0c9c", "is_disabled": 0, "is_reserved": 0}, {"rental_uris": {"ios": "https://dc.lft.to/lastmile_qr_scan", "android": "https://dc.lft.to/lastmile_qr_scan"}, "lon": -77.043693, "type": "electric_scooter", "fusion_lat": 0.0, "lat": 38.920693, "name": "8261cfc8b65806c695dc11dfa7e14675", "fusion_lon": 0.0, "bike_id": "8261cfc8b65806c695dc11dfa7e14675", "is_disabled": 0, "is_reserved": 0}, {"rental_uris": {"ios": "https://dc.lft.to/lastmile_qr_scan", "android": "https://dc.lft.to/lastmile_qr_scan"}, "lon": -77.01984016666667, "type": "electric_bike", "fusion_lat": 0.0, "lat": 38.956637666666666, "name": "85eeb6e643782904e750a385ffad9970", "fusion_lon": 0.0, "bike_id": "85eeb6e643782904e750a385ffad9970", "is_disabled": 0, "is_reserved": 0}, {"rental_uris": {"ios": "https://dc.lft.to/lastmile_qr_scan", "android": "https://dc.lft.to/lastmile_qr_scan"}, "lon": -77.02294466666666, "type": "electric_scooter", "fusion_lat": 0.0, "lat": 38.883734833333335, "name": "794593d5d30ea6b189312b102b4d7f9f", "fusion_lon": 0.0, "bike_id": "794593d5d30ea6b189312b102b4d7f9f", "is_disabled": 0, "is_reserved": 0}, {"rental_uris": {"ios": "https://dc.lft.to/lastmile_qr_scan", "android": "https://dc.lft.to/lastmile_qr_scan"}, "lon": -77.13090566666666, "type": "electric_bike", "fusion_lat": 0.0, "lat": 38.861671333333334, "name": "b44ab67f70e22b073f38d9db7b6eefd1", "fusion_lon": 0.0, "bike_id": "b44ab67f70e22b073f38d9db7b6eefd1", "is_disabled": 0, "is_reserved": 0}, {"rental_uris": {"ios": "https://dc.lft.to/lastmile_qr_scan", "android": "https://dc.lft.to/lastmile_qr_scan"}, "lon": -77.02511566666666, "type": "electric_bike", "fusion_lat": 0.0, "lat": 38.9341155, "name": "06dd22a5194fc27cbc5533b3e657408d", "fusion_lon": 0.0, "bike_id": "06dd22a5194fc27cbc5533b3e657408d", "is_disabled": 0, "is_reserved": 0}, {"rental_uris": {"ios": "https://dc.lft.to/lastmile_qr_scan", "android": "https://dc.lft.to/lastmile_qr_scan"}, "lon": -77.0031475, "type": "electric_scooter", "fusion_lat": 0.0, "lat": 38.90899983333333, "name": "bd27a1ccf18e103149fe774832fcf524", "fusion_lon": 0.0, "bike_id": "bd27a1ccf18e103149fe774832fcf524", "is_disabled": 0, "is_reserved": 0}, {"rental_uris": {"ios": "https://dc.lft.to/lastmile_qr_scan", "android": "https://dc.lft.to/lastmile_qr_scan"}, "lon": -77.03160366666667, "type": "electric_scooter", "fusion_lat": 0.0, "lat": 38.9211485, "name": "1039c90371109f151189ab35cf696f29", "fusion_lon": 0.0, "bike_id": "1039c90371109f151189ab35cf696f29", "is_disabled": 0, "is_reserved": 0}, {"rental_uris": {"ios": "https://dc.lft.to/lastmile_qr_scan", "android": "https://dc.lft.to/lastmile_qr_scan"}, "lon": -77.03762916666666, "type": "electric_scooter", "fusion_lat": 0.0, "lat": 38.928726, "name": "148838a9125e292ba200a214e5c85868", "fusion_lon": 0.0, "bike_id": "148838a9125e292ba200a214e5c85868", "is_disabled": 0, "is_reserved": 0}, {"rental_uris": {"ios": "https://dc.lft.to/lastmile_qr_scan", "android": "https://dc.lft.to/lastmile_qr_scan"}, "lon": -77.02159766666666, "type": "electric_scooter", "fusion_lat": 0.0, "lat": 38.896329, "name": "6da97ed267306361efeda8844069b68e", "fusion_lon": 0.0, "bike_id": "6da97ed267306361efeda8844069b68e", "is_disabled": 0, "is_reserved": 0}, {"rental_uris": {"ios": "https://dc.lft.to/lastmile_qr_scan", "android": "https://dc.lft.to/lastmile_qr_scan"}, "lon": -77.02360416666667, "type": "electric_scooter", "fusion_lat": 0.0, "lat": 38.94520083333333, "name": "4d2b06519a65a13d436ae71aa923e96c", "fusion_lon": 0.0, "bike_id": "4d2b06519a65a13d436ae71aa923e96c", "is_disabled": 0, "is_reserved": 0}, {"rental_uris": {"ios": "https://dc.lft.to/lastmile_qr_scan", "android": "https://dc.lft.to/lastmile_qr_scan"}, "lon": -76.94891783333334, "type": "electric_scooter", "fusion_lat": 0.0, "lat": 38.895335333333335, "name": "e9b79d2f1f512689325f0ccd2bb49abd", "fusion_lon": 0.0, "bike_id": "e9b79d2f1f512689325f0ccd2bb49abd", "is_disabled": 0, "is_reserved": 0}, {"rental_uris": {"ios": "https://dc.lft.to/lastmile_qr_scan", "android": "https://dc.lft.to/lastmile_qr_scan"}, "lon": -77.03853883333333, "type": "electric_scooter", "fusion_lat": 0.0, "lat": 38.92032966666667, "name": "80e4b7f73892a309d0a9a73395a14dc2", "fusion_lon": 0.0, "bike_id": "80e4b7f73892a309d0a9a73395a14dc2", "is_disabled": 0, "is_reserved": 0}, {"rental_uris": {"ios": "https://dc.lft.to/lastmile_qr_scan", "android": "https://dc.lft.to/lastmile_qr_scan"}, "lon": -76.99515283333334, "type": "electric_scooter", "fusion_lat": 0.0, "lat": 38.862625, "name": "9aed4cee5678ad8b417338f2dfbccf76", "fusion_lon": 0.0, "bike_id": "9aed4cee5678ad8b417338f2dfbccf76", "is_disabled": 0, "is_reserved": 0}, {"rental_uris": {"ios": "https://dc.lft.to/lastmile_qr_scan", "android": "https://dc.lft.to/lastmile_qr_scan"}, "lon": -77.0588695, "type": "electric_scooter", "fusion_lat": 0.0, "lat": 38.9363385, "name": "c2f108b41d1e7290899588c18c31dd25", "fusion_lon": 0.0, "bike_id": "c2f108b41d1e7290899588c18c31dd25", "is_disabled": 0, "is_reserved": 0}, {"rental_uris": {"ios": "https://dc.lft.to/lastmile_qr_scan", "android": "https://dc.lft.to/lastmile_qr_scan"}, "lon": -77.05258933333333, "type": "electric_scooter", "fusion_lat": 0.0, "lat": 38.91019, "name": "7e2efa9357e800f7f95850e1f3c96652", "fusion_lon": 0.0, "bike_id": "7e2efa9357e800f7f95850e1f3c96652", "is_disabled": 0, "is_reserved": 0}, {"rental_uris": {"ios": "https://dc.lft.to/lastmile_qr_scan", "android": "https://dc.lft.to/lastmile_qr_scan"}, "lon": -77.03805183333333, "type": "electric_scooter", "fusion_lat": 0.0, "lat": 38.921912, "name": "213375075769a5cfffb93d0b948bc3d6", "fusion_lon": 0.0, "bike_id": "213375075769a5cfffb93d0b948bc3d6", "is_disabled": 0, "is_reserved": 0}, {"rental_uris": {"ios": "https://dc.lft.to/lastmile_qr_scan", "android": "https://dc.lft.to/lastmile_qr_scan"}, "lon": -77.03971866666667, "type": "electric_scooter", "fusion_lat": 0.0, "lat": 38.902581833333336, "name": "b757712f6915d55512ffd116dd34cdca", "fusion_lon": 0.0, "bike_id": "b757712f6915d55512ffd116dd34cdca", "is_disabled": 0, "is_reserved": 0}, {"rental_uris": {"ios": "https://dc.lft.to/lastmile_qr_scan", "android": "https://dc.lft.to/lastmile_qr_scan"}, "lon": -77.03672766666666, "type": "electric_scooter", "fusion_lat": 0.0, "lat": 38.9299325, "name": "262bf811c6ca8cb811c6ed01d651a785", "fusion_lon": 0.0, "bike_id": "262bf811c6ca8cb811c6ed01d651a785", "is_disabled": 0, "is_reserved": 0}, {"rental_uris": {"ios": "https://dc.lft.to/lastmile_qr_scan", "android": "https://dc.lft.to/lastmile_qr_scan"}, "lon": -77.02459033333334, "type": "electric_scooter", "fusion_lat": 0.0, "lat": 38.97933333333334, "name": "983d82fe82ab0d7cd89e830612bf4b2c", "fusion_lon": 0.0, "bike_id": "983d82fe82ab0d7cd89e830612bf4b2c", "is_disabled": 0, "is_reserved": 0}, {"rental_uris": {"ios": "https://dc.lft.to/lastmile_qr_scan", "android": "https://dc.lft.to/lastmile_qr_scan"}, "lon": -77.03089416666667, "type": "electric_scooter", "fusion_lat": 0.0, "lat": 38.9043855, "name": "7d44739b033e3a67a03f952924386f14", "fusion_lon": 0.0, "bike_id": "7d44739b033e3a67a03f952924386f14", "is_disabled": 0, "is_reserved": 0}, {"rental_uris": {"ios": "https://dc.lft.to/lastmile_qr_scan", "android": "https://dc.lft.to/lastmile_qr_scan"}, "lon": -77.02422483333334, "type": "electric_scooter", "fusion_lat": 0.0, "lat": 38.918228666666664, "name": "74c21ad8b088fbf12bba6d66757c4cba", "fusion_lon": 0.0, "bike_id": "74c21ad8b088fbf12bba6d66757c4cba", "is_disabled": 0, "is_reserved": 0}, {"rental_uris": {"ios": "https://dc.lft.to/lastmile_qr_scan", "android": "https://dc.lft.to/lastmile_qr_scan"}, "lon": -77.04128183333333, "type": "electric_scooter", "fusion_lat": 0.0, "lat": 38.923489833333335, "name": "ba865b847382bfa918d5268a8069a7d0", "fusion_lon": 0.0, "bike_id": "ba865b847382bfa918d5268a8069a7d0", "is_disabled": 0, "is_reserved": 0}, {"rental_uris": {"ios": "https://dc.lft.to/lastmile_qr_scan", "android": "https://dc.lft.to/lastmile_qr_scan"}, "lon": -77.04797833333333, "type": "electric_scooter", "fusion_lat": 0.0, "lat": 38.907328166666666, "name": "5ce85389bda5b2976c17fc70721c263d", "fusion_lon": 0.0, "bike_id": "5ce85389bda5b2976c17fc70721c263d", "is_disabled": 0, "is_reserved": 0}, {"rental_uris": {"ios": "https://dc.lft.to/lastmile_qr_scan", "android": "https://dc.lft.to/lastmile_qr_scan"}, "lon": -77.023353, "type": "electric_scooter", "fusion_lat": 0.0, "lat": 38.930520666666666, "name": "0541d2fb4999e617036f6d7493d4a752", "fusion_lon": 0.0, "bike_id": "0541d2fb4999e617036f6d7493d4a752", "is_disabled": 0, "is_reserved": 0}, {"rental_uris": {"ios": "https://dc.lft.to/lastmile_qr_scan", "android": "https://dc.lft.to/lastmile_qr_scan"}, "lon": -77.02577633333334, "type": "electric_scooter", "fusion_lat": 0.0, "lat": 38.918171666666666, "name": "0644a42efe427659009de7a6411cf8c5", "fusion_lon": 0.0, "bike_id": "0644a42efe427659009de7a6411cf8c5", "is_disabled": 0, "is_reserved": 0}, {"rental_uris": {"ios": "https://dc.lft.to/lastmile_qr_scan", "android": "https://dc.lft.to/lastmile_qr_scan"}, "lon": -76.97328416666667, "type": "electric_bike", "fusion_lat": 0.0, "lat": 38.850617666666665, "name": "81a9e810e70d8f346618d6f6214cbccc", "fusion_lon": 0.0, "bike_id": "81a9e810e70d8f346618d6f6214cbccc", "is_disabled": 0, "is_reserved": 0}, {"rental_uris": {"ios": "https://dc.lft.to/lastmile_qr_scan", "android": "https://dc.lft.to/lastmile_qr_scan"}, "lon": -77.05034916666666, "type": "electric_scooter", "fusion_lat": 0.0, "lat": 38.896594, "name": "62b02aafa1b6d9298cd88aca6a7139d0", "fusion_lon": 0.0, "bike_id": "62b02aafa1b6d9298cd88aca6a7139d0", "is_disabled": 0, "is_reserved": 0}, {"rental_uris": {"ios": "https://dc.lft.to/lastmile_qr_scan", "android": "https://dc.lft.to/lastmile_qr_scan"}, "lon": -77.04578916666667, "type": "electric_scooter", "fusion_lat": 0.0, "lat": 38.90249816666667, "name": "a1437a5df110a0f7c5b22347a0739b3b", "fusion_lon": 0.0, "bike_id": "a1437a5df110a0f7c5b22347a0739b3b", "is_disabled": 0, "is_reserved": 0}, {"rental_uris": {"ios": "https://dc.lft.to/lastmile_qr_scan", "android": "https://dc.lft.to/lastmile_qr_scan"}, "lon": -76.98187916666667, "type": "electric_scooter", "fusion_lat": 0.0, "lat": 38.895846, "name": "4adba769da02276ca20a0294630ad238", "fusion_lon": 0.0, "bike_id": "4adba769da02276ca20a0294630ad238", "is_disabled": 0, "is_reserved": 0}, {"rental_uris": {"ios": "https://dc.lft.to/lastmile_qr_scan", "android": "https://dc.lft.to/lastmile_qr_scan"}, "lon": -77.01309066666667, "type": "electric_scooter", "fusion_lat": 0.0, "lat": 38.921254, "name": "364c30a67c65bd9cba71305cdf4b572d", "fusion_lon": 0.0, "bike_id": "364c30a67c65bd9cba71305cdf4b572d", "is_disabled": 0, "is_reserved": 0}, {"rental_uris": {"ios": "https://dc.lft.to/lastmile_qr_scan", "android": "https://dc.lft.to/lastmile_qr_scan"}, "lon": -77.02361933333333, "type": "electric_scooter", "fusion_lat": 0.0, "lat": 38.925021666666666, "name": "a24a070b20e6d12d9046e6e1d31f0c89", "fusion_lon": 0.0, "bike_id": "a24a070b20e6d12d9046e6e1d31f0c89", "is_disabled": 0, "is_reserved": 0}, {"rental_uris": {"ios": "https://dc.lft.to/lastmile_qr_scan", "android": "https://dc.lft.to/lastmile_qr_scan"}, "lon": -76.94891233333334, "type": "electric_scooter", "fusion_lat": 0.0, "lat": 38.895291, "name": "36f5c40798fd2df5864a33a90a928e43", "fusion_lon": 0.0, "bike_id": "36f5c40798fd2df5864a33a90a928e43", "is_disabled": 0, "is_reserved": 0}, {"rental_uris": {"ios": "https://dc.lft.to/lastmile_qr_scan", "android": "https://dc.lft.to/lastmile_qr_scan"}, "lon": -76.90970883333334, "type": "electric_bike", "fusion_lat": 0.0, "lat": 38.8542455, "name": "3bbb50b787901ae7ab87c1f209837b61", "fusion_lon": 0.0, "bike_id": "3bbb50b787901ae7ab87c1f209837b61", "is_disabled": 0, "is_reserved": 0}, {"rental_uris": {"ios": "https://dc.lft.to/lastmile_qr_scan", "android": "https://dc.lft.to/lastmile_qr_scan"}, "lon": -77.03688633333333, "type": "electric_scooter", "fusion_lat": 0.0, "lat": 38.93923016666667, "name": "d49e1c717024b7746fbbe6be9588c090", "fusion_lon": 0.0, "bike_id": "d49e1c717024b7746fbbe6be9588c090", "is_disabled": 0, "is_reserved": 0}, {"rental_uris": {"ios": "https://dc.lft.to/lastmile_qr_scan", "android": "https://dc.lft.to/lastmile_qr_scan"}, "lon": -77.03300483333334, "type": "electric_scooter", "fusion_lat": 0.0, "lat": 38.91804833333333, "name": "9212261ea6aa87515d908d9baeba78e2", "fusion_lon": 0.0, "bike_id": "9212261ea6aa87515d908d9baeba78e2", "is_disabled": 0, "is_reserved": 0}, {"rental_uris": {"ios": "https://dc.lft.to/lastmile_qr_scan", "android": "https://dc.lft.to/lastmile_qr_scan"}, "lon": -77.0273125, "type": "electric_scooter", "fusion_lat": 0.0, "lat": 38.9170295, "name": "917d4f107badce3a00ad3fb123089500", "fusion_lon": 0.0, "bike_id": "917d4f107badce3a00ad3fb123089500", "is_disabled": 0, "is_reserved": 0}, {"rental_uris": {"ios": "https://dc.lft.to/lastmile_qr_scan", "android": "https://dc.lft.to/lastmile_qr_scan"}, "lon": -77.0350535, "type": "electric_scooter", "fusion_lat": 0.0, "lat": 38.91878466666667, "name": "957d419276ec33aa5cd9a27cae878f47", "fusion_lon": 0.0, "bike_id": "957d419276ec33aa5cd9a27cae878f47", "is_disabled": 0, "is_reserved": 0}, {"rental_uris": {"ios": "https://dc.lft.to/lastmile_qr_scan", "android": "https://dc.lft.to/lastmile_qr_scan"}, "lon": -77.0241325, "type": "electric_scooter", "fusion_lat": 0.0, "lat": 38.934917, "name": "516da259a47c2d3a6fad04c810b50768", "fusion_lon": 0.0, "bike_id": "516da259a47c2d3a6fad04c810b50768", "is_disabled": 0, "is_reserved": 0}, {"rental_uris": {"ios": "https://dc.lft.to/lastmile_qr_scan", "android": "https://dc.lft.to/lastmile_qr_scan"}, "lon": -77.005658, "type": "electric_scooter", "fusion_lat": 0.0, "lat": 38.905616333333334, "name": "edfdb4e430de15d3d86ad3bbc40ea2aa", "fusion_lon": 0.0, "bike_id": "edfdb4e430de15d3d86ad3bbc40ea2aa", "is_disabled": 0, "is_reserved": 0}, {"rental_uris": {"ios": "https://dc.lft.to/lastmile_qr_scan", "android": "https://dc.lft.to/lastmile_qr_scan"}, "lon": -77.044064, "type": "electric_scooter", "fusion_lat": 0.0, "lat": 38.9201595, "name": "8588e9ba84de096a52d93481725f6b0f", "fusion_lon": 0.0, "bike_id": "8588e9ba84de096a52d93481725f6b0f", "is_disabled": 0, "is_reserved": 0}, {"rental_uris": {"ios": "https://dc.lft.to/lastmile_qr_scan", "android": "https://dc.lft.to/lastmile_qr_scan"}, "lon": -77.03497083333333, "type": "electric_scooter", "fusion_lat": 0.0, "lat": 38.916983, "name": "081081af1c86c211f33f97bcc1d233e1", "fusion_lon": 0.0, "bike_id": "081081af1c86c211f33f97bcc1d233e1", "is_disabled": 0, "is_reserved": 0}, {"rental_uris": {"ios": "https://dc.lft.to/lastmile_qr_scan", "android": "https://dc.lft.to/lastmile_qr_scan"}, "lon": -77.04173883333333, "type": "electric_scooter", "fusion_lat": 0.0, "lat": 38.91394866666667, "name": "282f03e8b43e3963f95ba91747835b06", "fusion_lon": 0.0, "bike_id": "282f03e8b43e3963f95ba91747835b06", "is_disabled": 0, "is_reserved": 0}, {"rental_uris": {"ios": "https://dc.lft.to/lastmile_qr_scan", "android": "https://dc.lft.to/lastmile_qr_scan"}, "lon": -77.033362, "type": "electric_bike", "fusion_lat": 0.0, "lat": 38.961310166666664, "name": "0504c2375d096298f6d899de59848b41", "fusion_lon": 0.0, "bike_id": "0504c2375d096298f6d899de59848b41", "is_disabled": 0, "is_reserved": 0}, {"rental_uris": {"ios": "https://dc.lft.to/lastmile_qr_scan", "android": "https://dc.lft.to/lastmile_qr_scan"}, "lon": -77.0323705, "type": "electric_scooter", "fusion_lat": 0.0, "lat": 38.927632333333335, "name": "f34b0c301b0924c918dba7ee66780b13", "fusion_lon": 0.0, "bike_id": "f34b0c301b0924c918dba7ee66780b13", "is_disabled": 0, "is_reserved": 0}, {"rental_uris": {"ios": "https://dc.lft.to/lastmile_qr_scan", "android": "https://dc.lft.to/lastmile_qr_scan"}, "lon": -76.97885516666666, "type": "electric_scooter", "fusion_lat": 0.0, "lat": 38.90424016666667, "name": "43da1c6229f4b2fa0eb3178015bb07a3", "fusion_lon": 0.0, "bike_id": "43da1c6229f4b2fa0eb3178015bb07a3", "is_disabled": 0, "is_reserved": 0}, {"rental_uris": {"ios": "https://dc.lft.to/lastmile_qr_scan", "android": "https://dc.lft.to/lastmile_qr_scan"}, "lon": -77.0635055, "type": "electric_scooter", "fusion_lat": 0.0, "lat": 38.9445365, "name": "2a999d2779567383e1e9ad0c0ee8ae87", "fusion_lon": 0.0, "bike_id": "2a999d2779567383e1e9ad0c0ee8ae87", "is_disabled": 0, "is_reserved": 0}, {"rental_uris": {"ios": "https://dc.lft.to/lastmile_qr_scan", "android": "https://dc.lft.to/lastmile_qr_scan"}, "lon": -76.985664, "type": "electric_scooter", "fusion_lat": 0.0, "lat": 38.892055166666665, "name": "1cb12926c20b62703216dc1f2f420321", "fusion_lon": 0.0, "bike_id": "1cb12926c20b62703216dc1f2f420321", "is_disabled": 0, "is_reserved": 0}, {"rental_uris": {"ios": "https://dc.lft.to/lastmile_qr_scan", "android": "https://dc.lft.to/lastmile_qr_scan"}, "lon": -77.03911, "type": "electric_scooter", "fusion_lat": 0.0, "lat": 38.892017833333334, "name": "32782de4fda2e98e75a81d59e8d261f9", "fusion_lon": 0.0, "bike_id": "32782de4fda2e98e75a81d59e8d261f9", "is_disabled": 0, "is_reserved": 0}, {"rental_uris": {"ios": "https://dc.lft.to/lastmile_qr_scan", "android": "https://dc.lft.to/lastmile_qr_scan"}, "lon": -77.03469133333333, "type": "electric_scooter", "fusion_lat": 0.0, "lat": 38.90787266666667, "name": "15ff883603f3a3a3ab5c209e490c5f09", "fusion_lon": 0.0, "bike_id": "15ff883603f3a3a3ab5c209e490c5f09", "is_disabled": 0, "is_reserved": 0}, {"rental_uris": {"ios": "https://dc.lft.to/lastmile_qr_scan", "android": "https://dc.lft.to/lastmile_qr_scan"}, "lon": -76.99790366666667, "type": "electric_scooter", "fusion_lat": 0.0, "lat": 38.921835333333334, "name": "4db07bc1653536d4f4b1857b246c0566", "fusion_lon": 0.0, "bike_id": "4db07bc1653536d4f4b1857b246c0566", "is_disabled": 0, "is_reserved": 0}, {"rental_uris": {"ios": "https://dc.lft.to/lastmile_qr_scan", "android": "https://dc.lft.to/lastmile_qr_scan"}, "lon": -77.01389666666667, "type": "electric_scooter", "fusion_lat": 0.0, "lat": 38.97015283333333, "name": "d44507652b50a22bb532fb6cfcc301b1", "fusion_lon": 0.0, "bike_id": "d44507652b50a22bb532fb6cfcc301b1", "is_disabled": 0, "is_reserved": 0}, {"rental_uris": {"ios": "https://dc.lft.to/lastmile_qr_scan", "android": "https://dc.lft.to/lastmile_qr_scan"}, "lon": -77.03151933333334, "type": "electric_scooter", "fusion_lat": 0.0, "lat": 38.91568916666667, "name": "535506881ebb4c2d2444a31c5c306853", "fusion_lon": 0.0, "bike_id": "535506881ebb4c2d2444a31c5c306853", "is_disabled": 0, "is_reserved": 0}, {"rental_uris": {"ios": "https://dc.lft.to/lastmile_qr_scan", "android": "https://dc.lft.to/lastmile_qr_scan"}, "lon": -77.027017, "type": "electric_scooter", "fusion_lat": 0.0, "lat": 38.918121, "name": "3db9c84e43c93e099d6eb5163961834f", "fusion_lon": 0.0, "bike_id": "3db9c84e43c93e099d6eb5163961834f", "is_disabled": 0, "is_reserved": 0}, {"rental_uris": {"ios": "https://dc.lft.to/lastmile_qr_scan", "android": "https://dc.lft.to/lastmile_qr_scan"}, "lon": -77.0152715, "type": "electric_scooter", "fusion_lat": 0.0, "lat": 38.9019845, "name": "39365969b2c3b3503dbe5b1d86f751c9", "fusion_lon": 0.0, "bike_id": "39365969b2c3b3503dbe5b1d86f751c9", "is_disabled": 0, "is_reserved": 0}, {"rental_uris": {"ios": "https://dc.lft.to/lastmile_qr_scan", "android": "https://dc.lft.to/lastmile_qr_scan"}, "lon": -76.98746483333333, "type": "electric_bike", "fusion_lat": 0.0, "lat": 38.85790883333333, "name": "8781b9f98ed8c368fe7836cae37e81fe", "fusion_lon": 0.0, "bike_id": "8781b9f98ed8c368fe7836cae37e81fe", "is_disabled": 0, "is_reserved": 0}, {"rental_uris": {"ios": "https://dc.lft.to/lastmile_qr_scan", "android": "https://dc.lft.to/lastmile_qr_scan"}, "lon": -77.10093016666667, "type": "electric_bike", "fusion_lat": 0.0, "lat": 38.959523833333336, "name": "5df0d862c93afbd8764e46238b3352c2", "fusion_lon": 0.0, "bike_id": "5df0d862c93afbd8764e46238b3352c2", "is_disabled": 0, "is_reserved": 0}, {"rental_uris": {"ios": "https://dc.lft.to/lastmile_qr_scan", "android": "https://dc.lft.to/lastmile_qr_scan"}, "lon": -77.02959933333334, "type": "electric_scooter", "fusion_lat": 0.0, "lat": 38.905030333333336, "name": "b0942706575421b2c696b4c9d2635a84", "fusion_lon": 0.0, "bike_id": "b0942706575421b2c696b4c9d2635a84", "is_disabled": 0, "is_reserved": 0}, {"rental_uris": {"ios": "https://dc.lft.to/lastmile_qr_scan", "android": "https://dc.lft.to/lastmile_qr_scan"}, "lon": -76.9959785, "type": "electric_scooter", "fusion_lat": 0.0, "lat": 38.845408666666664, "name": "e1bc5120deaeb0df0a48df5c6f31eef1", "fusion_lon": 0.0, "bike_id": "e1bc5120deaeb0df0a48df5c6f31eef1", "is_disabled": 0, "is_reserved": 0}, {"rental_uris": {"ios": "https://dc.lft.to/lastmile_qr_scan", "android": "https://dc.lft.to/lastmile_qr_scan"}, "lon": -76.98496933333334, "type": "electric_scooter", "fusion_lat": 0.0, "lat": 38.860441, "name": "ccab35b0c7c002afd5299ba0b6f018e1", "fusion_lon": 0.0, "bike_id": "ccab35b0c7c002afd5299ba0b6f018e1", "is_disabled": 0, "is_reserved": 0}, {"rental_uris": {"ios": "https://dc.lft.to/lastmile_qr_scan", "android": "https://dc.lft.to/lastmile_qr_scan"}, "lon": -77.03655616666667, "type": "electric_scooter", "fusion_lat": 0.0, "lat": 38.9181, "name": "db01c66cb8e9568dd3e50da8f7557da5", "fusion_lon": 0.0, "bike_id": "db01c66cb8e9568dd3e50da8f7557da5", "is_disabled": 0, "is_reserved": 0}, {"rental_uris": {"ios": "https://dc.lft.to/lastmile_qr_scan", "android": "https://dc.lft.to/lastmile_qr_scan"}, "lon": -77.04708466666666, "type": "electric_scooter", "fusion_lat": 0.0, "lat": 38.921671, "name": "bf7584149d5a0cbb8a45f5c32bc22e6b", "fusion_lon": 0.0, "bike_id": "bf7584149d5a0cbb8a45f5c32bc22e6b", "is_disabled": 0, "is_reserved": 0}, {"rental_uris": {"ios": "https://dc.lft.to/lastmile_qr_scan", "android": "https://dc.lft.to/lastmile_qr_scan"}, "lon": -77.03642716666667, "type": "electric_scooter", "fusion_lat": 0.0, "lat": 38.902789166666665, "name": "82085ea4c98cb8fa0ed3239e1ba1a5ec", "fusion_lon": 0.0, "bike_id": "82085ea4c98cb8fa0ed3239e1ba1a5ec", "is_disabled": 0, "is_reserved": 0}, {"rental_uris": {"ios": "https://dc.lft.to/lastmile_qr_scan", "android": "https://dc.lft.to/lastmile_qr_scan"}, "lon": -77.04232816666666, "type": "electric_scooter", "fusion_lat": 0.0, "lat": 38.90612316666667, "name": "546a8671e3565df3c5e5baf78b5c3098", "fusion_lon": 0.0, "bike_id": "546a8671e3565df3c5e5baf78b5c3098", "is_disabled": 0, "is_reserved": 0}, {"rental_uris": {"ios": "https://dc.lft.to/lastmile_qr_scan", "android": "https://dc.lft.to/lastmile_qr_scan"}, "lon": -76.98719766666666, "type": "electric_scooter", "fusion_lat": 0.0, "lat": 38.862648, "name": "230336db6d5e7ee36e491cb60e1edc9b", "fusion_lon": 0.0, "bike_id": "230336db6d5e7ee36e491cb60e1edc9b", "is_disabled": 0, "is_reserved": 0}, {"rental_uris": {"ios": "https://dc.lft.to/lastmile_qr_scan", "android": "https://dc.lft.to/lastmile_qr_scan"}, "lon": -77.07879283333334, "type": "electric_scooter", "fusion_lat": 0.0, "lat": 38.925433166666664, "name": "89aeed5633177887aeb2b1beaf54e622", "fusion_lon": 0.0, "bike_id": "89aeed5633177887aeb2b1beaf54e622", "is_disabled": 0, "is_reserved": 0}, {"rental_uris": {"ios": "https://dc.lft.to/lastmile_qr_scan", "android": "https://dc.lft.to/lastmile_qr_scan"}, "lon": -77.041969, "type": "electric_scooter", "fusion_lat": 0.0, "lat": 38.900481666666664, "name": "24e6ad1b2671db5d000e9eb6f12876b6", "fusion_lon": 0.0, "bike_id": "24e6ad1b2671db5d000e9eb6f12876b6", "is_disabled": 0, "is_reserved": 0}, {"rental_uris": {"ios": "https://dc.lft.to/lastmile_qr_scan", "android": "https://dc.lft.to/lastmile_qr_scan"}, "lon": -77.03422983333333, "type": "electric_scooter", "fusion_lat": 0.0, "lat": 38.90242816666667, "name": "fc5506954a631a217038e6ce1c83fc87", "fusion_lon": 0.0, "bike_id": "fc5506954a631a217038e6ce1c83fc87", "is_disabled": 0, "is_reserved": 0}, {"rental_uris": {"ios": "https://dc.lft.to/lastmile_qr_scan", "android": "https://dc.lft.to/lastmile_qr_scan"}, "lon": -77.01255833333333, "type": "electric_scooter", "fusion_lat": 0.0, "lat": 38.899641333333335, "name": "d26eb390952f7a77248af0ef40ebbd21", "fusion_lon": 0.0, "bike_id": "d26eb390952f7a77248af0ef40ebbd21", "is_disabled": 0, "is_reserved": 0}, {"rental_uris": {"ios": "https://dc.lft.to/lastmile_qr_scan", "android": "https://dc.lft.to/lastmile_qr_scan"}, "lon": -77.13596516666667, "type": "electric_bike", "fusion_lat": 0.0, "lat": 39.053462, "name": "9b1b8823dbe902c5d32efd644ea4da51", "fusion_lon": 0.0, "bike_id": "9b1b8823dbe902c5d32efd644ea4da51", "is_disabled": 0, "is_reserved": 0}, {"rental_uris": {"ios": "https://dc.lft.to/lastmile_qr_scan", "android": "https://dc.lft.to/lastmile_qr_scan"}, "lon": -76.98623933333333, "type": "electric_scooter", "fusion_lat": 0.0, "lat": 38.868227, "name": "961bf21bbd81617155bca406c2fd7b7e", "fusion_lon": 0.0, "bike_id": "961bf21bbd81617155bca406c2fd7b7e", "is_disabled": 0, "is_reserved": 0}, {"rental_uris": {"ios": "https://dc.lft.to/lastmile_qr_scan", "android": "https://dc.lft.to/lastmile_qr_scan"}, "lon": -77.04034616666667, "type": "electric_scooter", "fusion_lat": 0.0, "lat": 38.91705366666667, "name": "88ee848f4eeef611dfc8b18a4c327fa9", "fusion_lon": 0.0, "bike_id": "88ee848f4eeef611dfc8b18a4c327fa9", "is_disabled": 0, "is_reserved": 0}, {"rental_uris": {"ios": "https://dc.lft.to/lastmile_qr_scan", "android": "https://dc.lft.to/lastmile_qr_scan"}, "lon": -77.03344916666667, "type": "electric_scooter", "fusion_lat": 0.0, "lat": 38.91914383333334, "name": "6c5dbfa07ec23775ff2a8f01af0f410c", "fusion_lon": 0.0, "bike_id": "6c5dbfa07ec23775ff2a8f01af0f410c", "is_disabled": 0, "is_reserved": 0}, {"rental_uris": {"ios": "https://dc.lft.to/lastmile_qr_scan", "android": "https://dc.lft.to/lastmile_qr_scan"}, "lon": -76.93797283333333, "type": "electric_scooter", "fusion_lat": 0.0, "lat": 38.912857833333334, "name": "3d8658780f0b222c54af7105b8a8f2ce", "fusion_lon": 0.0, "bike_id": "3d8658780f0b222c54af7105b8a8f2ce", "is_disabled": 0, "is_reserved": 0}, {"rental_uris": {"ios": "https://dc.lft.to/lastmile_qr_scan", "android": "https://dc.lft.to/lastmile_qr_scan"}, "lon": -77.00854783333334, "type": "electric_scooter", "fusion_lat": 0.0, "lat": 38.925937833333336, "name": "f3862c4aefae56291efc258a96334c24", "fusion_lon": 0.0, "bike_id": "f3862c4aefae56291efc258a96334c24", "is_disabled": 0, "is_reserved": 0}, {"rental_uris": {"ios": "https://dc.lft.to/lastmile_qr_scan", "android": "https://dc.lft.to/lastmile_qr_scan"}, "lon": -77.04956466666667, "type": "electric_scooter", "fusion_lat": 0.0, "lat": 38.8965185, "name": "a8e31e1738b71286672b69c5009e0757", "fusion_lon": 0.0, "bike_id": "a8e31e1738b71286672b69c5009e0757", "is_disabled": 0, "is_reserved": 0}, {"rental_uris": {"ios": "https://dc.lft.to/lastmile_qr_scan", "android": "https://dc.lft.to/lastmile_qr_scan"}, "lon": -77.04250583333334, "type": "electric_scooter", "fusion_lat": 0.0, "lat": 38.90801483333333, "name": "adebd48730df755c779bd67a5f9de35a", "fusion_lon": 0.0, "bike_id": "adebd48730df755c779bd67a5f9de35a", "is_disabled": 0, "is_reserved": 0}, {"rental_uris": {"ios": "https://dc.lft.to/lastmile_qr_scan", "android": "https://dc.lft.to/lastmile_qr_scan"}, "lon": -77.03259466666667, "type": "electric_scooter", "fusion_lat": 0.0, "lat": 38.93731566666666, "name": "4dcfdeea8fd40fcdef75bb7464bb3e35", "fusion_lon": 0.0, "bike_id": "4dcfdeea8fd40fcdef75bb7464bb3e35", "is_disabled": 0, "is_reserved": 0}, {"rental_uris": {"ios": "https://dc.lft.to/lastmile_qr_scan", "android": "https://dc.lft.to/lastmile_qr_scan"}, "lon": -76.99546766666667, "type": "electric_scooter", "fusion_lat": 0.0, "lat": 38.926613833333334, "name": "1ad8e257c3f93ebe4440edd33cf9e827", "fusion_lon": 0.0, "bike_id": "1ad8e257c3f93ebe4440edd33cf9e827", "is_disabled": 0, "is_reserved": 0}, {"rental_uris": {"ios": "https://dc.lft.to/lastmile_qr_scan", "android": "https://dc.lft.to/lastmile_qr_scan"}, "lon": -77.0836465, "type": "electric_scooter", "fusion_lat": 0.0, "lat": 38.93036083333333, "name": "6a534ecd8cd6f5d405178918900aad9e", "fusion_lon": 0.0, "bike_id": "6a534ecd8cd6f5d405178918900aad9e", "is_disabled": 0, "is_reserved": 0}, {"rental_uris": {"ios": "https://dc.lft.to/lastmile_qr_scan", "android": "https://dc.lft.to/lastmile_qr_scan"}, "lon": -76.987691, "type": "electric_scooter", "fusion_lat": 0.0, "lat": 38.911684666666666, "name": "359195ee26ded0c0a51a79609eac5e28", "fusion_lon": 0.0, "bike_id": "359195ee26ded0c0a51a79609eac5e28", "is_disabled": 0, "is_reserved": 0}, {"rental_uris": {"ios": "https://dc.lft.to/lastmile_qr_scan", "android": "https://dc.lft.to/lastmile_qr_scan"}, "lon": -77.048271, "type": "electric_scooter", "fusion_lat": 0.0, "lat": 38.8961635, "name": "24ddae4dc4ca687780a2a4aa8802366b", "fusion_lon": 0.0, "bike_id": "24ddae4dc4ca687780a2a4aa8802366b", "is_disabled": 0, "is_reserved": 0}, {"rental_uris": {"ios": "https://dc.lft.to/lastmile_qr_scan", "android": "https://dc.lft.to/lastmile_qr_scan"}, "lon": -77.02894533333334, "type": "electric_scooter", "fusion_lat": 0.0, "lat": 38.903582166666666, "name": "6d01e7fd88d2fad5160399f451ef3cb5", "fusion_lon": 0.0, "bike_id": "6d01e7fd88d2fad5160399f451ef3cb5", "is_disabled": 0, "is_reserved": 0}, {"rental_uris": {"ios": "https://dc.lft.to/lastmile_qr_scan", "android": "https://dc.lft.to/lastmile_qr_scan"}, "lon": -77.017581, "type": "electric_scooter", "fusion_lat": 0.0, "lat": 38.938931, "name": "e43204d922744b6734def52d1bcd6792", "fusion_lon": 0.0, "bike_id": "e43204d922744b6734def52d1bcd6792", "is_disabled": 0, "is_reserved": 0}, {"rental_uris": {"ios": "https://dc.lft.to/lastmile_qr_scan", "android": "https://dc.lft.to/lastmile_qr_scan"}, "lon": -77.03078016666667, "type": "electric_scooter", "fusion_lat": 0.0, "lat": 38.9347055, "name": "ec4df7130e9142e99daf82f3fb8a8602", "fusion_lon": 0.0, "bike_id": "ec4df7130e9142e99daf82f3fb8a8602", "is_disabled": 0, "is_reserved": 0}, {"rental_uris": {"ios": "https://dc.lft.to/lastmile_qr_scan", "android": "https://dc.lft.to/lastmile_qr_scan"}, "lon": -76.97890916666667, "type": "electric_scooter", "fusion_lat": 0.0, "lat": 38.91675866666667, "name": "9a48d71c87564f75937715b853d0b0a0", "fusion_lon": 0.0, "bike_id": "9a48d71c87564f75937715b853d0b0a0", "is_disabled": 0, "is_reserved": 0}, {"rental_uris": {"ios": "https://dc.lft.to/lastmile_qr_scan", "android": "https://dc.lft.to/lastmile_qr_scan"}, "lon": -77.12747533333334, "type": "electric_bike", "fusion_lat": 0.0, "lat": 38.88813866666667, "name": "3a37383fe97ce1475a77db9c9efb324d", "fusion_lon": 0.0, "bike_id": "3a37383fe97ce1475a77db9c9efb324d", "is_disabled": 0, "is_reserved": 0}, {"rental_uris": {"ios": "https://dc.lft.to/lastmile_qr_scan", "android": "https://dc.lft.to/lastmile_qr_scan"}, "lon": -77.0347055, "type": "electric_scooter", "fusion_lat": 0.0, "lat": 38.902809, "name": "779c09822d7f7c86df40932a7063cb6a", "fusion_lon": 0.0, "bike_id": "779c09822d7f7c86df40932a7063cb6a", "is_disabled": 0, "is_reserved": 0}, {"rental_uris": {"ios": "https://dc.lft.to/lastmile_qr_scan", "android": "https://dc.lft.to/lastmile_qr_scan"}, "lon": -77.03350783333333, "type": "electric_scooter", "fusion_lat": 0.0, "lat": 38.9170235, "name": "60b4754bafc839a99ee67347258b601a", "fusion_lon": 0.0, "bike_id": "60b4754bafc839a99ee67347258b601a", "is_disabled": 0, "is_reserved": 0}, {"rental_uris": {"ios": "https://dc.lft.to/lastmile_qr_scan", "android": "https://dc.lft.to/lastmile_qr_scan"}, "lon": -77.01715983333334, "type": "electric_scooter", "fusion_lat": 0.0, "lat": 38.90380233333333, "name": "ded7b27da8215e63b6fa79751f2a0234", "fusion_lon": 0.0, "bike_id": "ded7b27da8215e63b6fa79751f2a0234", "is_disabled": 0, "is_reserved": 0}, {"rental_uris": {"ios": "https://dc.lft.to/lastmile_qr_scan", "android": "https://dc.lft.to/lastmile_qr_scan"}, "lon": -77.0129535, "type": "electric_bike", "fusion_lat": 0.0, "lat": 38.881244333333335, "name": "225f03fe7fdb333c77a2bbc5e0cc3720", "fusion_lon": 0.0, "bike_id": "225f03fe7fdb333c77a2bbc5e0cc3720", "is_disabled": 0, "is_reserved": 0}, {"rental_uris": {"ios": "https://dc.lft.to/lastmile_qr_scan", "android": "https://dc.lft.to/lastmile_qr_scan"}, "lon": -77.024436, "type": "electric_scooter", "fusion_lat": 0.0, "lat": 38.9204015, "name": "8f44ba742c490bdc2159216166a6d8e9", "fusion_lon": 0.0, "bike_id": "8f44ba742c490bdc2159216166a6d8e9", "is_disabled": 0, "is_reserved": 0}, {"rental_uris": {"ios": "https://dc.lft.to/lastmile_qr_scan", "android": "https://dc.lft.to/lastmile_qr_scan"}, "lon": -76.973231, "type": "electric_scooter", "fusion_lat": 0.0, "lat": 38.9177645, "name": "cdd9d2530914eb61d7eea7e358f1bd53", "fusion_lon": 0.0, "bike_id": "cdd9d2530914eb61d7eea7e358f1bd53", "is_disabled": 0, "is_reserved": 0}, {"rental_uris": {"ios": "https://dc.lft.to/lastmile_qr_scan", "android": "https://dc.lft.to/lastmile_qr_scan"}, "lon": -77.0057695, "type": "electric_scooter", "fusion_lat": 0.0, "lat": 38.84496633333333, "name": "f845d156ac1149e44ad718e21a0b9f46", "fusion_lon": 0.0, "bike_id": "f845d156ac1149e44ad718e21a0b9f46", "is_disabled": 0, "is_reserved": 0}, {"rental_uris": {"ios": "https://dc.lft.to/lastmile_qr_scan", "android": "https://dc.lft.to/lastmile_qr_scan"}, "lon": -77.01537133333333, "type": "electric_scooter", "fusion_lat": 0.0, "lat": 38.887309, "name": "0d786bc630f7f931e0fcf20e14316835", "fusion_lon": 0.0, "bike_id": "0d786bc630f7f931e0fcf20e14316835", "is_disabled": 0, "is_reserved": 0}, {"rental_uris": {"ios": "https://dc.lft.to/lastmile_qr_scan", "android": "https://dc.lft.to/lastmile_qr_scan"}, "lon": -77.03155833333334, "type": "electric_scooter", "fusion_lat": 0.0, "lat": 38.945325833333335, "name": "a3dd3dad96b5dbb7218117161c7c8d78", "fusion_lon": 0.0, "bike_id": "a3dd3dad96b5dbb7218117161c7c8d78", "is_disabled": 0, "is_reserved": 0}, {"rental_uris": {"ios": "https://dc.lft.to/lastmile_qr_scan", "android": "https://dc.lft.to/lastmile_qr_scan"}, "lon": -77.045174, "type": "electric_scooter", "fusion_lat": 0.0, "lat": 38.91288866666667, "name": "7e89018a07c2bd440f7c389f4e9832ac", "fusion_lon": 0.0, "bike_id": "7e89018a07c2bd440f7c389f4e9832ac", "is_disabled": 0, "is_reserved": 0}, {"rental_uris": {"ios": "https://dc.lft.to/lastmile_qr_scan", "android": "https://dc.lft.to/lastmile_qr_scan"}, "lon": -77.04314416666666, "type": "electric_scooter", "fusion_lat": 0.0, "lat": 38.918836666666664, "name": "b130734db07a197750754a15b0a7b544", "fusion_lon": 0.0, "bike_id": "b130734db07a197750754a15b0a7b544", "is_disabled": 0, "is_reserved": 0}, {"rental_uris": {"ios": "https://dc.lft.to/lastmile_qr_scan", "android": "https://dc.lft.to/lastmile_qr_scan"}, "lon": -77.02413383333334, "type": "electric_scooter", "fusion_lat": 0.0, "lat": 38.90239433333333, "name": "27fff976aafefd0df532c7ccbeec167e", "fusion_lon": 0.0, "bike_id": "27fff976aafefd0df532c7ccbeec167e", "is_disabled": 0, "is_reserved": 0}, {"rental_uris": {"ios": "https://dc.lft.to/lastmile_qr_scan", "android": "https://dc.lft.to/lastmile_qr_scan"}, "lon": -77.0101785, "type": "electric_scooter", "fusion_lat": 0.0, "lat": 38.906828, "name": "9c058f0b63182d4864885930f9ff63f4", "fusion_lon": 0.0, "bike_id": "9c058f0b63182d4864885930f9ff63f4", "is_disabled": 0, "is_reserved": 0}, {"rental_uris": {"ios": "https://dc.lft.to/lastmile_qr_scan", "android": "https://dc.lft.to/lastmile_qr_scan"}, "lon": -77.02450233333333, "type": "electric_scooter", "fusion_lat": 0.0, "lat": 38.908488, "name": "59b1e67b4395ceeb23fd0a39618f79f1", "fusion_lon": 0.0, "bike_id": "59b1e67b4395ceeb23fd0a39618f79f1", "is_disabled": 0, "is_reserved": 0}, {"rental_uris": {"ios": "https://dc.lft.to/lastmile_qr_scan", "android": "https://dc.lft.to/lastmile_qr_scan"}, "lon": -77.03703433333334, "type": "electric_scooter", "fusion_lat": 0.0, "lat": 38.92622866666667, "name": "367469f98db29272dc19bb9cbf29afa4", "fusion_lon": 0.0, "bike_id": "367469f98db29272dc19bb9cbf29afa4", "is_disabled": 0, "is_reserved": 0}, {"rental_uris": {"ios": "https://dc.lft.to/lastmile_qr_scan", "android": "https://dc.lft.to/lastmile_qr_scan"}, "lon": -76.93749283333334, "type": "electric_scooter", "fusion_lat": 0.0, "lat": 38.91288483333334, "name": "526412b464bd8d1a673c56b340f87ef7", "fusion_lon": 0.0, "bike_id": "526412b464bd8d1a673c56b340f87ef7", "is_disabled": 0, "is_reserved": 0}, {"rental_uris": {"ios": "https://dc.lft.to/lastmile_qr_scan", "android": "https://dc.lft.to/lastmile_qr_scan"}, "lon": -76.97703316666667, "type": "electric_scooter", "fusion_lat": 0.0, "lat": 38.90258016666667, "name": "c45ee789a993df17f0591f831d26b0c6", "fusion_lon": 0.0, "bike_id": "c45ee789a993df17f0591f831d26b0c6", "is_disabled": 0, "is_reserved": 0}, {"rental_uris": {"ios": "https://dc.lft.to/lastmile_qr_scan", "android": "https://dc.lft.to/lastmile_qr_scan"}, "lon": -77.03292283333333, "type": "electric_scooter", "fusion_lat": 0.0, "lat": 38.934835166666666, "name": "234f1caf2593caa6ac8f4d1616cb8429", "fusion_lon": 0.0, "bike_id": "234f1caf2593caa6ac8f4d1616cb8429", "is_disabled": 0, "is_reserved": 0}, {"rental_uris": {"ios": "https://dc.lft.to/lastmile_qr_scan", "android": "https://dc.lft.to/lastmile_qr_scan"}, "lon": -77.013955, "type": "electric_scooter", "fusion_lat": 0.0, "lat": 38.91941116666667, "name": "88347870b7e2c1a088f247da71b79a02", "fusion_lon": 0.0, "bike_id": "88347870b7e2c1a088f247da71b79a02", "is_disabled": 0, "is_reserved": 0}, {"rental_uris": {"ios": "https://dc.lft.to/lastmile_qr_scan", "android": "https://dc.lft.to/lastmile_qr_scan"}, "lon": -76.98592333333333, "type": "electric_bike", "fusion_lat": 0.0, "lat": 38.906176333333335, "name": "b8ef22d51342e3738f26a85dac64a90e", "fusion_lon": 0.0, "bike_id": "b8ef22d51342e3738f26a85dac64a90e", "is_disabled": 0, "is_reserved": 0}, {"rental_uris": {"ios": "https://dc.lft.to/lastmile_qr_scan", "android": "https://dc.lft.to/lastmile_qr_scan"}, "lon": -77.04257433333333, "type": "electric_scooter", "fusion_lat": 0.0, "lat": 38.92055216666667, "name": "ee988dd43c5f7dbfc75444ebbaff44b2", "fusion_lon": 0.0, "bike_id": "ee988dd43c5f7dbfc75444ebbaff44b2", "is_disabled": 0, "is_reserved": 0}, {"rental_uris": {"ios": "https://dc.lft.to/lastmile_qr_scan", "android": "https://dc.lft.to/lastmile_qr_scan"}, "lon": -77.03697766666667, "type": "electric_scooter", "fusion_lat": 0.0, "lat": 38.92621583333333, "name": "64249f8547d1c9bb4908d3dcc79be7d2", "fusion_lon": 0.0, "bike_id": "64249f8547d1c9bb4908d3dcc79be7d2", "is_disabled": 0, "is_reserved": 0}, {"rental_uris": {"ios": "https://dc.lft.to/lastmile_qr_scan", "android": "https://dc.lft.to/lastmile_qr_scan"}, "lon": -76.98559983333334, "type": "electric_scooter", "fusion_lat": 0.0, "lat": 38.89953166666667, "name": "f70293e7edb51597a142a61735bcc608", "fusion_lon": 0.0, "bike_id": "f70293e7edb51597a142a61735bcc608", "is_disabled": 0, "is_reserved": 0}, {"rental_uris": {"ios": "https://dc.lft.to/lastmile_qr_scan", "android": "https://dc.lft.to/lastmile_qr_scan"}, "lon": -77.09670833333334, "type": "electric_scooter", "fusion_lat": 0.0, "lat": 38.917692, "name": "a145f67fe687dfa961a6734d022f66b2", "fusion_lon": 0.0, "bike_id": "a145f67fe687dfa961a6734d022f66b2", "is_disabled": 0, "is_reserved": 0}, {"rental_uris": {"ios": "https://dc.lft.to/lastmile_qr_scan", "android": "https://dc.lft.to/lastmile_qr_scan"}, "lon": -77.03220283333333, "type": "electric_scooter", "fusion_lat": 0.0, "lat": 38.90869933333333, "name": "d99a9ccbf25223308c808358cb1457dc", "fusion_lon": 0.0, "bike_id": "d99a9ccbf25223308c808358cb1457dc", "is_disabled": 0, "is_reserved": 0}, {"rental_uris": {"ios": "https://dc.lft.to/lastmile_qr_scan", "android": "https://dc.lft.to/lastmile_qr_scan"}, "lon": -76.98884016666666, "type": "electric_scooter", "fusion_lat": 0.0, "lat": 38.86655616666667, "name": "7fa6ced9f973103c94e99902dad55b7f", "fusion_lon": 0.0, "bike_id": "7fa6ced9f973103c94e99902dad55b7f", "is_disabled": 0, "is_reserved": 0}, {"rental_uris": {"ios": "https://dc.lft.to/lastmile_qr_scan", "android": "https://dc.lft.to/lastmile_qr_scan"}, "lon": -77.04423883333334, "type": "electric_scooter", "fusion_lat": 0.0, "lat": 38.9189215, "name": "ca498834047c9512564e91e261326700", "fusion_lon": 0.0, "bike_id": "ca498834047c9512564e91e261326700", "is_disabled": 0, "is_reserved": 0}, {"rental_uris": {"ios": "https://dc.lft.to/lastmile_qr_scan", "android": "https://dc.lft.to/lastmile_qr_scan"}, "lon": -77.0073735, "type": "electric_scooter", "fusion_lat": 0.0, "lat": 38.8784765, "name": "19685cbd880726a11184946c1359c6c2", "fusion_lon": 0.0, "bike_id": "19685cbd880726a11184946c1359c6c2", "is_disabled": 0, "is_reserved": 0}, {"rental_uris": {"ios": "https://dc.lft.to/lastmile_qr_scan", "android": "https://dc.lft.to/lastmile_qr_scan"}, "lon": -77.0180075, "type": "electric_scooter", "fusion_lat": 0.0, "lat": 38.904068333333335, "name": "ad4437c8198088fe711b57ed1eba8ea2", "fusion_lon": 0.0, "bike_id": "ad4437c8198088fe711b57ed1eba8ea2", "is_disabled": 0, "is_reserved": 0}, {"rental_uris": {"ios": "https://dc.lft.to/lastmile_qr_scan", "android": "https://dc.lft.to/lastmile_qr_scan"}, "lon": -76.99258483333334, "type": "electric_scooter", "fusion_lat": 0.0, "lat": 38.919708166666666, "name": "9bd51cc27750e9f89e8456989a652010", "fusion_lon": 0.0, "bike_id": "9bd51cc27750e9f89e8456989a652010", "is_disabled": 0, "is_reserved": 0}, {"rental_uris": {"ios": "https://dc.lft.to/lastmile_qr_scan", "android": "https://dc.lft.to/lastmile_qr_scan"}, "lon": -77.1152405, "type": "electric_bike", "fusion_lat": 0.0, "lat": 38.854931666666666, "name": "8ada09d207f01092082ddff5badd97fb", "fusion_lon": 0.0, "bike_id": "8ada09d207f01092082ddff5badd97fb", "is_disabled": 0, "is_reserved": 0}, {"rental_uris": {"ios": "https://dc.lft.to/lastmile_qr_scan", "android": "https://dc.lft.to/lastmile_qr_scan"}, "lon": -77.02383916666666, "type": "electric_scooter", "fusion_lat": 0.0, "lat": 38.93761883333333, "name": "2cdf315b221bd96ea860bd4313252775", "fusion_lon": 0.0, "bike_id": "2cdf315b221bd96ea860bd4313252775", "is_disabled": 0, "is_reserved": 0}, {"rental_uris": {"ios": "https://dc.lft.to/lastmile_qr_scan", "android": "https://dc.lft.to/lastmile_qr_scan"}, "lon": -77.01209533333333, "type": "electric_scooter", "fusion_lat": 0.0, "lat": 38.92120883333333, "name": "8f3bd8ac5cc868ceb64c45c83194dbbf", "fusion_lon": 0.0, "bike_id": "8f3bd8ac5cc868ceb64c45c83194dbbf", "is_disabled": 0, "is_reserved": 0}, {"rental_uris": {"ios": "https://dc.lft.to/lastmile_qr_scan", "android": "https://dc.lft.to/lastmile_qr_scan"}, "lon": -77.03191566666666, "type": "electric_scooter", "fusion_lat": 0.0, "lat": 38.91481983333333, "name": "02ecc1c1611dc0002bca2292acd8db6a", "fusion_lon": 0.0, "bike_id": "02ecc1c1611dc0002bca2292acd8db6a", "is_disabled": 0, "is_reserved": 0}, {"rental_uris": {"ios": "https://dc.lft.to/lastmile_qr_scan", "android": "https://dc.lft.to/lastmile_qr_scan"}, "lon": -77.05744933333334, "type": "electric_scooter", "fusion_lat": 0.0, "lat": 38.93398416666667, "name": "3b290654aaf192225abc7c9e971fc9ec", "fusion_lon": 0.0, "bike_id": "3b290654aaf192225abc7c9e971fc9ec", "is_disabled": 0, "is_reserved": 0}, {"rental_uris": {"ios": "https://dc.lft.to/lastmile_qr_scan", "android": "https://dc.lft.to/lastmile_qr_scan"}, "lon": -77.0321715, "type": "electric_scooter", "fusion_lat": 0.0, "lat": 38.91999666666667, "name": "4827ac180a4e46b0993fdd253d7209a3", "fusion_lon": 0.0, "bike_id": "4827ac180a4e46b0993fdd253d7209a3", "is_disabled": 0, "is_reserved": 0}, {"rental_uris": {"ios": "https://dc.lft.to/lastmile_qr_scan", "android": "https://dc.lft.to/lastmile_qr_scan"}, "lon": -77.03188666666667, "type": "electric_scooter", "fusion_lat": 0.0, "lat": 38.8857005, "name": "e789c244bf9fd4e6a2223252ec7508e8", "fusion_lon": 0.0, "bike_id": "e789c244bf9fd4e6a2223252ec7508e8", "is_disabled": 0, "is_reserved": 0}, {"rental_uris": {"ios": "https://dc.lft.to/lastmile_qr_scan", "android": "https://dc.lft.to/lastmile_qr_scan"}, "lon": -76.9819955, "type": "electric_scooter", "fusion_lat": 0.0, "lat": 38.9039335, "name": "f0dc0d6577c86fe0180e5dd0ca8b008a", "fusion_lon": 0.0, "bike_id": "f0dc0d6577c86fe0180e5dd0ca8b008a", "is_disabled": 0, "is_reserved": 0}, {"rental_uris": {"ios": "https://dc.lft.to/lastmile_qr_scan", "android": "https://dc.lft.to/lastmile_qr_scan"}, "lon": -77.04805133333333, "type": "electric_scooter", "fusion_lat": 0.0, "lat": 38.916424666666664, "name": "4a0edc4517b9acdaf1801dd5046851d0", "fusion_lon": 0.0, "bike_id": "4a0edc4517b9acdaf1801dd5046851d0", "is_disabled": 0, "is_reserved": 0}, {"rental_uris": {"ios": "https://dc.lft.to/lastmile_qr_scan", "android": "https://dc.lft.to/lastmile_qr_scan"}, "lon": -77.00635583333333, "type": "electric_scooter", "fusion_lat": 0.0, "lat": 38.8292855, "name": "d68523dfa7275e52c2f08a344efb5054", "fusion_lon": 0.0, "bike_id": "d68523dfa7275e52c2f08a344efb5054", "is_disabled": 0, "is_reserved": 0}, {"rental_uris": {"ios": "https://dc.lft.to/lastmile_qr_scan", "android": "https://dc.lft.to/lastmile_qr_scan"}, "lon": -77.01928883333333, "type": "electric_scooter", "fusion_lat": 0.0, "lat": 38.95687366666667, "name": "989496705492b27fc661c2199eeb38c4", "fusion_lon": 0.0, "bike_id": "989496705492b27fc661c2199eeb38c4", "is_disabled": 0, "is_reserved": 0}, {"rental_uris": {"ios": "https://dc.lft.to/lastmile_qr_scan", "android": "https://dc.lft.to/lastmile_qr_scan"}, "lon": -77.0279515, "type": "electric_scooter", "fusion_lat": 0.0, "lat": 38.930863333333335, "name": "d641d6294cc6e38fe621bb91776a6c00", "fusion_lon": 0.0, "bike_id": "d641d6294cc6e38fe621bb91776a6c00", "is_disabled": 0, "is_reserved": 0}, {"rental_uris": {"ios": "https://dc.lft.to/lastmile_qr_scan", "android": "https://dc.lft.to/lastmile_qr_scan"}, "lon": -77.03064983333333, "type": "electric_scooter", "fusion_lat": 0.0, "lat": 38.894714666666665, "name": "79ca6902770fa0874633b1cb32165b2b", "fusion_lon": 0.0, "bike_id": "79ca6902770fa0874633b1cb32165b2b", "is_disabled": 0, "is_reserved": 0}, {"rental_uris": {"ios": "https://dc.lft.to/lastmile_qr_scan", "android": "https://dc.lft.to/lastmile_qr_scan"}, "lon": -76.98998866666666, "type": "electric_scooter", "fusion_lat": 0.0, "lat": 38.865085666666666, "name": "d4d74a71cb6ee31a6318015dbf219bad", "fusion_lon": 0.0, "bike_id": "d4d74a71cb6ee31a6318015dbf219bad", "is_disabled": 0, "is_reserved": 0}, {"rental_uris": {"ios": "https://dc.lft.to/lastmile_qr_scan", "android": "https://dc.lft.to/lastmile_qr_scan"}, "lon": -77.011123, "type": "electric_scooter", "fusion_lat": 0.0, "lat": 38.90785666666667, "name": "6429a6c2944e098c292120d90c3b94fc", "fusion_lon": 0.0, "bike_id": "6429a6c2944e098c292120d90c3b94fc", "is_disabled": 0, "is_reserved": 0}, {"rental_uris": {"ios": "https://dc.lft.to/lastmile_qr_scan", "android": "https://dc.lft.to/lastmile_qr_scan"}, "lon": -77.02372766666667, "type": "electric_scooter", "fusion_lat": 0.0, "lat": 38.9030185, "name": "3080426c2fbaa69859258d56b9ce427d", "fusion_lon": 0.0, "bike_id": "3080426c2fbaa69859258d56b9ce427d", "is_disabled": 0, "is_reserved": 0}, {"rental_uris": {"ios": "https://dc.lft.to/lastmile_qr_scan", "android": "https://dc.lft.to/lastmile_qr_scan"}, "lon": -77.029483, "type": "electric_scooter", "fusion_lat": 0.0, "lat": 38.905186, "name": "7459d67368b87e5426ba561ca36d734d", "fusion_lon": 0.0, "bike_id": "7459d67368b87e5426ba561ca36d734d", "is_disabled": 0, "is_reserved": 0}, {"rental_uris": {"ios": "https://dc.lft.to/lastmile_qr_scan", "android": "https://dc.lft.to/lastmile_qr_scan"}, "lon": -77.03226216666667, "type": "electric_scooter", "fusion_lat": 0.0, "lat": 38.926711833333336, "name": "fa95337de3e6cb508133636f733b1021", "fusion_lon": 0.0, "bike_id": "fa95337de3e6cb508133636f733b1021", "is_disabled": 0, "is_reserved": 0}, {"rental_uris": {"ios": "https://dc.lft.to/lastmile_qr_scan", "android": "https://dc.lft.to/lastmile_qr_scan"}, "lon": -76.97489916666666, "type": "electric_bike", "fusion_lat": 0.0, "lat": 38.92004166666667, "name": "41030a4e4f2c12c4e2624f182e24623d", "fusion_lon": 0.0, "bike_id": "41030a4e4f2c12c4e2624f182e24623d", "is_disabled": 0, "is_reserved": 0}, {"rental_uris": {"ios": "https://dc.lft.to/lastmile_qr_scan", "android": "https://dc.lft.to/lastmile_qr_scan"}, "lon": -77.04117733333334, "type": "electric_scooter", "fusion_lat": 0.0, "lat": 38.92453033333334, "name": "8c405d1fa41025c1ea68c6c6572190c9", "fusion_lon": 0.0, "bike_id": "8c405d1fa41025c1ea68c6c6572190c9", "is_disabled": 0, "is_reserved": 0}, {"rental_uris": {"ios": "https://dc.lft.to/lastmile_qr_scan", "android": "https://dc.lft.to/lastmile_qr_scan"}, "lon": -77.040079, "type": "electric_scooter", "fusion_lat": 0.0, "lat": 38.909920166666666, "name": "9e9fab7f1cb012a5c6799ecfad8b3b04", "fusion_lon": 0.0, "bike_id": "9e9fab7f1cb012a5c6799ecfad8b3b04", "is_disabled": 0, "is_reserved": 0}, {"rental_uris": {"ios": "https://dc.lft.to/lastmile_qr_scan", "android": "https://dc.lft.to/lastmile_qr_scan"}, "lon": -77.0025035, "type": "electric_scooter", "fusion_lat": 0.0, "lat": 38.911797, "name": "e34d8a15d9141c548fd096ce25236b68", "fusion_lon": 0.0, "bike_id": "e34d8a15d9141c548fd096ce25236b68", "is_disabled": 0, "is_reserved": 0}, {"rental_uris": {"ios": "https://dc.lft.to/lastmile_qr_scan", "android": "https://dc.lft.to/lastmile_qr_scan"}, "lon": -77.05458433333334, "type": "electric_scooter", "fusion_lat": 0.0, "lat": 38.92901766666667, "name": "ad594790ff91f1b0795e804dda092339", "fusion_lon": 0.0, "bike_id": "ad594790ff91f1b0795e804dda092339", "is_disabled": 0, "is_reserved": 0}, {"rental_uris": {"ios": "https://dc.lft.to/lastmile_qr_scan", "android": "https://dc.lft.to/lastmile_qr_scan"}, "lon": -76.97399833333333, "type": "electric_scooter", "fusion_lat": 0.0, "lat": 38.901612666666665, "name": "f6abe216502f7c19010ad34e27c82b79", "fusion_lon": 0.0, "bike_id": "f6abe216502f7c19010ad34e27c82b79", "is_disabled": 0, "is_reserved": 0}, {"rental_uris": {"ios": "https://dc.lft.to/lastmile_qr_scan", "android": "https://dc.lft.to/lastmile_qr_scan"}, "lon": -76.93717066666666, "type": "electric_scooter", "fusion_lat": 0.0, "lat": 38.89589683333333, "name": "2f28f29438872f5d4c0ad266db9af06f", "fusion_lon": 0.0, "bike_id": "2f28f29438872f5d4c0ad266db9af06f", "is_disabled": 0, "is_reserved": 0}, {"rental_uris": {"ios": "https://dc.lft.to/lastmile_qr_scan", "android": "https://dc.lft.to/lastmile_qr_scan"}, "lon": -77.03428766666667, "type": "electric_scooter", "fusion_lat": 0.0, "lat": 38.93532916666667, "name": "ec2c569777693895765560634310a3c6", "fusion_lon": 0.0, "bike_id": "ec2c569777693895765560634310a3c6", "is_disabled": 0, "is_reserved": 0}, {"rental_uris": {"ios": "https://dc.lft.to/lastmile_qr_scan", "android": "https://dc.lft.to/lastmile_qr_scan"}, "lon": -77.0271515, "type": "electric_scooter", "fusion_lat": 0.0, "lat": 38.924669333333334, "name": "48a3d427c320cd16d093f15a1cfc1ac1", "fusion_lon": 0.0, "bike_id": "48a3d427c320cd16d093f15a1cfc1ac1", "is_disabled": 0, "is_reserved": 0}, {"rental_uris": {"ios": "https://dc.lft.to/lastmile_qr_scan", "android": "https://dc.lft.to/lastmile_qr_scan"}, "lon": -77.05632016666667, "type": "electric_bike", "fusion_lat": 0.0, "lat": 38.92404616666666, "name": "7c660c20d1ead4ba00aa504cac7dc8ea", "fusion_lon": 0.0, "bike_id": "7c660c20d1ead4ba00aa504cac7dc8ea", "is_disabled": 0, "is_reserved": 0}, {"rental_uris": {"ios": "https://dc.lft.to/lastmile_qr_scan", "android": "https://dc.lft.to/lastmile_qr_scan"}, "lon": -77.034724, "type": "electric_scooter", "fusion_lat": 0.0, "lat": 38.919933, "name": "a1402a555c4d3bdbcac20469dc2b8c0a", "fusion_lon": 0.0, "bike_id": "a1402a555c4d3bdbcac20469dc2b8c0a", "is_disabled": 0, "is_reserved": 0}, {"rental_uris": {"ios": "https://dc.lft.to/lastmile_qr_scan", "android": "https://dc.lft.to/lastmile_qr_scan"}, "lon": -77.01651933333333, "type": "electric_scooter", "fusion_lat": 0.0, "lat": 38.9533065, "name": "8f756ed206e4a187a766e30a52d7d8bf", "fusion_lon": 0.0, "bike_id": "8f756ed206e4a187a766e30a52d7d8bf", "is_disabled": 0, "is_reserved": 0}, {"rental_uris": {"ios": "https://dc.lft.to/lastmile_qr_scan", "android": "https://dc.lft.to/lastmile_qr_scan"}, "lon": -77.04006666666666, "type": "electric_scooter", "fusion_lat": 0.0, "lat": 38.9325905, "name": "0caebd6900903d13c8269f99e0870abf", "fusion_lon": 0.0, "bike_id": "0caebd6900903d13c8269f99e0870abf", "is_disabled": 0, "is_reserved": 0}, {"rental_uris": {"ios": "https://dc.lft.to/lastmile_qr_scan", "android": "https://dc.lft.to/lastmile_qr_scan"}, "lon": -76.9937755, "type": "electric_scooter", "fusion_lat": 0.0, "lat": 38.89744233333333, "name": "e5cb15ed1f4bbeb72ce21f50925fc93c", "fusion_lon": 0.0, "bike_id": "e5cb15ed1f4bbeb72ce21f50925fc93c", "is_disabled": 0, "is_reserved": 0}, {"rental_uris": {"ios": "https://dc.lft.to/lastmile_qr_scan", "android": "https://dc.lft.to/lastmile_qr_scan"}, "lon": -77.02022716666667, "type": "electric_scooter", "fusion_lat": 0.0, "lat": 38.916495166666664, "name": "290cd6c40423388ab7504d7d46ec6f62", "fusion_lon": 0.0, "bike_id": "290cd6c40423388ab7504d7d46ec6f62", "is_disabled": 0, "is_reserved": 0}, {"rental_uris": {"ios": "https://dc.lft.to/lastmile_qr_scan", "android": "https://dc.lft.to/lastmile_qr_scan"}, "lon": -76.9826785, "type": "electric_scooter", "fusion_lat": 0.0, "lat": 38.86348566666667, "name": "15b506fb22aa20b86edf565d3fb4cdf9", "fusion_lon": 0.0, "bike_id": "15b506fb22aa20b86edf565d3fb4cdf9", "is_disabled": 0, "is_reserved": 0}, {"rental_uris": {"ios": "https://dc.lft.to/lastmile_qr_scan", "android": "https://dc.lft.to/lastmile_qr_scan"}, "lon": -77.01112733333333, "type": "electric_scooter", "fusion_lat": 0.0, "lat": 38.900251, "name": "18394da0879fc17df997f38dc3ca46e3", "fusion_lon": 0.0, "bike_id": "18394da0879fc17df997f38dc3ca46e3", "is_disabled": 0, "is_reserved": 0}, {"rental_uris": {"ios": "https://dc.lft.to/lastmile_qr_scan", "android": "https://dc.lft.to/lastmile_qr_scan"}, "lon": -77.04432383333334, "type": "electric_scooter", "fusion_lat": 0.0, "lat": 38.905727666666664, "name": "d18a04ec481db20214de28ad0f5d30ee", "fusion_lon": 0.0, "bike_id": "d18a04ec481db20214de28ad0f5d30ee", "is_disabled": 0, "is_reserved": 0}, {"rental_uris": {"ios": "https://dc.lft.to/lastmile_qr_scan", "android": "https://dc.lft.to/lastmile_qr_scan"}, "lon": -77.054385, "type": "electric_scooter", "fusion_lat": 0.0, "lat": 38.896069833333335, "name": "da8767b0cfd7f2092dceae3810ac23b6", "fusion_lon": 0.0, "bike_id": "da8767b0cfd7f2092dceae3810ac23b6", "is_disabled": 0, "is_reserved": 0}, {"rental_uris": {"ios": "https://dc.lft.to/lastmile_qr_scan", "android": "https://dc.lft.to/lastmile_qr_scan"}, "lon": -77.04791183333333, "type": "electric_scooter", "fusion_lat": 0.0, "lat": 38.8936675, "name": "c27173b9c42250ee1c5ab06e868e5c6f", "fusion_lon": 0.0, "bike_id": "c27173b9c42250ee1c5ab06e868e5c6f", "is_disabled": 0, "is_reserved": 0}, {"rental_uris": {"ios": "https://dc.lft.to/lastmile_qr_scan", "android": "https://dc.lft.to/lastmile_qr_scan"}, "lon": -77.03865366666666, "type": "electric_scooter", "fusion_lat": 0.0, "lat": 38.91561816666667, "name": "b13048b544516647cb381a0bdd01d406", "fusion_lon": 0.0, "bike_id": "b13048b544516647cb381a0bdd01d406", "is_disabled": 0, "is_reserved": 0}, {"rental_uris": {"ios": "https://dc.lft.to/lastmile_qr_scan", "android": "https://dc.lft.to/lastmile_qr_scan"}, "lon": -77.0036895, "type": "electric_scooter", "fusion_lat": 0.0, "lat": 38.83808483333333, "name": "a6d87654ba5b42c3918c1c9085b235e0", "fusion_lon": 0.0, "bike_id": "a6d87654ba5b42c3918c1c9085b235e0", "is_disabled": 0, "is_reserved": 0}, {"rental_uris": {"ios": "https://dc.lft.to/lastmile_qr_scan", "android": "https://dc.lft.to/lastmile_qr_scan"}, "lon": -77.02719166666667, "type": "electric_scooter", "fusion_lat": 0.0, "lat": 38.90905983333333, "name": "02eef03e7004455715a521ad6b2b3c07", "fusion_lon": 0.0, "bike_id": "02eef03e7004455715a521ad6b2b3c07", "is_disabled": 0, "is_reserved": 0}, {"rental_uris": {"ios": "https://dc.lft.to/lastmile_qr_scan", "android": "https://dc.lft.to/lastmile_qr_scan"}, "lon": -77.00379783333334, "type": "electric_bike", "fusion_lat": 0.0, "lat": 38.83603516666667, "name": "fe9f90e516cb099b209f08f4cc182763", "fusion_lon": 0.0, "bike_id": "fe9f90e516cb099b209f08f4cc182763", "is_disabled": 0, "is_reserved": 0}, {"rental_uris": {"ios": "https://dc.lft.to/lastmile_qr_scan", "android": "https://dc.lft.to/lastmile_qr_scan"}, "lon": -77.09553916666667, "type": "electric_bike", "fusion_lat": 0.0, "lat": 38.837304333333336, "name": "22336a9295eb37179d7db12524a8aa8c", "fusion_lon": 0.0, "bike_id": "22336a9295eb37179d7db12524a8aa8c", "is_disabled": 0, "is_reserved": 0}, {"rental_uris": {"ios": "https://dc.lft.to/lastmile_qr_scan", "android": "https://dc.lft.to/lastmile_qr_scan"}, "lon": -76.94144116666666, "type": "electric_scooter", "fusion_lat": 0.0, "lat": 38.8967785, "name": "9fb75d6c5db309d44cf5fb2c96a7fae5", "fusion_lon": 0.0, "bike_id": "9fb75d6c5db309d44cf5fb2c96a7fae5", "is_disabled": 0, "is_reserved": 0}, {"rental_uris": {"ios": "https://dc.lft.to/lastmile_qr_scan", "android": "https://dc.lft.to/lastmile_qr_scan"}, "lon": -77.02894233333333, "type": "electric_scooter", "fusion_lat": 0.0, "lat": 38.907213166666665, "name": "e1e476b2998e746f4adee75f74e4c16f", "fusion_lon": 0.0, "bike_id": "e1e476b2998e746f4adee75f74e4c16f", "is_disabled": 0, "is_reserved": 0}, {"rental_uris": {"ios": "https://dc.lft.to/lastmile_qr_scan", "android": "https://dc.lft.to/lastmile_qr_scan"}, "lon": -76.9906235, "type": "electric_scooter", "fusion_lat": 0.0, "lat": 38.86357533333333, "name": "6bef23e4a125d74bc77e189d2c547659", "fusion_lon": 0.0, "bike_id": "6bef23e4a125d74bc77e189d2c547659", "is_disabled": 0, "is_reserved": 0}, {"rental_uris": {"ios": "https://dc.lft.to/lastmile_qr_scan", "android": "https://dc.lft.to/lastmile_qr_scan"}, "lon": -77.02327066666666, "type": "electric_scooter", "fusion_lat": 0.0, "lat": 38.927074833333336, "name": "4618bfab951a33761c78b570cc091481", "fusion_lon": 0.0, "bike_id": "4618bfab951a33761c78b570cc091481", "is_disabled": 0, "is_reserved": 0}, {"rental_uris": {"ios": "https://dc.lft.to/lastmile_qr_scan", "android": "https://dc.lft.to/lastmile_qr_scan"}, "lon": -77.05345933333334, "type": "electric_scooter", "fusion_lat": 0.0, "lat": 38.90468766666667, "name": "443ab31c2cb99f6bd6c7039c7a989661", "fusion_lon": 0.0, "bike_id": "443ab31c2cb99f6bd6c7039c7a989661", "is_disabled": 0, "is_reserved": 0}, {"rental_uris": {"ios": "https://dc.lft.to/lastmile_qr_scan", "android": "https://dc.lft.to/lastmile_qr_scan"}, "lon": -76.93159933333334, "type": "electric_bike", "fusion_lat": 0.0, "lat": 38.90866183333333, "name": "ac5396d94ec1a77a2c34703e36e5829a", "fusion_lon": 0.0, "bike_id": "ac5396d94ec1a77a2c34703e36e5829a", "is_disabled": 0, "is_reserved": 0}, {"rental_uris": {"ios": "https://dc.lft.to/lastmile_qr_scan", "android": "https://dc.lft.to/lastmile_qr_scan"}, "lon": -77.02761133333334, "type": "electric_scooter", "fusion_lat": 0.0, "lat": 38.956134166666665, "name": "d5aabcef29b7e417956839dd824bf655", "fusion_lon": 0.0, "bike_id": "d5aabcef29b7e417956839dd824bf655", "is_disabled": 0, "is_reserved": 0}, {"rental_uris": {"ios": "https://dc.lft.to/lastmile_qr_scan", "android": "https://dc.lft.to/lastmile_qr_scan"}, "lon": -77.03219166666666, "type": "electric_scooter", "fusion_lat": 0.0, "lat": 38.916929333333336, "name": "3bcf02490fbe907e4b1f56fba256563f", "fusion_lon": 0.0, "bike_id": "3bcf02490fbe907e4b1f56fba256563f", "is_disabled": 0, "is_reserved": 0}, {"rental_uris": {"ios": "https://dc.lft.to/lastmile_qr_scan", "android": "https://dc.lft.to/lastmile_qr_scan"}, "lon": -77.01577433333334, "type": "electric_scooter", "fusion_lat": 0.0, "lat": 38.8997675, "name": "18cc47c2741092b74414dde0cc054089", "fusion_lon": 0.0, "bike_id": "18cc47c2741092b74414dde0cc054089", "is_disabled": 0, "is_reserved": 0}, {"rental_uris": {"ios": "https://dc.lft.to/lastmile_qr_scan", "android": "https://dc.lft.to/lastmile_qr_scan"}, "lon": -77.048178, "type": "electric_scooter", "fusion_lat": 0.0, "lat": 38.90796, "name": "ae9fdf2169f06d79ae73e02db95d970f", "fusion_lon": 0.0, "bike_id": "ae9fdf2169f06d79ae73e02db95d970f", "is_disabled": 0, "is_reserved": 0}, {"rental_uris": {"ios": "https://dc.lft.to/lastmile_qr_scan", "android": "https://dc.lft.to/lastmile_qr_scan"}, "lon": -77.021756, "type": "electric_scooter", "fusion_lat": 0.0, "lat": 38.9429025, "name": "0b8d0d520dc01ba3612a585997c14fd7", "fusion_lon": 0.0, "bike_id": "0b8d0d520dc01ba3612a585997c14fd7", "is_disabled": 0, "is_reserved": 0}, {"rental_uris": {"ios": "https://dc.lft.to/lastmile_qr_scan", "android": "https://dc.lft.to/lastmile_qr_scan"}, "lon": -77.01364866666667, "type": "electric_scooter", "fusion_lat": 0.0, "lat": 38.86375533333333, "name": "57a746908bb675b205f5cd36dd2a0d33", "fusion_lon": 0.0, "bike_id": "57a746908bb675b205f5cd36dd2a0d33", "is_disabled": 0, "is_reserved": 0}, {"rental_uris": {"ios": "https://dc.lft.to/lastmile_qr_scan", "android": "https://dc.lft.to/lastmile_qr_scan"}, "lon": -77.05863083333334, "type": "electric_scooter", "fusion_lat": 0.0, "lat": 38.936013833333334, "name": "509c312aff119a5aec87661a09ded392", "fusion_lon": 0.0, "bike_id": "509c312aff119a5aec87661a09ded392", "is_disabled": 0, "is_reserved": 0}, {"rental_uris": {"ios": "https://dc.lft.to/lastmile_qr_scan", "android": "https://dc.lft.to/lastmile_qr_scan"}, "lon": -77.06043766666667, "type": "electric_scooter", "fusion_lat": 0.0, "lat": 38.93913, "name": "5cdf7892cde24b599fa969b3b578eafa", "fusion_lon": 0.0, "bike_id": "5cdf7892cde24b599fa969b3b578eafa", "is_disabled": 0, "is_reserved": 0}, {"rental_uris": {"ios": "https://dc.lft.to/lastmile_qr_scan", "android": "https://dc.lft.to/lastmile_qr_scan"}, "lon": -76.9463095, "type": "electric_scooter", "fusion_lat": 0.0, "lat": 38.89845116666667, "name": "db09533757ea3540eb4744a6635d5228", "fusion_lon": 0.0, "bike_id": "db09533757ea3540eb4744a6635d5228", "is_disabled": 0, "is_reserved": 0}, {"rental_uris": {"ios": "https://dc.lft.to/lastmile_qr_scan", "android": "https://dc.lft.to/lastmile_qr_scan"}, "lon": -77.035952, "type": "electric_scooter", "fusion_lat": 0.0, "lat": 38.93235166666667, "name": "5588ad11f85ef440361e127154ad39a5", "fusion_lon": 0.0, "bike_id": "5588ad11f85ef440361e127154ad39a5", "is_disabled": 0, "is_reserved": 0}, {"rental_uris": {"ios": "https://dc.lft.to/lastmile_qr_scan", "android": "https://dc.lft.to/lastmile_qr_scan"}, "lon": -77.06333766666667, "type": "electric_bike", "fusion_lat": 0.0, "lat": 38.921084666666665, "name": "89bb2031dd4a092677029ab8c6a36ab4", "fusion_lon": 0.0, "bike_id": "89bb2031dd4a092677029ab8c6a36ab4", "is_disabled": 0, "is_reserved": 0}, {"rental_uris": {"ios": "https://dc.lft.to/lastmile_qr_scan", "android": "https://dc.lft.to/lastmile_qr_scan"}, "lon": -77.03788866666666, "type": "electric_scooter", "fusion_lat": 0.0, "lat": 38.92627016666667, "name": "6d27d2f4da2d4f1f606afaeb48ce0d77", "fusion_lon": 0.0, "bike_id": "6d27d2f4da2d4f1f606afaeb48ce0d77", "is_disabled": 0, "is_reserved": 0}, {"rental_uris": {"ios": "https://dc.lft.to/lastmile_qr_scan", "android": "https://dc.lft.to/lastmile_qr_scan"}, "lon": -77.00566483333333, "type": "electric_scooter", "fusion_lat": 0.0, "lat": 38.879166, "name": "0f5196315cc68067b8cb2209b393e40c", "fusion_lon": 0.0, "bike_id": "0f5196315cc68067b8cb2209b393e40c", "is_disabled": 0, "is_reserved": 0}, {"rental_uris": {"ios": "https://dc.lft.to/lastmile_qr_scan", "android": "https://dc.lft.to/lastmile_qr_scan"}, "lon": -77.0329665, "type": "electric_scooter", "fusion_lat": 0.0, "lat": 38.934876833333334, "name": "16d6039164b9f61e9153b3afce914218", "fusion_lon": 0.0, "bike_id": "16d6039164b9f61e9153b3afce914218", "is_disabled": 0, "is_reserved": 0}, {"rental_uris": {"ios": "https://dc.lft.to/lastmile_qr_scan", "android": "https://dc.lft.to/lastmile_qr_scan"}, "lon": -77.00267833333334, "type": "electric_scooter", "fusion_lat": 0.0, "lat": 38.89892533333333, "name": "b8eb7590cdcac71259f74597ea3f2f98", "fusion_lon": 0.0, "bike_id": "b8eb7590cdcac71259f74597ea3f2f98", "is_disabled": 0, "is_reserved": 0}, {"rental_uris": {"ios": "https://dc.lft.to/lastmile_qr_scan", "android": "https://dc.lft.to/lastmile_qr_scan"}, "lon": -77.010792, "type": "electric_bike", "fusion_lat": 0.0, "lat": 38.9565355, "name": "b7e7f47f33370cef2bcca91294025edb", "fusion_lon": 0.0, "bike_id": "b7e7f47f33370cef2bcca91294025edb", "is_disabled": 0, "is_reserved": 0}, {"rental_uris": {"ios": "https://dc.lft.to/lastmile_qr_scan", "android": "https://dc.lft.to/lastmile_qr_scan"}, "lon": -76.99614, "type": "electric_scooter", "fusion_lat": 0.0, "lat": 38.8773525, "name": "c6fb8f8edb681f6b01b8ba1e97c81708", "fusion_lon": 0.0, "bike_id": "c6fb8f8edb681f6b01b8ba1e97c81708", "is_disabled": 0, "is_reserved": 0}, {"rental_uris": {"ios": "https://dc.lft.to/lastmile_qr_scan", "android": "https://dc.lft.to/lastmile_qr_scan"}, "lon": -77.03403166666666, "type": "electric_scooter", "fusion_lat": 0.0, "lat": 38.9060125, "name": "ccd3e2d5955bb6fd769807722d6ce908", "fusion_lon": 0.0, "bike_id": "ccd3e2d5955bb6fd769807722d6ce908", "is_disabled": 0, "is_reserved": 0}, {"rental_uris": {"ios": "https://dc.lft.to/lastmile_qr_scan", "android": "https://dc.lft.to/lastmile_qr_scan"}, "lon": -76.989517, "type": "electric_scooter", "fusion_lat": 0.0, "lat": 38.90135216666667, "name": "7aa4651beddbd9678cdd9d84bbb8e54d", "fusion_lon": 0.0, "bike_id": "7aa4651beddbd9678cdd9d84bbb8e54d", "is_disabled": 0, "is_reserved": 0}, {"rental_uris": {"ios": "https://dc.lft.to/lastmile_qr_scan", "android": "https://dc.lft.to/lastmile_qr_scan"}, "lon": -76.98846066666667, "type": "electric_bike", "fusion_lat": 0.0, "lat": 38.842710333333336, "name": "e9bac07ecc7e945188c84c67b316b918", "fusion_lon": 0.0, "bike_id": "e9bac07ecc7e945188c84c67b316b918", "is_disabled": 0, "is_reserved": 0}, {"rental_uris": {"ios": "https://dc.lft.to/lastmile_qr_scan", "android": "https://dc.lft.to/lastmile_qr_scan"}, "lon": -77.04254283333333, "type": "electric_scooter", "fusion_lat": 0.0, "lat": 38.9220185, "name": "eb55dcb2f006bf07b1c5180162e84dc2", "fusion_lon": 0.0, "bike_id": "eb55dcb2f006bf07b1c5180162e84dc2", "is_disabled": 0, "is_reserved": 0}, {"rental_uris": {"ios": "https://dc.lft.to/lastmile_qr_scan", "android": "https://dc.lft.to/lastmile_qr_scan"}, "lon": -77.0321815, "type": "electric_scooter", "fusion_lat": 0.0, "lat": 38.907562166666665, "name": "f1873a7711b49705ac366e6be8361bdd", "fusion_lon": 0.0, "bike_id": "f1873a7711b49705ac366e6be8361bdd", "is_disabled": 0, "is_reserved": 0}, {"rental_uris": {"ios": "https://dc.lft.to/lastmile_qr_scan", "android": "https://dc.lft.to/lastmile_qr_scan"}, "lon": -77.01285366666667, "type": "electric_scooter", "fusion_lat": 0.0, "lat": 38.906167833333335, "name": "d5d6b2e0a9e33066ec44becc8aff2dc7", "fusion_lon": 0.0, "bike_id": "d5d6b2e0a9e33066ec44becc8aff2dc7", "is_disabled": 0, "is_reserved": 0}, {"rental_uris": {"ios": "https://dc.lft.to/lastmile_qr_scan", "android": "https://dc.lft.to/lastmile_qr_scan"}, "lon": -77.0187685, "type": "electric_scooter", "fusion_lat": 0.0, "lat": 38.917446166666664, "name": "04e0baed9492cce08937f643b883349e", "fusion_lon": 0.0, "bike_id": "04e0baed9492cce08937f643b883349e", "is_disabled": 0, "is_reserved": 0}, {"rental_uris": {"ios": "https://dc.lft.to/lastmile_qr_scan", "android": "https://dc.lft.to/lastmile_qr_scan"}, "lon": -77.07776683333333, "type": "electric_scooter", "fusion_lat": 0.0, "lat": 38.94560233333333, "name": "ae85ec6231f7b280549fde7c9cad30fa", "fusion_lon": 0.0, "bike_id": "ae85ec6231f7b280549fde7c9cad30fa", "is_disabled": 0, "is_reserved": 0}, {"rental_uris": {"ios": "https://dc.lft.to/lastmile_qr_scan", "android": "https://dc.lft.to/lastmile_qr_scan"}, "lon": -77.0482885, "type": "electric_scooter", "fusion_lat": 0.0, "lat": 38.90968933333333, "name": "3a82fc91460d51e7a937246d7c124abb", "fusion_lon": 0.0, "bike_id": "3a82fc91460d51e7a937246d7c124abb", "is_disabled": 0, "is_reserved": 0}, {"rental_uris": {"ios": "https://dc.lft.to/lastmile_qr_scan", "android": "https://dc.lft.to/lastmile_qr_scan"}, "lon": -77.0222615, "type": "electric_scooter", "fusion_lat": 0.0, "lat": 38.892198666666665, "name": "74aa2fe449bd8e0fd49ddfb000f9ed18", "fusion_lon": 0.0, "bike_id": "74aa2fe449bd8e0fd49ddfb000f9ed18", "is_disabled": 0, "is_reserved": 0}, {"rental_uris": {"ios": "https://dc.lft.to/lastmile_qr_scan", "android": "https://dc.lft.to/lastmile_qr_scan"}, "lon": -77.03833783333333, "type": "electric_scooter", "fusion_lat": 0.0, "lat": 38.90835233333333, "name": "656c27b5d4664b9c167bce47000a1bc6", "fusion_lon": 0.0, "bike_id": "656c27b5d4664b9c167bce47000a1bc6", "is_disabled": 0, "is_reserved": 0}, {"rental_uris": {"ios": "https://dc.lft.to/lastmile_qr_scan", "android": "https://dc.lft.to/lastmile_qr_scan"}, "lon": -77.08538266666666, "type": "electric_bike", "fusion_lat": 0.0, "lat": 38.8562365, "name": "c0a8a9ed71d925a345076fec35a217e0", "fusion_lon": 0.0, "bike_id": "c0a8a9ed71d925a345076fec35a217e0", "is_disabled": 0, "is_reserved": 0}, {"rental_uris": {"ios": "https://dc.lft.to/lastmile_qr_scan", "android": "https://dc.lft.to/lastmile_qr_scan"}, "lon": -77.029814, "type": "electric_scooter", "fusion_lat": 0.0, "lat": 38.9622755, "name": "a5f23d44f2f56f14b096f927049aaa32", "fusion_lon": 0.0, "bike_id": "a5f23d44f2f56f14b096f927049aaa32", "is_disabled": 0, "is_reserved": 0}, {"rental_uris": {"ios": "https://dc.lft.to/lastmile_qr_scan", "android": "https://dc.lft.to/lastmile_qr_scan"}, "lon": -76.98882233333333, "type": "electric_scooter", "fusion_lat": 0.0, "lat": 38.86656983333334, "name": "f6b4d2c93bfebb518b0278cf295be2d1", "fusion_lon": 0.0, "bike_id": "f6b4d2c93bfebb518b0278cf295be2d1", "is_disabled": 0, "is_reserved": 0}, {"rental_uris": {"ios": "https://dc.lft.to/lastmile_qr_scan", "android": "https://dc.lft.to/lastmile_qr_scan"}, "lon": -77.0416275, "type": "electric_scooter", "fusion_lat": 0.0, "lat": 38.91417666666667, "name": "ce62d16bcdd47dbcc88b2c3e2a0f0bb6", "fusion_lon": 0.0, "bike_id": "ce62d16bcdd47dbcc88b2c3e2a0f0bb6", "is_disabled": 0, "is_reserved": 0}, {"rental_uris": {"ios": "https://dc.lft.to/lastmile_qr_scan", "android": "https://dc.lft.to/lastmile_qr_scan"}, "lon": -77.01157866666667, "type": "electric_scooter", "fusion_lat": 0.0, "lat": 38.90015666666667, "name": "bfcffdea3e5b029554960ad8613ac863", "fusion_lon": 0.0, "bike_id": "bfcffdea3e5b029554960ad8613ac863", "is_disabled": 0, "is_reserved": 0}, {"rental_uris": {"ios": "https://dc.lft.to/lastmile_qr_scan", "android": "https://dc.lft.to/lastmile_qr_scan"}, "lon": -77.01989766666667, "type": "electric_scooter", "fusion_lat": 0.0, "lat": 38.93783483333333, "name": "658d133e8aae55404a23672212455d0c", "fusion_lon": 0.0, "bike_id": "658d133e8aae55404a23672212455d0c", "is_disabled": 0, "is_reserved": 0}, {"rental_uris": {"ios": "https://dc.lft.to/lastmile_qr_scan", "android": "https://dc.lft.to/lastmile_qr_scan"}, "lon": -77.02840283333333, "type": "electric_scooter", "fusion_lat": 0.0, "lat": 38.928595, "name": "fc76750e3e5f1b2e7bc8dd42039f318b", "fusion_lon": 0.0, "bike_id": "fc76750e3e5f1b2e7bc8dd42039f318b", "is_disabled": 0, "is_reserved": 0}, {"rental_uris": {"ios": "https://dc.lft.to/lastmile_qr_scan", "android": "https://dc.lft.to/lastmile_qr_scan"}, "lon": -77.01013033333334, "type": "electric_scooter", "fusion_lat": 0.0, "lat": 38.91814166666666, "name": "adaaa0987c14c23f8da9501bbfb66b00", "fusion_lon": 0.0, "bike_id": "adaaa0987c14c23f8da9501bbfb66b00", "is_disabled": 0, "is_reserved": 0}, {"rental_uris": {"ios": "https://dc.lft.to/lastmile_qr_scan", "android": "https://dc.lft.to/lastmile_qr_scan"}, "lon": -77.05932466666667, "type": "electric_scooter", "fusion_lat": 0.0, "lat": 38.90951533333333, "name": "e4f55a4ae797b07bbd345a780dd203a7", "fusion_lon": 0.0, "bike_id": "e4f55a4ae797b07bbd345a780dd203a7", "is_disabled": 0, "is_reserved": 0}, {"rental_uris": {"ios": "https://dc.lft.to/lastmile_qr_scan", "android": "https://dc.lft.to/lastmile_qr_scan"}, "lon": -77.03520416666667, "type": "electric_scooter", "fusion_lat": 0.0, "lat": 38.935970166666664, "name": "520e333e0e143473af0470c7248348a0", "fusion_lon": 0.0, "bike_id": "520e333e0e143473af0470c7248348a0", "is_disabled": 0, "is_reserved": 0}, {"rental_uris": {"ios": "https://dc.lft.to/lastmile_qr_scan", "android": "https://dc.lft.to/lastmile_qr_scan"}, "lon": -76.98998166666667, "type": "electric_scooter", "fusion_lat": 0.0, "lat": 38.903873, "name": "c949ad5202511e569284cbfa5cddc71c", "fusion_lon": 0.0, "bike_id": "c949ad5202511e569284cbfa5cddc71c", "is_disabled": 0, "is_reserved": 0}, {"rental_uris": {"ios": "https://dc.lft.to/lastmile_qr_scan", "android": "https://dc.lft.to/lastmile_qr_scan"}, "lon": -77.03556416666666, "type": "electric_scooter", "fusion_lat": 0.0, "lat": 38.927426, "name": "a9b359f9e1e285e722d38633e5d9a4e2", "fusion_lon": 0.0, "bike_id": "a9b359f9e1e285e722d38633e5d9a4e2", "is_disabled": 0, "is_reserved": 0}, {"rental_uris": {"ios": "https://dc.lft.to/lastmile_qr_scan", "android": "https://dc.lft.to/lastmile_qr_scan"}, "lon": -76.995533, "type": "electric_scooter", "fusion_lat": 0.0, "lat": 38.862339166666665, "name": "afa135f113fc34181b879840ffb677b8", "fusion_lon": 0.0, "bike_id": "afa135f113fc34181b879840ffb677b8", "is_disabled": 0, "is_reserved": 0}, {"rental_uris": {"ios": "https://dc.lft.to/lastmile_qr_scan", "android": "https://dc.lft.to/lastmile_qr_scan"}, "lon": -77.03176583333334, "type": "electric_scooter", "fusion_lat": 0.0, "lat": 38.91933816666667, "name": "705691d591515a163527ae930cdf6ae9", "fusion_lon": 0.0, "bike_id": "705691d591515a163527ae930cdf6ae9", "is_disabled": 0, "is_reserved": 0}, {"rental_uris": {"ios": "https://dc.lft.to/lastmile_qr_scan", "android": "https://dc.lft.to/lastmile_qr_scan"}, "lon": -77.0433165, "type": "electric_scooter", "fusion_lat": 0.0, "lat": 38.8958665, "name": "704130aea7d3764e3666317db13d0588", "fusion_lon": 0.0, "bike_id": "704130aea7d3764e3666317db13d0588", "is_disabled": 0, "is_reserved": 0}, {"rental_uris": {"ios": "https://dc.lft.to/lastmile_qr_scan", "android": "https://dc.lft.to/lastmile_qr_scan"}, "lon": -77.0326595, "type": "electric_scooter", "fusion_lat": 0.0, "lat": 38.9253745, "name": "cc26ee4d736c7749989856178ef0fcab", "fusion_lon": 0.0, "bike_id": "cc26ee4d736c7749989856178ef0fcab", "is_disabled": 0, "is_reserved": 0}, {"rental_uris": {"ios": "https://dc.lft.to/lastmile_qr_scan", "android": "https://dc.lft.to/lastmile_qr_scan"}, "lon": -77.04671216666667, "type": "electric_scooter", "fusion_lat": 0.0, "lat": 38.914875333333335, "name": "d8888699b8a26f68472dffd9cdc3b31e", "fusion_lon": 0.0, "bike_id": "d8888699b8a26f68472dffd9cdc3b31e", "is_disabled": 0, "is_reserved": 0}, {"rental_uris": {"ios": "https://dc.lft.to/lastmile_qr_scan", "android": "https://dc.lft.to/lastmile_qr_scan"}, "lon": -77.03473733333334, "type": "electric_scooter", "fusion_lat": 0.0, "lat": 38.91681716666667, "name": "a0ce52a861b4622354ecc6cb5bc0a85c", "fusion_lon": 0.0, "bike_id": "a0ce52a861b4622354ecc6cb5bc0a85c", "is_disabled": 0, "is_reserved": 0}, {"rental_uris": {"ios": "https://dc.lft.to/lastmile_qr_scan", "android": "https://dc.lft.to/lastmile_qr_scan"}, "lon": -77.0919245, "type": "electric_scooter", "fusion_lat": 0.0, "lat": 38.91367016666667, "name": "1b6494bc739a84e2f0e18ba980c33411", "fusion_lon": 0.0, "bike_id": "1b6494bc739a84e2f0e18ba980c33411", "is_disabled": 0, "is_reserved": 0}, {"rental_uris": {"ios": "https://dc.lft.to/lastmile_qr_scan", "android": "https://dc.lft.to/lastmile_qr_scan"}, "lon": -77.1068275, "type": "electric_bike", "fusion_lat": 0.0, "lat": 38.935834, "name": "07fcedcfa081dc6b02b3bcdc93acfb23", "fusion_lon": 0.0, "bike_id": "07fcedcfa081dc6b02b3bcdc93acfb23", "is_disabled": 0, "is_reserved": 0}, {"rental_uris": {"ios": "https://dc.lft.to/lastmile_qr_scan", "android": "https://dc.lft.to/lastmile_qr_scan"}, "lon": -76.9488055, "type": "electric_scooter", "fusion_lat": 0.0, "lat": 38.895025833333335, "name": "44b294fd89bad1c6309f83cbe76de910", "fusion_lon": 0.0, "bike_id": "44b294fd89bad1c6309f83cbe76de910", "is_disabled": 0, "is_reserved": 0}, {"rental_uris": {"ios": "https://dc.lft.to/lastmile_qr_scan", "android": "https://dc.lft.to/lastmile_qr_scan"}, "lon": -77.0350935, "type": "electric_scooter", "fusion_lat": 0.0, "lat": 38.921507, "name": "604ad3c02f472d0318aa58bacfc0c9bf", "fusion_lon": 0.0, "bike_id": "604ad3c02f472d0318aa58bacfc0c9bf", "is_disabled": 0, "is_reserved": 0}, {"rental_uris": {"ios": "https://dc.lft.to/lastmile_qr_scan", "android": "https://dc.lft.to/lastmile_qr_scan"}, "lon": -77.04275366666667, "type": "electric_scooter", "fusion_lat": 0.0, "lat": 38.902694, "name": "dbf9a7538ee9a555f7f40e30f020f8e5", "fusion_lon": 0.0, "bike_id": "dbf9a7538ee9a555f7f40e30f020f8e5", "is_disabled": 0, "is_reserved": 0}, {"rental_uris": {"ios": "https://dc.lft.to/lastmile_qr_scan", "android": "https://dc.lft.to/lastmile_qr_scan"}, "lon": -77.02956916666666, "type": "electric_scooter", "fusion_lat": 0.0, "lat": 38.90519366666667, "name": "5829019d339ff73b42f8b695d1fd5269", "fusion_lon": 0.0, "bike_id": "5829019d339ff73b42f8b695d1fd5269", "is_disabled": 0, "is_reserved": 0}, {"rental_uris": {"ios": "https://dc.lft.to/lastmile_qr_scan", "android": "https://dc.lft.to/lastmile_qr_scan"}, "lon": -77.00657216666667, "type": "electric_scooter", "fusion_lat": 0.0, "lat": 38.94463433333333, "name": "4c5ff942c98d364bca4ef9b9a65a8795", "fusion_lon": 0.0, "bike_id": "4c5ff942c98d364bca4ef9b9a65a8795", "is_disabled": 0, "is_reserved": 0}, {"rental_uris": {"ios": "https://dc.lft.to/lastmile_qr_scan", "android": "https://dc.lft.to/lastmile_qr_scan"}, "lon": -77.03846583333333, "type": "electric_scooter", "fusion_lat": 0.0, "lat": 38.907771, "name": "d268ef03d7a9a12a09d5d79cf1b18180", "fusion_lon": 0.0, "bike_id": "d268ef03d7a9a12a09d5d79cf1b18180", "is_disabled": 0, "is_reserved": 0}, {"rental_uris": {"ios": "https://dc.lft.to/lastmile_qr_scan", "android": "https://dc.lft.to/lastmile_qr_scan"}, "lon": -76.97882183333333, "type": "electric_scooter", "fusion_lat": 0.0, "lat": 38.885061, "name": "b3f341bbf5e088618ee1149e8711455f", "fusion_lon": 0.0, "bike_id": "b3f341bbf5e088618ee1149e8711455f", "is_disabled": 0, "is_reserved": 0}, {"rental_uris": {"ios": "https://dc.lft.to/lastmile_qr_scan", "android": "https://dc.lft.to/lastmile_qr_scan"}, "lon": -76.986984, "type": "electric_scooter", "fusion_lat": 0.0, "lat": 38.9070025, "name": "ca83b9a9e9d0303bb06e724f5da71486", "fusion_lon": 0.0, "bike_id": "ca83b9a9e9d0303bb06e724f5da71486", "is_disabled": 0, "is_reserved": 0}, {"rental_uris": {"ios": "https://dc.lft.to/lastmile_qr_scan", "android": "https://dc.lft.to/lastmile_qr_scan"}, "lon": -77.0148585, "type": "electric_scooter", "fusion_lat": 0.0, "lat": 38.881220166666665, "name": "f9d2f2e25dc49ed1c90c229da44f44ed", "fusion_lon": 0.0, "bike_id": "f9d2f2e25dc49ed1c90c229da44f44ed", "is_disabled": 0, "is_reserved": 0}, {"rental_uris": {"ios": "https://dc.lft.to/lastmile_qr_scan", "android": "https://dc.lft.to/lastmile_qr_scan"}, "lon": -77.02621916666666, "type": "electric_scooter", "fusion_lat": 0.0, "lat": 38.905605333333334, "name": "9e6ddfab81de1e816f593e0640e2391a", "fusion_lon": 0.0, "bike_id": "9e6ddfab81de1e816f593e0640e2391a", "is_disabled": 0, "is_reserved": 0}, {"rental_uris": {"ios": "https://dc.lft.to/lastmile_qr_scan", "android": "https://dc.lft.to/lastmile_qr_scan"}, "lon": -77.00061983333333, "type": "electric_scooter", "fusion_lat": 0.0, "lat": 38.9072705, "name": "0af6af6c1959c005475bed680a7cf89f", "fusion_lon": 0.0, "bike_id": "0af6af6c1959c005475bed680a7cf89f", "is_disabled": 0, "is_reserved": 0}, {"rental_uris": {"ios": "https://dc.lft.to/lastmile_qr_scan", "android": "https://dc.lft.to/lastmile_qr_scan"}, "lon": -77.0108805, "type": "electric_scooter", "fusion_lat": 0.0, "lat": 38.89485333333333, "name": "761adb71b12a3fc06bf2a29b73403e34", "fusion_lon": 0.0, "bike_id": "761adb71b12a3fc06bf2a29b73403e34", "is_disabled": 0, "is_reserved": 0}, {"rental_uris": {"ios": "https://dc.lft.to/lastmile_qr_scan", "android": "https://dc.lft.to/lastmile_qr_scan"}, "lon": -77.04081883333333, "type": "electric_scooter", "fusion_lat": 0.0, "lat": 38.902706333333334, "name": "98d122450688501dae443f3d24aec3f2", "fusion_lon": 0.0, "bike_id": "98d122450688501dae443f3d24aec3f2", "is_disabled": 0, "is_reserved": 0}, {"rental_uris": {"ios": "https://dc.lft.to/lastmile_qr_scan", "android": "https://dc.lft.to/lastmile_qr_scan"}, "lon": -77.035044, "type": "electric_scooter", "fusion_lat": 0.0, "lat": 38.92151783333333, "name": "8f1ac27354feaa4bc58d4baa5a2a0df1", "fusion_lon": 0.0, "bike_id": "8f1ac27354feaa4bc58d4baa5a2a0df1", "is_disabled": 0, "is_reserved": 0}, {"rental_uris": {"ios": "https://dc.lft.to/lastmile_qr_scan", "android": "https://dc.lft.to/lastmile_qr_scan"}, "lon": -77.0352115, "type": "electric_bike", "fusion_lat": 0.0, "lat": 38.965103, "name": "892b6957a16022ba1dd2172229f6ce32", "fusion_lon": 0.0, "bike_id": "892b6957a16022ba1dd2172229f6ce32", "is_disabled": 0, "is_reserved": 0}, {"rental_uris": {"ios": "https://dc.lft.to/lastmile_qr_scan", "android": "https://dc.lft.to/lastmile_qr_scan"}, "lon": -77.03614833333333, "type": "electric_scooter", "fusion_lat": 0.0, "lat": 38.92317883333333, "name": "426d82200e2d8e2a7586c1c346b4ad07", "fusion_lon": 0.0, "bike_id": "426d82200e2d8e2a7586c1c346b4ad07", "is_disabled": 0, "is_reserved": 0}, {"rental_uris": {"ios": "https://dc.lft.to/lastmile_qr_scan", "android": "https://dc.lft.to/lastmile_qr_scan"}, "lon": -77.0386775, "type": "electric_scooter", "fusion_lat": 0.0, "lat": 38.920247333333336, "name": "4e15bc5db647ab14e6ee936a864b46c7", "fusion_lon": 0.0, "bike_id": "4e15bc5db647ab14e6ee936a864b46c7", "is_disabled": 0, "is_reserved": 0}, {"rental_uris": {"ios": "https://dc.lft.to/lastmile_qr_scan", "android": "https://dc.lft.to/lastmile_qr_scan"}, "lon": -77.10336683333334, "type": "electric_bike", "fusion_lat": 0.0, "lat": 38.852285, "name": "61462f4ee592f0ec721d2960501aaa24", "fusion_lon": 0.0, "bike_id": "61462f4ee592f0ec721d2960501aaa24", "is_disabled": 0, "is_reserved": 0}, {"rental_uris": {"ios": "https://dc.lft.to/lastmile_qr_scan", "android": "https://dc.lft.to/lastmile_qr_scan"}, "lon": -77.03858633333333, "type": "electric_scooter", "fusion_lat": 0.0, "lat": 38.913192333333335, "name": "50b25cf34b5e2f1cdb5cbadd46c3570b", "fusion_lon": 0.0, "bike_id": "50b25cf34b5e2f1cdb5cbadd46c3570b", "is_disabled": 0, "is_reserved": 0}, {"rental_uris": {"ios": "https://dc.lft.to/lastmile_qr_scan", "android": "https://dc.lft.to/lastmile_qr_scan"}, "lon": -77.0266695, "type": "electric_scooter", "fusion_lat": 0.0, "lat": 38.88120583333333, "name": "46d33afff2a2e6f0b0081f44eb9d56b2", "fusion_lon": 0.0, "bike_id": "46d33afff2a2e6f0b0081f44eb9d56b2", "is_disabled": 0, "is_reserved": 0}, {"rental_uris": {"ios": "https://dc.lft.to/lastmile_qr_scan", "android": "https://dc.lft.to/lastmile_qr_scan"}, "lon": -77.04693783333333, "type": "electric_scooter", "fusion_lat": 0.0, "lat": 38.9057375, "name": "75e367eb4cf5cb6fbb3bd232aef3bc52", "fusion_lon": 0.0, "bike_id": "75e367eb4cf5cb6fbb3bd232aef3bc52", "is_disabled": 0, "is_reserved": 0}, {"rental_uris": {"ios": "https://dc.lft.to/lastmile_qr_scan", "android": "https://dc.lft.to/lastmile_qr_scan"}, "lon": -77.02972716666666, "type": "electric_scooter", "fusion_lat": 0.0, "lat": 38.962277, "name": "9028d9c1a43b2eb93778e400576ad0c8", "fusion_lon": 0.0, "bike_id": "9028d9c1a43b2eb93778e400576ad0c8", "is_disabled": 0, "is_reserved": 0}, {"rental_uris": {"ios": "https://dc.lft.to/lastmile_qr_scan", "android": "https://dc.lft.to/lastmile_qr_scan"}, "lon": -77.012755, "type": "electric_bike", "fusion_lat": 0.0, "lat": 38.881238, "name": "88a8d0388603b9c2ffbc75da30c6f1c4", "fusion_lon": 0.0, "bike_id": "88a8d0388603b9c2ffbc75da30c6f1c4", "is_disabled": 0, "is_reserved": 0}, {"rental_uris": {"ios": "https://dc.lft.to/lastmile_qr_scan", "android": "https://dc.lft.to/lastmile_qr_scan"}, "lon": -77.00881483333333, "type": "electric_scooter", "fusion_lat": 0.0, "lat": 38.91401366666667, "name": "6f7a26f9b79b4f3e7ea23e575255df3f", "fusion_lon": 0.0, "bike_id": "6f7a26f9b79b4f3e7ea23e575255df3f", "is_disabled": 0, "is_reserved": 0}, {"rental_uris": {"ios": "https://dc.lft.to/lastmile_qr_scan", "android": "https://dc.lft.to/lastmile_qr_scan"}, "lon": -76.9272195, "type": "electric_scooter", "fusion_lat": 0.0, "lat": 38.88041283333333, "name": "9cd1c5a437ec7f3828c4636ad4194b31", "fusion_lon": 0.0, "bike_id": "9cd1c5a437ec7f3828c4636ad4194b31", "is_disabled": 0, "is_reserved": 0}, {"rental_uris": {"ios": "https://dc.lft.to/lastmile_qr_scan", "android": "https://dc.lft.to/lastmile_qr_scan"}, "lon": -77.00135966666667, "type": "electric_scooter", "fusion_lat": 0.0, "lat": 38.904075166666665, "name": "fbae643b8d87bc47bd23cdd753b043cb", "fusion_lon": 0.0, "bike_id": "fbae643b8d87bc47bd23cdd753b043cb", "is_disabled": 0, "is_reserved": 0}, {"rental_uris": {"ios": "https://dc.lft.to/lastmile_qr_scan", "android": "https://dc.lft.to/lastmile_qr_scan"}, "lon": -77.032241, "type": "electric_scooter", "fusion_lat": 0.0, "lat": 38.9073275, "name": "8340d0a0cc28ef2205630fe5f0296b47", "fusion_lon": 0.0, "bike_id": "8340d0a0cc28ef2205630fe5f0296b47", "is_disabled": 0, "is_reserved": 0}, {"rental_uris": {"ios": "https://dc.lft.to/lastmile_qr_scan", "android": "https://dc.lft.to/lastmile_qr_scan"}, "lon": -77.00511716666666, "type": "electric_scooter", "fusion_lat": 0.0, "lat": 38.87854383333333, "name": "21281a1662d5996ba9dc84e4089eeae2", "fusion_lon": 0.0, "bike_id": "21281a1662d5996ba9dc84e4089eeae2", "is_disabled": 0, "is_reserved": 0}, {"rental_uris": {"ios": "https://dc.lft.to/lastmile_qr_scan", "android": "https://dc.lft.to/lastmile_qr_scan"}, "lon": -76.99681983333333, "type": "electric_scooter", "fusion_lat": 0.0, "lat": 38.900291333333335, "name": "5ac45a9cdb6e79aa8da6de68a02ca646", "fusion_lon": 0.0, "bike_id": "5ac45a9cdb6e79aa8da6de68a02ca646", "is_disabled": 0, "is_reserved": 0}, {"rental_uris": {"ios": "https://dc.lft.to/lastmile_qr_scan", "android": "https://dc.lft.to/lastmile_qr_scan"}, "lon": -76.98593233333334, "type": "electric_scooter", "fusion_lat": 0.0, "lat": 38.899269, "name": "0d5103850a4455702d82e7814754386d", "fusion_lon": 0.0, "bike_id": "0d5103850a4455702d82e7814754386d", "is_disabled": 0, "is_reserved": 0}, {"rental_uris": {"ios": "https://dc.lft.to/lastmile_qr_scan", "android": "https://dc.lft.to/lastmile_qr_scan"}, "lon": -77.048082, "type": "electric_scooter", "fusion_lat": 0.0, "lat": 38.920447, "name": "0bdbc813104d89f9fb4c66ba15c5a68a", "fusion_lon": 0.0, "bike_id": "0bdbc813104d89f9fb4c66ba15c5a68a", "is_disabled": 0, "is_reserved": 0}, {"rental_uris": {"ios": "https://dc.lft.to/lastmile_qr_scan", "android": "https://dc.lft.to/lastmile_qr_scan"},