{"data": {"bikes": [{"type": "electric_scooter", "name": "cf3b9df7281dbd3fc4730fcbf218e472", "rental_uris": {"ios": "https://dc.lft.to/lastmile_qr_scan", "android": "https://dc.lft.to/lastmile_qr_scan"}, "fusion_lon": 0.0, "lat": 38.904424, "is_disabled": 0, "bike_id": "cf3b9df7281dbd3fc4730fcbf218e472", "fusion_lat": 0.0, "is_reserved": 0, "lon": -77.0436385}, {"type": "electric_scooter", "name": "68be4fdf511ed92734d7fb4f4aaef2b5", "rental_uris": {"ios": "https://dc.lft.to/lastmile_qr_scan", "android": "https://dc.lft.to/lastmile_qr_scan"}, "fusion_lon": 0.0, "lat": 38.91067983333333, "is_disabled": 0, "bike_id": "68be4fdf511ed92734d7fb4f4aaef2b5", "fusion_lat": 0.0, "is_reserved": 0, "lon": -76.98518966666667}, {"type": "electric_bike", "name": "e284923d9fd4074059d81b7c6fe1c0bc", "rental_uris": {"ios": "https://dc.lft.to/lastmile_qr_scan", "android": "https://dc.lft.to/lastmile_qr_scan"}, "fusion_lon": 0.0, "lat": 38.85520183333333, "is_disabled": 0, "bike_id": "e284923d9fd4074059d81b7c6fe1c0bc", "fusion_lat": 0.0, "is_reserved": 0, "lon": -76.98431116666667}, {"type": "electric_scooter", "name": "8185342540c8592750fa740c00fe6c84", "rental_uris": {"ios": "https://dc.lft.to/lastmile_qr_scan", "android": "https://dc.lft.to/lastmile_qr_scan"}, "fusion_lon": 0.0, "lat": 38.93996, "is_disabled": 0, "bike_id": "8185342540c8592750fa740c00fe6c84", "fusion_lat": 0.0, "is_reserved": 0, "lon": -77.03266233333333}, {"type": "electric_scooter", "name": "1a4acf3f1b7d9ec3de3f86f405237305", "rental_uris": {"ios": "https://dc.lft.to/lastmile_qr_scan", "android": "https://dc.lft.to/lastmile_qr_scan"}, "fusion_lon": 0.0, "lat": 38.91586, "is_disabled": 0, "bike_id": "1a4acf3f1b7d9ec3de3f86f405237305", "fusion_lat": 0.0, "is_reserved": 0, "lon": -77.04595666666667}, {"type": "electric_scooter", "name": "13edd747fc777a3a991b1f44e2bbdf84", "rental_uris": {"ios": "https://dc.lft.to/lastmile_qr_scan", "android": "https://dc.lft.to/lastmile_qr_scan"}, "fusion_lon": 0.0, "lat": 38.90520766666667, "is_disabled": 0, "bike_id": "13edd747fc777a3a991b1f44e2bbdf84", "fusion_lat": 0.0, "is_reserved": 0, "lon": -77.04949633333334}, {"type": "electric_scooter", "name": "6f7ba8135652eb4d9f45d5fee01b2e4b", "rental_uris": {"ios": "https://dc.lft.to/lastmile_qr_scan", "android": "https://dc.lft.to/lastmile_qr_scan"}, "fusion_lon": 0.0, "lat": 38.90638216666667, "is_disabled": 0, "bike_id": "6f7ba8135652eb4d9f45d5fee01b2e4b", "fusion_lat": 0.0, "is_reserved": 0, "lon": -77.04140983333333}, {"type": "electric_scooter", "name": "826527cd969884c53adffb0b495b17ab", "rental_uris": {"ios": "https://dc.lft.to/lastmile_qr_scan", "android": "https://dc.lft.to/lastmile_qr_scan"}, "fusion_lon": 0.0, "lat": 38.887718, "is_disabled": 0, "bike_id": "826527cd969884c53adffb0b495b17ab", "fusion_lat": 0.0, "is_reserved": 0, "lon": -76.97743866666667}, {"type": "electric_scooter", "name": "c532909566de7c18c8e41f88681890a5", "rental_uris": {"ios": "https://dc.lft.to/lastmile_qr_scan", "android": "https://dc.lft.to/lastmile_qr_scan"}, "fusion_lon": 0.0, "lat": 38.88653333333333, "is_disabled": 0, "bike_id": "c532909566de7c18c8e41f88681890a5", "fusion_lat": 0.0, "is_reserved": 0, "lon": -77.02815866666667}, {"type": "electric_scooter", "name": "4636590ec761427c7cc1f4d699e85cc3", "rental_uris": {"ios": "https://dc.lft.to/lastmile_qr_scan", "android": "https://dc.lft.to/lastmile_qr_scan"}, "fusion_lon": 0.0, "lat": 38.898472166666664, "is_disabled": 0, "bike_id": "4636590ec761427c7cc1f4d699e85cc3", "fusion_lat": 0.0, "is_reserved": 0, "lon": -76.946313}, {"type": "electric_bike", "name": "df6d3301cd410dbd04a85de323b6d884", "rental_uris": {"ios": "https://dc.lft.to/lastmile_qr_scan", "android": "https://dc.lft.to/lastmile_qr_scan"}, "fusion_lon": 0.0, "lat": 38.98467216666667, "is_disabled": 0, "bike_id": "df6d3301cd410dbd04a85de323b6d884", "fusion_lat": 0.0, "is_reserved": 0, "lon": -76.9704965}, {"type": "electric_scooter", "name": "c0a1981865f1a82ed2ef89ba9e19fd96", "rental_uris": {"ios": "https://dc.lft.to/lastmile_qr_scan", "android": "https://dc.lft.to/lastmile_qr_scan"}, "fusion_lon": 0.0, "lat": 38.8913585, "is_disabled": 0, "bike_id": "c0a1981865f1a82ed2ef89ba9e19fd96", "fusion_lat": 0.0, "is_reserved": 0, "lon": -76.990978}, {"type": "electric_scooter", "name": "352eb02e2419e225c09b76252f52a5eb", "rental_uris": {"ios": "https://dc.lft.to/lastmile_qr_scan", "android": "https://dc.lft.to/lastmile_qr_scan"}, "fusion_lon": 0.0, "lat": 38.9287735, "is_disabled": 0, "bike_id": "352eb02e2419e225c09b76252f52a5eb", "fusion_lat": 0.0, "is_reserved": 0, "lon": -77.01367733333333}, {"type": "electric_scooter", "name": "d26aad7090e29399fe4b55c77cb27051", "rental_uris": {"ios": "https://dc.lft.to/lastmile_qr_scan", "android": "https://dc.lft.to/lastmile_qr_scan"}, "fusion_lon": 0.0, "lat": 38.93954816666667, "is_disabled": 0, "bike_id": "d26aad7090e29399fe4b55c77cb27051", "fusion_lat": 0.0, "is_reserved": 0, "lon": -77.085941}, {"type": "electric_bike", "name": "81ac9641d0a6230a1fdde911956a318a", "rental_uris": {"ios": "https://dc.lft.to/lastmile_qr_scan", "android": "https://dc.lft.to/lastmile_qr_scan"}, "fusion_lon": 0.0, "lat": 38.798585833333334, "is_disabled": 0, "bike_id": "81ac9641d0a6230a1fdde911956a318a", "fusion_lat": 0.0, "is_reserved": 0, "lon": -77.06307133333334}, {"type": "electric_scooter", "name": "3e57cb09aae74ef299d961ecebc41fb4", "rental_uris": {"ios": "https://dc.lft.to/lastmile_qr_scan", "android": "https://dc.lft.to/lastmile_qr_scan"}, "fusion_lon": 0.0, "lat": 38.90290783333333, "is_disabled": 0, "bike_id": "3e57cb09aae74ef299d961ecebc41fb4", "fusion_lat": 0.0, "is_reserved": 0, "lon": -77.0337555}, {"type": "electric_bike", "name": "fac3dd77e584c6b1add8e6e4f8ba6383", "rental_uris": {"ios": "https://dc.lft.to/lastmile_qr_scan", "android": "https://dc.lft.to/lastmile_qr_scan"}, "fusion_lon": 0.0, "lat": 38.94432166666667, "is_disabled": 0, "bike_id": "fac3dd77e584c6b1add8e6e4f8ba6383", "fusion_lat": 0.0, "is_reserved": 0, "lon": -77.026033}, {"type": "electric_scooter", "name": "687bb1047ce6fb0be054369cbb75ea22", "rental_uris": {"ios": "https://dc.lft.to/lastmile_qr_scan", "android": "https://dc.lft.to/lastmile_qr_scan"}, "fusion_lon": 0.0, "lat": 38.9069925, "is_disabled": 0, "bike_id": "687bb1047ce6fb0be054369cbb75ea22", "fusion_lat": 0.0, "is_reserved": 0, "lon": -77.03595966666667}, {"type": "electric_scooter", "name": "94ce44ab260372bd29f6dedd29143838", "rental_uris": {"ios": "https://dc.lft.to/lastmile_qr_scan", "android": "https://dc.lft.to/lastmile_qr_scan"}, "fusion_lon": 0.0, "lat": 38.90503983333333, "is_disabled": 0, "bike_id": "94ce44ab260372bd29f6dedd29143838", "fusion_lat": 0.0, "is_reserved": 0, "lon": -77.00100583333334}, {"type": "electric_scooter", "name": "518db7efaa556a5a2997d97a005f7a46", "rental_uris": {"ios": "https://dc.lft.to/lastmile_qr_scan", "android": "https://dc.lft.to/lastmile_qr_scan"}, "fusion_lon": 0.0, "lat": 38.88735716666667, "is_disabled": 0, "bike_id": "518db7efaa556a5a2997d97a005f7a46", "fusion_lat": 0.0, "is_reserved": 0, "lon": -77.02827966666666}, {"type": "electric_scooter", "name": "7a83f649f5a8fd929bc733163b7f0da9", "rental_uris": {"ios": "https://dc.lft.to/lastmile_qr_scan", "android": "https://dc.lft.to/lastmile_qr_scan"}, "fusion_lon": 0.0, "lat": 38.910747666666666, "is_disabled": 0, "bike_id": "7a83f649f5a8fd929bc733163b7f0da9", "fusion_lat": 0.0, "is_reserved": 0, "lon": -77.03020716666667}, {"type": "electric_scooter", "name": "37ea876961312fe40aa64c49b3803787", "rental_uris": {"ios": "https://dc.lft.to/lastmile_qr_scan", "android": "https://dc.lft.to/lastmile_qr_scan"}, "fusion_lon": 0.0, "lat": 38.9359335, "is_disabled": 0, "bike_id": "37ea876961312fe40aa64c49b3803787", "fusion_lat": 0.0, "is_reserved": 0, "lon": -77.028547}, {"type": "electric_scooter", "name": "1430b0a04f3f7b874a010817bffb2934", "rental_uris": {"ios": "https://dc.lft.to/lastmile_qr_scan", "android": "https://dc.lft.to/lastmile_qr_scan"}, "fusion_lon": 0.0, "lat": 38.947536166666666, "is_disabled": 0, "bike_id": "1430b0a04f3f7b874a010817bffb2934", "fusion_lat": 0.0, "is_reserved": 0, "lon": -77.00721966666667}, {"type": "electric_scooter", "name": "80fc15b4a01d3ca617a42632e8e8c472", "rental_uris": {"ios": "https://dc.lft.to/lastmile_qr_scan", "android": "https://dc.lft.to/lastmile_qr_scan"}, "fusion_lon": 0.0, "lat": 38.9234455, "is_disabled": 0, "bike_id": "80fc15b4a01d3ca617a42632e8e8c472", "fusion_lat": 0.0, "is_reserved": 0, "lon": -77.05116833333334}, {"type": "electric_scooter", "name": "d8b81806bbd3deee29b2b86bec787ccf", "rental_uris": {"ios": "https://dc.lft.to/lastmile_qr_scan", "android": "https://dc.lft.to/lastmile_qr_scan"}, "fusion_lon": 0.0, "lat": 38.895333, "is_disabled": 0, "bike_id": "d8b81806bbd3deee29b2b86bec787ccf", "fusion_lat": 0.0, "is_reserved": 0, "lon": -76.94887733333333}, {"type": "electric_scooter", "name": "3f1d32e22e4827a15a682418f36b3160", "rental_uris": {"ios": "https://dc.lft.to/lastmile_qr_scan", "android": "https://dc.lft.to/lastmile_qr_scan"}, "fusion_lon": 0.0, "lat": 38.90144266666667, "is_disabled": 0, "bike_id": "3f1d32e22e4827a15a682418f36b3160", "fusion_lat": 0.0, "is_reserved": 0, "lon": -77.04449016666666}, {"type": "electric_scooter", "name": "ffa2b34998a8fc211959cf38eca6e194", "rental_uris": {"ios": "https://dc.lft.to/lastmile_qr_scan", "android": "https://dc.lft.to/lastmile_qr_scan"}, "fusion_lon": 0.0, "lat": 38.91994533333333, "is_disabled": 0, "bike_id": "ffa2b34998a8fc211959cf38eca6e194", "fusion_lat": 0.0, "is_reserved": 0, "lon": -77.02390133333333}, {"type": "electric_bike", "name": "106a50ef9eaf4938e05389347ca17a2c", "rental_uris": {"ios": "https://dc.lft.to/lastmile_qr_scan", "android": "https://dc.lft.to/lastmile_qr_scan"}, "fusion_lon": 0.0, "lat": 38.857760666666664, "is_disabled": 0, "bike_id": "106a50ef9eaf4938e05389347ca17a2c", "fusion_lat": 0.0, "is_reserved": 0, "lon": -76.98760316666667}, {"type": "electric_scooter", "name": "2f24ed1cd8f2851aa471a83b08c10b8c", "rental_uris": {"ios": "https://dc.lft.to/lastmile_qr_scan", "android": "https://dc.lft.to/lastmile_qr_scan"}, "fusion_lon": 0.0, "lat": 38.857981, "is_disabled": 0, "bike_id": "2f24ed1cd8f2851aa471a83b08c10b8c", "fusion_lat": 0.0, "is_reserved": 0, "lon": -76.98910266666667}, {"type": "electric_scooter", "name": "151f978bd93a6cc35e0034d9f86ce632", "rental_uris": {"ios": "https://dc.lft.to/lastmile_qr_scan", "android": "https://dc.lft.to/lastmile_qr_scan"}, "fusion_lon": 0.0, "lat": 38.879936, "is_disabled": 0, "bike_id": "151f978bd93a6cc35e0034d9f86ce632", "fusion_lat": 0.0, "is_reserved": 0, "lon": -77.02411016666667}, {"type": "electric_scooter", "name": "58e63ce11ac689791c1170a7a5eb8d10", "rental_uris": {"ios": "https://dc.lft.to/lastmile_qr_scan", "android": "https://dc.lft.to/lastmile_qr_scan"}, "fusion_lon": 0.0, "lat": 38.917135, "is_disabled": 0, "bike_id": "58e63ce11ac689791c1170a7a5eb8d10", "fusion_lat": 0.0, "is_reserved": 0, "lon": -77.03144033333334}, {"type": "electric_scooter", "name": "be8df885b5ad474e9febf0bd8608237c", "rental_uris": {"ios": "https://dc.lft.to/lastmile_qr_scan", "android": "https://dc.lft.to/lastmile_qr_scan"}, "fusion_lon": 0.0, "lat": 38.9344375, "is_disabled": 0, "bike_id": "be8df885b5ad474e9febf0bd8608237c", "fusion_lat": 0.0, "is_reserved": 0, "lon": -77.03455266666667}, {"type": "electric_bike", "name": "9dfaa40935e1128ddc1a096e7695b03b", "rental_uris": {"ios": "https://dc.lft.to/lastmile_qr_scan", "android": "https://dc.lft.to/lastmile_qr_scan"}, "fusion_lon": 0.0, "lat": 38.94821066666667, "is_disabled": 0, "bike_id": "9dfaa40935e1128ddc1a096e7695b03b", "fusion_lat": 0.0, "is_reserved": 0, "lon": -77.0297495}, {"type": "electric_scooter", "name": "bac97aecf7f90616be22fe6bec223b7f", "rental_uris": {"ios": "https://dc.lft.to/lastmile_qr_scan", "android": "https://dc.lft.to/lastmile_qr_scan"}, "fusion_lon": 0.0, "lat": 38.91917766666667, "is_disabled": 0, "bike_id": "bac97aecf7f90616be22fe6bec223b7f", "fusion_lat": 0.0, "is_reserved": 0, "lon": -77.044651}, {"type": "electric_scooter", "name": "81786fea8c25fced149f1374fc8f0ddd", "rental_uris": {"ios": "https://dc.lft.to/lastmile_qr_scan", "android": "https://dc.lft.to/lastmile_qr_scan"}, "fusion_lon": 0.0, "lat": 38.89709933333334, "is_disabled": 0, "bike_id": "81786fea8c25fced149f1374fc8f0ddd", "fusion_lat": 0.0, "is_reserved": 0, "lon": -77.02289433333333}, {"type": "electric_scooter", "name": "a6fce08530359959d6f1d467e58bd56b", "rental_uris": {"ios": "https://dc.lft.to/lastmile_qr_scan", "android": "https://dc.lft.to/lastmile_qr_scan"}, "fusion_lon": 0.0, "lat": 38.89921266666666, "is_disabled": 0, "bike_id": "a6fce08530359959d6f1d467e58bd56b", "fusion_lat": 0.0, "is_reserved": 0, "lon": -76.98539066666666}, {"type": "electric_scooter", "name": "3a2f48ed93c23fce78a3b613320faf5c", "rental_uris": {"ios": "https://dc.lft.to/lastmile_qr_scan", "android": "https://dc.lft.to/lastmile_qr_scan"}, "fusion_lon": 0.0, "lat": 38.855804166666665, "is_disabled": 0, "bike_id": "3a2f48ed93c23fce78a3b613320faf5c", "fusion_lat": 0.0, "is_reserved": 0, "lon": -76.96653816666667}, {"type": "electric_scooter", "name": "94aee636812a4af99a4a08c219229972", "rental_uris": {"ios": "https://dc.lft.to/lastmile_qr_scan", "android": "https://dc.lft.to/lastmile_qr_scan"}, "fusion_lon": 0.0, "lat": 38.905309833333334, "is_disabled": 0, "bike_id": "94aee636812a4af99a4a08c219229972", "fusion_lat": 0.0, "is_reserved": 0, "lon": -77.04956666666666}, {"type": "electric_scooter", "name": "6d412bffa41a0897682d6fa03f3d15a3", "rental_uris": {"ios": "https://dc.lft.to/lastmile_qr_scan", "android": "https://dc.lft.to/lastmile_qr_scan"}, "fusion_lon": 0.0, "lat": 38.90320966666667, "is_disabled": 0, "bike_id": "6d412bffa41a0897682d6fa03f3d15a3", "fusion_lat": 0.0, "is_reserved": 0, "lon": -77.04476016666666}, {"type": "electric_scooter", "name": "def05f40dbbdd81a0277b05e485cf8f9", "rental_uris": {"ios": "https://dc.lft.to/lastmile_qr_scan", "android": "https://dc.lft.to/lastmile_qr_scan"}, "fusion_lon": 0.0, "lat": 38.9325255, "is_disabled": 0, "bike_id": "def05f40dbbdd81a0277b05e485cf8f9", "fusion_lat": 0.0, "is_reserved": 0, "lon": -77.03853}, {"type": "electric_scooter", "name": "169f5b9e5a8185a2b5f85463f9a20768", "rental_uris": {"ios": "https://dc.lft.to/lastmile_qr_scan", "android": "https://dc.lft.to/lastmile_qr_scan"}, "fusion_lon": 0.0, "lat": 38.92368866666666, "is_disabled": 0, "bike_id": "169f5b9e5a8185a2b5f85463f9a20768", "fusion_lat": 0.0, "is_reserved": 0, "lon": -77.05028966666667}, {"type": "electric_scooter", "name": "33a88a26df17f4f75594f72676b16fd5", "rental_uris": {"ios": "https://dc.lft.to/lastmile_qr_scan", "android": "https://dc.lft.to/lastmile_qr_scan"}, "fusion_lon": 0.0, "lat": 38.8559895, "is_disabled": 0, "bike_id": "33a88a26df17f4f75594f72676b16fd5", "fusion_lat": 0.0, "is_reserved": 0, "lon": -76.97269416666667}, {"type": "electric_scooter", "name": "30c7237f2fd065960231b5151d8b02b3", "rental_uris": {"ios": "https://dc.lft.to/lastmile_qr_scan", "android": "https://dc.lft.to/lastmile_qr_scan"}, "fusion_lon": 0.0, "lat": 38.88135416666667, "is_disabled": 0, "bike_id": "30c7237f2fd065960231b5151d8b02b3", "fusion_lat": 0.0, "is_reserved": 0, "lon": -77.02702983333333}, {"type": "electric_scooter", "name": "33ab4090a63aac057f523edd7cf05cf7", "rental_uris": {"ios": "https://dc.lft.to/lastmile_qr_scan", "android": "https://dc.lft.to/lastmile_qr_scan"}, "fusion_lon": 0.0, "lat": 38.92269616666667, "is_disabled": 0, "bike_id": "33ab4090a63aac057f523edd7cf05cf7", "fusion_lat": 0.0, "is_reserved": 0, "lon": -77.032656}, {"type": "electric_scooter", "name": "bdfbf19ecf0560939476f5e0da094c59", "rental_uris": {"ios": "https://dc.lft.to/lastmile_qr_scan", "android": "https://dc.lft.to/lastmile_qr_scan"}, "fusion_lon": 0.0, "lat": 38.909786, "is_disabled": 0, "bike_id": "bdfbf19ecf0560939476f5e0da094c59", "fusion_lat": 0.0, "is_reserved": 0, "lon": -77.0343865}, {"type": "electric_scooter", "name": "fb744422ac87f58a4f3c0bcb84b01fe8", "rental_uris": {"ios": "https://dc.lft.to/lastmile_qr_scan", "android": "https://dc.lft.to/lastmile_qr_scan"}, "fusion_lon": 0.0, "lat": 38.90145533333333, "is_disabled": 0, "bike_id": "fb744422ac87f58a4f3c0bcb84b01fe8", "fusion_lat": 0.0, "is_reserved": 0, "lon": -77.0463245}, {"type": "electric_scooter", "name": "256f4a2061311c12586c148b293bad52", "rental_uris": {"ios": "https://dc.lft.to/lastmile_qr_scan", "android": "https://dc.lft.to/lastmile_qr_scan"}, "fusion_lon": 0.0, "lat": 38.8923915, "is_disabled": 0, "bike_id": "256f4a2061311c12586c148b293bad52", "fusion_lat": 0.0, "is_reserved": 0, "lon": -77.04871766666666}, {"type": "electric_scooter", "name": "dc8e77e7295ef9e5004876e206e6b55c", "rental_uris": {"ios": "https://dc.lft.to/lastmile_qr_scan", "android": "https://dc.lft.to/lastmile_qr_scan"}, "fusion_lon": 0.0, "lat": 38.90229983333333, "is_disabled": 0, "bike_id": "dc8e77e7295ef9e5004876e206e6b55c", "fusion_lat": 0.0, "is_reserved": 0, "lon": -77.04754233333334}, {"type": "electric_scooter", "name": "22e18a8656bab9c8e1626915dbe360cd", "rental_uris": {"ios": "https://dc.lft.to/lastmile_qr_scan", "android": "https://dc.lft.to/lastmile_qr_scan"}, "fusion_lon": 0.0, "lat": 38.901476, "is_disabled": 0, "bike_id": "22e18a8656bab9c8e1626915dbe360cd", "fusion_lat": 0.0, "is_reserved": 0, "lon": -77.0347225}, {"type": "electric_scooter", "name": "bb807c9db954448451f5038ee5d26ef0", "rental_uris": {"ios": "https://dc.lft.to/lastmile_qr_scan", "android": "https://dc.lft.to/lastmile_qr_scan"}, "fusion_lon": 0.0, "lat": 38.90980183333333, "is_disabled": 0, "bike_id": "bb807c9db954448451f5038ee5d26ef0", "fusion_lat": 0.0, "is_reserved": 0, "lon": -77.03442666666666}, {"type": "electric_scooter", "name": "24bdb23c1a10e38bc53b1845d5e21cf5", "rental_uris": {"ios": "https://dc.lft.to/lastmile_qr_scan", "android": "https://dc.lft.to/lastmile_qr_scan"}, "fusion_lon": 0.0, "lat": 38.8987095, "is_disabled": 0, "bike_id": "24bdb23c1a10e38bc53b1845d5e21cf5", "fusion_lat": 0.0, "is_reserved": 0, "lon": -77.02031766666667}, {"type": "electric_scooter", "name": "cc36658d03aa99a9947bec756bd9d0e0", "rental_uris": {"ios": "https://dc.lft.to/lastmile_qr_scan", "android": "https://dc.lft.to/lastmile_qr_scan"}, "fusion_lon": 0.0, "lat": 38.89826716666666, "is_disabled": 0, "bike_id": "cc36658d03aa99a9947bec756bd9d0e0", "fusion_lat": 0.0, "is_reserved": 0, "lon": -77.04825433333333}, {"type": "electric_scooter", "name": "319146fd8fedb68bded12a29cee84856", "rental_uris": {"ios": "https://dc.lft.to/lastmile_qr_scan", "android": "https://dc.lft.to/lastmile_qr_scan"}, "fusion_lon": 0.0, "lat": 38.90519333333334, "is_disabled": 0, "bike_id": "319146fd8fedb68bded12a29cee84856", "fusion_lat": 0.0, "is_reserved": 0, "lon": -77.04154583333333}, {"type": "electric_scooter", "name": "4b77d598362932f2646f7890f931b342", "rental_uris": {"ios": "https://dc.lft.to/lastmile_qr_scan", "android": "https://dc.lft.to/lastmile_qr_scan"}, "fusion_lon": 0.0, "lat": 38.94966466666666, "is_disabled": 0, "bike_id": "4b77d598362932f2646f7890f931b342", "fusion_lat": 0.0, "is_reserved": 0, "lon": -77.07527733333333}, {"type": "electric_scooter", "name": "ab48d9aad681413169077caa9eaac4e9", "rental_uris": {"ios": "https://dc.lft.to/lastmile_qr_scan", "android": "https://dc.lft.to/lastmile_qr_scan"}, "fusion_lon": 0.0, "lat": 38.93471266666667, "is_disabled": 0, "bike_id": "ab48d9aad681413169077caa9eaac4e9", "fusion_lat": 0.0, "is_reserved": 0, "lon": -77.02971916666667}, {"type": "electric_scooter", "name": "4db71a1c19452d7a1a4f0e167acd19be", "rental_uris": {"ios": "https://dc.lft.to/lastmile_qr_scan", "android": "https://dc.lft.to/lastmile_qr_scan"}, "fusion_lon": 0.0, "lat": 38.884013, "is_disabled": 0, "bike_id": "4db71a1c19452d7a1a4f0e167acd19be", "fusion_lat": 0.0, "is_reserved": 0, "lon": -76.93044633333334}, {"type": "electric_scooter", "name": "8a507d2f8d2ac1f27a74583dc5d69d1b", "rental_uris": {"ios": "https://dc.lft.to/lastmile_qr_scan", "android": "https://dc.lft.to/lastmile_qr_scan"}, "fusion_lon": 0.0, "lat": 38.909878, "is_disabled": 0, "bike_id": "8a507d2f8d2ac1f27a74583dc5d69d1b", "fusion_lat": 0.0, "is_reserved": 0, "lon": -77.026924}, {"type": "electric_scooter", "name": "8e5f6c1c3e8d276703cc7137572076ee", "rental_uris": {"ios": "https://dc.lft.to/lastmile_qr_scan", "android": "https://dc.lft.to/lastmile_qr_scan"}, "fusion_lon": 0.0, "lat": 38.922500166666666, "is_disabled": 0, "bike_id": "8e5f6c1c3e8d276703cc7137572076ee", "fusion_lat": 0.0, "is_reserved": 0, "lon": -77.080782}, {"type": "electric_scooter", "name": "2c2b98677747a812f6338c1616cf9476", "rental_uris": {"ios": "https://dc.lft.to/lastmile_qr_scan", "android": "https://dc.lft.to/lastmile_qr_scan"}, "fusion_lon": 0.0, "lat": 38.94185933333333, "is_disabled": 0, "bike_id": "2c2b98677747a812f6338c1616cf9476", "fusion_lat": 0.0, "is_reserved": 0, "lon": -77.02407066666666}, {"type": "electric_scooter", "name": "ecf3b2c57301ff95578429bcb7d7a7dc", "rental_uris": {"ios": "https://dc.lft.to/lastmile_qr_scan", "android": "https://dc.lft.to/lastmile_qr_scan"}, "fusion_lon": 0.0, "lat": 38.905109333333336, "is_disabled": 0, "bike_id": "ecf3b2c57301ff95578429bcb7d7a7dc", "fusion_lat": 0.0, "is_reserved": 0, "lon": -77.01981183333334}, {"type": "electric_scooter", "name": "4a53807b179a91a148b63c245c132ff3", "rental_uris": {"ios": "https://dc.lft.to/lastmile_qr_scan", "android": "https://dc.lft.to/lastmile_qr_scan"}, "fusion_lon": 0.0, "lat": 38.90177416666667, "is_disabled": 0, "bike_id": "4a53807b179a91a148b63c245c132ff3", "fusion_lat": 0.0, "is_reserved": 0, "lon": -77.016206}, {"type": "electric_scooter", "name": "a227eb11bfb669e1e0609b34ce3fe35e", "rental_uris": {"ios": "https://dc.lft.to/lastmile_qr_scan", "android": "https://dc.lft.to/lastmile_qr_scan"}, "fusion_lon": 0.0, "lat": 38.90429816666666, "is_disabled": 0, "bike_id": "a227eb11bfb669e1e0609b34ce3fe35e", "fusion_lat": 0.0, "is_reserved": 0, "lon": -77.0240505}, {"type": "electric_scooter", "name": "0a5b978fa229279da0619fede3d356fc", "rental_uris": {"ios": "https://dc.lft.to/lastmile_qr_scan", "android": "https://dc.lft.to/lastmile_qr_scan"}, "fusion_lon": 0.0, "lat": 38.91307416666667, "is_disabled": 0, "bike_id": "0a5b978fa229279da0619fede3d356fc", "fusion_lat": 0.0, "is_reserved": 0, "lon": -77.0319675}, {"type": "electric_scooter", "name": "615a877980dd39b9552d2a7889b08b3a", "rental_uris": {"ios": "https://dc.lft.to/lastmile_qr_scan", "android": "https://dc.lft.to/lastmile_qr_scan"}, "fusion_lon": 0.0, "lat": 38.904120666666664, "is_disabled": 0, "bike_id": "615a877980dd39b9552d2a7889b08b3a", "fusion_lat": 0.0, "is_reserved": 0, "lon": -76.97329183333333}, {"type": "electric_scooter", "name": "8595520f3d154f5d7cbc9a01dfeac1bc", "rental_uris": {"ios": "https://dc.lft.to/lastmile_qr_scan", "android": "https://dc.lft.to/lastmile_qr_scan"}, "fusion_lon": 0.0, "lat": 38.884881166666666, "is_disabled": 0, "bike_id": "8595520f3d154f5d7cbc9a01dfeac1bc", "fusion_lat": 0.0, "is_reserved": 0, "lon": -77.007082}, {"type": "electric_scooter", "name": "221d13b2f8fc027da7d5c6fd1d6ac7b9", "rental_uris": {"ios": "https://dc.lft.to/lastmile_qr_scan", "android": "https://dc.lft.to/lastmile_qr_scan"}, "fusion_lon": 0.0, "lat": 38.90528583333333, "is_disabled": 0, "bike_id": "221d13b2f8fc027da7d5c6fd1d6ac7b9", "fusion_lat": 0.0, "is_reserved": 0, "lon": -77.06309816666666}, {"type": "electric_scooter", "name": "41445e8cecc159f04e62e041a0bd04d0", "rental_uris": {"ios": "https://dc.lft.to/lastmile_qr_scan", "android": "https://dc.lft.to/lastmile_qr_scan"}, "fusion_lon": 0.0, "lat": 38.90256883333333, "is_disabled": 0, "bike_id": "41445e8cecc159f04e62e041a0bd04d0", "fusion_lat": 0.0, "is_reserved": 0, "lon": -77.035188}, {"type": "electric_scooter", "name": "a7f989ccf5f0462841f5ee902f05a07e", "rental_uris": {"ios": "https://dc.lft.to/lastmile_qr_scan", "android": "https://dc.lft.to/lastmile_qr_scan"}, "fusion_lon": 0.0, "lat": 38.89729633333334, "is_disabled": 0, "bike_id": "a7f989ccf5f0462841f5ee902f05a07e", "fusion_lat": 0.0, "is_reserved": 0, "lon": -77.04852533333333}, {"type": "electric_bike", "name": "d1e60ede9322008ad4c62de8b24369b7", "rental_uris": {"ios": "https://dc.lft.to/lastmile_qr_scan", "android": "https://dc.lft.to/lastmile_qr_scan"}, "fusion_lon": 0.0, "lat": 38.9877185, "is_disabled": 0, "bike_id": "d1e60ede9322008ad4c62de8b24369b7", "fusion_lat": 0.0, "is_reserved": 0, "lon": -77.14051816666667}, {"type": "electric_scooter", "name": "2b9499dcec402017b3bdd8489304a389", "rental_uris": {"ios": "https://dc.lft.to/lastmile_qr_scan", "android": "https://dc.lft.to/lastmile_qr_scan"}, "fusion_lon": 0.0, "lat": 38.9058575, "is_disabled": 0, "bike_id": "2b9499dcec402017b3bdd8489304a389", "fusion_lat": 0.0, "is_reserved": 0, "lon": -77.02211833333334}, {"type": "electric_scooter", "name": "ff4081e182c30658954af96992e4ebe8", "rental_uris": {"ios": "https://dc.lft.to/lastmile_qr_scan", "android": "https://dc.lft.to/lastmile_qr_scan"}, "fusion_lon": 0.0, "lat": 38.9156425, "is_disabled": 0, "bike_id": "ff4081e182c30658954af96992e4ebe8", "fusion_lat": 0.0, "is_reserved": 0, "lon": -77.03851966666667}, {"type": "electric_scooter", "name": "e0cc9be396a00db6e55b4eaf6fdd2c0e", "rental_uris": {"ios": "https://dc.lft.to/lastmile_qr_scan", "android": "https://dc.lft.to/lastmile_qr_scan"}, "fusion_lon": 0.0, "lat": 38.9427325, "is_disabled": 0, "bike_id": "e0cc9be396a00db6e55b4eaf6fdd2c0e", "fusion_lat": 0.0, "is_reserved": 0, "lon": -77.03254816666667}, {"type": "electric_scooter", "name": "9e225e0de666d2099e1b18c6a6430d02", "rental_uris": {"ios": "https://dc.lft.to/lastmile_qr_scan", "android": "https://dc.lft.to/lastmile_qr_scan"}, "fusion_lon": 0.0, "lat": 38.920672833333334, "is_disabled": 0, "bike_id": "9e225e0de666d2099e1b18c6a6430d02", "fusion_lat": 0.0, "is_reserved": 0, "lon": -77.03797616666667}, {"type": "electric_bike", "name": "4dee773e7be25489f963e7be80bd82f3", "rental_uris": {"ios": "https://dc.lft.to/lastmile_qr_scan", "android": "https://dc.lft.to/lastmile_qr_scan"}, "fusion_lon": 0.0, "lat": 38.9097435, "is_disabled": 0, "bike_id": "4dee773e7be25489f963e7be80bd82f3", "fusion_lat": 0.0, "is_reserved": 0, "lon": -77.04524916666666}, {"type": "electric_scooter", "name": "d8d0c1b2f942ec36d8ce250d32a332b3", "rental_uris": {"ios": "https://dc.lft.to/lastmile_qr_scan", "android": "https://dc.lft.to/lastmile_qr_scan"}, "fusion_lon": 0.0, "lat": 38.8724705, "is_disabled": 0, "bike_id": "d8d0c1b2f942ec36d8ce250d32a332b3", "fusion_lat": 0.0, "is_reserved": 0, "lon": -76.97727383333333}, {"type": "electric_scooter", "name": "e307a214ca4cd988e7d570a661b7fca7", "rental_uris": {"ios": "https://dc.lft.to/lastmile_qr_scan", "android": "https://dc.lft.to/lastmile_qr_scan"}, "fusion_lon": 0.0, "lat": 38.92467666666667, "is_disabled": 0, "bike_id": "e307a214ca4cd988e7d570a661b7fca7", "fusion_lat": 0.0, "is_reserved": 0, "lon": -77.05234616666667}, {"type": "electric_scooter", "name": "d3af2370775de8a3ad9445942ff29c65", "rental_uris": {"ios": "https://dc.lft.to/lastmile_qr_scan", "android": "https://dc.lft.to/lastmile_qr_scan"}, "fusion_lon": 0.0, "lat": 38.909782666666665, "is_disabled": 0, "bike_id": "d3af2370775de8a3ad9445942ff29c65", "fusion_lat": 0.0, "is_reserved": 0, "lon": -77.03439316666666}, {"type": "electric_scooter", "name": "208824ed913c24d95304cf4602218976", "rental_uris": {"ios": "https://dc.lft.to/lastmile_qr_scan", "android": "https://dc.lft.to/lastmile_qr_scan"}, "fusion_lon": 0.0, "lat": 38.898067, "is_disabled": 0, "bike_id": "208824ed913c24d95304cf4602218976", "fusion_lat": 0.0, "is_reserved": 0, "lon": -77.0317175}, {"type": "electric_scooter", "name": "6f26caaf44407f3fce851e89f67e54eb", "rental_uris": {"ios": "https://dc.lft.to/lastmile_qr_scan", "android": "https://dc.lft.to/lastmile_qr_scan"}, "fusion_lon": 0.0, "lat": 38.9131615, "is_disabled": 0, "bike_id": "6f26caaf44407f3fce851e89f67e54eb", "fusion_lat": 0.0, "is_reserved": 0, "lon": -77.01512566666666}, {"type": "electric_scooter", "name": "efdd083859d8af7a44eea5e3fc97b95e", "rental_uris": {"ios": "https://dc.lft.to/lastmile_qr_scan", "android": "https://dc.lft.to/lastmile_qr_scan"}, "fusion_lon": 0.0, "lat": 38.908617, "is_disabled": 0, "bike_id": "efdd083859d8af7a44eea5e3fc97b95e", "fusion_lat": 0.0, "is_reserved": 0, "lon": -76.99794366666667}, {"type": "electric_scooter", "name": "105fbd9e47119fc97d3354da22a2dddb", "rental_uris": {"ios": "https://dc.lft.to/lastmile_qr_scan", "android": "https://dc.lft.to/lastmile_qr_scan"}, "fusion_lon": 0.0, "lat": 38.90261316666667, "is_disabled": 0, "bike_id": "105fbd9e47119fc97d3354da22a2dddb", "fusion_lat": 0.0, "is_reserved": 0, "lon": -76.97457133333333}, {"type": "electric_scooter", "name": "3289be3e86721b48f2165744284488d5", "rental_uris": {"ios": "https://dc.lft.to/lastmile_qr_scan", "android": "https://dc.lft.to/lastmile_qr_scan"}, "fusion_lon": 0.0, "lat": 38.90779916666666, "is_disabled": 0, "bike_id": "3289be3e86721b48f2165744284488d5", "fusion_lat": 0.0, "is_reserved": 0, "lon": -77.039928}, {"type": "electric_scooter", "name": "dd7417174493dd3ca9dee4b40daf3c19", "rental_uris": {"ios": "https://dc.lft.to/lastmile_qr_scan", "android": "https://dc.lft.to/lastmile_qr_scan"}, "fusion_lon": 0.0, "lat": 38.90410466666667, "is_disabled": 0, "bike_id": "dd7417174493dd3ca9dee4b40daf3c19", "fusion_lat": 0.0, "is_reserved": 0, "lon": -76.97331616666666}, {"type": "electric_scooter", "name": "c7b680d103753ac88310b853a17bc987", "rental_uris": {"ios": "https://dc.lft.to/lastmile_qr_scan", "android": "https://dc.lft.to/lastmile_qr_scan"}, "fusion_lon": 0.0, "lat": 38.917168833333335, "is_disabled": 0, "bike_id": "c7b680d103753ac88310b853a17bc987", "fusion_lat": 0.0, "is_reserved": 0, "lon": -77.03474316666667}, {"type": "electric_scooter", "name": "eabacf8ffee69699eeca35a8879d5449", "rental_uris": {"ios": "https://dc.lft.to/lastmile_qr_scan", "android": "https://dc.lft.to/lastmile_qr_scan"}, "fusion_lon": 0.0, "lat": 38.915634833333336, "is_disabled": 0, "bike_id": "eabacf8ffee69699eeca35a8879d5449", "fusion_lat": 0.0, "is_reserved": 0, "lon": -77.03849383333333}, {"type": "electric_scooter", "name": "58293e881ad15b4f7427bd3bb9cde42d", "rental_uris": {"ios": "https://dc.lft.to/lastmile_qr_scan", "android": "https://dc.lft.to/lastmile_qr_scan"}, "fusion_lon": 0.0, "lat": 38.92885916666667, "is_disabled": 0, "bike_id": "58293e881ad15b4f7427bd3bb9cde42d", "fusion_lat": 0.0, "is_reserved": 0, "lon": -77.02705533333334}, {"type": "electric_scooter", "name": "a5535934d269fa2c82774709b12bd718", "rental_uris": {"ios": "https://dc.lft.to/lastmile_qr_scan", "android": "https://dc.lft.to/lastmile_qr_scan"}, "fusion_lon": 0.0, "lat": 38.90802583333333, "is_disabled": 0, "bike_id": "a5535934d269fa2c82774709b12bd718", "fusion_lat": 0.0, "is_reserved": 0, "lon": -77.04356183333333}, {"type": "electric_scooter", "name": "9f42a45d2335f8ff85a9af88dfc3105a", "rental_uris": {"ios": "https://dc.lft.to/lastmile_qr_scan", "android": "https://dc.lft.to/lastmile_qr_scan"}, "fusion_lon": 0.0, "lat": 38.900809333333335, "is_disabled": 0, "bike_id": "9f42a45d2335f8ff85a9af88dfc3105a", "fusion_lat": 0.0, "is_reserved": 0, "lon": -77.02372816666667}, {"type": "electric_scooter", "name": "3de1f45e2cac947cb0c91baa597b38f8", "rental_uris": {"ios": "https://dc.lft.to/lastmile_qr_scan", "android": "https://dc.lft.to/lastmile_qr_scan"}, "fusion_lon": 0.0, "lat": 38.90503183333333, "is_disabled": 0, "bike_id": "3de1f45e2cac947cb0c91baa597b38f8", "fusion_lat": 0.0, "is_reserved": 0, "lon": -77.05815533333333}, {"type": "electric_scooter", "name": "cfd1b2756ac4bf38626604e227cd9270", "rental_uris": {"ios": "https://dc.lft.to/lastmile_qr_scan", "android": "https://dc.lft.to/lastmile_qr_scan"}, "fusion_lon": 0.0, "lat": 38.9260495, "is_disabled": 0, "bike_id": "cfd1b2756ac4bf38626604e227cd9270", "fusion_lat": 0.0, "is_reserved": 0, "lon": -77.02151633333334}, {"type": "electric_scooter", "name": "14edecaf0868daf11e1c7d54cae55f6f", "rental_uris": {"ios": "https://dc.lft.to/lastmile_qr_scan", "android": "https://dc.lft.to/lastmile_qr_scan"}, "fusion_lon": 0.0, "lat": 38.903142, "is_disabled": 0, "bike_id": "14edecaf0868daf11e1c7d54cae55f6f", "fusion_lat": 0.0, "is_reserved": 0, "lon": -77.043472}, {"type": "electric_scooter", "name": "239bbd8e3862c6ab271ab0d7546d35bf", "rental_uris": {"ios": "https://dc.lft.to/lastmile_qr_scan", "android": "https://dc.lft.to/lastmile_qr_scan"}, "fusion_lon": 0.0, "lat": 38.92421383333333, "is_disabled": 0, "bike_id": "239bbd8e3862c6ab271ab0d7546d35bf", "fusion_lat": 0.0, "is_reserved": 0, "lon": -77.0200715}, {"type": "electric_scooter", "name": "fb116407bc69e66f45993d123333b693", "rental_uris": {"ios": "https://dc.lft.to/lastmile_qr_scan", "android": "https://dc.lft.to/lastmile_qr_scan"}, "fusion_lon": 0.0, "lat": 38.91913366666667, "is_disabled": 0, "bike_id": "fb116407bc69e66f45993d123333b693", "fusion_lat": 0.0, "is_reserved": 0, "lon": -77.03176883333333}, {"type": "electric_scooter", "name": "0a745c0cbf0a511b0ab2ee6a33adac26", "rental_uris": {"ios": "https://dc.lft.to/lastmile_qr_scan", "android": "https://dc.lft.to/lastmile_qr_scan"}, "fusion_lon": 0.0, "lat": 38.883213166666664, "is_disabled": 0, "bike_id": "0a745c0cbf0a511b0ab2ee6a33adac26", "fusion_lat": 0.0, "is_reserved": 0, "lon": -77.01767583333333}, {"type": "electric_scooter", "name": "de7e9d6b1eb2b432f7efa10c53e008a6", "rental_uris": {"ios": "https://dc.lft.to/lastmile_qr_scan", "android": "https://dc.lft.to/lastmile_qr_scan"}, "fusion_lon": 0.0, "lat": 38.907229, "is_disabled": 0, "bike_id": "de7e9d6b1eb2b432f7efa10c53e008a6", "fusion_lat": 0.0, "is_reserved": 0, "lon": -77.034366}, {"type": "electric_scooter", "name": "a007396d18942dddf6fa8ec384f43823", "rental_uris": {"ios": "https://dc.lft.to/lastmile_qr_scan", "android": "https://dc.lft.to/lastmile_qr_scan"}, "fusion_lon": 0.0, "lat": 38.91841333333333, "is_disabled": 0, "bike_id": "a007396d18942dddf6fa8ec384f43823", "fusion_lat": 0.0, "is_reserved": 0, "lon": -77.048316}, {"type": "electric_scooter", "name": "8341784ef6218b603f08b27230bc5690", "rental_uris": {"ios": "https://dc.lft.to/lastmile_qr_scan", "android": "https://dc.lft.to/lastmile_qr_scan"}, "fusion_lon": 0.0, "lat": 38.879279, "is_disabled": 0, "bike_id": "8341784ef6218b603f08b27230bc5690", "fusion_lat": 0.0, "is_reserved": 0, "lon": -77.00389433333333}, {"type": "electric_scooter", "name": "5c806347a5e14c57ee7a1853d0474846", "rental_uris": {"ios": "https://dc.lft.to/lastmile_qr_scan", "android": "https://dc.lft.to/lastmile_qr_scan"}, "fusion_lon": 0.0, "lat": 38.960848166666665, "is_disabled": 0, "bike_id": "5c806347a5e14c57ee7a1853d0474846", "fusion_lat": 0.0, "is_reserved": 0, "lon": -77.02885683333334}, {"type": "electric_bike", "name": "f3de54556c3985b5690d9bd3fbd1518a", "rental_uris": {"ios": "https://dc.lft.to/lastmile_qr_scan", "android": "https://dc.lft.to/lastmile_qr_scan"}, "fusion_lon": 0.0, "lat": 38.82179933333333, "is_disabled": 0, "bike_id": "f3de54556c3985b5690d9bd3fbd1518a", "fusion_lat": 0.0, "is_reserved": 0, "lon": -76.99511616666666}, {"type": "electric_scooter", "name": "ab2396f7b3fdd4a2ae1f58fe1be89ab3", "rental_uris": {"ios": "https://dc.lft.to/lastmile_qr_scan", "android": "https://dc.lft.to/lastmile_qr_scan"}, "fusion_lon": 0.0, "lat": 38.91042816666667, "is_disabled": 0, "bike_id": "ab2396f7b3fdd4a2ae1f58fe1be89ab3", "fusion_lat": 0.0, "is_reserved": 0, "lon": -76.997836}, {"type": "electric_bike", "name": "46603111fa62d9428c5469dfbd9e3eb6", "rental_uris": {"ios": "https://dc.lft.to/lastmile_qr_scan", "android": "https://dc.lft.to/lastmile_qr_scan"}, "fusion_lon": 0.0, "lat": 38.9243155, "is_disabled": 0, "bike_id": "46603111fa62d9428c5469dfbd9e3eb6", "fusion_lat": 0.0, "is_reserved": 0, "lon": -77.043242}, {"type": "electric_scooter", "name": "800768ae144bd82eeb36d1690f441cbb", "rental_uris": {"ios": "https://dc.lft.to/lastmile_qr_scan", "android": "https://dc.lft.to/lastmile_qr_scan"}, "fusion_lon": 0.0, "lat": 38.887407333333336, "is_disabled": 0, "bike_id": "800768ae144bd82eeb36d1690f441cbb", "fusion_lat": 0.0, "is_reserved": 0, "lon": -77.03160816666667}, {"type": "electric_scooter", "name": "6a5e4fecd8d0e167dfc2c826b4ecddee", "rental_uris": {"ios": "https://dc.lft.to/lastmile_qr_scan", "android": "https://dc.lft.to/lastmile_qr_scan"}, "fusion_lon": 0.0, "lat": 38.88707516666667, "is_disabled": 0, "bike_id": "6a5e4fecd8d0e167dfc2c826b4ecddee", "fusion_lat": 0.0, "is_reserved": 0, "lon": -77.00242566666667}, {"type": "electric_scooter", "name": "f239d38d089502cf74857a8b7dec958f", "rental_uris": {"ios": "https://dc.lft.to/lastmile_qr_scan", "android": "https://dc.lft.to/lastmile_qr_scan"}, "fusion_lon": 0.0, "lat": 38.898333, "is_disabled": 0, "bike_id": "f239d38d089502cf74857a8b7dec958f", "fusion_lat": 0.0, "is_reserved": 0, "lon": -76.94629966666666}, {"type": "electric_scooter", "name": "e8dbbfb11722658fb554959a8d573f60", "rental_uris": {"ios": "https://dc.lft.to/lastmile_qr_scan", "android": "https://dc.lft.to/lastmile_qr_scan"}, "fusion_lon": 0.0, "lat": 38.87957183333333, "is_disabled": 0, "bike_id": "e8dbbfb11722658fb554959a8d573f60", "fusion_lat": 0.0, "is_reserved": 0, "lon": -76.9901455}, {"type": "electric_bike", "name": "cb0d90e4783db2a4cf5414770dc34c38", "rental_uris": {"ios": "https://dc.lft.to/lastmile_qr_scan", "android": "https://dc.lft.to/lastmile_qr_scan"}, "fusion_lon": 0.0, "lat": 38.852524833333334, "is_disabled": 0, "bike_id": "cb0d90e4783db2a4cf5414770dc34c38", "fusion_lat": 0.0, "is_reserved": 0, "lon": -77.10784933333333}, {"type": "electric_bike", "name": "658e895967950def5318eb88152ada87", "rental_uris": {"ios": "https://dc.lft.to/lastmile_qr_scan", "android": "https://dc.lft.to/lastmile_qr_scan"}, "fusion_lon": 0.0, "lat": 38.80456733333333, "is_disabled": 0, "bike_id": "658e895967950def5318eb88152ada87", "fusion_lat": 0.0, "is_reserved": 0, "lon": -77.053939}, {"type": "electric_scooter", "name": "166660d328eec9803fe0594c10185324", "rental_uris": {"ios": "https://dc.lft.to/lastmile_qr_scan", "android": "https://dc.lft.to/lastmile_qr_scan"}, "fusion_lon": 0.0, "lat": 38.89901166666667, "is_disabled": 0, "bike_id": "166660d328eec9803fe0594c10185324", "fusion_lat": 0.0, "is_reserved": 0, "lon": -77.0328165}, {"type": "electric_scooter", "name": "4a433de099e4c45888d5f52da39a0b63", "rental_uris": {"ios": "https://dc.lft.to/lastmile_qr_scan", "android": "https://dc.lft.to/lastmile_qr_scan"}, "fusion_lon": 0.0, "lat": 38.9074885, "is_disabled": 0, "bike_id": "4a433de099e4c45888d5f52da39a0b63", "fusion_lat": 0.0, "is_reserved": 0, "lon": -77.04341316666667}, {"type": "electric_scooter", "name": "1c6a134d39bbff2579135e3c740120f9", "rental_uris": {"ios": "https://dc.lft.to/lastmile_qr_scan", "android": "https://dc.lft.to/lastmile_qr_scan"}, "fusion_lon": 0.0, "lat": 38.9009115, "is_disabled": 0, "bike_id": "1c6a134d39bbff2579135e3c740120f9", "fusion_lat": 0.0, "is_reserved": 0, "lon": -77.05004116666667}, {"type": "electric_scooter", "name": "f22dc657bf67b2a732c2585ab30e8ffa", "rental_uris": {"ios": "https://dc.lft.to/lastmile_qr_scan", "android": "https://dc.lft.to/lastmile_qr_scan"}, "fusion_lon": 0.0, "lat": 38.89270583333333, "is_disabled": 0, "bike_id": "f22dc657bf67b2a732c2585ab30e8ffa", "fusion_lat": 0.0, "is_reserved": 0, "lon": -77.003529}, {"type": "electric_scooter", "name": "dcb5b8aba90acd88c9a8808dbc99bf8c", "rental_uris": {"ios": "https://dc.lft.to/lastmile_qr_scan", "android": "https://dc.lft.to/lastmile_qr_scan"}, "fusion_lon": 0.0, "lat": 38.897315, "is_disabled": 0, "bike_id": "dcb5b8aba90acd88c9a8808dbc99bf8c", "fusion_lat": 0.0, "is_reserved": 0, "lon": -77.02011333333333}, {"type": "electric_scooter", "name": "6ef2b74ffbacc4c7a9bc8d47fc1f95a1", "rental_uris": {"ios": "https://dc.lft.to/lastmile_qr_scan", "android": "https://dc.lft.to/lastmile_qr_scan"}, "fusion_lon": 0.0, "lat": 38.90672766666667, "is_disabled": 0, "bike_id": "6ef2b74ffbacc4c7a9bc8d47fc1f95a1", "fusion_lat": 0.0, "is_reserved": 0, "lon": -77.02600183333334}, {"type": "electric_scooter", "name": "3dfd90d218598ebe203f43464d58440e", "rental_uris": {"ios": "https://dc.lft.to/lastmile_qr_scan", "android": "https://dc.lft.to/lastmile_qr_scan"}, "fusion_lon": 0.0, "lat": 38.906865333333336, "is_disabled": 0, "bike_id": "3dfd90d218598ebe203f43464d58440e", "fusion_lat": 0.0, "is_reserved": 0, "lon": -77.0613}, {"type": "electric_bike", "name": "8101cc0045762ab76e90bf9455a1fb4e", "rental_uris": {"ios": "https://dc.lft.to/lastmile_qr_scan", "android": "https://dc.lft.to/lastmile_qr_scan"}, "fusion_lon": 0.0, "lat": 38.95741966666667, "is_disabled": 0, "bike_id": "8101cc0045762ab76e90bf9455a1fb4e", "fusion_lat": 0.0, "is_reserved": 0, "lon": -76.97249666666667}, {"type": "electric_bike", "name": "747acfeb840fdb8d81e89420827c90e2", "rental_uris": {"ios": "https://dc.lft.to/lastmile_qr_scan", "android": "https://dc.lft.to/lastmile_qr_scan"}, "fusion_lon": 0.0, "lat": 38.95746333333334, "is_disabled": 0, "bike_id": "747acfeb840fdb8d81e89420827c90e2", "fusion_lat": 0.0, "is_reserved": 0, "lon": -76.97254416666667}, {"type": "electric_scooter", "name": "616d2abc315b8cc0ea2e8e59cc98b90d", "rental_uris": {"ios": "https://dc.lft.to/lastmile_qr_scan", "android": "https://dc.lft.to/lastmile_qr_scan"}, "fusion_lon": 0.0, "lat": 38.9169735, "is_disabled": 0, "bike_id": "616d2abc315b8cc0ea2e8e59cc98b90d", "fusion_lat": 0.0, "is_reserved": 0, "lon": -77.007439}, {"type": "electric_scooter", "name": "98ee767209eb122da09d4e84c2b419d5", "rental_uris": {"ios": "https://dc.lft.to/lastmile_qr_scan", "android": "https://dc.lft.to/lastmile_qr_scan"}, "fusion_lon": 0.0, "lat": 38.902661, "is_disabled": 0, "bike_id": "98ee767209eb122da09d4e84c2b419d5", "fusion_lat": 0.0, "is_reserved": 0, "lon": -77.043653}, {"type": "electric_scooter", "name": "f6cdc244af6f806ec71602f3f2271977", "rental_uris": {"ios": "https://dc.lft.to/lastmile_qr_scan", "android": "https://dc.lft.to/lastmile_qr_scan"}, "fusion_lon": 0.0, "lat": 38.894530833333334, "is_disabled": 0, "bike_id": "f6cdc244af6f806ec71602f3f2271977", "fusion_lat": 0.0, "is_reserved": 0, "lon": -77.02633183333333}, {"type": "electric_bike", "name": "f4d29db316d1bf273ee91f6d423ab27d", "rental_uris": {"ios": "https://dc.lft.to/lastmile_qr_scan", "android": "https://dc.lft.to/lastmile_qr_scan"}, "fusion_lon": 0.0, "lat": 38.92665483333333, "is_disabled": 0, "bike_id": "f4d29db316d1bf273ee91f6d423ab27d", "fusion_lat": 0.0, "is_reserved": 0, "lon": -77.09850216666666}, {"type": "electric_scooter", "name": "c078999858c74db62038ca586e45dd86", "rental_uris": {"ios": "https://dc.lft.to/lastmile_qr_scan", "android": "https://dc.lft.to/lastmile_qr_scan"}, "fusion_lon": 0.0, "lat": 38.91321933333333, "is_disabled": 0, "bike_id": "c078999858c74db62038ca586e45dd86", "fusion_lat": 0.0, "is_reserved": 0, "lon": -77.02957866666667}, {"type": "electric_scooter", "name": "283fb9b3143c1aafc701cc04a373543b", "rental_uris": {"ios": "https://dc.lft.to/lastmile_qr_scan", "android": "https://dc.lft.to/lastmile_qr_scan"}, "fusion_lon": 0.0, "lat": 38.914393833333335, "is_disabled": 0, "bike_id": "283fb9b3143c1aafc701cc04a373543b", "fusion_lat": 0.0, "is_reserved": 0, "lon": -77.02813566666667}, {"type": "electric_scooter", "name": "d1d0ca9d05c4ffdf01e9acb134d24d4f", "rental_uris": {"ios": "https://dc.lft.to/lastmile_qr_scan", "android": "https://dc.lft.to/lastmile_qr_scan"}, "fusion_lon": 0.0, "lat": 38.92292533333333, "is_disabled": 0, "bike_id": "d1d0ca9d05c4ffdf01e9acb134d24d4f", "fusion_lat": 0.0, "is_reserved": 0, "lon": -77.03197633333333}, {"type": "electric_scooter", "name": "cd37c9cf6815da5fa0399d58e573c590", "rental_uris": {"ios": "https://dc.lft.to/lastmile_qr_scan", "android": "https://dc.lft.to/lastmile_qr_scan"}, "fusion_lon": 0.0, "lat": 38.918085166666664, "is_disabled": 0, "bike_id": "cd37c9cf6815da5fa0399d58e573c590", "fusion_lat": 0.0, "is_reserved": 0, "lon": -77.02813733333333}, {"type": "electric_scooter", "name": "7e8b63a5048523e5af4b4ecc49e668ad", "rental_uris": {"ios": "https://dc.lft.to/lastmile_qr_scan", "android": "https://dc.lft.to/lastmile_qr_scan"}, "fusion_lon": 0.0, "lat": 38.917769666666665, "is_disabled": 0, "bike_id": "7e8b63a5048523e5af4b4ecc49e668ad", "fusion_lat": 0.0, "is_reserved": 0, "lon": -77.04106066666667}, {"type": "electric_bike", "name": "6d3048d7b67854200e87bb73ea35bcd9", "rental_uris": {"ios": "https://dc.lft.to/lastmile_qr_scan", "android": "https://dc.lft.to/lastmile_qr_scan"}, "fusion_lon": 0.0, "lat": 38.924589166666664, "is_disabled": 0, "bike_id": "6d3048d7b67854200e87bb73ea35bcd9", "fusion_lat": 0.0, "is_reserved": 0, "lon": -77.06736083333334}, {"type": "electric_scooter", "name": "a1ed34fdbce2632bd6e49968295d1015", "rental_uris": {"ios": "https://dc.lft.to/lastmile_qr_scan", "android": "https://dc.lft.to/lastmile_qr_scan"}, "fusion_lon": 0.0, "lat": 38.905292, "is_disabled": 0, "bike_id": "a1ed34fdbce2632bd6e49968295d1015", "fusion_lat": 0.0, "is_reserved": 0, "lon": -77.04943666666667}, {"type": "electric_scooter", "name": "c2fd20f12c7f9e9635dfe13d89a058ad", "rental_uris": {"ios": "https://dc.lft.to/lastmile_qr_scan", "android": "https://dc.lft.to/lastmile_qr_scan"}, "fusion_lon": 0.0, "lat": 38.887326333333334, "is_disabled": 0, "bike_id": "c2fd20f12c7f9e9635dfe13d89a058ad", "fusion_lat": 0.0, "is_reserved": 0, "lon": -77.025788}, {"type": "electric_scooter", "name": "5c3908c180725519a92a90377095cc08", "rental_uris": {"ios": "https://dc.lft.to/lastmile_qr_scan", "android": "https://dc.lft.to/lastmile_qr_scan"}, "fusion_lon": 0.0, "lat": 38.878708833333334, "is_disabled": 0, "bike_id": "5c3908c180725519a92a90377095cc08", "fusion_lat": 0.0, "is_reserved": 0, "lon": -77.02322083333334}, {"type": "electric_scooter", "name": "b96a76a3a7586e6b227867d4025e50d8", "rental_uris": {"ios": "https://dc.lft.to/lastmile_qr_scan", "android": "https://dc.lft.to/lastmile_qr_scan"}, "fusion_lon": 0.0, "lat": 38.90268783333333, "is_disabled": 0, "bike_id": "b96a76a3a7586e6b227867d4025e50d8", "fusion_lat": 0.0, "is_reserved": 0, "lon": -77.03426783333333}, {"type": "electric_scooter", "name": "6064df99e89f21b191f4b9cf9858f18d", "rental_uris": {"ios": "https://dc.lft.to/lastmile_qr_scan", "android": "https://dc.lft.to/lastmile_qr_scan"}, "fusion_lon": 0.0, "lat": 38.8832905, "is_disabled": 0, "bike_id": "6064df99e89f21b191f4b9cf9858f18d", "fusion_lat": 0.0, "is_reserved": 0, "lon": -77.0177955}, {"type": "electric_scooter", "name": "87578992fdd1880f39efbef7dccc3ee4", "rental_uris": {"ios": "https://dc.lft.to/lastmile_qr_scan", "android": "https://dc.lft.to/lastmile_qr_scan"}, "fusion_lon": 0.0, "lat": 38.95641, "is_disabled": 0, "bike_id": "87578992fdd1880f39efbef7dccc3ee4", "fusion_lat": 0.0, "is_reserved": 0, "lon": -77.03303633333333}, {"type": "electric_scooter", "name": "5c33d90ee58356471898960dcaff0a45", "rental_uris": {"ios": "https://dc.lft.to/lastmile_qr_scan", "android": "https://dc.lft.to/lastmile_qr_scan"}, "fusion_lon": 0.0, "lat": 38.90201666666667, "is_disabled": 0, "bike_id": "5c33d90ee58356471898960dcaff0a45", "fusion_lat": 0.0, "is_reserved": 0, "lon": -77.02721033333333}, {"type": "electric_scooter", "name": "d74572ab1267d89f9b23daa06e5809e9", "rental_uris": {"ios": "https://dc.lft.to/lastmile_qr_scan", "android": "https://dc.lft.to/lastmile_qr_scan"}, "fusion_lon": 0.0, "lat": 38.906626833333334, "is_disabled": 0, "bike_id": "d74572ab1267d89f9b23daa06e5809e9", "fusion_lat": 0.0, "is_reserved": 0, "lon": -77.02704033333333}, {"type": "electric_scooter", "name": "a5edc0c12493c96b46c86f1cbd2f3f5f", "rental_uris": {"ios": "https://dc.lft.to/lastmile_qr_scan", "android": "https://dc.lft.to/lastmile_qr_scan"}, "fusion_lon": 0.0, "lat": 38.8981895, "is_disabled": 0, "bike_id": "a5edc0c12493c96b46c86f1cbd2f3f5f", "fusion_lat": 0.0, "is_reserved": 0, "lon": -77.031761}, {"type": "electric_scooter", "name": "6c16e431281a8cbf4dde5d5312f42644", "rental_uris": {"ios": "https://dc.lft.to/lastmile_qr_scan", "android": "https://dc.lft.to/lastmile_qr_scan"}, "fusion_lon": 0.0, "lat": 38.91118733333333, "is_disabled": 0, "bike_id": "6c16e431281a8cbf4dde5d5312f42644", "fusion_lat": 0.0, "is_reserved": 0, "lon": -77.044587}, {"type": "electric_scooter", "name": "16e0ef515cbd9ec64cc88e29abd2fd7e", "rental_uris": {"ios": "https://dc.lft.to/lastmile_qr_scan", "android": "https://dc.lft.to/lastmile_qr_scan"}, "fusion_lon": 0.0, "lat": 38.9156405, "is_disabled": 0, "bike_id": "16e0ef515cbd9ec64cc88e29abd2fd7e", "fusion_lat": 0.0, "is_reserved": 0, "lon": -77.0262705}, {"type": "electric_scooter", "name": "c41af01055270c96737d501d3d555d39", "rental_uris": {"ios": "https://dc.lft.to/lastmile_qr_scan", "android": "https://dc.lft.to/lastmile_qr_scan"}, "fusion_lon": 0.0, "lat": 38.8943115, "is_disabled": 0, "bike_id": "c41af01055270c96737d501d3d555d39", "fusion_lat": 0.0, "is_reserved": 0, "lon": -77.0010195}, {"type": "electric_bike", "name": "f1a80adb6ffaf2f2c8fac77600aa0d2a", "rental_uris": {"ios": "https://dc.lft.to/lastmile_qr_scan", "android": "https://dc.lft.to/lastmile_qr_scan"}, "fusion_lon": 0.0, "lat": 38.8194085, "is_disabled": 0, "bike_id": "f1a80adb6ffaf2f2c8fac77600aa0d2a", "fusion_lat": 0.0, "is_reserved": 0, "lon": -77.00201583333333}, {"type": "electric_scooter", "name": "0101b7608b54c1d86b252a21be665432", "rental_uris": {"ios": "https://dc.lft.to/lastmile_qr_scan", "android": "https://dc.lft.to/lastmile_qr_scan"}, "fusion_lon": 0.0, "lat": 38.917403666666665, "is_disabled": 0, "bike_id": "0101b7608b54c1d86b252a21be665432", "fusion_lat": 0.0, "is_reserved": 0, "lon": -77.0460005}, {"type": "electric_scooter", "name": "6cb60a55d491f5b9a34289de5c6a905a", "rental_uris": {"ios": "https://dc.lft.to/lastmile_qr_scan", "android": "https://dc.lft.to/lastmile_qr_scan"}, "fusion_lon": 0.0, "lat": 38.921465166666664, "is_disabled": 0, "bike_id": "6cb60a55d491f5b9a34289de5c6a905a", "fusion_lat": 0.0, "is_reserved": 0, "lon": -77.04343116666666}, {"type": "electric_scooter", "name": "8c1345e9ecc2156bb50192da30009dc0", "rental_uris": {"ios": "https://dc.lft.to/lastmile_qr_scan", "android": "https://dc.lft.to/lastmile_qr_scan"}, "fusion_lon": 0.0, "lat": 38.927952833333336, "is_disabled": 0, "bike_id": "8c1345e9ecc2156bb50192da30009dc0", "fusion_lat": 0.0, "is_reserved": 0, "lon": -77.02315633333333}, {"type": "electric_scooter", "name": "62048169ab99fd69f4453575d199bf35", "rental_uris": {"ios": "https://dc.lft.to/lastmile_qr_scan", "android": "https://dc.lft.to/lastmile_qr_scan"}, "fusion_lon": 0.0, "lat": 38.9111985, "is_disabled": 0, "bike_id": "62048169ab99fd69f4453575d199bf35", "fusion_lat": 0.0, "is_reserved": 0, "lon": -77.0415845}, {"type": "electric_scooter", "name": "0817436157729dab8a614f4fc5794d5b", "rental_uris": {"ios": "https://dc.lft.to/lastmile_qr_scan", "android": "https://dc.lft.to/lastmile_qr_scan"}, "fusion_lon": 0.0, "lat": 38.8651085, "is_disabled": 0, "bike_id": "0817436157729dab8a614f4fc5794d5b", "fusion_lat": 0.0, "is_reserved": 0, "lon": -76.99006816666666}, {"type": "electric_scooter", "name": "8f1644078c2bcfd211aa0b56e0667ee7", "rental_uris": {"ios": "https://dc.lft.to/lastmile_qr_scan", "android": "https://dc.lft.to/lastmile_qr_scan"}, "fusion_lon": 0.0, "lat": 38.911119, "is_disabled": 0, "bike_id": "8f1644078c2bcfd211aa0b56e0667ee7", "fusion_lat": 0.0, "is_reserved": 0, "lon": -77.04227133333333}, {"type": "electric_scooter", "name": "b802c51b7aa719e2cf9871e2d72d0d2b", "rental_uris": {"ios": "https://dc.lft.to/lastmile_qr_scan", "android": "https://dc.lft.to/lastmile_qr_scan"}, "fusion_lon": 0.0, "lat": 38.9087755, "is_disabled": 0, "bike_id": "b802c51b7aa719e2cf9871e2d72d0d2b", "fusion_lat": 0.0, "is_reserved": 0, "lon": -77.02003266666667}, {"type": "electric_scooter", "name": "5b236455299fae4a9d71cdd39e40473c", "rental_uris": {"ios": "https://dc.lft.to/lastmile_qr_scan", "android": "https://dc.lft.to/lastmile_qr_scan"}, "fusion_lon": 0.0, "lat": 38.922290333333336, "is_disabled": 0, "bike_id": "5b236455299fae4a9d71cdd39e40473c", "fusion_lat": 0.0, "is_reserved": 0, "lon": -77.0464215}, {"type": "electric_scooter", "name": "449c914fbeda5b362ed370fdd3c0c22d", "rental_uris": {"ios": "https://dc.lft.to/lastmile_qr_scan", "android": "https://dc.lft.to/lastmile_qr_scan"}, "fusion_lon": 0.0, "lat": 38.888999, "is_disabled": 0, "bike_id": "449c914fbeda5b362ed370fdd3c0c22d", "fusion_lat": 0.0, "is_reserved": 0, "lon": -76.99201916666667}, {"type": "electric_scooter", "name": "b2f6d868dda617853e18a9577136db92", "rental_uris": {"ios": "https://dc.lft.to/lastmile_qr_scan", "android": "https://dc.lft.to/lastmile_qr_scan"}, "fusion_lon": 0.0, "lat": 38.902403, "is_disabled": 0, "bike_id": "b2f6d868dda617853e18a9577136db92", "fusion_lat": 0.0, "is_reserved": 0, "lon": -77.0533665}, {"type": "electric_bike", "name": "46066eb54fcda4cd6cea7df3feaa57c8", "rental_uris": {"ios": "https://dc.lft.to/lastmile_qr_scan", "android": "https://dc.lft.to/lastmile_qr_scan"}, "fusion_lon": 0.0, "lat": 38.89185716666667, "is_disabled": 0, "bike_id": "46066eb54fcda4cd6cea7df3feaa57c8", "fusion_lat": 0.0, "is_reserved": 0, "lon": -76.938902}, {"type": "electric_bike", "name": "40fc58301f465a23538a3a67b3f8c18d", "rental_uris": {"ios": "https://dc.lft.to/lastmile_qr_scan", "android": "https://dc.lft.to/lastmile_qr_scan"}, "fusion_lon": 0.0, "lat": 38.9049655, "is_disabled": 0, "bike_id": "40fc58301f465a23538a3a67b3f8c18d", "fusion_lat": 0.0, "is_reserved": 0, "lon": -76.97580133333334}, {"type": "electric_bike", "name": "7935e0d24eebf1f24876c9eed71ab3cd", "rental_uris": {"ios": "https://dc.lft.to/lastmile_qr_scan", "android": "https://dc.lft.to/lastmile_qr_scan"}, "fusion_lon": 0.0, "lat": 38.8935425, "is_disabled": 0, "bike_id": "7935e0d24eebf1f24876c9eed71ab3cd", "fusion_lat": 0.0, "is_reserved": 0, "lon": -77.18742533333334}, {"type": "electric_scooter", "name": "fc46ef254ab296ecfa34f914b105fe67", "rental_uris": {"ios": "https://dc.lft.to/lastmile_qr_scan", "android": "https://dc.lft.to/lastmile_qr_scan"}, "fusion_lon": 0.0, "lat": 38.9212965, "is_disabled": 0, "bike_id": "fc46ef254ab296ecfa34f914b105fe67", "fusion_lat": 0.0, "is_reserved": 0, "lon": -77.02079433333333}, {"type": "electric_scooter", "name": "7e2f2efdd688f5cff80b01c54d581eec", "rental_uris": {"ios": "https://dc.lft.to/lastmile_qr_scan", "android": "https://dc.lft.to/lastmile_qr_scan"}, "fusion_lon": 0.0, "lat": 38.877212166666666, "is_disabled": 0, "bike_id": "7e2f2efdd688f5cff80b01c54d581eec", "fusion_lat": 0.0, "is_reserved": 0, "lon": -77.01767783333334}, {"type": "electric_scooter", "name": "266a18db11adaaeb08f1371f33737454", "rental_uris": {"ios": "https://dc.lft.to/lastmile_qr_scan", "android": "https://dc.lft.to/lastmile_qr_scan"}, "fusion_lon": 0.0, "lat": 38.89491483333333, "is_disabled": 0, "bike_id": "266a18db11adaaeb08f1371f33737454", "fusion_lat": 0.0, "is_reserved": 0, "lon": -77.009789}, {"type": "electric_scooter", "name": "3c30373b4fab4c3516da94eb9d57c35c", "rental_uris": {"ios": "https://dc.lft.to/lastmile_qr_scan", "android": "https://dc.lft.to/lastmile_qr_scan"}, "fusion_lon": 0.0, "lat": 38.892222, "is_disabled": 0, "bike_id": "3c30373b4fab4c3516da94eb9d57c35c", "fusion_lat": 0.0, "is_reserved": 0, "lon": -77.02223416666666}, {"type": "electric_scooter", "name": "878fedfa08e34b8b256d3e05e80037ae", "rental_uris": {"ios": "https://dc.lft.to/lastmile_qr_scan", "android": "https://dc.lft.to/lastmile_qr_scan"}, "fusion_lon": 0.0, "lat": 38.88370333333334, "is_disabled": 0, "bike_id": "878fedfa08e34b8b256d3e05e80037ae", "fusion_lat": 0.0, "is_reserved": 0, "lon": -76.99490016666667}, {"type": "electric_scooter", "name": "b3bf160bec875d6a651fd961c6a0a5b9", "rental_uris": {"ios": "https://dc.lft.to/lastmile_qr_scan", "android": "https://dc.lft.to/lastmile_qr_scan"}, "fusion_lon": 0.0, "lat": 38.981125666666664, "is_disabled": 0, "bike_id": "b3bf160bec875d6a651fd961c6a0a5b9", "fusion_lat": 0.0, "is_reserved": 0, "lon": -77.02682066666667}, {"type": "electric_scooter", "name": "90e2b2558955d477535e21e7a3b0a80a", "rental_uris": {"ios": "https://dc.lft.to/lastmile_qr_scan", "android": "https://dc.lft.to/lastmile_qr_scan"}, "fusion_lon": 0.0, "lat": 38.876816, "is_disabled": 0, "bike_id": "90e2b2558955d477535e21e7a3b0a80a", "fusion_lat": 0.0, "is_reserved": 0, "lon": -77.00423416666666}, {"type": "electric_bike", "name": "590010a68477faee3c536a1f8b1ff13b", "rental_uris": {"ios": "https://dc.lft.to/lastmile_qr_scan", "android": "https://dc.lft.to/lastmile_qr_scan"}, "fusion_lon": 0.0, "lat": 38.90031583333333, "is_disabled": 0, "bike_id": "590010a68477faee3c536a1f8b1ff13b", "fusion_lat": 0.0, "is_reserved": 0, "lon": -76.9722445}, {"type": "electric_scooter", "name": "09d2b8a4845a64b2c15e9252f151a6eb", "rental_uris": {"ios": "https://dc.lft.to/lastmile_qr_scan", "android": "https://dc.lft.to/lastmile_qr_scan"}, "fusion_lon": 0.0, "lat": 38.913966333333335, "is_disabled": 0, "bike_id": "09d2b8a4845a64b2c15e9252f151a6eb", "fusion_lat": 0.0, "is_reserved": 0, "lon": -77.04173816666666}, {"type": "electric_scooter", "name": "8a1b87407c1957302572aac6dcc365f7", "rental_uris": {"ios": "https://dc.lft.to/lastmile_qr_scan", "android": "https://dc.lft.to/lastmile_qr_scan"}, "fusion_lon": 0.0, "lat": 38.90577116666667, "is_disabled": 0, "bike_id": "8a1b87407c1957302572aac6dcc365f7", "fusion_lat": 0.0, "is_reserved": 0, "lon": -77.043586}, {"type": "electric_bike", "name": "f8bd09c642eac8fda7b291bae0d827b1", "rental_uris": {"ios": "https://dc.lft.to/lastmile_qr_scan", "android": "https://dc.lft.to/lastmile_qr_scan"}, "fusion_lon": 0.0, "lat": 38.8316075, "is_disabled": 0, "bike_id": "f8bd09c642eac8fda7b291bae0d827b1", "fusion_lat": 0.0, "is_reserved": 0, "lon": -76.99546683333334}, {"type": "electric_scooter", "name": "b5ae3b2d36d19c6cfdcea02879f9b7b2", "rental_uris": {"ios": "https://dc.lft.to/lastmile_qr_scan", "android": "https://dc.lft.to/lastmile_qr_scan"}, "fusion_lon": 0.0, "lat": 38.92251916666667, "is_disabled": 0, "bike_id": "b5ae3b2d36d19c6cfdcea02879f9b7b2", "fusion_lat": 0.0, "is_reserved": 0, "lon": -77.00914766666666}, {"type": "electric_scooter", "name": "4b0a7ec89c0d43e8c40b9597489c67ed", "rental_uris": {"ios": "https://dc.lft.to/lastmile_qr_scan", "android": "https://dc.lft.to/lastmile_qr_scan"}, "fusion_lon": 0.0, "lat": 38.915363, "is_disabled": 0, "bike_id": "4b0a7ec89c0d43e8c40b9597489c67ed", "fusion_lat": 0.0, "is_reserved": 0, "lon": -77.0122115}, {"type": "electric_scooter", "name": "1e3dce39f5459dc8e69e18ee0efc65bd", "rental_uris": {"ios": "https://dc.lft.to/lastmile_qr_scan", "android": "https://dc.lft.to/lastmile_qr_scan"}, "fusion_lon": 0.0, "lat": 38.920515333333334, "is_disabled": 0, "bike_id": "1e3dce39f5459dc8e69e18ee0efc65bd", "fusion_lat": 0.0, "is_reserved": 0, "lon": -77.04190966666667}, {"type": "electric_scooter", "name": "40578e2ceaf7954256e43fa0414bc4c9", "rental_uris": {"ios": "https://dc.lft.to/lastmile_qr_scan", "android": "https://dc.lft.to/lastmile_qr_scan"}, "fusion_lon": 0.0, "lat": 38.906422, "is_disabled": 0, "bike_id": "40578e2ceaf7954256e43fa0414bc4c9", "fusion_lat": 0.0, "is_reserved": 0, "lon": -77.01027816666667}, {"type": "electric_scooter", "name": "2d36b37c4ef117638e100415d8da9878", "rental_uris": {"ios": "https://dc.lft.to/lastmile_qr_scan", "android": "https://dc.lft.to/lastmile_qr_scan"}, "fusion_lon": 0.0, "lat": 38.9163125, "is_disabled": 0, "bike_id": "2d36b37c4ef117638e100415d8da9878", "fusion_lat": 0.0, "is_reserved": 0, "lon": -77.03159466666666}, {"type": "electric_scooter", "name": "57054ee5986a6211bbaf7a9481e3283e", "rental_uris": {"ios": "https://dc.lft.to/lastmile_qr_scan", "android": "https://dc.lft.to/lastmile_qr_scan"}, "fusion_lon": 0.0, "lat": 38.93430166666667, "is_disabled": 0, "bike_id": "57054ee5986a6211bbaf7a9481e3283e", "fusion_lat": 0.0, "is_reserved": 0, "lon": -77.055878}, {"type": "electric_scooter", "name": "83c4c62bcfb0a34a518dd6d4f3b08dfd", "rental_uris": {"ios": "https://dc.lft.to/lastmile_qr_scan", "android": "https://dc.lft.to/lastmile_qr_scan"}, "fusion_lon": 0.0, "lat": 38.87729, "is_disabled": 0, "bike_id": "83c4c62bcfb0a34a518dd6d4f3b08dfd", "fusion_lat": 0.0, "is_reserved": 0, "lon": -77.00439966666667}, {"type": "electric_bike", "name": "8b3dc417a451be5bd08c59686b9626cd", "rental_uris": {"ios": "https://dc.lft.to/lastmile_qr_scan", "android": "https://dc.lft.to/lastmile_qr_scan"}, "fusion_lon": 0.0, "lat": 38.86449916666667, "is_disabled": 0, "bike_id": "8b3dc417a451be5bd08c59686b9626cd", "fusion_lat": 0.0, "is_reserved": 0, "lon": -77.10685833333334}, {"type": "electric_scooter", "name": "2809265c3803a179cd8c985164107847", "rental_uris": {"ios": "https://dc.lft.to/lastmile_qr_scan", "android": "https://dc.lft.to/lastmile_qr_scan"}, "fusion_lon": 0.0, "lat": 38.895236833333335, "is_disabled": 0, "bike_id": "2809265c3803a179cd8c985164107847", "fusion_lat": 0.0, "is_reserved": 0, "lon": -77.0484675}, {"type": "electric_scooter", "name": "e07b2064c1f1bf127b82e125813dcf1a", "rental_uris": {"ios": "https://dc.lft.to/lastmile_qr_scan", "android": "https://dc.lft.to/lastmile_qr_scan"}, "fusion_lon": 0.0, "lat": 38.90868, "is_disabled": 0, "bike_id": "e07b2064c1f1bf127b82e125813dcf1a", "fusion_lat": 0.0, "is_reserved": 0, "lon": -77.02699416666667}, {"type": "electric_scooter", "name": "a19264d357944c9e3e1936fc4f2eb486", "rental_uris": {"ios": "https://dc.lft.to/lastmile_qr_scan", "android": "https://dc.lft.to/lastmile_qr_scan"}, "fusion_lon": 0.0, "lat": 38.909851, "is_disabled": 0, "bike_id": "a19264d357944c9e3e1936fc4f2eb486", "fusion_lat": 0.0, "is_reserved": 0, "lon": -77.03275333333333}, {"type": "electric_scooter", "name": "5da204db4eab07fff999403a6846b4ee", "rental_uris": {"ios": "https://dc.lft.to/lastmile_qr_scan", "android": "https://dc.lft.to/lastmile_qr_scan"}, "fusion_lon": 0.0, "lat": 38.90275166666667, "is_disabled": 0, "bike_id": "5da204db4eab07fff999403a6846b4ee", "fusion_lat": 0.0, "is_reserved": 0, "lon": -77.043689}, {"type": "electric_scooter", "name": "f47d9f49b6db6d5670be2142c80fb7ed", "rental_uris": {"ios": "https://dc.lft.to/lastmile_qr_scan", "android": "https://dc.lft.to/lastmile_qr_scan"}, "fusion_lon": 0.0, "lat": 38.8772635, "is_disabled": 0, "bike_id": "f47d9f49b6db6d5670be2142c80fb7ed", "fusion_lat": 0.0, "is_reserved": 0, "lon": -77.004288}, {"type": "electric_scooter", "name": "5977b3ad3fbcc240016d709e76b4e650", "rental_uris": {"ios": "https://dc.lft.to/lastmile_qr_scan", "android": "https://dc.lft.to/lastmile_qr_scan"}, "fusion_lon": 0.0, "lat": 38.8765815, "is_disabled": 0, "bike_id": "5977b3ad3fbcc240016d709e76b4e650", "fusion_lat": 0.0, "is_reserved": 0, "lon": -77.0162205}, {"type": "electric_scooter", "name": "49281c86c2a319714e8089441924009e", "rental_uris": {"ios": "https://dc.lft.to/lastmile_qr_scan", "android": "https://dc.lft.to/lastmile_qr_scan"}, "fusion_lon": 0.0, "lat": 38.919284833333336, "is_disabled": 0, "bike_id": "49281c86c2a319714e8089441924009e", "fusion_lat": 0.0, "is_reserved": 0, "lon": -77.00983366666667}, {"type": "electric_scooter", "name": "3cd96877068b13a91cda57468fc1c45f", "rental_uris": {"ios": "https://dc.lft.to/lastmile_qr_scan", "android": "https://dc.lft.to/lastmile_qr_scan"}, "fusion_lon": 0.0, "lat": 38.887438833333334, "is_disabled": 0, "bike_id": "3cd96877068b13a91cda57468fc1c45f", "fusion_lat": 0.0, "is_reserved": 0, "lon": -77.028415}, {"type": "electric_scooter", "name": "86892809941f529c75597ce5722588d2", "rental_uris": {"ios": "https://dc.lft.to/lastmile_qr_scan", "android": "https://dc.lft.to/lastmile_qr_scan"}, "fusion_lon": 0.0, "lat": 38.941638, "is_disabled": 0, "bike_id": "86892809941f529c75597ce5722588d2", "fusion_lat": 0.0, "is_reserved": 0, "lon": -77.09268116666667}, {"type": "electric_scooter", "name": "c408eba1a8de5079b8bc6b67ef492284", "rental_uris": {"ios": "https://dc.lft.to/lastmile_qr_scan", "android": "https://dc.lft.to/lastmile_qr_scan"}, "fusion_lon": 0.0, "lat": 38.90975, "is_disabled": 0, "bike_id": "c408eba1a8de5079b8bc6b67ef492284", "fusion_lat": 0.0, "is_reserved": 0, "lon": -77.03184}, {"type": "electric_scooter", "name": "43aee19e864f958817687ec5a5a0ca1f", "rental_uris": {"ios": "https://dc.lft.to/lastmile_qr_scan", "android": "https://dc.lft.to/lastmile_qr_scan"}, "fusion_lon": 0.0, "lat": 38.907796833333336, "is_disabled": 0, "bike_id": "43aee19e864f958817687ec5a5a0ca1f", "fusion_lat": 0.0, "is_reserved": 0, "lon": -77.04254516666667}, {"type": "electric_scooter", "name": "648d4ff6abc974c6f0de1677ca9d02ef", "rental_uris": {"ios": "https://dc.lft.to/lastmile_qr_scan", "android": "https://dc.lft.to/lastmile_qr_scan"}, "fusion_lon": 0.0, "lat": 38.928446, "is_disabled": 0, "bike_id": "648d4ff6abc974c6f0de1677ca9d02ef", "fusion_lat": 0.0, "is_reserved": 0, "lon": -77.0365715}, {"type": "electric_scooter", "name": "0e65e961dc6a75c59036c65c5a587640", "rental_uris": {"ios": "https://dc.lft.to/lastmile_qr_scan", "android": "https://dc.lft.to/lastmile_qr_scan"}, "fusion_lon": 0.0, "lat": 38.890078833333334, "is_disabled": 0, "bike_id": "0e65e961dc6a75c59036c65c5a587640", "fusion_lat": 0.0, "is_reserved": 0, "lon": -76.93744866666667}, {"type": "electric_scooter", "name": "60704bd578c7380405fb0c9bca531273", "rental_uris": {"ios": "https://dc.lft.to/lastmile_qr_scan", "android": "https://dc.lft.to/lastmile_qr_scan"}, "fusion_lon": 0.0, "lat": 38.897386166666664, "is_disabled": 0, "bike_id": "60704bd578c7380405fb0c9bca531273", "fusion_lat": 0.0, "is_reserved": 0, "lon": -77.045435}, {"type": "electric_scooter", "name": "e01d13a10da4cec843510c6742bf4bc2", "rental_uris": {"ios": "https://dc.lft.to/lastmile_qr_scan", "android": "https://dc.lft.to/lastmile_qr_scan"}, "fusion_lon": 0.0, "lat": 38.886377, "is_disabled": 0, "bike_id": "e01d13a10da4cec843510c6742bf4bc2", "fusion_lat": 0.0, "is_reserved": 0, "lon": -77.0153995}, {"type": "electric_scooter", "name": "c18ddb43253a1e77ef3ae5976f25d149", "rental_uris": {"ios": "https://dc.lft.to/lastmile_qr_scan", "android": "https://dc.lft.to/lastmile_qr_scan"}, "fusion_lon": 0.0, "lat": 38.92327133333333, "is_disabled": 0, "bike_id": "c18ddb43253a1e77ef3ae5976f25d149", "fusion_lat": 0.0, "is_reserved": 0, "lon": -77.02969666666667}, {"type": "electric_bike", "name": "8bd0c19ce752710a80c10cc3d8123876", "rental_uris": {"ios": "https://dc.lft.to/lastmile_qr_scan", "android": "https://dc.lft.to/lastmile_qr_scan"}, "fusion_lon": 0.0, "lat": 38.990531833333335, "is_disabled": 0, "bike_id": "8bd0c19ce752710a80c10cc3d8123876", "fusion_lat": 0.0, "is_reserved": 0, "lon": -77.03869933333333}, {"type": "electric_scooter", "name": "a57e64eea91606ee111683d5a5760362", "rental_uris": {"ios": "https://dc.lft.to/lastmile_qr_scan", "android": "https://dc.lft.to/lastmile_qr_scan"}, "fusion_lon": 0.0, "lat": 38.84395333333333, "is_disabled": 0, "bike_id": "a57e64eea91606ee111683d5a5760362", "fusion_lat": 0.0, "is_reserved": 0, "lon": -76.98957616666667}, {"type": "electric_scooter", "name": "1e2b0e9ac808f2018c0ce57957642235", "rental_uris": {"ios": "https://dc.lft.to/lastmile_qr_scan", "android": "https://dc.lft.to/lastmile_qr_scan"}, "fusion_lon": 0.0, "lat": 38.91674283333333, "is_disabled": 0, "bike_id": "1e2b0e9ac808f2018c0ce57957642235", "fusion_lat": 0.0, "is_reserved": 0, "lon": -77.02705716666667}, {"type": "electric_bike", "name": "947886b035a20a81f7e685b9a076b18b", "rental_uris": {"ios": "https://dc.lft.to/lastmile_qr_scan", "android": "https://dc.lft.to/lastmile_qr_scan"}, "fusion_lon": 0.0, "lat": 38.83552366666667, "is_disabled": 0, "bike_id": "947886b035a20a81f7e685b9a076b18b", "fusion_lat": 0.0, "is_reserved": 0, "lon": -76.9873105}, {"type": "electric_scooter", "name": "dc14564f808aa67ed51fca7305311e31", "rental_uris": {"ios": "https://dc.lft.to/lastmile_qr_scan", "android": "https://dc.lft.to/lastmile_qr_scan"}, "fusion_lon": 0.0, "lat": 38.90259733333333, "is_disabled": 0, "bike_id": "dc14564f808aa67ed51fca7305311e31", "fusion_lat": 0.0, "is_reserved": 0, "lon": -77.0176145}, {"type": "electric_scooter", "name": "d0b0b40081a6e288dbe8e53b0052b1c1", "rental_uris": {"ios": "https://dc.lft.to/lastmile_qr_scan", "android": "https://dc.lft.to/lastmile_qr_scan"}, "fusion_lon": 0.0, "lat": 38.9274705, "is_disabled": 0, "bike_id": "d0b0b40081a6e288dbe8e53b0052b1c1", "fusion_lat": 0.0, "is_reserved": 0, "lon": -77.032628}, {"type": "electric_scooter", "name": "9ddb114aff9de8d29b7075ba805370d3", "rental_uris": {"ios": "https://dc.lft.to/lastmile_qr_scan", "android": "https://dc.lft.to/lastmile_qr_scan"}, "fusion_lon": 0.0, "lat": 38.934333333333335, "is_disabled": 0, "bike_id": "9ddb114aff9de8d29b7075ba805370d3", "fusion_lat": 0.0, "is_reserved": 0, "lon": -77.0399405}, {"type": "electric_scooter", "name": "7d66dc31f0bf4f602220b6cf3db9dfd7", "rental_uris": {"ios": "https://dc.lft.to/lastmile_qr_scan", "android": "https://dc.lft.to/lastmile_qr_scan"}, "fusion_lon": 0.0, "lat": 38.9182365, "is_disabled": 0, "bike_id": "7d66dc31f0bf4f602220b6cf3db9dfd7", "fusion_lat": 0.0, "is_reserved": 0, "lon": -77.01207766666667}, {"type": "electric_scooter", "name": "0b466fa9e7e6601a7dbe7afcef6e41ad", "rental_uris": {"ios": "https://dc.lft.to/lastmile_qr_scan", "android": "https://dc.lft.to/lastmile_qr_scan"}, "fusion_lon": 0.0, "lat": 38.902613833333334, "is_disabled": 0, "bike_id": "0b466fa9e7e6601a7dbe7afcef6e41ad", "fusion_lat": 0.0, "is_reserved": 0, "lon": -77.0089195}, {"type": "electric_scooter", "name": "65d1c01c18f6c32c5b356eb7759a09de", "rental_uris": {"ios": "https://dc.lft.to/lastmile_qr_scan", "android": "https://dc.lft.to/lastmile_qr_scan"}, "fusion_lon": 0.0, "lat": 38.9226005, "is_disabled": 0, "bike_id": "65d1c01c18f6c32c5b356eb7759a09de", "fusion_lat": 0.0, "is_reserved": 0, "lon": -77.04260233333333}, {"type": "electric_scooter", "name": "0c657fbeff653256c636b0f9baf88857", "rental_uris": {"ios": "https://dc.lft.to/lastmile_qr_scan", "android": "https://dc.lft.to/lastmile_qr_scan"}, "fusion_lon": 0.0, "lat": 38.91814683333333, "is_disabled": 0, "bike_id": "0c657fbeff653256c636b0f9baf88857", "fusion_lat": 0.0, "is_reserved": 0, "lon": -77.02472933333334}, {"type": "electric_scooter", "name": "b2b4921eae27cb56fed9f949fb4d77ab", "rental_uris": {"ios": "https://dc.lft.to/lastmile_qr_scan", "android": "https://dc.lft.to/lastmile_qr_scan"}, "fusion_lon": 0.0, "lat": 38.91819, "is_disabled": 0, "bike_id": "b2b4921eae27cb56fed9f949fb4d77ab", "fusion_lat": 0.0, "is_reserved": 0, "lon": -77.0247555}, {"type": "electric_scooter", "name": "a98d970cd2a4478d9f03d687d6cc0cb0", "rental_uris": {"ios": "https://dc.lft.to/lastmile_qr_scan", "android": "https://dc.lft.to/lastmile_qr_scan"}, "fusion_lon": 0.0, "lat": 38.904174, "is_disabled": 0, "bike_id": "a98d970cd2a4478d9f03d687d6cc0cb0", "fusion_lat": 0.0, "is_reserved": 0, "lon": -76.9928275}, {"type": "electric_scooter", "name": "1846e8c1e69dc66d2ce1a92815262c3f", "rental_uris": {"ios": "https://dc.lft.to/lastmile_qr_scan", "android": "https://dc.lft.to/lastmile_qr_scan"}, "fusion_lon": 0.0, "lat": 38.89884883333333, "is_disabled": 0, "bike_id": "1846e8c1e69dc66d2ce1a92815262c3f", "fusion_lat": 0.0, "is_reserved": 0, "lon": -77.052876}, {"type": "electric_scooter", "name": "4e8046269d2cf8edbcb5868f927e6998", "rental_uris": {"ios": "https://dc.lft.to/lastmile_qr_scan", "android": "https://dc.lft.to/lastmile_qr_scan"}, "fusion_lon": 0.0, "lat": 38.92042416666666, "is_disabled": 0, "bike_id": "4e8046269d2cf8edbcb5868f927e6998", "fusion_lat": 0.0, "is_reserved": 0, "lon": -77.01817166666666}, {"type": "electric_scooter", "name": "58cdd7f39284e613b4bbb3eaf3b63e40", "rental_uris": {"ios": "https://dc.lft.to/lastmile_qr_scan", "android": "https://dc.lft.to/lastmile_qr_scan"}, "fusion_lon": 0.0, "lat": 38.9419235, "is_disabled": 0, "bike_id": "58cdd7f39284e613b4bbb3eaf3b63e40", "fusion_lat": 0.0, "is_reserved": 0, "lon": -77.038342}, {"type": "electric_scooter", "name": "d1e86847e9889f239ab74339f5af02a5", "rental_uris": {"ios": "https://dc.lft.to/lastmile_qr_scan", "android": "https://dc.lft.to/lastmile_qr_scan"}, "fusion_lon": 0.0, "lat": 38.89544733333334, "is_disabled": 0, "bike_id": "d1e86847e9889f239ab74339f5af02a5", "fusion_lat": 0.0, "is_reserved": 0, "lon": -76.98210816666666}, {"type": "electric_scooter", "name": "267772ec9e3cb197b85cecb03af1969c", "rental_uris": {"ios": "https://dc.lft.to/lastmile_qr_scan", "android": "https://dc.lft.to/lastmile_qr_scan"}, "fusion_lon": 0.0, "lat": 38.897150333333336, "is_disabled": 0, "bike_id": "267772ec9e3cb197b85cecb03af1969c", "fusion_lat": 0.0, "is_reserved": 0, "lon": -77.00840566666666}, {"type": "electric_scooter", "name": "5cfd8a07922fadcdfd3924495102ae31", "rental_uris": {"ios": "https://dc.lft.to/lastmile_qr_scan", "android": "https://dc.lft.to/lastmile_qr_scan"}, "fusion_lon": 0.0, "lat": 38.9088315, "is_disabled": 0, "bike_id": "5cfd8a07922fadcdfd3924495102ae31", "fusion_lat": 0.0, "is_reserved": 0, "lon": -77.04333683333333}, {"type": "electric_scooter", "name": "c70ad6dd1bbf8931cdff0e2117bddde8", "rental_uris": {"ios": "https://dc.lft.to/lastmile_qr_scan", "android": "https://dc.lft.to/lastmile_qr_scan"}, "fusion_lon": 0.0, "lat": 38.896166666666666, "is_disabled": 0, "bike_id": "c70ad6dd1bbf8931cdff0e2117bddde8", "fusion_lat": 0.0, "is_reserved": 0, "lon": -77.02160466666666}, {"type": "electric_scooter", "name": "bd697547cbec1f46da480be1f49f504a", "rental_uris": {"ios": "https://dc.lft.to/lastmile_qr_scan", "android": "https://dc.lft.to/lastmile_qr_scan"}, "fusion_lon": 0.0, "lat": 38.9003485, "is_disabled": 0, "bike_id": "bd697547cbec1f46da480be1f49f504a", "fusion_lat": 0.0, "is_reserved": 0, "lon": -77.03714566666666}, {"type": "electric_scooter", "name": "aded0069309a2a15341c525f48fb8041", "rental_uris": {"ios": "https://dc.lft.to/lastmile_qr_scan", "android": "https://dc.lft.to/lastmile_qr_scan"}, "fusion_lon": 0.0, "lat": 38.9261, "is_disabled": 0, "bike_id": "aded0069309a2a15341c525f48fb8041", "fusion_lat": 0.0, "is_reserved": 0, "lon": -77.0220835}, {"type": "electric_scooter", "name": "cb77e4edd023a12a2ccaa017207272f6", "rental_uris": {"ios": "https://dc.lft.to/lastmile_qr_scan", "android": "https://dc.lft.to/lastmile_qr_scan"}, "fusion_lon": 0.0, "lat": 38.90269, "is_disabled": 0, "bike_id": "cb77e4edd023a12a2ccaa017207272f6", "fusion_lat": 0.0, "is_reserved": 0, "lon": -77.03352166666667}, {"type": "electric_scooter", "name": "e7fbd42003204de697c3bba179d76c20", "rental_uris": {"ios": "https://dc.lft.to/lastmile_qr_scan", "android": "https://dc.lft.to/lastmile_qr_scan"}, "fusion_lon": 0.0, "lat": 38.917450333333335, "is_disabled": 0, "bike_id": "e7fbd42003204de697c3bba179d76c20", "fusion_lat": 0.0, "is_reserved": 0, "lon": -77.03196466666667}, {"type": "electric_scooter", "name": "ae4a4c2e64b7f6f1daaf135eb96b12d2", "rental_uris": {"ios": "https://dc.lft.to/lastmile_qr_scan", "android": "https://dc.lft.to/lastmile_qr_scan"}, "fusion_lon": 0.0, "lat": 38.867193666666665, "is_disabled": 0, "bike_id": "ae4a4c2e64b7f6f1daaf135eb96b12d2", "fusion_lat": 0.0, "is_reserved": 0, "lon": -76.98700066666666}, {"type": "electric_scooter", "name": "1cedbb463d975ccf0c32896d6ab0c437", "rental_uris": {"ios": "https://dc.lft.to/lastmile_qr_scan", "android": "https://dc.lft.to/lastmile_qr_scan"}, "fusion_lon": 0.0, "lat": 38.884919833333335, "is_disabled": 0, "bike_id": "1cedbb463d975ccf0c32896d6ab0c437", "fusion_lat": 0.0, "is_reserved": 0, "lon": -77.0071155}, {"type": "electric_scooter", "name": "11788c6537777e0149409a92bdaac56a", "rental_uris": {"ios": "https://dc.lft.to/lastmile_qr_scan", "android": "https://dc.lft.to/lastmile_qr_scan"}, "fusion_lon": 0.0, "lat": 38.921188666666666, "is_disabled": 0, "bike_id": "11788c6537777e0149409a92bdaac56a", "fusion_lat": 0.0, "is_reserved": 0, "lon": -77.00917716666666}, {"type": "electric_scooter", "name": "6fe5a3f46a783e3d9ef7105b4e21116a", "rental_uris": {"ios": "https://dc.lft.to/lastmile_qr_scan", "android": "https://dc.lft.to/lastmile_qr_scan"}, "fusion_lon": 0.0, "lat": 38.900877333333334, "is_disabled": 0, "bike_id": "6fe5a3f46a783e3d9ef7105b4e21116a", "fusion_lat": 0.0, "is_reserved": 0, "lon": -77.02722283333334}, {"type": "electric_scooter", "name": "d0df8e8900166ae6879eac3d9de8b7b8", "rental_uris": {"ios": "https://dc.lft.to/lastmile_qr_scan", "android": "https://dc.lft.to/lastmile_qr_scan"}, "fusion_lon": 0.0, "lat": 38.903277833333334, "is_disabled": 0, "bike_id": "d0df8e8900166ae6879eac3d9de8b7b8", "fusion_lat": 0.0, "is_reserved": 0, "lon": -77.04482266666666}, {"type": "electric_scooter", "name": "bbb0b04633931fd6e6bfa7007c7020b3", "rental_uris": {"ios": "https://dc.lft.to/lastmile_qr_scan", "android": "https://dc.lft.to/lastmile_qr_scan"}, "fusion_lon": 0.0, "lat": 38.900480333333334, "is_disabled": 0, "bike_id": "bbb0b04633931fd6e6bfa7007c7020b3", "fusion_lat": 0.0, "is_reserved": 0, "lon": -77.04339016666667}, {"type": "electric_scooter", "name": "e3215b9e390cac632dd87f34b51afb7f", "rental_uris": {"ios": "https://dc.lft.to/lastmile_qr_scan", "android": "https://dc.lft.to/lastmile_qr_scan"}, "fusion_lon": 0.0, "lat": 38.907504333333335, "is_disabled": 0, "bike_id": "e3215b9e390cac632dd87f34b51afb7f", "fusion_lat": 0.0, "is_reserved": 0, "lon": -77.04344616666667}, {"type": "electric_scooter", "name": "127817d3addb2e16844e18e96208b20d", "rental_uris": {"ios": "https://dc.lft.to/lastmile_qr_scan", "android": "https://dc.lft.to/lastmile_qr_scan"}, "fusion_lon": 0.0, "lat": 38.908698333333334, "is_disabled": 0, "bike_id": "127817d3addb2e16844e18e96208b20d", "fusion_lat": 0.0, "is_reserved": 0, "lon": -77.0129155}, {"type": "electric_scooter", "name": "8e226adea99c6cd018b092aa3b509af5", "rental_uris": {"ios": "https://dc.lft.to/lastmile_qr_scan", "android": "https://dc.lft.to/lastmile_qr_scan"}, "fusion_lon": 0.0, "lat": 38.85701733333333, "is_disabled": 0, "bike_id": "8e226adea99c6cd018b092aa3b509af5", "fusion_lat": 0.0, "is_reserved": 0, "lon": -76.995982}, {"type": "electric_scooter", "name": "2df173d18d5f060c42dcd739e03784a5", "rental_uris": {"ios": "https://dc.lft.to/lastmile_qr_scan", "android": "https://dc.lft.to/lastmile_qr_scan"}, "fusion_lon": 0.0, "lat": 38.8985615, "is_disabled": 0, "bike_id": "2df173d18d5f060c42dcd739e03784a5", "fusion_lat": 0.0, "is_reserved": 0, "lon": -76.9903265}, {"type": "electric_scooter", "name": "d848e5e4b65ec2e80f2c6d0e9945b5e6", "rental_uris": {"ios": "https://dc.lft.to/lastmile_qr_scan", "android": "https://dc.lft.to/lastmile_qr_scan"}, "fusion_lon": 0.0, "lat": 38.92854766666667, "is_disabled": 0, "bike_id": "d848e5e4b65ec2e80f2c6d0e9945b5e6", "fusion_lat": 0.0, "is_reserved": 0, "lon": -77.035172}, {"type": "electric_scooter", "name": "49f6cf1230ee51fbb758209dba9aa022", "rental_uris": {"ios": "https://dc.lft.to/lastmile_qr_scan", "android": "https://dc.lft.to/lastmile_qr_scan"}, "fusion_lon": 0.0, "lat": 38.9172475, "is_disabled": 0, "bike_id": "49f6cf1230ee51fbb758209dba9aa022", "fusion_lat": 0.0, "is_reserved": 0, "lon": -77.02879033333333}, {"type": "electric_scooter", "name": "06fcbef5a193dd07b3911cbe8dbe6e3e", "rental_uris": {"ios": "https://dc.lft.to/lastmile_qr_scan", "android": "https://dc.lft.to/lastmile_qr_scan"}, "fusion_lon": 0.0, "lat": 38.91534266666667, "is_disabled": 0, "bike_id": "06fcbef5a193dd07b3911cbe8dbe6e3e", "fusion_lat": 0.0, "is_reserved": 0, "lon": -77.01220633333334}, {"type": "electric_scooter", "name": "7d04f4823241c6f8c18cb6db7dbaf496", "rental_uris": {"ios": "https://dc.lft.to/lastmile_qr_scan", "android": "https://dc.lft.to/lastmile_qr_scan"}, "fusion_lon": 0.0, "lat": 38.92001883333333, "is_disabled": 0, "bike_id": "7d04f4823241c6f8c18cb6db7dbaf496", "fusion_lat": 0.0, "is_reserved": 0, "lon": -77.03202883333333}, {"type": "electric_scooter", "name": "7eda2f9e79069f5758ee9f62a9574483", "rental_uris": {"ios": "https://dc.lft.to/lastmile_qr_scan", "android": "https://dc.lft.to/lastmile_qr_scan"}, "fusion_lon": 0.0, "lat": 38.887173, "is_disabled": 0, "bike_id": "7eda2f9e79069f5758ee9f62a9574483", "fusion_lat": 0.0, "is_reserved": 0, "lon": -77.02198816666667}, {"type": "electric_scooter", "name": "62ba97a7bdece8164db94f04983b9a0e", "rental_uris": {"ios": "https://dc.lft.to/lastmile_qr_scan", "android": "https://dc.lft.to/lastmile_qr_scan"}, "fusion_lon": 0.0, "lat": 38.909775833333335, "is_disabled": 0, "bike_id": "62ba97a7bdece8164db94f04983b9a0e", "fusion_lat": 0.0, "is_reserved": 0, "lon": -77.0321525}, {"type": "electric_scooter", "name": "df9bcaa31d7924cbd8ba2cb7d024bcb2", "rental_uris": {"ios": "https://dc.lft.to/lastmile_qr_scan", "android": "https://dc.lft.to/lastmile_qr_scan"}, "fusion_lon": 0.0, "lat": 38.927631, "is_disabled": 0, "bike_id": "df9bcaa31d7924cbd8ba2cb7d024bcb2", "fusion_lat": 0.0, "is_reserved": 0, "lon": -77.03343133333334}, {"type": "electric_scooter", "name": "b1668821054c92a29b80d63602aed83d", "rental_uris": {"ios": "https://dc.lft.to/lastmile_qr_scan", "android": "https://dc.lft.to/lastmile_qr_scan"}, "fusion_lon": 0.0, "lat": 38.915921166666664, "is_disabled": 0, "bike_id": "b1668821054c92a29b80d63602aed83d", "fusion_lat": 0.0, "is_reserved": 0, "lon": -76.97970183333334}, {"type": "electric_scooter", "name": "07dec677f23260109f55f9c30d241831", "rental_uris": {"ios": "https://dc.lft.to/lastmile_qr_scan", "android": "https://dc.lft.to/lastmile_qr_scan"}, "fusion_lon": 0.0, "lat": 38.9168255, "is_disabled": 0, "bike_id": "07dec677f23260109f55f9c30d241831", "fusion_lat": 0.0, "is_reserved": 0, "lon": -77.03687966666666}, {"type": "electric_bike", "name": "9ecedd45d8ac43bc5a1a1e1fbb56ad97", "rental_uris": {"ios": "https://dc.lft.to/lastmile_qr_scan", "android": "https://dc.lft.to/lastmile_qr_scan"}, "fusion_lon": 0.0, "lat": 38.81334566666666, "is_disabled": 0, "bike_id": "9ecedd45d8ac43bc5a1a1e1fbb56ad97", "fusion_lat": 0.0, "is_reserved": 0, "lon": -77.050944}, {"type": "electric_bike", "name": "ddbf8d8ec810722082b7b06d47f01ac6", "rental_uris": {"ios": "https://dc.lft.to/lastmile_qr_scan", "android": "https://dc.lft.to/lastmile_qr_scan"}, "fusion_lon": 0.0, "lat": 38.931925666666665, "is_disabled": 0, "bike_id": "ddbf8d8ec810722082b7b06d47f01ac6", "fusion_lat": 0.0, "is_reserved": 0, "lon": -77.22924333333333}, {"type": "electric_scooter", "name": "64615c08af64de4ab468b5eb82922b51", "rental_uris": {"ios": "https://dc.lft.to/lastmile_qr_scan", "android": "https://dc.lft.to/lastmile_qr_scan"}, "fusion_lon": 0.0, "lat": 38.92082583333333, "is_disabled": 0, "bike_id": "64615c08af64de4ab468b5eb82922b51", "fusion_lat": 0.0, "is_reserved": 0, "lon": -76.99733083333334}, {"type": "electric_scooter", "name": "145722621494e73491ef4f06e8fef088", "rental_uris": {"ios": "https://dc.lft.to/lastmile_qr_scan", "android": "https://dc.lft.to/lastmile_qr_scan"}, "fusion_lon": 0.0, "lat": 38.91418866666667, "is_disabled": 0, "bike_id": "145722621494e73491ef4f06e8fef088", "fusion_lat": 0.0, "is_reserved": 0, "lon": -77.01798916666667}, {"type": "electric_scooter", "name": "de345bd67943d658ee66d1373ebfdb25", "rental_uris": {"ios": "https://dc.lft.to/lastmile_qr_scan", "android": "https://dc.lft.to/lastmile_qr_scan"}, "fusion_lon": 0.0, "lat": 38.8837035, "is_disabled": 0, "bike_id": "de345bd67943d658ee66d1373ebfdb25", "fusion_lat": 0.0, "is_reserved": 0, "lon": -77.02001133333333}, {"type": "electric_bike", "name": "5cf3aeb5fe9f334e1f40faf7061f501f", "rental_uris": {"ios": "https://dc.lft.to/lastmile_qr_scan", "android": "https://dc.lft.to/lastmile_qr_scan"}, "fusion_lon": 0.0, "lat": 38.84991333333333, "is_disabled": 0, "bike_id": "5cf3aeb5fe9f334e1f40faf7061f501f", "fusion_lat": 0.0, "is_reserved": 0, "lon": -77.097623}, {"type": "electric_scooter", "name": "596ae1efc1392ed91af2108b61dc1c0d", "rental_uris": {"ios": "https://dc.lft.to/lastmile_qr_scan", "android": "https://dc.lft.to/lastmile_qr_scan"}, "fusion_lon": 0.0, "lat": 38.88306016666667, "is_disabled": 0, "bike_id": "596ae1efc1392ed91af2108b61dc1c0d", "fusion_lat": 0.0, "is_reserved": 0, "lon": -77.02482916666666}, {"type": "electric_scooter", "name": "c98fa565e4eb14121fa3f2b48ee60d64", "rental_uris": {"ios": "https://dc.lft.to/lastmile_qr_scan", "android": "https://dc.lft.to/lastmile_qr_scan"}, "fusion_lon": 0.0, "lat": 38.91707733333333, "is_disabled": 0, "bike_id": "c98fa565e4eb14121fa3f2b48ee60d64", "fusion_lat": 0.0, "is_reserved": 0, "lon": -77.0414445}, {"type": "electric_scooter", "name": "26f1c0c51f9a92273e11fd63c6e86391", "rental_uris": {"ios": "https://dc.lft.to/lastmile_qr_scan", "android": "https://dc.lft.to/lastmile_qr_scan"}, "fusion_lon": 0.0, "lat": 38.91360516666667, "is_disabled": 0, "bike_id": "26f1c0c51f9a92273e11fd63c6e86391", "fusion_lat": 0.0, "is_reserved": 0, "lon": -77.0345105}, {"type": "electric_scooter", "name": "e7828501c0d60a2243480cb4cfc8eab7", "rental_uris": {"ios": "https://dc.lft.to/lastmile_qr_scan", "android": "https://dc.lft.to/lastmile_qr_scan"}, "fusion_lon": 0.0, "lat": 38.884873166666665, "is_disabled": 0, "bike_id": "e7828501c0d60a2243480cb4cfc8eab7", "fusion_lat": 0.0, "is_reserved": 0, "lon": -76.95652266666667}, {"type": "electric_scooter", "name": "d3699147016653e05f27a5ccf360d3b9", "rental_uris": {"ios": "https://dc.lft.to/lastmile_qr_scan", "android": "https://dc.lft.to/lastmile_qr_scan"}, "fusion_lon": 0.0, "lat": 38.89226383333333, "is_disabled": 0, "bike_id": "d3699147016653e05f27a5ccf360d3b9", "fusion_lat": 0.0, "is_reserved": 0, "lon": -77.0242285}, {"type": "electric_scooter", "name": "eb7bc55a1b22f7e71192cba85b337881", "rental_uris": {"ios": "https://dc.lft.to/lastmile_qr_scan", "android": "https://dc.lft.to/lastmile_qr_scan"}, "fusion_lon": 0.0, "lat": 38.936651499999996, "is_disabled": 0, "bike_id": "eb7bc55a1b22f7e71192cba85b337881", "fusion_lat": 0.0, "is_reserved": 0, "lon": -77.02397016666667}, {"type": "electric_scooter", "name": "9779ed38b121df6f905e238750cbd7e3", "rental_uris": {"ios": "https://dc.lft.to/lastmile_qr_scan", "android": "https://dc.lft.to/lastmile_qr_scan"}, "fusion_lon": 0.0, "lat": 38.91325616666666, "is_disabled": 0, "bike_id": "9779ed38b121df6f905e238750cbd7e3", "fusion_lat": 0.0, "is_reserved": 0, "lon": -77.03165766666666}, {"type": "electric_scooter", "name": "7b3dd29df74884fb7557ac396e4b956a", "rental_uris": {"ios": "https://dc.lft.to/lastmile_qr_scan", "android": "https://dc.lft.to/lastmile_qr_scan"}, "fusion_lon": 0.0, "lat": 38.92130316666667, "is_disabled": 0, "bike_id": "7b3dd29df74884fb7557ac396e4b956a", "fusion_lat": 0.0, "is_reserved": 0, "lon": -77.04106266666666}, {"type": "electric_scooter", "name": "914f2ea2a2b9fd9214098ca3cba04317", "rental_uris": {"ios": "https://dc.lft.to/lastmile_qr_scan", "android": "https://dc.lft.to/lastmile_qr_scan"}, "fusion_lon": 0.0, "lat": 38.90648633333333, "is_disabled": 0, "bike_id": "914f2ea2a2b9fd9214098ca3cba04317", "fusion_lat": 0.0, "is_reserved": 0, "lon": -77.03455383333333}, {"type": "electric_bike", "name": "997c57dcff0f885ed85c441828fd004d", "rental_uris": {"ios": "https://dc.lft.to/lastmile_qr_scan", "android": "https://dc.lft.to/lastmile_qr_scan"}, "fusion_lon": 0.0, "lat": 38.83947883333333, "is_disabled": 0, "bike_id": "997c57dcff0f885ed85c441828fd004d", "fusion_lat": 0.0, "is_reserved": 0, "lon": -77.08759283333333}, {"type": "electric_scooter", "name": "f6d519f1f079eeacba13013d8aa5acd2", "rental_uris": {"ios": "https://dc.lft.to/lastmile_qr_scan", "android": "https://dc.lft.to/lastmile_qr_scan"}, "fusion_lon": 0.0, "lat": 38.838678333333334, "is_disabled": 0, "bike_id": "f6d519f1f079eeacba13013d8aa5acd2", "fusion_lat": 0.0, "is_reserved": 0, "lon": -76.99697266666666}, {"type": "electric_scooter", "name": "7ee788233ce84e050025717aa1ff3e3f", "rental_uris": {"ios": "https://dc.lft.to/lastmile_qr_scan", "android": "https://dc.lft.to/lastmile_qr_scan"}, "fusion_lon": 0.0, "lat": 38.905800166666666, "is_disabled": 0, "bike_id": "7ee788233ce84e050025717aa1ff3e3f", "fusion_lat": 0.0, "is_reserved": 0, "lon": -77.0040275}, {"type": "electric_scooter", "name": "c1cfc0b154d396a74cea2ab00c8b99e0", "rental_uris": {"ios": "https://dc.lft.to/lastmile_qr_scan", "android": "https://dc.lft.to/lastmile_qr_scan"}, "fusion_lon": 0.0, "lat": 38.923205, "is_disabled": 0, "bike_id": "c1cfc0b154d396a74cea2ab00c8b99e0", "fusion_lat": 0.0, "is_reserved": 0, "lon": -77.04514883333333}, {"type": "electric_scooter", "name": "a22453e202985643b1b0043dce8f38a5", "rental_uris": {"ios": "https://dc.lft.to/lastmile_qr_scan", "android": "https://dc.lft.to/lastmile_qr_scan"}, "fusion_lon": 0.0, "lat": 38.87835066666667, "is_disabled": 0, "bike_id": "a22453e202985643b1b0043dce8f38a5", "fusion_lat": 0.0, "is_reserved": 0, "lon": -76.99033333333334}, {"type": "electric_scooter", "name": "6af804d4fe64a4d95a0bdbe17b7dc7ef", "rental_uris": {"ios": "https://dc.lft.to/lastmile_qr_scan", "android": "https://dc.lft.to/lastmile_qr_scan"}, "fusion_lon": 0.0, "lat": 38.91117883333333, "is_disabled": 0, "bike_id": "6af804d4fe64a4d95a0bdbe17b7dc7ef", "fusion_lat": 0.0, "is_reserved": 0, "lon": -77.03436}, {"type": "electric_scooter", "name": "a6825f9dbec1df1309dde8401eb63c62", "rental_uris": {"ios": "https://dc.lft.to/lastmile_qr_scan", "android": "https://dc.lft.to/lastmile_qr_scan"}, "fusion_lon": 0.0, "lat": 38.9081905, "is_disabled": 0, "bike_id": "a6825f9dbec1df1309dde8401eb63c62", "fusion_lat": 0.0, "is_reserved": 0, "lon": -77.038424}, {"type": "electric_scooter", "name": "0d37cb0ba848b5729429d7ed0ebf5de4", "rental_uris": {"ios": "https://dc.lft.to/lastmile_qr_scan", "android": "https://dc.lft.to/lastmile_qr_scan"}, "fusion_lon": 0.0, "lat": 38.904177, "is_disabled": 0, "bike_id": "0d37cb0ba848b5729429d7ed0ebf5de4", "fusion_lat": 0.0, "is_reserved": 0, "lon": -77.04033483333333}, {"type": "electric_scooter", "name": "7fcb33121ba2e0a5daadb59adc8065fd", "rental_uris": {"ios": "https://dc.lft.to/lastmile_qr_scan", "android": "https://dc.lft.to/lastmile_qr_scan"}, "fusion_lon": 0.0, "lat": 38.927033, "is_disabled": 0, "bike_id": "7fcb33121ba2e0a5daadb59adc8065fd", "fusion_lat": 0.0, "is_reserved": 0, "lon": -77.02432166666667}, {"type": "electric_scooter", "name": "57f27973e93f955e858162f83c77c754", "rental_uris": {"ios": "https://dc.lft.to/lastmile_qr_scan", "android": "https://dc.lft.to/lastmile_qr_scan"}, "fusion_lon": 0.0, "lat": 38.9211505, "is_disabled": 0, "bike_id": "57f27973e93f955e858162f83c77c754", "fusion_lat": 0.0, "is_reserved": 0, "lon": -77.02037016666667}, {"type": "electric_scooter", "name": "77fbf0dfb8ba4ba3a429693c988822ff", "rental_uris": {"ios": "https://dc.lft.to/lastmile_qr_scan", "android": "https://dc.lft.to/lastmile_qr_scan"}, "fusion_lon": 0.0, "lat": 38.91141066666667, "is_disabled": 0, "bike_id": "77fbf0dfb8ba4ba3a429693c988822ff", "fusion_lat": 0.0, "is_reserved": 0, "lon": -77.0279975}, {"type": "electric_scooter", "name": "fd16413b44be44773728d5d0101d625d", "rental_uris": {"ios": "https://dc.lft.to/lastmile_qr_scan", "android": "https://dc.lft.to/lastmile_qr_scan"}, "fusion_lon": 0.0, "lat": 38.90209483333334, "is_disabled": 0, "bike_id": "fd16413b44be44773728d5d0101d625d", "fusion_lat": 0.0, "is_reserved": 0, "lon": -77.02372283333334}, {"type": "electric_scooter", "name": "ad1aa6809ec7530c6c8ffc8a455482c1", "rental_uris": {"ios": "https://dc.lft.to/lastmile_qr_scan", "android": "https://dc.lft.to/lastmile_qr_scan"}, "fusion_lon": 0.0, "lat": 38.92485166666667, "is_disabled": 0, "bike_id": "ad1aa6809ec7530c6c8ffc8a455482c1", "fusion_lat": 0.0, "is_reserved": 0, "lon": -77.02661}, {"type": "electric_scooter", "name": "9fdb9404ad17ac5524cd299764ad6ed9", "rental_uris": {"ios": "https://dc.lft.to/lastmile_qr_scan", "android": "https://dc.lft.to/lastmile_qr_scan"}, "fusion_lon": 0.0, "lat": 38.925626, "is_disabled": 0, "bike_id": "9fdb9404ad17ac5524cd299764ad6ed9", "fusion_lat": 0.0, "is_reserved": 0, "lon": -77.02712383333333}, {"type": "electric_scooter", "name": "a2719905128d9ee78159c515d6e0ee6b", "rental_uris": {"ios": "https://dc.lft.to/lastmile_qr_scan", "android": "https://dc.lft.to/lastmile_qr_scan"}, "fusion_lon": 0.0, "lat": 38.88504316666667, "is_disabled": 0, "bike_id": "a2719905128d9ee78159c515d6e0ee6b", "fusion_lat": 0.0, "is_reserved": 0, "lon": -77.00696633333334}, {"type": "electric_bike", "name": "7d9cedb54e1132284deb40e1c48f1126", "rental_uris": {"ios": "https://dc.lft.to/lastmile_qr_scan", "android": "https://dc.lft.to/lastmile_qr_scan"}, "fusion_lon": 0.0, "lat": 38.89271133333333, "is_disabled": 0, "bike_id": "7d9cedb54e1132284deb40e1c48f1126", "fusion_lat": 0.0, "is_reserved": 0, "lon": -76.95110133333333}, {"type": "electric_scooter", "name": "53253beed34455cbb92ade4b38b4e8e6", "rental_uris": {"ios": "https://dc.lft.to/lastmile_qr_scan", "android": "https://dc.lft.to/lastmile_qr_scan"}, "fusion_lon": 0.0, "lat": 38.8655705, "is_disabled": 0, "bike_id": "53253beed34455cbb92ade4b38b4e8e6", "fusion_lat": 0.0, "is_reserved": 0, "lon": -76.98349383333333}, {"type": "electric_scooter", "name": "d0b9fa9a10a7edcd4df41c32e10ffa08", "rental_uris": {"ios": "https://dc.lft.to/lastmile_qr_scan", "android": "https://dc.lft.to/lastmile_qr_scan"}, "fusion_lon": 0.0, "lat": 38.897842, "is_disabled": 0, "bike_id": "d0b9fa9a10a7edcd4df41c32e10ffa08", "fusion_lat": 0.0, "is_reserved": 0, "lon": -77.010662}, {"type": "electric_scooter", "name": "28f6e9c84d7d16b801ac0727250dc09f", "rental_uris": {"ios": "https://dc.lft.to/lastmile_qr_scan", "android": "https://dc.lft.to/lastmile_qr_scan"}, "fusion_lon": 0.0, "lat": 38.92278783333333, "is_disabled": 0, "bike_id": "28f6e9c84d7d16b801ac0727250dc09f", "fusion_lat": 0.0, "is_reserved": 0, "lon": -77.02951716666666}, {"type": "electric_scooter", "name": "e5bf486bc50694296ff389d6a26a8080", "rental_uris": {"ios": "https://dc.lft.to/lastmile_qr_scan", "android": "https://dc.lft.to/lastmile_qr_scan"}, "fusion_lon": 0.0, "lat": 38.898767166666666, "is_disabled": 0, "bike_id": "e5bf486bc50694296ff389d6a26a8080", "fusion_lat": 0.0, "is_reserved": 0, "lon": -76.93184466666666}, {"type": "electric_scooter", "name": "88137194423e76b9197ac5f723e11f41", "rental_uris": {"ios": "https://dc.lft.to/lastmile_qr_scan", "android": "https://dc.lft.to/lastmile_qr_scan"}, "fusion_lon": 0.0, "lat": 38.924681166666666, "is_disabled": 0, "bike_id": "88137194423e76b9197ac5f723e11f41", "fusion_lat": 0.0, "is_reserved": 0, "lon": -77.02216033333333}, {"type": "electric_bike", "name": "eb22312f75b7adf95e7f6fcf3ee5ff7e", "rental_uris": {"ios": "https://dc.lft.to/lastmile_qr_scan", "android": "https://dc.lft.to/lastmile_qr_scan"}, "fusion_lon": 0.0, "lat": 38.89186, "is_disabled": 0, "bike_id": "eb22312f75b7adf95e7f6fcf3ee5ff7e", "fusion_lat": 0.0, "is_reserved": 0, "lon": -76.92817616666666}, {"type": "electric_scooter", "name": "4611d72f977630c4a9b747759ad86769", "rental_uris": {"ios": "https://dc.lft.to/lastmile_qr_scan", "android": "https://dc.lft.to/lastmile_qr_scan"}, "fusion_lon": 0.0, "lat": 38.895077, "is_disabled": 0, "bike_id": "4611d72f977630c4a9b747759ad86769", "fusion_lat": 0.0, "is_reserved": 0, "lon": -76.93477416666667}, {"type": "electric_scooter", "name": "305817f33345c7e332af382b23994e49", "rental_uris": {"ios": "https://dc.lft.to/lastmile_qr_scan", "android": "https://dc.lft.to/lastmile_qr_scan"}, "fusion_lon": 0.0, "lat": 38.898703, "is_disabled": 0, "bike_id": "305817f33345c7e332af382b23994e49", "fusion_lat": 0.0, "is_reserved": 0, "lon": -76.9464355}, {"type": "electric_scooter", "name": "6e3484ce4054cd030d6a3259503d7315", "rental_uris": {"ios": "https://dc.lft.to/lastmile_qr_scan", "android": "https://dc.lft.to/lastmile_qr_scan"}, "fusion_lon": 0.0, "lat": 38.9230395, "is_disabled": 0, "bike_id": "6e3484ce4054cd030d6a3259503d7315", "fusion_lat": 0.0, "is_reserved": 0, "lon": -77.04269166666667}, {"type": "electric_scooter", "name": "8b38927d39765934d480575b337490b7", "rental_uris": {"ios": "https://dc.lft.to/lastmile_qr_scan", "android": "https://dc.lft.to/lastmile_qr_scan"}, "fusion_lon": 0.0, "lat": 38.932842666666666, "is_disabled": 0, "bike_id": "8b38927d39765934d480575b337490b7", "fusion_lat": 0.0, "is_reserved": 0, "lon": -77.04081233333334}, {"type": "electric_scooter", "name": "d2405a3b179c8b4096e2ecae0a5642f3", "rental_uris": {"ios": "https://dc.lft.to/lastmile_qr_scan", "android": "https://dc.lft.to/lastmile_qr_scan"}, "fusion_lon": 0.0, "lat": 38.909802666666664, "is_disabled": 0, "bike_id": "d2405a3b179c8b4096e2ecae0a5642f3", "fusion_lat": 0.0, "is_reserved": 0, "lon": -77.032239}, {"type": "electric_scooter", "name": "d976afd2fc48d56c425e81246c6124f2", "rental_uris": {"ios": "https://dc.lft.to/lastmile_qr_scan", "android": "https://dc.lft.to/lastmile_qr_scan"}, "fusion_lon": 0.0, "lat": 38.9119645, "is_disabled": 0, "bike_id": "d976afd2fc48d56c425e81246c6124f2", "fusion_lat": 0.0, "is_reserved": 0, "lon": -77.00384733333334}, {"type": "electric_scooter", "name": "d9b01422ef17539f3be3d2155479b151", "rental_uris": {"ios": "https://dc.lft.to/lastmile_qr_scan", "android": "https://dc.lft.to/lastmile_qr_scan"}, "fusion_lon": 0.0, "lat": 38.88726883333333, "is_disabled": 0, "bike_id": "d9b01422ef17539f3be3d2155479b151", "fusion_lat": 0.0, "is_reserved": 0, "lon": -77.025762}, {"type": "electric_scooter", "name": "ff49832b05b16ab283ce776bd9b2a4ee", "rental_uris": {"ios": "https://dc.lft.to/lastmile_qr_scan", "android": "https://dc.lft.to/lastmile_qr_scan"}, "fusion_lon": 0.0, "lat": 38.935254, "is_disabled": 0, "bike_id": "ff49832b05b16ab283ce776bd9b2a4ee", "fusion_lat": 0.0, "is_reserved": 0, "lon": -77.07654983333333}, {"type": "electric_scooter", "name": "fb8c1bd0194004a491252accbf793a97", "rental_uris": {"ios": "https://dc.lft.to/lastmile_qr_scan", "android": "https://dc.lft.to/lastmile_qr_scan"}, "fusion_lon": 0.0, "lat": 38.900084, "is_disabled": 0, "bike_id": "fb8c1bd0194004a491252accbf793a97", "fusion_lat": 0.0, "is_reserved": 0, "lon": -77.0713935}, {"type": "electric_scooter", "name": "2a8dba206c7e713fb3b32a57b75ef94b", "rental_uris": {"ios": "https://dc.lft.to/lastmile_qr_scan", "android": "https://dc.lft.to/lastmile_qr_scan"}, "fusion_lon": 0.0, "lat": 38.90038966666667, "is_disabled": 0, "bike_id": "2a8dba206c7e713fb3b32a57b75ef94b", "fusion_lat": 0.0, "is_reserved": 0, "lon": -77.02407966666667}, {"type": "electric_scooter", "name": "9f7ccae24190ca60cf63abba2fe0b240", "rental_uris": {"ios": "https://dc.lft.to/lastmile_qr_scan", "android": "https://dc.lft.to/lastmile_qr_scan"}, "fusion_lon": 0.0, "lat": 38.920605333333334, "is_disabled": 0, "bike_id": "9f7ccae24190ca60cf63abba2fe0b240", "fusion_lat": 0.0, "is_reserved": 0, "lon": -77.02209866666666}, {"type": "electric_scooter", "name": "b6e3e89618dc484829ee7065d0c1edb0", "rental_uris": {"ios": "https://dc.lft.to/lastmile_qr_scan", "android": "https://dc.lft.to/lastmile_qr_scan"}, "fusion_lon": 0.0, "lat": 38.896314333333336, "is_disabled": 0, "bike_id": "b6e3e89618dc484829ee7065d0c1edb0", "fusion_lat": 0.0, "is_reserved": 0, "lon": -77.03322283333334}, {"type": "electric_scooter", "name": "10e8dd1f4d6567d5b0d4c0885601923d", "rental_uris": {"ios": "https://dc.lft.to/lastmile_qr_scan", "android": "https://dc.lft.to/lastmile_qr_scan"}, "fusion_lon": 0.0, "lat": 38.93880816666667, "is_disabled": 0, "bike_id": "10e8dd1f4d6567d5b0d4c0885601923d", "fusion_lat": 0.0, "is_reserved": 0, "lon": -77.03079033333333}, {"type": "electric_scooter", "name": "dec819b0b5d681d43e60440db9e8508f", "rental_uris": {"ios": "https://dc.lft.to/lastmile_qr_scan", "android": "https://dc.lft.to/lastmile_qr_scan"}, "fusion_lon": 0.0, "lat": 38.9040285, "is_disabled": 0, "bike_id": "dec819b0b5d681d43e60440db9e8508f", "fusion_lat": 0.0, "is_reserved": 0, "lon": -77.033008}, {"type": "electric_scooter", "name": "1d0e880ae9b6e8a72d8d2fed40b4f68b", "rental_uris": {"ios": "https://dc.lft.to/lastmile_qr_scan", "android": "https://dc.lft.to/lastmile_qr_scan"}, "fusion_lon": 0.0, "lat": 38.94329883333333, "is_disabled": 0, "bike_id": "1d0e880ae9b6e8a72d8d2fed40b4f68b", "fusion_lat": 0.0, "is_reserved": 0, "lon": -77.0268675}, {"type": "electric_scooter", "name": "28cab02a28cb6d6361fe7279be7a0be8", "rental_uris": {"ios": "https://dc.lft.to/lastmile_qr_scan", "android": "https://dc.lft.to/lastmile_qr_scan"},