{"data": {"bikes": [{"bike_id": "ce3b6ab0c30d128bf6bee33b6e3c282b", "fusion_lon": 0.0, "name": "ce3b6ab0c30d128bf6bee33b6e3c282b", "lat": 38.9185825, "is_disabled": 0, "is_reserved": 0, "lon": -77.0417385, "type": "electric_scooter", "fusion_lat": 0.0, "rental_uris": {"android": "https://dc.lft.to/lastmile_qr_scan", "ios": "https://dc.lft.to/lastmile_qr_scan"}}, {"bike_id": "c64fb951ce257789160adfa96efde93a", "fusion_lon": 0.0, "name": "c64fb951ce257789160adfa96efde93a", "lat": 38.900193, "is_disabled": 0, "is_reserved": 0, "lon": -76.987948, "type": "electric_scooter", "fusion_lat": 0.0, "rental_uris": {"android": "https://dc.lft.to/lastmile_qr_scan", "ios": "https://dc.lft.to/lastmile_qr_scan"}}, {"bike_id": "a524a1804b7db524cdbebb769a8b5794", "fusion_lon": 0.0, "name": "a524a1804b7db524cdbebb769a8b5794", "lat": 38.96288116666667, "is_disabled": 0, "is_reserved": 0, "lon": -77.0106905, "type": "electric_bike", "fusion_lat": 0.0, "rental_uris": {"android": "https://dc.lft.to/lastmile_qr_scan", "ios": "https://dc.lft.to/lastmile_qr_scan"}}, {"bike_id": "51dd3a7f3fe8497baeb35800606da0af", "fusion_lon": 0.0, "name": "51dd3a7f3fe8497baeb35800606da0af", "lat": 38.923313666666665, "is_disabled": 0, "is_reserved": 0, "lon": -77.020473, "type": "electric_scooter", "fusion_lat": 0.0, "rental_uris": {"android": "https://dc.lft.to/lastmile_qr_scan", "ios": "https://dc.lft.to/lastmile_qr_scan"}}, {"bike_id": "05574f3b209df5cf859e02fbd3b75db5", "fusion_lon": 0.0, "name": "05574f3b209df5cf859e02fbd3b75db5", "lat": 38.92654983333333, "is_disabled": 0, "is_reserved": 0, "lon": -77.0432505, "type": "electric_scooter", "fusion_lat": 0.0, "rental_uris": {"android": "https://dc.lft.to/lastmile_qr_scan", "ios": "https://dc.lft.to/lastmile_qr_scan"}}, {"bike_id": "3e0457568e741220a119145cd3d64363", "fusion_lon": 0.0, "name": "3e0457568e741220a119145cd3d64363", "lat": 38.8314215, "is_disabled": 0, "is_reserved": 0, "lon": -77.0084185, "type": "electric_scooter", "fusion_lat": 0.0, "rental_uris": {"android": "https://dc.lft.to/lastmile_qr_scan", "ios": "https://dc.lft.to/lastmile_qr_scan"}}, {"bike_id": "a5d8ab61af3b6e1edd7f415469f801fd", "fusion_lon": 0.0, "name": "a5d8ab61af3b6e1edd7f415469f801fd", "lat": 38.89874366666667, "is_disabled": 0, "is_reserved": 0, "lon": -76.9318405, "type": "electric_scooter", "fusion_lat": 0.0, "rental_uris": {"android": "https://dc.lft.to/lastmile_qr_scan", "ios": "https://dc.lft.to/lastmile_qr_scan"}}, {"bike_id": "9edd6c39f860b3d7dd7c81dc621850bf", "fusion_lon": 0.0, "name": "9edd6c39f860b3d7dd7c81dc621850bf", "lat": 39.08454316666667, "is_disabled": 0, "is_reserved": 0, "lon": -76.95196733333333, "type": "electric_bike", "fusion_lat": 0.0, "rental_uris": {"android": "https://dc.lft.to/lastmile_qr_scan", "ios": "https://dc.lft.to/lastmile_qr_scan"}}, {"bike_id": "fc910333de2e165bf0bb64587aeac64a", "fusion_lon": 0.0, "name": "fc910333de2e165bf0bb64587aeac64a", "lat": 38.91945716666667, "is_disabled": 0, "is_reserved": 0, "lon": -77.03194183333333, "type": "electric_scooter", "fusion_lat": 0.0, "rental_uris": {"android": "https://dc.lft.to/lastmile_qr_scan", "ios": "https://dc.lft.to/lastmile_qr_scan"}}, {"bike_id": "8ef4fe77fcd3fa279e3e94c3a62cbcd1", "fusion_lon": 0.0, "name": "8ef4fe77fcd3fa279e3e94c3a62cbcd1", "lat": 38.873838666666664, "is_disabled": 0, "is_reserved": 0, "lon": -76.99996766666666, "type": "electric_scooter", "fusion_lat": 0.0, "rental_uris": {"android": "https://dc.lft.to/lastmile_qr_scan", "ios": "https://dc.lft.to/lastmile_qr_scan"}}, {"bike_id": "68925eb80270b9fda39d06c7cf3d7415", "fusion_lon": 0.0, "name": "68925eb80270b9fda39d06c7cf3d7415", "lat": 38.894039666666664, "is_disabled": 0, "is_reserved": 0, "lon": -76.99154116666666, "type": "electric_scooter", "fusion_lat": 0.0, "rental_uris": {"android": "https://dc.lft.to/lastmile_qr_scan", "ios": "https://dc.lft.to/lastmile_qr_scan"}}, {"bike_id": "060c70304b526037cb67961bbc194a97", "fusion_lon": 0.0, "name": "060c70304b526037cb67961bbc194a97", "lat": 38.934877, "is_disabled": 0, "is_reserved": 0, "lon": -77.0453335, "type": "electric_scooter", "fusion_lat": 0.0, "rental_uris": {"android": "https://dc.lft.to/lastmile_qr_scan", "ios": "https://dc.lft.to/lastmile_qr_scan"}}, {"bike_id": "7dfa6be57204f926f0c98441f7d8030b", "fusion_lon": 0.0, "name": "7dfa6be57204f926f0c98441f7d8030b", "lat": 38.9584145, "is_disabled": 0, "is_reserved": 0, "lon": -77.00101766666667, "type": "electric_bike", "fusion_lat": 0.0, "rental_uris": {"android": "https://dc.lft.to/lastmile_qr_scan", "ios": "https://dc.lft.to/lastmile_qr_scan"}}, {"bike_id": "1da573c46f9d714bb86484b970694199", "fusion_lon": 0.0, "name": "1da573c46f9d714bb86484b970694199", "lat": 38.9192065, "is_disabled": 0, "is_reserved": 0, "lon": -77.02200733333333, "type": "electric_scooter", "fusion_lat": 0.0, "rental_uris": {"android": "https://dc.lft.to/lastmile_qr_scan", "ios": "https://dc.lft.to/lastmile_qr_scan"}}, {"bike_id": "2d1df4441daaff19ed70c7e75ec38674", "fusion_lon": 0.0, "name": "2d1df4441daaff19ed70c7e75ec38674", "lat": 38.91321683333334, "is_disabled": 0, "is_reserved": 0, "lon": -77.045473, "type": "electric_scooter", "fusion_lat": 0.0, "rental_uris": {"android": "https://dc.lft.to/lastmile_qr_scan", "ios": "https://dc.lft.to/lastmile_qr_scan"}}, {"bike_id": "ce0c308a115b36d3558e161fae1dbf2b", "fusion_lon": 0.0, "name": "ce0c308a115b36d3558e161fae1dbf2b", "lat": 38.907746833333334, "is_disabled": 0, "is_reserved": 0, "lon": -77.04368533333333, "type": "electric_scooter", "fusion_lat": 0.0, "rental_uris": {"android": "https://dc.lft.to/lastmile_qr_scan", "ios": "https://dc.lft.to/lastmile_qr_scan"}}, {"bike_id": "4ad704c4ae104c96c89a7f483fedec1b", "fusion_lon": 0.0, "name": "4ad704c4ae104c96c89a7f483fedec1b", "lat": 38.9214265, "is_disabled": 0, "is_reserved": 0, "lon": -77.03506083333333, "type": "electric_scooter", "fusion_lat": 0.0, "rental_uris": {"android": "https://dc.lft.to/lastmile_qr_scan", "ios": "https://dc.lft.to/lastmile_qr_scan"}}, {"bike_id": "2ee19a2b383b0f10936bb33432b1c662", "fusion_lon": 0.0, "name": "2ee19a2b383b0f10936bb33432b1c662", "lat": 38.931704, "is_disabled": 0, "is_reserved": 0, "lon": -77.02821816666666, "type": "electric_scooter", "fusion_lat": 0.0, "rental_uris": {"android": "https://dc.lft.to/lastmile_qr_scan", "ios": "https://dc.lft.to/lastmile_qr_scan"}}, {"bike_id": "27a611c8bca914ec8e29218c54771e45", "fusion_lon": 0.0, "name": "27a611c8bca914ec8e29218c54771e45", "lat": 38.899765333333335, "is_disabled": 0, "is_reserved": 0, "lon": -77.02245133333334, "type": "electric_scooter", "fusion_lat": 0.0, "rental_uris": {"android": "https://dc.lft.to/lastmile_qr_scan", "ios": "https://dc.lft.to/lastmile_qr_scan"}}, {"bike_id": "8a996fc5bf2634b8f5070fa5e82cd0dc", "fusion_lon": 0.0, "name": "8a996fc5bf2634b8f5070fa5e82cd0dc", "lat": 38.9193205, "is_disabled": 0, "is_reserved": 0, "lon": -77.02478316666667, "type": "electric_scooter", "fusion_lat": 0.0, "rental_uris": {"android": "https://dc.lft.to/lastmile_qr_scan", "ios": "https://dc.lft.to/lastmile_qr_scan"}}, {"bike_id": "08e44baf19fa8dcf27ab4c406073a000", "fusion_lon": 0.0, "name": "08e44baf19fa8dcf27ab4c406073a000", "lat": 38.92998716666666, "is_disabled": 0, "is_reserved": 0, "lon": -77.037971, "type": "electric_scooter", "fusion_lat": 0.0, "rental_uris": {"android": "https://dc.lft.to/lastmile_qr_scan", "ios": "https://dc.lft.to/lastmile_qr_scan"}}, {"bike_id": "37393f2a17e80cf053327b7193f94820", "fusion_lon": 0.0, "name": "37393f2a17e80cf053327b7193f94820", "lat": 38.87578883333333, "is_disabled": 0, "is_reserved": 0, "lon": -77.2341035, "type": "electric_bike", "fusion_lat": 0.0, "rental_uris": {"android": "https://dc.lft.to/lastmile_qr_scan", "ios": "https://dc.lft.to/lastmile_qr_scan"}}, {"bike_id": "907ffbf667fba402675e69f0d701a61c", "fusion_lon": 0.0, "name": "907ffbf667fba402675e69f0d701a61c", "lat": 38.91606766666666, "is_disabled": 0, "is_reserved": 0, "lon": -77.03106916666667, "type": "electric_scooter", "fusion_lat": 0.0, "rental_uris": {"android": "https://dc.lft.to/lastmile_qr_scan", "ios": "https://dc.lft.to/lastmile_qr_scan"}}, {"bike_id": "65290f63e1f2b759ad0436892721216c", "fusion_lon": 0.0, "name": "65290f63e1f2b759ad0436892721216c", "lat": 38.9327885, "is_disabled": 0, "is_reserved": 0, "lon": -77.02867016666667, "type": "electric_scooter", "fusion_lat": 0.0, "rental_uris": {"android": "https://dc.lft.to/lastmile_qr_scan", "ios": "https://dc.lft.to/lastmile_qr_scan"}}, {"bike_id": "2490eab68c2c3c62aeba185198a8e206", "fusion_lon": 0.0, "name": "2490eab68c2c3c62aeba185198a8e206", "lat": 38.896153166666664, "is_disabled": 0, "is_reserved": 0, "lon": -77.02603466666666, "type": "electric_scooter", "fusion_lat": 0.0, "rental_uris": {"android": "https://dc.lft.to/lastmile_qr_scan", "ios": "https://dc.lft.to/lastmile_qr_scan"}}, {"bike_id": "0c61a110251e83da811eab1628c91beb", "fusion_lon": 0.0, "name": "0c61a110251e83da811eab1628c91beb", "lat": 38.88531116666667, "is_disabled": 0, "is_reserved": 0, "lon": -76.929274, "type": "electric_scooter", "fusion_lat": 0.0, "rental_uris": {"android": "https://dc.lft.to/lastmile_qr_scan", "ios": "https://dc.lft.to/lastmile_qr_scan"}}, {"bike_id": "7a8016e583655667099f8eecc2706f6e", "fusion_lon": 0.0, "name": "7a8016e583655667099f8eecc2706f6e", "lat": 38.8921995, "is_disabled": 0, "is_reserved": 0, "lon": -77.039826, "type": "electric_scooter", "fusion_lat": 0.0, "rental_uris": {"android": "https://dc.lft.to/lastmile_qr_scan", "ios": "https://dc.lft.to/lastmile_qr_scan"}}, {"bike_id": "0c9ed7063bcf33b15419c035b1c68e10", "fusion_lon": 0.0, "name": "0c9ed7063bcf33b15419c035b1c68e10", "lat": 38.892352833333334, "is_disabled": 0, "is_reserved": 0, "lon": -77.02593033333333, "type": "electric_scooter", "fusion_lat": 0.0, "rental_uris": {"android": "https://dc.lft.to/lastmile_qr_scan", "ios": "https://dc.lft.to/lastmile_qr_scan"}}, {"bike_id": "f8b524714040caed01f5241683fcecd0", "fusion_lon": 0.0, "name": "f8b524714040caed01f5241683fcecd0", "lat": 38.8927955, "is_disabled": 0, "is_reserved": 0, "lon": -77.05032883333334, "type": "electric_scooter", "fusion_lat": 0.0, "rental_uris": {"android": "https://dc.lft.to/lastmile_qr_scan", "ios": "https://dc.lft.to/lastmile_qr_scan"}}, {"bike_id": "491b12d4a37e0824f755298c9fe7defc", "fusion_lon": 0.0, "name": "491b12d4a37e0824f755298c9fe7defc", "lat": 38.90021516666667, "is_disabled": 0, "is_reserved": 0, "lon": -77.00773133333334, "type": "electric_bike", "fusion_lat": 0.0, "rental_uris": {"android": "https://dc.lft.to/lastmile_qr_scan", "ios": "https://dc.lft.to/lastmile_qr_scan"}}, {"bike_id": "3b2a22e83694af97b9ebf8ac33944fbf", "fusion_lon": 0.0, "name": "3b2a22e83694af97b9ebf8ac33944fbf", "lat": 38.91759166666667, "is_disabled": 0, "is_reserved": 0, "lon": -77.02816266666666, "type": "electric_scooter", "fusion_lat": 0.0, "rental_uris": {"android": "https://dc.lft.to/lastmile_qr_scan", "ios": "https://dc.lft.to/lastmile_qr_scan"}}, {"bike_id": "70e1f04d17292d5c222ffdf28a76eed1", "fusion_lon": 0.0, "name": "70e1f04d17292d5c222ffdf28a76eed1", "lat": 38.888136833333334, "is_disabled": 0, "is_reserved": 0, "lon": -76.98358916666666, "type": "electric_scooter", "fusion_lat": 0.0, "rental_uris": {"android": "https://dc.lft.to/lastmile_qr_scan", "ios": "https://dc.lft.to/lastmile_qr_scan"}}, {"bike_id": "9657cbd07fd1ccdd8185417056c5956c", "fusion_lon": 0.0, "name": "9657cbd07fd1ccdd8185417056c5956c", "lat": 38.89348916666667, "is_disabled": 0, "is_reserved": 0, "lon": -77.0281005, "type": "electric_scooter", "fusion_lat": 0.0, "rental_uris": {"android": "https://dc.lft.to/lastmile_qr_scan", "ios": "https://dc.lft.to/lastmile_qr_scan"}}, {"bike_id": "5e81b34c64dcc11abe21d742d70980f9", "fusion_lon": 0.0, "name": "5e81b34c64dcc11abe21d742d70980f9", "lat": 38.91120133333333, "is_disabled": 0, "is_reserved": 0, "lon": -77.009381, "type": "electric_scooter", "fusion_lat": 0.0, "rental_uris": {"android": "https://dc.lft.to/lastmile_qr_scan", "ios": "https://dc.lft.to/lastmile_qr_scan"}}, {"bike_id": "7ae5e13fbed981de01b53b220705136b", "fusion_lon": 0.0, "name": "7ae5e13fbed981de01b53b220705136b", "lat": 38.916378333333334, "is_disabled": 0, "is_reserved": 0, "lon": -76.982829, "type": "electric_scooter", "fusion_lat": 0.0, "rental_uris": {"android": "https://dc.lft.to/lastmile_qr_scan", "ios": "https://dc.lft.to/lastmile_qr_scan"}}, {"bike_id": "320182cffd781aa3af908ba8fae8d761", "fusion_lon": 0.0, "name": "320182cffd781aa3af908ba8fae8d761", "lat": 38.916890333333335, "is_disabled": 0, "is_reserved": 0, "lon": -77.02952216666667, "type": "electric_scooter", "fusion_lat": 0.0, "rental_uris": {"android": "https://dc.lft.to/lastmile_qr_scan", "ios": "https://dc.lft.to/lastmile_qr_scan"}}, {"bike_id": "50e8caa2901e53396cf2be49c04abcbe", "fusion_lon": 0.0, "name": "50e8caa2901e53396cf2be49c04abcbe", "lat": 38.920620666666665, "is_disabled": 0, "is_reserved": 0, "lon": -76.99524866666667, "type": "electric_scooter", "fusion_lat": 0.0, "rental_uris": {"android": "https://dc.lft.to/lastmile_qr_scan", "ios": "https://dc.lft.to/lastmile_qr_scan"}}, {"bike_id": "f7e7e0e2e6810513e98e1117121b7a08", "fusion_lon": 0.0, "name": "f7e7e0e2e6810513e98e1117121b7a08", "lat": 38.882561333333335, "is_disabled": 0, "is_reserved": 0, "lon": -76.92667266666666, "type": "electric_scooter", "fusion_lat": 0.0, "rental_uris": {"android": "https://dc.lft.to/lastmile_qr_scan", "ios": "https://dc.lft.to/lastmile_qr_scan"}}, {"bike_id": "a961f14296cd9c152f821f108fd93411", "fusion_lon": 0.0, "name": "a961f14296cd9c152f821f108fd93411", "lat": 38.93873983333334, "is_disabled": 0, "is_reserved": 0, "lon": -77.032565, "type": "electric_scooter", "fusion_lat": 0.0, "rental_uris": {"android": "https://dc.lft.to/lastmile_qr_scan", "ios": "https://dc.lft.to/lastmile_qr_scan"}}, {"bike_id": "a0bd559354d2488bd066fcd1e9985391", "fusion_lon": 0.0, "name": "a0bd559354d2488bd066fcd1e9985391", "lat": 38.90038116666667, "is_disabled": 0, "is_reserved": 0, "lon": -77.00194366666666, "type": "electric_scooter", "fusion_lat": 0.0, "rental_uris": {"android": "https://dc.lft.to/lastmile_qr_scan", "ios": "https://dc.lft.to/lastmile_qr_scan"}}, {"bike_id": "026cff8aeaff234704ddf56293965fd9", "fusion_lon": 0.0, "name": "026cff8aeaff234704ddf56293965fd9", "lat": 38.85647433333333, "is_disabled": 0, "is_reserved": 0, "lon": -77.0852965, "type": "electric_bike", "fusion_lat": 0.0, "rental_uris": {"android": "https://dc.lft.to/lastmile_qr_scan", "ios": "https://dc.lft.to/lastmile_qr_scan"}}, {"bike_id": "3ab53b94cb1c52d24b2e771f51e34ac0", "fusion_lon": 0.0, "name": "3ab53b94cb1c52d24b2e771f51e34ac0", "lat": 38.930291833333335, "is_disabled": 0, "is_reserved": 0, "lon": -77.032839, "type": "electric_scooter", "fusion_lat": 0.0, "rental_uris": {"android": "https://dc.lft.to/lastmile_qr_scan", "ios": "https://dc.lft.to/lastmile_qr_scan"}}, {"bike_id": "49b1d2c4f70e40a288e6e69a42f3eb6b", "fusion_lon": 0.0, "name": "49b1d2c4f70e40a288e6e69a42f3eb6b", "lat": 38.915346666666665, "is_disabled": 0, "is_reserved": 0, "lon": -77.01227866666666, "type": "electric_scooter", "fusion_lat": 0.0, "rental_uris": {"android": "https://dc.lft.to/lastmile_qr_scan", "ios": "https://dc.lft.to/lastmile_qr_scan"}}, {"bike_id": "8eac77c2cdecd9d10f45a4f6502b8651", "fusion_lon": 0.0, "name": "8eac77c2cdecd9d10f45a4f6502b8651", "lat": 38.897034833333336, "is_disabled": 0, "is_reserved": 0, "lon": -77.01611766666667, "type": "electric_scooter", "fusion_lat": 0.0, "rental_uris": {"android": "https://dc.lft.to/lastmile_qr_scan", "ios": "https://dc.lft.to/lastmile_qr_scan"}}, {"bike_id": "76b87f2a5dd77800b4980b93e459aefe", "fusion_lon": 0.0, "name": "76b87f2a5dd77800b4980b93e459aefe", "lat": 38.8663815, "is_disabled": 0, "is_reserved": 0, "lon": -76.983052, "type": "electric_scooter", "fusion_lat": 0.0, "rental_uris": {"android": "https://dc.lft.to/lastmile_qr_scan", "ios": "https://dc.lft.to/lastmile_qr_scan"}}, {"bike_id": "8bf4d361d91fb7a16386aa3c82c83096", "fusion_lon": 0.0, "name": "8bf4d361d91fb7a16386aa3c82c83096", "lat": 38.91589316666666, "is_disabled": 0, "is_reserved": 0, "lon": -76.9796565, "type": "electric_scooter", "fusion_lat": 0.0, "rental_uris": {"android": "https://dc.lft.to/lastmile_qr_scan", "ios": "https://dc.lft.to/lastmile_qr_scan"}}, {"bike_id": "75bd19803eb336cfa7e6d18b64a11d77", "fusion_lon": 0.0, "name": "75bd19803eb336cfa7e6d18b64a11d77", "lat": 38.92852383333334, "is_disabled": 0, "is_reserved": 0, "lon": -77.03518933333334, "type": "electric_scooter", "fusion_lat": 0.0, "rental_uris": {"android": "https://dc.lft.to/lastmile_qr_scan", "ios": "https://dc.lft.to/lastmile_qr_scan"}}, {"bike_id": "f4eae1317427109778b1cf7e85553c6b", "fusion_lon": 0.0, "name": "f4eae1317427109778b1cf7e85553c6b", "lat": 38.891005166666666, "is_disabled": 0, "is_reserved": 0, "lon": -77.18414366666667, "type": "electric_bike", "fusion_lat": 0.0, "rental_uris": {"android": "https://dc.lft.to/lastmile_qr_scan", "ios": "https://dc.lft.to/lastmile_qr_scan"}}, {"bike_id": "5169169e65ddf06b417b48d5f385db5e", "fusion_lon": 0.0, "name": "5169169e65ddf06b417b48d5f385db5e", "lat": 38.856976333333336, "is_disabled": 0, "is_reserved": 0, "lon": -76.99597533333333, "type": "electric_scooter", "fusion_lat": 0.0, "rental_uris": {"android": "https://dc.lft.to/lastmile_qr_scan", "ios": "https://dc.lft.to/lastmile_qr_scan"}}, {"bike_id": "68488ffb10f0a8a57c94ae917fb52de8", "fusion_lon": 0.0, "name": "68488ffb10f0a8a57c94ae917fb52de8", "lat": 38.915348, "is_disabled": 0, "is_reserved": 0, "lon": -77.01231416666667, "type": "electric_scooter", "fusion_lat": 0.0, "rental_uris": {"android": "https://dc.lft.to/lastmile_qr_scan", "ios": "https://dc.lft.to/lastmile_qr_scan"}}, {"bike_id": "b14108d9e785b6be2629572249485644", "fusion_lon": 0.0, "name": "b14108d9e785b6be2629572249485644", "lat": 38.8962575, "is_disabled": 0, "is_reserved": 0, "lon": -76.98837016666667, "type": "electric_scooter", "fusion_lat": 0.0, "rental_uris": {"android": "https://dc.lft.to/lastmile_qr_scan", "ios": "https://dc.lft.to/lastmile_qr_scan"}}, {"bike_id": "566888d5d7be94de21ab81948d465558", "fusion_lon": 0.0, "name": "566888d5d7be94de21ab81948d465558", "lat": 38.88731966666667, "is_disabled": 0, "is_reserved": 0, "lon": -77.0220045, "type": "electric_scooter", "fusion_lat": 0.0, "rental_uris": {"android": "https://dc.lft.to/lastmile_qr_scan", "ios": "https://dc.lft.to/lastmile_qr_scan"}}, {"bike_id": "095d91ff46b4d7e2012f4ff600676cf0", "fusion_lon": 0.0, "name": "095d91ff46b4d7e2012f4ff600676cf0", "lat": 38.916938, "is_disabled": 0, "is_reserved": 0, "lon": -77.02895366666667, "type": "electric_scooter", "fusion_lat": 0.0, "rental_uris": {"android": "https://dc.lft.to/lastmile_qr_scan", "ios": "https://dc.lft.to/lastmile_qr_scan"}}, {"bike_id": "aa5679a6326d22a0c0b768085d706da4", "fusion_lon": 0.0, "name": "aa5679a6326d22a0c0b768085d706da4", "lat": 38.898405833333335, "is_disabled": 0, "is_reserved": 0, "lon": -77.02847533333333, "type": "electric_scooter", "fusion_lat": 0.0, "rental_uris": {"android": "https://dc.lft.to/lastmile_qr_scan", "ios": "https://dc.lft.to/lastmile_qr_scan"}}, {"bike_id": "0c2a4da72fe29cd872db3060ab5f0a4b", "fusion_lon": 0.0, "name": "0c2a4da72fe29cd872db3060ab5f0a4b", "lat": 38.91700566666667, "is_disabled": 0, "is_reserved": 0, "lon": -77.01164133333333, "type": "electric_scooter", "fusion_lat": 0.0, "rental_uris": {"android": "https://dc.lft.to/lastmile_qr_scan", "ios": "https://dc.lft.to/lastmile_qr_scan"}}, {"bike_id": "f3cab2adbab724bbc65675a3c5fdbf1f", "fusion_lon": 0.0, "name": "f3cab2adbab724bbc65675a3c5fdbf1f", "lat": 38.89766133333333, "is_disabled": 0, "is_reserved": 0, "lon": -77.030273, "type": "electric_scooter", "fusion_lat": 0.0, "rental_uris": {"android": "https://dc.lft.to/lastmile_qr_scan", "ios": "https://dc.lft.to/lastmile_qr_scan"}}, {"bike_id": "40c77a1a4893d289383a151d71becbfd", "fusion_lon": 0.0, "name": "40c77a1a4893d289383a151d71becbfd", "lat": 38.959330666666666, "is_disabled": 0, "is_reserved": 0, "lon": -77.03117366666666, "type": "electric_scooter", "fusion_lat": 0.0, "rental_uris": {"android": "https://dc.lft.to/lastmile_qr_scan", "ios": "https://dc.lft.to/lastmile_qr_scan"}}, {"bike_id": "8d9dbd898c74273d42b4bb1f8dbd0553", "fusion_lon": 0.0, "name": "8d9dbd898c74273d42b4bb1f8dbd0553", "lat": 38.91224016666666, "is_disabled": 0, "is_reserved": 0, "lon": -77.03798133333333, "type": "electric_scooter", "fusion_lat": 0.0, "rental_uris": {"android": "https://dc.lft.to/lastmile_qr_scan", "ios": "https://dc.lft.to/lastmile_qr_scan"}}, {"bike_id": "5395f006f5446c259de23327b3e0c1a9", "fusion_lon": 0.0, "name": "5395f006f5446c259de23327b3e0c1a9", "lat": 38.91821866666667, "is_disabled": 0, "is_reserved": 0, "lon": -77.04178833333333, "type": "electric_scooter", "fusion_lat": 0.0, "rental_uris": {"android": "https://dc.lft.to/lastmile_qr_scan", "ios": "https://dc.lft.to/lastmile_qr_scan"}}, {"bike_id": "4cf08ba8e86070bccb88665b64992015", "fusion_lon": 0.0, "name": "4cf08ba8e86070bccb88665b64992015", "lat": 38.91925766666667, "is_disabled": 0, "is_reserved": 0, "lon": -77.023472, "type": "electric_scooter", "fusion_lat": 0.0, "rental_uris": {"android": "https://dc.lft.to/lastmile_qr_scan", "ios": "https://dc.lft.to/lastmile_qr_scan"}}, {"bike_id": "264d1bfb915b62ab3dcdf84ed698f94a", "fusion_lon": 0.0, "name": "264d1bfb915b62ab3dcdf84ed698f94a", "lat": 38.845055, "is_disabled": 0, "is_reserved": 0, "lon": -76.99351483333334, "type": "electric_bike", "fusion_lat": 0.0, "rental_uris": {"android": "https://dc.lft.to/lastmile_qr_scan", "ios": "https://dc.lft.to/lastmile_qr_scan"}}, {"bike_id": "d625bf0e66cb86c482d2f0874de9747f", "fusion_lon": 0.0, "name": "d625bf0e66cb86c482d2f0874de9747f", "lat": 38.92480833333333, "is_disabled": 0, "is_reserved": 0, "lon": -77.02755266666667, "type": "electric_scooter", "fusion_lat": 0.0, "rental_uris": {"android": "https://dc.lft.to/lastmile_qr_scan", "ios": "https://dc.lft.to/lastmile_qr_scan"}}, {"bike_id": "6e6b1d338aaff28b2895a0b0b597ab9c", "fusion_lon": 0.0, "name": "6e6b1d338aaff28b2895a0b0b597ab9c", "lat": 38.90209383333333, "is_disabled": 0, "is_reserved": 0, "lon": -77.02744033333333, "type": "electric_scooter", "fusion_lat": 0.0, "rental_uris": {"android": "https://dc.lft.to/lastmile_qr_scan", "ios": "https://dc.lft.to/lastmile_qr_scan"}}, {"bike_id": "895886f3b8f0728dd9b2532730c81824", "fusion_lon": 0.0, "name": "895886f3b8f0728dd9b2532730c81824", "lat": 38.925148, "is_disabled": 0, "is_reserved": 0, "lon": -76.99562516666667, "type": "electric_scooter", "fusion_lat": 0.0, "rental_uris": {"android": "https://dc.lft.to/lastmile_qr_scan", "ios": "https://dc.lft.to/lastmile_qr_scan"}}, {"bike_id": "08ca6607d3582185a3af0a502b1f8ce2", "fusion_lon": 0.0, "name": "08ca6607d3582185a3af0a502b1f8ce2", "lat": 38.89073116666667, "is_disabled": 0, "is_reserved": 0, "lon": -76.944632, "type": "electric_scooter", "fusion_lat": 0.0, "rental_uris": {"android": "https://dc.lft.to/lastmile_qr_scan", "ios": "https://dc.lft.to/lastmile_qr_scan"}}, {"bike_id": "17c8078ee52549614bdfdcfc219ceac4", "fusion_lon": 0.0, "name": "17c8078ee52549614bdfdcfc219ceac4", "lat": 38.90135216666667, "is_disabled": 0, "is_reserved": 0, "lon": -77.04138516666667, "type": "electric_scooter", "fusion_lat": 0.0, "rental_uris": {"android": "https://dc.lft.to/lastmile_qr_scan", "ios": "https://dc.lft.to/lastmile_qr_scan"}}, {"bike_id": "0ea17a7d437a4be566846478ee2f7639", "fusion_lon": 0.0, "name": "0ea17a7d437a4be566846478ee2f7639", "lat": 38.86684533333333, "is_disabled": 0, "is_reserved": 0, "lon": -76.98560233333333, "type": "electric_scooter", "fusion_lat": 0.0, "rental_uris": {"android": "https://dc.lft.to/lastmile_qr_scan", "ios": "https://dc.lft.to/lastmile_qr_scan"}}, {"bike_id": "0fbb869ed081a41f3c05a3eeb83ec6bf", "fusion_lon": 0.0, "name": "0fbb869ed081a41f3c05a3eeb83ec6bf", "lat": 38.895370666666665, "is_disabled": 0, "is_reserved": 0, "lon": -77.0121345, "type": "electric_scooter", "fusion_lat": 0.0, "rental_uris": {"android": "https://dc.lft.to/lastmile_qr_scan", "ios": "https://dc.lft.to/lastmile_qr_scan"}}, {"bike_id": "b4900b4ad9dfd3616ad4e41f4ceccf0b", "fusion_lon": 0.0, "name": "b4900b4ad9dfd3616ad4e41f4ceccf0b", "lat": 38.9026655, "is_disabled": 0, "is_reserved": 0, "lon": -77.034103, "type": "electric_scooter", "fusion_lat": 0.0, "rental_uris": {"android": "https://dc.lft.to/lastmile_qr_scan", "ios": "https://dc.lft.to/lastmile_qr_scan"}}, {"bike_id": "5382deb1641125fae5c9f34b91c06dd6", "fusion_lon": 0.0, "name": "5382deb1641125fae5c9f34b91c06dd6", "lat": 38.898548166666664, "is_disabled": 0, "is_reserved": 0, "lon": -77.02701983333333, "type": "electric_scooter", "fusion_lat": 0.0, "rental_uris": {"android": "https://dc.lft.to/lastmile_qr_scan", "ios": "https://dc.lft.to/lastmile_qr_scan"}}, {"bike_id": "ebc6e6989f511ea80e73c2f3c8292bab", "fusion_lon": 0.0, "name": "ebc6e6989f511ea80e73c2f3c8292bab", "lat": 38.90510616666667, "is_disabled": 0, "is_reserved": 0, "lon": -77.0512265, "type": "electric_scooter", "fusion_lat": 0.0, "rental_uris": {"android": "https://dc.lft.to/lastmile_qr_scan", "ios": "https://dc.lft.to/lastmile_qr_scan"}}, {"bike_id": "c510a421d8d007d3b33109a90ed9b9c2", "fusion_lon": 0.0, "name": "c510a421d8d007d3b33109a90ed9b9c2", "lat": 38.8997475, "is_disabled": 0, "is_reserved": 0, "lon": -77.00949533333333, "type": "electric_scooter", "fusion_lat": 0.0, "rental_uris": {"android": "https://dc.lft.to/lastmile_qr_scan", "ios": "https://dc.lft.to/lastmile_qr_scan"}}, {"bike_id": "1127b9d56f1f1fa4077238bf9d81d881", "fusion_lon": 0.0, "name": "1127b9d56f1f1fa4077238bf9d81d881", "lat": 38.9081, "is_disabled": 0, "is_reserved": 0, "lon": -77.04321616666667, "type": "electric_scooter", "fusion_lat": 0.0, "rental_uris": {"android": "https://dc.lft.to/lastmile_qr_scan", "ios": "https://dc.lft.to/lastmile_qr_scan"}}, {"bike_id": "c2d940080b9afc64246c2d0d5d28e069", "fusion_lon": 0.0, "name": "c2d940080b9afc64246c2d0d5d28e069", "lat": 38.90945116666666, "is_disabled": 0, "is_reserved": 0, "lon": -77.03869266666666, "type": "electric_scooter", "fusion_lat": 0.0, "rental_uris": {"android": "https://dc.lft.to/lastmile_qr_scan", "ios": "https://dc.lft.to/lastmile_qr_scan"}}, {"bike_id": "17ae823b421671893e89042ef1301fc9", "fusion_lon": 0.0, "name": "17ae823b421671893e89042ef1301fc9", "lat": 38.884883, "is_disabled": 0, "is_reserved": 0, "lon": -76.95647333333334, "type": "electric_scooter", "fusion_lat": 0.0, "rental_uris": {"android": "https://dc.lft.to/lastmile_qr_scan", "ios": "https://dc.lft.to/lastmile_qr_scan"}}, {"bike_id": "9e5ffadfa7436c7a81c265b6fb05a49d", "fusion_lon": 0.0, "name": "9e5ffadfa7436c7a81c265b6fb05a49d", "lat": 38.91333516666667, "is_disabled": 0, "is_reserved": 0, "lon": -77.03170966666667, "type": "electric_scooter", "fusion_lat": 0.0, "rental_uris": {"android": "https://dc.lft.to/lastmile_qr_scan", "ios": "https://dc.lft.to/lastmile_qr_scan"}}, {"bike_id": "04d7bd4505d279ee785bb2558d22589d", "fusion_lon": 0.0, "name": "04d7bd4505d279ee785bb2558d22589d", "lat": 38.916131666666665, "is_disabled": 0, "is_reserved": 0, "lon": -77.04882866666667, "type": "electric_scooter", "fusion_lat": 0.0, "rental_uris": {"android": "https://dc.lft.to/lastmile_qr_scan", "ios": "https://dc.lft.to/lastmile_qr_scan"}}, {"bike_id": "ae0ec11282f93daa4d3ba3621821b98b", "fusion_lon": 0.0, "name": "ae0ec11282f93daa4d3ba3621821b98b", "lat": 38.8783325, "is_disabled": 0, "is_reserved": 0, "lon": -76.99036216666667, "type": "electric_scooter", "fusion_lat": 0.0, "rental_uris": {"android": "https://dc.lft.to/lastmile_qr_scan", "ios": "https://dc.lft.to/lastmile_qr_scan"}}, {"bike_id": "6747629b014adb8c120e41c2f234eb40", "fusion_lon": 0.0, "name": "6747629b014adb8c120e41c2f234eb40", "lat": 38.83937783333333, "is_disabled": 0, "is_reserved": 0, "lon": -77.08736966666666, "type": "electric_bike", "fusion_lat": 0.0, "rental_uris": {"android": "https://dc.lft.to/lastmile_qr_scan", "ios": "https://dc.lft.to/lastmile_qr_scan"}}, {"bike_id": "418e449c8fc75889140ec9e60f344395", "fusion_lon": 0.0, "name": "418e449c8fc75889140ec9e60f344395", "lat": 38.905546666666666, "is_disabled": 0, "is_reserved": 0, "lon": -77.0040555, "type": "electric_scooter", "fusion_lat": 0.0, "rental_uris": {"android": "https://dc.lft.to/lastmile_qr_scan", "ios": "https://dc.lft.to/lastmile_qr_scan"}}, {"bike_id": "cc704ffe947339d063a4faa8ae617e7b", "fusion_lon": 0.0, "name": "cc704ffe947339d063a4faa8ae617e7b", "lat": 38.838627833333334, "is_disabled": 0, "is_reserved": 0, "lon": -76.9969745, "type": "electric_scooter", "fusion_lat": 0.0, "rental_uris": {"android": "https://dc.lft.to/lastmile_qr_scan", "ios": "https://dc.lft.to/lastmile_qr_scan"}}, {"bike_id": "9573645119bd9e6284c4aef75d4e324c", "fusion_lon": 0.0, "name": "9573645119bd9e6284c4aef75d4e324c", "lat": 38.92132016666667, "is_disabled": 0, "is_reserved": 0, "lon": -77.04122066666666, "type": "electric_scooter", "fusion_lat": 0.0, "rental_uris": {"android": "https://dc.lft.to/lastmile_qr_scan", "ios": "https://dc.lft.to/lastmile_qr_scan"}}, {"bike_id": "3ae6724e868f7e1aa92d806fec1b2ead", "fusion_lon": 0.0, "name": "3ae6724e868f7e1aa92d806fec1b2ead", "lat": 38.91112966666667, "is_disabled": 0, "is_reserved": 0, "lon": -77.03433233333334, "type": "electric_scooter", "fusion_lat": 0.0, "rental_uris": {"android": "https://dc.lft.to/lastmile_qr_scan", "ios": "https://dc.lft.to/lastmile_qr_scan"}}, {"bike_id": "d27784d5fa2aa427d55cb90d804caa8d", "fusion_lon": 0.0, "name": "d27784d5fa2aa427d55cb90d804caa8d", "lat": 38.935399, "is_disabled": 0, "is_reserved": 0, "lon": -77.02346983333334, "type": "electric_scooter", "fusion_lat": 0.0, "rental_uris": {"android": "https://dc.lft.to/lastmile_qr_scan", "ios": "https://dc.lft.to/lastmile_qr_scan"}}, {"bike_id": "54122caa82eb462e83647da8fc6c27ac", "fusion_lon": 0.0, "name": "54122caa82eb462e83647da8fc6c27ac", "lat": 38.92706916666667, "is_disabled": 0, "is_reserved": 0, "lon": -77.02435316666667, "type": "electric_scooter", "fusion_lat": 0.0, "rental_uris": {"android": "https://dc.lft.to/lastmile_qr_scan", "ios": "https://dc.lft.to/lastmile_qr_scan"}}, {"bike_id": "3858a967dd944212ac24597767ae4440", "fusion_lon": 0.0, "name": "3858a967dd944212ac24597767ae4440", "lat": 38.9056425, "is_disabled": 0, "is_reserved": 0, "lon": -77.0028385, "type": "electric_scooter", "fusion_lat": 0.0, "rental_uris": {"android": "https://dc.lft.to/lastmile_qr_scan", "ios": "https://dc.lft.to/lastmile_qr_scan"}}, {"bike_id": "dbd953732a2880e73e52ff42200d3818", "fusion_lon": 0.0, "name": "dbd953732a2880e73e52ff42200d3818", "lat": 38.9204675, "is_disabled": 0, "is_reserved": 0, "lon": -77.02575983333334, "type": "electric_scooter", "fusion_lat": 0.0, "rental_uris": {"android": "https://dc.lft.to/lastmile_qr_scan", "ios": "https://dc.lft.to/lastmile_qr_scan"}}, {"bike_id": "3683043c6a841b897d0451d9846e6e50", "fusion_lon": 0.0, "name": "3683043c6a841b897d0451d9846e6e50", "lat": 38.85784533333333, "is_disabled": 0, "is_reserved": 0, "lon": -77.12021416666667, "type": "electric_bike", "fusion_lat": 0.0, "rental_uris": {"android": "https://dc.lft.to/lastmile_qr_scan", "ios": "https://dc.lft.to/lastmile_qr_scan"}}, {"bike_id": "ba9bd527615e7a85aa7e0c07e4605cce", "fusion_lon": 0.0, "name": "ba9bd527615e7a85aa7e0c07e4605cce", "lat": 38.95183183333333, "is_disabled": 0, "is_reserved": 0, "lon": -77.02723266666666, "type": "electric_scooter", "fusion_lat": 0.0, "rental_uris": {"android": "https://dc.lft.to/lastmile_qr_scan", "ios": "https://dc.lft.to/lastmile_qr_scan"}}, {"bike_id": "25e71bf6558d1c91bfaa94d74f1b69f1", "fusion_lon": 0.0, "name": "25e71bf6558d1c91bfaa94d74f1b69f1", "lat": 38.99219216666667, "is_disabled": 0, "is_reserved": 0, "lon": -76.9444965, "type": "electric_bike", "fusion_lat": 0.0, "rental_uris": {"android": "https://dc.lft.to/lastmile_qr_scan", "ios": "https://dc.lft.to/lastmile_qr_scan"}}, {"bike_id": "f58d221e36b4a1c89882a375c0106770", "fusion_lon": 0.0, "name": "f58d221e36b4a1c89882a375c0106770", "lat": 38.89205116666667, "is_disabled": 0, "is_reserved": 0, "lon": -76.95701916666667, "type": "electric_scooter", "fusion_lat": 0.0, "rental_uris": {"android": "https://dc.lft.to/lastmile_qr_scan", "ios": "https://dc.lft.to/lastmile_qr_scan"}}, {"bike_id": "8546b2db87233300ff5ed828474fe530", "fusion_lon": 0.0, "name": "8546b2db87233300ff5ed828474fe530", "lat": 38.9166995, "is_disabled": 0, "is_reserved": 0, "lon": -77.02713133333333, "type": "electric_scooter", "fusion_lat": 0.0, "rental_uris": {"android": "https://dc.lft.to/lastmile_qr_scan", "ios": "https://dc.lft.to/lastmile_qr_scan"}}, {"bike_id": "d83c90e8185f546808b83963a2565445", "fusion_lon": 0.0, "name": "d83c90e8185f546808b83963a2565445", "lat": 38.895095166666664, "is_disabled": 0, "is_reserved": 0, "lon": -77.02611033333334, "type": "electric_scooter", "fusion_lat": 0.0, "rental_uris": {"android": "https://dc.lft.to/lastmile_qr_scan", "ios": "https://dc.lft.to/lastmile_qr_scan"}}, {"bike_id": "0067cf00b9ea6f54bc1acfa04eac0d20", "fusion_lon": 0.0, "name": "0067cf00b9ea6f54bc1acfa04eac0d20", "lat": 38.887392, "is_disabled": 0, "is_reserved": 0, "lon": -77.01533916666666, "type": "electric_scooter", "fusion_lat": 0.0, "rental_uris": {"android": "https://dc.lft.to/lastmile_qr_scan", "ios": "https://dc.lft.to/lastmile_qr_scan"}}, {"bike_id": "0d5e77525a5596e3e0cfc4c4ccad448c", "fusion_lon": 0.0, "name": "0d5e77525a5596e3e0cfc4c4ccad448c", "lat": 38.855072666666665, "is_disabled": 0, "is_reserved": 0, "lon": -77.12043916666667, "type": "electric_bike", "fusion_lat": 0.0, "rental_uris": {"android": "https://dc.lft.to/lastmile_qr_scan", "ios": "https://dc.lft.to/lastmile_qr_scan"}}, {"bike_id": "3a9717bb981fc2f07347f36556718f6b", "fusion_lon": 0.0, "name": "3a9717bb981fc2f07347f36556718f6b", "lat": 38.910568166666664, "is_disabled": 0, "is_reserved": 0, "lon": -77.04337666666666, "type": "electric_scooter", "fusion_lat": 0.0, "rental_uris": {"android": "https://dc.lft.to/lastmile_qr_scan", "ios": "https://dc.lft.to/lastmile_qr_scan"}}, {"bike_id": "efb7af49a3c192ee9f566e311a09cd52", "fusion_lon": 0.0, "name": "efb7af49a3c192ee9f566e311a09cd52", "lat": 38.96474833333333, "is_disabled": 0, "is_reserved": 0, "lon": -77.01196666666667, "type": "electric_scooter", "fusion_lat": 0.0, "rental_uris": {"android": "https://dc.lft.to/lastmile_qr_scan", "ios": "https://dc.lft.to/lastmile_qr_scan"}}, {"bike_id": "cee395c802244b7c7f74b3a55949981f", "fusion_lon": 0.0, "name": "cee395c802244b7c7f74b3a55949981f", "lat": 38.922307833333335, "is_disabled": 0, "is_reserved": 0, "lon": -77.04648266666666, "type": "electric_scooter", "fusion_lat": 0.0, "rental_uris": {"android": "https://dc.lft.to/lastmile_qr_scan", "ios": "https://dc.lft.to/lastmile_qr_scan"}}, {"bike_id": "03d690c56f7bcf8c9ea9ce2254ea0af4", "fusion_lon": 0.0, "name": "03d690c56f7bcf8c9ea9ce2254ea0af4", "lat": 38.8849195, "is_disabled": 0, "is_reserved": 0, "lon": -77.00710333333333, "type": "electric_scooter", "fusion_lat": 0.0, "rental_uris": {"android": "https://dc.lft.to/lastmile_qr_scan", "ios": "https://dc.lft.to/lastmile_qr_scan"}}, {"bike_id": "95a167cd4d7cf60ced5c068ee21a899d", "fusion_lon": 0.0, "name": "95a167cd4d7cf60ced5c068ee21a899d", "lat": 38.867621, "is_disabled": 0, "is_reserved": 0, "lon": -76.98278833333333, "type": "electric_scooter", "fusion_lat": 0.0, "rental_uris": {"android": "https://dc.lft.to/lastmile_qr_scan", "ios": "https://dc.lft.to/lastmile_qr_scan"}}, {"bike_id": "a105008d0917fa98847c9e2ffccb64a2", "fusion_lon": 0.0, "name": "a105008d0917fa98847c9e2ffccb64a2", "lat": 38.888744, "is_disabled": 0, "is_reserved": 0, "lon": -76.977274, "type": "electric_scooter", "fusion_lat": 0.0, "rental_uris": {"android": "https://dc.lft.to/lastmile_qr_scan", "ios": "https://dc.lft.to/lastmile_qr_scan"}}, {"bike_id": "585a2b1286766c481bbfba9febd41264", "fusion_lon": 0.0, "name": "585a2b1286766c481bbfba9febd41264", "lat": 38.914067, "is_disabled": 0, "is_reserved": 0, "lon": -77.02431116666666, "type": "electric_scooter", "fusion_lat": 0.0, "rental_uris": {"android": "https://dc.lft.to/lastmile_qr_scan", "ios": "https://dc.lft.to/lastmile_qr_scan"}}, {"bike_id": "4521c19ca26ffcebcd0869de179fc743", "fusion_lon": 0.0, "name": "4521c19ca26ffcebcd0869de179fc743", "lat": 38.91262583333334, "is_disabled": 0, "is_reserved": 0, "lon": -77.0384155, "type": "electric_scooter", "fusion_lat": 0.0, "rental_uris": {"android": "https://dc.lft.to/lastmile_qr_scan", "ios": "https://dc.lft.to/lastmile_qr_scan"}}, {"bike_id": "05578f95c3f2a8c146a57858dc33ee5c", "fusion_lon": 0.0, "name": "05578f95c3f2a8c146a57858dc33ee5c", "lat": 38.93559616666667, "is_disabled": 0, "is_reserved": 0, "lon": -77.07460533333334, "type": "electric_scooter", "fusion_lat": 0.0, "rental_uris": {"android": "https://dc.lft.to/lastmile_qr_scan", "ios": "https://dc.lft.to/lastmile_qr_scan"}}, {"bike_id": "885192361ed1045d3aa589475ba139b3", "fusion_lon": 0.0, "name": "885192361ed1045d3aa589475ba139b3", "lat": 38.87664816666667, "is_disabled": 0, "is_reserved": 0, "lon": -77.00513133333334, "type": "electric_scooter", "fusion_lat": 0.0, "rental_uris": {"android": "https://dc.lft.to/lastmile_qr_scan", "ios": "https://dc.lft.to/lastmile_qr_scan"}}, {"bike_id": "ca8997a5efdafdaf94fbd3a56ea5ab6e", "fusion_lon": 0.0, "name": "ca8997a5efdafdaf94fbd3a56ea5ab6e", "lat": 38.926087333333335, "is_disabled": 0, "is_reserved": 0, "lon": -77.05712883333334, "type": "electric_scooter", "fusion_lat": 0.0, "rental_uris": {"android": "https://dc.lft.to/lastmile_qr_scan", "ios": "https://dc.lft.to/lastmile_qr_scan"}}, {"bike_id": "d91b023fdbfe06c2e03b16b2f573c1ef", "fusion_lon": 0.0, "name": "d91b023fdbfe06c2e03b16b2f573c1ef", "lat": 38.9155615, "is_disabled": 0, "is_reserved": 0, "lon": -77.03780366666666, "type": "electric_scooter", "fusion_lat": 0.0, "rental_uris": {"android": "https://dc.lft.to/lastmile_qr_scan", "ios": "https://dc.lft.to/lastmile_qr_scan"}}, {"bike_id": "5eb43886c3387cd1a5eb218b80efbae4", "fusion_lon": 0.0, "name": "5eb43886c3387cd1a5eb218b80efbae4", "lat": 38.8965755, "is_disabled": 0, "is_reserved": 0, "lon": -77.02627016666666, "type": "electric_scooter", "fusion_lat": 0.0, "rental_uris": {"android": "https://dc.lft.to/lastmile_qr_scan", "ios": "https://dc.lft.to/lastmile_qr_scan"}}, {"bike_id": "99ba63931d10f34768a854f034c9138b", "fusion_lon": 0.0, "name": "99ba63931d10f34768a854f034c9138b", "lat": 38.923651166666666, "is_disabled": 0, "is_reserved": 0, "lon": -77.05031116666666, "type": "electric_scooter", "fusion_lat": 0.0, "rental_uris": {"android": "https://dc.lft.to/lastmile_qr_scan", "ios": "https://dc.lft.to/lastmile_qr_scan"}}, {"bike_id": "a769c952ba3fff700e7952beb4b78cf8", "fusion_lon": 0.0, "name": "a769c952ba3fff700e7952beb4b78cf8", "lat": 38.897384833333334, "is_disabled": 0, "is_reserved": 0, "lon": -77.04525816666667, "type": "electric_scooter", "fusion_lat": 0.0, "rental_uris": {"android": "https://dc.lft.to/lastmile_qr_scan", "ios": "https://dc.lft.to/lastmile_qr_scan"}}, {"bike_id": "0697765f7d8f380a971945fc72cf971f", "fusion_lon": 0.0, "name": "0697765f7d8f380a971945fc72cf971f", "lat": 38.8864815, "is_disabled": 0, "is_reserved": 0, "lon": -77.01548683333333, "type": "electric_scooter", "fusion_lat": 0.0, "rental_uris": {"android": "https://dc.lft.to/lastmile_qr_scan", "ios": "https://dc.lft.to/lastmile_qr_scan"}}, {"bike_id": "4fb8cb63f257e1a39e184993e69ac17e", "fusion_lon": 0.0, "name": "4fb8cb63f257e1a39e184993e69ac17e", "lat": 38.9126355, "is_disabled": 0, "is_reserved": 0, "lon": -77.01439416666666, "type": "electric_scooter", "fusion_lat": 0.0, "rental_uris": {"android": "https://dc.lft.to/lastmile_qr_scan", "ios": "https://dc.lft.to/lastmile_qr_scan"}}, {"bike_id": "75faf220976a45b190a92c928af64bd1", "fusion_lon": 0.0, "name": "75faf220976a45b190a92c928af64bd1", "lat": 38.894999, "is_disabled": 0, "is_reserved": 0, "lon": -77.00214466666667, "type": "electric_scooter", "fusion_lat": 0.0, "rental_uris": {"android": "https://dc.lft.to/lastmile_qr_scan", "ios": "https://dc.lft.to/lastmile_qr_scan"}}, {"bike_id": "2e2c6a5d171e9104bc79b2bf858f7bc5", "fusion_lon": 0.0, "name": "2e2c6a5d171e9104bc79b2bf858f7bc5", "lat": 38.89173316666667, "is_disabled": 0, "is_reserved": 0, "lon": -77.015296, "type": "electric_scooter", "fusion_lat": 0.0, "rental_uris": {"android": "https://dc.lft.to/lastmile_qr_scan", "ios": "https://dc.lft.to/lastmile_qr_scan"}}, {"bike_id": "e1afab0baf60bb9c90a9132fb56fe133", "fusion_lon": 0.0, "name": "e1afab0baf60bb9c90a9132fb56fe133", "lat": 38.90232133333333, "is_disabled": 0, "is_reserved": 0, "lon": -77.02560183333334, "type": "electric_scooter", "fusion_lat": 0.0, "rental_uris": {"android": "https://dc.lft.to/lastmile_qr_scan", "ios": "https://dc.lft.to/lastmile_qr_scan"}}, {"bike_id": "5e9f9f33d6c7f2aa05e99d9909ebd30c", "fusion_lon": 0.0, "name": "5e9f9f33d6c7f2aa05e99d9909ebd30c", "lat": 38.89236366666667, "is_disabled": 0, "is_reserved": 0, "lon": -77.0259055, "type": "electric_scooter", "fusion_lat": 0.0, "rental_uris": {"android": "https://dc.lft.to/lastmile_qr_scan", "ios": "https://dc.lft.to/lastmile_qr_scan"}}, {"bike_id": "35dbea747083bf27b51200ac4b376713", "fusion_lon": 0.0, "name": "35dbea747083bf27b51200ac4b376713", "lat": 38.952214, "is_disabled": 0, "is_reserved": 0, "lon": -77.0821765, "type": "electric_scooter", "fusion_lat": 0.0, "rental_uris": {"android": "https://dc.lft.to/lastmile_qr_scan", "ios": "https://dc.lft.to/lastmile_qr_scan"}}, {"bike_id": "b088f66270cbb8748332d99a0a9e522a", "fusion_lon": 0.0, "name": "b088f66270cbb8748332d99a0a9e522a", "lat": 38.90263916666667, "is_disabled": 0, "is_reserved": 0, "lon": -77.02820116666666, "type": "electric_scooter", "fusion_lat": 0.0, "rental_uris": {"android": "https://dc.lft.to/lastmile_qr_scan", "ios": "https://dc.lft.to/lastmile_qr_scan"}}, {"bike_id": "48c3b2cb2ce5b781e6c884fe79118b5f", "fusion_lon": 0.0, "name": "48c3b2cb2ce5b781e6c884fe79118b5f", "lat": 38.8542005, "is_disabled": 0, "is_reserved": 0, "lon": -77.12076016666667, "type": "electric_bike", "fusion_lat": 0.0, "rental_uris": {"android": "https://dc.lft.to/lastmile_qr_scan", "ios": "https://dc.lft.to/lastmile_qr_scan"}}, {"bike_id": "f359de50c0db0f37f8e554b8845853ed", "fusion_lon": 0.0, "name": "f359de50c0db0f37f8e554b8845853ed", "lat": 38.93860866666667, "is_disabled": 0, "is_reserved": 0, "lon": -77.02489716666666, "type": "electric_scooter", "fusion_lat": 0.0, "rental_uris": {"android": "https://dc.lft.to/lastmile_qr_scan", "ios": "https://dc.lft.to/lastmile_qr_scan"}}, {"bike_id": "b8657a9121b55516b3b8c763334f51c3", "fusion_lon": 0.0, "name": "b8657a9121b55516b3b8c763334f51c3", "lat": 38.884275, "is_disabled": 0, "is_reserved": 0, "lon": -76.95759983333333, "type": "electric_scooter", "fusion_lat": 0.0, "rental_uris": {"android": "https://dc.lft.to/lastmile_qr_scan", "ios": "https://dc.lft.to/lastmile_qr_scan"}}, {"bike_id": "fc46d1a6d69c4fd8ffc9c90f7502175b", "fusion_lon": 0.0, "name": "fc46d1a6d69c4fd8ffc9c90f7502175b", "lat": 38.92062816666667, "is_disabled": 0, "is_reserved": 0, "lon": -77.04220666666667, "type": "electric_scooter", "fusion_lat": 0.0, "rental_uris": {"android": "https://dc.lft.to/lastmile_qr_scan", "ios": "https://dc.lft.to/lastmile_qr_scan"}}, {"bike_id": "0847b18e9109ad7f5c5aa0b0396a0833", "fusion_lon": 0.0, "name": "0847b18e9109ad7f5c5aa0b0396a0833", "lat": 38.92408366666667, "is_disabled": 0, "is_reserved": 0, "lon": -76.9973805, "type": "electric_scooter", "fusion_lat": 0.0, "rental_uris": {"android": "https://dc.lft.to/lastmile_qr_scan", "ios": "https://dc.lft.to/lastmile_qr_scan"}}, {"bike_id": "d03d0014ef01aa05bccd48577cc5a656", "fusion_lon": 0.0, "name": "d03d0014ef01aa05bccd48577cc5a656", "lat": 38.9171175, "is_disabled": 0, "is_reserved": 0, "lon": -77.02892666666666, "type": "electric_scooter", "fusion_lat": 0.0, "rental_uris": {"android": "https://dc.lft.to/lastmile_qr_scan", "ios": "https://dc.lft.to/lastmile_qr_scan"}}, {"bike_id": "2cad494e9b5e51ccaf16b82f2de6f13e", "fusion_lon": 0.0, "name": "2cad494e9b5e51ccaf16b82f2de6f13e", "lat": 38.96679866666667, "is_disabled": 0, "is_reserved": 0, "lon": -77.0225135, "type": "electric_bike", "fusion_lat": 0.0, "rental_uris": {"android": "https://dc.lft.to/lastmile_qr_scan", "ios": "https://dc.lft.to/lastmile_qr_scan"}}, {"bike_id": "67918a7cb597de617c8e25c25f1785c0", "fusion_lon": 0.0, "name": "67918a7cb597de617c8e25c25f1785c0", "lat": 38.898424166666665, "is_disabled": 0, "is_reserved": 0, "lon": -77.0133675, "type": "electric_scooter", "fusion_lat": 0.0, "rental_uris": {"android": "https://dc.lft.to/lastmile_qr_scan", "ios": "https://dc.lft.to/lastmile_qr_scan"}}, {"bike_id": "8afae75b8c0d49bf10678d9f01e8e6b1", "fusion_lon": 0.0, "name": "8afae75b8c0d49bf10678d9f01e8e6b1", "lat": 38.917026666666665, "is_disabled": 0, "is_reserved": 0, "lon": -77.031798, "type": "electric_scooter", "fusion_lat": 0.0, "rental_uris": {"android": "https://dc.lft.to/lastmile_qr_scan", "ios": "https://dc.lft.to/lastmile_qr_scan"}}, {"bike_id": "c54e353fd84b2e59d8153b6897fba0f7", "fusion_lon": 0.0, "name": "c54e353fd84b2e59d8153b6897fba0f7", "lat": 38.92512083333333, "is_disabled": 0, "is_reserved": 0, "lon": -77.022866, "type": "electric_scooter", "fusion_lat": 0.0, "rental_uris": {"android": "https://dc.lft.to/lastmile_qr_scan", "ios": "https://dc.lft.to/lastmile_qr_scan"}}, {"bike_id": "748a2a26f9b48260d470bb9d7cc3ef6d", "fusion_lon": 0.0, "name": "748a2a26f9b48260d470bb9d7cc3ef6d", "lat": 38.90119416666667, "is_disabled": 0, "is_reserved": 0, "lon": -77.02881616666667, "type": "electric_scooter", "fusion_lat": 0.0, "rental_uris": {"android": "https://dc.lft.to/lastmile_qr_scan", "ios": "https://dc.lft.to/lastmile_qr_scan"}}, {"bike_id": "05a494c9f88372d09f773969d0d432aa", "fusion_lon": 0.0, "name": "05a494c9f88372d09f773969d0d432aa", "lat": 38.9876705, "is_disabled": 0, "is_reserved": 0, "lon": -77.140592, "type": "electric_bike", "fusion_lat": 0.0, "rental_uris": {"android": "https://dc.lft.to/lastmile_qr_scan", "ios": "https://dc.lft.to/lastmile_qr_scan"}}, {"bike_id": "ce267256aa09f8e3bdbd9e7468c5bd9f", "fusion_lon": 0.0, "name": "ce267256aa09f8e3bdbd9e7468c5bd9f", "lat": 38.9036785, "is_disabled": 0, "is_reserved": 0, "lon": -77.04373483333333, "type": "electric_scooter", "fusion_lat": 0.0, "rental_uris": {"android": "https://dc.lft.to/lastmile_qr_scan", "ios": "https://dc.lft.to/lastmile_qr_scan"}}, {"bike_id": "408fe0363e6a20f7b3277be821fcb678", "fusion_lon": 0.0, "name": "408fe0363e6a20f7b3277be821fcb678", "lat": 38.903098, "is_disabled": 0, "is_reserved": 0, "lon": -77.02888833333333, "type": "electric_scooter", "fusion_lat": 0.0, "rental_uris": {"android": "https://dc.lft.to/lastmile_qr_scan", "ios": "https://dc.lft.to/lastmile_qr_scan"}}, {"bike_id": "4ca9dd426fcbf50eb6339cb91b7dfef3", "fusion_lon": 0.0, "name": "4ca9dd426fcbf50eb6339cb91b7dfef3", "lat": 38.9169765, "is_disabled": 0, "is_reserved": 0, "lon": -77.0358735, "type": "electric_scooter", "fusion_lat": 0.0, "rental_uris": {"android": "https://dc.lft.to/lastmile_qr_scan", "ios": "https://dc.lft.to/lastmile_qr_scan"}}, {"bike_id": "b8c9e9e0c9c1f2f42cef11173fdc844e", "fusion_lon": 0.0, "name": "b8c9e9e0c9c1f2f42cef11173fdc844e", "lat": 38.90525483333333, "is_disabled": 0, "is_reserved": 0, "lon": -77.06306483333333, "type": "electric_scooter", "fusion_lat": 0.0, "rental_uris": {"android": "https://dc.lft.to/lastmile_qr_scan", "ios": "https://dc.lft.to/lastmile_qr_scan"}}, {"bike_id": "c19b002be404214b440a8f920325c725", "fusion_lon": 0.0, "name": "c19b002be404214b440a8f920325c725", "lat": 38.9025075, "is_disabled": 0, "is_reserved": 0, "lon": -77.03515466666667, "type": "electric_scooter", "fusion_lat": 0.0, "rental_uris": {"android": "https://dc.lft.to/lastmile_qr_scan", "ios": "https://dc.lft.to/lastmile_qr_scan"}}, {"bike_id": "98e0b8d7b6d00c0d0be56453daada4e5", "fusion_lon": 0.0, "name": "98e0b8d7b6d00c0d0be56453daada4e5", "lat": 38.904104333333336, "is_disabled": 0, "is_reserved": 0, "lon": -76.97331216666667, "type": "electric_scooter", "fusion_lat": 0.0, "rental_uris": {"android": "https://dc.lft.to/lastmile_qr_scan", "ios": "https://dc.lft.to/lastmile_qr_scan"}}, {"bike_id": "eeef16f88a6a2b7e2a8ebb149b1e34c5", "fusion_lon": 0.0, "name": "eeef16f88a6a2b7e2a8ebb149b1e34c5", "lat": 38.923856, "is_disabled": 0, "is_reserved": 0, "lon": -77.03655633333334, "type": "electric_scooter", "fusion_lat": 0.0, "rental_uris": {"android": "https://dc.lft.to/lastmile_qr_scan", "ios": "https://dc.lft.to/lastmile_qr_scan"}}, {"bike_id": "65072d7427c04b8705540b5725bf1daf", "fusion_lon": 0.0, "name": "65072d7427c04b8705540b5725bf1daf", "lat": 38.89673966666667, "is_disabled": 0, "is_reserved": 0, "lon": -77.024852, "type": "electric_scooter", "fusion_lat": 0.0, "rental_uris": {"android": "https://dc.lft.to/lastmile_qr_scan", "ios": "https://dc.lft.to/lastmile_qr_scan"}}, {"bike_id": "c38971d5de1e9cb88073c4a2e82bd70a", "fusion_lon": 0.0, "name": "c38971d5de1e9cb88073c4a2e82bd70a", "lat": 38.872386, "is_disabled": 0, "is_reserved": 0, "lon": -76.9772935, "type": "electric_scooter", "fusion_lat": 0.0, "rental_uris": {"android": "https://dc.lft.to/lastmile_qr_scan", "ios": "https://dc.lft.to/lastmile_qr_scan"}}, {"bike_id": "c82e7da2bcd9851ea10957355e21d0bc", "fusion_lon": 0.0, "name": "c82e7da2bcd9851ea10957355e21d0bc", "lat": 38.899346, "is_disabled": 0, "is_reserved": 0, "lon": -77.04191566666667, "type": "electric_scooter", "fusion_lat": 0.0, "rental_uris": {"android": "https://dc.lft.to/lastmile_qr_scan", "ios": "https://dc.lft.to/lastmile_qr_scan"}}, {"bike_id": "c17da74f34ccdd96e7930fb00b6e43fe", "fusion_lon": 0.0, "name": "c17da74f34ccdd96e7930fb00b6e43fe", "lat": 38.890012666666664, "is_disabled": 0, "is_reserved": 0, "lon": -76.93745, "type": "electric_scooter", "fusion_lat": 0.0, "rental_uris": {"android": "https://dc.lft.to/lastmile_qr_scan", "ios": "https://dc.lft.to/lastmile_qr_scan"}}, {"bike_id": "d451cfcc8be6e70e2c1bfb7a5046a730", "fusion_lon": 0.0, "name": "d451cfcc8be6e70e2c1bfb7a5046a730", "lat": 38.92845333333333, "is_disabled": 0, "is_reserved": 0, "lon": -77.03660966666666, "type": "electric_scooter", "fusion_lat": 0.0, "rental_uris": {"android": "https://dc.lft.to/lastmile_qr_scan", "ios": "https://dc.lft.to/lastmile_qr_scan"}}, {"bike_id": "9572ef0382854ced9719674f2e0348db", "fusion_lon": 0.0, "name": "9572ef0382854ced9719674f2e0348db", "lat": 38.83543866666667, "is_disabled": 0, "is_reserved": 0, "lon": -76.98730533333334, "type": "electric_bike", "fusion_lat": 0.0, "rental_uris": {"android": "https://dc.lft.to/lastmile_qr_scan", "ios": "https://dc.lft.to/lastmile_qr_scan"}}, {"bike_id": "68a7b83034d884a773bb3da3f456bd8b", "fusion_lon": 0.0, "name": "68a7b83034d884a773bb3da3f456bd8b", "lat": 38.91917216666667, "is_disabled": 0, "is_reserved": 0, "lon": -77.07020383333334, "type": "electric_bike", "fusion_lat": 0.0, "rental_uris": {"android": "https://dc.lft.to/lastmile_qr_scan", "ios": "https://dc.lft.to/lastmile_qr_scan"}}, {"bike_id": "9027d2f074126f8f25a45a474c662e20", "fusion_lon": 0.0, "name": "9027d2f074126f8f25a45a474c662e20", "lat": 38.938660166666665, "is_disabled": 0, "is_reserved": 0, "lon": -77.02487733333334, "type": "electric_scooter", "fusion_lat": 0.0, "rental_uris": {"android": "https://dc.lft.to/lastmile_qr_scan", "ios": "https://dc.lft.to/lastmile_qr_scan"}}, {"bike_id": "ccac16d69818abedc48bd0d0621ee603", "fusion_lon": 0.0, "name": "ccac16d69818abedc48bd0d0621ee603", "lat": 38.88644816666667, "is_disabled": 0, "is_reserved": 0, "lon": -77.015434, "type": "electric_scooter", "fusion_lat": 0.0, "rental_uris": {"android": "https://dc.lft.to/lastmile_qr_scan", "ios": "https://dc.lft.to/lastmile_qr_scan"}}, {"bike_id": "676f82c06f00837287e2161331c2b8d7", "fusion_lon": 0.0, "name": "676f82c06f00837287e2161331c2b8d7", "lat": 38.89219666666666, "is_disabled": 0, "is_reserved": 0, "lon": -77.0312585, "type": "electric_scooter", "fusion_lat": 0.0, "rental_uris": {"android": "https://dc.lft.to/lastmile_qr_scan", "ios": "https://dc.lft.to/lastmile_qr_scan"}}, {"bike_id": "a38df8d79dd8c63b24b98b8f2647ce4a", "fusion_lon": 0.0, "name": "a38df8d79dd8c63b24b98b8f2647ce4a", "lat": 38.923235166666664, "is_disabled": 0, "is_reserved": 0, "lon": -77.029637, "type": "electric_scooter", "fusion_lat": 0.0, "rental_uris": {"android": "https://dc.lft.to/lastmile_qr_scan", "ios": "https://dc.lft.to/lastmile_qr_scan"}}, {"bike_id": "2311262a3f8b6e381fe4eec5dcbb139a", "fusion_lon": 0.0, "name": "2311262a3f8b6e381fe4eec5dcbb139a", "lat": 38.8439305, "is_disabled": 0, "is_reserved": 0, "lon": -76.98961483333333, "type": "electric_scooter", "fusion_lat": 0.0, "rental_uris": {"android": "https://dc.lft.to/lastmile_qr_scan", "ios": "https://dc.lft.to/lastmile_qr_scan"}}, {"bike_id": "c7969ee132b8d621e3caeb79c85978c6", "fusion_lon": 0.0, "name": "c7969ee132b8d621e3caeb79c85978c6", "lat": 38.918033666666666, "is_disabled": 0, "is_reserved": 0, "lon": -77.04444233333334, "type": "electric_scooter", "fusion_lat": 0.0, "rental_uris": {"android": "https://dc.lft.to/lastmile_qr_scan", "ios": "https://dc.lft.to/lastmile_qr_scan"}}, {"bike_id": "d67d749c1e7bf43a6555ed8815ae0602", "fusion_lon": 0.0, "name": "d67d749c1e7bf43a6555ed8815ae0602", "lat": 38.905628666666665, "is_disabled": 0, "is_reserved": 0, "lon": -77.04295533333334, "type": "electric_scooter", "fusion_lat": 0.0, "rental_uris": {"android": "https://dc.lft.to/lastmile_qr_scan", "ios": "https://dc.lft.to/lastmile_qr_scan"}}, {"bike_id": "f9dc9f22ba5ebd1fbaec7bb7ae2c5d39", "fusion_lon": 0.0, "name": "f9dc9f22ba5ebd1fbaec7bb7ae2c5d39", "lat": 38.934302833333334, "is_disabled": 0, "is_reserved": 0, "lon": -77.04000583333334, "type": "electric_scooter", "fusion_lat": 0.0, "rental_uris": {"android": "https://dc.lft.to/lastmile_qr_scan", "ios": "https://dc.lft.to/lastmile_qr_scan"}}, {"bike_id": "f69ac531166c802c86700d3909cd256f", "fusion_lon": 0.0, "name": "f69ac531166c802c86700d3909cd256f", "lat": 38.9905585, "is_disabled": 0, "is_reserved": 0, "lon": -77.03869166666667, "type": "electric_bike", "fusion_lat": 0.0, "rental_uris": {"android": "https://dc.lft.to/lastmile_qr_scan", "ios": "https://dc.lft.to/lastmile_qr_scan"}}, {"bike_id": "c89a5ae9c27f4bcf7c5ea6176d5d6630", "fusion_lon": 0.0, "name": "c89a5ae9c27f4bcf7c5ea6176d5d6630", "lat": 38.9174135, "is_disabled": 0, "is_reserved": 0, "lon": -77.02116233333334, "type": "electric_scooter", "fusion_lat": 0.0, "rental_uris": {"android": "https://dc.lft.to/lastmile_qr_scan", "ios": "https://dc.lft.to/lastmile_qr_scan"}}, {"bike_id": "13771099eddc8e119df6b40acdc0f169", "fusion_lon": 0.0, "name": "13771099eddc8e119df6b40acdc0f169", "lat": 38.898335333333335, "is_disabled": 0, "is_reserved": 0, "lon": -77.02506166666667, "type": "electric_scooter", "fusion_lat": 0.0, "rental_uris": {"android": "https://dc.lft.to/lastmile_qr_scan", "ios": "https://dc.lft.to/lastmile_qr_scan"}}, {"bike_id": "e62e352889f4ad015cfcbd0c6a9338fa", "fusion_lon": 0.0, "name": "e62e352889f4ad015cfcbd0c6a9338fa", "lat": 38.97253333333333, "is_disabled": 0, "is_reserved": 0, "lon": -76.9927955, "type": "electric_bike", "fusion_lat": 0.0, "rental_uris": {"android": "https://dc.lft.to/lastmile_qr_scan", "ios": "https://dc.lft.to/lastmile_qr_scan"}}, {"bike_id": "05c9a0acff4c2894d0616ec4a0ca4bc0", "fusion_lon": 0.0, "name": "05c9a0acff4c2894d0616ec4a0ca4bc0", "lat": 38.92327566666667, "is_disabled": 0, "is_reserved": 0, "lon": -77.02970616666667, "type": "electric_scooter", "fusion_lat": 0.0, "rental_uris": {"android": "https://dc.lft.to/lastmile_qr_scan", "ios": "https://dc.lft.to/lastmile_qr_scan"}}, {"bike_id": "f187caf22fb281b28436028980eb6d9b", "fusion_lon": 0.0, "name": "f187caf22fb281b28436028980eb6d9b", "lat": 38.906672666666665, "is_disabled": 0, "is_reserved": 0, "lon": -77.0751785, "type": "electric_scooter", "fusion_lat": 0.0, "rental_uris": {"android": "https://dc.lft.to/lastmile_qr_scan", "ios": "https://dc.lft.to/lastmile_qr_scan"}}, {"bike_id": "9d5d04387a5386877e7b8700ab833475", "fusion_lon": 0.0, "name": "9d5d04387a5386877e7b8700ab833475", "lat": 38.90561233333333, "is_disabled": 0, "is_reserved": 0, "lon": -77.04888266666667, "type": "electric_scooter", "fusion_lat": 0.0, "rental_uris": {"android": "https://dc.lft.to/lastmile_qr_scan", "ios": "https://dc.lft.to/lastmile_qr_scan"}}, {"bike_id": "f27289a9edc3cd4f5845366df245e3fa", "fusion_lon": 0.0, "name": "f27289a9edc3cd4f5845366df245e3fa", "lat": 38.898338833333334, "is_disabled": 0, "is_reserved": 0, "lon": -77.031829, "type": "electric_scooter", "fusion_lat": 0.0, "rental_uris": {"android": "https://dc.lft.to/lastmile_qr_scan", "ios": "https://dc.lft.to/lastmile_qr_scan"}}, {"bike_id": "cea52bd4507d9fbe3a87a44348be5c8a", "fusion_lon": 0.0, "name": "cea52bd4507d9fbe3a87a44348be5c8a", "lat": 38.922420833333334, "is_disabled": 0, "is_reserved": 0, "lon": -77.0366315, "type": "electric_scooter", "fusion_lat": 0.0, "rental_uris": {"android": "https://dc.lft.to/lastmile_qr_scan", "ios": "https://dc.lft.to/lastmile_qr_scan"}}, {"bike_id": "a65c74797ea0a952486d33bfe75e1ae2", "fusion_lon": 0.0, "name": "a65c74797ea0a952486d33bfe75e1ae2", "lat": 38.883106833333336, "is_disabled": 0, "is_reserved": 0, "lon": -77.013831, "type": "electric_scooter", "fusion_lat": 0.0, "rental_uris": {"android": "https://dc.lft.to/lastmile_qr_scan", "ios": "https://dc.lft.to/lastmile_qr_scan"}}, {"bike_id": "7e082b344d885f95e8f70a998d3f0b41", "fusion_lon": 0.0, "name": "7e082b344d885f95e8f70a998d3f0b41", "lat": 38.89224216666667, "is_disabled": 0, "is_reserved": 0, "lon": -77.04313033333334, "type": "electric_scooter", "fusion_lat": 0.0, "rental_uris": {"android": "https://dc.lft.to/lastmile_qr_scan", "ios": "https://dc.lft.to/lastmile_qr_scan"}}, {"bike_id": "a29f414f5015458deaca0c81b737975b", "fusion_lon": 0.0, "name": "a29f414f5015458deaca0c81b737975b", "lat": 38.912713833333335, "is_disabled": 0, "is_reserved": 0, "lon": -77.02212383333334, "type": "electric_scooter", "fusion_lat": 0.0, "rental_uris": {"android": "https://dc.lft.to/lastmile_qr_scan", "ios": "https://dc.lft.to/lastmile_qr_scan"}}, {"bike_id": "e351d5b3bd23ac8f8d7c5ade4db1d7a1", "fusion_lon": 0.0, "name": "e351d5b3bd23ac8f8d7c5ade4db1d7a1", "lat": 38.892210166666665, "is_disabled": 0, "is_reserved": 0, "lon": -77.022302, "type": "electric_scooter", "fusion_lat": 0.0, "rental_uris": {"android": "https://dc.lft.to/lastmile_qr_scan", "ios": "https://dc.lft.to/lastmile_qr_scan"}}, {"bike_id": "a36bfcb494d00b5b517165ef2a017ec4", "fusion_lon": 0.0, "name": "a36bfcb494d00b5b517165ef2a017ec4", "lat": 38.90271466666667, "is_disabled": 0, "is_reserved": 0, "lon": -77.05319883333334, "type": "electric_scooter", "fusion_lat": 0.0, "rental_uris": {"android": "https://dc.lft.to/lastmile_qr_scan", "ios": "https://dc.lft.to/lastmile_qr_scan"}}, {"bike_id": "bf1db4073b04b16f7d53631a41680c85", "fusion_lon": 0.0, "name": "bf1db4073b04b16f7d53631a41680c85", "lat": 38.86520066666667, "is_disabled": 0, "is_reserved": 0, "lon": -76.97342116666667, "type": "electric_bike", "fusion_lat": 0.0, "rental_uris": {"android": "https://dc.lft.to/lastmile_qr_scan", "ios": "https://dc.lft.to/lastmile_qr_scan"}}, {"bike_id": "aadd9e37b0efdbd7f625f59f925ceb03", "fusion_lon": 0.0, "name": "aadd9e37b0efdbd7f625f59f925ceb03", "lat": 38.887372666666664, "is_disabled": 0, "is_reserved": 0, "lon": -77.01534066666666, "type": "electric_scooter", "fusion_lat": 0.0, "rental_uris": {"android": "https://dc.lft.to/lastmile_qr_scan", "ios": "https://dc.lft.to/lastmile_qr_scan"}}, {"bike_id": "b7b27b87bebf2fd40824a66beb0ed34c", "fusion_lon": 0.0, "name": "b7b27b87bebf2fd40824a66beb0ed34c", "lat": 38.866846, "is_disabled": 0, "is_reserved": 0, "lon": -76.98574166666667, "type": "electric_scooter", "fusion_lat": 0.0, "rental_uris": {"android": "https://dc.lft.to/lastmile_qr_scan", "ios": "https://dc.lft.to/lastmile_qr_scan"}}, {"bike_id": "9bb458653dae6a1dfb525d4da67eb872", "fusion_lon": 0.0, "name": "9bb458653dae6a1dfb525d4da67eb872", "lat": 38.82787666666667, "is_disabled": 0, "is_reserved": 0, "lon": -77.1248805, "type": "electric_bike", "fusion_lat": 0.0, "rental_uris": {"android": "https://dc.lft.to/lastmile_qr_scan", "ios": "https://dc.lft.to/lastmile_qr_scan"}}, {"bike_id": "5d442d5dd801151f3cabda7496f8300f", "fusion_lon": 0.0, "name": "5d442d5dd801151f3cabda7496f8300f", "lat": 38.9111315, "is_disabled": 0, "is_reserved": 0, "lon": -77.08135533333333, "type": "electric_scooter", "fusion_lat": 0.0, "rental_uris": {"android": "https://dc.lft.to/lastmile_qr_scan", "ios": "https://dc.lft.to/lastmile_qr_scan"}}, {"bike_id": "96c26af9942ece5ec114b3d0c4603291", "fusion_lon": 0.0, "name": "96c26af9942ece5ec114b3d0c4603291", "lat": 38.892216833333336, "is_disabled": 0, "is_reserved": 0, "lon": -77.0398455, "type": "electric_scooter", "fusion_lat": 0.0, "rental_uris": {"android": "https://dc.lft.to/lastmile_qr_scan", "ios": "https://dc.lft.to/lastmile_qr_scan"}}, {"bike_id": "10210b0ef347f5b51c6667a9aa264312", "fusion_lon": 0.0, "name": "10210b0ef347f5b51c6667a9aa264312", "lat": 38.936098666666666, "is_disabled": 0, "is_reserved": 0, "lon": -77.05860983333334, "type": "electric_scooter", "fusion_lat": 0.0, "rental_uris": {"android": "https://dc.lft.to/lastmile_qr_scan", "ios": "https://dc.lft.to/lastmile_qr_scan"}}, {"bike_id": "9a46e59d327869abdf01eff25a7e9ca5", "fusion_lon": 0.0, "name": "9a46e59d327869abdf01eff25a7e9ca5", "lat": 38.9170355, "is_disabled": 0, "is_reserved": 0, "lon": -77.0417845, "type": "electric_scooter", "fusion_lat": 0.0, "rental_uris": {"android": "https://dc.lft.to/lastmile_qr_scan", "ios": "https://dc.lft.to/lastmile_qr_scan"}}, {"bike_id": "16507e5042993d016911df8eb5db3848", "fusion_lon": 0.0, "name": "16507e5042993d016911df8eb5db3848", "lat": 38.8662745, "is_disabled": 0, "is_reserved": 0, "lon": -76.98713833333333, "type": "electric_scooter", "fusion_lat": 0.0, "rental_uris": {"android": "https://dc.lft.to/lastmile_qr_scan", "ios": "https://dc.lft.to/lastmile_qr_scan"}}, {"bike_id": "cc10fbe3ec7f1a31dfe01e2b2dbc6a72", "fusion_lon": 0.0, "name": "cc10fbe3ec7f1a31dfe01e2b2dbc6a72", "lat": 38.92021483333333, "is_disabled": 0, "is_reserved": 0, "lon": -77.03146116666667, "type": "electric_scooter", "fusion_lat": 0.0, "rental_uris": {"android": "https://dc.lft.to/lastmile_qr_scan", "ios": "https://dc.lft.to/lastmile_qr_scan"}}, {"bike_id": "bb20f8e1636b333f32d95c069a4688a8", "fusion_lon": 0.0, "name": "bb20f8e1636b333f32d95c069a4688a8", "lat": 38.90263316666667, "is_disabled": 0, "is_reserved": 0, "lon": -77.02817566666667, "type": "electric_scooter", "fusion_lat": 0.0, "rental_uris": {"android": "https://dc.lft.to/lastmile_qr_scan", "ios": "https://dc.lft.to/lastmile_qr_scan"}}, {"bike_id": "b21b32786236a122005435f27e51bb38", "fusion_lon": 0.0, "name": "b21b32786236a122005435f27e51bb38", "lat": 38.909563166666665, "is_disabled": 0, "is_reserved": 0, "lon": -76.98436816666667, "type": "electric_bike", "fusion_lat": 0.0, "rental_uris": {"android": "https://dc.lft.to/lastmile_qr_scan", "ios": "https://dc.lft.to/lastmile_qr_scan"}}, {"bike_id": "e4336c2a2e26d2975de14b9253031dfb", "fusion_lon": 0.0, "name": "e4336c2a2e26d2975de14b9253031dfb", "lat": 38.88742833333333, "is_disabled": 0, "is_reserved": 0, "lon": -77.02848966666667, "type": "electric_scooter", "fusion_lat": 0.0, "rental_uris": {"android": "https://dc.lft.to/lastmile_qr_scan", "ios": "https://dc.lft.to/lastmile_qr_scan"}}, {"bike_id": "3413cbb8285fb88baefe4cf8ecae8f55", "fusion_lon": 0.0, "name": "3413cbb8285fb88baefe4cf8ecae8f55", "lat": 38.8603515, "is_disabled": 0, "is_reserved": 0, "lon": -76.98372083333334, "type": "electric_scooter", "fusion_lat": 0.0, "rental_uris": {"android": "https://dc.lft.to/lastmile_qr_scan", "ios": "https://dc.lft.to/lastmile_qr_scan"}}, {"bike_id": "e3a4406b573efe431576dd45f158b833", "fusion_lon": 0.0, "name": "e3a4406b573efe431576dd45f158b833", "lat": 38.885361, "is_disabled": 0, "is_reserved": 0, "lon": -77.0005445, "type": "electric_scooter", "fusion_lat": 0.0, "rental_uris": {"android": "https://dc.lft.to/lastmile_qr_scan", "ios": "https://dc.lft.to/lastmile_qr_scan"}}, {"bike_id": "0717d359fb705ae943f7d84d949201b2", "fusion_lon": 0.0, "name": "0717d359fb705ae943f7d84d949201b2", "lat": 38.92295383333333, "is_disabled": 0, "is_reserved": 0, "lon": -77.04144016666666, "type": "electric_scooter", "fusion_lat": 0.0, "rental_uris": {"android": "https://dc.lft.to/lastmile_qr_scan", "ios": "https://dc.lft.to/lastmile_qr_scan"}}, {"bike_id": "a4adef04544349281a7196c40f2299f7", "fusion_lon": 0.0, "name": "a4adef04544349281a7196c40f2299f7", "lat": 38.892276333333335, "is_disabled": 0, "is_reserved": 0, "lon": -77.041827, "type": "electric_scooter", "fusion_lat": 0.0, "rental_uris": {"android": "https://dc.lft.to/lastmile_qr_scan", "ios": "https://dc.lft.to/lastmile_qr_scan"}}, {"bike_id": "df949c00ffd4c73769be800da737ed78", "fusion_lon": 0.0, "name": "df949c00ffd4c73769be800da737ed78", "lat": 38.92470433333333, "is_disabled": 0, "is_reserved": 0, "lon": -77.022173, "type": "electric_scooter", "fusion_lat": 0.0, "rental_uris": {"android": "https://dc.lft.to/lastmile_qr_scan", "ios": "https://dc.lft.to/lastmile_qr_scan"}}, {"bike_id": "8185a489d6c002a7e8d3132e6585e906", "fusion_lon": 0.0, "name": "8185a489d6c002a7e8d3132e6585e906", "lat": 38.92202066666667, "is_disabled": 0, "is_reserved": 0, "lon": -77.020951, "type": "electric_scooter", "fusion_lat": 0.0, "rental_uris": {"android": "https://dc.lft.to/lastmile_qr_scan", "ios": "https://dc.lft.to/lastmile_qr_scan"}}, {"bike_id": "a93ad4c3a05b1b9e96dd241aec09f717", "fusion_lon": 0.0, "name": "a93ad4c3a05b1b9e96dd241aec09f717", "lat": 38.956351166666664, "is_disabled": 0, "is_reserved": 0, "lon": -77.03304933333334, "type": "electric_scooter", "fusion_lat": 0.0, "rental_uris": {"android": "https://dc.lft.to/lastmile_qr_scan", "ios": "https://dc.lft.to/lastmile_qr_scan"}}, {"bike_id": "30f1ebd54a1f2cfa8b7d5d094c86188f", "fusion_lon": 0.0, "name": "30f1ebd54a1f2cfa8b7d5d094c86188f", "lat": 38.90864216666667, "is_disabled": 0, "is_reserved": 0, "lon": -76.999575, "type": "electric_scooter", "fusion_lat": 0.0, "rental_uris": {"android": "https://dc.lft.to/lastmile_qr_scan", "ios": "https://dc.lft.to/lastmile_qr_scan"}}, {"bike_id": "74c5b44169451d9c7813c6fa9db1c183", "fusion_lon": 0.0, "name": "74c5b44169451d9c7813c6fa9db1c183", "lat": 38.91154316666667, "is_disabled": 0, "is_reserved": 0, "lon": -77.023789, "type": "electric_scooter", "fusion_lat": 0.0, "rental_uris": {"android": "https://dc.lft.to/lastmile_qr_scan", "ios": "https://dc.lft.to/lastmile_qr_scan"}}, {"bike_id": "5811496c362a490bea4cf56cf5859b0e", "fusion_lon": 0.0, "name": "5811496c362a490bea4cf56cf5859b0e", "lat": 38.918719, "is_disabled": 0, "is_reserved": 0, "lon": -77.031949, "type": "electric_scooter", "fusion_lat": 0.0, "rental_uris": {"android": "https://dc.lft.to/lastmile_qr_scan", "ios": "https://dc.lft.to/lastmile_qr_scan"}}, {"bike_id": "d423aab489061bcfa573c126948bc806", "fusion_lon": 0.0, "name": "d423aab489061bcfa573c126948bc806", "lat": 38.909458, "is_disabled": 0, "is_reserved": 0, "lon": -77.0405145, "type": "electric_scooter", "fusion_lat": 0.0, "rental_uris": {"android": "https://dc.lft.to/lastmile_qr_scan", "ios": "https://dc.lft.to/lastmile_qr_scan"}}, {"bike_id": "08aed95a82a0a4608fc9e994262850e0", "fusion_lon": 0.0, "name": "08aed95a82a0a4608fc9e994262850e0", "lat": 38.9324735, "is_disabled": 0, "is_reserved": 0, "lon": -77.02986983333334, "type": "electric_scooter", "fusion_lat": 0.0, "rental_uris": {"android": "https://dc.lft.to/lastmile_qr_scan", "ios": "https://dc.lft.to/lastmile_qr_scan"}}, {"bike_id": "8db150f76dae4d0f0c07b04f91fe75de", "fusion_lon": 0.0, "name": "8db150f76dae4d0f0c07b04f91fe75de", "lat": 38.90504583333333, "is_disabled": 0, "is_reserved": 0, "lon": -77.061295, "type": "electric_scooter", "fusion_lat": 0.0, "rental_uris": {"android": "https://dc.lft.to/lastmile_qr_scan", "ios": "https://dc.lft.to/lastmile_qr_scan"}}, {"bike_id": "4558aafb1b9542498caec01a2b96f7bf", "fusion_lon": 0.0, "name": "4558aafb1b9542498caec01a2b96f7bf", "lat": 38.90109183333333, "is_disabled": 0, "is_reserved": 0, "lon": -77.03249616666666, "type": "electric_scooter", "fusion_lat": 0.0, "rental_uris": {"android": "https://dc.lft.to/lastmile_qr_scan", "ios": "https://dc.lft.to/lastmile_qr_scan"}}, {"bike_id": "98008fa848c3c1b9d219aba113f90851", "fusion_lon": 0.0, "name": "98008fa848c3c1b9d219aba113f90851", "lat": 38.90485366666667, "is_disabled": 0, "is_reserved": 0, "lon": -77.034783, "type": "electric_scooter", "fusion_lat": 0.0, "rental_uris": {"android": "https://dc.lft.to/lastmile_qr_scan", "ios": "https://dc.lft.to/lastmile_qr_scan"}}, {"bike_id": "9c4b13c743e4daf7a8fdbcc44600a83f", "fusion_lon": 0.0, "name": "9c4b13c743e4daf7a8fdbcc44600a83f", "lat": 38.954046, "is_disabled": 0, "is_reserved": 0, "lon": -77.027483, "type": "electric_scooter", "fusion_lat": 0.0, "rental_uris": {"android": "https://dc.lft.to/lastmile_qr_scan", "ios": "https://dc.lft.to/lastmile_qr_scan"}}, {"bike_id": "4035cbe367b1a3132269b2233bec20aa", "fusion_lon": 0.0, "name": "4035cbe367b1a3132269b2233bec20aa", "lat": 38.895652166666665, "is_disabled": 0, "is_reserved": 0, "lon": -77.02824983333333, "type": "electric_scooter", "fusion_lat": 0.0, "rental_uris": {"android": "https://dc.lft.to/lastmile_qr_scan", "ios": "https://dc.lft.to/lastmile_qr_scan"}}, {"bike_id": "34c70a224fc0b40f80635c4df2f3374d", "fusion_lon": 0.0, "name": "34c70a224fc0b40f80635c4df2f3374d", "lat": 38.903628, "is_disabled": 0, "is_reserved": 0, "lon": -77.0034425, "type": "electric_scooter", "fusion_lat": 0.0, "rental_uris": {"android": "https://dc.lft.to/lastmile_qr_scan", "ios": "https://dc.lft.to/lastmile_qr_scan"}}, {"bike_id": "c6ee70d14103022452c34542b37f7d0f", "fusion_lon": 0.0, "name": "c6ee70d14103022452c34542b37f7d0f", "lat": 38.919214, "is_disabled": 0, "is_reserved": 0, "lon": -77.0316725, "type": "electric_scooter", "fusion_lat": 0.0, "rental_uris": {"android": "https://dc.lft.to/lastmile_qr_scan", "ios": "https://dc.lft.to/lastmile_qr_scan"}}, {"bike_id": "56f45a36d9cf2bb86e5b2774e8eead8d", "fusion_lon": 0.0, "name": "56f45a36d9cf2bb86e5b2774e8eead8d", "lat": 38.9036335, "is_disabled": 0, "is_reserved": 0, "lon": -77.04016583333333, "type": "electric_scooter", "fusion_lat": 0.0, "rental_uris": {"android": "https://dc.lft.to/lastmile_qr_scan", "ios": "https://dc.lft.to/lastmile_qr_scan"}}, {"bike_id": "1941614a7a8ee998fa4d0afac1c372e0", "fusion_lon": 0.0, "name": "1941614a7a8ee998fa4d0afac1c372e0", "lat": 38.900392, "is_disabled": 0, "is_reserved": 0, "lon": -76.97224533333333, "type": "electric_bike", "fusion_lat": 0.0, "rental_uris": {"android": "https://dc.lft.to/lastmile_qr_scan", "ios": "https://dc.lft.to/lastmile_qr_scan"}}, {"bike_id": "b95a292c5d75861552c2f8925d3c9674", "fusion_lon": 0.0, "name": "b95a292c5d75861552c2f8925d3c9674", "lat": 38.886514166666664, "is_disabled": 0, "is_reserved": 0, "lon": -77.0281645, "type": "electric_scooter", "fusion_lat": 0.0, "rental_uris": {"android": "https://dc.lft.to/lastmile_qr_scan", "ios": "https://dc.lft.to/lastmile_qr_scan"}}, {"bike_id": "c41298046c10aaae9335bfed90d5f247", "fusion_lon": 0.0, "name": "c41298046c10aaae9335bfed90d5f247", "lat": 38.904436, "is_disabled": 0, "is_reserved": 0, "lon": -77.04368133333334, "type": "electric_scooter", "fusion_lat": 0.0, "rental_uris": {"android": "https://dc.lft.to/lastmile_qr_scan", "ios": "https://dc.lft.to/lastmile_qr_scan"}}, {"bike_id": "3c49f5ccf942120ef3bfa250543c322c", "fusion_lon": 0.0, "name": "3c49f5ccf942120ef3bfa250543c322c", "lat": 38.984604833333336, "is_disabled": 0, "is_reserved": 0, "lon": -76.97056633333334, "type": "electric_bike", "fusion_lat": 0.0, "rental_uris": {"android": "https://dc.lft.to/lastmile_qr_scan", "ios": "https://dc.lft.to/lastmile_qr_scan"}}, {"bike_id": "50cdaba3c4f54f84baadc8445ef38be2", "fusion_lon": 0.0, "name": "50cdaba3c4f54f84baadc8445ef38be2", "lat": 38.93392266666667, "is_disabled": 0, "is_reserved": 0, "lon": -77.05734033333333, "type": "electric_bike", "fusion_lat": 0.0, "rental_uris": {"android": "https://dc.lft.to/lastmile_qr_scan", "ios": "https://dc.lft.to/lastmile_qr_scan"}}, {"bike_id": "42bed5ae481a3fc362543cd5112b9492", "fusion_lon": 0.0, "name": "42bed5ae481a3fc362543cd5112b9492", "lat": 38.90390466666667, "is_disabled": 0, "is_reserved": 0, "lon": -77.04446283333333, "type": "electric_scooter", "fusion_lat": 0.0, "rental_uris": {"android": "https://dc.lft.to/lastmile_qr_scan", "ios": "https://dc.lft.to/lastmile_qr_scan"}}, {"bike_id": "0182c3ad89bb490a036bc3897118a9a2", "fusion_lon": 0.0, "name": "0182c3ad89bb490a036bc3897118a9a2", "lat": 38.9180445, "is_disabled": 0, "is_reserved": 0, "lon": -77.03441283333333, "type": "electric_scooter", "fusion_lat": 0.0, "rental_uris": {"android": "https://dc.lft.to/lastmile_qr_scan", "ios": "https://dc.lft.to/lastmile_qr_scan"}}, {"bike_id": "bdb851c245b9cb2b3df38be99a93a801", "fusion_lon": 0.0, "name": "bdb851c245b9cb2b3df38be99a93a801", "lat": 38.91056833333333, "is_disabled": 0, "is_reserved": 0, "lon": -76.98517583333333, "type": "electric_scooter", "fusion_lat": 0.0, "rental_uris": {"android": "https://dc.lft.to/lastmile_qr_scan", "ios": "https://dc.lft.to/lastmile_qr_scan"}}, {"bike_id": "be3e45fb8e4c6625c638d69ddffc06ae", "fusion_lon": 0.0, "name": "be3e45fb8e4c6625c638d69ddffc06ae", "lat": 38.855158833333334, "is_disabled": 0, "is_reserved": 0, "lon": -76.98415566666667, "type": "electric_bike", "fusion_lat": 0.0, "rental_uris": {"android": "https://dc.lft.to/lastmile_qr_scan", "ios": "https://dc.lft.to/lastmile_qr_scan"}}, {"bike_id": "54b2bbbc3949eaddaa4eecec86592720", "fusion_lon": 0.0, "name": "54b2bbbc3949eaddaa4eecec86592720", "lat": 38.91594166666667, "is_disabled": 0, "is_reserved": 0, "lon": -77.04599783333333, "type": "electric_scooter", "fusion_lat": 0.0, "rental_uris": {"android": "https://dc.lft.to/lastmile_qr_scan", "ios": "https://dc.lft.to/lastmile_qr_scan"}}, {"bike_id": "c9af8ea55fa6634c1fd3acc89fbfcaeb", "fusion_lon": 0.0, "name": "c9af8ea55fa6634c1fd3acc89fbfcaeb", "lat": 38.88767766666667, "is_disabled": 0, "is_reserved": 0, "lon": -76.9774395, "type": "electric_scooter", "fusion_lat": 0.0, "rental_uris": {"android": "https://dc.lft.to/lastmile_qr_scan", "ios": "https://dc.lft.to/lastmile_qr_scan"}}, {"bike_id": "419e0a38e933e479aa0a2d89703ef7a3", "fusion_lon": 0.0, "name": "419e0a38e933e479aa0a2d89703ef7a3", "lat": 38.89770866666667, "is_disabled": 0, "is_reserved": 0, "lon": -77.01072866666667, "type": "electric_scooter", "fusion_lat": 0.0, "rental_uris": {"android": "https://dc.lft.to/lastmile_qr_scan", "ios": "https://dc.lft.to/lastmile_qr_scan"}}, {"bike_id": "c2122bb34a4f2e8006aeab220afe4e94", "fusion_lon": 0.0, "name": "c2122bb34a4f2e8006aeab220afe4e94", "lat": 38.901503, "is_disabled": 0, "is_reserved": 0, "lon": -76.9306655, "type": "electric_scooter", "fusion_lat": 0.0, "rental_uris": {"android": "https://dc.lft.to/lastmile_qr_scan", "ios": "https://dc.lft.to/lastmile_qr_scan"}}, {"bike_id": "0e34f5256432b4b1761746a51b0e8246", "fusion_lon": 0.0, "name": "0e34f5256432b4b1761746a51b0e8246", "lat": 38.922158, "is_disabled": 0, "is_reserved": 0, "lon": -77.20140266666667, "type": "electric_bike", "fusion_lat": 0.0, "rental_uris": {"android": "https://dc.lft.to/lastmile_qr_scan", "ios": "https://dc.lft.to/lastmile_qr_scan"}}, {"bike_id": "112e4e74c1bcf06db59b83cc9709d232", "fusion_lon": 0.0, "name": "112e4e74c1bcf06db59b83cc9709d232", "lat": 38.92302766666667, "is_disabled": 0, "is_reserved": 0, "lon": -77.04177483333333, "type": "electric_scooter", "fusion_lat": 0.0, "rental_uris": {"android": "https://dc.lft.to/lastmile_qr_scan", "ios": "https://dc.lft.to/lastmile_qr_scan"}}, {"bike_id": "75c5b40c8fbfdf9c39cf7ae399c472e2", "fusion_lon": 0.0, "name": "75c5b40c8fbfdf9c39cf7ae399c472e2", "lat": 38.8814585, "is_disabled": 0, "is_reserved": 0, "lon": -77.02742416666666, "type": "electric_bike", "fusion_lat": 0.0, "rental_uris": {"android": "https://dc.lft.to/lastmile_qr_scan", "ios": "https://dc.lft.to/lastmile_qr_scan"}}, {"bike_id": "d49157971ccd37a28c672fbced1bfab5", "fusion_lon": 0.0, "name": "d49157971ccd37a28c672fbced1bfab5", "lat": 38.904543, "is_disabled": 0, "is_reserved": 0, "lon": -77.04336016666667, "type": "electric_scooter", "fusion_lat": 0.0, "rental_uris": {"android": "https://dc.lft.to/lastmile_qr_scan", "ios": "https://dc.lft.to/lastmile_qr_scan"}}, {"bike_id": "2acfb01ab4fed9c239bfc7700e36e728", "fusion_lon": 0.0, "name": "2acfb01ab4fed9c239bfc7700e36e728", "lat": 38.88745083333333, "is_disabled": 0, "is_reserved": 0, "lon": -76.983594, "type": "electric_scooter", "fusion_lat": 0.0, "rental_uris": {"android": "https://dc.lft.to/lastmile_qr_scan", "ios": "https://dc.lft.to/lastmile_qr_scan"}}, {"bike_id": "81b52e56a8c41e90fc739e8ea0c3cfc6", "fusion_lon": 0.0, "name": "81b52e56a8c41e90fc739e8ea0c3cfc6", "lat": 38.884752, "is_disabled": 0, "is_reserved": 0, "lon": -77.0250855, "type": "electric_scooter", "fusion_lat": 0.0, "rental_uris": {"android": "https://dc.lft.to/lastmile_qr_scan", "ios": "https://dc.lft.to/lastmile_qr_scan"}}, {"bike_id": "cb75ef7501587644f288ce6f1f9897ce", "fusion_lon": 0.0, "name": "cb75ef7501587644f288ce6f1f9897ce", "lat": 38.96037916666667, "is_disabled": 0, "is_reserved": 0, "lon": -77.07192016666667, "type": "electric_scooter", "fusion_lat": 0.0, "rental_uris": {"android": "https://dc.lft.to/lastmile_qr_scan", "ios": "https://dc.lft.to/lastmile_qr_scan"}}, {"bike_id": "e8ea829c8b9c1bd29678b9440d2b3c7b", "fusion_lon": 0.0, "name": "e8ea829c8b9c1bd29678b9440d2b3c7b", "lat": 38.892156, "is_disabled": 0, "is_reserved": 0, "lon": -76.99569066666666, "type": "electric_scooter", "fusion_lat": 0.0, "rental_uris": {"android": "https://dc.lft.to/lastmile_qr_scan", "ios": "https://dc.lft.to/lastmile_qr_scan"}}, {"bike_id": "3d1ce9f664d016ad1551459451d90ce5", "fusion_lon": 0.0, "name": "3d1ce9f664d016ad1551459451d90ce5", "lat": 38.896036, "is_disabled": 0, "is_reserved": 0, "lon": -77.03348816666667, "type": "electric_scooter", "fusion_lat": 0.0, "rental_uris": {"android": "https://dc.lft.to/lastmile_qr_scan", "ios": "https://dc.lft.to/lastmile_qr_scan"}}, {"bike_id": "a1b8108f97cfeae7649807da6a4199fe", "fusion_lon": 0.0, "name": "a1b8108f97cfeae7649807da6a4199fe", "lat": 38.9126885, "is_disabled": 0, "is_reserved": 0, "lon": -77.03832333333334, "type": "electric_scooter", "fusion_lat": 0.0, "rental_uris": {"android": "https://dc.lft.to/lastmile_qr_scan", "ios": "https://dc.lft.to/lastmile_qr_scan"}}, {"bike_id": "2f1fc5d5c727dcf3c9345ce93acf83ec", "fusion_lon": 0.0, "name": "2f1fc5d5c727dcf3c9345ce93acf83ec", "lat": 38.9242035, "is_disabled": 0, "is_reserved": 0, "lon": -77.01948266666666, "type": "electric_scooter", "fusion_lat": 0.0, "rental_uris": {"android": "https://dc.lft.to/lastmile_qr_scan", "ios": "https://dc.lft.to/lastmile_qr_scan"}}, {"bike_id": "a3964db4de4c1044206c21ba1c26868a", "fusion_lon": 0.0, "name": "a3964db4de4c1044206c21ba1c26868a", "lat": 38.9277445, "is_disabled": 0, "is_reserved": 0, "lon": -77.013917, "type": "electric_scooter", "fusion_lat": 0.0, "rental_uris": {"android": "https://dc.lft.to/lastmile_qr_scan", "ios": "https://dc.lft.to/lastmile_qr_scan"}}, {"bike_id": "c13b3fad8a7f2f8c3c4310622e3ec5c4", "fusion_lon": 0.0, "name": "c13b3fad8a7f2f8c3c4310622e3ec5c4", "lat": 38.92829316666667, "is_disabled": 0, "is_reserved": 0, "lon": -77.05433033333334, "type": "electric_scooter", "fusion_lat": 0.0, "rental_uris": {"android": "https://dc.lft.to/lastmile_qr_scan", "ios": "https://dc.lft.to/lastmile_qr_scan"}}, {"bike_id": "ad81a19f3cb4fe82fcd2335aab708c3a", "fusion_lon": 0.0, "name": "ad81a19f3cb4fe82fcd2335aab708c3a", "lat": 38.886139666666665, "is_disabled": 0, "is_reserved": 0, "lon": -77.0125135, "type": "electric_scooter", "fusion_lat": 0.0, "rental_uris": {"android": "https://dc.lft.to/lastmile_qr_scan", "ios": "https://dc.lft.to/lastmile_qr_scan"}}, {"bike_id": "843bac23f3dae87364de764298c2ead2", "fusion_lon": 0.0, "name": "843bac23f3dae87364de764298c2ead2", "lat": 38.902064, "is_disabled": 0, "is_reserved": 0, "lon": -77.03773866666667, "type": "electric_scooter", "fusion_lat": 0.0, "rental_uris": {"android": "https://dc.lft.to/lastmile_qr_scan", "ios": "https://dc.lft.to/lastmile_qr_scan"}}, {"bike_id": "e227eb7ef2f0904cccc25f622d0da37e", "fusion_lon": 0.0, "name": "e227eb7ef2f0904cccc25f622d0da37e", "lat": 38.90570683333333, "is_disabled": 0, "is_reserved": 0, "lon": -77.0434855, "type": "electric_scooter", "fusion_lat": 0.0, "rental_uris": {"android": "https://dc.lft.to/lastmile_qr_scan", "ios": "https://dc.lft.to/lastmile_qr_scan"}}, {"bike_id": "db8898d9f338d5e9580af18bcfe04c43", "fusion_lon": 0.0, "name": "db8898d9f338d5e9580af18bcfe04c43", "lat": 38.920502, "is_disabled": 0, "is_reserved": 0, "lon": -76.99582083333334, "type": "electric_scooter", "fusion_lat": 0.0, "rental_uris": {"android": "https://dc.lft.to/lastmile_qr_scan", "ios": "https://dc.lft.to/lastmile_qr_scan"}}, {"bike_id": "a22c4cfe273b0ec495a6b9793615b1cc", "fusion_lon": 0.0, "name": "a22c4cfe273b0ec495a6b9793615b1cc", "lat": 38.916554, "is_disabled": 0, "is_reserved": 0, "lon": -77.03214216666667, "type": "electric_scooter", "fusion_lat": 0.0, "rental_uris": {"android": "https://dc.lft.to/lastmile_qr_scan", "ios": "https://dc.lft.to/lastmile_qr_scan"}}, {"bike_id": "f0440effa471889520be9e35f7935fe0", "fusion_lon": 0.0, "name": "f0440effa471889520be9e35f7935fe0", "lat": 38.89467616666667, "is_disabled": 0, "is_reserved": 0, "lon": -77.01657433333334, "type": "electric_scooter", "fusion_lat": 0.0, "rental_uris": {"android": "https://dc.lft.to/lastmile_qr_scan", "ios": "https://dc.lft.to/lastmile_qr_scan"}}, {"bike_id": "12349ae03971b701c71e5a55dc2bdbea", "fusion_lon": 0.0, "name": "12349ae03971b701c71e5a55dc2bdbea", "lat": 38.900617, "is_disabled": 0, "is_reserved": 0, "lon": -77.054242, "type": "electric_scooter", "fusion_lat": 0.0, "rental_uris": {"android": "https://dc.lft.to/lastmile_qr_scan", "ios": "https://dc.lft.to/lastmile_qr_scan"}}, {"bike_id": "a0ba22ee8a0dc1f9220f38714087dec3", "fusion_lon": 0.0, "name": "a0ba22ee8a0dc1f9220f38714087dec3", "lat": 38.887478, "is_disabled": 0, "is_reserved": 0, "lon": -76.9731455, "type": "electric_scooter", "fusion_lat": 0.0, "rental_uris": {"android": "https://dc.lft.to/lastmile_qr_scan", "ios": "https://dc.lft.to/lastmile_qr_scan"}}, {"bike_id": "623a7d2362c15f505246b3bf7ca8aa9c", "fusion_lon": 0.0, "name": "623a7d2362c15f505246b3bf7ca8aa9c", "lat": 38.906809, "is_disabled": 0, "is_reserved": 0, "lon": -77.02381716666666, "type": "electric_scooter", "fusion_lat": 0.0, "rental_uris": {"android": "https://dc.lft.to/lastmile_qr_scan", "ios": "https://dc.lft.to/lastmile_qr_scan"}}, {"bike_id": "96443763d7db5c536f11ddd324e7ecb5", "fusion_lon": 0.0, "name": "96443763d7db5c536f11ddd324e7ecb5", "lat": 38.881445, "is_disabled": 0, "is_reserved": 0, "lon": -77.02739316666667, "type": "electric_scooter", "fusion_lat": 0.0, "rental_uris": {"android": "https://dc.lft.to/lastmile_qr_scan", "ios": "https://dc.lft.to/lastmile_qr_scan"}}, {"bike_id": "f86848ae5f4cda26fd0f97488e2ab3b9", "fusion_lon": 0.0, "name": "f86848ae5f4cda26fd0f97488e2ab3b9", "lat": 38.9171005, "is_disabled": 0, "is_reserved": 0, "lon": -77.032324, "type": "electric_scooter", "fusion_lat": 0.0, "rental_uris": {"android": "https://dc.lft.to/lastmile_qr_scan", "ios": "https://dc.lft.to/lastmile_qr_scan"}}, {"bike_id": "bc001f01855397176f6c390481a791f9", "fusion_lon": 0.0, "name": "bc001f01855397176f6c390481a791f9", "lat": 38.905329333333334, "is_disabled": 0, "is_reserved": 0, "lon": -77.05122633333333, "type": "electric_scooter", "fusion_lat": 0.0, "rental_uris": {"android": "https://dc.lft.to/lastmile_qr_scan", "ios": "https://dc.lft.to/lastmile_qr_scan"}}, {"bike_id": "6fde909d3a43dd71e2ec2ed383669e55", "fusion_lon": 0.0, "name": "6fde909d3a43dd71e2ec2ed383669e55", "lat": 38.906016666666666, "is_disabled": 0, "is_reserved": 0, "lon": -77.00290266666667, "type": "electric_scooter", "fusion_lat": 0.0, "rental_uris": {"android": "https://dc.lft.to/lastmile_qr_scan", "ios": "https://dc.lft.to/lastmile_qr_scan"}}, {"bike_id": "c874754f14a242c3757051f3d79ed40b", "fusion_lon": 0.0, "name": "c874754f14a242c3757051f3d79ed40b", "lat": 38.916548666666664, "is_disabled": 0, "is_reserved": 0, "lon": -77.02280283333333, "type": "electric_scooter", "fusion_lat": 0.0, "rental_uris": {"android": "https://dc.lft.to/lastmile_qr_scan", "ios": "https://dc.lft.to/lastmile_qr_scan"}}, {"bike_id": "d2e9eaa1fa22b653075eb56a60dba2e7", "fusion_lon": 0.0, "name": "d2e9eaa1fa22b653075eb56a60dba2e7", "lat": 38.923101, "is_disabled": 0, "is_reserved": 0, "lon": -77.02905866666667, "type": "electric_scooter", "fusion_lat": 0.0, "rental_uris": {"android": "https://dc.lft.to/lastmile_qr_scan", "ios": "https://dc.lft.to/lastmile_qr_scan"}}, {"bike_id": "1798bde3bfd3a2e12961f22a63483b52", "fusion_lon": 0.0, "name": "1798bde3bfd3a2e12961f22a63483b52", "lat": 38.9104105, "is_disabled": 0, "is_reserved": 0, "lon": -77.07574716666667, "type": "electric_scooter", "fusion_lat": 0.0, "rental_uris": {"android": "https://dc.lft.to/lastmile_qr_scan", "ios": "https://dc.lft.to/lastmile_qr_scan"}}, {"bike_id": "d33e948c48bf6317cc6e8a004cd254b7", "fusion_lon": 0.0, "name": "d33e948c48bf6317cc6e8a004cd254b7", "lat": 38.88492266666667, "is_disabled": 0, "is_reserved": 0, "lon": -76.956607, "type": "electric_bike", "fusion_lat": 0.0, "rental_uris": {"android": "https://dc.lft.to/lastmile_qr_scan", "ios": "https://dc.lft.to/lastmile_qr_scan"}}, {"bike_id": "bbf2cdd9fff4dbf304a4596538663a25", "fusion_lon": 0.0, "name": "bbf2cdd9fff4dbf304a4596538663a25", "lat": 38.92647233333334, "is_disabled": 0, "is_reserved": 0, "lon": -77.03302166666667, "type": "electric_scooter", "fusion_lat": 0.0, "rental_uris": {"android": "https://dc.lft.to/lastmile_qr_scan", "ios": "https://dc.lft.to/lastmile_qr_scan"}}, {"bike_id": "9c1fc73935f65e65cbe637006a216de8", "fusion_lon": 0.0, "name": "9c1fc73935f65e65cbe637006a216de8", "lat": 38.99415783333333, "is_disabled": 0, "is_reserved": 0, "lon": -77.07701466666667, "type": "electric_bike", "fusion_lat": 0.0, "rental_uris": {"android": "https://dc.lft.to/lastmile_qr_scan", "ios": "https://dc.lft.to/lastmile_qr_scan"}}, {"bike_id": "39199e7d965ac39741874744cd3ae31c", "fusion_lon": 0.0, "name": "39199e7d965ac39741874744cd3ae31c", "lat": 38.924409833333335, "is_disabled": 0, "is_reserved": 0, "lon": -77.03375633333333, "type": "electric_scooter", "fusion_lat": 0.0, "rental_uris": {"android": "https://dc.lft.to/lastmile_qr_scan", "ios": "https://dc.lft.to/lastmile_qr_scan"}}, {"bike_id": "ff67fb72b5466db6cc45e61e9795e5a8", "fusion_lon": 0.0, "name": "ff67fb72b5466db6cc45e61e9795e5a8", "lat": 39.0360355, "is_disabled": 0, "is_reserved": 0, "lon": -77.05544483333334, "type": "electric_bike", "fusion_lat": 0.0, "rental_uris": {"android": "https://dc.lft.to/lastmile_qr_scan", "ios": "https://dc.lft.to/lastmile_qr_scan"}}, {"bike_id": "8b0520684313bed01a0317051ac6cd85", "fusion_lon": 0.0, "name": "8b0520684313bed01a0317051ac6cd85", "lat": 38.91646583333333, "is_disabled": 0, "is_reserved": 0, "lon": -77.03459983333333, "type": "electric_scooter", "fusion_lat": 0.0, "rental_uris": {"android": "https://dc.lft.to/lastmile_qr_scan", "ios": "https://dc.lft.to/lastmile_qr_scan"}}, {"bike_id": "e6c4e434fa6dd2a15ab0f646f2a06653", "fusion_lon": 0.0, "name": "e6c4e434fa6dd2a15ab0f646f2a06653", "lat": 38.9283755, "is_disabled": 0, "is_reserved": 0, "lon": -77.05971483333333, "type": "electric_scooter", "fusion_lat": 0.0, "rental_uris": {"android": "https://dc.lft.to/lastmile_qr_scan", "ios": "https://dc.lft.to/lastmile_qr_scan"}}, {"bike_id": "4b4e903424457d12886dc73c1ed0a48b", "fusion_lon": 0.0, "name": "4b4e903424457d12886dc73c1ed0a48b", "lat": 38.8998585, "is_disabled": 0, "is_reserved": 0, "lon": -76.98435433333333, "type": "electric_scooter", "fusion_lat": 0.0, "rental_uris": {"android": "https://dc.lft.to/lastmile_qr_scan", "ios": "https://dc.lft.to/lastmile_qr_scan"}}, {"bike_id": "7b54eda45a6716b6a9164760206ff745", "fusion_lon": 0.0, "name": "7b54eda45a6716b6a9164760206ff745", "lat": 38.92253133333333, "is_disabled": 0, "is_reserved": 0, "lon": -77.04296866666667, "type": "electric_scooter", "fusion_lat": 0.0, "rental_uris": {"android": "https://dc.lft.to/lastmile_qr_scan", "ios": "https://dc.lft.to/lastmile_qr_scan"}}, {"bike_id": "613d5a37b729a9f7dcc2e198e59c1b18", "fusion_lon": 0.0, "name": "613d5a37b729a9f7dcc2e198e59c1b18", "lat": 38.917447833333334, "is_disabled": 0, "is_reserved": 0, "lon": -77.03184333333333, "type": "electric_scooter", "fusion_lat": 0.0, "rental_uris": {"android": "https://dc.lft.to/lastmile_qr_scan", "ios": "https://dc.lft.to/lastmile_qr_scan"}}, {"bike_id": "dc1cf9828b7295a2cd1df44c07f4b043", "fusion_lon": 0.0, "name": "dc1cf9828b7295a2cd1df44c07f4b043", "lat": 38.951650666666666, "is_disabled": 0, "is_reserved": 0, "lon": -77.03169033333333, "type": "electric_bike", "fusion_lat": 0.0, "rental_uris": {"android": "https://dc.lft.to/lastmile_qr_scan", "ios": "https://dc.lft.to/lastmile_qr_scan"}}, {"bike_id": "724938262acdb9498be70d12e30a4e53", "fusion_lon": 0.0, "name": "724938262acdb9498be70d12e30a4e53", "lat": 38.8984035, "is_disabled": 0, "is_reserved": 0, "lon": -77.03183616666666, "type": "electric_scooter", "fusion_lat": 0.0, "rental_uris": {"android": "https://dc.lft.to/lastmile_qr_scan", "ios": "https://dc.lft.to/lastmile_qr_scan"}}, {"bike_id": "d4e990c81a079975862540ab90d761da", "fusion_lon": 0.0, "name": "d4e990c81a079975862540ab90d761da", "lat": 38.89265866666667, "is_disabled": 0, "is_reserved": 0, "lon": -77.00352033333333, "type": "electric_scooter", "fusion_lat": 0.0, "rental_uris": {"android": "https://dc.lft.to/lastmile_qr_scan", "ios": "https://dc.lft.to/lastmile_qr_scan"}}, {"bike_id": "413bae56b111fdc74387901131c8dbc4", "fusion_lon": 0.0, "name": "413bae56b111fdc74387901131c8dbc4", "lat": 38.917166, "is_disabled": 0, "is_reserved": 0, "lon": -77.02382166666666, "type": "electric_scooter", "fusion_lat": 0.0, "rental_uris": {"android": "https://dc.lft.to/lastmile_qr_scan", "ios": "https://dc.lft.to/lastmile_qr_scan"}}, {"bike_id": "625c9e5630bd42f4d35c6c76bd6ce550", "fusion_lon": 0.0, "name": "625c9e5630bd42f4d35c6c76bd6ce550", "lat": 38.93124066666667, "is_disabled": 0, "is_reserved": 0, "lon": -76.9844215, "type": "electric_scooter", "fusion_lat": 0.0, "rental_uris": {"android": "https://dc.lft.to/lastmile_qr_scan", "ios": "https://dc.lft.to/lastmile_qr_scan"}}, {"bike_id": "4ca6d58ac0f30cf81f6d908d06cb749a", "fusion_lon": 0.0, "name": "4ca6d58ac0f30cf81f6d908d06cb749a", "lat": 38.8997735, "is_disabled": 0, "is_reserved": 0, "lon": -76.98178416666667, "type": "electric_scooter", "fusion_lat": 0.0, "rental_uris": {"android": "https://dc.lft.to/lastmile_qr_scan", "ios": "https://dc.lft.to/lastmile_qr_scan"}}, {"bike_id": "4ce29b46a66502b59850e1cf6b67cc58", "fusion_lon": 0.0, "name": "4ce29b46a66502b59850e1cf6b67cc58", "lat": 38.9239125, "is_disabled": 0, "is_reserved": 0, "lon": -77.043008, "type": "electric_scooter", "fusion_lat": 0.0, "rental_uris": {"android": "https://dc.lft.to/lastmile_qr_scan", "ios": "https://dc.lft.to/lastmile_qr_scan"}}, {"bike_id": "6858357c686664fc5266c713b4e07f79", "fusion_lon": 0.0, "name": "6858357c686664fc5266c713b4e07f79", "lat": 38.896162833333335, "is_disabled": 0, "is_reserved": 0, "lon": -77.026013, "type": "electric_scooter", "fusion_lat": 0.0, "rental_uris": {"android": "https://dc.lft.to/lastmile_qr_scan", "ios": "https://dc.lft.to/lastmile_qr_scan"}}, {"bike_id": "e7aa7febcddd4eab8dfcd200f6c1f3d9", "fusion_lon": 0.0, "name": "e7aa7febcddd4eab8dfcd200f6c1f3d9", "lat": 38.8729005, "is_disabled": 0, "is_reserved": 0, "lon": -77.00984916666667, "type": "electric_scooter", "fusion_lat": 0.0, "rental_uris": {"android": "https://dc.lft.to/lastmile_qr_scan", "ios": "https://dc.lft.to/lastmile_qr_scan"}}, {"bike_id": "5b1700268b3f92ff2caedb750aa362ff", "fusion_lon": 0.0, "name": "5b1700268b3f92ff2caedb750aa362ff", "lat": 38.841294833333336, "is_disabled": 0, "is_reserved": 0, "lon": -77.06309233333333, "type": "electric_bike", "fusion_lat": 0.0, "rental_uris": {"android": "https://dc.lft.to/lastmile_qr_scan", "ios": "https://dc.lft.to/lastmile_qr_scan"}}, {"bike_id": "00be7dd3d3e1dd50013f47cc9863e3e9", "fusion_lon": 0.0, "name": "00be7dd3d3e1dd50013f47cc9863e3e9", "lat": 38.90370133333333, "is_disabled": 0, "is_reserved": 0, "lon": -77.04503433333333, "type": "electric_scooter", "fusion_lat": 0.0, "rental_uris": {"android": "https://dc.lft.to/lastmile_qr_scan", "ios": "https://dc.lft.to/lastmile_qr_scan"}}, {"bike_id": "fe4555bd25923e4dd7f31025351f3fba", "fusion_lon": 0.0, "name": "fe4555bd25923e4dd7f31025351f3fba", "lat": 38.88530733333333, "is_disabled": 0, "is_reserved": 0, "lon": -77.121925, "type": "electric_bike", "fusion_lat": 0.0, "rental_uris": {"android": "https://dc.lft.to/lastmile_qr_scan", "ios": "https://dc.lft.to/lastmile_qr_scan"}}, {"bike_id": "d758cc325a7b91c42d65bb35f80e0dd1", "fusion_lon": 0.0, "name": "d758cc325a7b91c42d65bb35f80e0dd1", "lat": 38.935799, "is_disabled": 0, "is_reserved": 0, "lon": -77.07345633333334, "type": "electric_scooter", "fusion_lat": 0.0, "rental_uris": {"android": "https://dc.lft.to/lastmile_qr_scan", "ios": "https://dc.lft.to/lastmile_qr_scan"}}, {"bike_id": "1ad0498887db2a2deaf497005a92e7a0", "fusion_lon": 0.0, "name": "1ad0498887db2a2deaf497005a92e7a0", "lat": 38.890231666666665, "is_disabled": 0, "is_reserved": 0, "lon": -77.015062, "type": "electric_scooter", "fusion_lat": 0.0, "rental_uris": {"android": "https://dc.lft.to/lastmile_qr_scan", "ios": "https://dc.lft.to/lastmile_qr_scan"}}, {"bike_id": "34594065910d5141560651e2a8452a17", "fusion_lon": 0.0, "name": "34594065910d5141560651e2a8452a17", "lat": 38.916343499999996, "is_disabled": 0, "is_reserved": 0, "lon": -77.02552383333334, "type": "electric_scooter", "fusion_lat": 0.0, "rental_uris": {"android": "https://dc.lft.to/lastmile_qr_scan", "ios": "https://dc.lft.to/lastmile_qr_scan"}}, {"bike_id": "d4efffb4bd56a91f976d1b29b7fe9f9d", "fusion_lon": 0.0, "name": "d4efffb4bd56a91f976d1b29b7fe9f9d", "lat": 38.88790066666667, "is_disabled": 0, "is_reserved": 0, "lon": -76.92352416666667, "type": "electric_bike", "fusion_lat": 0.0, "rental_uris": {"android": "https://dc.lft.to/lastmile_qr_scan", "ios": "https://dc.lft.to/lastmile_qr_scan"}}, {"bike_id": "b4b66a667bf7f34a7bbf848a73ba1fc6", "fusion_lon": 0.0, "name": "b4b66a667bf7f34a7bbf848a73ba1fc6", "lat": 38.911189, "is_disabled": 0, "is_reserved": 0, "lon": -77.0424205, "type": "electric_scooter", "fusion_lat": 0.0, "rental_uris": {"android": "https://dc.lft.to/lastmile_qr_scan", "ios": "https://dc.lft.to/lastmile_qr_scan"}}, {"bike_id": "f952b5a70ebe84fb839c7f799e69f3e7", "fusion_lon": 0.0, "name": "f952b5a70ebe84fb839c7f799e69f3e7", "lat": 38.92602766666667, "is_disabled": 0, "is_reserved": 0, "lon": -77.021584, "type": "electric_scooter", "fusion_lat": 0.0, "rental_uris": {"android": "https://dc.lft.to/lastmile_qr_scan", "ios": "https://dc.lft.to/lastmile_qr_scan"}}, {"bike_id": "750b26eec492e7e4b1b232fe709f4387", "fusion_lon": 0.0, "name": "750b26eec492e7e4b1b232fe709f4387", "lat": 38.85598783333333, "is_disabled": 0, "is_reserved": 0, "lon": -76.97268616666666, "type": "electric_scooter", "fusion_lat": 0.0, "rental_uris": {"android": "https://dc.lft.to/lastmile_qr_scan", "ios": "https://dc.lft.to/lastmile_qr_scan"}}, {"bike_id": "03ec7a67855d2700772aa48f94b25728", "fusion_lon": 0.0, "name": "03ec7a67855d2700772aa48f94b25728", "lat": 38.881332666666665, "is_disabled": 0, "is_reserved": 0, "lon": -77.027113, "type": "electric_scooter", "fusion_lat": 0.0, "rental_uris": {"android": "https://dc.lft.to/lastmile_qr_scan", "ios": "https://dc.lft.to/lastmile_qr_scan"}}, {"bike_id": "0777866846d93b6d94cdfba512179ab3", "fusion_lon": 0.0, "name": "0777866846d93b6d94cdfba512179ab3", "lat": 38.89254733333333, "is_disabled": 0, "is_reserved": 0, "lon": -77.04656366666667, "type": "electric_scooter", "fusion_lat": 0.0, "rental_uris": {"android": "https://dc.lft.to/lastmile_qr_scan", "ios": "https://dc.lft.to/lastmile_qr_scan"}}, {"bike_id": "c24bdae7609bc826d509a07c045a824a", "fusion_lon": 0.0, "name": "c24bdae7609bc826d509a07c045a824a", "lat": 38.892384166666666, "is_disabled": 0, "is_reserved": 0, "lon": -77.04871866666667, "type": "electric_scooter", "fusion_lat": 0.0, "rental_uris": {"android": "https://dc.lft.to/lastmile_qr_scan", "ios": "https://dc.lft.to/lastmile_qr_scan"}}, {"bike_id": "c8d7444ae9d02ce740ee9df37ac80ab1", "fusion_lon": 0.0, "name": "c8d7444ae9d02ce740ee9df37ac80ab1", "lat": 38.89737266666667, "is_disabled": 0, "is_reserved": 0, "lon": -77.13925083333334, "type": "electric_bike", "fusion_lat": 0.0, "rental_uris": {"android": "https://dc.lft.to/lastmile_qr_scan", "ios": "https://dc.lft.to/lastmile_qr_scan"}}, {"bike_id": "1d7b940bc99456a7b7bc990f1d2cdb87", "fusion_lon": 0.0, "name": "1d7b940bc99456a7b7bc990f1d2cdb87", "lat": 38.91413683333333, "is_disabled": 0, "is_reserved": 0, "lon": -77.02231316666666, "type": "electric_scooter", "fusion_lat": 0.0, "rental_uris": {"android": "https://dc.lft.to/lastmile_qr_scan", "ios": "https://dc.lft.to/lastmile_qr_scan"}}, {"bike_id": "8b9eefc394877d8df2078d26afd7f571", "fusion_lon": 0.0, "name": "8b9eefc394877d8df2078d26afd7f571", "lat": 38.9147705, "is_disabled": 0, "is_reserved": 0, "lon": -77.02299583333334, "type": "electric_scooter", "fusion_lat": 0.0, "rental_uris": {"android": "https://dc.lft.to/lastmile_qr_scan", "ios": "https://dc.lft.to/lastmile_qr_scan"}}, {"bike_id": "caa14fc03e4fe5b0300e2887a6b8bce7", "fusion_lon": 0.0, "name": "caa14fc03e4fe5b0300e2887a6b8bce7", "lat": 38.909809833333334, "is_disabled": 0, "is_reserved": 0, "lon": -77.03442183333334, "type": "electric_scooter", "fusion_lat": 0.0, "rental_uris": {"android": "https://dc.lft.to/lastmile_qr_scan", "ios": "https://dc.lft.to/lastmile_qr_scan"}}, {"bike_id": "1df175c0eb4c1f2b47a34c467a4b053b", "fusion_lon": 0.0, "name": "1df175c0eb4c1f2b47a34c467a4b053b", "lat": 38.90212833333333, "is_disabled": 0, "is_reserved": 0, "lon": -77.04768033333333, "type": "electric_scooter", "fusion_lat": 0.0, "rental_uris": {"android": "https://dc.lft.to/lastmile_qr_scan", "ios": "https://dc.lft.to/lastmile_qr_scan"}}, {"bike_id": "a0d0c7eb5728589a5ede2f39d1498091", "fusion_lon": 0.0, "name": "a0d0c7eb5728589a5ede2f39d1498091", "lat": 38.90133083333333, "is_disabled": 0, "is_reserved": 0, "lon": -77.034714, "type": "electric_scooter", "fusion_lat": 0.0, "rental_uris": {"android": "https://dc.lft.to/lastmile_qr_scan", "ios": "https://dc.lft.to/lastmile_qr_scan"}}, {"bike_id": "fec85be94a5db81caecec213047ecfe5", "fusion_lon": 0.0, "name": "fec85be94a5db81caecec213047ecfe5", "lat": 38.9386455, "is_disabled": 0, "is_reserved": 0, "lon": -77.02554916666666, "type": "electric_scooter", "fusion_lat": 0.0, "rental_uris": {"android": "https://dc.lft.to/lastmile_qr_scan", "ios": "https://dc.lft.to/lastmile_qr_scan"}}, {"bike_id": "010ddf8f732c4a4bcc124fd28f127044", "fusion_lon": 0.0, "name": "010ddf8f732c4a4bcc124fd28f127044", "lat": 38.90567633333333, "is_disabled": 0, "is_reserved": 0, "lon": -77.005917, "type": "electric_scooter", "fusion_lat": 0.0, "rental_uris": {"android": "https://dc.lft.to/lastmile_qr_scan", "ios": "https://dc.lft.to/lastmile_qr_scan"}}, {"bike_id": "61959ec3330c77750563deee36ea0f7b", "fusion_lon": 0.0, "name": "61959ec3330c77750563deee36ea0f7b", "lat": 38.900363666666664, "is_disabled": 0, "is_reserved": 0, "lon": -76.97226433333333, "type": "electric_bike", "fusion_lat": 0.0, "rental_uris": {"android": "https://dc.lft.to/lastmile_qr_scan", "ios": "https://dc.lft.to/lastmile_qr_scan"}},