{"data": {"bikes": [{"lat": 38.94894566666667, "type": "electric_scooter", "fusion_lat": 0.0, "is_disabled": 0, "name": "bc413cadf545e8517f46cef2c4ba13a8", "is_reserved": 0, "rental_uris": {"ios": "https://dc.lft.to/lastmile_qr_scan", "android": "https://dc.lft.to/lastmile_qr_scan"}, "lon": -77.0185115, "bike_id": "bc413cadf545e8517f46cef2c4ba13a8", "fusion_lon": 0.0}, {"lat": 38.9072835, "type": "electric_scooter", "fusion_lat": 0.0, "is_disabled": 0, "name": "3043d63adb13e8eb8e52e8733beb4ee6", "is_reserved": 0, "rental_uris": {"ios": "https://dc.lft.to/lastmile_qr_scan", "android": "https://dc.lft.to/lastmile_qr_scan"}, "lon": -77.03474816666666, "bike_id": "3043d63adb13e8eb8e52e8733beb4ee6", "fusion_lon": 0.0}, {"lat": 38.92120716666667, "type": "electric_scooter", "fusion_lat": 0.0, "is_disabled": 0, "name": "41e335edf0b2ddd80fd98d76dd8ddce6", "is_reserved": 0, "rental_uris": {"ios": "https://dc.lft.to/lastmile_qr_scan", "android": "https://dc.lft.to/lastmile_qr_scan"}, "lon": -77.04644416666666, "bike_id": "41e335edf0b2ddd80fd98d76dd8ddce6", "fusion_lon": 0.0}, {"lat": 38.89460916666667, "type": "electric_scooter", "fusion_lat": 0.0, "is_disabled": 0, "name": "0a2ba079de3887d68f4783088aa29fa1", "is_reserved": 0, "rental_uris": {"ios": "https://dc.lft.to/lastmile_qr_scan", "android": "https://dc.lft.to/lastmile_qr_scan"}, "lon": -77.0467295, "bike_id": "0a2ba079de3887d68f4783088aa29fa1", "fusion_lon": 0.0}, {"lat": 38.937104166666664, "type": "electric_scooter", "fusion_lat": 0.0, "is_disabled": 0, "name": "25b7342733b4648f996bd07bcbf931a8", "is_reserved": 0, "rental_uris": {"ios": "https://dc.lft.to/lastmile_qr_scan", "android": "https://dc.lft.to/lastmile_qr_scan"}, "lon": -77.061015, "bike_id": "25b7342733b4648f996bd07bcbf931a8", "fusion_lon": 0.0}, {"lat": 38.9303265, "type": "electric_scooter", "fusion_lat": 0.0, "is_disabled": 0, "name": "389a5fcca54d6cdab40f99a23a4f352e", "is_reserved": 0, "rental_uris": {"ios": "https://dc.lft.to/lastmile_qr_scan", "android": "https://dc.lft.to/lastmile_qr_scan"}, "lon": -77.01300816666667, "bike_id": "389a5fcca54d6cdab40f99a23a4f352e", "fusion_lon": 0.0}, {"lat": 38.930550833333335, "type": "electric_scooter", "fusion_lat": 0.0, "is_disabled": 0, "name": "729f3e0e9bd62e8753e0162a58d1350c", "is_reserved": 0, "rental_uris": {"ios": "https://dc.lft.to/lastmile_qr_scan", "android": "https://dc.lft.to/lastmile_qr_scan"}, "lon": -77.07767533333333, "bike_id": "729f3e0e9bd62e8753e0162a58d1350c", "fusion_lon": 0.0}, {"lat": 38.8951275, "type": "electric_scooter", "fusion_lat": 0.0, "is_disabled": 0, "name": "f1acaac192fd6e5b2a2485189c9847d6", "is_reserved": 0, "rental_uris": {"ios": "https://dc.lft.to/lastmile_qr_scan", "android": "https://dc.lft.to/lastmile_qr_scan"}, "lon": -76.9488715, "bike_id": "f1acaac192fd6e5b2a2485189c9847d6", "fusion_lon": 0.0}, {"lat": 38.9256805, "type": "electric_scooter", "fusion_lat": 0.0, "is_disabled": 0, "name": "289e8c2109b17f4eb859d5f33190f17c", "is_reserved": 0, "rental_uris": {"ios": "https://dc.lft.to/lastmile_qr_scan", "android": "https://dc.lft.to/lastmile_qr_scan"}, "lon": -77.040369, "bike_id": "289e8c2109b17f4eb859d5f33190f17c", "fusion_lon": 0.0}, {"lat": 38.921439666666664, "type": "electric_scooter", "fusion_lat": 0.0, "is_disabled": 0, "name": "0b88e9be1504107c9c7d1b5c19b7b361", "is_reserved": 0, "rental_uris": {"ios": "https://dc.lft.to/lastmile_qr_scan", "android": "https://dc.lft.to/lastmile_qr_scan"}, "lon": -77.03375233333334, "bike_id": "0b88e9be1504107c9c7d1b5c19b7b361", "fusion_lon": 0.0}, {"lat": 38.90471383333333, "type": "electric_scooter", "fusion_lat": 0.0, "is_disabled": 0, "name": "c7213c17fe3885fb925e8c3a65e11860", "is_reserved": 0, "rental_uris": {"ios": "https://dc.lft.to/lastmile_qr_scan", "android": "https://dc.lft.to/lastmile_qr_scan"}, "lon": -77.0364745, "bike_id": "c7213c17fe3885fb925e8c3a65e11860", "fusion_lon": 0.0}, {"lat": 38.91142, "type": "electric_scooter", "fusion_lat": 0.0, "is_disabled": 0, "name": "09678754b4ad94f9c4b656c654f70ff3", "is_reserved": 0, "rental_uris": {"ios": "https://dc.lft.to/lastmile_qr_scan", "android": "https://dc.lft.to/lastmile_qr_scan"}, "lon": -77.02712533333333, "bike_id": "09678754b4ad94f9c4b656c654f70ff3", "fusion_lon": 0.0}, {"lat": 38.915350333333336, "type": "electric_scooter", "fusion_lat": 0.0, "is_disabled": 0, "name": "8f44e9604e178ab236b3afd324ab6ff3", "is_reserved": 0, "rental_uris": {"ios": "https://dc.lft.to/lastmile_qr_scan", "android": "https://dc.lft.to/lastmile_qr_scan"}, "lon": -77.05511066666666, "bike_id": "8f44e9604e178ab236b3afd324ab6ff3", "fusion_lon": 0.0}, {"lat": 38.92617833333333, "type": "electric_scooter", "fusion_lat": 0.0, "is_disabled": 0, "name": "360993ab20443197a6db7171f69e5e1a", "is_reserved": 0, "rental_uris": {"ios": "https://dc.lft.to/lastmile_qr_scan", "android": "https://dc.lft.to/lastmile_qr_scan"}, "lon": -77.02160983333333, "bike_id": "360993ab20443197a6db7171f69e5e1a", "fusion_lon": 0.0}, {"lat": 38.91266433333333, "type": "electric_scooter", "fusion_lat": 0.0, "is_disabled": 0, "name": "81ac7ee2f29e0b815d60a022f0aec624", "is_reserved": 0, "rental_uris": {"ios": "https://dc.lft.to/lastmile_qr_scan", "android": "https://dc.lft.to/lastmile_qr_scan"}, "lon": -77.0318425, "bike_id": "81ac7ee2f29e0b815d60a022f0aec624", "fusion_lon": 0.0}, {"lat": 38.9004955, "type": "electric_scooter", "fusion_lat": 0.0, "is_disabled": 0, "name": "67e84fff371f462cc9d53e0eb24b30db", "is_reserved": 0, "rental_uris": {"ios": "https://dc.lft.to/lastmile_qr_scan", "android": "https://dc.lft.to/lastmile_qr_scan"}, "lon": -77.04471583333333, "bike_id": "67e84fff371f462cc9d53e0eb24b30db", "fusion_lon": 0.0}, {"lat": 38.90461716666667, "type": "electric_scooter", "fusion_lat": 0.0, "is_disabled": 0, "name": "df00069045f76436fd94cbb7af0352e0", "is_reserved": 0, "rental_uris": {"ios": "https://dc.lft.to/lastmile_qr_scan", "android": "https://dc.lft.to/lastmile_qr_scan"}, "lon": -77.06783566666667, "bike_id": "df00069045f76436fd94cbb7af0352e0", "fusion_lon": 0.0}, {"lat": 38.884296166666665, "type": "electric_scooter", "fusion_lat": 0.0, "is_disabled": 0, "name": "fd7d66e1fd9ec4788995a9c6f6e2fe88", "is_reserved": 0, "rental_uris": {"ios": "https://dc.lft.to/lastmile_qr_scan", "android": "https://dc.lft.to/lastmile_qr_scan"}, "lon": -76.99602566666667, "bike_id": "fd7d66e1fd9ec4788995a9c6f6e2fe88", "fusion_lon": 0.0}, {"lat": 38.92227533333333, "type": "electric_scooter", "fusion_lat": 0.0, "is_disabled": 0, "name": "25a687b815ab33feb300a78886d191fa", "is_reserved": 0, "rental_uris": {"ios": "https://dc.lft.to/lastmile_qr_scan", "android": "https://dc.lft.to/lastmile_qr_scan"}, "lon": -77.01934483333334, "bike_id": "25a687b815ab33feb300a78886d191fa", "fusion_lon": 0.0}, {"lat": 38.89736716666667, "type": "electric_scooter", "fusion_lat": 0.0, "is_disabled": 0, "name": "81bc10519535431a380c150af3c5eacd", "is_reserved": 0, "rental_uris": {"ios": "https://dc.lft.to/lastmile_qr_scan", "android": "https://dc.lft.to/lastmile_qr_scan"}, "lon": -77.00773483333333, "bike_id": "81bc10519535431a380c150af3c5eacd", "fusion_lon": 0.0}, {"lat": 38.9164015, "type": "electric_scooter", "fusion_lat": 0.0, "is_disabled": 0, "name": "6dfdaafae005885d88d4aafbaf1e8ed8", "is_reserved": 0, "rental_uris": {"ios": "https://dc.lft.to/lastmile_qr_scan", "android": "https://dc.lft.to/lastmile_qr_scan"}, "lon": -77.03205666666666, "bike_id": "6dfdaafae005885d88d4aafbaf1e8ed8", "fusion_lon": 0.0}, {"lat": 38.887423, "type": "electric_scooter", "fusion_lat": 0.0, "is_disabled": 0, "name": "f613c9e1d1073619a88067569b710a76", "is_reserved": 0, "rental_uris": {"ios": "https://dc.lft.to/lastmile_qr_scan", "android": "https://dc.lft.to/lastmile_qr_scan"}, "lon": -77.03185166666667, "bike_id": "f613c9e1d1073619a88067569b710a76", "fusion_lon": 0.0}, {"lat": 39.02444, "type": "electric_bike", "fusion_lat": 0.0, "is_disabled": 0, "name": "6b11ff66feb10b26c1ebde147415ae38", "is_reserved": 0, "rental_uris": {"ios": "https://dc.lft.to/lastmile_qr_scan", "android": "https://dc.lft.to/lastmile_qr_scan"}, "lon": -77.1310505, "bike_id": "6b11ff66feb10b26c1ebde147415ae38", "fusion_lon": 0.0}, {"lat": 38.897567, "type": "electric_scooter", "fusion_lat": 0.0, "is_disabled": 0, "name": "772e995879b460384374d89a2b7837fc", "is_reserved": 0, "rental_uris": {"ios": "https://dc.lft.to/lastmile_qr_scan", "android": "https://dc.lft.to/lastmile_qr_scan"}, "lon": -77.03217383333333, "bike_id": "772e995879b460384374d89a2b7837fc", "fusion_lon": 0.0}, {"lat": 38.90812783333333, "type": "electric_scooter", "fusion_lat": 0.0, "is_disabled": 0, "name": "e6414fa9188b520244c6ca2bc9734e85", "is_reserved": 0, "rental_uris": {"ios": "https://dc.lft.to/lastmile_qr_scan", "android": "https://dc.lft.to/lastmile_qr_scan"}, "lon": -77.03940583333333, "bike_id": "e6414fa9188b520244c6ca2bc9734e85", "fusion_lon": 0.0}, {"lat": 38.9027975, "type": "electric_scooter", "fusion_lat": 0.0, "is_disabled": 0, "name": "1c666b876f5fb02b0d06ebc7ac277fc5", "is_reserved": 0, "rental_uris": {"ios": "https://dc.lft.to/lastmile_qr_scan", "android": "https://dc.lft.to/lastmile_qr_scan"}, "lon": -77.03830633333334, "bike_id": "1c666b876f5fb02b0d06ebc7ac277fc5", "fusion_lon": 0.0}, {"lat": 38.9170665, "type": "electric_scooter", "fusion_lat": 0.0, "is_disabled": 0, "name": "568c091543fc0b2baf7099d8760d02e1", "is_reserved": 0, "rental_uris": {"ios": "https://dc.lft.to/lastmile_qr_scan", "android": "https://dc.lft.to/lastmile_qr_scan"}, "lon": -77.03499566666666, "bike_id": "568c091543fc0b2baf7099d8760d02e1", "fusion_lon": 0.0}, {"lat": 38.9785555, "type": "electric_bike", "fusion_lat": 0.0, "is_disabled": 0, "name": "4c2bc6e0538becf80100c2832cc54397", "is_reserved": 0, "rental_uris": {"ios": "https://dc.lft.to/lastmile_qr_scan", "android": "https://dc.lft.to/lastmile_qr_scan"}, "lon": -77.09076266666666, "bike_id": "4c2bc6e0538becf80100c2832cc54397", "fusion_lon": 0.0}, {"lat": 38.903973666666666, "type": "electric_scooter", "fusion_lat": 0.0, "is_disabled": 0, "name": "dd1870d7c448a1200415332887a5cbde", "is_reserved": 0, "rental_uris": {"ios": "https://dc.lft.to/lastmile_qr_scan", "android": "https://dc.lft.to/lastmile_qr_scan"}, "lon": -77.03316616666666, "bike_id": "dd1870d7c448a1200415332887a5cbde", "fusion_lon": 0.0}, {"lat": 38.9247185, "type": "electric_scooter", "fusion_lat": 0.0, "is_disabled": 0, "name": "0d44dfbd8035ffadd384435a92b5b7d6", "is_reserved": 0, "rental_uris": {"ios": "https://dc.lft.to/lastmile_qr_scan", "android": "https://dc.lft.to/lastmile_qr_scan"}, "lon": -77.02221183333333, "bike_id": "0d44dfbd8035ffadd384435a92b5b7d6", "fusion_lon": 0.0}, {"lat": 38.86381933333333, "type": "electric_scooter", "fusion_lat": 0.0, "is_disabled": 0, "name": "512210062db25c40a147fbc0cda64848", "is_reserved": 0, "rental_uris": {"ios": "https://dc.lft.to/lastmile_qr_scan", "android": "https://dc.lft.to/lastmile_qr_scan"}, "lon": -76.99054533333333, "bike_id": "512210062db25c40a147fbc0cda64848", "fusion_lon": 0.0}, {"lat": 38.904493, "type": "electric_scooter", "fusion_lat": 0.0, "is_disabled": 0, "name": "862af7185da333c2c3444a22a2fe290b", "is_reserved": 0, "rental_uris": {"ios": "https://dc.lft.to/lastmile_qr_scan", "android": "https://dc.lft.to/lastmile_qr_scan"}, "lon": -77.04662466666667, "bike_id": "862af7185da333c2c3444a22a2fe290b", "fusion_lon": 0.0}, {"lat": 38.894277833333334, "type": "electric_scooter", "fusion_lat": 0.0, "is_disabled": 0, "name": "f059ffd782531f06691347021fc5c23c", "is_reserved": 0, "rental_uris": {"ios": "https://dc.lft.to/lastmile_qr_scan", "android": "https://dc.lft.to/lastmile_qr_scan"}, "lon": -76.94879133333333, "bike_id": "f059ffd782531f06691347021fc5c23c", "fusion_lon": 0.0}, {"lat": 38.9013665, "type": "electric_scooter", "fusion_lat": 0.0, "is_disabled": 0, "name": "33755921d94f28694c38773b302f088b", "is_reserved": 0, "rental_uris": {"ios": "https://dc.lft.to/lastmile_qr_scan", "android": "https://dc.lft.to/lastmile_qr_scan"}, "lon": -77.04631616666667, "bike_id": "33755921d94f28694c38773b302f088b", "fusion_lon": 0.0}, {"lat": 38.912659166666664, "type": "electric_scooter", "fusion_lat": 0.0, "is_disabled": 0, "name": "b741c79471495d691b109db030edb75d", "is_reserved": 0, "rental_uris": {"ios": "https://dc.lft.to/lastmile_qr_scan", "android": "https://dc.lft.to/lastmile_qr_scan"}, "lon": -77.032157, "bike_id": "b741c79471495d691b109db030edb75d", "fusion_lon": 0.0}, {"lat": 38.925539, "type": "electric_bike", "fusion_lat": 0.0, "is_disabled": 0, "name": "94ee8b54f718241f0cfec71403bdbab4", "is_reserved": 0, "rental_uris": {"ios": "https://dc.lft.to/lastmile_qr_scan", "android": "https://dc.lft.to/lastmile_qr_scan"}, "lon": -77.01982466666666, "bike_id": "94ee8b54f718241f0cfec71403bdbab4", "fusion_lon": 0.0}, {"lat": 38.924957, "type": "electric_scooter", "fusion_lat": 0.0, "is_disabled": 0, "name": "17da100f20c6f4e9806295dd66ec8179", "is_reserved": 0, "rental_uris": {"ios": "https://dc.lft.to/lastmile_qr_scan", "android": "https://dc.lft.to/lastmile_qr_scan"}, "lon": -77.02158216666666, "bike_id": "17da100f20c6f4e9806295dd66ec8179", "fusion_lon": 0.0}, {"lat": 38.9251095, "type": "electric_scooter", "fusion_lat": 0.0, "is_disabled": 0, "name": "f4b19cfa0897eae3f0176591a0708462", "is_reserved": 0, "rental_uris": {"ios": "https://dc.lft.to/lastmile_qr_scan", "android": "https://dc.lft.to/lastmile_qr_scan"}, "lon": -77.00225216666666, "bike_id": "f4b19cfa0897eae3f0176591a0708462", "fusion_lon": 0.0}, {"lat": 38.893811666666664, "type": "electric_scooter", "fusion_lat": 0.0, "is_disabled": 0, "name": "c912181ee02b0ea2fc0f8f40b1b59872", "is_reserved": 0, "rental_uris": {"ios": "https://dc.lft.to/lastmile_qr_scan", "android": "https://dc.lft.to/lastmile_qr_scan"}, "lon": -76.99371533333333, "bike_id": "c912181ee02b0ea2fc0f8f40b1b59872", "fusion_lon": 0.0}, {"lat": 38.926153666666664, "type": "electric_scooter", "fusion_lat": 0.0, "is_disabled": 0, "name": "8e47e7ed20f7b1e3340d0e05211595fe", "is_reserved": 0, "rental_uris": {"ios": "https://dc.lft.to/lastmile_qr_scan", "android": "https://dc.lft.to/lastmile_qr_scan"}, "lon": -77.02163383333334, "bike_id": "8e47e7ed20f7b1e3340d0e05211595fe", "fusion_lon": 0.0}, {"lat": 38.9156945, "type": "electric_scooter", "fusion_lat": 0.0, "is_disabled": 0, "name": "7f7cb419c8b3c02376b3b7765b2bbc9d", "is_reserved": 0, "rental_uris": {"ios": "https://dc.lft.to/lastmile_qr_scan", "android": "https://dc.lft.to/lastmile_qr_scan"}, "lon": -77.04617933333333, "bike_id": "7f7cb419c8b3c02376b3b7765b2bbc9d", "fusion_lon": 0.0}, {"lat": 38.9098255, "type": "electric_scooter", "fusion_lat": 0.0, "is_disabled": 0, "name": "712f0ba33572e4eb257bd9354ca255a7", "is_reserved": 0, "rental_uris": {"ios": "https://dc.lft.to/lastmile_qr_scan", "android": "https://dc.lft.to/lastmile_qr_scan"}, "lon": -77.03443716666666, "bike_id": "712f0ba33572e4eb257bd9354ca255a7", "fusion_lon": 0.0}, {"lat": 38.900730833333334, "type": "electric_scooter", "fusion_lat": 0.0, "is_disabled": 0, "name": "c237e9aba3bf3007df824a77df9a0eb7", "is_reserved": 0, "rental_uris": {"ios": "https://dc.lft.to/lastmile_qr_scan", "android": "https://dc.lft.to/lastmile_qr_scan"}, "lon": -77.03089683333333, "bike_id": "c237e9aba3bf3007df824a77df9a0eb7", "fusion_lon": 0.0}, {"lat": 38.91323366666667, "type": "electric_scooter", "fusion_lat": 0.0, "is_disabled": 0, "name": "2842d8b8c387ede814d1943638ffd394", "is_reserved": 0, "rental_uris": {"ios": "https://dc.lft.to/lastmile_qr_scan", "android": "https://dc.lft.to/lastmile_qr_scan"}, "lon": -77.04548466666667, "bike_id": "2842d8b8c387ede814d1943638ffd394", "fusion_lon": 0.0}, {"lat": 38.89219583333333, "type": "electric_scooter", "fusion_lat": 0.0, "is_disabled": 0, "name": "b0ffb0ec1f87817fe373f2de1767df03", "is_reserved": 0, "rental_uris": {"ios": "https://dc.lft.to/lastmile_qr_scan", "android": "https://dc.lft.to/lastmile_qr_scan"}, "lon": -77.02773066666667, "bike_id": "b0ffb0ec1f87817fe373f2de1767df03", "fusion_lon": 0.0}, {"lat": 38.914088, "type": "electric_scooter", "fusion_lat": 0.0, "is_disabled": 0, "name": "efde7890d03c54a8de06a5f30f5faf48", "is_reserved": 0, "rental_uris": {"ios": "https://dc.lft.to/lastmile_qr_scan", "android": "https://dc.lft.to/lastmile_qr_scan"}, "lon": -77.032191, "bike_id": "efde7890d03c54a8de06a5f30f5faf48", "fusion_lon": 0.0}, {"lat": 38.900875166666665, "type": "electric_scooter", "fusion_lat": 0.0, "is_disabled": 0, "name": "b803f6dd23f68de5ab4bf7bd6e9da2af", "is_reserved": 0, "rental_uris": {"ios": "https://dc.lft.to/lastmile_qr_scan", "android": "https://dc.lft.to/lastmile_qr_scan"}, "lon": -77.00065683333334, "bike_id": "b803f6dd23f68de5ab4bf7bd6e9da2af", "fusion_lon": 0.0}, {"lat": 38.924649333333335, "type": "electric_scooter", "fusion_lat": 0.0, "is_disabled": 0, "name": "1f8bb2ae1c0016467ad37e8eb27963fb", "is_reserved": 0, "rental_uris": {"ios": "https://dc.lft.to/lastmile_qr_scan", "android": "https://dc.lft.to/lastmile_qr_scan"}, "lon": -77.03645733333333, "bike_id": "1f8bb2ae1c0016467ad37e8eb27963fb", "fusion_lon": 0.0}, {"lat": 38.9070155, "type": "electric_scooter", "fusion_lat": 0.0, "is_disabled": 0, "name": "bee11621c81740c2a99ccda48d219da8", "is_reserved": 0, "rental_uris": {"ios": "https://dc.lft.to/lastmile_qr_scan", "android": "https://dc.lft.to/lastmile_qr_scan"}, "lon": -77.02395866666667, "bike_id": "bee11621c81740c2a99ccda48d219da8", "fusion_lon": 0.0}, {"lat": 38.9267895, "type": "electric_scooter", "fusion_lat": 0.0, "is_disabled": 0, "name": "81ffa572b7d39de8bfa6ce8bfed41615", "is_reserved": 0, "rental_uris": {"ios": "https://dc.lft.to/lastmile_qr_scan", "android": "https://dc.lft.to/lastmile_qr_scan"}, "lon": -77.032039, "bike_id": "81ffa572b7d39de8bfa6ce8bfed41615", "fusion_lon": 0.0}, {"lat": 38.9042125, "type": "electric_scooter", "fusion_lat": 0.0, "is_disabled": 0, "name": "686dcb3abb4c49d59854612cb8a77be8", "is_reserved": 0, "rental_uris": {"ios": "https://dc.lft.to/lastmile_qr_scan", "android": "https://dc.lft.to/lastmile_qr_scan"}, "lon": -77.03845983333333, "bike_id": "686dcb3abb4c49d59854612cb8a77be8", "fusion_lon": 0.0}, {"lat": 38.91303633333333, "type": "electric_scooter", "fusion_lat": 0.0, "is_disabled": 0, "name": "11929cce61cb9e3fe2aedeba2c15a18c", "is_reserved": 0, "rental_uris": {"ios": "https://dc.lft.to/lastmile_qr_scan", "android": "https://dc.lft.to/lastmile_qr_scan"}, "lon": -77.03189816666666, "bike_id": "11929cce61cb9e3fe2aedeba2c15a18c", "fusion_lon": 0.0}, {"lat": 38.923827, "type": "electric_scooter", "fusion_lat": 0.0, "is_disabled": 0, "name": "d07bb036fd89d6fd2ce7e758db9f4432", "is_reserved": 0, "rental_uris": {"ios": "https://dc.lft.to/lastmile_qr_scan", "android": "https://dc.lft.to/lastmile_qr_scan"}, "lon": -77.05179566666666, "bike_id": "d07bb036fd89d6fd2ce7e758db9f4432", "fusion_lon": 0.0}, {"lat": 38.87309366666667, "type": "electric_scooter", "fusion_lat": 0.0, "is_disabled": 0, "name": "776eb177a01d5a10210b83bc588cf045", "is_reserved": 0, "rental_uris": {"ios": "https://dc.lft.to/lastmile_qr_scan", "android": "https://dc.lft.to/lastmile_qr_scan"}, "lon": -77.00583683333333, "bike_id": "776eb177a01d5a10210b83bc588cf045", "fusion_lon": 0.0}, {"lat": 38.89965983333333, "type": "electric_scooter", "fusion_lat": 0.0, "is_disabled": 0, "name": "d39d6c442ca67f6b334eb01cf06bebb9", "is_reserved": 0, "rental_uris": {"ios": "https://dc.lft.to/lastmile_qr_scan", "android": "https://dc.lft.to/lastmile_qr_scan"}, "lon": -77.03202983333334, "bike_id": "d39d6c442ca67f6b334eb01cf06bebb9", "fusion_lon": 0.0}, {"lat": 38.9064315, "type": "electric_scooter", "fusion_lat": 0.0, "is_disabled": 0, "name": "683353aadf0366bd99116c1f700d1cf3", "is_reserved": 0, "rental_uris": {"ios": "https://dc.lft.to/lastmile_qr_scan", "android": "https://dc.lft.to/lastmile_qr_scan"}, "lon": -77.0386535, "bike_id": "683353aadf0366bd99116c1f700d1cf3", "fusion_lon": 0.0}, {"lat": 38.901307333333335, "type": "electric_scooter", "fusion_lat": 0.0, "is_disabled": 0, "name": "72026d056af61077aa7ab51510c80e80", "is_reserved": 0, "rental_uris": {"ios": "https://dc.lft.to/lastmile_qr_scan", "android": "https://dc.lft.to/lastmile_qr_scan"}, "lon": -76.988356, "bike_id": "72026d056af61077aa7ab51510c80e80", "fusion_lon": 0.0}, {"lat": 38.92714816666667, "type": "electric_scooter", "fusion_lat": 0.0, "is_disabled": 0, "name": "804811203bf1c4c6797fd6f38156db17", "is_reserved": 0, "rental_uris": {"ios": "https://dc.lft.to/lastmile_qr_scan", "android": "https://dc.lft.to/lastmile_qr_scan"}, "lon": -77.02103616666666, "bike_id": "804811203bf1c4c6797fd6f38156db17", "fusion_lon": 0.0}, {"lat": 38.80770733333333, "type": "electric_bike", "fusion_lat": 0.0, "is_disabled": 0, "name": "9559482465875bd8fa40f209121a72f8", "is_reserved": 0, "rental_uris": {"ios": "https://dc.lft.to/lastmile_qr_scan", "android": "https://dc.lft.to/lastmile_qr_scan"}, "lon": -77.09495016666666, "bike_id": "9559482465875bd8fa40f209121a72f8", "fusion_lon": 0.0}, {"lat": 38.89557883333333, "type": "electric_scooter", "fusion_lat": 0.0, "is_disabled": 0, "name": "420cae534eb594fec0525052e40774b2", "is_reserved": 0, "rental_uris": {"ios": "https://dc.lft.to/lastmile_qr_scan", "android": "https://dc.lft.to/lastmile_qr_scan"}, "lon": -77.04673833333334, "bike_id": "420cae534eb594fec0525052e40774b2", "fusion_lon": 0.0}, {"lat": 38.892246166666666, "type": "electric_scooter", "fusion_lat": 0.0, "is_disabled": 0, "name": "52b5ebcfcdae65234d221dddc3a0c278", "is_reserved": 0, "rental_uris": {"ios": "https://dc.lft.to/lastmile_qr_scan", "android": "https://dc.lft.to/lastmile_qr_scan"}, "lon": -77.04473266666666, "bike_id": "52b5ebcfcdae65234d221dddc3a0c278", "fusion_lon": 0.0}, {"lat": 38.928992, "type": "electric_scooter", "fusion_lat": 0.0, "is_disabled": 0, "name": "2c14cebff87835908bed0aeb394d9ac0", "is_reserved": 0, "rental_uris": {"ios": "https://dc.lft.to/lastmile_qr_scan", "android": "https://dc.lft.to/lastmile_qr_scan"}, "lon": -77.01639833333333, "bike_id": "2c14cebff87835908bed0aeb394d9ac0", "fusion_lon": 0.0}, {"lat": 39.042408333333334, "type": "electric_bike", "fusion_lat": 0.0, "is_disabled": 0, "name": "19f263a7c4dbb7c1b925ed914570d83a", "is_reserved": 0, "rental_uris": {"ios": "https://dc.lft.to/lastmile_qr_scan", "android": "https://dc.lft.to/lastmile_qr_scan"}, "lon": -76.99738083333334, "bike_id": "19f263a7c4dbb7c1b925ed914570d83a", "fusion_lon": 0.0}, {"lat": 38.950891, "type": "electric_scooter", "fusion_lat": 0.0, "is_disabled": 0, "name": "16c091db3f2861691fc4b3c041f3598f", "is_reserved": 0, "rental_uris": {"ios": "https://dc.lft.to/lastmile_qr_scan", "android": "https://dc.lft.to/lastmile_qr_scan"}, "lon": -77.02821883333333, "bike_id": "16c091db3f2861691fc4b3c041f3598f", "fusion_lon": 0.0}, {"lat": 38.89377116666667, "type": "electric_scooter", "fusion_lat": 0.0, "is_disabled": 0, "name": "403116a8df96b0ba8df7fb8ce568354e", "is_reserved": 0, "rental_uris": {"ios": "https://dc.lft.to/lastmile_qr_scan", "android": "https://dc.lft.to/lastmile_qr_scan"}, "lon": -76.94975316666667, "bike_id": "403116a8df96b0ba8df7fb8ce568354e", "fusion_lon": 0.0}, {"lat": 38.896837, "type": "electric_scooter", "fusion_lat": 0.0, "is_disabled": 0, "name": "fe4d6a6118de3fe9f6ccdb797b95cc13", "is_reserved": 0, "rental_uris": {"ios": "https://dc.lft.to/lastmile_qr_scan", "android": "https://dc.lft.to/lastmile_qr_scan"}, "lon": -76.93533366666666, "bike_id": "fe4d6a6118de3fe9f6ccdb797b95cc13", "fusion_lon": 0.0}, {"lat": 38.907359666666665, "type": "electric_scooter", "fusion_lat": 0.0, "is_disabled": 0, "name": "04252c3bbaf97a3540cf03b7ad2c285c", "is_reserved": 0, "rental_uris": {"ios": "https://dc.lft.to/lastmile_qr_scan", "android": "https://dc.lft.to/lastmile_qr_scan"}, "lon": -77.0345215, "bike_id": "04252c3bbaf97a3540cf03b7ad2c285c", "fusion_lon": 0.0}, {"lat": 38.908058, "type": "electric_scooter", "fusion_lat": 0.0, "is_disabled": 0, "name": "a3a91e9ce444a56d6fa321ac1555c20e", "is_reserved": 0, "rental_uris": {"ios": "https://dc.lft.to/lastmile_qr_scan", "android": "https://dc.lft.to/lastmile_qr_scan"}, "lon": -77.02380666666667, "bike_id": "a3a91e9ce444a56d6fa321ac1555c20e", "fusion_lon": 0.0}, {"lat": 38.92461683333333, "type": "electric_scooter", "fusion_lat": 0.0, "is_disabled": 0, "name": "0892df72b24659ca04c1250712d82ebb", "is_reserved": 0, "rental_uris": {"ios": "https://dc.lft.to/lastmile_qr_scan", "android": "https://dc.lft.to/lastmile_qr_scan"}, "lon": -77.02984666666667, "bike_id": "0892df72b24659ca04c1250712d82ebb", "fusion_lon": 0.0}, {"lat": 38.912978833333334, "type": "electric_scooter", "fusion_lat": 0.0, "is_disabled": 0, "name": "866674ac15d9010d369e107c132f94ba", "is_reserved": 0, "rental_uris": {"ios": "https://dc.lft.to/lastmile_qr_scan", "android": "https://dc.lft.to/lastmile_qr_scan"}, "lon": -77.03214483333333, "bike_id": "866674ac15d9010d369e107c132f94ba", "fusion_lon": 0.0}, {"lat": 38.89681133333333, "type": "electric_scooter", "fusion_lat": 0.0, "is_disabled": 0, "name": "aa661a127536b88e8e72be43a7b2f177", "is_reserved": 0, "rental_uris": {"ios": "https://dc.lft.to/lastmile_qr_scan", "android": "https://dc.lft.to/lastmile_qr_scan"}, "lon": -77.0119635, "bike_id": "aa661a127536b88e8e72be43a7b2f177", "fusion_lon": 0.0}, {"lat": 38.90839116666667, "type": "electric_scooter", "fusion_lat": 0.0, "is_disabled": 0, "name": "d7dc3b747bc656c751a7429f6a747da1", "is_reserved": 0, "rental_uris": {"ios": "https://dc.lft.to/lastmile_qr_scan", "android": "https://dc.lft.to/lastmile_qr_scan"}, "lon": -77.04330833333333, "bike_id": "d7dc3b747bc656c751a7429f6a747da1", "fusion_lon": 0.0}, {"lat": 38.909177, "type": "electric_scooter", "fusion_lat": 0.0, "is_disabled": 0, "name": "f61ec7f8da56fe160d3f174ba65e19d0", "is_reserved": 0, "rental_uris": {"ios": "https://dc.lft.to/lastmile_qr_scan", "android": "https://dc.lft.to/lastmile_qr_scan"}, "lon": -77.00697833333334, "bike_id": "f61ec7f8da56fe160d3f174ba65e19d0", "fusion_lon": 0.0}, {"lat": 38.90856383333333, "type": "electric_scooter", "fusion_lat": 0.0, "is_disabled": 0, "name": "86a92ebacb0fbe78e0ca43df00f6a28c", "is_reserved": 0, "rental_uris": {"ios": "https://dc.lft.to/lastmile_qr_scan", "android": "https://dc.lft.to/lastmile_qr_scan"}, "lon": -77.03987066666667, "bike_id": "86a92ebacb0fbe78e0ca43df00f6a28c", "fusion_lon": 0.0}, {"lat": 38.923302, "type": "electric_scooter", "fusion_lat": 0.0, "is_disabled": 0, "name": "fc2ea7a30beb13c4a0ae4ff879a1edb8", "is_reserved": 0, "rental_uris": {"ios": "https://dc.lft.to/lastmile_qr_scan", "android": "https://dc.lft.to/lastmile_qr_scan"}, "lon": -77.01958916666666, "bike_id": "fc2ea7a30beb13c4a0ae4ff879a1edb8", "fusion_lon": 0.0}, {"lat": 38.905051666666665, "type": "electric_bike", "fusion_lat": 0.0, "is_disabled": 0, "name": "3b418ec14d44a8431803277683632841", "is_reserved": 0, "rental_uris": {"ios": "https://dc.lft.to/lastmile_qr_scan", "android": "https://dc.lft.to/lastmile_qr_scan"}, "lon": -76.99809616666667, "bike_id": "3b418ec14d44a8431803277683632841", "fusion_lon": 0.0}, {"lat": 38.8779065, "type": "electric_scooter", "fusion_lat": 0.0, "is_disabled": 0, "name": "d0a2122e6e27fe6cf2f2af4cd9c99f15", "is_reserved": 0, "rental_uris": {"ios": "https://dc.lft.to/lastmile_qr_scan", "android": "https://dc.lft.to/lastmile_qr_scan"}, "lon": -76.99408983333333, "bike_id": "d0a2122e6e27fe6cf2f2af4cd9c99f15", "fusion_lon": 0.0}, {"lat": 38.882614, "type": "electric_scooter", "fusion_lat": 0.0, "is_disabled": 0, "name": "142ebf933084fed58122385076bf50d8", "is_reserved": 0, "rental_uris": {"ios": "https://dc.lft.to/lastmile_qr_scan", "android": "https://dc.lft.to/lastmile_qr_scan"}, "lon": -77.024045, "bike_id": "142ebf933084fed58122385076bf50d8", "fusion_lon": 0.0}, {"lat": 38.898449166666666, "type": "electric_scooter", "fusion_lat": 0.0, "is_disabled": 0, "name": "b7c093a3ceba66baa75099bdefffef56", "is_reserved": 0, "rental_uris": {"ios": "https://dc.lft.to/lastmile_qr_scan", "android": "https://dc.lft.to/lastmile_qr_scan"}, "lon": -77.03274116666667, "bike_id": "b7c093a3ceba66baa75099bdefffef56", "fusion_lon": 0.0}, {"lat": 38.933868, "type": "electric_scooter", "fusion_lat": 0.0, "is_disabled": 0, "name": "79888aa353010275170a4a9408517baa", "is_reserved": 0, "rental_uris": {"ios": "https://dc.lft.to/lastmile_qr_scan", "android": "https://dc.lft.to/lastmile_qr_scan"}, "lon": -77.05765916666667, "bike_id": "79888aa353010275170a4a9408517baa", "fusion_lon": 0.0}, {"lat": 38.930778, "type": "electric_scooter", "fusion_lat": 0.0, "is_disabled": 0, "name": "17bbb16a538822ac7c10170a78dd4025", "is_reserved": 0, "rental_uris": {"ios": "https://dc.lft.to/lastmile_qr_scan", "android": "https://dc.lft.to/lastmile_qr_scan"}, "lon": -77.03277616666666, "bike_id": "17bbb16a538822ac7c10170a78dd4025", "fusion_lon": 0.0}, {"lat": 38.887366166666666, "type": "electric_scooter", "fusion_lat": 0.0, "is_disabled": 0, "name": "346c6dafebda989dc7405c3f4d0677f0", "is_reserved": 0, "rental_uris": {"ios": "https://dc.lft.to/lastmile_qr_scan", "android": "https://dc.lft.to/lastmile_qr_scan"}, "lon": -77.02581483333333, "bike_id": "346c6dafebda989dc7405c3f4d0677f0", "fusion_lon": 0.0}, {"lat": 38.90722483333333, "type": "electric_bike", "fusion_lat": 0.0, "is_disabled": 0, "name": "462507967115b20eb26d31ab5b07c903", "is_reserved": 0, "rental_uris": {"ios": "https://dc.lft.to/lastmile_qr_scan", "android": "https://dc.lft.to/lastmile_qr_scan"}, "lon": -77.01070083333333, "bike_id": "462507967115b20eb26d31ab5b07c903", "fusion_lon": 0.0}, {"lat": 38.919882, "type": "electric_scooter", "fusion_lat": 0.0, "is_disabled": 0, "name": "1a51b8b38abc7ea3b75c1ebd7da93dec", "is_reserved": 0, "rental_uris": {"ios": "https://dc.lft.to/lastmile_qr_scan", "android": "https://dc.lft.to/lastmile_qr_scan"}, "lon": -77.032512, "bike_id": "1a51b8b38abc7ea3b75c1ebd7da93dec", "fusion_lon": 0.0}, {"lat": 38.942080833333335, "type": "electric_scooter", "fusion_lat": 0.0, "is_disabled": 0, "name": "234926d45ddfba39365945d00b6e6d73", "is_reserved": 0, "rental_uris": {"ios": "https://dc.lft.to/lastmile_qr_scan", "android": "https://dc.lft.to/lastmile_qr_scan"}, "lon": -77.02591283333334, "bike_id": "234926d45ddfba39365945d00b6e6d73", "fusion_lon": 0.0}, {"lat": 38.9009605, "type": "electric_scooter", "fusion_lat": 0.0, "is_disabled": 0, "name": "3f748ecf01e175b07959a7ed651254de", "is_reserved": 0, "rental_uris": {"ios": "https://dc.lft.to/lastmile_qr_scan", "android": "https://dc.lft.to/lastmile_qr_scan"}, "lon": -76.933082, "bike_id": "3f748ecf01e175b07959a7ed651254de", "fusion_lon": 0.0}, {"lat": 38.961286666666666, "type": "electric_scooter", "fusion_lat": 0.0, "is_disabled": 0, "name": "e27c8f157033f9d2c60911380928f4e5", "is_reserved": 0, "rental_uris": {"ios": "https://dc.lft.to/lastmile_qr_scan", "android": "https://dc.lft.to/lastmile_qr_scan"}, "lon": -77.009064, "bike_id": "e27c8f157033f9d2c60911380928f4e5", "fusion_lon": 0.0}, {"lat": 38.90100266666666, "type": "electric_scooter", "fusion_lat": 0.0, "is_disabled": 0, "name": "e9fe0d8c6353f2ecdf4229c8d0042040", "is_reserved": 0, "rental_uris": {"ios": "https://dc.lft.to/lastmile_qr_scan", "android": "https://dc.lft.to/lastmile_qr_scan"}, "lon": -77.01999416666666, "bike_id": "e9fe0d8c6353f2ecdf4229c8d0042040", "fusion_lon": 0.0}, {"lat": 38.892089, "type": "electric_scooter", "fusion_lat": 0.0, "is_disabled": 0, "name": "5833b8229d880b6f12236b734f5748a8", "is_reserved": 0, "rental_uris": {"ios": "https://dc.lft.to/lastmile_qr_scan", "android": "https://dc.lft.to/lastmile_qr_scan"}, "lon": -76.9938545, "bike_id": "5833b8229d880b6f12236b734f5748a8", "fusion_lon": 0.0}, {"lat": 38.916925666666664, "type": "electric_scooter", "fusion_lat": 0.0, "is_disabled": 0, "name": "155e693c56edc64c5c649ea9a56158cd", "is_reserved": 0, "rental_uris": {"ios": "https://dc.lft.to/lastmile_qr_scan", "android": "https://dc.lft.to/lastmile_qr_scan"}, "lon": -77.02940816666667, "bike_id": "155e693c56edc64c5c649ea9a56158cd", "fusion_lon": 0.0}, {"lat": 38.914064333333336, "type": "electric_scooter", "fusion_lat": 0.0, "is_disabled": 0, "name": "cb66638ef3533d41913d62ed8a27b705", "is_reserved": 0, "rental_uris": {"ios": "https://dc.lft.to/lastmile_qr_scan", "android": "https://dc.lft.to/lastmile_qr_scan"}, "lon": -77.03225983333333, "bike_id": "cb66638ef3533d41913d62ed8a27b705", "fusion_lon": 0.0}, {"lat": 38.8769265, "type": "electric_scooter", "fusion_lat": 0.0, "is_disabled": 0, "name": "fc385df58a915fe3681f064de6283530", "is_reserved": 0, "rental_uris": {"ios": "https://dc.lft.to/lastmile_qr_scan", "android": "https://dc.lft.to/lastmile_qr_scan"}, "lon": -77.01609383333333, "bike_id": "fc385df58a915fe3681f064de6283530", "fusion_lon": 0.0}, {"lat": 38.901437, "type": "electric_scooter", "fusion_lat": 0.0, "is_disabled": 0, "name": "a036eb815c28201a2a5886f40e743798", "is_reserved": 0, "rental_uris": {"ios": "https://dc.lft.to/lastmile_qr_scan", "android": "https://dc.lft.to/lastmile_qr_scan"}, "lon": -77.032702, "bike_id": "a036eb815c28201a2a5886f40e743798", "fusion_lon": 0.0}, {"lat": 38.91273183333333, "type": "electric_scooter", "fusion_lat": 0.0, "is_disabled": 0, "name": "399cd552ce2331ce0eb87ecf463f16a1", "is_reserved": 0, "rental_uris": {"ios": "https://dc.lft.to/lastmile_qr_scan", "android": "https://dc.lft.to/lastmile_qr_scan"}, "lon": -77.022093, "bike_id": "399cd552ce2331ce0eb87ecf463f16a1", "fusion_lon": 0.0}, {"lat": 38.89477316666667, "type": "electric_scooter", "fusion_lat": 0.0, "is_disabled": 0, "name": "8682cef0325cad288102af982c48ab55", "is_reserved": 0, "rental_uris": {"ios": "https://dc.lft.to/lastmile_qr_scan", "android": "https://dc.lft.to/lastmile_qr_scan"}, "lon": -77.02172016666667, "bike_id": "8682cef0325cad288102af982c48ab55", "fusion_lon": 0.0}, {"lat": 38.887360666666666, "type": "electric_scooter", "fusion_lat": 0.0, "is_disabled": 0, "name": "5d91fa1aa1d106a0c6d8947101ba8ddb", "is_reserved": 0, "rental_uris": {"ios": "https://dc.lft.to/lastmile_qr_scan", "android": "https://dc.lft.to/lastmile_qr_scan"}, "lon": -77.02832833333333, "bike_id": "5d91fa1aa1d106a0c6d8947101ba8ddb", "fusion_lon": 0.0}, {"lat": 38.928753, "type": "electric_scooter", "fusion_lat": 0.0, "is_disabled": 0, "name": "cf3e0a74f967fd9ad6f4a43156e2b379", "is_reserved": 0, "rental_uris": {"ios": "https://dc.lft.to/lastmile_qr_scan", "android": "https://dc.lft.to/lastmile_qr_scan"}, "lon": -77.03207883333333, "bike_id": "cf3e0a74f967fd9ad6f4a43156e2b379", "fusion_lon": 0.0}, {"lat": 38.90318966666667, "type": "electric_scooter", "fusion_lat": 0.0, "is_disabled": 0, "name": "76a0c8396cd877a02ecaeafd08eeb2a1", "is_reserved": 0, "rental_uris": {"ios": "https://dc.lft.to/lastmile_qr_scan", "android": "https://dc.lft.to/lastmile_qr_scan"}, "lon": -77.04718766666667, "bike_id": "76a0c8396cd877a02ecaeafd08eeb2a1", "fusion_lon": 0.0}, {"lat": 38.917054666666665, "type": "electric_scooter", "fusion_lat": 0.0, "is_disabled": 0, "name": "68d6069c1685755fff3b913f9937e7b8", "is_reserved": 0, "rental_uris": {"ios": "https://dc.lft.to/lastmile_qr_scan", "android": "https://dc.lft.to/lastmile_qr_scan"}, "lon": -77.02659666666666, "bike_id": "68d6069c1685755fff3b913f9937e7b8", "fusion_lon": 0.0}, {"lat": 38.89818916666667, "type": "electric_scooter", "fusion_lat": 0.0, "is_disabled": 0, "name": "88b7628f443d624b838a7fa4bf049403", "is_reserved": 0, "rental_uris": {"ios": "https://dc.lft.to/lastmile_qr_scan", "android": "https://dc.lft.to/lastmile_qr_scan"}, "lon": -77.03302883333333, "bike_id": "88b7628f443d624b838a7fa4bf049403", "fusion_lon": 0.0}, {"lat": 38.967020166666664, "type": "electric_bike", "fusion_lat": 0.0, "is_disabled": 0, "name": "0c297f8cb87e5a7fe1bfa3e2b293bdec", "is_reserved": 0, "rental_uris": {"ios": "https://dc.lft.to/lastmile_qr_scan", "android": "https://dc.lft.to/lastmile_qr_scan"}, "lon": -76.97521516666667, "bike_id": "0c297f8cb87e5a7fe1bfa3e2b293bdec", "fusion_lon": 0.0}, {"lat": 38.8921295, "type": "electric_scooter", "fusion_lat": 0.0, "is_disabled": 0, "name": "b232a9bf757a0b831cd8e84ce86ba408", "is_reserved": 0, "rental_uris": {"ios": "https://dc.lft.to/lastmile_qr_scan", "android": "https://dc.lft.to/lastmile_qr_scan"}, "lon": -77.02398166666667, "bike_id": "b232a9bf757a0b831cd8e84ce86ba408", "fusion_lon": 0.0}, {"lat": 38.903885, "type": "electric_scooter", "fusion_lat": 0.0, "is_disabled": 0, "name": "6ed2ffddeff0b6a07e416de60798e95b", "is_reserved": 0, "rental_uris": {"ios": "https://dc.lft.to/lastmile_qr_scan", "android": "https://dc.lft.to/lastmile_qr_scan"}, "lon": -77.04490383333334, "bike_id": "6ed2ffddeff0b6a07e416de60798e95b", "fusion_lon": 0.0}, {"lat": 38.91498433333334, "type": "electric_scooter", "fusion_lat": 0.0, "is_disabled": 0, "name": "d48a8e5ae1194e4b17a0f7e3c06989df", "is_reserved": 0, "rental_uris": {"ios": "https://dc.lft.to/lastmile_qr_scan", "android": "https://dc.lft.to/lastmile_qr_scan"}, "lon": -77.032082, "bike_id": "d48a8e5ae1194e4b17a0f7e3c06989df", "fusion_lon": 0.0}, {"lat": 38.89760483333333, "type": "electric_scooter", "fusion_lat": 0.0, "is_disabled": 0, "name": "7b75c1619ec9b9c570effcb43979879d", "is_reserved": 0, "rental_uris": {"ios": "https://dc.lft.to/lastmile_qr_scan", "android": "https://dc.lft.to/lastmile_qr_scan"}, "lon": -77.032212, "bike_id": "7b75c1619ec9b9c570effcb43979879d", "fusion_lon": 0.0}, {"lat": 38.91196716666666, "type": "electric_scooter", "fusion_lat": 0.0, "is_disabled": 0, "name": "8624c9ae54864bd6e40366b4b157b9e4", "is_reserved": 0, "rental_uris": {"ios": "https://dc.lft.to/lastmile_qr_scan", "android": "https://dc.lft.to/lastmile_qr_scan"}, "lon": -77.03853783333334, "bike_id": "8624c9ae54864bd6e40366b4b157b9e4", "fusion_lon": 0.0}, {"lat": 38.860294, "type": "electric_scooter", "fusion_lat": 0.0, "is_disabled": 0, "name": "7c8cb6c15a3e8158f5debe4550c6315d", "is_reserved": 0, "rental_uris": {"ios": "https://dc.lft.to/lastmile_qr_scan", "android": "https://dc.lft.to/lastmile_qr_scan"}, "lon": -76.99682416666667, "bike_id": "7c8cb6c15a3e8158f5debe4550c6315d", "fusion_lon": 0.0}, {"lat": 38.9061545, "type": "electric_scooter", "fusion_lat": 0.0, "is_disabled": 0, "name": "cb2a750f4ea5d5e8770e6ad0d4fab996", "is_reserved": 0, "rental_uris": {"ios": "https://dc.lft.to/lastmile_qr_scan", "android": "https://dc.lft.to/lastmile_qr_scan"}, "lon": -77.03983866666667, "bike_id": "cb2a750f4ea5d5e8770e6ad0d4fab996", "fusion_lon": 0.0}, {"lat": 38.93586783333333, "type": "electric_scooter", "fusion_lat": 0.0, "is_disabled": 0, "name": "2ed5e8f7dc197f4755386efa7be67fb9", "is_reserved": 0, "rental_uris": {"ios": "https://dc.lft.to/lastmile_qr_scan", "android": "https://dc.lft.to/lastmile_qr_scan"}, "lon": -77.08291816666667, "bike_id": "2ed5e8f7dc197f4755386efa7be67fb9", "fusion_lon": 0.0}, {"lat": 38.93004616666666, "type": "electric_bike", "fusion_lat": 0.0, "is_disabled": 0, "name": "3d5f09fb53df5818cfde00fb18521443", "is_reserved": 0, "rental_uris": {"ios": "https://dc.lft.to/lastmile_qr_scan", "android": "https://dc.lft.to/lastmile_qr_scan"}, "lon": -77.01189633333334, "bike_id": "3d5f09fb53df5818cfde00fb18521443", "fusion_lon": 0.0}, {"lat": 38.98826616666667, "type": "electric_bike", "fusion_lat": 0.0, "is_disabled": 0, "name": "8709116c485b26f8a6b9b0cbabd1e32d", "is_reserved": 0, "rental_uris": {"ios": "https://dc.lft.to/lastmile_qr_scan", "android": "https://dc.lft.to/lastmile_qr_scan"}, "lon": -76.99647916666666, "bike_id": "8709116c485b26f8a6b9b0cbabd1e32d", "fusion_lon": 0.0}, {"lat": 38.95746233333333, "type": "electric_scooter", "fusion_lat": 0.0, "is_disabled": 0, "name": "da9e0c81efa2e16674287a885165f91e", "is_reserved": 0, "rental_uris": {"ios": "https://dc.lft.to/lastmile_qr_scan", "android": "https://dc.lft.to/lastmile_qr_scan"}, "lon": -77.02086483333333, "bike_id": "da9e0c81efa2e16674287a885165f91e", "fusion_lon": 0.0}, {"lat": 38.91839916666667, "type": "electric_scooter", "fusion_lat": 0.0, "is_disabled": 0, "name": "fc668a0b07f641b8f2e4076e76c014a6", "is_reserved": 0, "rental_uris": {"ios": "https://dc.lft.to/lastmile_qr_scan", "android": "https://dc.lft.to/lastmile_qr_scan"}, "lon": -77.0595255, "bike_id": "fc668a0b07f641b8f2e4076e76c014a6", "fusion_lon": 0.0}, {"lat": 38.899839666666665, "type": "electric_scooter", "fusion_lat": 0.0, "is_disabled": 0, "name": "9f0a6bb19ff66c49e5a4db7463e652b1", "is_reserved": 0, "rental_uris": {"ios": "https://dc.lft.to/lastmile_qr_scan", "android": "https://dc.lft.to/lastmile_qr_scan"}, "lon": -77.03946183333333, "bike_id": "9f0a6bb19ff66c49e5a4db7463e652b1", "fusion_lon": 0.0}, {"lat": 38.93355583333334, "type": "electric_scooter", "fusion_lat": 0.0, "is_disabled": 0, "name": "7a17c571a2a222dd94126942c77e2c2a", "is_reserved": 0, "rental_uris": {"ios": "https://dc.lft.to/lastmile_qr_scan", "android": "https://dc.lft.to/lastmile_qr_scan"}, "lon": -77.025652, "bike_id": "7a17c571a2a222dd94126942c77e2c2a", "fusion_lon": 0.0}, {"lat": 38.92262633333333, "type": "electric_scooter", "fusion_lat": 0.0, "is_disabled": 0, "name": "2abd8a9e828b7d1507f0ae0f29afdce2", "is_reserved": 0, "rental_uris": {"ios": "https://dc.lft.to/lastmile_qr_scan", "android": "https://dc.lft.to/lastmile_qr_scan"}, "lon": -77.03524783333333, "bike_id": "2abd8a9e828b7d1507f0ae0f29afdce2", "fusion_lon": 0.0}, {"lat": 38.9169575, "type": "electric_scooter", "fusion_lat": 0.0, "is_disabled": 0, "name": "54ef2c3de6dc13a24aa36a27bc5e11fa", "is_reserved": 0, "rental_uris": {"ios": "https://dc.lft.to/lastmile_qr_scan", "android": "https://dc.lft.to/lastmile_qr_scan"}, "lon": -77.02904116666667, "bike_id": "54ef2c3de6dc13a24aa36a27bc5e11fa", "fusion_lon": 0.0}, {"lat": 38.894980333333336, "type": "electric_scooter", "fusion_lat": 0.0, "is_disabled": 0, "name": "cfe8bc7139bf7206c591a114051b45ba", "is_reserved": 0, "rental_uris": {"ios": "https://dc.lft.to/lastmile_qr_scan", "android": "https://dc.lft.to/lastmile_qr_scan"}, "lon": -77.02140883333334, "bike_id": "cfe8bc7139bf7206c591a114051b45ba", "fusion_lon": 0.0}, {"lat": 38.88707683333333, "type": "electric_bike", "fusion_lat": 0.0, "is_disabled": 0, "name": "ea28988d5c399f286d03de843207c4b4", "is_reserved": 0, "rental_uris": {"ios": "https://dc.lft.to/lastmile_qr_scan", "android": "https://dc.lft.to/lastmile_qr_scan"}, "lon": -77.00349833333334, "bike_id": "ea28988d5c399f286d03de843207c4b4", "fusion_lon": 0.0}, {"lat": 38.87482133333334, "type": "electric_scooter", "fusion_lat": 0.0, "is_disabled": 0, "name": "a1161c08853ae19b852671f22eedc1ea", "is_reserved": 0, "rental_uris": {"ios": "https://dc.lft.to/lastmile_qr_scan", "android": "https://dc.lft.to/lastmile_qr_scan"}, "lon": -76.9652585, "bike_id": "a1161c08853ae19b852671f22eedc1ea", "fusion_lon": 0.0}, {"lat": 38.9170305, "type": "electric_scooter", "fusion_lat": 0.0, "is_disabled": 0, "name": "020b4010b87da807c3ed0f7eb795b375", "is_reserved": 0, "rental_uris": {"ios": "https://dc.lft.to/lastmile_qr_scan", "android": "https://dc.lft.to/lastmile_qr_scan"}, "lon": -77.02378533333334, "bike_id": "020b4010b87da807c3ed0f7eb795b375", "fusion_lon": 0.0}, {"lat": 38.90086383333333, "type": "electric_scooter", "fusion_lat": 0.0, "is_disabled": 0, "name": "74fee31071a0b90d2c883a531d0a8a6a", "is_reserved": 0, "rental_uris": {"ios": "https://dc.lft.to/lastmile_qr_scan", "android": "https://dc.lft.to/lastmile_qr_scan"}, "lon": -77.04869583333333, "bike_id": "74fee31071a0b90d2c883a531d0a8a6a", "fusion_lon": 0.0}, {"lat": 38.91963766666667, "type": "electric_scooter", "fusion_lat": 0.0, "is_disabled": 0, "name": "c0a865f6ca780432d9016cb7e7a33136", "is_reserved": 0, "rental_uris": {"ios": "https://dc.lft.to/lastmile_qr_scan", "android": "https://dc.lft.to/lastmile_qr_scan"}, "lon": -77.02403033333333, "bike_id": "c0a865f6ca780432d9016cb7e7a33136", "fusion_lon": 0.0}, {"lat": 38.899534, "type": "electric_scooter", "fusion_lat": 0.0, "is_disabled": 0, "name": "b0612d9d9bc8d7fd22ea42543dcf3e24", "is_reserved": 0, "rental_uris": {"ios": "https://dc.lft.to/lastmile_qr_scan", "android": "https://dc.lft.to/lastmile_qr_scan"}, "lon": -77.04661883333333, "bike_id": "b0612d9d9bc8d7fd22ea42543dcf3e24", "fusion_lon": 0.0}, {"lat": 38.89833083333333, "type": "electric_scooter", "fusion_lat": 0.0, "is_disabled": 0, "name": "8f26d6bc72ca6e1fdcc096a977c5ae36", "is_reserved": 0, "rental_uris": {"ios": "https://dc.lft.to/lastmile_qr_scan", "android": "https://dc.lft.to/lastmile_qr_scan"}, "lon": -76.94637116666667, "bike_id": "8f26d6bc72ca6e1fdcc096a977c5ae36", "fusion_lon": 0.0}, {"lat": 39.054970833333336, "type": "electric_bike", "fusion_lat": 0.0, "is_disabled": 0, "name": "b181edd43d655bac055e41f90a804998", "is_reserved": 0, "rental_uris": {"ios": "https://dc.lft.to/lastmile_qr_scan", "android": "https://dc.lft.to/lastmile_qr_scan"}, "lon": -77.11782383333333, "bike_id": "b181edd43d655bac055e41f90a804998", "fusion_lon": 0.0}, {"lat": 38.90329583333333, "type": "electric_bike", "fusion_lat": 0.0, "is_disabled": 0, "name": "78cb0967ae8bbcb07aaabb628752f30a", "is_reserved": 0, "rental_uris": {"ios": "https://dc.lft.to/lastmile_qr_scan", "android": "https://dc.lft.to/lastmile_qr_scan"}, "lon": -76.9753605, "bike_id": "78cb0967ae8bbcb07aaabb628752f30a", "fusion_lon": 0.0}, {"lat": 38.92235766666667, "type": "electric_scooter", "fusion_lat": 0.0, "is_disabled": 0, "name": "33b50631261cb7b6ad9180f81165da6d", "is_reserved": 0, "rental_uris": {"ios": "https://dc.lft.to/lastmile_qr_scan", "android": "https://dc.lft.to/lastmile_qr_scan"}, "lon": -77.04270366666667, "bike_id": "33b50631261cb7b6ad9180f81165da6d", "fusion_lon": 0.0}, {"lat": 38.919898833333335, "type": "electric_scooter", "fusion_lat": 0.0, "is_disabled": 0, "name": "51bbd6724582a46606f788631624a432", "is_reserved": 0, "rental_uris": {"ios": "https://dc.lft.to/lastmile_qr_scan", "android": "https://dc.lft.to/lastmile_qr_scan"}, "lon": -77.041809, "bike_id": "51bbd6724582a46606f788631624a432", "fusion_lon": 0.0}, {"lat": 38.9415325, "type": "electric_scooter", "fusion_lat": 0.0, "is_disabled": 0, "name": "813611abe621098750ee50f73da7f98f", "is_reserved": 0, "rental_uris": {"ios": "https://dc.lft.to/lastmile_qr_scan", "android": "https://dc.lft.to/lastmile_qr_scan"}, "lon": -77.03270466666666, "bike_id": "813611abe621098750ee50f73da7f98f", "fusion_lon": 0.0}, {"lat": 38.87728083333333, "type": "electric_scooter", "fusion_lat": 0.0, "is_disabled": 0, "name": "40addd3e33fa09aabaa9428bdd2bc165", "is_reserved": 0, "rental_uris": {"ios": "https://dc.lft.to/lastmile_qr_scan", "android": "https://dc.lft.to/lastmile_qr_scan"}, "lon": -77.01677466666666, "bike_id": "40addd3e33fa09aabaa9428bdd2bc165", "fusion_lon": 0.0}, {"lat": 38.90927383333333, "type": "electric_scooter", "fusion_lat": 0.0, "is_disabled": 0, "name": "046b26a7e94d13a5416aa1aed91f4bbc", "is_reserved": 0, "rental_uris": {"ios": "https://dc.lft.to/lastmile_qr_scan", "android": "https://dc.lft.to/lastmile_qr_scan"}, "lon": -77.07281083333334, "bike_id": "046b26a7e94d13a5416aa1aed91f4bbc", "fusion_lon": 0.0}, {"lat": 38.89230366666666, "type": "electric_scooter", "fusion_lat": 0.0, "is_disabled": 0, "name": "ac0f8fcef4aff279d43a93cd31c3c5e1", "is_reserved": 0, "rental_uris": {"ios": "https://dc.lft.to/lastmile_qr_scan", "android": "https://dc.lft.to/lastmile_qr_scan"}, "lon": -77.0448395, "bike_id": "ac0f8fcef4aff279d43a93cd31c3c5e1", "fusion_lon": 0.0}, {"lat": 38.9224295, "type": "electric_scooter", "fusion_lat": 0.0, "is_disabled": 0, "name": "f2975590d50cc8ab56bd70d4f0ef1eed", "is_reserved": 0, "rental_uris": {"ios": "https://dc.lft.to/lastmile_qr_scan", "android": "https://dc.lft.to/lastmile_qr_scan"}, "lon": -77.01838066666667, "bike_id": "f2975590d50cc8ab56bd70d4f0ef1eed", "fusion_lon": 0.0}, {"lat": 38.8947645, "type": "electric_scooter", "fusion_lat": 0.0, "is_disabled": 0, "name": "4b03353cfc0fd8fd5442f84853f66bec", "is_reserved": 0, "rental_uris": {"ios": "https://dc.lft.to/lastmile_qr_scan", "android": "https://dc.lft.to/lastmile_qr_scan"}, "lon": -77.02179966666667, "bike_id": "4b03353cfc0fd8fd5442f84853f66bec", "fusion_lon": 0.0}, {"lat": 38.93013633333333, "type": "electric_scooter", "fusion_lat": 0.0, "is_disabled": 0, "name": "d8e492dc1a421f0c93976a876c72e857", "is_reserved": 0, "rental_uris": {"ios": "https://dc.lft.to/lastmile_qr_scan", "android": "https://dc.lft.to/lastmile_qr_scan"}, "lon": -77.05545533333333, "bike_id": "d8e492dc1a421f0c93976a876c72e857", "fusion_lon": 0.0}, {"lat": 38.83601016666667, "type": "electric_bike", "fusion_lat": 0.0, "is_disabled": 0, "name": "4527143b1d50f43610279c7afaae294d", "is_reserved": 0, "rental_uris": {"ios": "https://dc.lft.to/lastmile_qr_scan", "android": "https://dc.lft.to/lastmile_qr_scan"}, "lon": -77.00386183333333, "bike_id": "4527143b1d50f43610279c7afaae294d", "fusion_lon": 0.0}, {"lat": 38.925006833333335, "type": "electric_scooter", "fusion_lat": 0.0, "is_disabled": 0, "name": "7f486d2abf8e8ff375fd3bc8290cd7d3", "is_reserved": 0, "rental_uris": {"ios": "https://dc.lft.to/lastmile_qr_scan", "android": "https://dc.lft.to/lastmile_qr_scan"}, "lon": -77.0215345, "bike_id": "7f486d2abf8e8ff375fd3bc8290cd7d3", "fusion_lon": 0.0}, {"lat": 38.91340566666667, "type": "electric_scooter", "fusion_lat": 0.0, "is_disabled": 0, "name": "f4bc3454e0275815bc2ae5a9c202b66c", "is_reserved": 0, "rental_uris": {"ios": "https://dc.lft.to/lastmile_qr_scan", "android": "https://dc.lft.to/lastmile_qr_scan"}, "lon": -77.042262, "bike_id": "f4bc3454e0275815bc2ae5a9c202b66c", "fusion_lon": 0.0}, {"lat": 38.929188333333336, "type": "electric_scooter", "fusion_lat": 0.0, "is_disabled": 0, "name": "f20539571a1a36cf8c23d45296d8ddfa", "is_reserved": 0, "rental_uris": {"ios": "https://dc.lft.to/lastmile_qr_scan", "android": "https://dc.lft.to/lastmile_qr_scan"}, "lon": -77.03754816666667, "bike_id": "f20539571a1a36cf8c23d45296d8ddfa", "fusion_lon": 0.0}, {"lat": 38.923648666666665, "type": "electric_scooter", "fusion_lat": 0.0, "is_disabled": 0, "name": "7a0b96c9d1f08f23deb37f11f393be17", "is_reserved": 0, "rental_uris": {"ios": "https://dc.lft.to/lastmile_qr_scan", "android": "https://dc.lft.to/lastmile_qr_scan"}, "lon": -77.05045283333334, "bike_id": "7a0b96c9d1f08f23deb37f11f393be17", "fusion_lon": 0.0}, {"lat": 38.934412333333334, "type": "electric_scooter", "fusion_lat": 0.0, "is_disabled": 0, "name": "bd8d721400cb70e3c6bf25565fef5330", "is_reserved": 0, "rental_uris": {"ios": "https://dc.lft.to/lastmile_qr_scan", "android": "https://dc.lft.to/lastmile_qr_scan"}, "lon": -77.03481983333333, "bike_id": "bd8d721400cb70e3c6bf25565fef5330", "fusion_lon": 0.0}, {"lat": 38.90315233333333, "type": "electric_scooter", "fusion_lat": 0.0, "is_disabled": 0, "name": "5cf0f338335eb78ad892dee70742e67a", "is_reserved": 0, "rental_uris": {"ios": "https://dc.lft.to/lastmile_qr_scan", "android": "https://dc.lft.to/lastmile_qr_scan"}, "lon": -77.0589635, "bike_id": "5cf0f338335eb78ad892dee70742e67a", "fusion_lon": 0.0}, {"lat": 38.90519333333334, "type": "electric_scooter", "fusion_lat": 0.0, "is_disabled": 0, "name": "3c65a2cbed9d38b0a9318aa35c8c393a", "is_reserved": 0, "rental_uris": {"ios": "https://dc.lft.to/lastmile_qr_scan", "android": "https://dc.lft.to/lastmile_qr_scan"}, "lon": -77.04176766666667, "bike_id": "3c65a2cbed9d38b0a9318aa35c8c393a", "fusion_lon": 0.0}, {"lat": 38.932055, "type": "electric_scooter", "fusion_lat": 0.0, "is_disabled": 0, "name": "3d5db96179d28d2d1e5ab39145289291", "is_reserved": 0, "rental_uris": {"ios": "https://dc.lft.to/lastmile_qr_scan", "android": "https://dc.lft.to/lastmile_qr_scan"}, "lon": -77.0326515, "bike_id": "3d5db96179d28d2d1e5ab39145289291", "fusion_lon": 0.0}, {"lat": 38.92182233333333, "type": "electric_scooter", "fusion_lat": 0.0, "is_disabled": 0, "name": "12c739ed0a1e2494dce80a52efc4af28", "is_reserved": 0, "rental_uris": {"ios": "https://dc.lft.to/lastmile_qr_scan", "android": "https://dc.lft.to/lastmile_qr_scan"}, "lon": -77.0469945, "bike_id": "12c739ed0a1e2494dce80a52efc4af28", "fusion_lon": 0.0}, {"lat": 38.92140766666667, "type": "electric_scooter", "fusion_lat": 0.0, "is_disabled": 0, "name": "9f170efd7f434600e8d0b7ddeeb081c5", "is_reserved": 0, "rental_uris": {"ios": "https://dc.lft.to/lastmile_qr_scan", "android": "https://dc.lft.to/lastmile_qr_scan"}, "lon": -77.04697316666666, "bike_id": "9f170efd7f434600e8d0b7ddeeb081c5", "fusion_lon": 0.0}, {"lat": 38.89887383333333, "type": "electric_scooter", "fusion_lat": 0.0, "is_disabled": 0, "name": "8b25ef3624ff2e175abf3effbd97904b", "is_reserved": 0, "rental_uris": {"ios": "https://dc.lft.to/lastmile_qr_scan", "android": "https://dc.lft.to/lastmile_qr_scan"}, "lon": -76.99293416666667, "bike_id": "8b25ef3624ff2e175abf3effbd97904b", "fusion_lon": 0.0}, {"lat": 38.917046166666665, "type": "electric_scooter", "fusion_lat": 0.0, "is_disabled": 0, "name": "3da24451c82514df3ff65bac696b586c", "is_reserved": 0, "rental_uris": {"ios": "https://dc.lft.to/lastmile_qr_scan", "android": "https://dc.lft.to/lastmile_qr_scan"}, "lon": -77.02655866666667, "bike_id": "3da24451c82514df3ff65bac696b586c", "fusion_lon": 0.0}, {"lat": 38.9232715, "type": "electric_scooter", "fusion_lat": 0.0, "is_disabled": 0, "name": "72e30a0d4748adea49769d8351cd6eaf", "is_reserved": 0, "rental_uris": {"ios": "https://dc.lft.to/lastmile_qr_scan", "android": "https://dc.lft.to/lastmile_qr_scan"}, "lon": -77.045164, "bike_id": "72e30a0d4748adea49769d8351cd6eaf", "fusion_lon": 0.0}, {"lat": 38.905661333333335, "type": "electric_scooter", "fusion_lat": 0.0, "is_disabled": 0, "name": "cb2403577625c482aa0c8b01e5b2fcd0", "is_reserved": 0, "rental_uris": {"ios": "https://dc.lft.to/lastmile_qr_scan", "android": "https://dc.lft.to/lastmile_qr_scan"}, "lon": -77.02210583333333, "bike_id": "cb2403577625c482aa0c8b01e5b2fcd0", "fusion_lon": 0.0}, {"lat": 38.905564166666665, "type": "electric_scooter", "fusion_lat": 0.0, "is_disabled": 0, "name": "be716baf1a37d6d815590ade542eb60c", "is_reserved": 0, "rental_uris": {"ios": "https://dc.lft.to/lastmile_qr_scan", "android": "https://dc.lft.to/lastmile_qr_scan"}, "lon": -76.98457766666667, "bike_id": "be716baf1a37d6d815590ade542eb60c", "fusion_lon": 0.0}, {"lat": 38.90932166666666, "type": "electric_scooter", "fusion_lat": 0.0, "is_disabled": 0, "name": "6d6ad289d4883ea8f39b6da56145c0e5", "is_reserved": 0, "rental_uris": {"ios": "https://dc.lft.to/lastmile_qr_scan", "android": "https://dc.lft.to/lastmile_qr_scan"}, "lon": -77.02718416666667, "bike_id": "6d6ad289d4883ea8f39b6da56145c0e5", "fusion_lon": 0.0}, {"lat": 38.942014666666665, "type": "electric_scooter", "fusion_lat": 0.0, "is_disabled": 0, "name": "731bf54e228927ef651c1b8410f2d09f", "is_reserved": 0, "rental_uris": {"ios": "https://dc.lft.to/lastmile_qr_scan", "android": "https://dc.lft.to/lastmile_qr_scan"}, "lon": -77.02469383333333, "bike_id": "731bf54e228927ef651c1b8410f2d09f", "fusion_lon": 0.0}, {"lat": 38.93064566666666, "type": "electric_scooter", "fusion_lat": 0.0, "is_disabled": 0, "name": "04382885e13eacb18fb4be8ac08bc8c6", "is_reserved": 0, "rental_uris": {"ios": "https://dc.lft.to/lastmile_qr_scan", "android": "https://dc.lft.to/lastmile_qr_scan"}, "lon": -77.03814183333333, "bike_id": "04382885e13eacb18fb4be8ac08bc8c6", "fusion_lon": 0.0}, {"lat": 38.897515, "type": "electric_scooter", "fusion_lat": 0.0, "is_disabled": 0, "name": "a8bfce69fe1be309365924811308d6de", "is_reserved": 0, "rental_uris": {"ios": "https://dc.lft.to/lastmile_qr_scan", "android": "https://dc.lft.to/lastmile_qr_scan"}, "lon": -77.02714516666667, "bike_id": "a8bfce69fe1be309365924811308d6de", "fusion_lon": 0.0}, {"lat": 38.912537666666665, "type": "electric_scooter", "fusion_lat": 0.0, "is_disabled": 0, "name": "fca987ac610a1c56eaedd35e557c01fc", "is_reserved": 0, "rental_uris": {"ios": "https://dc.lft.to/lastmile_qr_scan", "android": "https://dc.lft.to/lastmile_qr_scan"}, "lon": -77.0222605, "bike_id": "fca987ac610a1c56eaedd35e557c01fc", "fusion_lon": 0.0}, {"lat": 38.901992, "type": "electric_scooter", "fusion_lat": 0.0, "is_disabled": 0, "name": "ffcdf8e17859fd0d10b1d7d3c6775a6d", "is_reserved": 0, "rental_uris": {"ios": "https://dc.lft.to/lastmile_qr_scan", "android": "https://dc.lft.to/lastmile_qr_scan"}, "lon": -77.00575966666666, "bike_id": "ffcdf8e17859fd0d10b1d7d3c6775a6d", "fusion_lon": 0.0}, {"lat": 38.93065433333334, "type": "electric_scooter", "fusion_lat": 0.0, "is_disabled": 0, "name": "1abc008f51a4bf3fc2ab02f4523a5c88", "is_reserved": 0, "rental_uris": {"ios": "https://dc.lft.to/lastmile_qr_scan", "android": "https://dc.lft.to/lastmile_qr_scan"}, "lon": -77.029889, "bike_id": "1abc008f51a4bf3fc2ab02f4523a5c88", "fusion_lon": 0.0}, {"lat": 38.909667166666665, "type": "electric_scooter", "fusion_lat": 0.0, "is_disabled": 0, "name": "9f67cef92cfd7a6c37fecb215a0fdc56", "is_reserved": 0, "rental_uris": {"ios": "https://dc.lft.to/lastmile_qr_scan", "android": "https://dc.lft.to/lastmile_qr_scan"}, "lon": -77.0482, "bike_id": "9f67cef92cfd7a6c37fecb215a0fdc56", "fusion_lon": 0.0}, {"lat": 38.921512166666666, "type": "electric_scooter", "fusion_lat": 0.0, "is_disabled": 0, "name": "0ba6afc66920a50ba581ae6b980a4dd2", "is_reserved": 0, "rental_uris": {"ios": "https://dc.lft.to/lastmile_qr_scan", "android": "https://dc.lft.to/lastmile_qr_scan"}, "lon": -77.04353566666667, "bike_id": "0ba6afc66920a50ba581ae6b980a4dd2", "fusion_lon": 0.0}, {"lat": 38.903684, "type": "electric_scooter", "fusion_lat": 0.0, "is_disabled": 0, "name": "490557cae28534ddafdfd5ef26ef87d1", "is_reserved": 0, "rental_uris": {"ios": "https://dc.lft.to/lastmile_qr_scan", "android": "https://dc.lft.to/lastmile_qr_scan"}, "lon": -77.03208483333333, "bike_id": "490557cae28534ddafdfd5ef26ef87d1", "fusion_lon": 0.0}, {"lat": 38.8278665, "type": "electric_bike", "fusion_lat": 0.0, "is_disabled": 0, "name": "5eca405000ece79344f8a7a793b171ee", "is_reserved": 0, "rental_uris": {"ios": "https://dc.lft.to/lastmile_qr_scan", "android": "https://dc.lft.to/lastmile_qr_scan"}, "lon": -77.12495866666667, "bike_id": "5eca405000ece79344f8a7a793b171ee", "fusion_lon": 0.0}, {"lat": 38.841657166666664, "type": "electric_scooter", "fusion_lat": 0.0, "is_disabled": 0, "name": "9e9d8a133e234f4bca63723fb12d705d", "is_reserved": 0, "rental_uris": {"ios": "https://dc.lft.to/lastmile_qr_scan", "android": "https://dc.lft.to/lastmile_qr_scan"}, "lon": -76.99852133333333, "bike_id": "9e9d8a133e234f4bca63723fb12d705d", "fusion_lon": 0.0}, {"lat": 38.900250166666666, "type": "electric_scooter", "fusion_lat": 0.0, "is_disabled": 0, "name": "6b8d23374389ad440324617fabca1f71", "is_reserved": 0, "rental_uris": {"ios": "https://dc.lft.to/lastmile_qr_scan", "android": "https://dc.lft.to/lastmile_qr_scan"}, "lon": -77.0465165, "bike_id": "6b8d23374389ad440324617fabca1f71", "fusion_lon": 0.0}, {"lat": 38.89854066666667, "type": "electric_scooter", "fusion_lat": 0.0, "is_disabled": 0, "name": "4fec3010731f87948def98a7d05b0164", "is_reserved": 0, "rental_uris": {"ios": "https://dc.lft.to/lastmile_qr_scan", "android": "https://dc.lft.to/lastmile_qr_scan"}, "lon": -77.03315433333333, "bike_id": "4fec3010731f87948def98a7d05b0164", "fusion_lon": 0.0}, {"lat": 38.934755833333334, "type": "electric_scooter", "fusion_lat": 0.0, "is_disabled": 0, "name": "b2ba2b6f21caa88d3ada01116b02a908", "is_reserved": 0, "rental_uris": {"ios": "https://dc.lft.to/lastmile_qr_scan", "android": "https://dc.lft.to/lastmile_qr_scan"}, "lon": -77.027243, "bike_id": "b2ba2b6f21caa88d3ada01116b02a908", "fusion_lon": 0.0}, {"lat": 38.95713766666667, "type": "electric_bike", "fusion_lat": 0.0, "is_disabled": 0, "name": "4bc1da05ca326e99522aa5b012c0090e", "is_reserved": 0, "rental_uris": {"ios": "https://dc.lft.to/lastmile_qr_scan", "android": "https://dc.lft.to/lastmile_qr_scan"}, "lon": -77.00281666666666, "bike_id": "4bc1da05ca326e99522aa5b012c0090e", "fusion_lon": 0.0}, {"lat": 38.89957016666666, "type": "electric_scooter", "fusion_lat": 0.0, "is_disabled": 0, "name": "b177127293d5090fb599e5f45c31d7b6", "is_reserved": 0, "rental_uris": {"ios": "https://dc.lft.to/lastmile_qr_scan", "android": "https://dc.lft.to/lastmile_qr_scan"}, "lon": -76.98559166666666, "bike_id": "b177127293d5090fb599e5f45c31d7b6", "fusion_lon": 0.0}, {"lat": 38.912184833333335, "type": "electric_scooter", "fusion_lat": 0.0, "is_disabled": 0, "name": "67bdd7fdee00d3efd8c537008c904d24", "is_reserved": 0, "rental_uris": {"ios": "https://dc.lft.to/lastmile_qr_scan", "android": "https://dc.lft.to/lastmile_qr_scan"}, "lon": -77.076019, "bike_id": "67bdd7fdee00d3efd8c537008c904d24", "fusion_lon": 0.0}, {"lat": 38.9360955, "type": "electric_bike", "fusion_lat": 0.0, "is_disabled": 0, "name": "577901eb3be932a888dbdf0dde36dde3", "is_reserved": 0, "rental_uris": {"ios": "https://dc.lft.to/lastmile_qr_scan", "android": "https://dc.lft.to/lastmile_qr_scan"}, "lon": -77.10648983333333, "bike_id": "577901eb3be932a888dbdf0dde36dde3", "fusion_lon": 0.0}, {"lat": 38.915812833333334, "type": "electric_scooter", "fusion_lat": 0.0, "is_disabled": 0, "name": "28822ab3894f943e2e427e7e1dffbe7f", "is_reserved": 0, "rental_uris": {"ios": "https://dc.lft.to/lastmile_qr_scan", "android": "https://dc.lft.to/lastmile_qr_scan"}, "lon": -77.03197566666667, "bike_id": "28822ab3894f943e2e427e7e1dffbe7f", "fusion_lon": 0.0}, {"lat": 38.887334833333334, "type": "electric_scooter", "fusion_lat": 0.0, "is_disabled": 0, "name": "d0ba3bd70c8341f4941761a51be1227a", "is_reserved": 0, "rental_uris": {"ios": "https://dc.lft.to/lastmile_qr_scan", "android": "https://dc.lft.to/lastmile_qr_scan"}, "lon": -77.022111, "bike_id": "d0ba3bd70c8341f4941761a51be1227a", "fusion_lon": 0.0}, {"lat": 38.903776666666666, "type": "electric_scooter", "fusion_lat": 0.0, "is_disabled": 0, "name": "35fff3250a770d2870b45be863e27a93", "is_reserved": 0, "rental_uris": {"ios": "https://dc.lft.to/lastmile_qr_scan", "android": "https://dc.lft.to/lastmile_qr_scan"}, "lon": -77.044982, "bike_id": "35fff3250a770d2870b45be863e27a93", "fusion_lon": 0.0}, {"lat": 38.956527666666666, "type": "electric_scooter", "fusion_lat": 0.0, "is_disabled": 0, "name": "f37f0228ed4f88d977f0d23e4c6f85a5", "is_reserved": 0, "rental_uris": {"ios": "https://dc.lft.to/lastmile_qr_scan", "android": "https://dc.lft.to/lastmile_qr_scan"}, "lon": -77.03296233333333, "bike_id": "f37f0228ed4f88d977f0d23e4c6f85a5", "fusion_lon": 0.0}, {"lat": 38.915208666666665, "type": "electric_scooter", "fusion_lat": 0.0, "is_disabled": 0, "name": "d285766f67a80011da39bea684af2519", "is_reserved": 0, "rental_uris": {"ios": "https://dc.lft.to/lastmile_qr_scan", "android": "https://dc.lft.to/lastmile_qr_scan"}, "lon": -77.04853916666667, "bike_id": "d285766f67a80011da39bea684af2519", "fusion_lon": 0.0}, {"lat": 38.933364833333336, "type": "electric_scooter", "fusion_lat": 0.0, "is_disabled": 0, "name": "bb58425c77c326e8e3b717733dda6b37", "is_reserved": 0, "rental_uris": {"ios": "https://dc.lft.to/lastmile_qr_scan", "android": "https://dc.lft.to/lastmile_qr_scan"}, "lon": -77.03991633333334, "bike_id": "bb58425c77c326e8e3b717733dda6b37", "fusion_lon": 0.0}, {"lat": 38.881358166666665, "type": "electric_scooter", "fusion_lat": 0.0, "is_disabled": 0, "name": "b22fd4aa1827c6446eb58012ef75234f", "is_reserved": 0, "rental_uris": {"ios": "https://dc.lft.to/lastmile_qr_scan", "android": "https://dc.lft.to/lastmile_qr_scan"}, "lon": -77.02398183333334, "bike_id": "b22fd4aa1827c6446eb58012ef75234f", "fusion_lon": 0.0}, {"lat": 38.89964366666667, "type": "electric_scooter", "fusion_lat": 0.0, "is_disabled": 0, "name": "88d2fc9b6861c3b80cc2838ae28c5365", "is_reserved": 0, "rental_uris": {"ios": "https://dc.lft.to/lastmile_qr_scan", "android": "https://dc.lft.to/lastmile_qr_scan"}, "lon": -77.01615766666667, "bike_id": "88d2fc9b6861c3b80cc2838ae28c5365", "fusion_lon": 0.0}, {"lat": 38.90026916666667, "type": "electric_scooter", "fusion_lat": 0.0, "is_disabled": 0, "name": "7ceca215cc1fe9dbcf0a8675dd4693a7", "is_reserved": 0, "rental_uris": {"ios": "https://dc.lft.to/lastmile_qr_scan", "android": "https://dc.lft.to/lastmile_qr_scan"}, "lon": -77.011918, "bike_id": "7ceca215cc1fe9dbcf0a8675dd4693a7", "fusion_lon": 0.0}, {"lat": 38.90481966666667, "type": "electric_bike", "fusion_lat": 0.0, "is_disabled": 0, "name": "4500bd4f10be678207c2469c9e5d26c1", "is_reserved": 0, "rental_uris": {"ios": "https://dc.lft.to/lastmile_qr_scan", "android": "https://dc.lft.to/lastmile_qr_scan"}, "lon": -76.9732625, "bike_id": "4500bd4f10be678207c2469c9e5d26c1", "fusion_lon": 0.0}, {"lat": 38.900453666666664, "type": "electric_scooter", "fusion_lat": 0.0, "is_disabled": 0, "name": "372c8a442a85d4da2e92e2f20d75e3c8", "is_reserved": 0, "rental_uris": {"ios": "https://dc.lft.to/lastmile_qr_scan", "android": "https://dc.lft.to/lastmile_qr_scan"}, "lon": -77.04332333333333, "bike_id": "372c8a442a85d4da2e92e2f20d75e3c8", "fusion_lon": 0.0}, {"lat": 38.91977583333333, "type": "electric_scooter", "fusion_lat": 0.0, "is_disabled": 0, "name": "ae035c1d0e0dcd96b7af6e0c6bb773dd", "is_reserved": 0, "rental_uris": {"ios": "https://dc.lft.to/lastmile_qr_scan", "android": "https://dc.lft.to/lastmile_qr_scan"}, "lon": -77.04182266666666, "bike_id": "ae035c1d0e0dcd96b7af6e0c6bb773dd", "fusion_lon": 0.0}, {"lat": 38.882975, "type": "electric_scooter", "fusion_lat": 0.0, "is_disabled": 0, "name": "1ca2b188889f1fca7cc5c85c5ecbbdbe", "is_reserved": 0, "rental_uris": {"ios": "https://dc.lft.to/lastmile_qr_scan", "android": "https://dc.lft.to/lastmile_qr_scan"}, "lon": -77.0256615, "bike_id": "1ca2b188889f1fca7cc5c85c5ecbbdbe", "fusion_lon": 0.0}, {"lat": 38.95644333333333, "type": "electric_bike", "fusion_lat": 0.0, "is_disabled": 0, "name": "5cc679b8e6d0bd9432839615401729db", "is_reserved": 0, "rental_uris": {"ios": "https://dc.lft.to/lastmile_qr_scan", "android": "https://dc.lft.to/lastmile_qr_scan"}, "lon": -76.9979895, "bike_id": "5cc679b8e6d0bd9432839615401729db", "fusion_lon": 0.0}, {"lat": 38.899763166666666, "type": "electric_scooter", "fusion_lat": 0.0, "is_disabled": 0, "name": "58ca20af0d6a921e5e656db41b8d4c46", "is_reserved": 0, "rental_uris": {"ios": "https://dc.lft.to/lastmile_qr_scan", "android": "https://dc.lft.to/lastmile_qr_scan"}, "lon": -77.04194033333333, "bike_id": "58ca20af0d6a921e5e656db41b8d4c46", "fusion_lon": 0.0}, {"lat": 38.905118, "type": "electric_scooter", "fusion_lat": 0.0, "is_disabled": 0, "name": "42569ec57a07cca9030f60643a9e2e7e", "is_reserved": 0, "rental_uris": {"ios": "https://dc.lft.to/lastmile_qr_scan", "android": "https://dc.lft.to/lastmile_qr_scan"}, "lon": -77.049975, "bike_id": "42569ec57a07cca9030f60643a9e2e7e", "fusion_lon": 0.0}, {"lat": 38.890996333333334, "type": "electric_scooter", "fusion_lat": 0.0, "is_disabled": 0, "name": "964de6128110a1e3ec9bfee2cec5bdf8", "is_reserved": 0, "rental_uris": {"ios": "https://dc.lft.to/lastmile_qr_scan", "android": "https://dc.lft.to/lastmile_qr_scan"}, "lon": -77.00198266666666, "bike_id": "964de6128110a1e3ec9bfee2cec5bdf8", "fusion_lon": 0.0}, {"lat": 38.898767, "type": "electric_bike", "fusion_lat": 0.0, "is_disabled": 0, "name": "ff341dae17a68872aca7d754fca7b7d4", "is_reserved": 0, "rental_uris": {"ios": "https://dc.lft.to/lastmile_qr_scan", "android": "https://dc.lft.to/lastmile_qr_scan"}, "lon": -76.9765035, "bike_id": "ff341dae17a68872aca7d754fca7b7d4", "fusion_lon": 0.0}, {"lat": 38.9960785, "type": "electric_bike", "fusion_lat": 0.0, "is_disabled": 0, "name": "82576768a71f5c28d7c291a2000b8ae1", "is_reserved": 0, "rental_uris": {"ios": "https://dc.lft.to/lastmile_qr_scan", "android": "https://dc.lft.to/lastmile_qr_scan"}, "lon": -77.0779465, "bike_id": "82576768a71f5c28d7c291a2000b8ae1", "fusion_lon": 0.0}, {"lat": 38.91867383333334, "type": "electric_scooter", "fusion_lat": 0.0, "is_disabled": 0, "name": "d98c3f8a8786c5373256d9ff765cea8e", "is_reserved": 0, "rental_uris": {"ios": "https://dc.lft.to/lastmile_qr_scan", "android": "https://dc.lft.to/lastmile_qr_scan"}, "lon": -77.02697383333333, "bike_id": "d98c3f8a8786c5373256d9ff765cea8e", "fusion_lon": 0.0}, {"lat": 38.886138833333334, "type": "electric_scooter", "fusion_lat": 0.0, "is_disabled": 0, "name": "9ef87d0cec39c9aefaaade3cc6953181", "is_reserved": 0, "rental_uris": {"ios": "https://dc.lft.to/lastmile_qr_scan", "android": "https://dc.lft.to/lastmile_qr_scan"}, "lon": -77.019786, "bike_id": "9ef87d0cec39c9aefaaade3cc6953181", "fusion_lon": 0.0}, {"lat": 38.909767, "type": "electric_scooter", "fusion_lat": 0.0, "is_disabled": 0, "name": "a89ab88f6082e4cae35aa522b369d34f", "is_reserved": 0, "rental_uris": {"ios": "https://dc.lft.to/lastmile_qr_scan", "android": "https://dc.lft.to/lastmile_qr_scan"}, "lon": -77.03593833333333, "bike_id": "a89ab88f6082e4cae35aa522b369d34f", "fusion_lon": 0.0}, {"lat": 38.89827566666666, "type": "electric_scooter", "fusion_lat": 0.0, "is_disabled": 0, "name": "e48095dab939ac3c886f1bdec47ec66e", "is_reserved": 0, "rental_uris": {"ios": "https://dc.lft.to/lastmile_qr_scan", "android": "https://dc.lft.to/lastmile_qr_scan"}, "lon": -77.01378416666667, "bike_id": "e48095dab939ac3c886f1bdec47ec66e", "fusion_lon": 0.0}, {"lat": 38.900761, "type": "electric_scooter", "fusion_lat": 0.0, "is_disabled": 0, "name": "96eddfb7b32989cc2db615443cef5060", "is_reserved": 0, "rental_uris": {"ios": "https://dc.lft.to/lastmile_qr_scan", "android": "https://dc.lft.to/lastmile_qr_scan"}, "lon": -77.04984216666666, "bike_id": "96eddfb7b32989cc2db615443cef5060", "fusion_lon": 0.0}, {"lat": 39.041991333333335, "type": "electric_bike", "fusion_lat": 0.0, "is_disabled": 0, "name": "942376e94e95958e846b84316ad2f9b9", "is_reserved": 0, "rental_uris": {"ios": "https://dc.lft.to/lastmile_qr_scan", "android": "https://dc.lft.to/lastmile_qr_scan"}, "lon": -77.030057, "bike_id": "942376e94e95958e846b84316ad2f9b9", "fusion_lon": 0.0}, {"lat": 38.943696333333335, "type": "electric_scooter", "fusion_lat": 0.0, "is_disabled": 0, "name": "21f9d6a59a613d750142e9aa511b3c53", "is_reserved": 0, "rental_uris": {"ios": "https://dc.lft.to/lastmile_qr_scan", "android": "https://dc.lft.to/lastmile_qr_scan"}, "lon": -77.06133816666667, "bike_id": "21f9d6a59a613d750142e9aa511b3c53", "fusion_lon": 0.0}, {"lat": 38.906886666666665, "type": "electric_scooter", "fusion_lat": 0.0, "is_disabled": 0, "name": "e1f9440f0c454d1d24cb23836451172d", "is_reserved": 0, "rental_uris": {"ios": "https://dc.lft.to/lastmile_qr_scan", "android": "https://dc.lft.to/lastmile_qr_scan"}, "lon": -77.04333666666666, "bike_id": "e1f9440f0c454d1d24cb23836451172d", "fusion_lon": 0.0}, {"lat": 38.931031833333336, "type": "electric_scooter", "fusion_lat": 0.0, "is_disabled": 0, "name": "981fc9eb03cec33f483be625eaaa4044", "is_reserved": 0, "rental_uris": {"ios": "https://dc.lft.to/lastmile_qr_scan", "android": "https://dc.lft.to/lastmile_qr_scan"}, "lon": -77.07285516666667, "bike_id": "981fc9eb03cec33f483be625eaaa4044", "fusion_lon": 0.0}, {"lat": 38.923078, "type": "electric_scooter", "fusion_lat": 0.0, "is_disabled": 0, "name": "929d300dc6a0e78103a1a974b243e022", "is_reserved": 0, "rental_uris": {"ios": "https://dc.lft.to/lastmile_qr_scan", "android": "https://dc.lft.to/lastmile_qr_scan"}, "lon": -77.03641133333333, "bike_id": "929d300dc6a0e78103a1a974b243e022", "fusion_lon": 0.0}, {"lat": 38.9193645, "type": "electric_scooter", "fusion_lat": 0.0, "is_disabled": 0, "name": "8d6508d854eeaf046eb7b99e0960a571", "is_reserved": 0, "rental_uris": {"ios": "https://dc.lft.to/lastmile_qr_scan", "android": "https://dc.lft.to/lastmile_qr_scan"}, "lon": -77.0248845, "bike_id": "8d6508d854eeaf046eb7b99e0960a571", "fusion_lon": 0.0}, {"lat": 38.92126616666667, "type": "electric_scooter", "fusion_lat": 0.0, "is_disabled": 0, "name": "1485b8ca664d18035f54f171c70ac1b3", "is_reserved": 0, "rental_uris": {"ios": "https://dc.lft.to/lastmile_qr_scan", "android": "https://dc.lft.to/lastmile_qr_scan"}, "lon": -77.04429333333333, "bike_id": "1485b8ca664d18035f54f171c70ac1b3", "fusion_lon": 0.0}, {"lat": 38.92897283333333, "type": "electric_scooter", "fusion_lat": 0.0, "is_disabled": 0, "name": "b7ee20a4f3067d56645e564821e814c3", "is_reserved": 0, "rental_uris": {"ios": "https://dc.lft.to/lastmile_qr_scan", "android": "https://dc.lft.to/lastmile_qr_scan"}, "lon": -77.01632116666667, "bike_id": "b7ee20a4f3067d56645e564821e814c3", "fusion_lon": 0.0}, {"lat": 38.90851083333333, "type": "electric_scooter", "fusion_lat": 0.0, "is_disabled": 0, "name": "ea55fddc0498b5ad91331fcbb4cb1e8d", "is_reserved": 0, "rental_uris": {"ios": "https://dc.lft.to/lastmile_qr_scan", "android": "https://dc.lft.to/lastmile_qr_scan"}, "lon": -77.02173883333333, "bike_id": "ea55fddc0498b5ad91331fcbb4cb1e8d", "fusion_lon": 0.0}, {"lat": 38.927656666666664, "type": "electric_scooter", "fusion_lat": 0.0, "is_disabled": 0, "name": "bcf4e7572ec78f9051460252804fbf78", "is_reserved": 0, "rental_uris": {"ios": "https://dc.lft.to/lastmile_qr_scan", "android": "https://dc.lft.to/lastmile_qr_scan"}, "lon": -77.03220616666667, "bike_id": "bcf4e7572ec78f9051460252804fbf78", "fusion_lon": 0.0}, {"lat": 38.91705683333333, "type": "electric_scooter", "fusion_lat": 0.0, "is_disabled": 0, "name": "75ceed13b87f7a325bb915a8c65b29c7", "is_reserved": 0, "rental_uris": {"ios": "https://dc.lft.to/lastmile_qr_scan", "android": "https://dc.lft.to/lastmile_qr_scan"}, "lon": -77.02288316666667, "bike_id": "75ceed13b87f7a325bb915a8c65b29c7", "fusion_lon": 0.0}, {"lat": 38.928110333333336, "type": "electric_scooter", "fusion_lat": 0.0, "is_disabled": 0, "name": "262f8fca173ad5402c20ce38664ccd9e", "is_reserved": 0, "rental_uris": {"ios": "https://dc.lft.to/lastmile_qr_scan", "android": "https://dc.lft.to/lastmile_qr_scan"}, "lon": -77.03349966666667, "bike_id": "262f8fca173ad5402c20ce38664ccd9e", "fusion_lon": 0.0}, {"lat": 38.89219816666667, "type": "electric_scooter", "fusion_lat": 0.0, "is_disabled": 0, "name": "dfb799243bdebf9f183807219506ad1e", "is_reserved": 0, "rental_uris": {"ios": "https://dc.lft.to/lastmile_qr_scan", "android": "https://dc.lft.to/lastmile_qr_scan"}, "lon": -77.02360316666666, "bike_id": "dfb799243bdebf9f183807219506ad1e", "fusion_lon": 0.0}, {"lat": 38.912525333333335, "type": "electric_scooter", "fusion_lat": 0.0, "is_disabled": 0, "name": "c77f54c448ea724989ced08917480900", "is_reserved": 0, "rental_uris": {"ios": "https://dc.lft.to/lastmile_qr_scan", "android": "https://dc.lft.to/lastmile_qr_scan"}, "lon": -77.04160683333333, "bike_id": "c77f54c448ea724989ced08917480900", "fusion_lon": 0.0}, {"lat": 38.89239833333333, "type": "electric_scooter", "fusion_lat": 0.0, "is_disabled": 0, "name": "41f8f066beadda5426e0522083a83702", "is_reserved": 0, "rental_uris": {"ios": "https://dc.lft.to/lastmile_qr_scan", "android": "https://dc.lft.to/lastmile_qr_scan"}, "lon": -77.04875633333333, "bike_id": "41f8f066beadda5426e0522083a83702", "fusion_lon": 0.0}, {"lat": 38.912220833333336, "type": "electric_scooter", "fusion_lat": 0.0, "is_disabled": 0, "name": "a46294d9fac01df5e82b5eba05c7bf2c", "is_reserved": 0, "rental_uris": {"ios": "https://dc.lft.to/lastmile_qr_scan", "android": "https://dc.lft.to/lastmile_qr_scan"}, "lon": -77.03188733333333, "bike_id": "a46294d9fac01df5e82b5eba05c7bf2c", "fusion_lon": 0.0}, {"lat": 38.94303466666667, "type": "electric_scooter", "fusion_lat": 0.0, "is_disabled": 0, "name": "1199815829f4927fa0448552efc7193f", "is_reserved": 0, "rental_uris": {"ios": "https://dc.lft.to/lastmile_qr_scan", "android": "https://dc.lft.to/lastmile_qr_scan"}, "lon": -77.02590466666666, "bike_id": "1199815829f4927fa0448552efc7193f", "fusion_lon": 0.0}, {"lat": 38.8785155, "type": "electric_scooter", "fusion_lat": 0.0, "is_disabled": 0, "name": "e34eba1ff410b5aa75cd44285efcccf5", "is_reserved": 0, "rental_uris": {"ios": "https://dc.lft.to/lastmile_qr_scan", "android": "https://dc.lft.to/lastmile_qr_scan"}, "lon": -76.931407, "bike_id": "e34eba1ff410b5aa75cd44285efcccf5", "fusion_lon": 0.0}, {"lat": 38.944637, "type": "electric_scooter", "fusion_lat": 0.0, "is_disabled": 0, "name": "0775657d5eaef5e417ee58d81cbf8c29", "is_reserved": 0, "rental_uris": {"ios": "https://dc.lft.to/lastmile_qr_scan", "android": "https://dc.lft.to/lastmile_qr_scan"}, "lon": -77.006583, "bike_id": "0775657d5eaef5e417ee58d81cbf8c29", "fusion_lon": 0.0}, {"lat": 38.94606116666667, "type": "electric_bike", "fusion_lat": 0.0, "is_disabled": 0, "name": "c4ea636d24eea28352da179679ae31ad", "is_reserved": 0, "rental_uris": {"ios": "https://dc.lft.to/lastmile_qr_scan", "android": "https://dc.lft.to/lastmile_qr_scan"}, "lon": -77.007121, "bike_id": "c4ea636d24eea28352da179679ae31ad", "fusion_lon": 0.0}, {"lat": 38.92725183333334, "type": "electric_scooter", "fusion_lat": 0.0, "is_disabled": 0, "name": "4005c08164dc04a40eba4f0c5369b489", "is_reserved": 0, "rental_uris": {"ios": "https://dc.lft.to/lastmile_qr_scan", "android": "https://dc.lft.to/lastmile_qr_scan"}, "lon": -77.04136633333333, "bike_id": "4005c08164dc04a40eba4f0c5369b489", "fusion_lon": 0.0}, {"lat": 38.910539166666666, "type": "electric_scooter", "fusion_lat": 0.0, "is_disabled": 0, "name": "f0f6aed433613bdbc1c0778be3185b0d", "is_reserved": 0, "rental_uris": {"ios": "https://dc.lft.to/lastmile_qr_scan", "android": "https://dc.lft.to/lastmile_qr_scan"}, "lon": -77.0434895, "bike_id": "f0f6aed433613bdbc1c0778be3185b0d", "fusion_lon": 0.0}, {"lat": 38.86490533333333, "type": "electric_bike", "fusion_lat": 0.0, "is_disabled": 0, "name": "615f145fb19b5f1c22eab79f3bb48dee", "is_reserved": 0, "rental_uris": {"ios": "https://dc.lft.to/lastmile_qr_scan", "android": "https://dc.lft.to/lastmile_qr_scan"}, "lon": -76.97734383333334, "bike_id": "615f145fb19b5f1c22eab79f3bb48dee", "fusion_lon": 0.0}, {"lat": 38.911246, "type": "electric_scooter", "fusion_lat": 0.0, "is_disabled": 0, "name": "9098435526eefd032422f201d0abf854", "is_reserved": 0, "rental_uris": {"ios": "https://dc.lft.to/lastmile_qr_scan", "android": "https://dc.lft.to/lastmile_qr_scan"}, "lon": -77.02194966666667, "bike_id": "9098435526eefd032422f201d0abf854", "fusion_lon": 0.0}, {"lat": 39.09978133333333, "type": "electric_bike", "fusion_lat": 0.0, "is_disabled": 0, "name": "68a5c38e5480465ff18f6a28d274378c", "is_reserved": 0, "rental_uris": {"ios": "https://dc.lft.to/lastmile_qr_scan", "android": "https://dc.lft.to/lastmile_qr_scan"}, "lon": -77.18563566666667, "bike_id": "68a5c38e5480465ff18f6a28d274378c", "fusion_lon": 0.0}, {"lat": 38.90381516666667, "type": "electric_scooter", "fusion_lat": 0.0, "is_disabled": 0, "name": "eeb9689b9a816194aba63ac716d5058d", "is_reserved": 0, "rental_uris": {"ios": "https://dc.lft.to/lastmile_qr_scan", "android": "https://dc.lft.to/lastmile_qr_scan"}, "lon": -77.03666333333334, "bike_id": "eeb9689b9a816194aba63ac716d5058d", "fusion_lon": 0.0}, {"lat": 38.896258, "type": "electric_scooter", "fusion_lat": 0.0, "is_disabled": 0, "name": "15d5a7141616f67c50084db42064e2c1", "is_reserved": 0, "rental_uris": {"ios": "https://dc.lft.to/lastmile_qr_scan", "android": "https://dc.lft.to/lastmile_qr_scan"}, "lon": -76.95659416666666, "bike_id": "15d5a7141616f67c50084db42064e2c1", "fusion_lon": 0.0}, {"lat": 38.8865805, "type": "electric_bike", "fusion_lat": 0.0, "is_disabled": 0, "name": "549d3b3f32633bfd73f98f510bba4c37", "is_reserved": 0, "rental_uris": {"ios": "https://dc.lft.to/lastmile_qr_scan", "android": "https://dc.lft.to/lastmile_qr_scan"}, "lon": -77.16234916666667, "bike_id": "549d3b3f32633bfd73f98f510bba4c37", "fusion_lon": 0.0}, {"lat": 38.903684, "type": "electric_scooter", "fusion_lat": 0.0, "is_disabled": 0, "name": "8915aa7a1bff884ea97e0a2099311fb8", "is_reserved": 0, "rental_uris": {"ios": "https://dc.lft.to/lastmile_qr_scan", "android": "https://dc.lft.to/lastmile_qr_scan"}, "lon": -77.03315983333333, "bike_id": "8915aa7a1bff884ea97e0a2099311fb8", "fusion_lon": 0.0}, {"lat": 38.91706833333333, "type": "electric_scooter", "fusion_lat": 0.0, "is_disabled": 0, "name": "8e082f38ede1335383d8f9094f4b08d9", "is_reserved": 0, "rental_uris": {"ios": "https://dc.lft.to/lastmile_qr_scan", "android": "https://dc.lft.to/lastmile_qr_scan"}, "lon": -77.02482283333333, "bike_id": "8e082f38ede1335383d8f9094f4b08d9", "fusion_lon": 0.0}, {"lat": 38.9625495, "type": "electric_bike", "fusion_lat": 0.0, "is_disabled": 0, "name": "6583aa436fd2ba8410e40a3f629fd3fc", "is_reserved": 0, "rental_uris": {"ios": "https://dc.lft.to/lastmile_qr_scan", "android": "https://dc.lft.to/lastmile_qr_scan"}, "lon": -76.998529, "bike_id": "6583aa436fd2ba8410e40a3f629fd3fc", "fusion_lon": 0.0}, {"lat": 38.92731533333333, "type": "electric_scooter", "fusion_lat": 0.0, "is_disabled": 0, "name": "aea76298a2256d0da50a87cf50d159bc", "is_reserved": 0, "rental_uris": {"ios": "https://dc.lft.to/lastmile_qr_scan", "android": "https://dc.lft.to/lastmile_qr_scan"}, "lon": -77.05251683333333, "bike_id": "aea76298a2256d0da50a87cf50d159bc", "fusion_lon": 0.0}, {"lat": 38.931704833333335, "type": "electric_bike", "fusion_lat": 0.0, "is_disabled": 0, "name": "75ddaae1cda479fc7747207fef058fc6", "is_reserved": 0, "rental_uris": {"ios": "https://dc.lft.to/lastmile_qr_scan", "android": "https://dc.lft.to/lastmile_qr_scan"}, "lon": -76.88402116666667, "bike_id": "75ddaae1cda479fc7747207fef058fc6", "fusion_lon": 0.0}, {"lat": 38.94196766666666, "type": "electric_scooter", "fusion_lat": 0.0, "is_disabled": 0, "name": "213f40fb9393bc66054285327a9edba3", "is_reserved": 0, "rental_uris": {"ios": "https://dc.lft.to/lastmile_qr_scan", "android": "https://dc.lft.to/lastmile_qr_scan"}, "lon": -77.02465516666666, "bike_id": "213f40fb9393bc66054285327a9edba3", "fusion_lon": 0.0}, {"lat": 38.93364316666667, "type": "electric_scooter", "fusion_lat": 0.0, "is_disabled": 0, "name": "408749e79ec44048a47b01a034e075fb", "is_reserved": 0, "rental_uris": {"ios": "https://dc.lft.to/lastmile_qr_scan", "android": "https://dc.lft.to/lastmile_qr_scan"}, "lon": -77.06035083333333, "bike_id": "408749e79ec44048a47b01a034e075fb", "fusion_lon": 0.0}, {"lat": 38.902384, "type": "electric_scooter", "fusion_lat": 0.0, "is_disabled": 0, "name": "b545999aa86de7dbbce75dd0b480192e", "is_reserved": 0, "rental_uris": {"ios": "https://dc.lft.to/lastmile_qr_scan", "android": "https://dc.lft.to/lastmile_qr_scan"}, "lon": -77.04334433333334, "bike_id": "b545999aa86de7dbbce75dd0b480192e", "fusion_lon": 0.0}, {"lat": 39.05503266666667, "type": "electric_bike", "fusion_lat": 0.0, "is_disabled": 0, "name": "6d39cd07728a3e26ad056452d90a91dc", "is_reserved": 0, "rental_uris": {"ios": "https://dc.lft.to/lastmile_qr_scan", "android": "https://dc.lft.to/lastmile_qr_scan"}, "lon": -77.0464265, "bike_id": "6d39cd07728a3e26ad056452d90a91dc", "fusion_lon": 0.0}, {"lat": 38.885099333333336, "type": "electric_scooter", "fusion_lat": 0.0, "is_disabled": 0, "name": "95cc9108c333e2858b2d84dcc4dfcf83", "is_reserved": 0, "rental_uris": {"ios": "https://dc.lft.to/lastmile_qr_scan", "android": "https://dc.lft.to/lastmile_qr_scan"}, "lon": -77.02937566666667, "bike_id": "95cc9108c333e2858b2d84dcc4dfcf83", "fusion_lon": 0.0}, {"lat": 38.948745833333334, "type": "electric_scooter", "fusion_lat": 0.0, "is_disabled": 0, "name": "789efada9162f3f26b2b1013d6a5d201", "is_reserved": 0, "rental_uris": {"ios": "https://dc.lft.to/lastmile_qr_scan", "android": "https://dc.lft.to/lastmile_qr_scan"}, "lon": -77.03882283333333, "bike_id": "789efada9162f3f26b2b1013d6a5d201", "fusion_lon": 0.0}, {"lat": 38.897213, "type": "electric_scooter", "fusion_lat": 0.0, "is_disabled": 0, "name": "55c287f158c0ec08e1e22f51e11b2817", "is_reserved": 0, "rental_uris": {"ios": "https://dc.lft.to/lastmile_qr_scan", "android": "https://dc.lft.to/lastmile_qr_scan"}, "lon": -77.02135516666667, "bike_id": "55c287f158c0ec08e1e22f51e11b2817", "fusion_lon": 0.0}, {"lat": 38.925438, "type": "electric_scooter", "fusion_lat": 0.0, "is_disabled": 0, "name": "26626acc90b4d68b621fb273ffac70a3", "is_reserved": 0, "rental_uris": {"ios": "https://dc.lft.to/lastmile_qr_scan", "android": "https://dc.lft.to/lastmile_qr_scan"}, "lon": -77.03789266666666, "bike_id": "26626acc90b4d68b621fb273ffac70a3", "fusion_lon": 0.0}, {"lat": 38.92592766666667, "type": "electric_scooter", "fusion_lat": 0.0, "is_disabled": 0, "name": "3bb9eae0b846d0c90ea75396852f6100", "is_reserved": 0, "rental_uris": {"ios": "https://dc.lft.to/lastmile_qr_scan", "android": "https://dc.lft.to/lastmile_qr_scan"}, "lon": -77.02606966666667, "bike_id": "3bb9eae0b846d0c90ea75396852f6100", "fusion_lon": 0.0}, {"lat": 38.8948845, "type": "electric_scooter", "fusion_lat": 0.0, "is_disabled": 0, "name": "9914e0c691c2e008e39aece897db4cfc", "is_reserved": 0, "rental_uris": {"ios": "https://dc.lft.to/lastmile_qr_scan", "android": "https://dc.lft.to/lastmile_qr_scan"}, "lon": -77.02140783333333, "bike_id": "9914e0c691c2e008e39aece897db4cfc", "fusion_lon": 0.0}, {"lat": 38.89225233333333, "type": "electric_scooter", "fusion_lat": 0.0, "is_disabled": 0, "name": "98c2451186f2b6299af03fb7da39f626", "is_reserved": 0, "rental_uris": {"ios": "https://dc.lft.to/lastmile_qr_scan", "android": "https://dc.lft.to/lastmile_qr_scan"}, "lon": -77.045033, "bike_id": "98c2451186f2b6299af03fb7da39f626", "fusion_lon": 0.0}, {"lat": 38.91330933333333, "type": "electric_scooter", "fusion_lat": 0.0, "is_disabled": 0, "name": "88ba74760b8c190084b6ffdcb3b961b5", "is_reserved": 0, "rental_uris": {"ios": "https://dc.lft.to/lastmile_qr_scan", "android": "https://dc.lft.to/lastmile_qr_scan"}, "lon": -77.04537583333334, "bike_id": "88ba74760b8c190084b6ffdcb3b961b5", "fusion_lon": 0.0}, {"lat": 38.9325525, "type": "electric_scooter", "fusion_lat": 0.0, "is_disabled": 0, "name": "8e8fd2236b8a156f799c691ae60b6429", "is_reserved": 0, "rental_uris": {"ios": "https://dc.lft.to/lastmile_qr_scan", "android": "https://dc.lft.to/lastmile_qr_scan"}, "lon": -77.03280983333333, "bike_id": "8e8fd2236b8a156f799c691ae60b6429", "fusion_lon": 0.0}, {"lat": 38.8922295, "type": "electric_scooter", "fusion_lat": 0.0, "is_disabled": 0, "name": "00f33914ee2fa7a9d386cd017c20d624", "is_reserved": 0, "rental_uris": {"ios": "https://dc.lft.to/lastmile_qr_scan", "android": "https://dc.lft.to/lastmile_qr_scan"}, "lon": -77.04375133333333, "bike_id": "00f33914ee2fa7a9d386cd017c20d624", "fusion_lon": 0.0}, {"lat": 38.96031, "type": "electric_scooter", "fusion_lat": 0.0, "is_disabled": 0, "name": "002f10e0d4951d9a6ef797ef34bdd2b7", "is_reserved": 0, "rental_uris": {"ios": "https://dc.lft.to/lastmile_qr_scan", "android": "https://dc.lft.to/lastmile_qr_scan"}, "lon": -77.01980166666667, "bike_id": "002f10e0d4951d9a6ef797ef34bdd2b7", "fusion_lon": 0.0}, {"lat": 38.90248033333334, "type": "electric_scooter", "fusion_lat": 0.0, "is_disabled": 0, "name": "42b5f434eaf8b9c6019a5d1eb3c1ee51", "is_reserved": 0, "rental_uris": {"ios": "https://dc.lft.to/lastmile_qr_scan", "android": "https://dc.lft.to/lastmile_qr_scan"}, "lon": -77.04859483333334, "bike_id": "42b5f434eaf8b9c6019a5d1eb3c1ee51", "fusion_lon": 0.0}, {"lat": 38.93542083333333, "type": "electric_scooter", "fusion_lat": 0.0, "is_disabled": 0, "name": "8fb8bce7b73430fec041d9a5b467a308", "is_reserved": 0, "rental_uris": {"ios": "https://dc.lft.to/lastmile_qr_scan", "android": "https://dc.lft.to/lastmile_qr_scan"}, "lon": -77.05492, "bike_id": "8fb8bce7b73430fec041d9a5b467a308", "fusion_lon": 0.0}, {"lat": 38.928418666666666, "type": "electric_scooter", "fusion_lat": 0.0, "is_disabled": 0, "name": "af24a967e7cb9aaaecb88330c8878d1f", "is_reserved": 0, "rental_uris": {"ios": "https://dc.lft.to/lastmile_qr_scan", "android": "https://dc.lft.to/lastmile_qr_scan"}, "lon": -77.0141155, "bike_id": "af24a967e7cb9aaaecb88330c8878d1f", "fusion_lon": 0.0}, {"lat": 38.932402833333335, "type": "electric_bike", "fusion_lat": 0.0, "is_disabled": 0, "name": "e54de0f83c88dc1edafef5b0eae1d195", "is_reserved": 0, "rental_uris": {"ios": "https://dc.lft.to/lastmile_qr_scan", "android": "https://dc.lft.to/lastmile_qr_scan"}, "lon": -76.97427433333333, "bike_id": "e54de0f83c88dc1edafef5b0eae1d195", "fusion_lon": 0.0}, {"lat": 38.89888766666667, "type": "electric_scooter", "fusion_lat": 0.0, "is_disabled": 0, "name": "42d2100a9d71246477d74a954050e44e", "is_reserved": 0, "rental_uris": {"ios": "https://dc.lft.to/lastmile_qr_scan", "android": "https://dc.lft.to/lastmile_qr_scan"}, "lon": -76.9317945, "bike_id": "42d2100a9d71246477d74a954050e44e", "fusion_lon": 0.0}, {"lat": 38.867051000000004, "type": "electric_scooter", "fusion_lat": 0.0, "is_disabled": 0, "name": "ac994714bc6a8a4602c69e4d0a67cf7d", "is_reserved": 0, "rental_uris": {"ios": "https://dc.lft.to/lastmile_qr_scan", "android": "https://dc.lft.to/lastmile_qr_scan"}, "lon": -76.98710233333334, "bike_id": "ac994714bc6a8a4602c69e4d0a67cf7d", "fusion_lon": 0.0}, {"lat": 38.905013, "type": "electric_bike", "fusion_lat": 0.0, "is_disabled": 0, "name": "f2256f4c582eb7644646b54ced0c5993", "is_reserved": 0, "rental_uris": {"ios": "https://dc.lft.to/lastmile_qr_scan", "android": "https://dc.lft.to/lastmile_qr_scan"}, "lon": -77.0502385, "bike_id": "f2256f4c582eb7644646b54ced0c5993", "fusion_lon": 0.0}, {"lat": 38.8922685, "type": "electric_scooter", "fusion_lat": 0.0, "is_disabled": 0, "name": "b5101b83107b2ac5bca737d37b7f68bb", "is_reserved": 0, "rental_uris": {"ios": "https://dc.lft.to/lastmile_qr_scan", "android": "https://dc.lft.to/lastmile_qr_scan"}, "lon": -77.04378316666667, "bike_id": "b5101b83107b2ac5bca737d37b7f68bb", "fusion_lon": 0.0}, {"lat": 38.938675333333336, "type": "electric_scooter", "fusion_lat": 0.0, "is_disabled": 0, "name": "a5b40aa456169726cd9486cc425549c6", "is_reserved": 0, "rental_uris": {"ios": "https://dc.lft.to/lastmile_qr_scan", "android": "https://dc.lft.to/lastmile_qr_scan"}, "lon": -77.03204166666667, "bike_id": "a5b40aa456169726cd9486cc425549c6", "fusion_lon": 0.0}, {"lat": 38.90899316666667, "type": "electric_scooter", "fusion_lat": 0.0, "is_disabled": 0, "name": "f21fdf5828294f5d202f25f75d2500e3", "is_reserved": 0, "rental_uris": {"ios": "https://dc.lft.to/lastmile_qr_scan", "android": "https://dc.lft.to/lastmile_qr_scan"}, "lon": -76.99110083333333, "bike_id": "f21fdf5828294f5d202f25f75d2500e3", "fusion_lon": 0.0}, {"lat": 38.905274, "type": "electric_scooter", "fusion_lat": 0.0, "is_disabled": 0, "name": "114e15a5c1b588a6779a0e571d896410", "is_reserved": 0, "rental_uris": {"ios": "https://dc.lft.to/lastmile_qr_scan", "android": "https://dc.lft.to/lastmile_qr_scan"}, "lon": -77.06099166666667, "bike_id": "114e15a5c1b588a6779a0e571d896410", "fusion_lon": 0.0}, {"lat": 38.86703383333333, "type": "electric_scooter", "fusion_lat": 0.0, "is_disabled": 0, "name": "ee0267e77ea1922dc601e80e5972339a", "is_reserved": 0, "rental_uris": {"ios": "https://dc.lft.to/lastmile_qr_scan", "android": "https://dc.lft.to/lastmile_qr_scan"}, "lon": -76.9871545, "bike_id": "ee0267e77ea1922dc601e80e5972339a", "fusion_lon": 0.0}, {"lat": 38.895570666666664, "type": "electric_scooter", "fusion_lat": 0.0, "is_disabled": 0, "name": "e98d3f33c10de880dde596bb2c60559b", "is_reserved": 0, "rental_uris": {"ios": "https://dc.lft.to/lastmile_qr_scan", "android": "https://dc.lft.to/lastmile_qr_scan"}, "lon": -77.04677966666667, "bike_id": "e98d3f33c10de880dde596bb2c60559b", "fusion_lon": 0.0}, {"lat": 38.92652533333333, "type": "electric_scooter", "fusion_lat": 0.0, "is_disabled": 0, "name": "bad5e333a15462cb38f4369e8a09c5b0", "is_reserved": 0, "rental_uris": {"ios": "https://dc.lft.to/lastmile_qr_scan", "android": "https://dc.lft.to/lastmile_qr_scan"}, "lon": -77.00891733333333, "bike_id": "bad5e333a15462cb38f4369e8a09c5b0", "fusion_lon": 0.0}, {"lat": 38.88747216666667, "type": "electric_scooter", "fusion_lat": 0.0, "is_disabled": 0, "name": "56cba2559b379e00a35fe2559386f248", "is_reserved": 0, "rental_uris": {"ios": "https://dc.lft.to/lastmile_qr_scan", "android": "https://dc.lft.to/lastmile_qr_scan"}, "lon": -77.01997266666666, "bike_id": "56cba2559b379e00a35fe2559386f248", "fusion_lon": 0.0}, {"lat": 38.89892566666666, "type": "electric_scooter", "fusion_lat": 0.0, "is_disabled": 0, "name": "6f877f336ca4e840fdd672edc631929e", "is_reserved": 0, "rental_uris": {"ios": "https://dc.lft.to/lastmile_qr_scan", "android": "https://dc.lft.to/lastmile_qr_scan"}, "lon": -77.0335955, "bike_id": "6f877f336ca4e840fdd672edc631929e", "fusion_lon": 0.0}, {"lat": 38.86523583333334, "type": "electric_bike", "fusion_lat": 0.0, "is_disabled": 0, "name": "a93ab52871ae21c6d7b03f30fa41a638", "is_reserved": 0, "rental_uris": {"ios": "https://dc.lft.to/lastmile_qr_scan", "android": "https://dc.lft.to/lastmile_qr_scan"}, "lon": -76.97340883333334, "bike_id": "a93ab52871ae21c6d7b03f30fa41a638", "fusion_lon": 0.0}, {"lat": 38.866698166666666, "type": "electric_scooter", "fusion_lat": 0.0, "is_disabled": 0, "name": "71a2b9161a352a984e860fe597350cc5", "is_reserved": 0, "rental_uris": {"ios": "https://dc.lft.to/lastmile_qr_scan", "android": "https://dc.lft.to/lastmile_qr_scan"}, "lon": -76.9850305, "bike_id": "71a2b9161a352a984e860fe597350cc5", "fusion_lon": 0.0}, {"lat": 38.91706116666667, "type": "electric_scooter", "fusion_lat": 0.0, "is_disabled": 0, "name": "9391bc3d372a5083104aab250dd41588", "is_reserved": 0, "rental_uris": {"ios": "https://dc.lft.to/lastmile_qr_scan", "android": "https://dc.lft.to/lastmile_qr_scan"}, "lon": -77.028939, "bike_id": "9391bc3d372a5083104aab250dd41588", "fusion_lon": 0.0}, {"lat": 38.90914466666667, "type": "electric_scooter", "fusion_lat": 0.0, "is_disabled": 0, "name": "1cd011895f8cf77f59a6bde2f5532999", "is_reserved": 0, "rental_uris": {"ios": "https://dc.lft.to/lastmile_qr_scan", "android": "https://dc.lft.to/lastmile_qr_scan"}, "lon": -76.98561233333334, "bike_id": "1cd011895f8cf77f59a6bde2f5532999", "fusion_lon": 0.0}, {"lat": 38.922027666666665, "type": "electric_scooter", "fusion_lat": 0.0, "is_disabled": 0, "name": "22f794e440600b00e2575c1928780618", "is_reserved": 0, "rental_uris": {"ios": "https://dc.lft.to/lastmile_qr_scan", "android": "https://dc.lft.to/lastmile_qr_scan"}, "lon": -77.04238166666667, "bike_id": "22f794e440600b00e2575c1928780618", "fusion_lon": 0.0}, {"lat": 38.93251766666667, "type": "electric_scooter", "fusion_lat": 0.0, "is_disabled": 0, "name": "03192f8c8e4c39532a97a4b5b98b1576", "is_reserved": 0, "rental_uris": {"ios": "https://dc.lft.to/lastmile_qr_scan", "android": "https://dc.lft.to/lastmile_qr_scan"}, "lon": -77.03270266666667, "bike_id": "03192f8c8e4c39532a97a4b5b98b1576", "fusion_lon": 0.0}, {"lat": 38.91714566666667, "type": "electric_scooter", "fusion_lat": 0.0, "is_disabled": 0, "name": "4b091016e242c2a9e72da364b43a2ad3", "is_reserved": 0, "rental_uris": {"ios": "https://dc.lft.to/lastmile_qr_scan", "android": "https://dc.lft.to/lastmile_qr_scan"}, "lon": -77.03068766666667, "bike_id": "4b091016e242c2a9e72da364b43a2ad3", "fusion_lon": 0.0}, {"lat": 38.884318, "type": "electric_scooter", "fusion_lat": 0.0, "is_disabled": 0, "name": "379af00a3d12d2f8d5a9520750b5f38a", "is_reserved": 0, "rental_uris": {"ios": "https://dc.lft.to/lastmile_qr_scan", "android": "https://dc.lft.to/lastmile_qr_scan"}, "lon": -76.99599933333333, "bike_id": "379af00a3d12d2f8d5a9520750b5f38a", "fusion_lon": 0.0}, {"lat": 38.90155583333333, "type": "electric_scooter", "fusion_lat": 0.0, "is_disabled": 0, "name": "b44ce7175e44dc38098d65f727edb49b", "is_reserved": 0, "rental_uris": {"ios": "https://dc.lft.to/lastmile_qr_scan", "android": "https://dc.lft.to/lastmile_qr_scan"}, "lon": -77.0280445, "bike_id": "b44ce7175e44dc38098d65f727edb49b", "fusion_lon": 0.0}, {"lat": 38.901810166666664, "type": "electric_scooter", "fusion_lat": 0.0, "is_disabled": 0, "name": "a888a2b88b8b4d5e2e1c037a522f1306", "is_reserved": 0, "rental_uris": {"ios": "https://dc.lft.to/lastmile_qr_scan", "android": "https://dc.lft.to/lastmile_qr_scan"}, "lon": -77.01227333333334, "bike_id": "a888a2b88b8b4d5e2e1c037a522f1306", "fusion_lon": 0.0}, {"lat": 38.9204485, "type": "electric_bike", "fusion_lat": 0.0, "is_disabled": 0, "name": "66f59f045edd8e117fa8a8f92d0c54d3", "is_reserved": 0, "rental_uris": {"ios": "https://dc.lft.to/lastmile_qr_scan", "android": "https://dc.lft.to/lastmile_qr_scan"}, "lon": -77.0620895, "bike_id": "66f59f045edd8e117fa8a8f92d0c54d3", "fusion_lon": 0.0}, {"lat": 38.93857583333333, "type": "electric_scooter", "fusion_lat": 0.0, "is_disabled": 0, "name": "496a2125ba91e8e0e029b217af2624ea", "is_reserved": 0, "rental_uris": {"ios": "https://dc.lft.to/lastmile_qr_scan", "android": "https://dc.lft.to/lastmile_qr_scan"}, "lon": -77.02473516666667, "bike_id": "496a2125ba91e8e0e029b217af2624ea", "fusion_lon": 0.0}, {"lat": 38.912573333333334, "type": "electric_scooter", "fusion_lat": 0.0, "is_disabled": 0, "name": "f9a21f7d02c78c2bba9184fa98674580", "is_reserved": 0, "rental_uris": {"ios": "https://dc.lft.to/lastmile_qr_scan", "android": "https://dc.lft.to/lastmile_qr_scan"}, "lon": -77.02225433333334, "bike_id": "f9a21f7d02c78c2bba9184fa98674580", "fusion_lon": 0.0}, {"lat": 38.970629833333334, "type": "electric_bike", "fusion_lat": 0.0, "is_disabled": 0, "name": "f121fc7a52f88da32cb3f82b573ca1a5", "is_reserved": 0, "rental_uris": {"ios": "https://dc.lft.to/lastmile_qr_scan", "android": "https://dc.lft.to/lastmile_qr_scan"}, "lon": -76.93617666666667, "bike_id": "f121fc7a52f88da32cb3f82b573ca1a5", "fusion_lon": 0.0}, {"lat": 38.90722133333333, "type": "electric_scooter", "fusion_lat": 0.0, "is_disabled": 0, "name": "ae74478fc5b0aafe3e681c801d9232db", "is_reserved": 0, "rental_uris": {"ios": "https://dc.lft.to/lastmile_qr_scan", "android": "https://dc.lft.to/lastmile_qr_scan"}, "lon": -77.03470416666667, "bike_id": "ae74478fc5b0aafe3e681c801d9232db", "fusion_lon": 0.0}, {"lat": 38.91259, "type": "electric_scooter", "fusion_lat": 0.0, "is_disabled": 0, "name": "36061c97b28abe4f576245e53580f7a7", "is_reserved": 0, "rental_uris": {"ios": "https://dc.lft.to/lastmile_qr_scan", "android": "https://dc.lft.to/lastmile_qr_scan"}, "lon": -77.038648, "bike_id": "36061c97b28abe4f576245e53580f7a7", "fusion_lon": 0.0}, {"lat": 38.90274933333333, "type": "electric_scooter", "fusion_lat": 0.0, "is_disabled": 0, "name": "6f465145d71f77a1d0ba7356bd42f26a", "is_reserved": 0, "rental_uris": {"ios": "https://dc.lft.to/lastmile_qr_scan", "android": "https://dc.lft.to/lastmile_qr_scan"}, "lon": -77.036596, "bike_id": "6f465145d71f77a1d0ba7356bd42f26a", "fusion_lon": 0.0}, {"lat": 38.866887166666665, "type": "electric_scooter", "fusion_lat": 0.0, "is_disabled": 0, "name": "db27b3d2ba939d688626176a60e5430b", "is_reserved": 0, "rental_uris": {"ios": "https://dc.lft.to/lastmile_qr_scan", "android": "https://dc.lft.to/lastmile_qr_scan"}, "lon": -76.98528400000001, "bike_id": "db27b3d2ba939d688626176a60e5430b", "fusion_lon": 0.0}, {"lat": 38.90029766666667, "type": "electric_scooter", "fusion_lat": 0.0, "is_disabled": 0, "name": "18ced161aec587f87aba6c908ce53566", "is_reserved": 0, "rental_uris": {"ios": "https://dc.lft.to/lastmile_qr_scan", "android": "https://dc.lft.to/lastmile_qr_scan"}, "lon": -77.0132635, "bike_id": "18ced161aec587f87aba6c908ce53566", "fusion_lon": 0.0}, {"lat": 38.92882516666667, "type": "electric_scooter", "fusion_lat": 0.0, "is_disabled": 0, "name": "04f4d8ae1a442eca5f3646dc8ad004ed", "is_reserved": 0, "rental_uris": {"ios": "https://dc.lft.to/lastmile_qr_scan", "android": "https://dc.lft.to/lastmile_qr_scan"}, "lon": -77.03354266666666, "bike_id": "04f4d8ae1a442eca5f3646dc8ad004ed", "fusion_lon": 0.0}, {"lat": 38.938603666666666, "type": "electric_scooter", "fusion_lat": 0.0, "is_disabled": 0, "name": "ddd05dff2bca59be7fe1045ca45431fe", "is_reserved": 0, "rental_uris": {"ios": "https://dc.lft.to/lastmile_qr_scan", "android": "https://dc.lft.to/lastmile_qr_scan"}, "lon": -77.024685, "bike_id": "ddd05dff2bca59be7fe1045ca45431fe", "fusion_lon": 0.0}, {"lat": 38.920938, "type": "electric_scooter", "fusion_lat": 0.0, "is_disabled": 0, "name": "60f80f64826aceb8d3262ccf7db7c05d", "is_reserved": 0, "rental_uris": {"ios": "https://dc.lft.to/lastmile_qr_scan", "android": "https://dc.lft.to/lastmile_qr_scan"}, "lon": -77.04369666666666, "bike_id": "60f80f64826aceb8d3262ccf7db7c05d", "fusion_lon": 0.0}, {"lat": 38.94203666666667, "type": "electric_scooter", "fusion_lat": 0.0, "is_disabled": 0, "name": "2c87ae7e12b8db66a279a8b11ec5443a", "is_reserved": 0, "rental_uris": {"ios": "https://dc.lft.to/lastmile_qr_scan", "android": "https://dc.lft.to/lastmile_qr_scan"}, "lon": -77.02593533333334, "bike_id": "2c87ae7e12b8db66a279a8b11ec5443a", "fusion_lon": 0.0},