{"data": {"bikes": [{"fusion_lon": 0.0, "lat": 38.914069, "lon": -77.00452783333333, "bike_id": "e21f0921f1808407ac8906abdf58f09d", "rental_uris": {"android": "https://dc.lft.to/lastmile_qr_scan", "ios": "https://dc.lft.to/lastmile_qr_scan"}, "fusion_lat": 0.0, "name": "e21f0921f1808407ac8906abdf58f09d", "is_reserved": 0, "is_disabled": 0, "type": "electric_scooter"}, {"fusion_lon": 0.0, "lat": 38.90859916666667, "lon": -77.08074233333333, "bike_id": "d337e35830de6dac7852e6cd3e40848d", "rental_uris": {"android": "https://dc.lft.to/lastmile_qr_scan", "ios": "https://dc.lft.to/lastmile_qr_scan"}, "fusion_lat": 0.0, "name": "d337e35830de6dac7852e6cd3e40848d", "is_reserved": 0, "is_disabled": 0, "type": "electric_bike"}, {"fusion_lon": 0.0, "lat": 38.92460966666667, "lon": -77.02715783333333, "bike_id": "1063231e62c7531edc83360e67f17379", "rental_uris": {"android": "https://dc.lft.to/lastmile_qr_scan", "ios": "https://dc.lft.to/lastmile_qr_scan"}, "fusion_lat": 0.0, "name": "1063231e62c7531edc83360e67f17379", "is_reserved": 0, "is_disabled": 0, "type": "electric_scooter"}, {"fusion_lon": 0.0, "lat": 38.92227583333333, "lon": -77.04308616666667, "bike_id": "8b5b89b4484c6a91dc288eb97f915bdf", "rental_uris": {"android": "https://dc.lft.to/lastmile_qr_scan", "ios": "https://dc.lft.to/lastmile_qr_scan"}, "fusion_lat": 0.0, "name": "8b5b89b4484c6a91dc288eb97f915bdf", "is_reserved": 0, "is_disabled": 0, "type": "electric_scooter"}, {"fusion_lon": 0.0, "lat": 38.91689683333333, "lon": -77.02953116666667, "bike_id": "78bf37213d430f17a0478292423814c0", "rental_uris": {"android": "https://dc.lft.to/lastmile_qr_scan", "ios": "https://dc.lft.to/lastmile_qr_scan"}, "fusion_lat": 0.0, "name": "78bf37213d430f17a0478292423814c0", "is_reserved": 0, "is_disabled": 0, "type": "electric_scooter"}, {"fusion_lon": 0.0, "lat": 38.9077785, "lon": -77.01830183333334, "bike_id": "684c94740e6b8ec440ad02f85aaaf974", "rental_uris": {"android": "https://dc.lft.to/lastmile_qr_scan", "ios": "https://dc.lft.to/lastmile_qr_scan"}, "fusion_lat": 0.0, "name": "684c94740e6b8ec440ad02f85aaaf974", "is_reserved": 0, "is_disabled": 0, "type": "electric_scooter"}, {"fusion_lon": 0.0, "lat": 38.89749316666666, "lon": -77.009371, "bike_id": "4b15c93683e90970f7b8a35b32e6e66c", "rental_uris": {"android": "https://dc.lft.to/lastmile_qr_scan", "ios": "https://dc.lft.to/lastmile_qr_scan"}, "fusion_lat": 0.0, "name": "4b15c93683e90970f7b8a35b32e6e66c", "is_reserved": 0, "is_disabled": 0, "type": "electric_scooter"}, {"fusion_lon": 0.0, "lat": 38.9183085, "lon": -77.05320783333333, "bike_id": "e1b4950fed3d20d7ad0289d584f98649", "rental_uris": {"android": "https://dc.lft.to/lastmile_qr_scan", "ios": "https://dc.lft.to/lastmile_qr_scan"}, "fusion_lat": 0.0, "name": "e1b4950fed3d20d7ad0289d584f98649", "is_reserved": 0, "is_disabled": 0, "type": "electric_scooter"}, {"fusion_lon": 0.0, "lat": 38.90558866666667, "lon": -77.04206166666667, "bike_id": "806f313a75d245608d1e16e295c72712", "rental_uris": {"android": "https://dc.lft.to/lastmile_qr_scan", "ios": "https://dc.lft.to/lastmile_qr_scan"}, "fusion_lat": 0.0, "name": "806f313a75d245608d1e16e295c72712", "is_reserved": 0, "is_disabled": 0, "type": "electric_scooter"}, {"fusion_lon": 0.0, "lat": 38.898979, "lon": -76.98832083333333, "bike_id": "dbf2dfc9c01917606fa42ca8728346c2", "rental_uris": {"android": "https://dc.lft.to/lastmile_qr_scan", "ios": "https://dc.lft.to/lastmile_qr_scan"}, "fusion_lat": 0.0, "name": "dbf2dfc9c01917606fa42ca8728346c2", "is_reserved": 0, "is_disabled": 0, "type": "electric_scooter"}, {"fusion_lon": 0.0, "lat": 38.89972733333333, "lon": -77.0420005, "bike_id": "87d5963b452b5f968bb8160acce9675d", "rental_uris": {"android": "https://dc.lft.to/lastmile_qr_scan", "ios": "https://dc.lft.to/lastmile_qr_scan"}, "fusion_lat": 0.0, "name": "87d5963b452b5f968bb8160acce9675d", "is_reserved": 0, "is_disabled": 0, "type": "electric_scooter"}, {"fusion_lon": 0.0, "lat": 38.91239683333333, "lon": -77.00129666666666, "bike_id": "d5e5b8bc8a7c1d8203ceb15e990b1732", "rental_uris": {"android": "https://dc.lft.to/lastmile_qr_scan", "ios": "https://dc.lft.to/lastmile_qr_scan"}, "fusion_lat": 0.0, "name": "d5e5b8bc8a7c1d8203ceb15e990b1732", "is_reserved": 0, "is_disabled": 0, "type": "electric_scooter"}, {"fusion_lon": 0.0, "lat": 38.89221666666667, "lon": -77.04135566666666, "bike_id": "49f960e5937bf83872728b4a04f450d6", "rental_uris": {"android": "https://dc.lft.to/lastmile_qr_scan", "ios": "https://dc.lft.to/lastmile_qr_scan"}, "fusion_lat": 0.0, "name": "49f960e5937bf83872728b4a04f450d6", "is_reserved": 0, "is_disabled": 0, "type": "electric_scooter"}, {"fusion_lon": 0.0, "lat": 38.9094855, "lon": -77.023938, "bike_id": "e9cafc2e3831714616b33442c86cd61e", "rental_uris": {"android": "https://dc.lft.to/lastmile_qr_scan", "ios": "https://dc.lft.to/lastmile_qr_scan"}, "fusion_lat": 0.0, "name": "e9cafc2e3831714616b33442c86cd61e", "is_reserved": 0, "is_disabled": 0, "type": "electric_scooter"}, {"fusion_lon": 0.0, "lat": 38.901811333333335, "lon": -77.03664733333333, "bike_id": "c13ab27383989fd6aba2537fdbca9ef3", "rental_uris": {"android": "https://dc.lft.to/lastmile_qr_scan", "ios": "https://dc.lft.to/lastmile_qr_scan"}, "fusion_lat": 0.0, "name": "c13ab27383989fd6aba2537fdbca9ef3", "is_reserved": 0, "is_disabled": 0, "type": "electric_scooter"}, {"fusion_lon": 0.0, "lat": 38.900175, "lon": -77.04382983333333, "bike_id": "e42e42d8fa9ae12cda5fc32fc286f058", "rental_uris": {"android": "https://dc.lft.to/lastmile_qr_scan", "ios": "https://dc.lft.to/lastmile_qr_scan"}, "fusion_lat": 0.0, "name": "e42e42d8fa9ae12cda5fc32fc286f058", "is_reserved": 0, "is_disabled": 0, "type": "electric_scooter"}, {"fusion_lon": 0.0, "lat": 38.919723166666664, "lon": -77.02760733333334, "bike_id": "2394022fa999838ffe601570cc297de4", "rental_uris": {"android": "https://dc.lft.to/lastmile_qr_scan", "ios": "https://dc.lft.to/lastmile_qr_scan"}, "fusion_lat": 0.0, "name": "2394022fa999838ffe601570cc297de4", "is_reserved": 0, "is_disabled": 0, "type": "electric_scooter"}, {"fusion_lon": 0.0, "lat": 38.907850833333335, "lon": -77.01081533333333, "bike_id": "3bf80ba2958d44cf971e083cf87a8163", "rental_uris": {"android": "https://dc.lft.to/lastmile_qr_scan", "ios": "https://dc.lft.to/lastmile_qr_scan"}, "fusion_lat": 0.0, "name": "3bf80ba2958d44cf971e083cf87a8163", "is_reserved": 0, "is_disabled": 0, "type": "electric_scooter"}, {"fusion_lon": 0.0, "lat": 38.9232385, "lon": -77.04409566666666, "bike_id": "0403105c5ac11be37160156c4e4ff321", "rental_uris": {"android": "https://dc.lft.to/lastmile_qr_scan", "ios": "https://dc.lft.to/lastmile_qr_scan"}, "fusion_lat": 0.0, "name": "0403105c5ac11be37160156c4e4ff321", "is_reserved": 0, "is_disabled": 0, "type": "electric_scooter"}, {"fusion_lon": 0.0, "lat": 38.9054975, "lon": -77.047674, "bike_id": "9d9d8d811bd729191f484191afd3a9ea", "rental_uris": {"android": "https://dc.lft.to/lastmile_qr_scan", "ios": "https://dc.lft.to/lastmile_qr_scan"}, "fusion_lat": 0.0, "name": "9d9d8d811bd729191f484191afd3a9ea", "is_reserved": 0, "is_disabled": 0, "type": "electric_scooter"}, {"fusion_lon": 0.0, "lat": 38.89468033333333, "lon": -77.02027716666667, "bike_id": "4c9e19c27693e03d934048eac63e95d8", "rental_uris": {"android": "https://dc.lft.to/lastmile_qr_scan", "ios": "https://dc.lft.to/lastmile_qr_scan"}, "fusion_lat": 0.0, "name": "4c9e19c27693e03d934048eac63e95d8", "is_reserved": 0, "is_disabled": 0, "type": "electric_scooter"}, {"fusion_lon": 0.0, "lat": 38.905713166666665, "lon": -77.03492416666667, "bike_id": "bc6fb2befe0115048486c15850b5afa6", "rental_uris": {"android": "https://dc.lft.to/lastmile_qr_scan", "ios": "https://dc.lft.to/lastmile_qr_scan"}, "fusion_lat": 0.0, "name": "bc6fb2befe0115048486c15850b5afa6", "is_reserved": 0, "is_disabled": 0, "type": "electric_scooter"}, {"fusion_lon": 0.0, "lat": 38.9072035, "lon": -77.04084566666667, "bike_id": "c48a33e717231807e8ba7701047c1b09", "rental_uris": {"android": "https://dc.lft.to/lastmile_qr_scan", "ios": "https://dc.lft.to/lastmile_qr_scan"}, "fusion_lat": 0.0, "name": "c48a33e717231807e8ba7701047c1b09", "is_reserved": 0, "is_disabled": 0, "type": "electric_scooter"}, {"fusion_lon": 0.0, "lat": 38.8957065, "lon": -76.9941325, "bike_id": "0c3cddfd3a9547222065a5833472d526", "rental_uris": {"android": "https://dc.lft.to/lastmile_qr_scan", "ios": "https://dc.lft.to/lastmile_qr_scan"}, "fusion_lat": 0.0, "name": "0c3cddfd3a9547222065a5833472d526", "is_reserved": 0, "is_disabled": 0, "type": "electric_scooter"}, {"fusion_lon": 0.0, "lat": 38.929032, "lon": -77.03256283333333, "bike_id": "4f1c2879d19cf2df3a30b138541f6334", "rental_uris": {"android": "https://dc.lft.to/lastmile_qr_scan", "ios": "https://dc.lft.to/lastmile_qr_scan"}, "fusion_lat": 0.0, "name": "4f1c2879d19cf2df3a30b138541f6334", "is_reserved": 0, "is_disabled": 0, "type": "electric_scooter"}, {"fusion_lon": 0.0, "lat": 38.90033533333333, "lon": -76.99847116666666, "bike_id": "f9b147634ec1203474948b1442d164ab", "rental_uris": {"android": "https://dc.lft.to/lastmile_qr_scan", "ios": "https://dc.lft.to/lastmile_qr_scan"}, "fusion_lat": 0.0, "name": "f9b147634ec1203474948b1442d164ab", "is_reserved": 0, "is_disabled": 0, "type": "electric_scooter"}, {"fusion_lon": 0.0, "lat": 38.924152666666664, "lon": -77.01954916666666, "bike_id": "de1a8a706b9356be014d7bf5c0a629dc", "rental_uris": {"android": "https://dc.lft.to/lastmile_qr_scan", "ios": "https://dc.lft.to/lastmile_qr_scan"}, "fusion_lat": 0.0, "name": "de1a8a706b9356be014d7bf5c0a629dc", "is_reserved": 0, "is_disabled": 0, "type": "electric_scooter"}, {"fusion_lon": 0.0, "lat": 38.92487066666666, "lon": -77.03934716666667, "bike_id": "ad8034b915ab7a6fd496b96e92b21a27", "rental_uris": {"android": "https://dc.lft.to/lastmile_qr_scan", "ios": "https://dc.lft.to/lastmile_qr_scan"}, "fusion_lat": 0.0, "name": "ad8034b915ab7a6fd496b96e92b21a27", "is_reserved": 0, "is_disabled": 0, "type": "electric_scooter"}, {"fusion_lon": 0.0, "lat": 38.90149, "lon": -76.98076183333333, "bike_id": "ab9ef06ff831a8d7b422829687b59062", "rental_uris": {"android": "https://dc.lft.to/lastmile_qr_scan", "ios": "https://dc.lft.to/lastmile_qr_scan"}, "fusion_lat": 0.0, "name": "ab9ef06ff831a8d7b422829687b59062", "is_reserved": 0, "is_disabled": 0, "type": "electric_scooter"}, {"fusion_lon": 0.0, "lat": 38.927857333333336, "lon": -76.99631583333333, "bike_id": "07b9bcabf673d5ac156df5b85d5f2893", "rental_uris": {"android": "https://dc.lft.to/lastmile_qr_scan", "ios": "https://dc.lft.to/lastmile_qr_scan"}, "fusion_lat": 0.0, "name": "07b9bcabf673d5ac156df5b85d5f2893", "is_reserved": 0, "is_disabled": 0, "type": "electric_scooter"}, {"fusion_lon": 0.0, "lat": 38.897101166666666, "lon": -76.99119566666667, "bike_id": "61a48d878deb78a5ce89913672cc7284", "rental_uris": {"android": "https://dc.lft.to/lastmile_qr_scan", "ios": "https://dc.lft.to/lastmile_qr_scan"}, "fusion_lat": 0.0, "name": "61a48d878deb78a5ce89913672cc7284", "is_reserved": 0, "is_disabled": 0, "type": "electric_scooter"}, {"fusion_lon": 0.0, "lat": 38.903947333333335, "lon": -77.00430316666667, "bike_id": "48b6338851b27d23599521fd02658b51", "rental_uris": {"android": "https://dc.lft.to/lastmile_qr_scan", "ios": "https://dc.lft.to/lastmile_qr_scan"}, "fusion_lat": 0.0, "name": "48b6338851b27d23599521fd02658b51", "is_reserved": 0, "is_disabled": 0, "type": "electric_scooter"}, {"fusion_lon": 0.0, "lat": 38.87038016666666, "lon": -77.22912283333334, "bike_id": "e14d7d80d7e7c02255f7f12ec3a3c678", "rental_uris": {"android": "https://dc.lft.to/lastmile_qr_scan", "ios": "https://dc.lft.to/lastmile_qr_scan"}, "fusion_lat": 0.0, "name": "e14d7d80d7e7c02255f7f12ec3a3c678", "is_reserved": 0, "is_disabled": 0, "type": "electric_bike"}, {"fusion_lon": 0.0, "lat": 38.922788, "lon": -77.02122183333333, "bike_id": "95d424603a1c24288f07c03a28ca9691", "rental_uris": {"android": "https://dc.lft.to/lastmile_qr_scan", "ios": "https://dc.lft.to/lastmile_qr_scan"}, "fusion_lat": 0.0, "name": "95d424603a1c24288f07c03a28ca9691", "is_reserved": 0, "is_disabled": 0, "type": "electric_scooter"}, {"fusion_lon": 0.0, "lat": 38.92759783333333, "lon": -77.03206716666666, "bike_id": "e5ca51ca955f46eb5534b3238c809ef9", "rental_uris": {"android": "https://dc.lft.to/lastmile_qr_scan", "ios": "https://dc.lft.to/lastmile_qr_scan"}, "fusion_lat": 0.0, "name": "e5ca51ca955f46eb5534b3238c809ef9", "is_reserved": 0, "is_disabled": 0, "type": "electric_scooter"}, {"fusion_lon": 0.0, "lat": 38.919572, "lon": -77.01891616666667, "bike_id": "bd3bf7c99c33104689f3445cc29f92fe", "rental_uris": {"android": "https://dc.lft.to/lastmile_qr_scan", "ios": "https://dc.lft.to/lastmile_qr_scan"}, "fusion_lat": 0.0, "name": "bd3bf7c99c33104689f3445cc29f92fe", "is_reserved": 0, "is_disabled": 0, "type": "electric_scooter"}, {"fusion_lon": 0.0, "lat": 38.90443916666667, "lon": -77.03651766666667, "bike_id": "c23336f437b3df298ab5434a51b58fcf", "rental_uris": {"android": "https://dc.lft.to/lastmile_qr_scan", "ios": "https://dc.lft.to/lastmile_qr_scan"}, "fusion_lat": 0.0, "name": "c23336f437b3df298ab5434a51b58fcf", "is_reserved": 0, "is_disabled": 0, "type": "electric_scooter"}, {"fusion_lon": 0.0, "lat": 38.90908266666667, "lon": -77.03186716666667, "bike_id": "7bc1664e58f43c47241644e3a3492d24", "rental_uris": {"android": "https://dc.lft.to/lastmile_qr_scan", "ios": "https://dc.lft.to/lastmile_qr_scan"}, "fusion_lat": 0.0, "name": "7bc1664e58f43c47241644e3a3492d24", "is_reserved": 0, "is_disabled": 0, "type": "electric_scooter"}, {"fusion_lon": 0.0, "lat": 38.932371, "lon": -77.03283983333333, "bike_id": "a5dd31f42c19713cec3b5bcaef98f27b", "rental_uris": {"android": "https://dc.lft.to/lastmile_qr_scan", "ios": "https://dc.lft.to/lastmile_qr_scan"}, "fusion_lat": 0.0, "name": "a5dd31f42c19713cec3b5bcaef98f27b", "is_reserved": 0, "is_disabled": 0, "type": "electric_scooter"}, {"fusion_lon": 0.0, "lat": 38.9004475, "lon": -76.98833116666667, "bike_id": "ceea6a88a4f9886a556f680557ee24ab", "rental_uris": {"android": "https://dc.lft.to/lastmile_qr_scan", "ios": "https://dc.lft.to/lastmile_qr_scan"}, "fusion_lat": 0.0, "name": "ceea6a88a4f9886a556f680557ee24ab", "is_reserved": 0, "is_disabled": 0, "type": "electric_scooter"}, {"fusion_lon": 0.0, "lat": 38.92024833333333, "lon": -77.0313535, "bike_id": "5d69d99ad5e68f5d2f721a600c9b709c", "rental_uris": {"android": "https://dc.lft.to/lastmile_qr_scan", "ios": "https://dc.lft.to/lastmile_qr_scan"}, "fusion_lat": 0.0, "name": "5d69d99ad5e68f5d2f721a600c9b709c", "is_reserved": 0, "is_disabled": 0, "type": "electric_scooter"}, {"fusion_lon": 0.0, "lat": 38.92340983333333, "lon": -77.01904666666667, "bike_id": "9652adecc90a0e39bb00b5e0387393cc", "rental_uris": {"android": "https://dc.lft.to/lastmile_qr_scan", "ios": "https://dc.lft.to/lastmile_qr_scan"}, "fusion_lat": 0.0, "name": "9652adecc90a0e39bb00b5e0387393cc", "is_reserved": 0, "is_disabled": 0, "type": "electric_scooter"}, {"fusion_lon": 0.0, "lat": 38.926894, "lon": -77.01475833333333, "bike_id": "1c73c923bcf413b91bf7ce4b3280b88b", "rental_uris": {"android": "https://dc.lft.to/lastmile_qr_scan", "ios": "https://dc.lft.to/lastmile_qr_scan"}, "fusion_lat": 0.0, "name": "1c73c923bcf413b91bf7ce4b3280b88b", "is_reserved": 0, "is_disabled": 0, "type": "electric_scooter"}, {"fusion_lon": 0.0, "lat": 38.901148666666664, "lon": -77.04361133333333, "bike_id": "24afe84189b29a1358dbc90a45eb0c24", "rental_uris": {"android": "https://dc.lft.to/lastmile_qr_scan", "ios": "https://dc.lft.to/lastmile_qr_scan"}, "fusion_lat": 0.0, "name": "24afe84189b29a1358dbc90a45eb0c24", "is_reserved": 0, "is_disabled": 0, "type": "electric_scooter"}, {"fusion_lon": 0.0, "lat": 38.904765, "lon": -77.00577633333333, "bike_id": "4c13f286921cc8ca851efc20515b52a7", "rental_uris": {"android": "https://dc.lft.to/lastmile_qr_scan", "ios": "https://dc.lft.to/lastmile_qr_scan"}, "fusion_lat": 0.0, "name": "4c13f286921cc8ca851efc20515b52a7", "is_reserved": 0, "is_disabled": 0, "type": "electric_scooter"}, {"fusion_lon": 0.0, "lat": 38.92411383333334, "lon": -77.020149, "bike_id": "f16b1bbe2b804308bb0a12fb1e3e79c5", "rental_uris": {"android": "https://dc.lft.to/lastmile_qr_scan", "ios": "https://dc.lft.to/lastmile_qr_scan"}, "fusion_lat": 0.0, "name": "f16b1bbe2b804308bb0a12fb1e3e79c5", "is_reserved": 0, "is_disabled": 0, "type": "electric_scooter"}, {"fusion_lon": 0.0, "lat": 38.902361166666665, "lon": -77.05921033333334, "bike_id": "f61dd5c94b0adb9f3eb5cb6afff4649e", "rental_uris": {"android": "https://dc.lft.to/lastmile_qr_scan", "ios": "https://dc.lft.to/lastmile_qr_scan"}, "fusion_lat": 0.0, "name": "f61dd5c94b0adb9f3eb5cb6afff4649e", "is_reserved": 0, "is_disabled": 0, "type": "electric_scooter"}, {"fusion_lon": 0.0, "lat": 38.90564783333333, "lon": -77.034301, "bike_id": "3188e1e1cb85280942fffdf40936b4eb", "rental_uris": {"android": "https://dc.lft.to/lastmile_qr_scan", "ios": "https://dc.lft.to/lastmile_qr_scan"}, "fusion_lat": 0.0, "name": "3188e1e1cb85280942fffdf40936b4eb", "is_reserved": 0, "is_disabled": 0, "type": "electric_scooter"}, {"fusion_lon": 0.0, "lat": 38.92457616666667, "lon": -77.04203116666666, "bike_id": "2fa9115b86aec686dd8607892e13111e", "rental_uris": {"android": "https://dc.lft.to/lastmile_qr_scan", "ios": "https://dc.lft.to/lastmile_qr_scan"}, "fusion_lat": 0.0, "name": "2fa9115b86aec686dd8607892e13111e", "is_reserved": 0, "is_disabled": 0, "type": "electric_scooter"}, {"fusion_lon": 0.0, "lat": 38.941908833333336, "lon": -77.02480816666667, "bike_id": "309b0ce0059e3973c5395b10b9c25a2d", "rental_uris": {"android": "https://dc.lft.to/lastmile_qr_scan", "ios": "https://dc.lft.to/lastmile_qr_scan"}, "fusion_lat": 0.0, "name": "309b0ce0059e3973c5395b10b9c25a2d", "is_reserved": 0, "is_disabled": 0, "type": "electric_scooter"}, {"fusion_lon": 0.0, "lat": 38.92408266666666, "lon": -77.02715483333333, "bike_id": "46ea43d468b1827bd48a3be4d35459ec", "rental_uris": {"android": "https://dc.lft.to/lastmile_qr_scan", "ios": "https://dc.lft.to/lastmile_qr_scan"}, "fusion_lat": 0.0, "name": "46ea43d468b1827bd48a3be4d35459ec", "is_reserved": 0, "is_disabled": 0, "type": "electric_scooter"}, {"fusion_lon": 0.0, "lat": 38.901278166666664, "lon": -77.02195783333333, "bike_id": "227273214e3264b4a50b89eeb56bf06b", "rental_uris": {"android": "https://dc.lft.to/lastmile_qr_scan", "ios": "https://dc.lft.to/lastmile_qr_scan"}, "fusion_lat": 0.0, "name": "227273214e3264b4a50b89eeb56bf06b", "is_reserved": 0, "is_disabled": 0, "type": "electric_scooter"}, {"fusion_lon": 0.0, "lat": 38.90427866666667, "lon": -77.02609166666667, "bike_id": "b2711b9168cd6fc9577db19a7c86a23a", "rental_uris": {"android": "https://dc.lft.to/lastmile_qr_scan", "ios": "https://dc.lft.to/lastmile_qr_scan"}, "fusion_lat": 0.0, "name": "b2711b9168cd6fc9577db19a7c86a23a", "is_reserved": 0, "is_disabled": 0, "type": "electric_scooter"}, {"fusion_lon": 0.0, "lat": 38.93446183333333, "lon": -77.08971283333334, "bike_id": "1fe24bdfa9f488b7a26929c3b03d49e5", "rental_uris": {"android": "https://dc.lft.to/lastmile_qr_scan", "ios": "https://dc.lft.to/lastmile_qr_scan"}, "fusion_lat": 0.0, "name": "1fe24bdfa9f488b7a26929c3b03d49e5", "is_reserved": 0, "is_disabled": 0, "type": "electric_scooter"}, {"fusion_lon": 0.0, "lat": 38.918593, "lon": -77.031923, "bike_id": "c050c78f913c740db8c89aa7e4ebe140", "rental_uris": {"android": "https://dc.lft.to/lastmile_qr_scan", "ios": "https://dc.lft.to/lastmile_qr_scan"}, "fusion_lat": 0.0, "name": "c050c78f913c740db8c89aa7e4ebe140", "is_reserved": 0, "is_disabled": 0, "type": "electric_scooter"}, {"fusion_lon": 0.0, "lat": 38.973237833333336, "lon": -77.026935, "bike_id": "883a2835df2d3f166f6c865f7e0d92ae", "rental_uris": {"android": "https://dc.lft.to/lastmile_qr_scan", "ios": "https://dc.lft.to/lastmile_qr_scan"}, "fusion_lat": 0.0, "name": "883a2835df2d3f166f6c865f7e0d92ae", "is_reserved": 0, "is_disabled": 0, "type": "electric_scooter"}, {"fusion_lon": 0.0, "lat": 38.93631383333334, "lon": -77.064357, "bike_id": "704e22aef31b061972e43d5bc64684a9", "rental_uris": {"android": "https://dc.lft.to/lastmile_qr_scan", "ios": "https://dc.lft.to/lastmile_qr_scan"}, "fusion_lat": 0.0, "name": "704e22aef31b061972e43d5bc64684a9", "is_reserved": 0, "is_disabled": 0, "type": "electric_scooter"}, {"fusion_lon": 0.0, "lat": 38.90253, "lon": -77.02658183333334, "bike_id": "c4bc8212e894ded25b4b8d7893bd36f6", "rental_uris": {"android": "https://dc.lft.to/lastmile_qr_scan", "ios": "https://dc.lft.to/lastmile_qr_scan"}, "fusion_lat": 0.0, "name": "c4bc8212e894ded25b4b8d7893bd36f6", "is_reserved": 0, "is_disabled": 0, "type": "electric_scooter"}, {"fusion_lon": 0.0, "lat": 38.9244415, "lon": -77.02150216666666, "bike_id": "17511b6744899c04c95f8ea2aa7b97c8", "rental_uris": {"android": "https://dc.lft.to/lastmile_qr_scan", "ios": "https://dc.lft.to/lastmile_qr_scan"}, "fusion_lat": 0.0, "name": "17511b6744899c04c95f8ea2aa7b97c8", "is_reserved": 0, "is_disabled": 0, "type": "electric_scooter"}, {"fusion_lon": 0.0, "lat": 38.915551666666666, "lon": -77.03241716666666, "bike_id": "d8e3a2b15ff5b8044a4340f6c32989c6", "rental_uris": {"android": "https://dc.lft.to/lastmile_qr_scan", "ios": "https://dc.lft.to/lastmile_qr_scan"}, "fusion_lat": 0.0, "name": "d8e3a2b15ff5b8044a4340f6c32989c6", "is_reserved": 0, "is_disabled": 0, "type": "electric_scooter"}, {"fusion_lon": 0.0, "lat": 38.89960716666667, "lon": -77.04507883333333, "bike_id": "f9ddd0043661b5be23e9340a808710ed", "rental_uris": {"android": "https://dc.lft.to/lastmile_qr_scan", "ios": "https://dc.lft.to/lastmile_qr_scan"}, "fusion_lat": 0.0, "name": "f9ddd0043661b5be23e9340a808710ed", "is_reserved": 0, "is_disabled": 0, "type": "electric_scooter"}, {"fusion_lon": 0.0, "lat": 38.909834833333335, "lon": -77.04266216666667, "bike_id": "857d3690b4e86f9c8c5927eb40ff876d", "rental_uris": {"android": "https://dc.lft.to/lastmile_qr_scan", "ios": "https://dc.lft.to/lastmile_qr_scan"}, "fusion_lat": 0.0, "name": "857d3690b4e86f9c8c5927eb40ff876d", "is_reserved": 0, "is_disabled": 0, "type": "electric_scooter"}, {"fusion_lon": 0.0, "lat": 38.923694166666664, "lon": -77.01914133333334, "bike_id": "a8f004a57d2d0b75e0aa6cf06c9248c7", "rental_uris": {"android": "https://dc.lft.to/lastmile_qr_scan", "ios": "https://dc.lft.to/lastmile_qr_scan"}, "fusion_lat": 0.0, "name": "a8f004a57d2d0b75e0aa6cf06c9248c7", "is_reserved": 0, "is_disabled": 0, "type": "electric_scooter"}, {"fusion_lon": 0.0, "lat": 38.8975185, "lon": -77.028682, "bike_id": "0ffabd2ae62e08d19c7078744ae29263", "rental_uris": {"android": "https://dc.lft.to/lastmile_qr_scan", "ios": "https://dc.lft.to/lastmile_qr_scan"}, "fusion_lat": 0.0, "name": "0ffabd2ae62e08d19c7078744ae29263", "is_reserved": 0, "is_disabled": 0, "type": "electric_scooter"}, {"fusion_lon": 0.0, "lat": 38.989427, "lon": -77.101047, "bike_id": "34004ccf8b33f3a0da56045353074ba8", "rental_uris": {"android": "https://dc.lft.to/lastmile_qr_scan", "ios": "https://dc.lft.to/lastmile_qr_scan"}, "fusion_lat": 0.0, "name": "34004ccf8b33f3a0da56045353074ba8", "is_reserved": 0, "is_disabled": 0, "type": "electric_bike"}, {"fusion_lon": 0.0, "lat": 38.900687833333336, "lon": -77.05019666666666, "bike_id": "0fc937b7c9aa1a4c06f3e060c727f8a8", "rental_uris": {"android": "https://dc.lft.to/lastmile_qr_scan", "ios": "https://dc.lft.to/lastmile_qr_scan"}, "fusion_lat": 0.0, "name": "0fc937b7c9aa1a4c06f3e060c727f8a8", "is_reserved": 0, "is_disabled": 0, "type": "electric_scooter"}, {"fusion_lon": 0.0, "lat": 38.878045166666666, "lon": -76.98824183333333, "bike_id": "b90fd163063d85276090f7db5790ee33", "rental_uris": {"android": "https://dc.lft.to/lastmile_qr_scan", "ios": "https://dc.lft.to/lastmile_qr_scan"}, "fusion_lat": 0.0, "name": "b90fd163063d85276090f7db5790ee33", "is_reserved": 0, "is_disabled": 0, "type": "electric_scooter"}, {"fusion_lon": 0.0, "lat": 38.95540716666667, "lon": -77.06944183333333, "bike_id": "dfb9cbc03fd2074f228e764024bc4f5b", "rental_uris": {"android": "https://dc.lft.to/lastmile_qr_scan", "ios": "https://dc.lft.to/lastmile_qr_scan"}, "fusion_lat": 0.0, "name": "dfb9cbc03fd2074f228e764024bc4f5b", "is_reserved": 0, "is_disabled": 0, "type": "electric_bike"}, {"fusion_lon": 0.0, "lat": 38.92236833333333, "lon": -77.03663466666667, "bike_id": "f88b63b6dd2712bd36dbb5ac88b35d8c", "rental_uris": {"android": "https://dc.lft.to/lastmile_qr_scan", "ios": "https://dc.lft.to/lastmile_qr_scan"}, "fusion_lat": 0.0, "name": "f88b63b6dd2712bd36dbb5ac88b35d8c", "is_reserved": 0, "is_disabled": 0, "type": "electric_scooter"}, {"fusion_lon": 0.0, "lat": 38.934048, "lon": -77.045502, "bike_id": "0a6d05e481d5a71deb481dafc3f5b35c", "rental_uris": {"android": "https://dc.lft.to/lastmile_qr_scan", "ios": "https://dc.lft.to/lastmile_qr_scan"}, "fusion_lat": 0.0, "name": "0a6d05e481d5a71deb481dafc3f5b35c", "is_reserved": 0, "is_disabled": 0, "type": "electric_scooter"}, {"fusion_lon": 0.0, "lat": 38.88497, "lon": -77.002286, "bike_id": "49a6c0e3a0424837871919df920e3554", "rental_uris": {"android": "https://dc.lft.to/lastmile_qr_scan", "ios": "https://dc.lft.to/lastmile_qr_scan"}, "fusion_lat": 0.0, "name": "49a6c0e3a0424837871919df920e3554", "is_reserved": 0, "is_disabled": 0, "type": "electric_scooter"}, {"fusion_lon": 0.0, "lat": 38.90798866666667, "lon": -77.03190116666667, "bike_id": "65feaa0a4b92bd2b9b02b271da67f695", "rental_uris": {"android": "https://dc.lft.to/lastmile_qr_scan", "ios": "https://dc.lft.to/lastmile_qr_scan"}, "fusion_lat": 0.0, "name": "65feaa0a4b92bd2b9b02b271da67f695", "is_reserved": 0, "is_disabled": 0, "type": "electric_scooter"}, {"fusion_lon": 0.0, "lat": 38.917268666666665, "lon": -77.03209866666667, "bike_id": "2723a1d2afda7fd93090e98da692814d", "rental_uris": {"android": "https://dc.lft.to/lastmile_qr_scan", "ios": "https://dc.lft.to/lastmile_qr_scan"}, "fusion_lat": 0.0, "name": "2723a1d2afda7fd93090e98da692814d", "is_reserved": 0, "is_disabled": 0, "type": "electric_scooter"}, {"fusion_lon": 0.0, "lat": 38.902074666666664, "lon": -77.033743, "bike_id": "727a4c1126fbe46b6c75c9d56191a999", "rental_uris": {"android": "https://dc.lft.to/lastmile_qr_scan", "ios": "https://dc.lft.to/lastmile_qr_scan"}, "fusion_lat": 0.0, "name": "727a4c1126fbe46b6c75c9d56191a999", "is_reserved": 0, "is_disabled": 0, "type": "electric_scooter"}, {"fusion_lon": 0.0, "lat": 38.922470833333335, "lon": -77.0193955, "bike_id": "5e2da7e053cc6d3eae3ad8d79f1f89ab", "rental_uris": {"android": "https://dc.lft.to/lastmile_qr_scan", "ios": "https://dc.lft.to/lastmile_qr_scan"}, "fusion_lat": 0.0, "name": "5e2da7e053cc6d3eae3ad8d79f1f89ab", "is_reserved": 0, "is_disabled": 0, "type": "electric_scooter"}, {"fusion_lon": 0.0, "lat": 38.91551716666667, "lon": -77.03661766666667, "bike_id": "41c49b6145cd377395e526cc7e4f1f5e", "rental_uris": {"android": "https://dc.lft.to/lastmile_qr_scan", "ios": "https://dc.lft.to/lastmile_qr_scan"}, "fusion_lat": 0.0, "name": "41c49b6145cd377395e526cc7e4f1f5e", "is_reserved": 0, "is_disabled": 0, "type": "electric_scooter"}, {"fusion_lon": 0.0, "lat": 39.010942666666665, "lon": -77.04960316666667, "bike_id": "db93ff2bcca724f9f4adc8552c55192c", "rental_uris": {"android": "https://dc.lft.to/lastmile_qr_scan", "ios": "https://dc.lft.to/lastmile_qr_scan"}, "fusion_lat": 0.0, "name": "db93ff2bcca724f9f4adc8552c55192c", "is_reserved": 0, "is_disabled": 0, "type": "electric_bike"}, {"fusion_lon": 0.0, "lat": 38.8471155, "lon": -76.96823616666667, "bike_id": "326bb352149076b49134f65dc1ce4a5b", "rental_uris": {"android": "https://dc.lft.to/lastmile_qr_scan", "ios": "https://dc.lft.to/lastmile_qr_scan"}, "fusion_lat": 0.0, "name": "326bb352149076b49134f65dc1ce4a5b", "is_reserved": 0, "is_disabled": 0, "type": "electric_scooter"}, {"fusion_lon": 0.0, "lat": 38.91706, "lon": -77.04229316666667, "bike_id": "444019a66bbc7d61c7c6def8f9a495e1", "rental_uris": {"android": "https://dc.lft.to/lastmile_qr_scan", "ios": "https://dc.lft.to/lastmile_qr_scan"}, "fusion_lat": 0.0, "name": "444019a66bbc7d61c7c6def8f9a495e1", "is_reserved": 0, "is_disabled": 0, "type": "electric_scooter"}, {"fusion_lon": 0.0, "lat": 38.910920833333336, "lon": -77.04404666666667, "bike_id": "8b3f3a99360fcdab2b4badd8a8891316", "rental_uris": {"android": "https://dc.lft.to/lastmile_qr_scan", "ios": "https://dc.lft.to/lastmile_qr_scan"}, "fusion_lat": 0.0, "name": "8b3f3a99360fcdab2b4badd8a8891316", "is_reserved": 0, "is_disabled": 0, "type": "electric_scooter"}, {"fusion_lon": 0.0, "lat": 38.90035783333333, "lon": -76.98824433333333, "bike_id": "ff795a6b865f7efb51bf0ead2bc87454", "rental_uris": {"android": "https://dc.lft.to/lastmile_qr_scan", "ios": "https://dc.lft.to/lastmile_qr_scan"}, "fusion_lat": 0.0, "name": "ff795a6b865f7efb51bf0ead2bc87454", "is_reserved": 0, "is_disabled": 0, "type": "electric_scooter"}, {"fusion_lon": 0.0, "lat": 38.8990255, "lon": -77.03291133333333, "bike_id": "1666cdacb4a0dad189492257938a32c2", "rental_uris": {"android": "https://dc.lft.to/lastmile_qr_scan", "ios": "https://dc.lft.to/lastmile_qr_scan"}, "fusion_lat": 0.0, "name": "1666cdacb4a0dad189492257938a32c2", "is_reserved": 0, "is_disabled": 0, "type": "electric_scooter"}, {"fusion_lon": 0.0, "lat": 38.806806333333334, "lon": -77.133866, "bike_id": "551ed03db768203fbd209e08bc6ddf3e", "rental_uris": {"android": "https://dc.lft.to/lastmile_qr_scan", "ios": "https://dc.lft.to/lastmile_qr_scan"}, "fusion_lat": 0.0, "name": "551ed03db768203fbd209e08bc6ddf3e", "is_reserved": 0, "is_disabled": 0, "type": "electric_bike"}, {"fusion_lon": 0.0, "lat": 39.0746975, "lon": -77.11530216666667, "bike_id": "cf9b724c9c85aef177017d0b2f63cdb4", "rental_uris": {"android": "https://dc.lft.to/lastmile_qr_scan", "ios": "https://dc.lft.to/lastmile_qr_scan"}, "fusion_lat": 0.0, "name": "cf9b724c9c85aef177017d0b2f63cdb4", "is_reserved": 0, "is_disabled": 0, "type": "electric_bike"}, {"fusion_lon": 0.0, "lat": 38.9639845, "lon": -77.02774683333334, "bike_id": "2dabef1547372e332380daeb837715a5", "rental_uris": {"android": "https://dc.lft.to/lastmile_qr_scan", "ios": "https://dc.lft.to/lastmile_qr_scan"}, "fusion_lat": 0.0, "name": "2dabef1547372e332380daeb837715a5", "is_reserved": 0, "is_disabled": 0, "type": "electric_scooter"}, {"fusion_lon": 0.0, "lat": 38.91678533333334, "lon": -77.04610316666667, "bike_id": "5ab22822b9a9d3e95390fdcacc56dc1f", "rental_uris": {"android": "https://dc.lft.to/lastmile_qr_scan", "ios": "https://dc.lft.to/lastmile_qr_scan"}, "fusion_lat": 0.0, "name": "5ab22822b9a9d3e95390fdcacc56dc1f", "is_reserved": 0, "is_disabled": 0, "type": "electric_scooter"}, {"fusion_lon": 0.0, "lat": 38.93241716666667, "lon": -77.03281016666666, "bike_id": "e89c76868883774b004ff93814427fe8", "rental_uris": {"android": "https://dc.lft.to/lastmile_qr_scan", "ios": "https://dc.lft.to/lastmile_qr_scan"}, "fusion_lat": 0.0, "name": "e89c76868883774b004ff93814427fe8", "is_reserved": 0, "is_disabled": 0, "type": "electric_scooter"}, {"fusion_lon": 0.0, "lat": 38.90366016666667, "lon": -77.017738, "bike_id": "9ecefba0fb2189c000500ac12043e482", "rental_uris": {"android": "https://dc.lft.to/lastmile_qr_scan", "ios": "https://dc.lft.to/lastmile_qr_scan"}, "fusion_lat": 0.0, "name": "9ecefba0fb2189c000500ac12043e482", "is_reserved": 0, "is_disabled": 0, "type": "electric_scooter"}, {"fusion_lon": 0.0, "lat": 38.90722133333333, "lon": -77.0036415, "bike_id": "850cf4b41147891fa0cedf6319d4f064", "rental_uris": {"android": "https://dc.lft.to/lastmile_qr_scan", "ios": "https://dc.lft.to/lastmile_qr_scan"}, "fusion_lat": 0.0, "name": "850cf4b41147891fa0cedf6319d4f064", "is_reserved": 0, "is_disabled": 0, "type": "electric_bike"}, {"fusion_lon": 0.0, "lat": 38.88237183333333, "lon": -76.99492566666666, "bike_id": "6594c550195f30e23b1e1412c4405d13", "rental_uris": {"android": "https://dc.lft.to/lastmile_qr_scan", "ios": "https://dc.lft.to/lastmile_qr_scan"}, "fusion_lat": 0.0, "name": "6594c550195f30e23b1e1412c4405d13", "is_reserved": 0, "is_disabled": 0, "type": "electric_scooter"}, {"fusion_lon": 0.0, "lat": 38.919549833333335, "lon": -77.01788116666667, "bike_id": "966ab6ad37f07d9759123ea7c50b1054", "rental_uris": {"android": "https://dc.lft.to/lastmile_qr_scan", "ios": "https://dc.lft.to/lastmile_qr_scan"}, "fusion_lat": 0.0, "name": "966ab6ad37f07d9759123ea7c50b1054", "is_reserved": 0, "is_disabled": 0, "type": "electric_scooter"}, {"fusion_lon": 0.0, "lat": 38.91329366666667, "lon": -77.04529016666666, "bike_id": "fa9936c8104a4d4e32fa51e4ea0529c1", "rental_uris": {"android": "https://dc.lft.to/lastmile_qr_scan", "ios": "https://dc.lft.to/lastmile_qr_scan"}, "fusion_lat": 0.0, "name": "fa9936c8104a4d4e32fa51e4ea0529c1", "is_reserved": 0, "is_disabled": 0, "type": "electric_scooter"}, {"fusion_lon": 0.0, "lat": 38.924869666666666, "lon": -77.02267833333333, "bike_id": "f19b32d4cfd5a6b945306fef6ffb2186", "rental_uris": {"android": "https://dc.lft.to/lastmile_qr_scan", "ios": "https://dc.lft.to/lastmile_qr_scan"}, "fusion_lat": 0.0, "name": "f19b32d4cfd5a6b945306fef6ffb2186", "is_reserved": 0, "is_disabled": 0, "type": "electric_scooter"}, {"fusion_lon": 0.0, "lat": 38.88435333333334, "lon": -76.99595616666667, "bike_id": "c7a55483f244518851f7437c93e7460b", "rental_uris": {"android": "https://dc.lft.to/lastmile_qr_scan", "ios": "https://dc.lft.to/lastmile_qr_scan"}, "fusion_lat": 0.0, "name": "c7a55483f244518851f7437c93e7460b", "is_reserved": 0, "is_disabled": 0, "type": "electric_scooter"}, {"fusion_lon": 0.0, "lat": 38.915877, "lon": -77.04484433333333, "bike_id": "c9dfcb9ffdfc6705e2996c9cb8621060", "rental_uris": {"android": "https://dc.lft.to/lastmile_qr_scan", "ios": "https://dc.lft.to/lastmile_qr_scan"}, "fusion_lat": 0.0, "name": "c9dfcb9ffdfc6705e2996c9cb8621060", "is_reserved": 0, "is_disabled": 0, "type": "electric_scooter"}, {"fusion_lon": 0.0, "lat": 38.941929333333334, "lon": -77.02481, "bike_id": "cf1960a40d6c01a9cccb3cb3a05dee8c", "rental_uris": {"android": "https://dc.lft.to/lastmile_qr_scan", "ios": "https://dc.lft.to/lastmile_qr_scan"}, "fusion_lat": 0.0, "name": "cf1960a40d6c01a9cccb3cb3a05dee8c", "is_reserved": 0, "is_disabled": 0, "type": "electric_scooter"}, {"fusion_lon": 0.0, "lat": 38.9331845, "lon": -77.03624783333333, "bike_id": "dba862f603dd2dcc356edabc00c60e49", "rental_uris": {"android": "https://dc.lft.to/lastmile_qr_scan", "ios": "https://dc.lft.to/lastmile_qr_scan"}, "fusion_lat": 0.0, "name": "dba862f603dd2dcc356edabc00c60e49", "is_reserved": 0, "is_disabled": 0, "type": "electric_scooter"}, {"fusion_lon": 0.0, "lat": 38.92077833333333, "lon": -77.02534383333334, "bike_id": "1c415eb690d87f124ea018e2a9a14db0", "rental_uris": {"android": "https://dc.lft.to/lastmile_qr_scan", "ios": "https://dc.lft.to/lastmile_qr_scan"}, "fusion_lat": 0.0, "name": "1c415eb690d87f124ea018e2a9a14db0", "is_reserved": 0, "is_disabled": 0, "type": "electric_scooter"}, {"fusion_lon": 0.0, "lat": 38.892187166666666, "lon": -77.04473233333333, "bike_id": "017d3baacc2f900df95ac7a7ef51d65f", "rental_uris": {"android": "https://dc.lft.to/lastmile_qr_scan", "ios": "https://dc.lft.to/lastmile_qr_scan"}, "fusion_lat": 0.0, "name": "017d3baacc2f900df95ac7a7ef51d65f", "is_reserved": 0, "is_disabled": 0, "type": "electric_scooter"}, {"fusion_lon": 0.0, "lat": 38.907783333333334, "lon": -77.0703095, "bike_id": "beadf99500647f07d41c154ffd98a0ec", "rental_uris": {"android": "https://dc.lft.to/lastmile_qr_scan", "ios": "https://dc.lft.to/lastmile_qr_scan"}, "fusion_lat": 0.0, "name": "beadf99500647f07d41c154ffd98a0ec", "is_reserved": 0, "is_disabled": 0, "type": "electric_scooter"}, {"fusion_lon": 0.0, "lat": 38.8768235, "lon": -77.01762716666667, "bike_id": "ea461754463359e5114440123d6db48e", "rental_uris": {"android": "https://dc.lft.to/lastmile_qr_scan", "ios": "https://dc.lft.to/lastmile_qr_scan"}, "fusion_lat": 0.0, "name": "ea461754463359e5114440123d6db48e", "is_reserved": 0, "is_disabled": 0, "type": "electric_scooter"}, {"fusion_lon": 0.0, "lat": 38.899237, "lon": -77.029486, "bike_id": "617df339d106c33cc5ea07151b4802ec", "rental_uris": {"android": "https://dc.lft.to/lastmile_qr_scan", "ios": "https://dc.lft.to/lastmile_qr_scan"}, "fusion_lat": 0.0, "name": "617df339d106c33cc5ea07151b4802ec", "is_reserved": 0, "is_disabled": 0, "type": "electric_scooter"}, {"fusion_lon": 0.0, "lat": 38.93111616666667, "lon": -77.035096, "bike_id": "1184df98ed8b9a67f0d0ab0fdd5aa959", "rental_uris": {"android": "https://dc.lft.to/lastmile_qr_scan", "ios": "https://dc.lft.to/lastmile_qr_scan"}, "fusion_lat": 0.0, "name": "1184df98ed8b9a67f0d0ab0fdd5aa959", "is_reserved": 0, "is_disabled": 0, "type": "electric_scooter"}, {"fusion_lon": 0.0, "lat": 38.800562166666666, "lon": -77.12839383333333, "bike_id": "04a2643d8ee0ce1eb82b7f3a49ff1c6d", "rental_uris": {"android": "https://dc.lft.to/lastmile_qr_scan", "ios": "https://dc.lft.to/lastmile_qr_scan"}, "fusion_lat": 0.0, "name": "04a2643d8ee0ce1eb82b7f3a49ff1c6d", "is_reserved": 0, "is_disabled": 0, "type": "electric_bike"}, {"fusion_lon": 0.0, "lat": 38.89417866666667, "lon": -76.99776633333333, "bike_id": "48940915b30ae1c79b3f46b259ed4a71", "rental_uris": {"android": "https://dc.lft.to/lastmile_qr_scan", "ios": "https://dc.lft.to/lastmile_qr_scan"}, "fusion_lat": 0.0, "name": "48940915b30ae1c79b3f46b259ed4a71", "is_reserved": 0, "is_disabled": 0, "type": "electric_scooter"}, {"fusion_lon": 0.0, "lat": 38.923388833333334, "lon": -77.05014766666666, "bike_id": "083841eeb19b0abc5d9b1a69dca50a66", "rental_uris": {"android": "https://dc.lft.to/lastmile_qr_scan", "ios": "https://dc.lft.to/lastmile_qr_scan"}, "fusion_lat": 0.0, "name": "083841eeb19b0abc5d9b1a69dca50a66", "is_reserved": 0, "is_disabled": 0, "type": "electric_scooter"}, {"fusion_lon": 0.0, "lat": 38.8983355, "lon": -77.03039383333333, "bike_id": "97b9953685404a71e18540a964cd3267", "rental_uris": {"android": "https://dc.lft.to/lastmile_qr_scan", "ios": "https://dc.lft.to/lastmile_qr_scan"}, "fusion_lat": 0.0, "name": "97b9953685404a71e18540a964cd3267", "is_reserved": 0, "is_disabled": 0, "type": "electric_bike"}, {"fusion_lon": 0.0, "lat": 38.905700333333336, "lon": -77.03432916666667, "bike_id": "08bfe591e4267f28b0b2757526aa84f1", "rental_uris": {"android": "https://dc.lft.to/lastmile_qr_scan", "ios": "https://dc.lft.to/lastmile_qr_scan"}, "fusion_lat": 0.0, "name": "08bfe591e4267f28b0b2757526aa84f1", "is_reserved": 0, "is_disabled": 0, "type": "electric_scooter"}, {"fusion_lon": 0.0, "lat": 38.953075166666665, "lon": -76.98184066666667, "bike_id": "5747e0d29d4e128240f1430f6b4d9283", "rental_uris": {"android": "https://dc.lft.to/lastmile_qr_scan", "ios": "https://dc.lft.to/lastmile_qr_scan"}, "fusion_lat": 0.0, "name": "5747e0d29d4e128240f1430f6b4d9283", "is_reserved": 0, "is_disabled": 0, "type": "electric_bike"}, {"fusion_lon": 0.0, "lat": 38.908450333333334, "lon": -77.04944416666666, "bike_id": "e61703cf23ed55cdf66c86b1f1d7bde3", "rental_uris": {"android": "https://dc.lft.to/lastmile_qr_scan", "ios": "https://dc.lft.to/lastmile_qr_scan"}, "fusion_lat": 0.0, "name": "e61703cf23ed55cdf66c86b1f1d7bde3", "is_reserved": 0, "is_disabled": 0, "type": "electric_scooter"}, {"fusion_lon": 0.0, "lat": 38.924837333333336, "lon": -77.02248033333333, "bike_id": "a42d4e86b2edd4905ec7c727adf9b2f1", "rental_uris": {"android": "https://dc.lft.to/lastmile_qr_scan", "ios": "https://dc.lft.to/lastmile_qr_scan"}, "fusion_lat": 0.0, "name": "a42d4e86b2edd4905ec7c727adf9b2f1", "is_reserved": 0, "is_disabled": 0, "type": "electric_scooter"}, {"fusion_lon": 0.0, "lat": 38.869475333333334, "lon": -77.13307933333333, "bike_id": "d33e78fe64bbe9a6c921a6d771aca38b", "rental_uris": {"android": "https://dc.lft.to/lastmile_qr_scan", "ios": "https://dc.lft.to/lastmile_qr_scan"}, "fusion_lat": 0.0, "name": "d33e78fe64bbe9a6c921a6d771aca38b", "is_reserved": 0, "is_disabled": 0, "type": "electric_bike"}, {"fusion_lon": 0.0, "lat": 38.916586, "lon": -77.03853933333333, "bike_id": "edde67455138723aba20f245d8bbc706", "rental_uris": {"android": "https://dc.lft.to/lastmile_qr_scan", "ios": "https://dc.lft.to/lastmile_qr_scan"}, "fusion_lat": 0.0, "name": "edde67455138723aba20f245d8bbc706", "is_reserved": 0, "is_disabled": 0, "type": "electric_scooter"}, {"fusion_lon": 0.0, "lat": 38.90027966666667, "lon": -76.98756633333333, "bike_id": "f90ff41d19b87ac1e422f6ebf7dc9285", "rental_uris": {"android": "https://dc.lft.to/lastmile_qr_scan", "ios": "https://dc.lft.to/lastmile_qr_scan"}, "fusion_lat": 0.0, "name": "f90ff41d19b87ac1e422f6ebf7dc9285", "is_reserved": 0, "is_disabled": 0, "type": "electric_scooter"}, {"fusion_lon": 0.0, "lat": 38.90028516666667, "lon": -76.9875475, "bike_id": "23d6ea5f068fe74e669e0dca60dfa470", "rental_uris": {"android": "https://dc.lft.to/lastmile_qr_scan", "ios": "https://dc.lft.to/lastmile_qr_scan"}, "fusion_lat": 0.0, "name": "23d6ea5f068fe74e669e0dca60dfa470", "is_reserved": 0, "is_disabled": 0, "type": "electric_scooter"}, {"fusion_lon": 0.0, "lat": 38.924741833333336, "lon": -77.02223483333333, "bike_id": "efb8b4788d3373fbd2607ebd6973ea4c", "rental_uris": {"android": "https://dc.lft.to/lastmile_qr_scan", "ios": "https://dc.lft.to/lastmile_qr_scan"}, "fusion_lat": 0.0, "name": "efb8b4788d3373fbd2607ebd6973ea4c", "is_reserved": 0, "is_disabled": 0, "type": "electric_scooter"}, {"fusion_lon": 0.0, "lat": 38.910796, "lon": -77.04476733333334, "bike_id": "54c0660da1c83267258ff29ce57ac8e5", "rental_uris": {"android": "https://dc.lft.to/lastmile_qr_scan", "ios": "https://dc.lft.to/lastmile_qr_scan"}, "fusion_lat": 0.0, "name": "54c0660da1c83267258ff29ce57ac8e5", "is_reserved": 0, "is_disabled": 0, "type": "electric_scooter"}, {"fusion_lon": 0.0, "lat": 38.896079, "lon": -77.04516166666667, "bike_id": "9aeadef671b82d59ce4a54065521f4de", "rental_uris": {"android": "https://dc.lft.to/lastmile_qr_scan", "ios": "https://dc.lft.to/lastmile_qr_scan"}, "fusion_lat": 0.0, "name": "9aeadef671b82d59ce4a54065521f4de", "is_reserved": 0, "is_disabled": 0, "type": "electric_scooter"}, {"fusion_lon": 0.0, "lat": 38.923081, "lon": -77.02116883333333, "bike_id": "7bae2d40e6085a3a62737febd42c9ef4", "rental_uris": {"android": "https://dc.lft.to/lastmile_qr_scan", "ios": "https://dc.lft.to/lastmile_qr_scan"}, "fusion_lat": 0.0, "name": "7bae2d40e6085a3a62737febd42c9ef4", "is_reserved": 0, "is_disabled": 0, "type": "electric_scooter"}, {"fusion_lon": 0.0, "lat": 38.91578833333333, "lon": -77.03660916666666, "bike_id": "804b006191425f27dab45f3145f68ccd", "rental_uris": {"android": "https://dc.lft.to/lastmile_qr_scan", "ios": "https://dc.lft.to/lastmile_qr_scan"}, "fusion_lat": 0.0, "name": "804b006191425f27dab45f3145f68ccd", "is_reserved": 0, "is_disabled": 0, "type": "electric_scooter"}, {"fusion_lon": 0.0, "lat": 38.93140066666667, "lon": -77.05704466666667, "bike_id": "38822319ac7e816d603fe59b16f19139", "rental_uris": {"android": "https://dc.lft.to/lastmile_qr_scan", "ios": "https://dc.lft.to/lastmile_qr_scan"}, "fusion_lat": 0.0, "name": "38822319ac7e816d603fe59b16f19139", "is_reserved": 0, "is_disabled": 0, "type": "electric_scooter"}, {"fusion_lon": 0.0, "lat": 38.888160166666665, "lon": -76.977044, "bike_id": "5b755d4caf794a8caa94956fc2688dd7", "rental_uris": {"android": "https://dc.lft.to/lastmile_qr_scan", "ios": "https://dc.lft.to/lastmile_qr_scan"}, "fusion_lat": 0.0, "name": "5b755d4caf794a8caa94956fc2688dd7", "is_reserved": 0, "is_disabled": 0, "type": "electric_scooter"}, {"fusion_lon": 0.0, "lat": 38.89425683333333, "lon": -77.0316875, "bike_id": "560d8410fd06eb2472423a3992149ba4", "rental_uris": {"android": "https://dc.lft.to/lastmile_qr_scan", "ios": "https://dc.lft.to/lastmile_qr_scan"}, "fusion_lat": 0.0, "name": "560d8410fd06eb2472423a3992149ba4", "is_reserved": 0, "is_disabled": 0, "type": "electric_scooter"}, {"fusion_lon": 0.0, "lat": 38.926148166666664, "lon": -76.9820695, "bike_id": "d916332e322297ac20b1474c9d4f287c", "rental_uris": {"android": "https://dc.lft.to/lastmile_qr_scan", "ios": "https://dc.lft.to/lastmile_qr_scan"}, "fusion_lat": 0.0, "name": "d916332e322297ac20b1474c9d4f287c", "is_reserved": 0, "is_disabled": 0, "type": "electric_scooter"}, {"fusion_lon": 0.0, "lat": 38.89197683333333, "lon": -77.0154705, "bike_id": "a501266200d12bb168984607798e1c33", "rental_uris": {"android": "https://dc.lft.to/lastmile_qr_scan", "ios": "https://dc.lft.to/lastmile_qr_scan"}, "fusion_lat": 0.0, "name": "a501266200d12bb168984607798e1c33", "is_reserved": 0, "is_disabled": 0, "type": "electric_scooter"}, {"fusion_lon": 0.0, "lat": 38.941893, "lon": -77.02483516666666, "bike_id": "13be8e1af80fdbdc809c7f863e41ef6b", "rental_uris": {"android": "https://dc.lft.to/lastmile_qr_scan", "ios": "https://dc.lft.to/lastmile_qr_scan"}, "fusion_lat": 0.0, "name": "13be8e1af80fdbdc809c7f863e41ef6b", "is_reserved": 0, "is_disabled": 0, "type": "electric_scooter"}, {"fusion_lon": 0.0, "lat": 38.925543833333336, "lon": -77.05325083333334, "bike_id": "17c00024b409a6f360fd2f8b0d38978b", "rental_uris": {"android": "https://dc.lft.to/lastmile_qr_scan", "ios": "https://dc.lft.to/lastmile_qr_scan"}, "fusion_lat": 0.0, "name": "17c00024b409a6f360fd2f8b0d38978b", "is_reserved": 0, "is_disabled": 0, "type": "electric_scooter"}, {"fusion_lon": 0.0, "lat": 38.88196966666667, "lon": -77.028586, "bike_id": "b1e895ba13c05945ecc1ccddae1af963", "rental_uris": {"android": "https://dc.lft.to/lastmile_qr_scan", "ios": "https://dc.lft.to/lastmile_qr_scan"}, "fusion_lat": 0.0, "name": "b1e895ba13c05945ecc1ccddae1af963", "is_reserved": 0, "is_disabled": 0, "type": "electric_scooter"}, {"fusion_lon": 0.0, "lat": 38.9369055, "lon": -76.990642, "bike_id": "48e0ee335d1f25828cfec984f7fc218c", "rental_uris": {"android": "https://dc.lft.to/lastmile_qr_scan", "ios": "https://dc.lft.to/lastmile_qr_scan"}, "fusion_lat": 0.0, "name": "48e0ee335d1f25828cfec984f7fc218c", "is_reserved": 0, "is_disabled": 0, "type": "electric_bike"}, {"fusion_lon": 0.0, "lat": 38.807363, "lon": -77.0969505, "bike_id": "c130e8e5abc5deba333ce79b5c667454", "rental_uris": {"android": "https://dc.lft.to/lastmile_qr_scan", "ios": "https://dc.lft.to/lastmile_qr_scan"}, "fusion_lat": 0.0, "name": "c130e8e5abc5deba333ce79b5c667454", "is_reserved": 0, "is_disabled": 0, "type": "electric_bike"}, {"fusion_lon": 0.0, "lat": 38.90431983333333, "lon": -77.02611916666666, "bike_id": "706543e69aa12903d24b193d55d6312f", "rental_uris": {"android": "https://dc.lft.to/lastmile_qr_scan", "ios": "https://dc.lft.to/lastmile_qr_scan"}, "fusion_lat": 0.0, "name": "706543e69aa12903d24b193d55d6312f", "is_reserved": 0, "is_disabled": 0, "type": "electric_scooter"}, {"fusion_lon": 0.0, "lat": 38.87452016666667, "lon": -77.0092755, "bike_id": "bd1afc5e9133d108df972920b3adc6a0", "rental_uris": {"android": "https://dc.lft.to/lastmile_qr_scan", "ios": "https://dc.lft.to/lastmile_qr_scan"}, "fusion_lat": 0.0, "name": "bd1afc5e9133d108df972920b3adc6a0", "is_reserved": 0, "is_disabled": 0, "type": "electric_bike"}, {"fusion_lon": 0.0, "lat": 38.92345316666667, "lon": -77.03417566666667, "bike_id": "b6361dde8e916c003a0fa6b9fe946bed", "rental_uris": {"android": "https://dc.lft.to/lastmile_qr_scan", "ios": "https://dc.lft.to/lastmile_qr_scan"}, "fusion_lat": 0.0, "name": "b6361dde8e916c003a0fa6b9fe946bed", "is_reserved": 0, "is_disabled": 0, "type": "electric_scooter"}, {"fusion_lon": 0.0, "lat": 38.9389365, "lon": -77.0176425, "bike_id": "4558e36ad8cfed17033b9d13cbc2b3c1", "rental_uris": {"android": "https://dc.lft.to/lastmile_qr_scan", "ios": "https://dc.lft.to/lastmile_qr_scan"}, "fusion_lat": 0.0, "name": "4558e36ad8cfed17033b9d13cbc2b3c1", "is_reserved": 0, "is_disabled": 0, "type": "electric_scooter"}, {"fusion_lon": 0.0, "lat": 38.90781883333333, "lon": -77.04503666666666, "bike_id": "5fb80e4388b0b29cb9584e2093d8b1fc", "rental_uris": {"android": "https://dc.lft.to/lastmile_qr_scan", "ios": "https://dc.lft.to/lastmile_qr_scan"}, "fusion_lat": 0.0, "name": "5fb80e4388b0b29cb9584e2093d8b1fc", "is_reserved": 0, "is_disabled": 0, "type": "electric_scooter"}, {"fusion_lon": 0.0, "lat": 38.89722833333333, "lon": -77.04698416666666, "bike_id": "512db1b74b30d9cd12723bd7ac1495d7", "rental_uris": {"android": "https://dc.lft.to/lastmile_qr_scan", "ios": "https://dc.lft.to/lastmile_qr_scan"}, "fusion_lat": 0.0, "name": "512db1b74b30d9cd12723bd7ac1495d7", "is_reserved": 0, "is_disabled": 0, "type": "electric_scooter"}, {"fusion_lon": 0.0, "lat": 38.90015283333334, "lon": -76.9876125, "bike_id": "583e9ab522ac34ea77bcaa0c06b31a85", "rental_uris": {"android": "https://dc.lft.to/lastmile_qr_scan", "ios": "https://dc.lft.to/lastmile_qr_scan"}, "fusion_lat": 0.0, "name": "583e9ab522ac34ea77bcaa0c06b31a85", "is_reserved": 0, "is_disabled": 0, "type": "electric_scooter"}, {"fusion_lon": 0.0, "lat": 38.9155975, "lon": -77.03201816666666, "bike_id": "779de14fdd40a496d826eb074d0693ef", "rental_uris": {"android": "https://dc.lft.to/lastmile_qr_scan", "ios": "https://dc.lft.to/lastmile_qr_scan"}, "fusion_lat": 0.0, "name": "779de14fdd40a496d826eb074d0693ef", "is_reserved": 0, "is_disabled": 0, "type": "electric_scooter"}, {"fusion_lon": 0.0, "lat": 38.90042533333333, "lon": -76.972288, "bike_id": "68307801c329df4488c3713dfbfb4654", "rental_uris": {"android": "https://dc.lft.to/lastmile_qr_scan", "ios": "https://dc.lft.to/lastmile_qr_scan"}, "fusion_lat": 0.0, "name": "68307801c329df4488c3713dfbfb4654", "is_reserved": 0, "is_disabled": 0, "type": "electric_bike"}, {"fusion_lon": 0.0, "lat": 38.906053166666666, "lon": -77.12889433333333, "bike_id": "07480bd2c6aacbaaecf8da1514ac99eb", "rental_uris": {"android": "https://dc.lft.to/lastmile_qr_scan", "ios": "https://dc.lft.to/lastmile_qr_scan"}, "fusion_lat": 0.0, "name": "07480bd2c6aacbaaecf8da1514ac99eb", "is_reserved": 0, "is_disabled": 0, "type": "electric_bike"}, {"fusion_lon": 0.0, "lat": 38.925662833333334, "lon": -76.99960616666667, "bike_id": "3989671e2cc0047e471a206350a62b1f", "rental_uris": {"android": "https://dc.lft.to/lastmile_qr_scan", "ios": "https://dc.lft.to/lastmile_qr_scan"}, "fusion_lat": 0.0, "name": "3989671e2cc0047e471a206350a62b1f", "is_reserved": 0, "is_disabled": 0, "type": "electric_scooter"}, {"fusion_lon": 0.0, "lat": 38.880464833333335, "lon": -77.011793, "bike_id": "ca72a1f6b0b0a7044a80f175a5670bd0", "rental_uris": {"android": "https://dc.lft.to/lastmile_qr_scan", "ios": "https://dc.lft.to/lastmile_qr_scan"}, "fusion_lat": 0.0, "name": "ca72a1f6b0b0a7044a80f175a5670bd0", "is_reserved": 0, "is_disabled": 0, "type": "electric_scooter"}, {"fusion_lon": 0.0, "lat": 38.88489416666667, "lon": -77.02202033333333, "bike_id": "9cd496ab1e644a8be1d029486f254c3d", "rental_uris": {"android": "https://dc.lft.to/lastmile_qr_scan", "ios": "https://dc.lft.to/lastmile_qr_scan"}, "fusion_lat": 0.0, "name": "9cd496ab1e644a8be1d029486f254c3d", "is_reserved": 0, "is_disabled": 0, "type": "electric_scooter"}, {"fusion_lon": 0.0, "lat": 38.89610183333333, "lon": -77.045158, "bike_id": "99a187795eb298bffc41f5d18921c5c6", "rental_uris": {"android": "https://dc.lft.to/lastmile_qr_scan", "ios": "https://dc.lft.to/lastmile_qr_scan"}, "fusion_lat": 0.0, "name": "99a187795eb298bffc41f5d18921c5c6", "is_reserved": 0, "is_disabled": 0, "type": "electric_scooter"}, {"fusion_lon": 0.0, "lat": 38.92257433333333, "lon": -77.01953816666666, "bike_id": "c10b65100585093d261dd561c8c21fdb", "rental_uris": {"android": "https://dc.lft.to/lastmile_qr_scan", "ios": "https://dc.lft.to/lastmile_qr_scan"}, "fusion_lat": 0.0, "name": "c10b65100585093d261dd561c8c21fdb", "is_reserved": 0, "is_disabled": 0, "type": "electric_scooter"}, {"fusion_lon": 0.0, "lat": 38.8971575, "lon": -77.02892433333334, "bike_id": "8287b729af63b901b545dadc4f45a4d0", "rental_uris": {"android": "https://dc.lft.to/lastmile_qr_scan", "ios": "https://dc.lft.to/lastmile_qr_scan"}, "fusion_lat": 0.0, "name": "8287b729af63b901b545dadc4f45a4d0", "is_reserved": 0, "is_disabled": 0, "type": "electric_scooter"}, {"fusion_lon": 0.0, "lat": 38.88524016666667, "lon": -77.01139683333334, "bike_id": "ce6cd5f8eea0b2694bc3fa231748d9e1", "rental_uris": {"android": "https://dc.lft.to/lastmile_qr_scan", "ios": "https://dc.lft.to/lastmile_qr_scan"}, "fusion_lat": 0.0, "name": "ce6cd5f8eea0b2694bc3fa231748d9e1", "is_reserved": 0, "is_disabled": 0, "type": "electric_scooter"}, {"fusion_lon": 0.0, "lat": 38.92274233333333, "lon": -77.01898666666666, "bike_id": "74302ff040061a2c4d56ca2b0a197d93", "rental_uris": {"android": "https://dc.lft.to/lastmile_qr_scan", "ios": "https://dc.lft.to/lastmile_qr_scan"}, "fusion_lat": 0.0, "name": "74302ff040061a2c4d56ca2b0a197d93", "is_reserved": 0, "is_disabled": 0, "type": "electric_scooter"}, {"fusion_lon": 0.0, "lat": 38.9339335, "lon": -77.038265, "bike_id": "a7854c0bddbac906b52b809ab1e4bc79", "rental_uris": {"android": "https://dc.lft.to/lastmile_qr_scan", "ios": "https://dc.lft.to/lastmile_qr_scan"}, "fusion_lat": 0.0, "name": "a7854c0bddbac906b52b809ab1e4bc79", "is_reserved": 0, "is_disabled": 0, "type": "electric_scooter"}, {"fusion_lon": 0.0, "lat": 38.9120915, "lon": -77.02196616666667, "bike_id": "9bdc6aecf833a3822fcffca1db21da2b", "rental_uris": {"android": "https://dc.lft.to/lastmile_qr_scan", "ios": "https://dc.lft.to/lastmile_qr_scan"}, "fusion_lat": 0.0, "name": "9bdc6aecf833a3822fcffca1db21da2b", "is_reserved": 0, "is_disabled": 0, "type": "electric_scooter"}, {"fusion_lon": 0.0, "lat": 38.9602015, "lon": -77.00289, "bike_id": "a8585731927c81e5ead7d222a80c4ff0", "rental_uris": {"android": "https://dc.lft.to/lastmile_qr_scan", "ios": "https://dc.lft.to/lastmile_qr_scan"}, "fusion_lat": 0.0, "name": "a8585731927c81e5ead7d222a80c4ff0", "is_reserved": 0, "is_disabled": 0, "type": "electric_bike"}, {"fusion_lon": 0.0, "lat": 38.90225816666667, "lon": -77.03288833333333, "bike_id": "9620606b42bd9d5f2bbad90613b96073", "rental_uris": {"android": "https://dc.lft.to/lastmile_qr_scan", "ios": "https://dc.lft.to/lastmile_qr_scan"}, "fusion_lat": 0.0, "name": "9620606b42bd9d5f2bbad90613b96073", "is_reserved": 0, "is_disabled": 0, "type": "electric_scooter"}, {"fusion_lon": 0.0, "lat": 38.9106495, "lon": -77.0092465, "bike_id": "d6d31caa9692c351cd2ed32f40bef836", "rental_uris": {"android": "https://dc.lft.to/lastmile_qr_scan", "ios": "https://dc.lft.to/lastmile_qr_scan"}, "fusion_lat": 0.0, "name": "d6d31caa9692c351cd2ed32f40bef836", "is_reserved": 0, "is_disabled": 0, "type": "electric_scooter"}, {"fusion_lon": 0.0, "lat": 38.90380916666667, "lon": -77.0386065, "bike_id": "ec33944832e002488960f9206ca2cc32", "rental_uris": {"android": "https://dc.lft.to/lastmile_qr_scan", "ios": "https://dc.lft.to/lastmile_qr_scan"}, "fusion_lat": 0.0, "name": "ec33944832e002488960f9206ca2cc32", "is_reserved": 0, "is_disabled": 0, "type": "electric_scooter"}, {"fusion_lon": 0.0, "lat": 38.90393383333333, "lon": -77.0328675, "bike_id": "378ca9db84e6ea0110238737dcf9b611", "rental_uris": {"android": "https://dc.lft.to/lastmile_qr_scan", "ios": "https://dc.lft.to/lastmile_qr_scan"}, "fusion_lat": 0.0, "name": "378ca9db84e6ea0110238737dcf9b611", "is_reserved": 0, "is_disabled": 0, "type": "electric_scooter"}, {"fusion_lon": 0.0, "lat": 38.952863, "lon": -77.03632033333334, "bike_id": "5e5e83f22edaa77e29cb8e2413a21a63", "rental_uris": {"android": "https://dc.lft.to/lastmile_qr_scan", "ios": "https://dc.lft.to/lastmile_qr_scan"}, "fusion_lat": 0.0, "name": "5e5e83f22edaa77e29cb8e2413a21a63", "is_reserved": 0, "is_disabled": 0, "type": "electric_scooter"}, {"fusion_lon": 0.0, "lat": 38.895044666666664, "lon": -76.948872, "bike_id": "573d6b0a2d8e057c75c5744c89b71d14", "rental_uris": {"android": "https://dc.lft.to/lastmile_qr_scan", "ios": "https://dc.lft.to/lastmile_qr_scan"}, "fusion_lat": 0.0, "name": "573d6b0a2d8e057c75c5744c89b71d14", "is_reserved": 0, "is_disabled": 0, "type": "electric_scooter"}, {"fusion_lon": 0.0, "lat": 38.888128333333334, "lon": -76.97711983333333, "bike_id": "13ba7bb226c30e831e40e4fe71ad0d9c", "rental_uris": {"android": "https://dc.lft.to/lastmile_qr_scan", "ios": "https://dc.lft.to/lastmile_qr_scan"}, "fusion_lat": 0.0, "name": "13ba7bb226c30e831e40e4fe71ad0d9c", "is_reserved": 0, "is_disabled": 0, "type": "electric_scooter"}, {"fusion_lon": 0.0, "lat": 38.876626, "lon": -77.005704, "bike_id": "4edd6f02e4047e8eebbe7ca96e12efbe", "rental_uris": {"android": "https://dc.lft.to/lastmile_qr_scan", "ios": "https://dc.lft.to/lastmile_qr_scan"}, "fusion_lat": 0.0, "name": "4edd6f02e4047e8eebbe7ca96e12efbe", "is_reserved": 0, "is_disabled": 0, "type": "electric_scooter"}, {"fusion_lon": 0.0, "lat": 38.924650166666666, "lon": -77.05752466666667, "bike_id": "e84736b5f3882f1edc9129c545958d29", "rental_uris": {"android": "https://dc.lft.to/lastmile_qr_scan", "ios": "https://dc.lft.to/lastmile_qr_scan"}, "fusion_lat": 0.0, "name": "e84736b5f3882f1edc9129c545958d29", "is_reserved": 0, "is_disabled": 0, "type": "electric_scooter"}, {"fusion_lon": 0.0, "lat": 38.93026166666667, "lon": -77.06195016666666, "bike_id": "9f503b666cfc90cc9beb74e430e10b42", "rental_uris": {"android": "https://dc.lft.to/lastmile_qr_scan", "ios": "https://dc.lft.to/lastmile_qr_scan"}, "fusion_lat": 0.0, "name": "9f503b666cfc90cc9beb74e430e10b42", "is_reserved": 0, "is_disabled": 0, "type": "electric_scooter"}, {"fusion_lon": 0.0, "lat": 38.8765705, "lon": -77.011707, "bike_id": "10336d3b1e07c1978cff6aa432c89b67", "rental_uris": {"android": "https://dc.lft.to/lastmile_qr_scan", "ios": "https://dc.lft.to/lastmile_qr_scan"}, "fusion_lat": 0.0, "name": "10336d3b1e07c1978cff6aa432c89b67", "is_reserved": 0, "is_disabled": 0, "type": "electric_scooter"}, {"fusion_lon": 0.0, "lat": 38.89355783333333, "lon": -77.0462135, "bike_id": "2ea5a4dfc758fd510ab90ec3156e244b", "rental_uris": {"android": "https://dc.lft.to/lastmile_qr_scan", "ios": "https://dc.lft.to/lastmile_qr_scan"}, "fusion_lat": 0.0, "name": "2ea5a4dfc758fd510ab90ec3156e244b", "is_reserved": 0, "is_disabled": 0, "type": "electric_scooter"}, {"fusion_lon": 0.0, "lat": 38.910946333333335, "lon": -77.0448315, "bike_id": "d408dba6df9e627c014d9bf68546ad6e", "rental_uris": {"android": "https://dc.lft.to/lastmile_qr_scan", "ios": "https://dc.lft.to/lastmile_qr_scan"}, "fusion_lat": 0.0, "name": "d408dba6df9e627c014d9bf68546ad6e", "is_reserved": 0, "is_disabled": 0, "type": "electric_scooter"}, {"fusion_lon": 0.0, "lat": 38.89702416666667, "lon": -76.93918933333333, "bike_id": "5304de6a19400a2335adf5ef894dce2e", "rental_uris": {"android": "https://dc.lft.to/lastmile_qr_scan", "ios": "https://dc.lft.to/lastmile_qr_scan"}, "fusion_lat": 0.0, "name": "5304de6a19400a2335adf5ef894dce2e", "is_reserved": 0, "is_disabled": 0, "type": "electric_scooter"}, {"fusion_lon": 0.0, "lat": 38.897343666666664, "lon": -77.026823, "bike_id": "f755e35e634f53805b1594e7435915dd", "rental_uris": {"android": "https://dc.lft.to/lastmile_qr_scan", "ios": "https://dc.lft.to/lastmile_qr_scan"}, "fusion_lat": 0.0, "name": "f755e35e634f53805b1594e7435915dd", "is_reserved": 0, "is_disabled": 0, "type": "electric_scooter"}, {"fusion_lon": 0.0, "lat": 38.913384666666666, "lon": -77.0205825, "bike_id": "ffba12e4acc608cbf3d41024343a5379", "rental_uris": {"android": "https://dc.lft.to/lastmile_qr_scan", "ios": "https://dc.lft.to/lastmile_qr_scan"}, "fusion_lat": 0.0, "name": "ffba12e4acc608cbf3d41024343a5379", "is_reserved": 0, "is_disabled": 0, "type": "electric_scooter"}, {"fusion_lon": 0.0, "lat": 38.858763, "lon": -76.98944416666667, "bike_id": "e3255365862947e127e96ac503aebfa0", "rental_uris": {"android": "https://dc.lft.to/lastmile_qr_scan", "ios": "https://dc.lft.to/lastmile_qr_scan"}, "fusion_lat": 0.0, "name": "e3255365862947e127e96ac503aebfa0", "is_reserved": 0, "is_disabled": 0, "type": "electric_scooter"}, {"fusion_lon": 0.0, "lat": 38.903730333333336, "lon": -77.01912483333334, "bike_id": "515aa52c52b7783db48fa02c536a2c5a", "rental_uris": {"android": "https://dc.lft.to/lastmile_qr_scan", "ios": "https://dc.lft.to/lastmile_qr_scan"}, "fusion_lat": 0.0, "name": "515aa52c52b7783db48fa02c536a2c5a", "is_reserved": 0, "is_disabled": 0, "type": "electric_scooter"}, {"fusion_lon": 0.0, "lat": 38.92055966666667, "lon": -76.9843515, "bike_id": "4a1067825ba624bad534998bb5a88a84", "rental_uris": {"android": "https://dc.lft.to/lastmile_qr_scan", "ios": "https://dc.lft.to/lastmile_qr_scan"}, "fusion_lat": 0.0, "name": "4a1067825ba624bad534998bb5a88a84", "is_reserved": 0, "is_disabled": 0, "type": "electric_scooter"}, {"fusion_lon": 0.0, "lat": 38.9295875, "lon": -77.04114116666666, "bike_id": "3612c3fe71492a5f5f0954b6e9a4bfa7", "rental_uris": {"android": "https://dc.lft.to/lastmile_qr_scan", "ios": "https://dc.lft.to/lastmile_qr_scan"}, "fusion_lat": 0.0, "name": "3612c3fe71492a5f5f0954b6e9a4bfa7", "is_reserved": 0, "is_disabled": 0, "type": "electric_scooter"}, {"fusion_lon": 0.0, "lat": 38.9050475, "lon": -77.054412, "bike_id": "e6a67360589384a1f1d5b6cf54bf7fde", "rental_uris": {"android": "https://dc.lft.to/lastmile_qr_scan", "ios": "https://dc.lft.to/lastmile_qr_scan"}, "fusion_lat": 0.0, "name": "e6a67360589384a1f1d5b6cf54bf7fde", "is_reserved": 0, "is_disabled": 0, "type": "electric_scooter"}, {"fusion_lon": 0.0, "lat": 38.900538, "lon": -76.98491033333333, "bike_id": "ea4759bb688efbb344a322e3d27ec834", "rental_uris": {"android": "https://dc.lft.to/lastmile_qr_scan", "ios": "https://dc.lft.to/lastmile_qr_scan"}, "fusion_lat": 0.0, "name": "ea4759bb688efbb344a322e3d27ec834", "is_reserved": 0, "is_disabled": 0, "type": "electric_scooter"}, {"fusion_lon": 0.0, "lat": 38.913280666666665, "lon": -77.04538166666667, "bike_id": "dff0689a3f15aab346c6f31d01825ec6", "rental_uris": {"android": "https://dc.lft.to/lastmile_qr_scan", "ios": "https://dc.lft.to/lastmile_qr_scan"}, "fusion_lat": 0.0, "name": "dff0689a3f15aab346c6f31d01825ec6", "is_reserved": 0, "is_disabled": 0, "type": "electric_scooter"}, {"fusion_lon": 0.0, "lat": 38.90053983333333, "lon": -77.0500645, "bike_id": "9727504cbea150813d5b9d89af07a22c", "rental_uris": {"android": "https://dc.lft.to/lastmile_qr_scan", "ios": "https://dc.lft.to/lastmile_qr_scan"}, "fusion_lat": 0.0, "name": "9727504cbea150813d5b9d89af07a22c", "is_reserved": 0, "is_disabled": 0, "type": "electric_scooter"}, {"fusion_lon": 0.0, "lat": 38.973431833333336, "lon": -76.99594783333333, "bike_id": "e6492f774cf155b3fa664652e6497c65", "rental_uris": {"android": "https://dc.lft.to/lastmile_qr_scan", "ios": "https://dc.lft.to/lastmile_qr_scan"}, "fusion_lat": 0.0, "name": "e6492f774cf155b3fa664652e6497c65", "is_reserved": 0, "is_disabled": 0, "type": "electric_bike"}, {"fusion_lon": 0.0, "lat": 38.89821633333333, "lon": -77.02494, "bike_id": "2b07e73b5dfbe9a066ccfe2f1ec00cad", "rental_uris": {"android": "https://dc.lft.to/lastmile_qr_scan", "ios": "https://dc.lft.to/lastmile_qr_scan"}, "fusion_lat": 0.0, "name": "2b07e73b5dfbe9a066ccfe2f1ec00cad", "is_reserved": 0, "is_disabled": 0, "type": "electric_scooter"}, {"fusion_lon": 0.0, "lat": 39.04235216666667, "lon": -76.99737816666666, "bike_id": "9e23deb79a25e3d398f0718a6d6ef7a7", "rental_uris": {"android": "https://dc.lft.to/lastmile_qr_scan", "ios": "https://dc.lft.to/lastmile_qr_scan"}, "fusion_lat": 0.0, "name": "9e23deb79a25e3d398f0718a6d6ef7a7", "is_reserved": 0, "is_disabled": 0, "type": "electric_bike"}, {"fusion_lon": 0.0, "lat": 38.921207833333334, "lon": -77.02065716666667, "bike_id": "5c698d083f9f4036d154acd3e62f2c3f", "rental_uris": {"android": "https://dc.lft.to/lastmile_qr_scan", "ios": "https://dc.lft.to/lastmile_qr_scan"}, "fusion_lat": 0.0, "name": "5c698d083f9f4036d154acd3e62f2c3f", "is_reserved": 0, "is_disabled": 0, "type": "electric_scooter"}, {"fusion_lon": 0.0, "lat": 38.909213333333334, "lon": -77.02310766666666, "bike_id": "ae408d48b3f0cc8e85c8c3a860b2df57", "rental_uris": {"android": "https://dc.lft.to/lastmile_qr_scan", "ios": "https://dc.lft.to/lastmile_qr_scan"}, "fusion_lat": 0.0, "name": "ae408d48b3f0cc8e85c8c3a860b2df57", "is_reserved": 0, "is_disabled": 0, "type": "electric_scooter"}, {"fusion_lon": 0.0, "lat": 38.898308666666665, "lon": -76.9465175, "bike_id": "42c8d537e848f6258a34c7378a24b685", "rental_uris": {"android": "https://dc.lft.to/lastmile_qr_scan", "ios": "https://dc.lft.to/lastmile_qr_scan"}, "fusion_lat": 0.0, "name": "42c8d537e848f6258a34c7378a24b685", "is_reserved": 0, "is_disabled": 0, "type": "electric_scooter"}, {"fusion_lon": 0.0, "lat": 38.93653316666666, "lon": -77.06615083333334, "bike_id": "9efae2b900a223594e98de6c797639a2", "rental_uris": {"android": "https://dc.lft.to/lastmile_qr_scan", "ios": "https://dc.lft.to/lastmile_qr_scan"}, "fusion_lat": 0.0, "name": "9efae2b900a223594e98de6c797639a2", "is_reserved": 0, "is_disabled": 0, "type": "electric_scooter"}, {"fusion_lon": 0.0, "lat": 38.89213866666667, "lon": -77.04645316666667, "bike_id": "10f91d62d2ceb9ea87a6cef5b17fcb7d", "rental_uris": {"android": "https://dc.lft.to/lastmile_qr_scan", "ios": "https://dc.lft.to/lastmile_qr_scan"}, "fusion_lat": 0.0, "name": "10f91d62d2ceb9ea87a6cef5b17fcb7d", "is_reserved": 0, "is_disabled": 0, "type": "electric_scooter"}, {"fusion_lon": 0.0, "lat": 38.886325166666666, "lon": -77.015346, "bike_id": "5617e9bc059791b348fc2ca10651e96b", "rental_uris": {"android": "https://dc.lft.to/lastmile_qr_scan", "ios": "https://dc.lft.to/lastmile_qr_scan"}, "fusion_lat": 0.0, "name": "5617e9bc059791b348fc2ca10651e96b", "is_reserved": 0, "is_disabled": 0, "type": "electric_scooter"}, {"fusion_lon": 0.0, "lat": 38.919238166666666, "lon": -77.00972266666666, "bike_id": "9e43ba7676e4ef89e2c0b610f610cde6", "rental_uris": {"android": "https://dc.lft.to/lastmile_qr_scan", "ios": "https://dc.lft.to/lastmile_qr_scan"}, "fusion_lat": 0.0, "name": "9e43ba7676e4ef89e2c0b610f610cde6", "is_reserved": 0, "is_disabled": 0, "type": "electric_scooter"}, {"fusion_lon": 0.0, "lat": 38.9119995, "lon": -77.01976633333334, "bike_id": "2777cedd1f68dbf74d7e23087108f33d", "rental_uris": {"android": "https://dc.lft.to/lastmile_qr_scan", "ios": "https://dc.lft.to/lastmile_qr_scan"}, "fusion_lat": 0.0, "name": "2777cedd1f68dbf74d7e23087108f33d", "is_reserved": 0, "is_disabled": 0, "type": "electric_scooter"}, {"fusion_lon": 0.0, "lat": 38.91439416666667, "lon": -77.01811283333333, "bike_id": "3a910466fbd3d6adccf61f7e03c04f4c", "rental_uris": {"android": "https://dc.lft.to/lastmile_qr_scan", "ios": "https://dc.lft.to/lastmile_qr_scan"}, "fusion_lat": 0.0, "name": "3a910466fbd3d6adccf61f7e03c04f4c", "is_reserved": 0, "is_disabled": 0, "type": "electric_scooter"}, {"fusion_lon": 0.0, "lat": 38.911062666666666, "lon": -77.00611716666667, "bike_id": "a649a1ac7eaa89a2bbf64e2ab9ba72e6", "rental_uris": {"android": "https://dc.lft.to/lastmile_qr_scan", "ios": "https://dc.lft.to/lastmile_qr_scan"}, "fusion_lat": 0.0, "name": "a649a1ac7eaa89a2bbf64e2ab9ba72e6", "is_reserved": 0, "is_disabled": 0, "type": "electric_scooter"}, {"fusion_lon": 0.0, "lat": 38.877502166666666, "lon": -77.00321266666667, "bike_id": "966b2b1c39bacdd429bd4ca33ca8d0db", "rental_uris": {"android": "https://dc.lft.to/lastmile_qr_scan", "ios": "https://dc.lft.to/lastmile_qr_scan"}, "fusion_lat": 0.0, "name": "966b2b1c39bacdd429bd4ca33ca8d0db", "is_reserved": 0, "is_disabled": 0, "type": "electric_scooter"}, {"fusion_lon": 0.0, "lat": 38.91240883333333, "lon": -76.98661233333333, "bike_id": "04e171cce91107e763ac1e03dde72f61", "rental_uris": {"android": "https://dc.lft.to/lastmile_qr_scan", "ios": "https://dc.lft.to/lastmile_qr_scan"}, "fusion_lat": 0.0, "name": "04e171cce91107e763ac1e03dde72f61", "is_reserved": 0, "is_disabled": 0, "type": "electric_scooter"}, {"fusion_lon": 0.0, "lat": 38.899406166666665, "lon": -77.01452566666667, "bike_id": "248fabfa09ac2c7ab40341ea406f1bfa", "rental_uris": {"android": "https://dc.lft.to/lastmile_qr_scan", "ios": "https://dc.lft.to/lastmile_qr_scan"}, "fusion_lat": 0.0, "name": "248fabfa09ac2c7ab40341ea406f1bfa", "is_reserved": 0, "is_disabled": 0, "type": "electric_scooter"}, {"fusion_lon": 0.0, "lat": 38.896269, "lon": -77.032187, "bike_id": "f5e25e4d0fb6e2c6a2a48528ebab183b", "rental_uris": {"android": "https://dc.lft.to/lastmile_qr_scan", "ios": "https://dc.lft.to/lastmile_qr_scan"}, "fusion_lat": 0.0, "name": "f5e25e4d0fb6e2c6a2a48528ebab183b", "is_reserved": 0, "is_disabled": 0, "type": "electric_scooter"}, {"fusion_lon": 0.0, "lat": 38.891237333333336, "lon": -76.94062183333334, "bike_id": "4e8813a257ed7af094a4029b44d284a5", "rental_uris": {"android": "https://dc.lft.to/lastmile_qr_scan", "ios": "https://dc.lft.to/lastmile_qr_scan"}, "fusion_lat": 0.0, "name": "4e8813a257ed7af094a4029b44d284a5", "is_reserved": 0, "is_disabled": 0, "type": "electric_bike"}, {"fusion_lon": 0.0, "lat": 38.892386, "lon": -77.03208216666667, "bike_id": "d8b67ae5c8b50e055ce574bbdc077b6c", "rental_uris": {"android": "https://dc.lft.to/lastmile_qr_scan", "ios": "https://dc.lft.to/lastmile_qr_scan"}, "fusion_lat": 0.0, "name": "d8b67ae5c8b50e055ce574bbdc077b6c", "is_reserved": 0, "is_disabled": 0, "type": "electric_scooter"}, {"fusion_lon": 0.0, "lat": 38.92336516666667, "lon": -77.05678433333334, "bike_id": "d23d283696290aae4b4c0ec152196129", "rental_uris": {"android": "https://dc.lft.to/lastmile_qr_scan", "ios": "https://dc.lft.to/lastmile_qr_scan"}, "fusion_lat": 0.0, "name": "d23d283696290aae4b4c0ec152196129", "is_reserved": 0, "is_disabled": 0, "type": "electric_scooter"}, {"fusion_lon": 0.0, "lat": 38.9233615, "lon": -77.05678116666667, "bike_id": "b0cb201835d40e84695b3c82c19f7ef1", "rental_uris": {"android": "https://dc.lft.to/lastmile_qr_scan", "ios": "https://dc.lft.to/lastmile_qr_scan"}, "fusion_lat": 0.0, "name": "b0cb201835d40e84695b3c82c19f7ef1", "is_reserved": 0, "is_disabled": 0, "type": "electric_scooter"}, {"fusion_lon": 0.0, "lat": 38.918973333333334, "lon": -77.02506616666666, "bike_id": "32fc9eae05b45408fab340512c80a6f0", "rental_uris": {"android": "https://dc.lft.to/lastmile_qr_scan", "ios": "https://dc.lft.to/lastmile_qr_scan"}, "fusion_lat": 0.0, "name": "32fc9eae05b45408fab340512c80a6f0", "is_reserved": 0, "is_disabled": 0, "type": "electric_scooter"}, {"fusion_lon": 0.0, "lat": 38.924837833333335, "lon": -77.03825983333333, "bike_id": "f357774738e4bbde8b9155fb79d11e0f", "rental_uris": {"android": "https://dc.lft.to/lastmile_qr_scan", "ios": "https://dc.lft.to/lastmile_qr_scan"}, "fusion_lat": 0.0, "name": "f357774738e4bbde8b9155fb79d11e0f", "is_reserved": 0, "is_disabled": 0, "type": "electric_scooter"}, {"fusion_lon": 0.0, "lat": 38.881018833333336, "lon": -77.0261585, "bike_id": "84602bdfa73e078e083007f8d74f799d", "rental_uris": {"android": "https://dc.lft.to/lastmile_qr_scan", "ios": "https://dc.lft.to/lastmile_qr_scan"}, "fusion_lat": 0.0, "name": "84602bdfa73e078e083007f8d74f799d", "is_reserved": 0, "is_disabled": 0, "type": "electric_scooter"}, {"fusion_lon": 0.0, "lat": 38.892166, "lon": -77.00348233333334, "bike_id": "f08b1a7b111feba6446b4cf7fa27a032", "rental_uris": {"android": "https://dc.lft.to/lastmile_qr_scan", "ios": "https://dc.lft.to/lastmile_qr_scan"}, "fusion_lat": 0.0, "name": "f08b1a7b111feba6446b4cf7fa27a032", "is_reserved": 0, "is_disabled": 0, "type": "electric_scooter"}, {"fusion_lon": 0.0, "lat": 38.9162085, "lon": -77.04878316666667, "bike_id": "c7146523d129e38b3edbf0f8617b5915", "rental_uris": {"android": "https://dc.lft.to/lastmile_qr_scan", "ios": "https://dc.lft.to/lastmile_qr_scan"}, "fusion_lat": 0.0, "name": "c7146523d129e38b3edbf0f8617b5915", "is_reserved": 0, "is_disabled": 0, "type": "electric_scooter"}, {"fusion_lon": 0.0, "lat": 38.91356666666667, "lon": -77.033562, "bike_id": "f9d9678a5ed3558bf0ade7763db0ed08", "rental_uris": {"android": "https://dc.lft.to/lastmile_qr_scan", "ios": "https://dc.lft.to/lastmile_qr_scan"}, "fusion_lat": 0.0, "name": "f9d9678a5ed3558bf0ade7763db0ed08", "is_reserved": 0, "is_disabled": 0, "type": "electric_scooter"}, {"fusion_lon": 0.0, "lat": 38.92931266666667, "lon": -77.03268133333333, "bike_id": "2e8a05a5f3267ef6358ee0dea0d1e01a", "rental_uris": {"android": "https://dc.lft.to/lastmile_qr_scan", "ios": "https://dc.lft.to/lastmile_qr_scan"}, "fusion_lat": 0.0, "name": "2e8a05a5f3267ef6358ee0dea0d1e01a", "is_reserved": 0, "is_disabled": 0, "type": "electric_scooter"}, {"fusion_lon": 0.0, "lat": 38.938554, "lon": -76.99439766666667, "bike_id": "fb27e05ca902d0a8a1e0d97614a61a3d", "rental_uris": {"android": "https://dc.lft.to/lastmile_qr_scan", "ios": "https://dc.lft.to/lastmile_qr_scan"}, "fusion_lat": 0.0, "name": "fb27e05ca902d0a8a1e0d97614a61a3d", "is_reserved": 0, "is_disabled": 0, "type": "electric_scooter"}, {"fusion_lon": 0.0, "lat": 38.9319475, "lon": -77.0375165, "bike_id": "587ccc97d265060d9c830529488473c8", "rental_uris": {"android": "https://dc.lft.to/lastmile_qr_scan", "ios": "https://dc.lft.to/lastmile_qr_scan"}, "fusion_lat": 0.0, "name": "587ccc97d265060d9c830529488473c8", "is_reserved": 0, "is_disabled": 0, "type": "electric_scooter"}, {"fusion_lon": 0.0, "lat": 38.9208305, "lon": -77.02514833333333, "bike_id": "de52fc459d54e168122fea673abcc7a6", "rental_uris": {"android": "https://dc.lft.to/lastmile_qr_scan", "ios": "https://dc.lft.to/lastmile_qr_scan"}, "fusion_lat": 0.0, "name": "de52fc459d54e168122fea673abcc7a6", "is_reserved": 0, "is_disabled": 0, "type": "electric_scooter"}, {"fusion_lon": 0.0, "lat": 38.9265335, "lon": -77.02310283333334, "bike_id": "eeb767e3a3919831485ce73cada9e4bf", "rental_uris": {"android": "https://dc.lft.to/lastmile_qr_scan", "ios": "https://dc.lft.to/lastmile_qr_scan"}, "fusion_lat": 0.0, "name": "eeb767e3a3919831485ce73cada9e4bf", "is_reserved": 0, "is_disabled": 0, "type": "electric_scooter"}, {"fusion_lon": 0.0, "lat": 38.886213833333336, "lon": -77.0228075, "bike_id": "d04a242884eaa0f4a6c6f9f33c1b3c35", "rental_uris": {"android": "https://dc.lft.to/lastmile_qr_scan", "ios": "https://dc.lft.to/lastmile_qr_scan"}, "fusion_lat": 0.0, "name": "d04a242884eaa0f4a6c6f9f33c1b3c35", "is_reserved": 0, "is_disabled": 0, "type": "electric_scooter"}, {"fusion_lon": 0.0, "lat": 38.92213366666667, "lon": -77.04254333333333, "bike_id": "c2f827f8f35c780d5e9fbf5fdb182a6e", "rental_uris": {"android": "https://dc.lft.to/lastmile_qr_scan", "ios": "https://dc.lft.to/lastmile_qr_scan"}, "fusion_lat": 0.0, "name": "c2f827f8f35c780d5e9fbf5fdb182a6e", "is_reserved": 0, "is_disabled": 0, "type": "electric_scooter"}, {"fusion_lon": 0.0, "lat": 38.91844966666667, "lon": -77.04156216666667, "bike_id": "f414e99fa100d817522c5d546afbf82c", "rental_uris": {"android": "https://dc.lft.to/lastmile_qr_scan", "ios": "https://dc.lft.to/lastmile_qr_scan"}, "fusion_lat": 0.0, "name": "f414e99fa100d817522c5d546afbf82c", "is_reserved": 0, "is_disabled": 0, "type": "electric_scooter"}, {"fusion_lon": 0.0, "lat": 38.90963633333333, "lon": -77.0452315, "bike_id": "4d27a44c72c22722c0e44eb896c4b9c0", "rental_uris": {"android": "https://dc.lft.to/lastmile_qr_scan", "ios": "https://dc.lft.to/lastmile_qr_scan"}, "fusion_lat": 0.0, "name": "4d27a44c72c22722c0e44eb896c4b9c0", "is_reserved": 0, "is_disabled": 0, "type": "electric_scooter"}, {"fusion_lon": 0.0, "lat": 38.91736366666667, "lon": -77.021193, "bike_id": "ab8bec12fd1318a1299cd8894f5d7a1f", "rental_uris": {"android": "https://dc.lft.to/lastmile_qr_scan", "ios": "https://dc.lft.to/lastmile_qr_scan"}, "fusion_lat": 0.0, "name": "ab8bec12fd1318a1299cd8894f5d7a1f", "is_reserved": 0, "is_disabled": 0, "type": "electric_scooter"}, {"fusion_lon": 0.0, "lat": 38.916935, "lon": -77.04112483333333, "bike_id": "4a20c3fd182e4c80472c326325bbb73b", "rental_uris": {"android": "https://dc.lft.to/lastmile_qr_scan", "ios": "https://dc.lft.to/lastmile_qr_scan"}, "fusion_lat": 0.0, "name": "4a20c3fd182e4c80472c326325bbb73b", "is_reserved": 0, "is_disabled": 0, "type": "electric_scooter"}, {"fusion_lon": 0.0, "lat": 38.918615, "lon": -76.9609155, "bike_id": "36f7d85c0ebd60dd1b6b9b23750efa35", "rental_uris": {"android": "https://dc.lft.to/lastmile_qr_scan", "ios": "https://dc.lft.to/lastmile_qr_scan"}, "fusion_lat": 0.0, "name": "36f7d85c0ebd60dd1b6b9b23750efa35", "is_reserved": 0, "is_disabled": 0, "type": "electric_bike"}, {"fusion_lon": 0.0, "lat": 38.909310166666664, "lon": -77.0574625, "bike_id": "5162cab1079652b3ea82b34a6140b418", "rental_uris": {"android": "https://dc.lft.to/lastmile_qr_scan", "ios": "https://dc.lft.to/lastmile_qr_scan"}, "fusion_lat": 0.0, "name": "5162cab1079652b3ea82b34a6140b418", "is_reserved": 0, "is_disabled": 0, "type": "electric_scooter"}, {"fusion_lon": 0.0, "lat": 38.94899766666666, "lon": -77.03342116666667, "bike_id": "ca1da4c14265f315b1f6540c79e77b9d", "rental_uris": {"android": "https://dc.lft.to/lastmile_qr_scan", "ios": "https://dc.lft.to/lastmile_qr_scan"}, "fusion_lat": 0.0, "name": "ca1da4c14265f315b1f6540c79e77b9d", "is_reserved": 0, "is_disabled": 0, "type": "electric_scooter"}, {"fusion_lon": 0.0, "lat": 38.90147133333333, "lon": -76.97419966666666, "bike_id": "808b4ef8c1f849f0977bd0a6dbd5f4db", "rental_uris": {"android": "https://dc.lft.to/lastmile_qr_scan", "ios": "https://dc.lft.to/lastmile_qr_scan"}, "fusion_lat": 0.0, "name": "808b4ef8c1f849f0977bd0a6dbd5f4db", "is_reserved": 0, "is_disabled": 0, "type": "electric_scooter"}, {"fusion_lon": 0.0, "lat": 38.8958005, "lon": -77.04145383333334, "bike_id": "fcd0c6cbd4ff84845dbd9191956c7d52", "rental_uris": {"android": "https://dc.lft.to/lastmile_qr_scan", "ios": "https://dc.lft.to/lastmile_qr_scan"}, "fusion_lat": 0.0, "name": "fcd0c6cbd4ff84845dbd9191956c7d52", "is_reserved": 0, "is_disabled": 0, "type": "electric_scooter"}, {"fusion_lon": 0.0, "lat": 38.92725166666666, "lon": -77.03541483333333, "bike_id": "31ddf4f2aa6f759cd72baa77148ce996", "rental_uris": {"android": "https://dc.lft.to/lastmile_qr_scan", "ios": "https://dc.lft.to/lastmile_qr_scan"}, "fusion_lat": 0.0, "name": "31ddf4f2aa6f759cd72baa77148ce996", "is_reserved": 0, "is_disabled": 0, "type": "electric_scooter"}, {"fusion_lon": 0.0, "lat": 38.9980185, "lon": -77.02889133333333, "bike_id": "e7b798dcf3eb940e845c6d707625f424", "rental_uris": {"android": "https://dc.lft.to/lastmile_qr_scan", "ios": "https://dc.lft.to/lastmile_qr_scan"}, "fusion_lat": 0.0, "name": "e7b798dcf3eb940e845c6d707625f424", "is_reserved": 0, "is_disabled": 0, "type": "electric_bike"}, {"fusion_lon": 0.0, "lat": 38.880327333333334, "lon": -77.00523316666667, "bike_id": "faabab9e554c05a07aa9ef11942e7a3b", "rental_uris": {"android": "https://dc.lft.to/lastmile_qr_scan", "ios": "https://dc.lft.to/lastmile_qr_scan"}, "fusion_lat": 0.0, "name": "faabab9e554c05a07aa9ef11942e7a3b", "is_reserved": 0, "is_disabled": 0, "type": "electric_scooter"}, {"fusion_lon": 0.0, "lat": 38.87700933333333, "lon": -77.017718, "bike_id": "bfe68a8df3ddb6a947a823ee702da978", "rental_uris": {"android": "https://dc.lft.to/lastmile_qr_scan", "ios": "https://dc.lft.to/lastmile_qr_scan"}, "fusion_lat": 0.0, "name": "bfe68a8df3ddb6a947a823ee702da978", "is_reserved": 0, "is_disabled": 0, "type": "electric_scooter"}, {"fusion_lon": 0.0, "lat": 38.9002255, "lon": -76.99354133333334, "bike_id": "a8f216c673cc7efc5168a40cec5a5933", "rental_uris": {"android": "https://dc.lft.to/lastmile_qr_scan", "ios": "https://dc.lft.to/lastmile_qr_scan"}, "fusion_lat": 0.0, "name": "a8f216c673cc7efc5168a40cec5a5933", "is_reserved": 0, "is_disabled": 0, "type": "electric_scooter"}, {"fusion_lon": 0.0, "lat": 38.916554833333336, "lon": -77.03856833333333, "bike_id": "0f97670c8b6e344ac7bfe519a3f31e87", "rental_uris": {"android": "https://dc.lft.to/lastmile_qr_scan", "ios": "https://dc.lft.to/lastmile_qr_scan"}, "fusion_lat": 0.0, "name": "0f97670c8b6e344ac7bfe519a3f31e87", "is_reserved": 0, "is_disabled": 0, "type": "electric_scooter"}, {"fusion_lon": 0.0, "lat": 38.906939666666666, "lon": -76.9525525, "bike_id": "6cc22832853b0c87b89d2fe59886cdc9", "rental_uris": {"android": "https://dc.lft.to/lastmile_qr_scan", "ios": "https://dc.lft.to/lastmile_qr_scan"}, "fusion_lat": 0.0, "name": "6cc22832853b0c87b89d2fe59886cdc9", "is_reserved": 0, "is_disabled": 0, "type": "electric_bike"}, {"fusion_lon": 0.0, "lat": 38.927592833333335, "lon": -77.03214166666666, "bike_id": "d2d48a7389e2a62a82bda1d526021ced", "rental_uris": {"android": "https://dc.lft.to/lastmile_qr_scan", "ios": "https://dc.lft.to/lastmile_qr_scan"}, "fusion_lat": 0.0, "name": "d2d48a7389e2a62a82bda1d526021ced", "is_reserved": 0, "is_disabled": 0, "type": "electric_scooter"}, {"fusion_lon": 0.0, "lat": 38.897794833333336, "lon": -77.0119985, "bike_id": "11714dd0dbeeb5edf21393c3bf15805a", "rental_uris": {"android": "https://dc.lft.to/lastmile_qr_scan", "ios": "https://dc.lft.to/lastmile_qr_scan"}, "fusion_lat": 0.0, "name": "11714dd0dbeeb5edf21393c3bf15805a", "is_reserved": 0, "is_disabled": 0, "type": "electric_scooter"}, {"fusion_lon": 0.0, "lat": 38.92896983333333, "lon": -77.03271483333333, "bike_id": "fba1fc14d1b3c308428c5b3cf93971dc", "rental_uris": {"android": "https://dc.lft.to/lastmile_qr_scan", "ios": "https://dc.lft.to/lastmile_qr_scan"}, "fusion_lat": 0.0, "name": "fba1fc14d1b3c308428c5b3cf93971dc", "is_reserved": 0, "is_disabled": 0, "type": "electric_scooter"}, {"fusion_lon": 0.0, "lat": 38.9240025, "lon": -77.04069016666666, "bike_id": "99b369f70797665f3d23a80360798f14", "rental_uris": {"android": "https://dc.lft.to/lastmile_qr_scan", "ios": "https://dc.lft.to/lastmile_qr_scan"}, "fusion_lat": 0.0, "name": "99b369f70797665f3d23a80360798f14", "is_reserved": 0, "is_disabled": 0, "type": "electric_scooter"}, {"fusion_lon": 0.0, "lat": 38.9348815, "lon": -77.07273833333333, "bike_id": "0fa740024a7775b61e4854a4fdff186d", "rental_uris": {"android": "https://dc.lft.to/lastmile_qr_scan", "ios": "https://dc.lft.to/lastmile_qr_scan"}, "fusion_lat": 0.0, "name": "0fa740024a7775b61e4854a4fdff186d", "is_reserved": 0, "is_disabled": 0, "type": "electric_scooter"}, {"fusion_lon": 0.0, "lat": 38.923382, "lon": -77.02149383333334, "bike_id": "442437bb8a6d84916a9c6069217ba59b", "rental_uris": {"android": "https://dc.lft.to/lastmile_qr_scan", "ios": "https://dc.lft.to/lastmile_qr_scan"}, "fusion_lat": 0.0, "name": "442437bb8a6d84916a9c6069217ba59b", "is_reserved": 0, "is_disabled": 0, "type": "electric_scooter"}, {"fusion_lon": 0.0, "lat": 38.8980975, "lon": -77.03133766666667, "bike_id": "f15adc82152d8fbe39616f7cc9518199", "rental_uris": {"android": "https://dc.lft.to/lastmile_qr_scan", "ios": "https://dc.lft.to/lastmile_qr_scan"}, "fusion_lat": 0.0, "name": "f15adc82152d8fbe39616f7cc9518199", "is_reserved": 0, "is_disabled": 0, "type": "electric_scooter"}, {"fusion_lon": 0.0, "lat": 38.924549, "lon": -76.9991585, "bike_id": "b292576b2550a33647bc6af8602e7e04", "rental_uris": {"android": "https://dc.lft.to/lastmile_qr_scan", "ios": "https://dc.lft.to/lastmile_qr_scan"}, "fusion_lat": 0.0, "name": "b292576b2550a33647bc6af8602e7e04", "is_reserved": 0, "is_disabled": 0, "type": "electric_scooter"}, {"fusion_lon": 0.0, "lat": 38.9229825, "lon": -76.99781233333333, "bike_id": "598c26dcc5aa68588306fc4e9e50af83", "rental_uris": {"android": "https://dc.lft.to/lastmile_qr_scan", "ios": "https://dc.lft.to/lastmile_qr_scan"}, "fusion_lat": 0.0, "name": "598c26dcc5aa68588306fc4e9e50af83", "is_reserved": 0, "is_disabled": 0, "type": "electric_scooter"}, {"fusion_lon": 0.0, "lat": 38.899109333333335, "lon": -76.9800665, "bike_id": "642336dd80af53ad186f24fdd9909b39", "rental_uris": {"android": "https://dc.lft.to/lastmile_qr_scan", "ios": "https://dc.lft.to/lastmile_qr_scan"}, "fusion_lat": 0.0, "name": "642336dd80af53ad186f24fdd9909b39", "is_reserved": 0, "is_disabled": 0, "type": "electric_scooter"}, {"fusion_lon": 0.0, "lat": 38.898592666666666, "lon": -77.027879, "bike_id": "9ab268ecd46bcd7a1ea2186492c6a35b", "rental_uris": {"android": "https://dc.lft.to/lastmile_qr_scan", "ios": "https://dc.lft.to/lastmile_qr_scan"}, "fusion_lat": 0.0, "name": "9ab268ecd46bcd7a1ea2186492c6a35b", "is_reserved": 0, "is_disabled": 0, "type": "electric_scooter"}, {"fusion_lon": 0.0, "lat": 38.9431915, "lon": -77.0615105, "bike_id": "558c94ddab8c420572d816dbba9907f8", "rental_uris": {"android": "https://dc.lft.to/lastmile_qr_scan", "ios": "https://dc.lft.to/lastmile_qr_scan"}, "fusion_lat": 0.0, "name": "558c94ddab8c420572d816dbba9907f8", "is_reserved": 0, "is_disabled": 0, "type": "electric_scooter"}, {"fusion_lon": 0.0, "lat": 38.915497, "lon": -77.01208883333334, "bike_id": "f05155525a24407270693561004a7567", "rental_uris": {"android": "https://dc.lft.to/lastmile_qr_scan", "ios": "https://dc.lft.to/lastmile_qr_scan"}, "fusion_lat": 0.0, "name": "f05155525a24407270693561004a7567", "is_reserved": 0, "is_disabled": 0, "type": "electric_scooter"}, {"fusion_lon": 0.0, "lat": 38.926689333333336, "lon": -77.05441683333333, "bike_id": "e9d2a182729ab1677ee23a7015281945", "rental_uris": {"android": "https://dc.lft.to/lastmile_qr_scan", "ios": "https://dc.lft.to/lastmile_qr_scan"}, "fusion_lat": 0.0, "name": "e9d2a182729ab1677ee23a7015281945", "is_reserved": 0, "is_disabled": 0, "type": "electric_scooter"}, {"fusion_lon": 0.0, "lat": 38.90704233333334, "lon": -76.98701033333333, "bike_id": "d6af2977a83123ef2c9155918d98aad8", "rental_uris": {"android": "https://dc.lft.to/lastmile_qr_scan", "ios": "https://dc.lft.to/lastmile_qr_scan"}, "fusion_lat": 0.0, "name": "d6af2977a83123ef2c9155918d98aad8", "is_reserved": 0, "is_disabled": 0, "type": "electric_scooter"}, {"fusion_lon": 0.0, "lat": 38.916426666666666, "lon": -77.06948833333334, "bike_id": "2539d96a8edd34fee975fef9bdb5d613", "rental_uris": {"android": "https://dc.lft.to/lastmile_qr_scan", "ios": "https://dc.lft.to/lastmile_qr_scan"}, "fusion_lat": 0.0, "name": "2539d96a8edd34fee975fef9bdb5d613", "is_reserved": 0, "is_disabled": 0, "type": "electric_scooter"}, {"fusion_lon": 0.0, "lat": 38.8648395, "lon": -76.977486, "bike_id": "34fcfcc96927a55201c9e66ed80bcf50", "rental_uris": {"android": "https://dc.lft.to/lastmile_qr_scan", "ios": "https://dc.lft.to/lastmile_qr_scan"}, "fusion_lat": 0.0, "name": "34fcfcc96927a55201c9e66ed80bcf50", "is_reserved": 0, "is_disabled": 0, "type": "electric_bike"}, {"fusion_lon": 0.0, "lat": 38.92159433333333, "lon": -77.02092616666667, "bike_id": "994e57fdbdf38a45308931c4a48d63a8", "rental_uris": {"android": "https://dc.lft.to/lastmile_qr_scan", "ios": "https://dc.lft.to/lastmile_qr_scan"}, "fusion_lat": 0.0, "name": "994e57fdbdf38a45308931c4a48d63a8", "is_reserved": 0, "is_disabled": 0, "type": "electric_scooter"}, {"fusion_lon": 0.0, "lat": 38.916804166666665, "lon": -77.015793, "bike_id": "fabdb8c6e38fbde4fdc2db81e1b9b59e", "rental_uris": {"android": "https://dc.lft.to/lastmile_qr_scan", "ios": "https://dc.lft.to/lastmile_qr_scan"}, "fusion_lat": 0.0, "name": "fabdb8c6e38fbde4fdc2db81e1b9b59e", "is_reserved": 0, "is_disabled": 0, "type": "electric_scooter"}, {"fusion_lon": 0.0, "lat": 38.888216666666665, "lon": -76.97701016666667, "bike_id": "89c5b0efc03b15ad8e1638a4c3622ae6", "rental_uris": {"android": "https://dc.lft.to/lastmile_qr_scan", "ios": "https://dc.lft.to/lastmile_qr_scan"}, "fusion_lat": 0.0, "name": "89c5b0efc03b15ad8e1638a4c3622ae6", "is_reserved": 0, "is_disabled": 0, "type": "electric_scooter"}, {"fusion_lon": 0.0, "lat": 38.9015455, "lon": -76.9807505, "bike_id": "7a488cfe69b1e84df63f744a09bad97a", "rental_uris": {"android": "https://dc.lft.to/lastmile_qr_scan", "ios": "https://dc.lft.to/lastmile_qr_scan"}, "fusion_lat": 0.0, "name": "7a488cfe69b1e84df63f744a09bad97a", "is_reserved": 0, "is_disabled": 0, "type": "electric_scooter"}, {"fusion_lon": 0.0, "lat": 38.931268333333335, "lon": -77.0197035, "bike_id": "dd5e9b937907da67ec7418ca5b345ffe", "rental_uris": {"android": "https://dc.lft.to/lastmile_qr_scan", "ios": "https://dc.lft.to/lastmile_qr_scan"}, "fusion_lat": 0.0, "name": "dd5e9b937907da67ec7418ca5b345ffe", "is_reserved": 0, "is_disabled": 0, "type": "electric_bike"}, {"fusion_lon": 0.0, "lat": 38.8960335, "lon": -77.04465933333333, "bike_id": "205a896c876f93fe9bdac4424716b34b", "rental_uris": {"android": "https://dc.lft.to/lastmile_qr_scan", "ios": "https://dc.lft.to/lastmile_qr_scan"}, "fusion_lat": 0.0, "name": "205a896c876f93fe9bdac4424716b34b", "is_reserved": 0, "is_disabled": 0, "type": "electric_scooter"}, {"fusion_lon": 0.0, "lat": 38.924736333333335, "lon": -77.05234266666666, "bike_id": "7ff748801863e69f638ec138413186e7", "rental_uris": {"android": "https://dc.lft.to/lastmile_qr_scan", "ios": "https://dc.lft.to/lastmile_qr_scan"}, "fusion_lat": 0.0, "name": "7ff748801863e69f638ec138413186e7", "is_reserved": 0, "is_disabled": 0, "type": "electric_scooter"}, {"fusion_lon": 0.0, "lat": 38.92670733333333, "lon": -77.0275545, "bike_id": "705fd4ca02ff1884e8de51df7686e775", "rental_uris": {"android": "https://dc.lft.to/lastmile_qr_scan", "ios": "https://dc.lft.to/lastmile_qr_scan"}, "fusion_lat": 0.0, "name": "705fd4ca02ff1884e8de51df7686e775", "is_reserved": 0, "is_disabled": 0, "type": "electric_scooter"}, {"fusion_lon": 0.0, "lat": 39.0292475, "lon": -77.01363, "bike_id": "0d09f920303a077cfbc5b1aacf520bd4", "rental_uris": {"android": "https://dc.lft.to/lastmile_qr_scan", "ios": "https://dc.lft.to/lastmile_qr_scan"}, "fusion_lat": 0.0, "name": "0d09f920303a077cfbc5b1aacf520bd4", "is_reserved": 0, "is_disabled": 0, "type": "electric_bike"}, {"fusion_lon": 0.0, "lat": 38.91705733333333, "lon": -77.03728466666666, "bike_id": "bbfa41fba442bc58bd12a14f2b534dbb", "rental_uris": {"android": "https://dc.lft.to/lastmile_qr_scan", "ios": "https://dc.lft.to/lastmile_qr_scan"}, "fusion_lat": 0.0, "name": "bbfa41fba442bc58bd12a14f2b534dbb", "is_reserved": 0, "is_disabled": 0, "type": "electric_scooter"}, {"fusion_lon": 0.0, "lat": 38.90701766666667, "lon": -77.00976216666666, "bike_id": "69cc4fe70d67b3f6816448836b09cc43", "rental_uris": {"android": "https://dc.lft.to/lastmile_qr_scan", "ios": "https://dc.lft.to/lastmile_qr_scan"}, "fusion_lat": 0.0, "name": "69cc4fe70d67b3f6816448836b09cc43", "is_reserved": 0, "is_disabled": 0, "type": "electric_scooter"}, {"fusion_lon": 0.0, "lat": 38.89959316666667, "lon": -77.01697933333334, "bike_id": "d024e7871180080d8a980c0ea1f120d5", "rental_uris": {"android": "https://dc.lft.to/lastmile_qr_scan", "ios": "https://dc.lft.to/lastmile_qr_scan"}, "fusion_lat": 0.0, "name": "d024e7871180080d8a980c0ea1f120d5", "is_reserved": 0, "is_disabled": 0, "type": "electric_scooter"}, {"fusion_lon": 0.0, "lat": 38.93003366666667, "lon": -77.02122166666666, "bike_id": "1537885e809b94f0cc5467ba74b69416", "rental_uris": {"android": "https://dc.lft.to/lastmile_qr_scan", "ios": "https://dc.lft.to/lastmile_qr_scan"}, "fusion_lat": 0.0, "name": "1537885e809b94f0cc5467ba74b69416", "is_reserved": 0, "is_disabled": 0, "type": "electric_scooter"}, {"fusion_lon": 0.0, "lat": 38.887123, "lon": -76.98340716666667, "bike_id": "b2dfd8a95c8a05a753fa14a9f90ec768", "rental_uris": {"android": "https://dc.lft.to/lastmile_qr_scan", "ios": "https://dc.lft.to/lastmile_qr_scan"}, "fusion_lat": 0.0, "name": "b2dfd8a95c8a05a753fa14a9f90ec768", "is_reserved": 0, "is_disabled": 0, "type": "electric_scooter"}, {"fusion_lon": 0.0, "lat": 38.909190833333334, "lon": -76.9898155, "bike_id": "c62a0be1b01d21266003c456e93cbc63", "rental_uris": {"android": "https://dc.lft.to/lastmile_qr_scan", "ios": "https://dc.lft.to/lastmile_qr_scan"}, "fusion_lat": 0.0, "name": "c62a0be1b01d21266003c456e93cbc63", "is_reserved": 0, "is_disabled": 0, "type": "electric_scooter"}, {"fusion_lon": 0.0, "lat": 38.8995265, "lon": -77.04625766666666, "bike_id": "25707051f51cd62a53f807c5b418eae8", "rental_uris": {"android": "https://dc.lft.to/lastmile_qr_scan", "ios": "https://dc.lft.to/lastmile_qr_scan"}, "fusion_lat": 0.0, "name": "25707051f51cd62a53f807c5b418eae8", "is_reserved": 0, "is_disabled": 0, "type": "electric_scooter"}, {"fusion_lon": 0.0, "lat": 38.88505116666666, "lon": -77.0057015, "bike_id": "2ad0777de0160dbc663c2ff2e23ad08d", "rental_uris": {"android": "https://dc.lft.to/lastmile_qr_scan", "ios": "https://dc.lft.to/lastmile_qr_scan"}, "fusion_lat": 0.0, "name": "2ad0777de0160dbc663c2ff2e23ad08d", "is_reserved": 0, "is_disabled": 0, "type": "electric_scooter"}, {"fusion_lon": 0.0, "lat": 38.8806175, "lon": -77.00528366666667, "bike_id": "d14697a5060724bc445a30e151b98c61", "rental_uris": {"android": "https://dc.lft.to/lastmile_qr_scan", "ios": "https://dc.lft.to/lastmile_qr_scan"}, "fusion_lat": 0.0, "name": "d14697a5060724bc445a30e151b98c61", "is_reserved": 0, "is_disabled": 0, "type": "electric_scooter"}, {"fusion_lon": 0.0, "lat": 38.89737216666666, "lon": -77.043476, "bike_id": "6ee69214d33137d26cff6d8d83bf8bcd", "rental_uris": {"android": "https://dc.lft.to/lastmile_qr_scan", "ios": "https://dc.lft.to/lastmile_qr_scan"}, "fusion_lat": 0.0, "name": "6ee69214d33137d26cff6d8d83bf8bcd", "is_reserved": 0, "is_disabled": 0, "type": "electric_scooter"}, {"fusion_lon": 0.0, "lat": 38.9064135, "lon": -77.048705, "bike_id": "35a0940f2952f4d7f6562ab203ee97a8", "rental_uris": {"android": "https://dc.lft.to/lastmile_qr_scan", "ios": "https://dc.lft.to/lastmile_qr_scan"}, "fusion_lat": 0.0, "name": "35a0940f2952f4d7f6562ab203ee97a8", "is_reserved": 0, "is_disabled": 0, "type": "electric_scooter"}, {"fusion_lon": 0.0, "lat": 38.91694833333333, "lon": -77.03821916666666, "bike_id": "0c037aee5a29a31e051116acd7a42ff5", "rental_uris": {"android": "https://dc.lft.to/lastmile_qr_scan", "ios": "https://dc.lft.to/lastmile_qr_scan"}, "fusion_lat": 0.0, "name": "0c037aee5a29a31e051116acd7a42ff5", "is_reserved": 0, "is_disabled": 0, "type": "electric_scooter"}, {"fusion_lon": 0.0, "lat": 38.903142833333334, "lon": -77.0247665, "bike_id": "fa48290a187d94e8e54d30310bafd3dc", "rental_uris": {"android": "https://dc.lft.to/lastmile_qr_scan", "ios": "https://dc.lft.to/lastmile_qr_scan"}, "fusion_lat": 0.0, "name": "fa48290a187d94e8e54d30310bafd3dc", "is_reserved": 0, "is_disabled": 0, "type": "electric_scooter"}, {"fusion_lon": 0.0, "lat": 38.9265225, "lon": -77.02415216666667, "bike_id": "10243101ca485e17563c617deb1bbe5b", "rental_uris": {"android": "https://dc.lft.to/lastmile_qr_scan", "ios": "https://dc.lft.to/lastmile_qr_scan"}, "fusion_lat": 0.0, "name": "10243101ca485e17563c617deb1bbe5b", "is_reserved": 0, "is_disabled": 0, "type": "electric_scooter"}, {"fusion_lon": 0.0, "lat": 38.924814833333336, "lon": -77.021954, "bike_id": "d25c794b9cdbd34be680ec2dc6f17952", "rental_uris": {"android": "https://dc.lft.to/lastmile_qr_scan", "ios": "https://dc.lft.to/lastmile_qr_scan"}, "fusion_lat": 0.0, "name": "d25c794b9cdbd34be680ec2dc6f17952", "is_reserved": 0, "is_disabled": 0, "type": "electric_scooter"}, {"fusion_lon": 0.0, "lat": 38.900166166666665, "lon": -76.999105, "bike_id": "1b9bef64f43536ff8c25fa72237191cd", "rental_uris": {"android": "https://dc.lft.to/lastmile_qr_scan", "ios": "https://dc.lft.to/lastmile_qr_scan"}, "fusion_lat": 0.0, "name": "1b9bef64f43536ff8c25fa72237191cd", "is_reserved": 0, "is_disabled": 0, "type": "electric_scooter"}, {"fusion_lon": 0.0, "lat": 38.92057716666667, "lon": -76.97071733333334, "bike_id": "29d5666e9d996762c7a2bac8a6a717ad", "rental_uris": {"android": "https://dc.lft.to/lastmile_qr_scan", "ios": "https://dc.lft.to/lastmile_qr_scan"}, "fusion_lat": 0.0, "name": "29d5666e9d996762c7a2bac8a6a717ad", "is_reserved": 0, "is_disabled": 0, "type": "electric_bike"}, {"fusion_lon": 0.0, "lat": 38.8922395, "lon": -77.0216285, "bike_id": "97e9dee9b0cea63992c474690a6c5ac3", "rental_uris": {"android": "https://dc.lft.to/lastmile_qr_scan", "ios": "https://dc.lft.to/lastmile_qr_scan"}, "fusion_lat": 0.0, "name": "97e9dee9b0cea63992c474690a6c5ac3", "is_reserved": 0, "is_disabled": 0, "type": "electric_scooter"}, {"fusion_lon": 0.0, "lat": 38.938877833333336, "lon": -77.03221183333333, "bike_id": "879fb30f2b59db4f0acac7a21efab2fc", "rental_uris": {"android": "https://dc.lft.to/lastmile_qr_scan", "ios": "https://dc.lft.to/lastmile_qr_scan"}, "fusion_lat": 0.0, "name": "879fb30f2b59db4f0acac7a21efab2fc", "is_reserved": 0, "is_disabled": 0, "type": "electric_scooter"}, {"fusion_lon": 0.0, "lat": 38.89044883333333, "lon": -76.9375135, "bike_id": "42a3dc8e2a357fa1653a6a93508240d8", "rental_uris": {"android": "https://dc.lft.to/lastmile_qr_scan", "ios": "https://dc.lft.to/lastmile_qr_scan"}, "fusion_lat": 0.0, "name": "42a3dc8e2a357fa1653a6a93508240d8", "is_reserved": 0, "is_disabled": 0, "type": "electric_scooter"}, {"fusion_lon": 0.0, "lat": 38.892252, "lon": -77.02736216666666, "bike_id": "35eb387661e66abb2728cb0dabb1d271", "rental_uris": {"android": "https://dc.lft.to/lastmile_qr_scan", "ios": "https://dc.lft.to/lastmile_qr_scan"}, "fusion_lat": 0.0, "name": "35eb387661e66abb2728cb0dabb1d271", "is_reserved": 0, "is_disabled": 0, "type": "electric_scooter"}, {"fusion_lon": 0.0, "lat": 38.906370833333334, "lon": -77.04173816666666, "bike_id": "1eb36b6e4088e2f82807b1c04c749f83", "rental_uris": {"android": "https://dc.lft.to/lastmile_qr_scan", "ios": "https://dc.lft.to/lastmile_qr_scan"}, "fusion_lat": 0.0, "name": "1eb36b6e4088e2f82807b1c04c749f83", "is_reserved": 0, "is_disabled": 0, "type": "electric_scooter"}, {"fusion_lon": 0.0, "lat": 38.89479566666667, "lon": -77.00137216666667, "bike_id": "75ad1778d5e957813731d8c1821efbff", "rental_uris": {"android": "https://dc.lft.to/lastmile_qr_scan", "ios": "https://dc.lft.to/lastmile_qr_scan"}, "fusion_lat": 0.0, "name": "75ad1778d5e957813731d8c1821efbff", "is_reserved": 0, "is_disabled": 0, "type": "electric_scooter"}, {"fusion_lon": 0.0, "lat": 38.898235666666665, "lon": -76.93011233333333, "bike_id": "468325229a6da58e34f3fe2d91e92fa7", "rental_uris": {"android": "https://dc.lft.to/lastmile_qr_scan", "ios": "https://dc.lft.to/lastmile_qr_scan"}, "fusion_lat": 0.0, "name": "468325229a6da58e34f3fe2d91e92fa7", "is_reserved": 0, "is_disabled": 0, "type": "electric_scooter"}, {"fusion_lon": 0.0, "lat": 38.900550833333334, "lon": -77.0296355, "bike_id": "28364571fe3e2ba830a6fe244b893d54", "rental_uris": {"android": "https://dc.lft.to/lastmile_qr_scan", "ios": "https://dc.lft.to/lastmile_qr_scan"}, "fusion_lat": 0.0, "name": "28364571fe3e2ba830a6fe244b893d54", "is_reserved": 0, "is_disabled": 0, "type": "electric_scooter"}, {"fusion_lon": 0.0, "lat": 38.89986733333333, "lon": -77.01608383333334, "bike_id": "8b1ff6f47a403048a19fa5061526d468", "rental_uris": {"android": "https://dc.lft.to/lastmile_qr_scan", "ios": "https://dc.lft.to/lastmile_qr_scan"}, "fusion_lat": 0.0, "name": "8b1ff6f47a403048a19fa5061526d468", "is_reserved": 0, "is_disabled": 0, "type": "electric_scooter"}, {"fusion_lon": 0.0, "lat": 38.909346, "lon": -77.05468533333334, "bike_id": "db85ca7096ff4a46c9baa964b7649d7c", "rental_uris": {"android": "https://dc.lft.to/lastmile_qr_scan", "ios": "https://dc.lft.to/lastmile_qr_scan"}, "fusion_lat": 0.0, "name": "db85ca7096ff4a46c9baa964b7649d7c", "is_reserved": 0, "is_disabled": 0, "type": "electric_scooter"}, {"fusion_lon": 0.0, "lat": 38.899992833333336, "lon": -77.03174516666667, "bike_id": "e09e5d59aac4c45f5c491dfa0323f502", "rental_uris": {"android": "https://dc.lft.to/lastmile_qr_scan", "ios": "https://dc.lft.to/lastmile_qr_scan"}, "fusion_lat": 0.0, "name": "e09e5d59aac4c45f5c491dfa0323f502", "is_reserved": 0, "is_disabled": 0, "type": "electric_scooter"}, {"fusion_lon": 0.0, "lat": 38.926025833333334, "lon": -77.02158216666666, "bike_id": "958246770ec264f05aa339db0470091d", "rental_uris": {"android": "https://dc.lft.to/lastmile_qr_scan", "ios": "https://dc.lft.to/lastmile_qr_scan"}, "fusion_lat": 0.0, "name": "958246770ec264f05aa339db0470091d", "is_reserved": 0, "is_disabled": 0, "type": "electric_scooter"}, {"fusion_lon": 0.0, "lat": 38.92465283333333, "lon": -77.08046133333333, "bike_id": "ec0331df390aff01cf8c7c92698d2670", "rental_uris": {"android": "https://dc.lft.to/lastmile_qr_scan", "ios": "https://dc.lft.to/lastmile_qr_scan"}, "fusion_lat": 0.0, "name": "ec0331df390aff01cf8c7c92698d2670", "is_reserved": 0, "is_disabled": 0, "type": "electric_scooter"}, {"fusion_lon": 0.0, "lat": 38.86340533333333, "lon": -76.987145, "bike_id": "14a8e7d2259bd13fb37dac62bf205ef8", "rental_uris": {"android": "https://dc.lft.to/lastmile_qr_scan", "ios": "https://dc.lft.to/lastmile_qr_scan"}, "fusion_lat": 0.0, "name": "14a8e7d2259bd13fb37dac62bf205ef8", "is_reserved": 0, "is_disabled": 0, "type": "electric_scooter"},